{"last_updated":1730272153,"ttl":60,"version":"2.2","data":{"bikes":[{"bike_id":"e0594c9b-1912-4f09-958a-91f8a4561c29","system_id":"levelo_inurba_marseille","lat":43.24389,"lon":5.37045,"is_reserved":false,"is_disabled":false,"rental_uris":{"android":"levelo://app?vid=e0594c9b-1912-4f09-958a-91f8a4561c29","ios":"levelo://app?vid=e0594c9b-1912-4f09-958a-91f8a4561c29"},"vehicle_type_id":"4","last_reported":1730272154,"current_range_meters":39200,"station_id":"ce4bhhh2rcd13ifvqfk0","pricing_plan_id":"cebpf4jnsgd1na2vs0mg"},{"bike_id":"4ec6463a-7997-42f6-88b2-6fda5a71c163","system_id":"levelo_inurba_marseille","lat":43.25104,"lon":5.40319,"is_reserved":false,"is_disabled":false,"rental_uris":{"android":"levelo://app?vid=4ec6463a-7997-42f6-88b2-6fda5a71c163","ios":"levelo://app?vid=4ec6463a-7997-42f6-88b2-6fda5a71c163"},"vehicle_type_id":"4","last_reported":1730272154,"current_range_meters":38400,"station_id":"ce4bhlh2rcd13ifvqgig","pricing_plan_id":"cebpf4jnsgd1na2vs0mg"},{"bike_id":"6daefb7d-890b-4927-bca4-1e9b57c2727d","system_id":"levelo_inurba_marseille","lat":43.27187,"lon":5.41001,"is_reserved":false,"is_disabled":false,"rental_uris":{"android":"levelo://app?vid=6daefb7d-890b-4927-bca4-1e9b57c2727d","ios":"levelo://app?vid=6daefb7d-890b-4927-bca4-1e9b57c2727d"},"vehicle_type_id":"4","last_reported":1730272154,"current_range_meters":37600,"station_id":"ce4bhl12rcd13ifvqgf0","pricing_plan_id":"cebpf4jnsgd1na2vs0mg"},{"bike_id":"e1d18b81-986d-4e87-b61a-22535be9c7fe","system_id":"levelo_inurba_marseille","lat":43.27073,"lon":5.42281,"is_reserved":false,"is_disabled":false,"rental_uris":{"android":"levelo://app?vid=e1d18b81-986d-4e87-b61a-22535be9c7fe","ios":"levelo://app?vid=e1d18b81-986d-4e87-b61a-22535be9c7fe"},"vehicle_type_id":"4","last_reported":1730272154,"current_range_meters":39200,"station_id":"ce4bhk92rcd13ifvqgb0","pricing_plan_id":"cebpf4jnsgd1na2vs0mg"},{"bike_id":"389a0521-41ae-44e7-b647-f0e587e1b12f","system_id":"levelo_inurba_marseille","lat":43.24175,"lon":5.39731,"is_reserved":false,"is_disabled":false,"rental_uris":{"android":"levelo://app?vid=389a0521-41ae-44e7-b647-f0e587e1b12f","ios":"levelo://app?vid=389a0521-41ae-44e7-b647-f0e587e1b12f"},"vehicle_type_id":"4","last_reported":1730272154,"current_range_meters":10800,"station_id":"ce4bhn12rcd13ifvqgpg","pricing_plan_id":"cebpf4jnsgd1na2vs0mg"},{"bike_id":"1a5154eb-f122-438b-b30e-b16adba008c7","system_id":"levelo_inurba_marseille","lat":43.31518,"lon":5.37279,"is_reserved":false,"is_disabled":false,"rental_uris":{"android":"levelo://app?vid=1a5154eb-f122-438b-b30e-b16adba008c7","ios":"levelo://app?vid=1a5154eb-f122-438b-b30e-b16adba008c7"},"vehicle_type_id":"4","last_reported":1730272154,"current_range_meters":4400,"station_id":"ce4bgt12rcd13ifvqcd0","pricing_plan_id":"cebpf4jnsgd1na2vs0mg"},{"bike_id":"cf3181af-a347-498a-b469-bdb9135e58b7","system_id":"levelo_inurba_marseille","lat":43.27818,"lon":5.40711,"is_reserved":false,"is_disabled":false,"rental_uris":{"android":"levelo://app?vid=cf3181af-a347-498a-b469-bdb9135e58b7","ios":"levelo://app?vid=cf3181af-a347-498a-b469-bdb9135e58b7"},"vehicle_type_id":"4","last_reported":1730272154,"current_range_meters":31200,"station_id":"ce4bhnh2rcd13ifvqgtg","pricing_plan_id":"cebpf4jnsgd1na2vs0mg"},{"bike_id":"e69003c5-61d9-410c-8600-03d60dc443c9","system_id":"levelo_inurba_marseille","lat":43.32484,"lon":5.3657,"is_reserved":false,"is_disabled":false,"rental_uris":{"android":"levelo://app?vid=e69003c5-61d9-410c-8600-03d60dc443c9","ios":"levelo://app?vid=e69003c5-61d9-410c-8600-03d60dc443c9"},"vehicle_type_id":"4","last_reported":1730272154,"current_range_meters":30800,"station_id":"ce4bhs12rcd13ifvqhvg","pricing_plan_id":"cebpf4jnsgd1na2vs0mg"},{"bike_id":"9cd28ed1-51d4-469f-80b1-db1aa7224fd9","system_id":"levelo_inurba_marseille","lat":43.31891,"lon":5.40747,"is_reserved":false,"is_disabled":false,"rental_uris":{"android":"levelo://app?vid=9cd28ed1-51d4-469f-80b1-db1aa7224fd9","ios":"levelo://app?vid=9cd28ed1-51d4-469f-80b1-db1aa7224fd9"},"vehicle_type_id":"4","last_reported":1730272154,"current_range_meters":30400,"station_id":"ce4bhq12rcd13ifvqhig","pricing_plan_id":"cebpf4jnsgd1na2vs0mg"},{"bike_id":"00408809-526a-4e3b-bd4d-a27fc6e05da8","system_id":"levelo_inurba_marseille","lat":43.24813,"lon":5.3745,"is_reserved":false,"is_disabled":false,"rental_uris":{"android":"levelo://app?vid=00408809-526a-4e3b-bd4d-a27fc6e05da8","ios":"levelo://app?vid=00408809-526a-4e3b-bd4d-a27fc6e05da8"},"vehicle_type_id":"4","last_reported":1730272154,"current_range_meters":38400,"station_id":"ce4bhgh2rcd13ifvqfb0","pricing_plan_id":"cebpf4jnsgd1na2vs0mg"},{"bike_id":"515e3cda-ebf4-4224-a67b-bc5f9d833f60","system_id":"levelo_inurba_marseille","lat":43.24555,"lon":5.39526,"is_reserved":false,"is_disabled":false,"rental_uris":{"android":"levelo://app?vid=515e3cda-ebf4-4224-a67b-bc5f9d833f60","ios":"levelo://app?vid=515e3cda-ebf4-4224-a67b-bc5f9d833f60"},"vehicle_type_id":"4","last_reported":1730272154,"current_range_meters":28000,"station_id":"ce4bhlp2rcd13ifvqgjg","pricing_plan_id":"cebpf4jnsgd1na2vs0mg"},{"bike_id":"a0f5d9ec-bdca-49ed-9410-eea9bb121fec","system_id":"levelo_inurba_marseille","lat":43.32663,"lon":5.40991,"is_reserved":false,"is_disabled":false,"rental_uris":{"android":"levelo://app?vid=a0f5d9ec-bdca-49ed-9410-eea9bb121fec","ios":"levelo://app?vid=a0f5d9ec-bdca-49ed-9410-eea9bb121fec"},"vehicle_type_id":"4","last_reported":1730272154,"current_range_meters":38000,"station_id":"ce4bhpp2rcd13ifvqhgg","pricing_plan_id":"cebpf4jnsgd1na2vs0mg"},{"bike_id":"66a04495-273a-47df-ac95-d7c1740f1ef3","system_id":"levelo_inurba_marseille","lat":43.278245,"lon":5.406905,"is_reserved":false,"is_disabled":false,"rental_uris":{"android":"levelo://app?vid=66a04495-273a-47df-ac95-d7c1740f1ef3","ios":"levelo://app?vid=66a04495-273a-47df-ac95-d7c1740f1ef3"},"vehicle_type_id":"4","last_reported":1730272154,"current_range_meters":24400,"station_id":"ce4bhnh2rcd13ifvqgtg","pricing_plan_id":"cebpf4jnsgd1na2vs0mg"},{"bike_id":"b240039e-c50d-4884-bbaf-45c1fe416cf2","system_id":"levelo_inurba_marseille","lat":43.241669,"lon":5.364139,"is_reserved":false,"is_disabled":false,"rental_uris":{"android":"levelo://app?vid=b240039e-c50d-4884-bbaf-45c1fe416cf2","ios":"levelo://app?vid=b240039e-c50d-4884-bbaf-45c1fe416cf2"},"vehicle_type_id":"4","last_reported":1730272154,"current_range_meters":37600,"station_id":"cpo36qri1sfpv3e86is0","pricing_plan_id":"cebpf4jnsgd1na2vs0mg"},{"bike_id":"0f237200-9f2c-4569-b096-745ca33d76d3","system_id":"levelo_inurba_marseille","lat":43.30557,"lon":5.36564,"is_reserved":false,"is_disabled":false,"rental_uris":{"android":"levelo://app?vid=0f237200-9f2c-4569-b096-745ca33d76d3","ios":"levelo://app?vid=0f237200-9f2c-4569-b096-745ca33d76d3"},"vehicle_type_id":"4","last_reported":1730272154,"current_range_meters":31200,"station_id":"ce4bgs12rcd13ifvqcag","pricing_plan_id":"cebpf4jnsgd1na2vs0mg"},{"bike_id":"98af7aaf-680f-4013-9acb-3127feae2bb0","system_id":"levelo_inurba_marseille","lat":43.33028,"lon":5.39039,"is_reserved":false,"is_disabled":false,"rental_uris":{"android":"levelo://app?vid=98af7aaf-680f-4013-9acb-3127feae2bb0","ios":"levelo://app?vid=98af7aaf-680f-4013-9acb-3127feae2bb0"},"vehicle_type_id":"4","last_reported":1730272154,"current_range_meters":39200,"station_id":"ce4bhr92rcd13ifvqhrg","pricing_plan_id":"cebpf4jnsgd1na2vs0mg"},{"bike_id":"7521e550-9a43-4fd3-a3fd-d34415b2a0c9","system_id":"levelo_inurba_marseille","lat":43.288479,"lon":5.358456,"is_reserved":false,"is_disabled":false,"rental_uris":{"android":"levelo://app?vid=7521e550-9a43-4fd3-a3fd-d34415b2a0c9","ios":"levelo://app?vid=7521e550-9a43-4fd3-a3fd-d34415b2a0c9"},"vehicle_type_id":"4","last_reported":1730272154,"current_range_meters":24000,"station_id":"ce4bhb12rcd13ifvqem0","pricing_plan_id":"cebpf4jnsgd1na2vs0mg"},{"bike_id":"5607110e-580f-48db-ba88-212c55d8989d","system_id":"levelo_inurba_marseille","lat":43.23185,"lon":5.39986,"is_reserved":false,"is_disabled":false,"rental_uris":{"android":"levelo://app?vid=5607110e-580f-48db-ba88-212c55d8989d","ios":"levelo://app?vid=5607110e-580f-48db-ba88-212c55d8989d"},"vehicle_type_id":"4","last_reported":1730272154,"current_range_meters":7200,"station_id":"ce4bhn12rcd13ifvqgqg","pricing_plan_id":"cebpf4jnsgd1na2vs0mg"},{"bike_id":"f6b3f819-3ef8-4d8b-bb7e-8a1694cd4398","system_id":"levelo_inurba_marseille","lat":43.30467,"lon":5.37911,"is_reserved":false,"is_disabled":false,"rental_uris":{"android":"levelo://app?vid=f6b3f819-3ef8-4d8b-bb7e-8a1694cd4398","ios":"levelo://app?vid=f6b3f819-3ef8-4d8b-bb7e-8a1694cd4398"},"vehicle_type_id":"4","last_reported":1730272154,"current_range_meters":30400,"station_id":"ce4bgup2rcd13ifvqcn0","pricing_plan_id":"cebpf4jnsgd1na2vs0mg"},{"bike_id":"0c074560-8ac3-46f4-bbf6-3d47e9833728","system_id":"levelo_inurba_marseille","lat":43.25011,"lon":5.38917,"is_reserved":false,"is_disabled":false,"rental_uris":{"android":"levelo://app?vid=0c074560-8ac3-46f4-bbf6-3d47e9833728","ios":"levelo://app?vid=0c074560-8ac3-46f4-bbf6-3d47e9833728"},"vehicle_type_id":"4","last_reported":1730272154,"current_range_meters":38000,"station_id":"ce4bhgp2rcd13ifvqfd0","pricing_plan_id":"cebpf4jnsgd1na2vs0mg"},{"bike_id":"aa8e5bc8-4af6-4a20-b890-90006b3b95bd","system_id":"levelo_inurba_marseille","lat":43.27918,"lon":5.39583,"is_reserved":false,"is_disabled":false,"rental_uris":{"android":"levelo://app?vid=aa8e5bc8-4af6-4a20-b890-90006b3b95bd","ios":"levelo://app?vid=aa8e5bc8-4af6-4a20-b890-90006b3b95bd"},"vehicle_type_id":"4","last_reported":1730272154,"current_range_meters":37600,"station_id":"ce4bhf92rcd13ifvqf40","pricing_plan_id":"cebpf4jnsgd1na2vs0mg"},{"bike_id":"6b0189db-9ba7-4826-af05-684ac6cdd587","system_id":"levelo_inurba_marseille","lat":43.30932,"lon":5.40141,"is_reserved":false,"is_disabled":false,"rental_uris":{"android":"levelo://app?vid=6b0189db-9ba7-4826-af05-684ac6cdd587","ios":"levelo://app?vid=6b0189db-9ba7-4826-af05-684ac6cdd587"},"vehicle_type_id":"4","last_reported":1730272154,"current_range_meters":38800,"station_id":"ce4bgvp2rcd13ifvqct0","pricing_plan_id":"cebpf4jnsgd1na2vs0mg"},{"bike_id":"7e1dac73-d14a-4cac-9a8f-3d04b3161b4c","system_id":"levelo_inurba_marseille","lat":43.26539,"lon":5.37288,"is_reserved":false,"is_disabled":false,"rental_uris":{"android":"levelo://app?vid=7e1dac73-d14a-4cac-9a8f-3d04b3161b4c","ios":"levelo://app?vid=7e1dac73-d14a-4cac-9a8f-3d04b3161b4c"},"vehicle_type_id":"4","last_reported":1730272154,"current_range_meters":38000,"station_id":"ce4bhg12rcd13ifvqf70","pricing_plan_id":"cebpf4jnsgd1na2vs0mg"},{"bike_id":"44452cab-0ed3-46c5-ae89-8653a35bc3ed","system_id":"levelo_inurba_marseille","lat":43.29257,"lon":5.40901,"is_reserved":false,"is_disabled":false,"rental_uris":{"android":"levelo://app?vid=44452cab-0ed3-46c5-ae89-8653a35bc3ed","ios":"levelo://app?vid=44452cab-0ed3-46c5-ae89-8653a35bc3ed"},"vehicle_type_id":"4","last_reported":1730272154,"current_range_meters":38800,"station_id":"ce4bh192rcd13ifvqdc0","pricing_plan_id":"cebpf4jnsgd1na2vs0mg"},{"bike_id":"caf349c8-ed3b-4304-909b-160d602b00a5","system_id":"levelo_inurba_marseille","lat":43.31714,"lon":5.37733,"is_reserved":false,"is_disabled":false,"rental_uris":{"android":"levelo://app?vid=caf349c8-ed3b-4304-909b-160d602b00a5","ios":"levelo://app?vid=caf349c8-ed3b-4304-909b-160d602b00a5"},"vehicle_type_id":"4","last_reported":1730272154,"current_range_meters":6400,"station_id":"ce4bgth2rcd13ifvqch0","pricing_plan_id":"cebpf4jnsgd1na2vs0mg"},{"bike_id":"8d1620e7-e5ab-4df0-827f-1b7a5189e865","system_id":"levelo_inurba_marseille","lat":43.27997,"lon":5.4002,"is_reserved":false,"is_disabled":false,"rental_uris":{"android":"levelo://app?vid=8d1620e7-e5ab-4df0-827f-1b7a5189e865","ios":"levelo://app?vid=8d1620e7-e5ab-4df0-827f-1b7a5189e865"},"vehicle_type_id":"4","last_reported":1730272154,"current_range_meters":38800,"station_id":"ce4bho92rcd13ifvqh4g","pricing_plan_id":"cebpf4jnsgd1na2vs0mg"},{"bike_id":"3cc74485-2795-4d4f-aa5a-b06c312e894e","system_id":"levelo_inurba_marseille","lat":43.2293,"lon":5.35376,"is_reserved":false,"is_disabled":false,"rental_uris":{"android":"levelo://app?vid=3cc74485-2795-4d4f-aa5a-b06c312e894e","ios":"levelo://app?vid=3cc74485-2795-4d4f-aa5a-b06c312e894e"},"vehicle_type_id":"4","last_reported":1730272154,"current_range_meters":38000,"station_id":"cpo3532slgdg3j2ikp40","pricing_plan_id":"cebpf4jnsgd1na2vs0mg"},{"bike_id":"197951b6-f51d-4e0e-9015-1307af51213e","system_id":"levelo_inurba_marseille","lat":43.31486,"lon":5.37307,"is_reserved":false,"is_disabled":false,"rental_uris":{"android":"levelo://app?vid=197951b6-f51d-4e0e-9015-1307af51213e","ios":"levelo://app?vid=197951b6-f51d-4e0e-9015-1307af51213e"},"vehicle_type_id":"4","last_reported":1730272154,"current_range_meters":6400,"station_id":"ce4bgt12rcd13ifvqcd0","pricing_plan_id":"cebpf4jnsgd1na2vs0mg"},{"bike_id":"83e8370a-0578-402b-b179-be4cd80c393d","system_id":"levelo_inurba_marseille","lat":43.31365,"lon":5.384915,"is_reserved":false,"is_disabled":false,"rental_uris":{"android":"levelo://app?vid=83e8370a-0578-402b-b179-be4cd80c393d","ios":"levelo://app?vid=83e8370a-0578-402b-b179-be4cd80c393d"},"vehicle_type_id":"4","last_reported":1730272154,"current_range_meters":36400,"station_id":"ce4bgt92rcd13ifvqcf0","pricing_plan_id":"cebpf4jnsgd1na2vs0mg"},{"bike_id":"5350987e-6b1e-48a4-9d22-80eb92ebd932","system_id":"levelo_inurba_marseille","lat":43.31713,"lon":5.43705,"is_reserved":false,"is_disabled":false,"rental_uris":{"android":"levelo://app?vid=5350987e-6b1e-48a4-9d22-80eb92ebd932","ios":"levelo://app?vid=5350987e-6b1e-48a4-9d22-80eb92ebd932"},"vehicle_type_id":"4","last_reported":1730272154,"current_range_meters":12400,"station_id":"ce4bhp92rcd13ifvqhcg","pricing_plan_id":"cebpf4jnsgd1na2vs0mg"},{"bike_id":"84f26cf8-5f63-4734-b9e0-23c9b5de6ad1","system_id":"levelo_inurba_marseille","lat":43.3081,"lon":5.38156,"is_reserved":false,"is_disabled":false,"rental_uris":{"android":"levelo://app?vid=84f26cf8-5f63-4734-b9e0-23c9b5de6ad1","ios":"levelo://app?vid=84f26cf8-5f63-4734-b9e0-23c9b5de6ad1"},"vehicle_type_id":"4","last_reported":1730272154,"current_range_meters":12800,"station_id":"ce4bgt12rcd13ifvqce0","pricing_plan_id":"cebpf4jnsgd1na2vs0mg"},{"bike_id":"a7df28aa-87c8-4736-aecb-96c1ea5fecdb","system_id":"levelo_inurba_marseille","lat":43.27618,"lon":5.36114,"is_reserved":false,"is_disabled":false,"rental_uris":{"android":"levelo://app?vid=a7df28aa-87c8-4736-aecb-96c1ea5fecdb","ios":"levelo://app?vid=a7df28aa-87c8-4736-aecb-96c1ea5fecdb"},"vehicle_type_id":"4","last_reported":1730272154,"current_range_meters":20400,"station_id":"ce4bgj92rcd13ifvqbe0","pricing_plan_id":"cebpf4jnsgd1na2vs0mg"},{"bike_id":"b064c4d6-367c-48e1-ba77-b9d395acae51","system_id":"levelo_inurba_marseille","lat":43.30464,"lon":5.37897,"is_reserved":false,"is_disabled":false,"rental_uris":{"android":"levelo://app?vid=b064c4d6-367c-48e1-ba77-b9d395acae51","ios":"levelo://app?vid=b064c4d6-367c-48e1-ba77-b9d395acae51"},"vehicle_type_id":"4","last_reported":1730272154,"current_range_meters":26800,"station_id":"ce4bgup2rcd13ifvqcn0","pricing_plan_id":"cebpf4jnsgd1na2vs0mg"},{"bike_id":"79753c44-2696-48d8-8503-a28f55e7f2ea","system_id":"levelo_inurba_marseille","lat":43.31326,"lon":5.39706,"is_reserved":false,"is_disabled":false,"rental_uris":{"android":"levelo://app?vid=79753c44-2696-48d8-8503-a28f55e7f2ea","ios":"levelo://app?vid=79753c44-2696-48d8-8503-a28f55e7f2ea"},"vehicle_type_id":"4","last_reported":1730272154,"current_range_meters":38800,"station_id":"ce4bgvp2rcd13ifvqcu0","pricing_plan_id":"cebpf4jnsgd1na2vs0mg"},{"bike_id":"e68ce33f-f1a1-4e57-9764-2f2b65f5c8c3","system_id":"levelo_inurba_marseille","lat":43.27183,"lon":5.40992,"is_reserved":false,"is_disabled":false,"rental_uris":{"android":"levelo://app?vid=e68ce33f-f1a1-4e57-9764-2f2b65f5c8c3","ios":"levelo://app?vid=e68ce33f-f1a1-4e57-9764-2f2b65f5c8c3"},"vehicle_type_id":"4","last_reported":1730272154,"current_range_meters":27600,"station_id":"ce4bhl12rcd13ifvqgf0","pricing_plan_id":"cebpf4jnsgd1na2vs0mg"},{"bike_id":"dc85ce08-7644-4dc1-8f72-d7d92984f893","system_id":"levelo_inurba_marseille","lat":43.29911,"lon":5.38136,"is_reserved":false,"is_disabled":false,"rental_uris":{"android":"levelo://app?vid=dc85ce08-7644-4dc1-8f72-d7d92984f893","ios":"levelo://app?vid=dc85ce08-7644-4dc1-8f72-d7d92984f893"},"vehicle_type_id":"4","last_reported":1730272154,"current_range_meters":39200,"station_id":"ce4bgj12rcd13ifvqbc0","pricing_plan_id":"cebpf4jnsgd1na2vs0mg"},{"bike_id":"34630d18-75dd-4aec-9bb1-0ce7aab0afdf","system_id":"levelo_inurba_marseille","lat":43.2467,"lon":5.38155,"is_reserved":false,"is_disabled":false,"rental_uris":{"android":"levelo://app?vid=34630d18-75dd-4aec-9bb1-0ce7aab0afdf","ios":"levelo://app?vid=34630d18-75dd-4aec-9bb1-0ce7aab0afdf"},"vehicle_type_id":"4","last_reported":1730272154,"current_range_meters":39200,"station_id":"ce4bhih2rcd13ifvqfr0","pricing_plan_id":"cebpf4jnsgd1na2vs0mg"},{"bike_id":"fca70fb1-2c2b-46bb-a35c-c4971041e2df","system_id":"levelo_inurba_marseille","lat":43.23193,"lon":5.39977,"is_reserved":false,"is_disabled":false,"rental_uris":{"android":"levelo://app?vid=fca70fb1-2c2b-46bb-a35c-c4971041e2df","ios":"levelo://app?vid=fca70fb1-2c2b-46bb-a35c-c4971041e2df"},"vehicle_type_id":"4","last_reported":1730272154,"current_range_meters":22800,"station_id":"ce4bhn12rcd13ifvqgqg","pricing_plan_id":"cebpf4jnsgd1na2vs0mg"},{"bike_id":"a71e0e1d-8afd-477b-8167-6508ea637736","system_id":"levelo_inurba_marseille","lat":43.301854,"lon":5.366192,"is_reserved":false,"is_disabled":false,"rental_uris":{"android":"levelo://app?vid=a71e0e1d-8afd-477b-8167-6508ea637736","ios":"levelo://app?vid=a71e0e1d-8afd-477b-8167-6508ea637736"},"vehicle_type_id":"4","last_reported":1730272154,"current_range_meters":39200,"station_id":"ce4bgrh2rcd13ifvqc8g","pricing_plan_id":"cebpf4jnsgd1na2vs0mg"},{"bike_id":"c5ab8f86-3c93-447c-b767-f885bdebd2ff","system_id":"levelo_inurba_marseille","lat":43.27072,"lon":5.42281,"is_reserved":false,"is_disabled":false,"rental_uris":{"android":"levelo://app?vid=c5ab8f86-3c93-447c-b767-f885bdebd2ff","ios":"levelo://app?vid=c5ab8f86-3c93-447c-b767-f885bdebd2ff"},"vehicle_type_id":"4","last_reported":1730272154,"current_range_meters":39200,"station_id":"ce4bhk92rcd13ifvqgb0","pricing_plan_id":"cebpf4jnsgd1na2vs0mg"},{"bike_id":"b897df0c-07b0-4360-98f1-1f35c31cddbb","system_id":"levelo_inurba_marseille","lat":43.27059,"lon":5.40268,"is_reserved":false,"is_disabled":false,"rental_uris":{"android":"levelo://app?vid=b897df0c-07b0-4360-98f1-1f35c31cddbb","ios":"levelo://app?vid=b897df0c-07b0-4360-98f1-1f35c31cddbb"},"vehicle_type_id":"4","last_reported":1730272154,"current_range_meters":37600,"station_id":"ce4bhk92rcd13ifvqgc0","pricing_plan_id":"cebpf4jnsgd1na2vs0mg"},{"bike_id":"6bfb62a6-63c3-4bd5-8676-7b2f3dd6580d","system_id":"levelo_inurba_marseille","lat":43.28149,"lon":5.42639,"is_reserved":false,"is_disabled":false,"rental_uris":{"android":"levelo://app?vid=6bfb62a6-63c3-4bd5-8676-7b2f3dd6580d","ios":"levelo://app?vid=6bfb62a6-63c3-4bd5-8676-7b2f3dd6580d"},"vehicle_type_id":"4","last_reported":1730272154,"current_range_meters":14400,"station_id":"ce4bhnh2rcd13ifvqgug","pricing_plan_id":"cebpf4jnsgd1na2vs0mg"},{"bike_id":"70bb78fe-4bef-4d56-a833-affc0bdfc9f3","system_id":"levelo_inurba_marseille","lat":43.23193,"lon":5.35555,"is_reserved":false,"is_disabled":false,"rental_uris":{"android":"levelo://app?vid=70bb78fe-4bef-4d56-a833-affc0bdfc9f3","ios":"levelo://app?vid=70bb78fe-4bef-4d56-a833-affc0bdfc9f3"},"vehicle_type_id":"4","last_reported":1730272154,"current_range_meters":38000,"station_id":"ce4bhu92rcd13ifvqi70","pricing_plan_id":"cebpf4jnsgd1na2vs0mg"},{"bike_id":"e4233d94-ec75-499d-89c5-1d74a9d45e94","system_id":"levelo_inurba_marseille","lat":43.30476,"lon":5.379,"is_reserved":false,"is_disabled":false,"rental_uris":{"android":"levelo://app?vid=e4233d94-ec75-499d-89c5-1d74a9d45e94","ios":"levelo://app?vid=e4233d94-ec75-499d-89c5-1d74a9d45e94"},"vehicle_type_id":"4","last_reported":1730272154,"current_range_meters":38800,"station_id":"ce4bgup2rcd13ifvqcn0","pricing_plan_id":"cebpf4jnsgd1na2vs0mg"},{"bike_id":"5f019c1e-48bb-4046-bb30-a3ac8446337a","system_id":"levelo_inurba_marseille","lat":43.281372,"lon":5.378674,"is_reserved":false,"is_disabled":false,"rental_uris":{"android":"levelo://app?vid=5f019c1e-48bb-4046-bb30-a3ac8446337a","ios":"levelo://app?vid=5f019c1e-48bb-4046-bb30-a3ac8446337a"},"vehicle_type_id":"4","last_reported":1730272154,"current_range_meters":40000,"station_id":"ce4bh392rcd13ifvqdm0","pricing_plan_id":"cebpf4jnsgd1na2vs0mg"},{"bike_id":"0790b19d-aa7b-4cc8-b334-e3c9e4892b72","system_id":"levelo_inurba_marseille","lat":43.28573,"lon":5.39491,"is_reserved":false,"is_disabled":false,"rental_uris":{"android":"levelo://app?vid=0790b19d-aa7b-4cc8-b334-e3c9e4892b72","ios":"levelo://app?vid=0790b19d-aa7b-4cc8-b334-e3c9e4892b72"},"vehicle_type_id":"4","last_reported":1730272154,"current_range_meters":24800,"station_id":"ce4bh292rcd13ifvqdg0","pricing_plan_id":"cebpf4jnsgd1na2vs0mg"},{"bike_id":"5c244c3d-8fd7-4c95-b825-2f7fe2f15994","system_id":"levelo_inurba_marseille","lat":43.23193,"lon":5.35547,"is_reserved":false,"is_disabled":false,"rental_uris":{"android":"levelo://app?vid=5c244c3d-8fd7-4c95-b825-2f7fe2f15994","ios":"levelo://app?vid=5c244c3d-8fd7-4c95-b825-2f7fe2f15994"},"vehicle_type_id":"4","last_reported":1730272154,"current_range_meters":39200,"station_id":"ce4bhu92rcd13ifvqi70","pricing_plan_id":"cebpf4jnsgd1na2vs0mg"},{"bike_id":"82c2f2b2-a482-4f77-a2c1-f6babf5f01cf","system_id":"levelo_inurba_marseille","lat":43.29482,"lon":5.44496,"is_reserved":false,"is_disabled":false,"rental_uris":{"android":"levelo://app?vid=82c2f2b2-a482-4f77-a2c1-f6babf5f01cf","ios":"levelo://app?vid=82c2f2b2-a482-4f77-a2c1-f6babf5f01cf"},"vehicle_type_id":"4","last_reported":1730272154,"current_range_meters":35600,"station_id":"","pricing_plan_id":"cebpf4jnsgd1na2vs0mg"},{"bike_id":"5efd5148-f738-4c82-8164-c1739863b28d","system_id":"levelo_inurba_marseille","lat":43.2695,"lon":5.40243,"is_reserved":false,"is_disabled":false,"rental_uris":{"android":"levelo://app?vid=5efd5148-f738-4c82-8164-c1739863b28d","ios":"levelo://app?vid=5efd5148-f738-4c82-8164-c1739863b28d"},"vehicle_type_id":"4","last_reported":1730272154,"current_range_meters":16800,"station_id":"cjm6bp8fraef2m0cb0m0","pricing_plan_id":"cebpf4jnsgd1na2vs0mg"},{"bike_id":"e10ff328-93b2-4d6a-af26-12f189d78479","system_id":"levelo_inurba_marseille","lat":43.3373,"lon":5.391802,"is_reserved":false,"is_disabled":false,"rental_uris":{"android":"levelo://app?vid=e10ff328-93b2-4d6a-af26-12f189d78479","ios":"levelo://app?vid=e10ff328-93b2-4d6a-af26-12f189d78479"},"vehicle_type_id":"4","last_reported":1730272154,"current_range_meters":38000,"station_id":"ce4bhr92rcd13ifvqhsg","pricing_plan_id":"cebpf4jnsgd1na2vs0mg"},{"bike_id":"8fe952c7-d1f5-486e-a32b-0e7b70cce917","system_id":"levelo_inurba_marseille","lat":43.32362,"lon":5.38892,"is_reserved":false,"is_disabled":false,"rental_uris":{"android":"levelo://app?vid=8fe952c7-d1f5-486e-a32b-0e7b70cce917","ios":"levelo://app?vid=8fe952c7-d1f5-486e-a32b-0e7b70cce917"},"vehicle_type_id":"4","last_reported":1730272154,"current_range_meters":30800,"station_id":"ce4bhqp2rcd13ifvqhog","pricing_plan_id":"cebpf4jnsgd1na2vs0mg"},{"bike_id":"66d7efc4-2248-47d0-915c-c5c49c23ff79","system_id":"levelo_inurba_marseille","lat":43.33603,"lon":5.41026,"is_reserved":false,"is_disabled":false,"rental_uris":{"android":"levelo://app?vid=66d7efc4-2248-47d0-915c-c5c49c23ff79","ios":"levelo://app?vid=66d7efc4-2248-47d0-915c-c5c49c23ff79"},"vehicle_type_id":"4","last_reported":1730272154,"current_range_meters":38000,"station_id":"ce4bhqh2rcd13ifvqhmg","pricing_plan_id":"cebpf4jnsgd1na2vs0mg"},{"bike_id":"40303298-86d3-46fd-adad-a05df47dcacf","system_id":"levelo_inurba_marseille","lat":43.2846,"lon":5.3587,"is_reserved":false,"is_disabled":false,"rental_uris":{"android":"levelo://app?vid=40303298-86d3-46fd-adad-a05df47dcacf","ios":"levelo://app?vid=40303298-86d3-46fd-adad-a05df47dcacf"},"vehicle_type_id":"4","last_reported":1730272154,"current_range_meters":38000,"station_id":"ce4bhah2rcd13ifvqei0","pricing_plan_id":"cebpf4jnsgd1na2vs0mg"},{"bike_id":"c6472a4b-15fb-475c-a800-9db188055ce2","system_id":"levelo_inurba_marseille","lat":43.25835,"lon":5.39431,"is_reserved":false,"is_disabled":false,"rental_uris":{"android":"levelo://app?vid=c6472a4b-15fb-475c-a800-9db188055ce2","ios":"levelo://app?vid=c6472a4b-15fb-475c-a800-9db188055ce2"},"vehicle_type_id":"4","last_reported":1730272154,"current_range_meters":14000,"station_id":"ce4bhip2rcd13ifvqft0","pricing_plan_id":"cebpf4jnsgd1na2vs0mg"},{"bike_id":"8cf45733-7884-4d00-89cb-dcc5bdeb6bc8","system_id":"levelo_inurba_marseille","lat":43.27906,"lon":5.38015,"is_reserved":false,"is_disabled":false,"rental_uris":{"android":"levelo://app?vid=8cf45733-7884-4d00-89cb-dcc5bdeb6bc8","ios":"levelo://app?vid=8cf45733-7884-4d00-89cb-dcc5bdeb6bc8"},"vehicle_type_id":"4","last_reported":1730272154,"current_range_meters":38800,"station_id":"ce4bhf92rcd13ifvqf50","pricing_plan_id":"cebpf4jnsgd1na2vs0mg"},{"bike_id":"5605e7e8-7b5f-4b34-8547-b7b667c952c4","system_id":"levelo_inurba_marseille","lat":43.24677,"lon":5.38153,"is_reserved":false,"is_disabled":false,"rental_uris":{"android":"levelo://app?vid=5605e7e8-7b5f-4b34-8547-b7b667c952c4","ios":"levelo://app?vid=5605e7e8-7b5f-4b34-8547-b7b667c952c4"},"vehicle_type_id":"4","last_reported":1730272154,"current_range_meters":27200,"station_id":"ce4bhih2rcd13ifvqfr0","pricing_plan_id":"cebpf4jnsgd1na2vs0mg"},{"bike_id":"56dc04b7-06b7-4e88-ac29-730a7abdd49b","system_id":"levelo_inurba_marseille","lat":43.3137,"lon":5.38504,"is_reserved":false,"is_disabled":false,"rental_uris":{"android":"levelo://app?vid=56dc04b7-06b7-4e88-ac29-730a7abdd49b","ios":"levelo://app?vid=56dc04b7-06b7-4e88-ac29-730a7abdd49b"},"vehicle_type_id":"4","last_reported":1730272154,"current_range_meters":38400,"station_id":"ce4bgt92rcd13ifvqcf0","pricing_plan_id":"cebpf4jnsgd1na2vs0mg"},{"bike_id":"ee9927da-db62-4b18-894c-b5fe829dc733","system_id":"levelo_inurba_marseille","lat":43.30912,"lon":5.36849,"is_reserved":false,"is_disabled":false,"rental_uris":{"android":"levelo://app?vid=ee9927da-db62-4b18-894c-b5fe829dc733","ios":"levelo://app?vid=ee9927da-db62-4b18-894c-b5fe829dc733"},"vehicle_type_id":"4","last_reported":1730272154,"current_range_meters":6000,"station_id":"ce4bgn92rcd13ifvqbvg","pricing_plan_id":"cebpf4jnsgd1na2vs0mg"},{"bike_id":"87f4bfe6-ba53-4505-af1d-e98051898d3c","system_id":"levelo_inurba_marseille","lat":43.284805,"lon":5.384197,"is_reserved":false,"is_disabled":false,"rental_uris":{"android":"levelo://app?vid=87f4bfe6-ba53-4505-af1d-e98051898d3c","ios":"levelo://app?vid=87f4bfe6-ba53-4505-af1d-e98051898d3c"},"vehicle_type_id":"4","last_reported":1730272154,"current_range_meters":39200,"station_id":"ce4bh512rcd13ifvqe3g","pricing_plan_id":"cebpf4jnsgd1na2vs0mg"},{"bike_id":"92adf987-4779-4b78-ad9c-8e29ab9175f3","system_id":"levelo_inurba_marseille","lat":43.23188,"lon":5.35557,"is_reserved":false,"is_disabled":false,"rental_uris":{"android":"levelo://app?vid=92adf987-4779-4b78-ad9c-8e29ab9175f3","ios":"levelo://app?vid=92adf987-4779-4b78-ad9c-8e29ab9175f3"},"vehicle_type_id":"4","last_reported":1730272154,"current_range_meters":14400,"station_id":"ce4bhu92rcd13ifvqi70","pricing_plan_id":"cebpf4jnsgd1na2vs0mg"},{"bike_id":"6ccddc45-787b-4e0a-8482-1abb83f99cfc","system_id":"levelo_inurba_marseille","lat":43.2847,"lon":5.35883,"is_reserved":false,"is_disabled":false,"rental_uris":{"android":"levelo://app?vid=6ccddc45-787b-4e0a-8482-1abb83f99cfc","ios":"levelo://app?vid=6ccddc45-787b-4e0a-8482-1abb83f99cfc"},"vehicle_type_id":"4","last_reported":1730272154,"current_range_meters":38800,"station_id":"ce4bhah2rcd13ifvqei0","pricing_plan_id":"cebpf4jnsgd1na2vs0mg"},{"bike_id":"1f322fed-16ec-4726-ae24-227162d2622d","system_id":"levelo_inurba_marseille","lat":43.28931,"lon":5.36393,"is_reserved":false,"is_disabled":false,"rental_uris":{"android":"levelo://app?vid=1f322fed-16ec-4726-ae24-227162d2622d","ios":"levelo://app?vid=1f322fed-16ec-4726-ae24-227162d2622d"},"vehicle_type_id":"4","last_reported":1730272154,"current_range_meters":34000,"station_id":"ce4bhc92rcd13ifvqetg","pricing_plan_id":"cebpf4jnsgd1na2vs0mg"},{"bike_id":"c03f3456-93bb-418a-8ce0-ca351e254b4e","system_id":"levelo_inurba_marseille","lat":43.31756,"lon":5.39014,"is_reserved":false,"is_disabled":false,"rental_uris":{"android":"levelo://app?vid=c03f3456-93bb-418a-8ce0-ca351e254b4e","ios":"levelo://app?vid=c03f3456-93bb-418a-8ce0-ca351e254b4e"},"vehicle_type_id":"4","last_reported":1730272154,"current_range_meters":37600,"station_id":"ce4bhqp2rcd13ifvqhng","pricing_plan_id":"cebpf4jnsgd1na2vs0mg"},{"bike_id":"37cb0773-ba21-47be-9d4f-f925cfb4f6e7","system_id":"levelo_inurba_marseille","lat":43.29055,"lon":5.37716,"is_reserved":false,"is_disabled":false,"rental_uris":{"android":"levelo://app?vid=37cb0773-ba21-47be-9d4f-f925cfb4f6e7","ios":"levelo://app?vid=37cb0773-ba21-47be-9d4f-f925cfb4f6e7"},"vehicle_type_id":"4","last_reported":1730272154,"current_range_meters":29600,"station_id":"","pricing_plan_id":"cebpf4jnsgd1na2vs0mg"},{"bike_id":"3f42b5bf-2a79-45d5-b497-6ae8dd1c3625","system_id":"levelo_inurba_marseille","lat":43.27908,"lon":5.39585,"is_reserved":false,"is_disabled":false,"rental_uris":{"android":"levelo://app?vid=3f42b5bf-2a79-45d5-b497-6ae8dd1c3625","ios":"levelo://app?vid=3f42b5bf-2a79-45d5-b497-6ae8dd1c3625"},"vehicle_type_id":"4","last_reported":1730272154,"current_range_meters":38400,"station_id":"ce4bhf92rcd13ifvqf40","pricing_plan_id":"cebpf4jnsgd1na2vs0mg"},{"bike_id":"f9f1fac0-f85f-464b-8d90-12df2d11e889","system_id":"levelo_inurba_marseille","lat":43.26203,"lon":5.37927,"is_reserved":false,"is_disabled":false,"rental_uris":{"android":"levelo://app?vid=f9f1fac0-f85f-464b-8d90-12df2d11e889","ios":"levelo://app?vid=f9f1fac0-f85f-464b-8d90-12df2d11e889"},"vehicle_type_id":"4","last_reported":1730272154,"current_range_meters":38000,"station_id":"ce4bhjp2rcd13ifvqg90","pricing_plan_id":"cebpf4jnsgd1na2vs0mg"},{"bike_id":"14845b02-4ac0-4d16-91a9-9d8bd69c6b18","system_id":"levelo_inurba_marseille","lat":43.3016,"lon":5.38093,"is_reserved":false,"is_disabled":false,"rental_uris":{"android":"levelo://app?vid=14845b02-4ac0-4d16-91a9-9d8bd69c6b18","ios":"levelo://app?vid=14845b02-4ac0-4d16-91a9-9d8bd69c6b18"},"vehicle_type_id":"4","last_reported":1730272154,"current_range_meters":36400,"station_id":"ce4bgjp2rcd13ifvqbh0","pricing_plan_id":"cebpf4jnsgd1na2vs0mg"},{"bike_id":"269a4193-03a6-4fe1-93c0-2b8610ca1e7f","system_id":"levelo_inurba_marseille","lat":43.24384,"lon":5.37051,"is_reserved":false,"is_disabled":false,"rental_uris":{"android":"levelo://app?vid=269a4193-03a6-4fe1-93c0-2b8610ca1e7f","ios":"levelo://app?vid=269a4193-03a6-4fe1-93c0-2b8610ca1e7f"},"vehicle_type_id":"4","last_reported":1730272154,"current_range_meters":19200,"station_id":"ce4bhhh2rcd13ifvqfk0","pricing_plan_id":"cebpf4jnsgd1na2vs0mg"},{"bike_id":"3928d2b2-5322-4bfc-935c-f02931565366","system_id":"levelo_inurba_marseille","lat":43.28001,"lon":5.41654,"is_reserved":false,"is_disabled":false,"rental_uris":{"android":"levelo://app?vid=3928d2b2-5322-4bfc-935c-f02931565366","ios":"levelo://app?vid=3928d2b2-5322-4bfc-935c-f02931565366"},"vehicle_type_id":"4","last_reported":1730272154,"current_range_meters":11600,"station_id":"ce4bho12rcd13ifvqh1g","pricing_plan_id":"cebpf4jnsgd1na2vs0mg"},{"bike_id":"669541bb-ec23-44c5-bb83-c3650de83fee","system_id":"levelo_inurba_marseille","lat":43.279954,"lon":5.416552,"is_reserved":false,"is_disabled":false,"rental_uris":{"android":"levelo://app?vid=669541bb-ec23-44c5-bb83-c3650de83fee","ios":"levelo://app?vid=669541bb-ec23-44c5-bb83-c3650de83fee"},"vehicle_type_id":"4","last_reported":1730272154,"current_range_meters":38000,"station_id":"ce4bho12rcd13ifvqh1g","pricing_plan_id":"cebpf4jnsgd1na2vs0mg"},{"bike_id":"eb95fe5d-06a7-4185-9c5d-85ad221adc22","system_id":"levelo_inurba_marseille","lat":43.28351,"lon":5.38116,"is_reserved":false,"is_disabled":false,"rental_uris":{"android":"levelo://app?vid=eb95fe5d-06a7-4185-9c5d-85ad221adc22","ios":"levelo://app?vid=eb95fe5d-06a7-4185-9c5d-85ad221adc22"},"vehicle_type_id":"4","last_reported":1730272154,"current_range_meters":38400,"station_id":"ce4bh412rcd13ifvqdr0","pricing_plan_id":"cebpf4jnsgd1na2vs0mg"},{"bike_id":"87d4cda7-2b7e-47cf-854a-98224e62b405","system_id":"levelo_inurba_marseille","lat":43.31218,"lon":5.36843,"is_reserved":false,"is_disabled":false,"rental_uris":{"android":"levelo://app?vid=87d4cda7-2b7e-47cf-854a-98224e62b405","ios":"levelo://app?vid=87d4cda7-2b7e-47cf-854a-98224e62b405"},"vehicle_type_id":"4","last_reported":1730272154,"current_range_meters":32400,"station_id":"ce4bgl92rcd13ifvqbq0","pricing_plan_id":"cebpf4jnsgd1na2vs0mg"},{"bike_id":"0b7634e6-13af-4283-b3de-438e9a5dd006","system_id":"levelo_inurba_marseille","lat":43.303398,"lon":5.368257,"is_reserved":false,"is_disabled":false,"rental_uris":{"android":"levelo://app?vid=0b7634e6-13af-4283-b3de-438e9a5dd006","ios":"levelo://app?vid=0b7634e6-13af-4283-b3de-438e9a5dd006"},"vehicle_type_id":"4","last_reported":1730272154,"current_range_meters":6800,"station_id":"ce4bgrp2rcd13ifvqc9g","pricing_plan_id":"cebpf4jnsgd1na2vs0mg"},{"bike_id":"4a223b58-dbe5-49aa-8129-929248ef0a09","system_id":"levelo_inurba_marseille","lat":43.31367,"lon":5.38508,"is_reserved":false,"is_disabled":false,"rental_uris":{"android":"levelo://app?vid=4a223b58-dbe5-49aa-8129-929248ef0a09","ios":"levelo://app?vid=4a223b58-dbe5-49aa-8129-929248ef0a09"},"vehicle_type_id":"4","last_reported":1730272154,"current_range_meters":18800,"station_id":"ce4bgt92rcd13ifvqcf0","pricing_plan_id":"cebpf4jnsgd1na2vs0mg"},{"bike_id":"491171d5-0527-410a-ada1-acc25421f1b3","system_id":"levelo_inurba_marseille","lat":43.30783,"lon":5.37656,"is_reserved":false,"is_disabled":false,"rental_uris":{"android":"levelo://app?vid=491171d5-0527-410a-ada1-acc25421f1b3","ios":"levelo://app?vid=491171d5-0527-410a-ada1-acc25421f1b3"},"vehicle_type_id":"4","last_reported":1730272154,"current_range_meters":16000,"station_id":"ce4bgv92rcd13ifvqcq0","pricing_plan_id":"cebpf4jnsgd1na2vs0mg"},{"bike_id":"defdda9f-a11b-4b2f-8fc8-580691ee0a13","system_id":"levelo_inurba_marseille","lat":43.30558,"lon":5.36538,"is_reserved":false,"is_disabled":false,"rental_uris":{"android":"levelo://app?vid=defdda9f-a11b-4b2f-8fc8-580691ee0a13","ios":"levelo://app?vid=defdda9f-a11b-4b2f-8fc8-580691ee0a13"},"vehicle_type_id":"4","last_reported":1730272154,"current_range_meters":32800,"station_id":"ce4bgs12rcd13ifvqcag","pricing_plan_id":"cebpf4jnsgd1na2vs0mg"},{"bike_id":"99a3f4d5-9ad7-4614-a88f-03f2ed75ead3","system_id":"levelo_inurba_marseille","lat":43.31708,"lon":5.37742,"is_reserved":false,"is_disabled":false,"rental_uris":{"android":"levelo://app?vid=99a3f4d5-9ad7-4614-a88f-03f2ed75ead3","ios":"levelo://app?vid=99a3f4d5-9ad7-4614-a88f-03f2ed75ead3"},"vehicle_type_id":"4","last_reported":1730272154,"current_range_meters":38800,"station_id":"ce4bgth2rcd13ifvqch0","pricing_plan_id":"cebpf4jnsgd1na2vs0mg"},{"bike_id":"3e6d7896-2b44-40ea-a659-73ee7fe5c818","system_id":"levelo_inurba_marseille","lat":43.30798,"lon":5.38165,"is_reserved":false,"is_disabled":false,"rental_uris":{"android":"levelo://app?vid=3e6d7896-2b44-40ea-a659-73ee7fe5c818","ios":"levelo://app?vid=3e6d7896-2b44-40ea-a659-73ee7fe5c818"},"vehicle_type_id":"4","last_reported":1730272154,"current_range_meters":24800,"station_id":"ce4bgt12rcd13ifvqce0","pricing_plan_id":"cebpf4jnsgd1na2vs0mg"},{"bike_id":"a499e673-4f57-4342-9063-be4db69af0ba","system_id":"levelo_inurba_marseille","lat":43.314923,"lon":5.373036,"is_reserved":false,"is_disabled":false,"rental_uris":{"android":"levelo://app?vid=a499e673-4f57-4342-9063-be4db69af0ba","ios":"levelo://app?vid=a499e673-4f57-4342-9063-be4db69af0ba"},"vehicle_type_id":"4","last_reported":1730272154,"current_range_meters":38800,"station_id":"ce4bgt12rcd13ifvqcd0","pricing_plan_id":"cebpf4jnsgd1na2vs0mg"},{"bike_id":"54454bef-56f4-4fd7-9cf7-c57a75a8c623","system_id":"levelo_inurba_marseille","lat":43.31709,"lon":5.37756,"is_reserved":false,"is_disabled":false,"rental_uris":{"android":"levelo://app?vid=54454bef-56f4-4fd7-9cf7-c57a75a8c623","ios":"levelo://app?vid=54454bef-56f4-4fd7-9cf7-c57a75a8c623"},"vehicle_type_id":"4","last_reported":1730272154,"current_range_meters":38800,"station_id":"ce4bgth2rcd13ifvqch0","pricing_plan_id":"cebpf4jnsgd1na2vs0mg"},{"bike_id":"68a95aee-44f8-4ed6-81dc-62ee58f0c73d","system_id":"levelo_inurba_marseille","lat":43.31727,"lon":5.42414,"is_reserved":false,"is_disabled":false,"rental_uris":{"android":"levelo://app?vid=68a95aee-44f8-4ed6-81dc-62ee58f0c73d","ios":"levelo://app?vid=68a95aee-44f8-4ed6-81dc-62ee58f0c73d"},"vehicle_type_id":"4","last_reported":1730272154,"current_range_meters":38800,"station_id":"ce4bhp92rcd13ifvqhbg","pricing_plan_id":"cebpf4jnsgd1na2vs0mg"},{"bike_id":"2370a04e-d358-4a29-b67a-890bf50b34fd","system_id":"levelo_inurba_marseille","lat":43.24168,"lon":5.36399,"is_reserved":false,"is_disabled":false,"rental_uris":{"android":"levelo://app?vid=2370a04e-d358-4a29-b67a-890bf50b34fd","ios":"levelo://app?vid=2370a04e-d358-4a29-b67a-890bf50b34fd"},"vehicle_type_id":"4","last_reported":1730272154,"current_range_meters":8400,"station_id":"cpo36qri1sfpv3e86is0","pricing_plan_id":"cebpf4jnsgd1na2vs0mg"},{"bike_id":"0b0066f3-3fd0-4097-b8c9-d0c6df0d8297","system_id":"levelo_inurba_marseille","lat":43.27293,"lon":5.407,"is_reserved":false,"is_disabled":false,"rental_uris":{"android":"levelo://app?vid=0b0066f3-3fd0-4097-b8c9-d0c6df0d8297","ios":"levelo://app?vid=0b0066f3-3fd0-4097-b8c9-d0c6df0d8297"},"vehicle_type_id":"4","last_reported":1730272154,"current_range_meters":23200,"station_id":"","pricing_plan_id":"cebpf4jnsgd1na2vs0mg"},{"bike_id":"538c6c97-8738-4e40-afde-1ced2fc6b778","system_id":"levelo_inurba_marseille","lat":43.33717,"lon":5.39178,"is_reserved":false,"is_disabled":false,"rental_uris":{"android":"levelo://app?vid=538c6c97-8738-4e40-afde-1ced2fc6b778","ios":"levelo://app?vid=538c6c97-8738-4e40-afde-1ced2fc6b778"},"vehicle_type_id":"4","last_reported":1730272154,"current_range_meters":37600,"station_id":"ce4bhr92rcd13ifvqhsg","pricing_plan_id":"cebpf4jnsgd1na2vs0mg"},{"bike_id":"4f4d288a-f5df-49fa-a13b-b4fefdfdb182","system_id":"levelo_inurba_marseille","lat":43.30795,"lon":5.43528,"is_reserved":false,"is_disabled":false,"rental_uris":{"android":"levelo://app?vid=4f4d288a-f5df-49fa-a13b-b4fefdfdb182","ios":"levelo://app?vid=4f4d288a-f5df-49fa-a13b-b4fefdfdb182"},"vehicle_type_id":"4","last_reported":1730272154,"current_range_meters":38400,"station_id":"ce4bhph2rcd13ifvqheg","pricing_plan_id":"cebpf4jnsgd1na2vs0mg"},{"bike_id":"499c6c2d-aadc-4271-97cd-4fcd6d5d8eeb","system_id":"levelo_inurba_marseille","lat":43.26568,"lon":5.39004,"is_reserved":false,"is_disabled":false,"rental_uris":{"android":"levelo://app?vid=499c6c2d-aadc-4271-97cd-4fcd6d5d8eeb","ios":"levelo://app?vid=499c6c2d-aadc-4271-97cd-4fcd6d5d8eeb"},"vehicle_type_id":"4","last_reported":1730272154,"current_range_meters":10000,"station_id":"ce4bhe12rcd13ifvqf30","pricing_plan_id":"cebpf4jnsgd1na2vs0mg"},{"bike_id":"03e26363-1adc-494c-8098-91070571fba5","system_id":"levelo_inurba_marseille","lat":43.23202,"lon":5.35548,"is_reserved":false,"is_disabled":false,"rental_uris":{"android":"levelo://app?vid=03e26363-1adc-494c-8098-91070571fba5","ios":"levelo://app?vid=03e26363-1adc-494c-8098-91070571fba5"},"vehicle_type_id":"4","last_reported":1730272154,"current_range_meters":32000,"station_id":"ce4bhu92rcd13ifvqi70","pricing_plan_id":"cebpf4jnsgd1na2vs0mg"},{"bike_id":"c497513d-9d1d-4320-a1e3-875a8b21d4c5","system_id":"levelo_inurba_marseille","lat":43.27181,"lon":5.40995,"is_reserved":false,"is_disabled":false,"rental_uris":{"android":"levelo://app?vid=c497513d-9d1d-4320-a1e3-875a8b21d4c5","ios":"levelo://app?vid=c497513d-9d1d-4320-a1e3-875a8b21d4c5"},"vehicle_type_id":"4","last_reported":1730272154,"current_range_meters":33600,"station_id":"ce4bhl12rcd13ifvqgf0","pricing_plan_id":"cebpf4jnsgd1na2vs0mg"},{"bike_id":"3f296890-19ce-46b6-884b-d2e34dba8783","system_id":"levelo_inurba_marseille","lat":43.24816,"lon":5.37459,"is_reserved":false,"is_disabled":false,"rental_uris":{"android":"levelo://app?vid=3f296890-19ce-46b6-884b-d2e34dba8783","ios":"levelo://app?vid=3f296890-19ce-46b6-884b-d2e34dba8783"},"vehicle_type_id":"4","last_reported":1730272154,"current_range_meters":38000,"station_id":"ce4bhgh2rcd13ifvqfb0","pricing_plan_id":"cebpf4jnsgd1na2vs0mg"},{"bike_id":"e9141b44-30ab-459c-94b2-99dbe6b7a845","system_id":"levelo_inurba_marseille","lat":43.29559,"lon":5.42288,"is_reserved":false,"is_disabled":false,"rental_uris":{"android":"levelo://app?vid=e9141b44-30ab-459c-94b2-99dbe6b7a845","ios":"levelo://app?vid=e9141b44-30ab-459c-94b2-99dbe6b7a845"},"vehicle_type_id":"4","last_reported":1730272154,"current_range_meters":36800,"station_id":"ce4bhph2rcd13ifvqhdg","pricing_plan_id":"cebpf4jnsgd1na2vs0mg"},{"bike_id":"f490c3ab-626b-499d-8386-3a1696334506","system_id":"levelo_inurba_marseille","lat":43.25827,"lon":5.39425,"is_reserved":false,"is_disabled":false,"rental_uris":{"android":"levelo://app?vid=f490c3ab-626b-499d-8386-3a1696334506","ios":"levelo://app?vid=f490c3ab-626b-499d-8386-3a1696334506"},"vehicle_type_id":"4","last_reported":1730272154,"current_range_meters":28400,"station_id":"ce4bhip2rcd13ifvqft0","pricing_plan_id":"cebpf4jnsgd1na2vs0mg"},{"bike_id":"75313b0b-fea0-43a4-930b-001fbd31ad06","system_id":"levelo_inurba_marseille","lat":43.33605,"lon":5.40988,"is_reserved":false,"is_disabled":false,"rental_uris":{"android":"levelo://app?vid=75313b0b-fea0-43a4-930b-001fbd31ad06","ios":"levelo://app?vid=75313b0b-fea0-43a4-930b-001fbd31ad06"},"vehicle_type_id":"4","last_reported":1730272154,"current_range_meters":13600,"station_id":"ce4bhqh2rcd13ifvqhmg","pricing_plan_id":"cebpf4jnsgd1na2vs0mg"},{"bike_id":"8fc8f69f-228e-4754-8013-e3713d197b92","system_id":"levelo_inurba_marseille","lat":43.24675,"lon":5.38146,"is_reserved":false,"is_disabled":false,"rental_uris":{"android":"levelo://app?vid=8fc8f69f-228e-4754-8013-e3713d197b92","ios":"levelo://app?vid=8fc8f69f-228e-4754-8013-e3713d197b92"},"vehicle_type_id":"4","last_reported":1730272154,"current_range_meters":39200,"station_id":"ce4bhih2rcd13ifvqfr0","pricing_plan_id":"cebpf4jnsgd1na2vs0mg"},{"bike_id":"6b778970-7ca1-4912-8b3b-f071e3ca997e","system_id":"levelo_inurba_marseille","lat":43.31274,"lon":5.40169,"is_reserved":false,"is_disabled":false,"rental_uris":{"android":"levelo://app?vid=6b778970-7ca1-4912-8b3b-f071e3ca997e","ios":"levelo://app?vid=6b778970-7ca1-4912-8b3b-f071e3ca997e"},"vehicle_type_id":"4","last_reported":1730272154,"current_range_meters":36400,"station_id":"ce4bh092rcd13ifvqd30","pricing_plan_id":"cebpf4jnsgd1na2vs0mg"},{"bike_id":"a306c469-7544-4489-af82-e9fb1e9b4215","system_id":"levelo_inurba_marseille","lat":43.23191,"lon":5.39985,"is_reserved":false,"is_disabled":false,"rental_uris":{"android":"levelo://app?vid=a306c469-7544-4489-af82-e9fb1e9b4215","ios":"levelo://app?vid=a306c469-7544-4489-af82-e9fb1e9b4215"},"vehicle_type_id":"4","last_reported":1730272154,"current_range_meters":38800,"station_id":"ce4bhn12rcd13ifvqgqg","pricing_plan_id":"cebpf4jnsgd1na2vs0mg"},{"bike_id":"670dd631-18b7-4713-a903-23b5a1df838c","system_id":"levelo_inurba_marseille","lat":43.285759,"lon":5.394986,"is_reserved":false,"is_disabled":false,"rental_uris":{"android":"levelo://app?vid=670dd631-18b7-4713-a903-23b5a1df838c","ios":"levelo://app?vid=670dd631-18b7-4713-a903-23b5a1df838c"},"vehicle_type_id":"4","last_reported":1730272154,"current_range_meters":39200,"station_id":"ce4bh292rcd13ifvqdg0","pricing_plan_id":"cebpf4jnsgd1na2vs0mg"},{"bike_id":"845448ed-72f4-49ca-ab14-b3b26f1da83b","system_id":"levelo_inurba_marseille","lat":43.29803,"lon":5.38117,"is_reserved":false,"is_disabled":false,"rental_uris":{"android":"levelo://app?vid=845448ed-72f4-49ca-ab14-b3b26f1da83b","ios":"levelo://app?vid=845448ed-72f4-49ca-ab14-b3b26f1da83b"},"vehicle_type_id":"4","last_reported":1730272154,"current_range_meters":39200,"station_id":"ce4bgip2rcd13ifvqbb0","pricing_plan_id":"cebpf4jnsgd1na2vs0mg"},{"bike_id":"8a887737-7e46-46e5-b8c8-107a72ab24e0","system_id":"levelo_inurba_marseille","lat":43.28367,"lon":5.38641,"is_reserved":false,"is_disabled":false,"rental_uris":{"android":"levelo://app?vid=8a887737-7e46-46e5-b8c8-107a72ab24e0","ios":"levelo://app?vid=8a887737-7e46-46e5-b8c8-107a72ab24e0"},"vehicle_type_id":"4","last_reported":1730272154,"current_range_meters":37600,"station_id":"ce4bh492rcd13ifvqdvg","pricing_plan_id":"cebpf4jnsgd1na2vs0mg"},{"bike_id":"949f6ed7-a890-4a64-beb2-6928cdd2f3a5","system_id":"levelo_inurba_marseille","lat":43.29732,"lon":5.37678,"is_reserved":false,"is_disabled":false,"rental_uris":{"android":"levelo://app?vid=949f6ed7-a890-4a64-beb2-6928cdd2f3a5","ios":"levelo://app?vid=949f6ed7-a890-4a64-beb2-6928cdd2f3a5"},"vehicle_type_id":"4","last_reported":1730272154,"current_range_meters":38000,"station_id":"ce4bgkh2rcd13ifvqbl0","pricing_plan_id":"cebpf4jnsgd1na2vs0mg"},{"bike_id":"ed92bf9f-16c6-45be-b3c5-e88f3873d492","system_id":"levelo_inurba_marseille","lat":43.30429,"lon":5.39757,"is_reserved":false,"is_disabled":false,"rental_uris":{"android":"levelo://app?vid=ed92bf9f-16c6-45be-b3c5-e88f3873d492","ios":"levelo://app?vid=ed92bf9f-16c6-45be-b3c5-e88f3873d492"},"vehicle_type_id":"4","last_reported":1730272154,"current_range_meters":19600,"station_id":"ce4bh092rcd13ifvqd20","pricing_plan_id":"cebpf4jnsgd1na2vs0mg"},{"bike_id":"ce642b4d-6a4f-49db-83c6-c16832b3110f","system_id":"levelo_inurba_marseille","lat":43.24384,"lon":5.37057,"is_reserved":false,"is_disabled":false,"rental_uris":{"android":"levelo://app?vid=ce642b4d-6a4f-49db-83c6-c16832b3110f","ios":"levelo://app?vid=ce642b4d-6a4f-49db-83c6-c16832b3110f"},"vehicle_type_id":"4","last_reported":1730272154,"current_range_meters":35600,"station_id":"ce4bhhh2rcd13ifvqfk0","pricing_plan_id":"cebpf4jnsgd1na2vs0mg"},{"bike_id":"65ebd49a-94e0-4731-b170-9f1ac0fc0675","system_id":"levelo_inurba_marseille","lat":43.315351,"lon":5.380277,"is_reserved":false,"is_disabled":false,"rental_uris":{"android":"levelo://app?vid=65ebd49a-94e0-4731-b170-9f1ac0fc0675","ios":"levelo://app?vid=65ebd49a-94e0-4731-b170-9f1ac0fc0675"},"vehicle_type_id":"4","last_reported":1730272154,"current_range_meters":26800,"station_id":"ce4bhsp2rcd13ifvqi50","pricing_plan_id":"cebpf4jnsgd1na2vs0mg"},{"bike_id":"d8727bac-17ee-4f4a-ac67-5aef09323d56","system_id":"levelo_inurba_marseille","lat":43.31341,"lon":5.36706,"is_reserved":false,"is_disabled":false,"rental_uris":{"android":"levelo://app?vid=d8727bac-17ee-4f4a-ac67-5aef09323d56","ios":"levelo://app?vid=d8727bac-17ee-4f4a-ac67-5aef09323d56"},"vehicle_type_id":"4","last_reported":1730272154,"current_range_meters":5600,"station_id":"ce4bgr92rcd13ifvqc6g","pricing_plan_id":"cebpf4jnsgd1na2vs0mg"},{"bike_id":"b87636ba-074b-49ec-8abf-f6529ae02217","system_id":"levelo_inurba_marseille","lat":43.27907,"lon":5.38021,"is_reserved":false,"is_disabled":false,"rental_uris":{"android":"levelo://app?vid=b87636ba-074b-49ec-8abf-f6529ae02217","ios":"levelo://app?vid=b87636ba-074b-49ec-8abf-f6529ae02217"},"vehicle_type_id":"4","last_reported":1730272154,"current_range_meters":3200,"station_id":"ce4bhf92rcd13ifvqf50","pricing_plan_id":"cebpf4jnsgd1na2vs0mg"},{"bike_id":"adc4ccfa-08cc-485d-bffe-b868b40b0ee8","system_id":"levelo_inurba_marseille","lat":43.30847,"lon":5.38101,"is_reserved":false,"is_disabled":false,"rental_uris":{"android":"levelo://app?vid=adc4ccfa-08cc-485d-bffe-b868b40b0ee8","ios":"levelo://app?vid=adc4ccfa-08cc-485d-bffe-b868b40b0ee8"},"vehicle_type_id":"4","last_reported":1730272154,"current_range_meters":3200,"station_id":"","pricing_plan_id":"cebpf4jnsgd1na2vs0mg"},{"bike_id":"6e5174db-5df0-4a3e-b32e-08282eb0eb4d","system_id":"levelo_inurba_marseille","lat":43.27436,"lon":5.394105,"is_reserved":false,"is_disabled":false,"rental_uris":{"android":"levelo://app?vid=6e5174db-5df0-4a3e-b32e-08282eb0eb4d","ios":"levelo://app?vid=6e5174db-5df0-4a3e-b32e-08282eb0eb4d"},"vehicle_type_id":"4","last_reported":1730272154,"current_range_meters":38800,"station_id":"ce4bhdp2rcd13ifvqf20","pricing_plan_id":"cebpf4jnsgd1na2vs0mg"},{"bike_id":"ee26da9d-e8bb-4883-b9e7-7b9a7f97a4ae","system_id":"levelo_inurba_marseille","lat":43.28855,"lon":5.39331,"is_reserved":false,"is_disabled":false,"rental_uris":{"android":"levelo://app?vid=ee26da9d-e8bb-4883-b9e7-7b9a7f97a4ae","ios":"levelo://app?vid=ee26da9d-e8bb-4883-b9e7-7b9a7f97a4ae"},"vehicle_type_id":"4","last_reported":1730272154,"current_range_meters":38800,"station_id":"ce4bh2p2rcd13ifvqdi0","pricing_plan_id":"cebpf4jnsgd1na2vs0mg"},{"bike_id":"7095b495-718a-4796-8fa3-b738528aec6e","system_id":"levelo_inurba_marseille","lat":43.32365,"lon":5.38894,"is_reserved":false,"is_disabled":false,"rental_uris":{"android":"levelo://app?vid=7095b495-718a-4796-8fa3-b738528aec6e","ios":"levelo://app?vid=7095b495-718a-4796-8fa3-b738528aec6e"},"vehicle_type_id":"4","last_reported":1730272154,"current_range_meters":33600,"station_id":"ce4bhqp2rcd13ifvqhog","pricing_plan_id":"cebpf4jnsgd1na2vs0mg"},{"bike_id":"fe2904da-4ac6-42de-b232-dbec16338c49","system_id":"levelo_inurba_marseille","lat":43.33679,"lon":5.35763,"is_reserved":false,"is_disabled":false,"rental_uris":{"android":"levelo://app?vid=fe2904da-4ac6-42de-b232-dbec16338c49","ios":"levelo://app?vid=fe2904da-4ac6-42de-b232-dbec16338c49"},"vehicle_type_id":"4","last_reported":1730272154,"current_range_meters":25600,"station_id":"","pricing_plan_id":"cebpf4jnsgd1na2vs0mg"},{"bike_id":"7a244493-4ede-4d2d-9fa1-8472dcb15858","system_id":"levelo_inurba_marseille","lat":43.30142,"lon":5.38771,"is_reserved":false,"is_disabled":false,"rental_uris":{"android":"levelo://app?vid=7a244493-4ede-4d2d-9fa1-8472dcb15858","ios":"levelo://app?vid=7a244493-4ede-4d2d-9fa1-8472dcb15858"},"vehicle_type_id":"4","last_reported":1730272154,"current_range_meters":36400,"station_id":"ce4bghh2rcd13ifvqb60","pricing_plan_id":"cebpf4jnsgd1na2vs0mg"},{"bike_id":"dbfafde0-c582-408a-8e0f-30168d4bd53c","system_id":"levelo_inurba_marseille","lat":43.25581,"lon":5.38249,"is_reserved":false,"is_disabled":false,"rental_uris":{"android":"levelo://app?vid=dbfafde0-c582-408a-8e0f-30168d4bd53c","ios":"levelo://app?vid=dbfafde0-c582-408a-8e0f-30168d4bd53c"},"vehicle_type_id":"4","last_reported":1730272154,"current_range_meters":28400,"station_id":"ce4bhih2rcd13ifvqfs0","pricing_plan_id":"cebpf4jnsgd1na2vs0mg"},{"bike_id":"288f8dcf-45f6-4787-9211-21bf95dc6ebe","system_id":"levelo_inurba_marseille","lat":43.29966,"lon":5.41324,"is_reserved":false,"is_disabled":false,"rental_uris":{"android":"levelo://app?vid=288f8dcf-45f6-4787-9211-21bf95dc6ebe","ios":"levelo://app?vid=288f8dcf-45f6-4787-9211-21bf95dc6ebe"},"vehicle_type_id":"4","last_reported":1730272154,"current_range_meters":28800,"station_id":"ce4bhp12rcd13ifvqh9g","pricing_plan_id":"cebpf4jnsgd1na2vs0mg"},{"bike_id":"9fb02925-e4c3-48e2-94e9-d105ec3f767a","system_id":"levelo_inurba_marseille","lat":43.30776,"lon":5.3766,"is_reserved":false,"is_disabled":false,"rental_uris":{"android":"levelo://app?vid=9fb02925-e4c3-48e2-94e9-d105ec3f767a","ios":"levelo://app?vid=9fb02925-e4c3-48e2-94e9-d105ec3f767a"},"vehicle_type_id":"4","last_reported":1730272154,"current_range_meters":38800,"station_id":"ce4bgv92rcd13ifvqcq0","pricing_plan_id":"cebpf4jnsgd1na2vs0mg"},{"bike_id":"539f9a48-f3c4-4b3d-b50a-f20cbac5b70d","system_id":"levelo_inurba_marseille","lat":43.32114,"lon":5.36775,"is_reserved":false,"is_disabled":false,"rental_uris":{"android":"levelo://app?vid=539f9a48-f3c4-4b3d-b50a-f20cbac5b70d","ios":"levelo://app?vid=539f9a48-f3c4-4b3d-b50a-f20cbac5b70d"},"vehicle_type_id":"4","last_reported":1730272154,"current_range_meters":30000,"station_id":"ce4bhrh2rcd13ifvqhug","pricing_plan_id":"cebpf4jnsgd1na2vs0mg"},{"bike_id":"5d0ab462-5e9c-4a72-bbdf-6ab74cea48c8","system_id":"levelo_inurba_marseille","lat":43.28476,"lon":5.38418,"is_reserved":false,"is_disabled":false,"rental_uris":{"android":"levelo://app?vid=5d0ab462-5e9c-4a72-bbdf-6ab74cea48c8","ios":"levelo://app?vid=5d0ab462-5e9c-4a72-bbdf-6ab74cea48c8"},"vehicle_type_id":"4","last_reported":1730272154,"current_range_meters":12000,"station_id":"ce4bh512rcd13ifvqe3g","pricing_plan_id":"cebpf4jnsgd1na2vs0mg"},{"bike_id":"85eb1623-cf0d-4000-9758-94265df58566","system_id":"levelo_inurba_marseille","lat":43.30539,"lon":5.36728,"is_reserved":false,"is_disabled":false,"rental_uris":{"android":"levelo://app?vid=85eb1623-cf0d-4000-9758-94265df58566","ios":"levelo://app?vid=85eb1623-cf0d-4000-9758-94265df58566"},"vehicle_type_id":"4","last_reported":1730272154,"current_range_meters":35600,"station_id":"ce4bgrp2rcd13ifvqc9g","pricing_plan_id":"cebpf4jnsgd1na2vs0mg"},{"bike_id":"25e90825-819c-494a-9a04-12bbb0c56b6b","system_id":"levelo_inurba_marseille","lat":43.3153,"lon":5.38037,"is_reserved":false,"is_disabled":false,"rental_uris":{"android":"levelo://app?vid=25e90825-819c-494a-9a04-12bbb0c56b6b","ios":"levelo://app?vid=25e90825-819c-494a-9a04-12bbb0c56b6b"},"vehicle_type_id":"4","last_reported":1730272154,"current_range_meters":29600,"station_id":"ce4bhsp2rcd13ifvqi50","pricing_plan_id":"cebpf4jnsgd1na2vs0mg"},{"bike_id":"2dc2e7aa-c9cc-457e-aadf-e56119f0ec59","system_id":"levelo_inurba_marseille","lat":43.23196,"lon":5.35546,"is_reserved":false,"is_disabled":false,"rental_uris":{"android":"levelo://app?vid=2dc2e7aa-c9cc-457e-aadf-e56119f0ec59","ios":"levelo://app?vid=2dc2e7aa-c9cc-457e-aadf-e56119f0ec59"},"vehicle_type_id":"4","last_reported":1730272154,"current_range_meters":27600,"station_id":"ce4bhu92rcd13ifvqi70","pricing_plan_id":"cebpf4jnsgd1na2vs0mg"},{"bike_id":"2b575ed5-87bd-4034-925a-491ff39f79c1","system_id":"levelo_inurba_marseille","lat":43.26062,"lon":5.39397,"is_reserved":false,"is_disabled":false,"rental_uris":{"android":"levelo://app?vid=2b575ed5-87bd-4034-925a-491ff39f79c1","ios":"levelo://app?vid=2b575ed5-87bd-4034-925a-491ff39f79c1"},"vehicle_type_id":"4","last_reported":1730272154,"current_range_meters":16400,"station_id":"ce4bhh92rcd13ifvqfj0","pricing_plan_id":"cebpf4jnsgd1na2vs0mg"},{"bike_id":"c4f705f9-cb6e-4d01-b200-9f8930e5dd6b","system_id":"levelo_inurba_marseille","lat":43.24179,"lon":5.39731,"is_reserved":false,"is_disabled":false,"rental_uris":{"android":"levelo://app?vid=c4f705f9-cb6e-4d01-b200-9f8930e5dd6b","ios":"levelo://app?vid=c4f705f9-cb6e-4d01-b200-9f8930e5dd6b"},"vehicle_type_id":"4","last_reported":1730272154,"current_range_meters":38400,"station_id":"ce4bhn12rcd13ifvqgpg","pricing_plan_id":"cebpf4jnsgd1na2vs0mg"},{"bike_id":"32724ce4-79b3-4766-bd7f-1b32301ca45e","system_id":"levelo_inurba_marseille","lat":43.25584,"lon":5.3825,"is_reserved":false,"is_disabled":false,"rental_uris":{"android":"levelo://app?vid=32724ce4-79b3-4766-bd7f-1b32301ca45e","ios":"levelo://app?vid=32724ce4-79b3-4766-bd7f-1b32301ca45e"},"vehicle_type_id":"4","last_reported":1730272154,"current_range_meters":16800,"station_id":"ce4bhih2rcd13ifvqfs0","pricing_plan_id":"cebpf4jnsgd1na2vs0mg"},{"bike_id":"28cbcf23-5ad0-4746-be8b-7a028cbebf33","system_id":"levelo_inurba_marseille","lat":43.32645,"lon":5.38864,"is_reserved":false,"is_disabled":false,"rental_uris":{"android":"levelo://app?vid=28cbcf23-5ad0-4746-be8b-7a028cbebf33","ios":"levelo://app?vid=28cbcf23-5ad0-4746-be8b-7a028cbebf33"},"vehicle_type_id":"4","last_reported":1730272154,"current_range_meters":33200,"station_id":"","pricing_plan_id":"cebpf4jnsgd1na2vs0mg"},{"bike_id":"a2477818-773c-42a3-addf-f5090414cb02","system_id":"levelo_inurba_marseille","lat":43.260605,"lon":5.393955,"is_reserved":false,"is_disabled":false,"rental_uris":{"android":"levelo://app?vid=a2477818-773c-42a3-addf-f5090414cb02","ios":"levelo://app?vid=a2477818-773c-42a3-addf-f5090414cb02"},"vehicle_type_id":"4","last_reported":1730272154,"current_range_meters":2000,"station_id":"ce4bhh92rcd13ifvqfj0","pricing_plan_id":"cebpf4jnsgd1na2vs0mg"},{"bike_id":"249f4139-b1bb-4fc2-87b9-dd8c4909e5b1","system_id":"levelo_inurba_marseille","lat":43.29551,"lon":5.42287,"is_reserved":false,"is_disabled":false,"rental_uris":{"android":"levelo://app?vid=249f4139-b1bb-4fc2-87b9-dd8c4909e5b1","ios":"levelo://app?vid=249f4139-b1bb-4fc2-87b9-dd8c4909e5b1"},"vehicle_type_id":"4","last_reported":1730272154,"current_range_meters":40000,"station_id":"ce4bhph2rcd13ifvqhdg","pricing_plan_id":"cebpf4jnsgd1na2vs0mg"},{"bike_id":"53eb6c66-b12c-466e-af32-042a668df35f","system_id":"levelo_inurba_marseille","lat":43.23192,"lon":5.39983,"is_reserved":false,"is_disabled":false,"rental_uris":{"android":"levelo://app?vid=53eb6c66-b12c-466e-af32-042a668df35f","ios":"levelo://app?vid=53eb6c66-b12c-466e-af32-042a668df35f"},"vehicle_type_id":"4","last_reported":1730272154,"current_range_meters":39200,"station_id":"ce4bhn12rcd13ifvqgqg","pricing_plan_id":"cebpf4jnsgd1na2vs0mg"},{"bike_id":"1b07f283-46fb-41a4-9864-1dfd968369c3","system_id":"levelo_inurba_marseille","lat":43.32364,"lon":5.3889,"is_reserved":false,"is_disabled":false,"rental_uris":{"android":"levelo://app?vid=1b07f283-46fb-41a4-9864-1dfd968369c3","ios":"levelo://app?vid=1b07f283-46fb-41a4-9864-1dfd968369c3"},"vehicle_type_id":"4","last_reported":1730272154,"current_range_meters":16800,"station_id":"ce4bhqp2rcd13ifvqhog","pricing_plan_id":"cebpf4jnsgd1na2vs0mg"},{"bike_id":"8651d626-8e95-4744-a4e4-f4a48cdab093","system_id":"levelo_inurba_marseille","lat":43.26558,"lon":5.37286,"is_reserved":false,"is_disabled":false,"rental_uris":{"android":"levelo://app?vid=8651d626-8e95-4744-a4e4-f4a48cdab093","ios":"levelo://app?vid=8651d626-8e95-4744-a4e4-f4a48cdab093"},"vehicle_type_id":"4","last_reported":1730272154,"current_range_meters":30000,"station_id":"ce4bhg12rcd13ifvqf70","pricing_plan_id":"cebpf4jnsgd1na2vs0mg"},{"bike_id":"e9d5f856-d46f-47de-8318-6124ee5e67ab","system_id":"levelo_inurba_marseille","lat":43.308031,"lon":5.381528,"is_reserved":false,"is_disabled":false,"rental_uris":{"android":"levelo://app?vid=e9d5f856-d46f-47de-8318-6124ee5e67ab","ios":"levelo://app?vid=e9d5f856-d46f-47de-8318-6124ee5e67ab"},"vehicle_type_id":"4","last_reported":1730272154,"current_range_meters":8000,"station_id":"ce4bgt12rcd13ifvqce0","pricing_plan_id":"cebpf4jnsgd1na2vs0mg"},{"bike_id":"2d198377-2c19-4e5f-b7b9-5acc4795c543","system_id":"levelo_inurba_marseille","lat":43.31757,"lon":5.39021,"is_reserved":false,"is_disabled":false,"rental_uris":{"android":"levelo://app?vid=2d198377-2c19-4e5f-b7b9-5acc4795c543","ios":"levelo://app?vid=2d198377-2c19-4e5f-b7b9-5acc4795c543"},"vehicle_type_id":"4","last_reported":1730272154,"current_range_meters":9600,"station_id":"ce4bhqp2rcd13ifvqhng","pricing_plan_id":"cebpf4jnsgd1na2vs0mg"},{"bike_id":"c14c7f66-0e2c-436a-94dc-9cb9f4071e75","system_id":"levelo_inurba_marseille","lat":43.30145,"lon":5.38081,"is_reserved":false,"is_disabled":false,"rental_uris":{"android":"levelo://app?vid=c14c7f66-0e2c-436a-94dc-9cb9f4071e75","ios":"levelo://app?vid=c14c7f66-0e2c-436a-94dc-9cb9f4071e75"},"vehicle_type_id":"4","last_reported":1730272154,"current_range_meters":34800,"station_id":"ce4bgjp2rcd13ifvqbh0","pricing_plan_id":"cebpf4jnsgd1na2vs0mg"},{"bike_id":"5da84c8a-0785-4f55-b177-f17040c2e314","system_id":"levelo_inurba_marseille","lat":43.31885,"lon":5.4073,"is_reserved":false,"is_disabled":false,"rental_uris":{"android":"levelo://app?vid=5da84c8a-0785-4f55-b177-f17040c2e314","ios":"levelo://app?vid=5da84c8a-0785-4f55-b177-f17040c2e314"},"vehicle_type_id":"4","last_reported":1730272154,"current_range_meters":9200,"station_id":"ce4bhq12rcd13ifvqhig","pricing_plan_id":"cebpf4jnsgd1na2vs0mg"},{"bike_id":"9445a670-8cad-4552-a342-d1a968da3c5a","system_id":"levelo_inurba_marseille","lat":43.320531,"lon":5.415435,"is_reserved":false,"is_disabled":false,"rental_uris":{"android":"levelo://app?vid=9445a670-8cad-4552-a342-d1a968da3c5a","ios":"levelo://app?vid=9445a670-8cad-4552-a342-d1a968da3c5a"},"vehicle_type_id":"4","last_reported":1730272154,"current_range_meters":38800,"station_id":"ce4bhq92rcd13ifvqhkg","pricing_plan_id":"cebpf4jnsgd1na2vs0mg"},{"bike_id":"8450f925-c63d-4339-8773-878a68d7ac14","system_id":"levelo_inurba_marseille","lat":43.304932,"lon":5.373373,"is_reserved":false,"is_disabled":false,"rental_uris":{"android":"levelo://app?vid=8450f925-c63d-4339-8773-878a68d7ac14","ios":"levelo://app?vid=8450f925-c63d-4339-8773-878a68d7ac14"},"vehicle_type_id":"4","last_reported":1730272154,"current_range_meters":13600,"station_id":"ce4bgt12rcd13ifvqce0","pricing_plan_id":"cebpf4jnsgd1na2vs0mg"},{"bike_id":"d2c17046-9896-432f-9e17-bbc2b6ac2460","system_id":"levelo_inurba_marseille","lat":43.29228,"lon":5.36056,"is_reserved":false,"is_disabled":false,"rental_uris":{"android":"levelo://app?vid=d2c17046-9896-432f-9e17-bbc2b6ac2460","ios":"levelo://app?vid=d2c17046-9896-432f-9e17-bbc2b6ac2460"},"vehicle_type_id":"4","last_reported":1730272154,"current_range_meters":37600,"station_id":"ce4bhbh2rcd13ifvqeqg","pricing_plan_id":"cebpf4jnsgd1na2vs0mg"},{"bike_id":"fc857e95-ca7f-4c06-b13e-5bb6b2b76a8b","system_id":"levelo_inurba_marseille","lat":43.23192,"lon":5.39982,"is_reserved":false,"is_disabled":false,"rental_uris":{"android":"levelo://app?vid=fc857e95-ca7f-4c06-b13e-5bb6b2b76a8b","ios":"levelo://app?vid=fc857e95-ca7f-4c06-b13e-5bb6b2b76a8b"},"vehicle_type_id":"4","last_reported":1730272154,"current_range_meters":39200,"station_id":"ce4bhn12rcd13ifvqgqg","pricing_plan_id":"cebpf4jnsgd1na2vs0mg"},{"bike_id":"a1f83bf3-eed6-45ed-a98a-d29a1a4fe512","system_id":"levelo_inurba_marseille","lat":43.299213,"lon":5.413063,"is_reserved":false,"is_disabled":false,"rental_uris":{"android":"levelo://app?vid=a1f83bf3-eed6-45ed-a98a-d29a1a4fe512","ios":"levelo://app?vid=a1f83bf3-eed6-45ed-a98a-d29a1a4fe512"},"vehicle_type_id":"4","last_reported":1730272154,"current_range_meters":24000,"station_id":"ce4bhp12rcd13ifvqh9g","pricing_plan_id":"cebpf4jnsgd1na2vs0mg"},{"bike_id":"1b036d37-0f1b-4561-ab87-73126aa178df","system_id":"levelo_inurba_marseille","lat":43.27993,"lon":5.41658,"is_reserved":false,"is_disabled":false,"rental_uris":{"android":"levelo://app?vid=1b036d37-0f1b-4561-ab87-73126aa178df","ios":"levelo://app?vid=1b036d37-0f1b-4561-ab87-73126aa178df"},"vehicle_type_id":"4","last_reported":1730272154,"current_range_meters":38800,"station_id":"ce4bho12rcd13ifvqh1g","pricing_plan_id":"cebpf4jnsgd1na2vs0mg"},{"bike_id":"9678c87f-0fe5-42fe-8091-e9f73268dc70","system_id":"levelo_inurba_marseille","lat":43.28463,"lon":5.35891,"is_reserved":false,"is_disabled":false,"rental_uris":{"android":"levelo://app?vid=9678c87f-0fe5-42fe-8091-e9f73268dc70","ios":"levelo://app?vid=9678c87f-0fe5-42fe-8091-e9f73268dc70"},"vehicle_type_id":"4","last_reported":1730272154,"current_range_meters":38400,"station_id":"ce4bhah2rcd13ifvqei0","pricing_plan_id":"cebpf4jnsgd1na2vs0mg"},{"bike_id":"4aea2264-7c38-4c9d-b643-fddc90b2caa0","system_id":"levelo_inurba_marseille","lat":43.27499,"lon":5.42449,"is_reserved":false,"is_disabled":false,"rental_uris":{"android":"levelo://app?vid=4aea2264-7c38-4c9d-b643-fddc90b2caa0","ios":"levelo://app?vid=4aea2264-7c38-4c9d-b643-fddc90b2caa0"},"vehicle_type_id":"4","last_reported":1730272154,"current_range_meters":38800,"station_id":"ce4bhn92rcd13ifvqgrg","pricing_plan_id":"cebpf4jnsgd1na2vs0mg"},{"bike_id":"351dccbd-a807-4132-b4c9-7a5fba47cf84","system_id":"levelo_inurba_marseille","lat":43.266826,"lon":5.382708,"is_reserved":false,"is_disabled":false,"rental_uris":{"android":"levelo://app?vid=351dccbd-a807-4132-b4c9-7a5fba47cf84","ios":"levelo://app?vid=351dccbd-a807-4132-b4c9-7a5fba47cf84"},"vehicle_type_id":"4","last_reported":1730272154,"current_range_meters":33600,"station_id":"ce4bh4p2rcd13ifvqe1g","pricing_plan_id":"cebpf4jnsgd1na2vs0mg"},{"bike_id":"52fea5e1-5085-45ba-9106-30292305cb80","system_id":"levelo_inurba_marseille","lat":43.25117,"lon":5.40324,"is_reserved":false,"is_disabled":false,"rental_uris":{"android":"levelo://app?vid=52fea5e1-5085-45ba-9106-30292305cb80","ios":"levelo://app?vid=52fea5e1-5085-45ba-9106-30292305cb80"},"vehicle_type_id":"4","last_reported":1730272154,"current_range_meters":3600,"station_id":"ce4bhlh2rcd13ifvqgig","pricing_plan_id":"cebpf4jnsgd1na2vs0mg"},{"bike_id":"31d8acc7-b248-42e9-89fe-8107bf8c6790","system_id":"levelo_inurba_marseille","lat":43.28479,"lon":5.38558,"is_reserved":false,"is_disabled":false,"rental_uris":{"android":"levelo://app?vid=31d8acc7-b248-42e9-89fe-8107bf8c6790","ios":"levelo://app?vid=31d8acc7-b248-42e9-89fe-8107bf8c6790"},"vehicle_type_id":"4","last_reported":1730272154,"current_range_meters":20000,"station_id":"ce4bh8p2rcd13ifvqeb0","pricing_plan_id":"cebpf4jnsgd1na2vs0mg"},{"bike_id":"766801a5-7dbd-464a-bc56-398e14b9cf78","system_id":"levelo_inurba_marseille","lat":43.29805,"lon":5.37136,"is_reserved":false,"is_disabled":false,"rental_uris":{"android":"levelo://app?vid=766801a5-7dbd-464a-bc56-398e14b9cf78","ios":"levelo://app?vid=766801a5-7dbd-464a-bc56-398e14b9cf78"},"vehicle_type_id":"4","last_reported":1730272154,"current_range_meters":7200,"station_id":"","pricing_plan_id":"cebpf4jnsgd1na2vs0mg"},{"bike_id":"afc8a59e-718c-432c-b226-d6be0903e5fb","system_id":"levelo_inurba_marseille","lat":43.24397,"lon":5.37062,"is_reserved":false,"is_disabled":false,"rental_uris":{"android":"levelo://app?vid=afc8a59e-718c-432c-b226-d6be0903e5fb","ios":"levelo://app?vid=afc8a59e-718c-432c-b226-d6be0903e5fb"},"vehicle_type_id":"4","last_reported":1730272154,"current_range_meters":34800,"station_id":"ce4bhhh2rcd13ifvqfk0","pricing_plan_id":"cebpf4jnsgd1na2vs0mg"},{"bike_id":"82b84855-c758-4a47-9f5e-92c4c940506e","system_id":"levelo_inurba_marseille","lat":43.31089,"lon":5.38349,"is_reserved":false,"is_disabled":false,"rental_uris":{"android":"levelo://app?vid=82b84855-c758-4a47-9f5e-92c4c940506e","ios":"levelo://app?vid=82b84855-c758-4a47-9f5e-92c4c940506e"},"vehicle_type_id":"4","last_reported":1730272154,"current_range_meters":28400,"station_id":"ce4bgv92rcd13ifvqcr0","pricing_plan_id":"cebpf4jnsgd1na2vs0mg"},{"bike_id":"72e37474-1bc8-4568-aec8-ce5464e6b828","system_id":"levelo_inurba_marseille","lat":43.23199,"lon":5.35548,"is_reserved":false,"is_disabled":false,"rental_uris":{"android":"levelo://app?vid=72e37474-1bc8-4568-aec8-ce5464e6b828","ios":"levelo://app?vid=72e37474-1bc8-4568-aec8-ce5464e6b828"},"vehicle_type_id":"4","last_reported":1730272154,"current_range_meters":30400,"station_id":"ce4bhu92rcd13ifvqi70","pricing_plan_id":"cebpf4jnsgd1na2vs0mg"},{"bike_id":"0e1fd082-d5f2-4414-95b1-59e222e0e6af","system_id":"levelo_inurba_marseille","lat":43.30427,"lon":5.39756,"is_reserved":false,"is_disabled":false,"rental_uris":{"android":"levelo://app?vid=0e1fd082-d5f2-4414-95b1-59e222e0e6af","ios":"levelo://app?vid=0e1fd082-d5f2-4414-95b1-59e222e0e6af"},"vehicle_type_id":"4","last_reported":1730272154,"current_range_meters":28000,"station_id":"ce4bh092rcd13ifvqd20","pricing_plan_id":"cebpf4jnsgd1na2vs0mg"},{"bike_id":"456cbe5f-5d22-41ce-8d7b-d9113261b82f","system_id":"levelo_inurba_marseille","lat":43.26059,"lon":5.39397,"is_reserved":false,"is_disabled":false,"rental_uris":{"android":"levelo://app?vid=456cbe5f-5d22-41ce-8d7b-d9113261b82f","ios":"levelo://app?vid=456cbe5f-5d22-41ce-8d7b-d9113261b82f"},"vehicle_type_id":"4","last_reported":1730272154,"current_range_meters":39200,"station_id":"ce4bhh92rcd13ifvqfj0","pricing_plan_id":"cebpf4jnsgd1na2vs0mg"},{"bike_id":"b44a1a41-2a48-4e63-b7c8-462ef7e93632","system_id":"levelo_inurba_marseille","lat":43.30941,"lon":5.40152,"is_reserved":false,"is_disabled":false,"rental_uris":{"android":"levelo://app?vid=b44a1a41-2a48-4e63-b7c8-462ef7e93632","ios":"levelo://app?vid=b44a1a41-2a48-4e63-b7c8-462ef7e93632"},"vehicle_type_id":"4","last_reported":1730272154,"current_range_meters":21600,"station_id":"ce4bgvp2rcd13ifvqct0","pricing_plan_id":"cebpf4jnsgd1na2vs0mg"},{"bike_id":"745c611f-7cf2-45b3-be9a-3ae257834356","system_id":"levelo_inurba_marseille","lat":43.24386,"lon":5.37062,"is_reserved":false,"is_disabled":false,"rental_uris":{"android":"levelo://app?vid=745c611f-7cf2-45b3-be9a-3ae257834356","ios":"levelo://app?vid=745c611f-7cf2-45b3-be9a-3ae257834356"},"vehicle_type_id":"4","last_reported":1730272154,"current_range_meters":16800,"station_id":"ce4bhhh2rcd13ifvqfk0","pricing_plan_id":"cebpf4jnsgd1na2vs0mg"},{"bike_id":"77dc0b08-ea4e-4b2d-b82f-fcf9cdff2fbe","system_id":"levelo_inurba_marseille","lat":43.28672,"lon":5.3635,"is_reserved":false,"is_disabled":false,"rental_uris":{"android":"levelo://app?vid=77dc0b08-ea4e-4b2d-b82f-fcf9cdff2fbe","ios":"levelo://app?vid=77dc0b08-ea4e-4b2d-b82f-fcf9cdff2fbe"},"vehicle_type_id":"4","last_reported":1730272154,"current_range_meters":38800,"station_id":"ce4bhah2rcd13ifvqej0","pricing_plan_id":"cebpf4jnsgd1na2vs0mg"},{"bike_id":"84a34f64-d710-4f7b-8f16-f367a9f930e0","system_id":"levelo_inurba_marseille","lat":43.26064,"lon":5.39392,"is_reserved":false,"is_disabled":false,"rental_uris":{"android":"levelo://app?vid=84a34f64-d710-4f7b-8f16-f367a9f930e0","ios":"levelo://app?vid=84a34f64-d710-4f7b-8f16-f367a9f930e0"},"vehicle_type_id":"4","last_reported":1730272154,"current_range_meters":27200,"station_id":"ce4bhh92rcd13ifvqfj0","pricing_plan_id":"cebpf4jnsgd1na2vs0mg"},{"bike_id":"91946efe-7e95-4a94-8b9c-52232b5c9d19","system_id":"levelo_inurba_marseille","lat":43.29418,"lon":5.38626,"is_reserved":false,"is_disabled":false,"rental_uris":{"android":"levelo://app?vid=91946efe-7e95-4a94-8b9c-52232b5c9d19","ios":"levelo://app?vid=91946efe-7e95-4a94-8b9c-52232b5c9d19"},"vehicle_type_id":"4","last_reported":1730272154,"current_range_meters":33600,"station_id":"ce4bh2h2rcd13ifvqdh0","pricing_plan_id":"cebpf4jnsgd1na2vs0mg"},{"bike_id":"d6e7be28-f5b8-4d36-af4f-c3475ff7ed29","system_id":"levelo_inurba_marseille","lat":43.27818,"lon":5.40712,"is_reserved":false,"is_disabled":false,"rental_uris":{"android":"levelo://app?vid=d6e7be28-f5b8-4d36-af4f-c3475ff7ed29","ios":"levelo://app?vid=d6e7be28-f5b8-4d36-af4f-c3475ff7ed29"},"vehicle_type_id":"4","last_reported":1730272154,"current_range_meters":38800,"station_id":"ce4bhnh2rcd13ifvqgtg","pricing_plan_id":"cebpf4jnsgd1na2vs0mg"},{"bike_id":"cf1bf93e-b987-4f03-9549-b984bb838aa3","system_id":"levelo_inurba_marseille","lat":43.26782,"lon":5.394188,"is_reserved":false,"is_disabled":false,"rental_uris":{"android":"levelo://app?vid=cf1bf93e-b987-4f03-9549-b984bb838aa3","ios":"levelo://app?vid=cf1bf93e-b987-4f03-9549-b984bb838aa3"},"vehicle_type_id":"4","last_reported":1730272154,"current_range_meters":38400,"station_id":"ce4bhh12rcd13ifvqfg0","pricing_plan_id":"cebpf4jnsgd1na2vs0mg"},{"bike_id":"b76a38e9-45ec-4afc-b514-c5026792aa86","system_id":"levelo_inurba_marseille","lat":43.24077,"lon":5.37753,"is_reserved":false,"is_disabled":false,"rental_uris":{"android":"levelo://app?vid=b76a38e9-45ec-4afc-b514-c5026792aa86","ios":"levelo://app?vid=b76a38e9-45ec-4afc-b514-c5026792aa86"},"vehicle_type_id":"4","last_reported":1730272154,"current_range_meters":33200,"station_id":"ce4bhnp2rcd13ifvqgvg","pricing_plan_id":"cebpf4jnsgd1na2vs0mg"},{"bike_id":"6b171497-8673-4b44-8346-938a9306e0e6","system_id":"levelo_inurba_marseille","lat":43.28156,"lon":5.426475,"is_reserved":false,"is_disabled":false,"rental_uris":{"android":"levelo://app?vid=6b171497-8673-4b44-8346-938a9306e0e6","ios":"levelo://app?vid=6b171497-8673-4b44-8346-938a9306e0e6"},"vehicle_type_id":"4","last_reported":1730272154,"current_range_meters":33600,"station_id":"ce4bhnh2rcd13ifvqgug","pricing_plan_id":"cebpf4jnsgd1na2vs0mg"},{"bike_id":"e1b5f1ad-a4dd-4981-bcdb-fa984ea6644b","system_id":"levelo_inurba_marseille","lat":43.28344,"lon":5.38111,"is_reserved":false,"is_disabled":false,"rental_uris":{"android":"levelo://app?vid=e1b5f1ad-a4dd-4981-bcdb-fa984ea6644b","ios":"levelo://app?vid=e1b5f1ad-a4dd-4981-bcdb-fa984ea6644b"},"vehicle_type_id":"4","last_reported":1730272154,"current_range_meters":20400,"station_id":"ce4bh412rcd13ifvqdr0","pricing_plan_id":"cebpf4jnsgd1na2vs0mg"},{"bike_id":"d8b80407-d1df-4c98-9380-8388a999fe75","system_id":"levelo_inurba_marseille","lat":43.30091,"lon":5.39084,"is_reserved":false,"is_disabled":false,"rental_uris":{"android":"levelo://app?vid=d8b80407-d1df-4c98-9380-8388a999fe75","ios":"levelo://app?vid=d8b80407-d1df-4c98-9380-8388a999fe75"},"vehicle_type_id":"4","last_reported":1730272154,"current_range_meters":37600,"station_id":"ce4bh192rcd13ifvqdb0","pricing_plan_id":"cebpf4jnsgd1na2vs0mg"},{"bike_id":"75645640-a347-4705-966c-cee9dcce09c4","system_id":"levelo_inurba_marseille","lat":43.26122,"lon":5.40091,"is_reserved":false,"is_disabled":false,"rental_uris":{"android":"levelo://app?vid=75645640-a347-4705-966c-cee9dcce09c4","ios":"levelo://app?vid=75645640-a347-4705-966c-cee9dcce09c4"},"vehicle_type_id":"4","last_reported":1730272154,"current_range_meters":8000,"station_id":"","pricing_plan_id":"cebpf4jnsgd1na2vs0mg"},{"bike_id":"ed4542ec-a766-43c5-bc78-9617bcbbe71c","system_id":"levelo_inurba_marseille","lat":43.2587,"lon":5.39899,"is_reserved":false,"is_disabled":false,"rental_uris":{"android":"levelo://app?vid=ed4542ec-a766-43c5-bc78-9617bcbbe71c","ios":"levelo://app?vid=ed4542ec-a766-43c5-bc78-9617bcbbe71c"},"vehicle_type_id":"4","last_reported":1730272154,"current_range_meters":9600,"station_id":"ce4bhl92rcd13ifvqghg","pricing_plan_id":"cebpf4jnsgd1na2vs0mg"},{"bike_id":"ebf77a3a-1c0a-4ffd-b9ca-bd51ea4bdf11","system_id":"levelo_inurba_marseille","lat":43.30933,"lon":5.40142,"is_reserved":false,"is_disabled":false,"rental_uris":{"android":"levelo://app?vid=ebf77a3a-1c0a-4ffd-b9ca-bd51ea4bdf11","ios":"levelo://app?vid=ebf77a3a-1c0a-4ffd-b9ca-bd51ea4bdf11"},"vehicle_type_id":"4","last_reported":1730272154,"current_range_meters":37600,"station_id":"ce4bgvp2rcd13ifvqct0","pricing_plan_id":"cebpf4jnsgd1na2vs0mg"},{"bike_id":"93b4ce8a-0b78-4b32-a1ed-2cbedab5fa25","system_id":"levelo_inurba_marseille","lat":43.29198,"lon":5.39312,"is_reserved":false,"is_disabled":false,"rental_uris":{"android":"levelo://app?vid=93b4ce8a-0b78-4b32-a1ed-2cbedab5fa25","ios":"levelo://app?vid=93b4ce8a-0b78-4b32-a1ed-2cbedab5fa25"},"vehicle_type_id":"4","last_reported":1730272154,"current_range_meters":37600,"station_id":"ce4bh192rcd13ifvqdd0","pricing_plan_id":"cebpf4jnsgd1na2vs0mg"},{"bike_id":"e1076c3b-90da-4316-a469-492badcea040","system_id":"levelo_inurba_marseille","lat":43.30565,"lon":5.38419,"is_reserved":false,"is_disabled":false,"rental_uris":{"android":"levelo://app?vid=e1076c3b-90da-4316-a469-492badcea040","ios":"levelo://app?vid=e1076c3b-90da-4316-a469-492badcea040"},"vehicle_type_id":"4","last_reported":1730272154,"current_range_meters":37600,"station_id":"ce4bgg92rcd13ifvqb30","pricing_plan_id":"cebpf4jnsgd1na2vs0mg"},{"bike_id":"a06aaa3a-469c-4c08-9a71-0d7e5c362262","system_id":"levelo_inurba_marseille","lat":43.33727,"lon":5.39178,"is_reserved":false,"is_disabled":false,"rental_uris":{"android":"levelo://app?vid=a06aaa3a-469c-4c08-9a71-0d7e5c362262","ios":"levelo://app?vid=a06aaa3a-469c-4c08-9a71-0d7e5c362262"},"vehicle_type_id":"4","last_reported":1730272154,"current_range_meters":28000,"station_id":"ce4bhr92rcd13ifvqhsg","pricing_plan_id":"cebpf4jnsgd1na2vs0mg"},{"bike_id":"02708bf0-c603-4183-b09d-ef1307f56110","system_id":"levelo_inurba_marseille","lat":43.30467,"lon":5.37902,"is_reserved":false,"is_disabled":false,"rental_uris":{"android":"levelo://app?vid=02708bf0-c603-4183-b09d-ef1307f56110","ios":"levelo://app?vid=02708bf0-c603-4183-b09d-ef1307f56110"},"vehicle_type_id":"4","last_reported":1730272154,"current_range_meters":36800,"station_id":"ce4bgup2rcd13ifvqcn0","pricing_plan_id":"cebpf4jnsgd1na2vs0mg"},{"bike_id":"9edc36f4-135d-42d2-92a2-d0261c2f2bbe","system_id":"levelo_inurba_marseille","lat":43.32037,"lon":5.4157,"is_reserved":false,"is_disabled":false,"rental_uris":{"android":"levelo://app?vid=9edc36f4-135d-42d2-92a2-d0261c2f2bbe","ios":"levelo://app?vid=9edc36f4-135d-42d2-92a2-d0261c2f2bbe"},"vehicle_type_id":"4","last_reported":1730272154,"current_range_meters":38000,"station_id":"ce4bhq92rcd13ifvqhkg","pricing_plan_id":"cebpf4jnsgd1na2vs0mg"},{"bike_id":"692f4667-f76c-430b-b818-4551bb65a622","system_id":"levelo_inurba_marseille","lat":43.313686,"lon":5.384928,"is_reserved":false,"is_disabled":false,"rental_uris":{"android":"levelo://app?vid=692f4667-f76c-430b-b818-4551bb65a622","ios":"levelo://app?vid=692f4667-f76c-430b-b818-4551bb65a622"},"vehicle_type_id":"4","last_reported":1730272154,"current_range_meters":32000,"station_id":"ce4bgt92rcd13ifvqcf0","pricing_plan_id":"cebpf4jnsgd1na2vs0mg"},{"bike_id":"d3834406-5180-48ae-986e-7eca8f9a66e3","system_id":"levelo_inurba_marseille","lat":43.27075,"lon":5.42281,"is_reserved":false,"is_disabled":false,"rental_uris":{"android":"levelo://app?vid=d3834406-5180-48ae-986e-7eca8f9a66e3","ios":"levelo://app?vid=d3834406-5180-48ae-986e-7eca8f9a66e3"},"vehicle_type_id":"4","last_reported":1730272154,"current_range_meters":22000,"station_id":"ce4bhk92rcd13ifvqgb0","pricing_plan_id":"cebpf4jnsgd1na2vs0mg"},{"bike_id":"5f55a478-20a0-46a1-a11f-40a416535d47","system_id":"levelo_inurba_marseille","lat":43.30543,"lon":5.38432,"is_reserved":false,"is_disabled":false,"rental_uris":{"android":"levelo://app?vid=5f55a478-20a0-46a1-a11f-40a416535d47","ios":"levelo://app?vid=5f55a478-20a0-46a1-a11f-40a416535d47"},"vehicle_type_id":"4","last_reported":1730272154,"current_range_meters":38800,"station_id":"ce4bgg92rcd13ifvqb30","pricing_plan_id":"cebpf4jnsgd1na2vs0mg"},{"bike_id":"96cd2a77-e3b6-47fc-955f-5080a2bfaf42","system_id":"levelo_inurba_marseille","lat":43.23194,"lon":5.39983,"is_reserved":false,"is_disabled":false,"rental_uris":{"android":"levelo://app?vid=96cd2a77-e3b6-47fc-955f-5080a2bfaf42","ios":"levelo://app?vid=96cd2a77-e3b6-47fc-955f-5080a2bfaf42"},"vehicle_type_id":"4","last_reported":1730272154,"current_range_meters":38400,"station_id":"ce4bhn12rcd13ifvqgqg","pricing_plan_id":"cebpf4jnsgd1na2vs0mg"},{"bike_id":"440a1209-24a9-496b-b976-9e17002d1022","system_id":"levelo_inurba_marseille","lat":43.31365,"lon":5.38501,"is_reserved":false,"is_disabled":false,"rental_uris":{"android":"levelo://app?vid=440a1209-24a9-496b-b976-9e17002d1022","ios":"levelo://app?vid=440a1209-24a9-496b-b976-9e17002d1022"},"vehicle_type_id":"4","last_reported":1730272154,"current_range_meters":36800,"station_id":"ce4bgt92rcd13ifvqcf0","pricing_plan_id":"cebpf4jnsgd1na2vs0mg"},{"bike_id":"13c85d59-c7cb-409d-b7e2-9aa757f7035f","system_id":"levelo_inurba_marseille","lat":43.32655,"lon":5.40991,"is_reserved":false,"is_disabled":false,"rental_uris":{"android":"levelo://app?vid=13c85d59-c7cb-409d-b7e2-9aa757f7035f","ios":"levelo://app?vid=13c85d59-c7cb-409d-b7e2-9aa757f7035f"},"vehicle_type_id":"4","last_reported":1730272154,"current_range_meters":8000,"station_id":"ce4bhpp2rcd13ifvqhgg","pricing_plan_id":"cebpf4jnsgd1na2vs0mg"},{"bike_id":"99d2b6c3-4379-4a9a-933b-2d5a9480f4f1","system_id":"levelo_inurba_marseille","lat":43.31528,"lon":5.38033,"is_reserved":false,"is_disabled":false,"rental_uris":{"android":"levelo://app?vid=99d2b6c3-4379-4a9a-933b-2d5a9480f4f1","ios":"levelo://app?vid=99d2b6c3-4379-4a9a-933b-2d5a9480f4f1"},"vehicle_type_id":"4","last_reported":1730272154,"current_range_meters":37600,"station_id":"ce4bhsp2rcd13ifvqi50","pricing_plan_id":"cebpf4jnsgd1na2vs0mg"},{"bike_id":"b48eacfa-a4c4-4e90-acf3-6e3bbaaa5f6e","system_id":"levelo_inurba_marseille","lat":43.30922,"lon":5.40141,"is_reserved":false,"is_disabled":false,"rental_uris":{"android":"levelo://app?vid=b48eacfa-a4c4-4e90-acf3-6e3bbaaa5f6e","ios":"levelo://app?vid=b48eacfa-a4c4-4e90-acf3-6e3bbaaa5f6e"},"vehicle_type_id":"4","last_reported":1730272154,"current_range_meters":38800,"station_id":"ce4bgvp2rcd13ifvqct0","pricing_plan_id":"cebpf4jnsgd1na2vs0mg"},{"bike_id":"5ea475d8-fbf3-460f-872c-01c8b0273f69","system_id":"levelo_inurba_marseille","lat":43.23049,"lon":5.35497,"is_reserved":false,"is_disabled":false,"rental_uris":{"android":"levelo://app?vid=5ea475d8-fbf3-460f-872c-01c8b0273f69","ios":"levelo://app?vid=5ea475d8-fbf3-460f-872c-01c8b0273f69"},"vehicle_type_id":"4","last_reported":1730272154,"current_range_meters":9600,"station_id":"cpo3342slgdg3j2ifvpg","pricing_plan_id":"cebpf4jnsgd1na2vs0mg"},{"bike_id":"2be9bc22-5c5c-4737-9da1-744ca95ac8b4","system_id":"levelo_inurba_marseille","lat":43.32662,"lon":5.40992,"is_reserved":false,"is_disabled":false,"rental_uris":{"android":"levelo://app?vid=2be9bc22-5c5c-4737-9da1-744ca95ac8b4","ios":"levelo://app?vid=2be9bc22-5c5c-4737-9da1-744ca95ac8b4"},"vehicle_type_id":"4","last_reported":1730272154,"current_range_meters":6400,"station_id":"ce4bhpp2rcd13ifvqhgg","pricing_plan_id":"cebpf4jnsgd1na2vs0mg"},{"bike_id":"59c7403a-36af-4ab9-a8fb-4e8f180bdcbe","system_id":"levelo_inurba_marseille","lat":43.24084,"lon":5.37753,"is_reserved":false,"is_disabled":false,"rental_uris":{"android":"levelo://app?vid=59c7403a-36af-4ab9-a8fb-4e8f180bdcbe","ios":"levelo://app?vid=59c7403a-36af-4ab9-a8fb-4e8f180bdcbe"},"vehicle_type_id":"4","last_reported":1730272154,"current_range_meters":8000,"station_id":"ce4bhnp2rcd13ifvqgvg","pricing_plan_id":"cebpf4jnsgd1na2vs0mg"},{"bike_id":"319628af-6ed0-4c6b-85da-8e8cbc64e217","system_id":"levelo_inurba_marseille","lat":43.24388,"lon":5.37058,"is_reserved":false,"is_disabled":false,"rental_uris":{"android":"levelo://app?vid=319628af-6ed0-4c6b-85da-8e8cbc64e217","ios":"levelo://app?vid=319628af-6ed0-4c6b-85da-8e8cbc64e217"},"vehicle_type_id":"4","last_reported":1730272154,"current_range_meters":37600,"station_id":"ce4bhhh2rcd13ifvqfk0","pricing_plan_id":"cebpf4jnsgd1na2vs0mg"},{"bike_id":"96f1fe2b-27b3-45a5-8e58-f339dd6c49b1","system_id":"levelo_inurba_marseille","lat":43.28224,"lon":5.399696,"is_reserved":false,"is_disabled":false,"rental_uris":{"android":"levelo://app?vid=96f1fe2b-27b3-45a5-8e58-f339dd6c49b1","ios":"levelo://app?vid=96f1fe2b-27b3-45a5-8e58-f339dd6c49b1"},"vehicle_type_id":"4","last_reported":1730272154,"current_range_meters":35200,"station_id":"ce4bgs12rcd13ifvqcag","pricing_plan_id":"cebpf4jnsgd1na2vs0mg"},{"bike_id":"9093d695-bec2-4727-9c9c-01c6d9e2075a","system_id":"levelo_inurba_marseille","lat":43.25934,"lon":5.40898,"is_reserved":false,"is_disabled":false,"rental_uris":{"android":"levelo://app?vid=9093d695-bec2-4727-9c9c-01c6d9e2075a","ios":"levelo://app?vid=9093d695-bec2-4727-9c9c-01c6d9e2075a"},"vehicle_type_id":"4","last_reported":1730272154,"current_range_meters":30000,"station_id":"ce4bhm92rcd13ifvqglg","pricing_plan_id":"cebpf4jnsgd1na2vs0mg"},{"bike_id":"2a59e468-664b-4487-a13d-372ee2a99421","system_id":"levelo_inurba_marseille","lat":43.30279,"lon":5.37692,"is_reserved":false,"is_disabled":false,"rental_uris":{"android":"levelo://app?vid=2a59e468-664b-4487-a13d-372ee2a99421","ios":"levelo://app?vid=2a59e468-664b-4487-a13d-372ee2a99421"},"vehicle_type_id":"4","last_reported":1730272154,"current_range_meters":39200,"station_id":"ce4bguh2rcd13ifvqcj0","pricing_plan_id":"cebpf4jnsgd1na2vs0mg"},{"bike_id":"5aecf52a-143c-4328-8118-c219e78a16dc","system_id":"levelo_inurba_marseille","lat":43.24801,"lon":5.37451,"is_reserved":false,"is_disabled":false,"rental_uris":{"android":"levelo://app?vid=5aecf52a-143c-4328-8118-c219e78a16dc","ios":"levelo://app?vid=5aecf52a-143c-4328-8118-c219e78a16dc"},"vehicle_type_id":"4","last_reported":1730272154,"current_range_meters":32400,"station_id":"ce4bhgh2rcd13ifvqfb0","pricing_plan_id":"cebpf4jnsgd1na2vs0mg"},{"bike_id":"77f9416c-2752-4d2f-ba7e-9dd2db802b3e","system_id":"levelo_inurba_marseille","lat":43.31285,"lon":5.4017,"is_reserved":false,"is_disabled":false,"rental_uris":{"android":"levelo://app?vid=77f9416c-2752-4d2f-ba7e-9dd2db802b3e","ios":"levelo://app?vid=77f9416c-2752-4d2f-ba7e-9dd2db802b3e"},"vehicle_type_id":"4","last_reported":1730272154,"current_range_meters":38800,"station_id":"ce4bh092rcd13ifvqd30","pricing_plan_id":"cebpf4jnsgd1na2vs0mg"},{"bike_id":"7e113cc6-0abb-4603-ad87-b0ebb7d42677","system_id":"levelo_inurba_marseille","lat":43.29319,"lon":5.37183,"is_reserved":false,"is_disabled":false,"rental_uris":{"android":"levelo://app?vid=7e113cc6-0abb-4603-ad87-b0ebb7d42677","ios":"levelo://app?vid=7e113cc6-0abb-4603-ad87-b0ebb7d42677"},"vehicle_type_id":"4","last_reported":1730272154,"current_range_meters":38400,"station_id":"ce4bgh92rcd13ifvqb40","pricing_plan_id":"cebpf4jnsgd1na2vs0mg"},{"bike_id":"b032dfcf-4e26-4322-bd52-698311f945e5","system_id":"levelo_inurba_marseille","lat":43.31167,"lon":5.3871,"is_reserved":false,"is_disabled":false,"rental_uris":{"android":"levelo://app?vid=b032dfcf-4e26-4322-bd52-698311f945e5","ios":"levelo://app?vid=b032dfcf-4e26-4322-bd52-698311f945e5"},"vehicle_type_id":"4","last_reported":1730272154,"current_range_meters":37600,"station_id":"ce4bgv12rcd13ifvqcp0","pricing_plan_id":"cebpf4jnsgd1na2vs0mg"},{"bike_id":"88456c58-8a86-4248-a56d-f1d008db9204","system_id":"levelo_inurba_marseille","lat":43.30476,"lon":5.37901,"is_reserved":false,"is_disabled":false,"rental_uris":{"android":"levelo://app?vid=88456c58-8a86-4248-a56d-f1d008db9204","ios":"levelo://app?vid=88456c58-8a86-4248-a56d-f1d008db9204"},"vehicle_type_id":"4","last_reported":1730272154,"current_range_meters":29600,"station_id":"ce4bgup2rcd13ifvqcn0","pricing_plan_id":"cebpf4jnsgd1na2vs0mg"},{"bike_id":"0d11924e-90f8-4e65-9ad7-e24a5944ef25","system_id":"levelo_inurba_marseille","lat":43.289435,"lon":5.366427,"is_reserved":false,"is_disabled":false,"rental_uris":{"android":"levelo://app?vid=0d11924e-90f8-4e65-9ad7-e24a5944ef25","ios":"levelo://app?vid=0d11924e-90f8-4e65-9ad7-e24a5944ef25"},"vehicle_type_id":"4","last_reported":1730272154,"current_range_meters":38000,"station_id":"ce4bhap2rcd13ifvqek0","pricing_plan_id":"cebpf4jnsgd1na2vs0mg"},{"bike_id":"b790193a-8708-4799-82fd-b210d26e523e","system_id":"levelo_inurba_marseille","lat":43.30796,"lon":5.38157,"is_reserved":false,"is_disabled":false,"rental_uris":{"android":"levelo://app?vid=b790193a-8708-4799-82fd-b210d26e523e","ios":"levelo://app?vid=b790193a-8708-4799-82fd-b210d26e523e"},"vehicle_type_id":"4","last_reported":1730272154,"current_range_meters":8000,"station_id":"ce4bgt12rcd13ifvqce0","pricing_plan_id":"cebpf4jnsgd1na2vs0mg"},{"bike_id":"cb6da5ef-8d54-462a-ac5c-1582820bec3a","system_id":"levelo_inurba_marseille","lat":43.26499,"lon":5.39545,"is_reserved":false,"is_disabled":false,"rental_uris":{"android":"levelo://app?vid=cb6da5ef-8d54-462a-ac5c-1582820bec3a","ios":"levelo://app?vid=cb6da5ef-8d54-462a-ac5c-1582820bec3a"},"vehicle_type_id":"4","last_reported":1730272154,"current_range_meters":9600,"station_id":"ce4bhi12rcd13ifvqfq0","pricing_plan_id":"cebpf4jnsgd1na2vs0mg"},{"bike_id":"c8ef3d06-424b-4084-a839-d037aab9cd63","system_id":"levelo_inurba_marseille","lat":43.31348,"lon":5.38509,"is_reserved":false,"is_disabled":false,"rental_uris":{"android":"levelo://app?vid=c8ef3d06-424b-4084-a839-d037aab9cd63","ios":"levelo://app?vid=c8ef3d06-424b-4084-a839-d037aab9cd63"},"vehicle_type_id":"4","last_reported":1730272154,"current_range_meters":38000,"station_id":"ce4bgt92rcd13ifvqcf0","pricing_plan_id":"cebpf4jnsgd1na2vs0mg"},{"bike_id":"3d788157-f09c-4d6a-8fdb-d09d8ddfb910","system_id":"levelo_inurba_marseille","lat":43.30461,"lon":5.379065,"is_reserved":false,"is_disabled":false,"rental_uris":{"android":"levelo://app?vid=3d788157-f09c-4d6a-8fdb-d09d8ddfb910","ios":"levelo://app?vid=3d788157-f09c-4d6a-8fdb-d09d8ddfb910"},"vehicle_type_id":"4","last_reported":1730272154,"current_range_meters":38400,"station_id":"ce4bh492rcd13ifvqdug","pricing_plan_id":"cebpf4jnsgd1na2vs0mg"},{"bike_id":"46f2d309-31ac-4b44-9b8c-3d6b64e54188","system_id":"levelo_inurba_marseille","lat":43.30651,"lon":5.40075,"is_reserved":false,"is_disabled":false,"rental_uris":{"android":"levelo://app?vid=46f2d309-31ac-4b44-9b8c-3d6b64e54188","ios":"levelo://app?vid=46f2d309-31ac-4b44-9b8c-3d6b64e54188"},"vehicle_type_id":"4","last_reported":1730272154,"current_range_meters":26800,"station_id":"ce4bh112rcd13ifvqda0","pricing_plan_id":"cebpf4jnsgd1na2vs0mg"},{"bike_id":"ea848b0a-5785-4e5d-83d4-e4515f54c692","system_id":"levelo_inurba_marseille","lat":43.23193,"lon":5.39983,"is_reserved":false,"is_disabled":false,"rental_uris":{"android":"levelo://app?vid=ea848b0a-5785-4e5d-83d4-e4515f54c692","ios":"levelo://app?vid=ea848b0a-5785-4e5d-83d4-e4515f54c692"},"vehicle_type_id":"4","last_reported":1730272154,"current_range_meters":27200,"station_id":"ce4bhn12rcd13ifvqgqg","pricing_plan_id":"cebpf4jnsgd1na2vs0mg"},{"bike_id":"d330032c-578a-40e3-99e4-e077b38f5f89","system_id":"levelo_inurba_marseille","lat":43.30885,"lon":5.3964,"is_reserved":false,"is_disabled":false,"rental_uris":{"android":"levelo://app?vid=d330032c-578a-40e3-99e4-e077b38f5f89","ios":"levelo://app?vid=d330032c-578a-40e3-99e4-e077b38f5f89"},"vehicle_type_id":"4","last_reported":1730272154,"current_range_meters":37600,"station_id":"ce4bh012rcd13ifvqcv0","pricing_plan_id":"cebpf4jnsgd1na2vs0mg"},{"bike_id":"cba2a67d-6fda-44bd-86a3-7d37451102af","system_id":"levelo_inurba_marseille","lat":43.30149,"lon":5.38077,"is_reserved":false,"is_disabled":false,"rental_uris":{"android":"levelo://app?vid=cba2a67d-6fda-44bd-86a3-7d37451102af","ios":"levelo://app?vid=cba2a67d-6fda-44bd-86a3-7d37451102af"},"vehicle_type_id":"4","last_reported":1730272154,"current_range_meters":35200,"station_id":"ce4bgjp2rcd13ifvqbh0","pricing_plan_id":"cebpf4jnsgd1na2vs0mg"},{"bike_id":"1768b2ed-b293-42f5-a095-345317bb060b","system_id":"levelo_inurba_marseille","lat":43.30905,"lon":5.36844,"is_reserved":false,"is_disabled":false,"rental_uris":{"android":"levelo://app?vid=1768b2ed-b293-42f5-a095-345317bb060b","ios":"levelo://app?vid=1768b2ed-b293-42f5-a095-345317bb060b"},"vehicle_type_id":"4","last_reported":1730272154,"current_range_meters":24400,"station_id":"ce4bgn92rcd13ifvqbvg","pricing_plan_id":"cebpf4jnsgd1na2vs0mg"},{"bike_id":"e1d5344e-a6d4-4068-bf2e-e347a3432fb0","system_id":"levelo_inurba_marseille","lat":43.30283,"lon":5.37697,"is_reserved":false,"is_disabled":false,"rental_uris":{"android":"levelo://app?vid=e1d5344e-a6d4-4068-bf2e-e347a3432fb0","ios":"levelo://app?vid=e1d5344e-a6d4-4068-bf2e-e347a3432fb0"},"vehicle_type_id":"4","last_reported":1730272154,"current_range_meters":35600,"station_id":"ce4bguh2rcd13ifvqcj0","pricing_plan_id":"cebpf4jnsgd1na2vs0mg"},{"bike_id":"03f9e53e-7a03-4a95-9ef4-373c86c54ed6","system_id":"levelo_inurba_marseille","lat":43.27581,"lon":5.40891,"is_reserved":false,"is_disabled":false,"rental_uris":{"android":"levelo://app?vid=03f9e53e-7a03-4a95-9ef4-373c86c54ed6","ios":"levelo://app?vid=03f9e53e-7a03-4a95-9ef4-373c86c54ed6"},"vehicle_type_id":"4","last_reported":1730272154,"current_range_meters":36800,"station_id":"","pricing_plan_id":"cebpf4jnsgd1na2vs0mg"},{"bike_id":"a0a2b278-3c52-4c26-9330-91fb0b590d02","system_id":"levelo_inurba_marseille","lat":43.30157,"lon":5.38082,"is_reserved":false,"is_disabled":false,"rental_uris":{"android":"levelo://app?vid=a0a2b278-3c52-4c26-9330-91fb0b590d02","ios":"levelo://app?vid=a0a2b278-3c52-4c26-9330-91fb0b590d02"},"vehicle_type_id":"4","last_reported":1730272154,"current_range_meters":33200,"station_id":"ce4bgjp2rcd13ifvqbh0","pricing_plan_id":"cebpf4jnsgd1na2vs0mg"},{"bike_id":"160c3125-d109-49e3-a687-ede78b99dea2","system_id":"levelo_inurba_marseille","lat":43.23196,"lon":5.35544,"is_reserved":false,"is_disabled":false,"rental_uris":{"android":"levelo://app?vid=160c3125-d109-49e3-a687-ede78b99dea2","ios":"levelo://app?vid=160c3125-d109-49e3-a687-ede78b99dea2"},"vehicle_type_id":"4","last_reported":1730272154,"current_range_meters":11200,"station_id":"ce4bhu92rcd13ifvqi70","pricing_plan_id":"cebpf4jnsgd1na2vs0mg"},{"bike_id":"5dabbc13-411e-42f2-b6b7-494430433cbb","system_id":"levelo_inurba_marseille","lat":43.28464,"lon":5.35882,"is_reserved":false,"is_disabled":false,"rental_uris":{"android":"levelo://app?vid=5dabbc13-411e-42f2-b6b7-494430433cbb","ios":"levelo://app?vid=5dabbc13-411e-42f2-b6b7-494430433cbb"},"vehicle_type_id":"4","last_reported":1730272154,"current_range_meters":33200,"station_id":"ce4bhah2rcd13ifvqei0","pricing_plan_id":"cebpf4jnsgd1na2vs0mg"},{"bike_id":"d15e5a3a-5812-42ae-8a22-b064b9e316b7","system_id":"levelo_inurba_marseille","lat":43.279936,"lon":5.400084,"is_reserved":false,"is_disabled":false,"rental_uris":{"android":"levelo://app?vid=d15e5a3a-5812-42ae-8a22-b064b9e316b7","ios":"levelo://app?vid=d15e5a3a-5812-42ae-8a22-b064b9e316b7"},"vehicle_type_id":"4","last_reported":1730272154,"current_range_meters":36800,"station_id":"ce4bho92rcd13ifvqh4g","pricing_plan_id":"cebpf4jnsgd1na2vs0mg"},{"bike_id":"c31e247a-4881-43f6-909e-04b8ca603479","system_id":"levelo_inurba_marseille","lat":43.24398,"lon":5.37056,"is_reserved":false,"is_disabled":false,"rental_uris":{"android":"levelo://app?vid=c31e247a-4881-43f6-909e-04b8ca603479","ios":"levelo://app?vid=c31e247a-4881-43f6-909e-04b8ca603479"},"vehicle_type_id":"4","last_reported":1730272154,"current_range_meters":35600,"station_id":"ce4bhhh2rcd13ifvqfk0","pricing_plan_id":"cebpf4jnsgd1na2vs0mg"},{"bike_id":"07e324bc-7357-4a50-a71d-ea19063c9374","system_id":"levelo_inurba_marseille","lat":43.27204,"lon":5.39979,"is_reserved":false,"is_disabled":false,"rental_uris":{"android":"levelo://app?vid=07e324bc-7357-4a50-a71d-ea19063c9374","ios":"levelo://app?vid=07e324bc-7357-4a50-a71d-ea19063c9374"},"vehicle_type_id":"4","last_reported":1730272154,"current_range_meters":14800,"station_id":"","pricing_plan_id":"cebpf4jnsgd1na2vs0mg"},{"bike_id":"ccdfd319-6908-4ad8-9315-50628bb4a478","system_id":"levelo_inurba_marseille","lat":43.27178,"lon":5.40986,"is_reserved":false,"is_disabled":false,"rental_uris":{"android":"levelo://app?vid=ccdfd319-6908-4ad8-9315-50628bb4a478","ios":"levelo://app?vid=ccdfd319-6908-4ad8-9315-50628bb4a478"},"vehicle_type_id":"4","last_reported":1730272154,"current_range_meters":38800,"station_id":"ce4bhl12rcd13ifvqgf0","pricing_plan_id":"cebpf4jnsgd1na2vs0mg"},{"bike_id":"436067c3-32c1-46bc-894e-d7be2d545a26","system_id":"levelo_inurba_marseille","lat":43.32661,"lon":5.40991,"is_reserved":false,"is_disabled":false,"rental_uris":{"android":"levelo://app?vid=436067c3-32c1-46bc-894e-d7be2d545a26","ios":"levelo://app?vid=436067c3-32c1-46bc-894e-d7be2d545a26"},"vehicle_type_id":"4","last_reported":1730272154,"current_range_meters":26000,"station_id":"ce4bhpp2rcd13ifvqhgg","pricing_plan_id":"cebpf4jnsgd1na2vs0mg"},{"bike_id":"0fe14beb-5168-49aa-a3f9-ee00e6d1612f","system_id":"levelo_inurba_marseille","lat":43.24682,"lon":5.38154,"is_reserved":false,"is_disabled":false,"rental_uris":{"android":"levelo://app?vid=0fe14beb-5168-49aa-a3f9-ee00e6d1612f","ios":"levelo://app?vid=0fe14beb-5168-49aa-a3f9-ee00e6d1612f"},"vehicle_type_id":"4","last_reported":1730272154,"current_range_meters":3200,"station_id":"ce4bhih2rcd13ifvqfr0","pricing_plan_id":"cebpf4jnsgd1na2vs0mg"},{"bike_id":"f2c1121c-5c92-4221-a002-33aa3e39f748","system_id":"levelo_inurba_marseille","lat":43.33603,"lon":5.41025,"is_reserved":false,"is_disabled":false,"rental_uris":{"android":"levelo://app?vid=f2c1121c-5c92-4221-a002-33aa3e39f748","ios":"levelo://app?vid=f2c1121c-5c92-4221-a002-33aa3e39f748"},"vehicle_type_id":"4","last_reported":1730272154,"current_range_meters":17200,"station_id":"ce4bhqh2rcd13ifvqhmg","pricing_plan_id":"cebpf4jnsgd1na2vs0mg"},{"bike_id":"4a0bb0ef-00dc-48c7-a3b7-438a4766edc6","system_id":"levelo_inurba_marseille","lat":43.27956,"lon":5.4104,"is_reserved":false,"is_disabled":false,"rental_uris":{"android":"levelo://app?vid=4a0bb0ef-00dc-48c7-a3b7-438a4766edc6","ios":"levelo://app?vid=4a0bb0ef-00dc-48c7-a3b7-438a4766edc6"},"vehicle_type_id":"4","last_reported":1730272154,"current_range_meters":20800,"station_id":"ce4bhnp2rcd13ifvqh0g","pricing_plan_id":"cebpf4jnsgd1na2vs0mg"},{"bike_id":"1cdad1e0-5255-4c69-973d-12b025ca8c3e","system_id":"levelo_inurba_marseille","lat":43.2695,"lon":5.38634,"is_reserved":false,"is_disabled":false,"rental_uris":{"android":"levelo://app?vid=1cdad1e0-5255-4c69-973d-12b025ca8c3e","ios":"levelo://app?vid=1cdad1e0-5255-4c69-973d-12b025ca8c3e"},"vehicle_type_id":"4","last_reported":1730272154,"current_range_meters":33200,"station_id":"ce4bhh92rcd13ifvqfh0","pricing_plan_id":"cebpf4jnsgd1na2vs0mg"},{"bike_id":"509c1a13-0b4f-4f63-aa2c-bd14ea6d8358","system_id":"levelo_inurba_marseille","lat":43.25941,"lon":5.40899,"is_reserved":false,"is_disabled":false,"rental_uris":{"android":"levelo://app?vid=509c1a13-0b4f-4f63-aa2c-bd14ea6d8358","ios":"levelo://app?vid=509c1a13-0b4f-4f63-aa2c-bd14ea6d8358"},"vehicle_type_id":"4","last_reported":1730272154,"current_range_meters":36800,"station_id":"ce4bhm92rcd13ifvqglg","pricing_plan_id":"cebpf4jnsgd1na2vs0mg"},{"bike_id":"2bc253a6-b529-475e-b719-77af0dc4716f","system_id":"levelo_inurba_marseille","lat":43.27915,"lon":5.39579,"is_reserved":false,"is_disabled":false,"rental_uris":{"android":"levelo://app?vid=2bc253a6-b529-475e-b719-77af0dc4716f","ios":"levelo://app?vid=2bc253a6-b529-475e-b719-77af0dc4716f"},"vehicle_type_id":"4","last_reported":1730272154,"current_range_meters":28000,"station_id":"ce4bhf92rcd13ifvqf40","pricing_plan_id":"cebpf4jnsgd1na2vs0mg"},{"bike_id":"489fdfcd-53f5-49ba-99d0-a169935f9250","system_id":"levelo_inurba_marseille","lat":43.2885,"lon":5.39317,"is_reserved":false,"is_disabled":false,"rental_uris":{"android":"levelo://app?vid=489fdfcd-53f5-49ba-99d0-a169935f9250","ios":"levelo://app?vid=489fdfcd-53f5-49ba-99d0-a169935f9250"},"vehicle_type_id":"4","last_reported":1730272154,"current_range_meters":28800,"station_id":"ce4bh2p2rcd13ifvqdi0","pricing_plan_id":"cebpf4jnsgd1na2vs0mg"},{"bike_id":"e507a1d2-c4aa-42e3-bdeb-dc23b90e6b50","system_id":"levelo_inurba_marseille","lat":43.28699,"lon":5.39979,"is_reserved":false,"is_disabled":false,"rental_uris":{"android":"levelo://app?vid=e507a1d2-c4aa-42e3-bdeb-dc23b90e6b50","ios":"levelo://app?vid=e507a1d2-c4aa-42e3-bdeb-dc23b90e6b50"},"vehicle_type_id":"4","last_reported":1730272154,"current_range_meters":33200,"station_id":"ce4bho92rcd13ifvqh3g","pricing_plan_id":"cebpf4jnsgd1na2vs0mg"},{"bike_id":"377333d7-8f8c-4ffe-b485-3d6dbc24cc24","system_id":"levelo_inurba_marseille","lat":43.31757,"lon":5.39012,"is_reserved":false,"is_disabled":false,"rental_uris":{"android":"levelo://app?vid=377333d7-8f8c-4ffe-b485-3d6dbc24cc24","ios":"levelo://app?vid=377333d7-8f8c-4ffe-b485-3d6dbc24cc24"},"vehicle_type_id":"4","last_reported":1730272154,"current_range_meters":38000,"station_id":"ce4bhqp2rcd13ifvqhng","pricing_plan_id":"cebpf4jnsgd1na2vs0mg"},{"bike_id":"1fedc88c-c4fc-4b78-b422-596bb4e9e1f8","system_id":"levelo_inurba_marseille","lat":43.26784,"lon":5.39425,"is_reserved":false,"is_disabled":false,"rental_uris":{"android":"levelo://app?vid=1fedc88c-c4fc-4b78-b422-596bb4e9e1f8","ios":"levelo://app?vid=1fedc88c-c4fc-4b78-b422-596bb4e9e1f8"},"vehicle_type_id":"4","last_reported":1730272154,"current_range_meters":38000,"station_id":"ce4bhh12rcd13ifvqfg0","pricing_plan_id":"cebpf4jnsgd1na2vs0mg"},{"bike_id":"29243a23-473e-4032-847e-6f3b1ca0ed8e","system_id":"levelo_inurba_marseille","lat":43.31168,"lon":5.38708,"is_reserved":false,"is_disabled":false,"rental_uris":{"android":"levelo://app?vid=29243a23-473e-4032-847e-6f3b1ca0ed8e","ios":"levelo://app?vid=29243a23-473e-4032-847e-6f3b1ca0ed8e"},"vehicle_type_id":"4","last_reported":1730272154,"current_range_meters":28400,"station_id":"ce4bgup2rcd13ifvqco0","pricing_plan_id":"cebpf4jnsgd1na2vs0mg"},{"bike_id":"ebb18d14-f502-478b-ba28-7664197b0adb","system_id":"levelo_inurba_marseille","lat":43.30474,"lon":5.37901,"is_reserved":false,"is_disabled":false,"rental_uris":{"android":"levelo://app?vid=ebb18d14-f502-478b-ba28-7664197b0adb","ios":"levelo://app?vid=ebb18d14-f502-478b-ba28-7664197b0adb"},"vehicle_type_id":"4","last_reported":1730272154,"current_range_meters":38800,"station_id":"ce4bgup2rcd13ifvqcn0","pricing_plan_id":"cebpf4jnsgd1na2vs0mg"},