{"last_updated":1701202085,"ttl":30,"version":"2.2","data":{"bikes":[{"bike_id":"b2c32cc6-6f56-4f25-a6ba-a442eeea1de9","system_id":"levelo_inurba_marseille","lat":43.312239,"lon":5.368562,"is_reserved":false,"is_disabled":false,"rental_uris":{"android":"levelo://app?vid=b2c32cc6-6f56-4f25-a6ba-a442eeea1de9","ios":"levelo://app?vid=b2c32cc6-6f56-4f25-a6ba-a442eeea1de9"},"vehicle_type_id":"4","last_reported":1701202085,"current_range_meters":23600,"station_id":"ce4bgl92rcd13ifvqbq0","pricing_plan_id":"free"},{"bike_id":"cd40e73d-0e2e-423a-83a2-5d9d02345024","system_id":"levelo_inurba_marseille","lat":43.314811,"lon":5.373104,"is_reserved":false,"is_disabled":false,"rental_uris":{"android":"levelo://app?vid=cd40e73d-0e2e-423a-83a2-5d9d02345024","ios":"levelo://app?vid=cd40e73d-0e2e-423a-83a2-5d9d02345024"},"vehicle_type_id":"4","last_reported":1701202085,"current_range_meters":1200,"station_id":"ce4bgt12rcd13ifvqcd0","pricing_plan_id":"free"},{"bike_id":"e5930290-4de9-4592-b0ff-1380d2b4e48e","system_id":"levelo_inurba_marseille","lat":43.31349,"lon":5.37637,"is_reserved":false,"is_disabled":false,"rental_uris":{"android":"levelo://app?vid=e5930290-4de9-4592-b0ff-1380d2b4e48e","ios":"levelo://app?vid=e5930290-4de9-4592-b0ff-1380d2b4e48e"},"vehicle_type_id":"4","last_reported":1701202085,"current_range_meters":26400,"station_id":"","pricing_plan_id":"free"},{"bike_id":"44aeb011-8082-456e-9d8c-7210bf8f37be","system_id":"levelo_inurba_marseille","lat":43.305368,"lon":5.367343,"is_reserved":false,"is_disabled":false,"rental_uris":{"android":"levelo://app?vid=44aeb011-8082-456e-9d8c-7210bf8f37be","ios":"levelo://app?vid=44aeb011-8082-456e-9d8c-7210bf8f37be"},"vehicle_type_id":"4","last_reported":1701202085,"current_range_meters":8000,"station_id":"ce4bgrp2rcd13ifvqc9g","pricing_plan_id":"free"},{"bike_id":"a9589584-f17d-45b3-af4b-f41df50b74f6","system_id":"levelo_inurba_marseille","lat":43.31119,"lon":5.37767,"is_reserved":false,"is_disabled":false,"rental_uris":{"android":"levelo://app?vid=a9589584-f17d-45b3-af4b-f41df50b74f6","ios":"levelo://app?vid=a9589584-f17d-45b3-af4b-f41df50b74f6"},"vehicle_type_id":"4","last_reported":1701202085,"current_range_meters":18400,"station_id":"ce4bgt92rcd13ifvqcg0","pricing_plan_id":"free"},{"bike_id":"45b3ff23-a937-45d9-9f96-088c308c0189","system_id":"levelo_inurba_marseille","lat":43.308193,"lon":5.376576,"is_reserved":false,"is_disabled":false,"rental_uris":{"android":"levelo://app?vid=45b3ff23-a937-45d9-9f96-088c308c0189","ios":"levelo://app?vid=45b3ff23-a937-45d9-9f96-088c308c0189"},"vehicle_type_id":"4","last_reported":1701202085,"current_range_meters":12800,"station_id":"ce4bgv92rcd13ifvqcq0","pricing_plan_id":"free"},{"bike_id":"f427a2c3-6e4a-446b-ae2f-9be8aa7f4122","system_id":"levelo_inurba_marseille","lat":43.31719,"lon":5.376813,"is_reserved":false,"is_disabled":false,"rental_uris":{"android":"levelo://app?vid=f427a2c3-6e4a-446b-ae2f-9be8aa7f4122","ios":"levelo://app?vid=f427a2c3-6e4a-446b-ae2f-9be8aa7f4122"},"vehicle_type_id":"4","last_reported":1701202085,"current_range_meters":12400,"station_id":"ce4bgth2rcd13ifvqch0","pricing_plan_id":"free"},{"bike_id":"e913f328-1e31-4c22-bd87-f809ea246de4","system_id":"levelo_inurba_marseille","lat":43.317168,"lon":5.376883,"is_reserved":false,"is_disabled":false,"rental_uris":{"android":"levelo://app?vid=e913f328-1e31-4c22-bd87-f809ea246de4","ios":"levelo://app?vid=e913f328-1e31-4c22-bd87-f809ea246de4"},"vehicle_type_id":"4","last_reported":1701202085,"current_range_meters":14400,"station_id":"ce4bgth2rcd13ifvqch0","pricing_plan_id":"free"},{"bike_id":"c58ecbba-5333-4140-88d3-702531661b97","system_id":"levelo_inurba_marseille","lat":43.30304,"lon":5.368987,"is_reserved":false,"is_disabled":false,"rental_uris":{"android":"levelo://app?vid=c58ecbba-5333-4140-88d3-702531661b97","ios":"levelo://app?vid=c58ecbba-5333-4140-88d3-702531661b97"},"vehicle_type_id":"4","last_reported":1701202085,"current_range_meters":29600,"station_id":"ce4bgqh2rcd13ifvqc5g","pricing_plan_id":"free"},{"bike_id":"3e09080e-9db5-4c48-951f-c5f672a60264","system_id":"levelo_inurba_marseille","lat":43.321667,"lon":5.374607,"is_reserved":false,"is_disabled":false,"rental_uris":{"android":"levelo://app?vid=3e09080e-9db5-4c48-951f-c5f672a60264","ios":"levelo://app?vid=3e09080e-9db5-4c48-951f-c5f672a60264"},"vehicle_type_id":"4","last_reported":1701202085,"current_range_meters":11600,"station_id":"","pricing_plan_id":"free"},{"bike_id":"5715a9c8-9d8f-4eaf-82a9-ce48688f7ea1","system_id":"levelo_inurba_marseille","lat":43.324771,"lon":5.36557,"is_reserved":false,"is_disabled":false,"rental_uris":{"android":"levelo://app?vid=5715a9c8-9d8f-4eaf-82a9-ce48688f7ea1","ios":"levelo://app?vid=5715a9c8-9d8f-4eaf-82a9-ce48688f7ea1"},"vehicle_type_id":"4","last_reported":1701202085,"current_range_meters":22000,"station_id":"ce4bhs12rcd13ifvqhvg","pricing_plan_id":"free"},{"bike_id":"d68ff592-86e3-4859-947a-8e3e5c81913c","system_id":"levelo_inurba_marseille","lat":43.32004,"lon":5.38153,"is_reserved":false,"is_disabled":false,"rental_uris":{"android":"levelo://app?vid=d68ff592-86e3-4859-947a-8e3e5c81913c","ios":"levelo://app?vid=d68ff592-86e3-4859-947a-8e3e5c81913c"},"vehicle_type_id":"4","last_reported":1701202085,"current_range_meters":28400,"station_id":"ce4bhr12rcd13ifvqhpg","pricing_plan_id":"free"},{"bike_id":"c3add042-f7ec-4c84-9c66-c895e1a6e483","system_id":"levelo_inurba_marseille","lat":43.313571,"lon":5.384829,"is_reserved":false,"is_disabled":false,"rental_uris":{"android":"levelo://app?vid=c3add042-f7ec-4c84-9c66-c895e1a6e483","ios":"levelo://app?vid=c3add042-f7ec-4c84-9c66-c895e1a6e483"},"vehicle_type_id":"4","last_reported":1701202085,"current_range_meters":17600,"station_id":"ce4bgt92rcd13ifvqcf0","pricing_plan_id":"free"},{"bike_id":"48a116e6-ed22-47cd-b8c6-45fd21f826c7","system_id":"levelo_inurba_marseille","lat":43.313571,"lon":5.384829,"is_reserved":false,"is_disabled":false,"rental_uris":{"android":"levelo://app?vid=48a116e6-ed22-47cd-b8c6-45fd21f826c7","ios":"levelo://app?vid=48a116e6-ed22-47cd-b8c6-45fd21f826c7"},"vehicle_type_id":"4","last_reported":1701202085,"current_range_meters":28400,"station_id":"ce4bgt92rcd13ifvqcf0","pricing_plan_id":"free"},{"bike_id":"6b42b391-da23-43bf-89a8-f29e30de9020","system_id":"levelo_inurba_marseille","lat":43.299724,"lon":5.371829,"is_reserved":false,"is_disabled":false,"rental_uris":{"android":"levelo://app?vid=6b42b391-da23-43bf-89a8-f29e30de9020","ios":"levelo://app?vid=6b42b391-da23-43bf-89a8-f29e30de9020"},"vehicle_type_id":"4","last_reported":1701202085,"current_range_meters":2000,"station_id":"ce4bgr92rcd13ifvqc7g","pricing_plan_id":"free"},{"bike_id":"b9d534f0-173d-41f0-ae29-77f7522d89e5","system_id":"levelo_inurba_marseille","lat":43.299724,"lon":5.371829,"is_reserved":false,"is_disabled":false,"rental_uris":{"android":"levelo://app?vid=b9d534f0-173d-41f0-ae29-77f7522d89e5","ios":"levelo://app?vid=b9d534f0-173d-41f0-ae29-77f7522d89e5"},"vehicle_type_id":"4","last_reported":1701202085,"current_range_meters":20000,"station_id":"ce4bgr92rcd13ifvqc7g","pricing_plan_id":"free"},{"bike_id":"f4bd7a1c-3705-46c0-9952-be2afe8d97da","system_id":"levelo_inurba_marseille","lat":43.305364,"lon":5.384119,"is_reserved":false,"is_disabled":false,"rental_uris":{"android":"levelo://app?vid=f4bd7a1c-3705-46c0-9952-be2afe8d97da","ios":"levelo://app?vid=f4bd7a1c-3705-46c0-9952-be2afe8d97da"},"vehicle_type_id":"4","last_reported":1701202085,"current_range_meters":9200,"station_id":"ce4bgg92rcd13ifvqb30","pricing_plan_id":"free"},{"bike_id":"7e0dc117-f793-4f06-8ce7-6f82c3956fc3","system_id":"levelo_inurba_marseille","lat":43.299243,"lon":5.374807,"is_reserved":false,"is_disabled":false,"rental_uris":{"android":"levelo://app?vid=7e0dc117-f793-4f06-8ce7-6f82c3956fc3","ios":"levelo://app?vid=7e0dc117-f793-4f06-8ce7-6f82c3956fc3"},"vehicle_type_id":"4","last_reported":1701202085,"current_range_meters":10000,"station_id":"ce4bgjh2rcd13ifvqbg0","pricing_plan_id":"free"},{"bike_id":"68c5792c-3743-46b0-ba80-ead5661e1a6c","system_id":"levelo_inurba_marseille","lat":43.311722,"lon":5.387247,"is_reserved":false,"is_disabled":false,"rental_uris":{"android":"levelo://app?vid=68c5792c-3743-46b0-ba80-ead5661e1a6c","ios":"levelo://app?vid=68c5792c-3743-46b0-ba80-ead5661e1a6c"},"vehicle_type_id":"4","last_reported":1701202085,"current_range_meters":21600,"station_id":"ce4bgv12rcd13ifvqcp0","pricing_plan_id":"free"},{"bike_id":"a5f256a1-b035-4130-90a9-417fed50db16","system_id":"levelo_inurba_marseille","lat":43.299243,"lon":5.37481,"is_reserved":false,"is_disabled":false,"rental_uris":{"android":"levelo://app?vid=a5f256a1-b035-4130-90a9-417fed50db16","ios":"levelo://app?vid=a5f256a1-b035-4130-90a9-417fed50db16"},"vehicle_type_id":"4","last_reported":1701202085,"current_range_meters":4400,"station_id":"ce4bgjh2rcd13ifvqbg0","pricing_plan_id":"free"},{"bike_id":"9804742e-51ba-40e4-b6e4-2bc503553944","system_id":"levelo_inurba_marseille","lat":43.311722,"lon":5.387247,"is_reserved":false,"is_disabled":false,"rental_uris":{"android":"levelo://app?vid=9804742e-51ba-40e4-b6e4-2bc503553944","ios":"levelo://app?vid=9804742e-51ba-40e4-b6e4-2bc503553944"},"vehicle_type_id":"4","last_reported":1701202085,"current_range_meters":14400,"station_id":"ce4bgv12rcd13ifvqcp0","pricing_plan_id":"free"},{"bike_id":"a71b2f34-318b-4592-88f6-64cd41f77214","system_id":"levelo_inurba_marseille","lat":43.311722,"lon":5.387247,"is_reserved":false,"is_disabled":false,"rental_uris":{"android":"levelo://app?vid=a71b2f34-318b-4592-88f6-64cd41f77214","ios":"levelo://app?vid=a71b2f34-318b-4592-88f6-64cd41f77214"},"vehicle_type_id":"4","last_reported":1701202085,"current_range_meters":14400,"station_id":"ce4bgv12rcd13ifvqcp0","pricing_plan_id":"free"},{"bike_id":"a1527eca-4a41-49f7-a8be-495a78acfc8b","system_id":"levelo_inurba_marseille","lat":43.311695,"lon":5.387219,"is_reserved":false,"is_disabled":false,"rental_uris":{"android":"levelo://app?vid=a1527eca-4a41-49f7-a8be-495a78acfc8b","ios":"levelo://app?vid=a1527eca-4a41-49f7-a8be-495a78acfc8b"},"vehicle_type_id":"4","last_reported":1701202085,"current_range_meters":27200,"station_id":"ce4bgv12rcd13ifvqcp0","pricing_plan_id":"free"},{"bike_id":"e4a9c53c-a5c4-40f8-8bc7-660fa7ff6c7b","system_id":"levelo_inurba_marseille","lat":43.31164,"lon":5.38722,"is_reserved":false,"is_disabled":false,"rental_uris":{"android":"levelo://app?vid=e4a9c53c-a5c4-40f8-8bc7-660fa7ff6c7b","ios":"levelo://app?vid=e4a9c53c-a5c4-40f8-8bc7-660fa7ff6c7b"},"vehicle_type_id":"4","last_reported":1701202085,"current_range_meters":28400,"station_id":"ce4bgv12rcd13ifvqcp0","pricing_plan_id":"free"},{"bike_id":"d161c4d6-d7e2-4461-8caf-d093e801a878","system_id":"levelo_inurba_marseille","lat":43.297774,"lon":5.370875,"is_reserved":false,"is_disabled":false,"rental_uris":{"android":"levelo://app?vid=d161c4d6-d7e2-4461-8caf-d093e801a878","ios":"levelo://app?vid=d161c4d6-d7e2-4461-8caf-d093e801a878"},"vehicle_type_id":"4","last_reported":1701202085,"current_range_meters":0,"station_id":"ce4bgop2rcd13ifvqc1g","pricing_plan_id":"free"},{"bike_id":"0df1bcae-f6f3-4b6d-89fe-f7c4fc274685","system_id":"levelo_inurba_marseille","lat":43.297774,"lon":5.370875,"is_reserved":false,"is_disabled":false,"rental_uris":{"android":"levelo://app?vid=0df1bcae-f6f3-4b6d-89fe-f7c4fc274685","ios":"levelo://app?vid=0df1bcae-f6f3-4b6d-89fe-f7c4fc274685"},"vehicle_type_id":"4","last_reported":1701202085,"current_range_meters":20400,"station_id":"ce4bgop2rcd13ifvqc1g","pricing_plan_id":"free"},{"bike_id":"8081422b-eb2a-4176-bcd7-b5a29f16164d","system_id":"levelo_inurba_marseille","lat":43.322872,"lon":5.382756,"is_reserved":false,"is_disabled":false,"rental_uris":{"android":"levelo://app?vid=8081422b-eb2a-4176-bcd7-b5a29f16164d","ios":"levelo://app?vid=8081422b-eb2a-4176-bcd7-b5a29f16164d"},"vehicle_type_id":"4","last_reported":1701202085,"current_range_meters":4000,"station_id":"ce4bhr12rcd13ifvqhqg","pricing_plan_id":"free"},{"bike_id":"94b9fcf4-bff4-4e4b-8723-06a10e1b050a","system_id":"levelo_inurba_marseille","lat":43.328371,"lon":5.366909,"is_reserved":false,"is_disabled":false,"rental_uris":{"android":"levelo://app?vid=94b9fcf4-bff4-4e4b-8723-06a10e1b050a","ios":"levelo://app?vid=94b9fcf4-bff4-4e4b-8723-06a10e1b050a"},"vehicle_type_id":"4","last_reported":1701202085,"current_range_meters":19600,"station_id":"ce4bhs92rcd13ifvqi0g","pricing_plan_id":"free"},{"bike_id":"cb54d4b8-7480-4085-b908-47a3fdf1a7c6","system_id":"levelo_inurba_marseille","lat":43.32832,"lon":5.36678,"is_reserved":false,"is_disabled":false,"rental_uris":{"android":"levelo://app?vid=cb54d4b8-7480-4085-b908-47a3fdf1a7c6","ios":"levelo://app?vid=cb54d4b8-7480-4085-b908-47a3fdf1a7c6"},"vehicle_type_id":"4","last_reported":1701202085,"current_range_meters":21200,"station_id":"ce4bhs92rcd13ifvqi0g","pricing_plan_id":"free"},{"bike_id":"bf14614e-1c29-4b53-9c60-884a984245f9","system_id":"levelo_inurba_marseille","lat":43.29713,"lon":5.36623,"is_reserved":false,"is_disabled":false,"rental_uris":{"android":"levelo://app?vid=bf14614e-1c29-4b53-9c60-884a984245f9","ios":"levelo://app?vid=bf14614e-1c29-4b53-9c60-884a984245f9"},"vehicle_type_id":"4","last_reported":1701202085,"current_range_meters":13600,"station_id":"ce4bgn12rcd13ifvqbt0","pricing_plan_id":"free"},{"bike_id":"f2edf904-6fb8-46c7-bcf0-2bb3f9741018","system_id":"levelo_inurba_marseille","lat":43.297163,"lon":5.365866,"is_reserved":false,"is_disabled":false,"rental_uris":{"android":"levelo://app?vid=f2edf904-6fb8-46c7-bcf0-2bb3f9741018","ios":"levelo://app?vid=f2edf904-6fb8-46c7-bcf0-2bb3f9741018"},"vehicle_type_id":"4","last_reported":1701202085,"current_range_meters":26400,"station_id":"ce4bgn12rcd13ifvqbt0","pricing_plan_id":"free"},{"bike_id":"beaa9004-ca32-4f21-a37f-42789043b0d9","system_id":"levelo_inurba_marseille","lat":43.29981,"lon":5.38088,"is_reserved":false,"is_disabled":false,"rental_uris":{"android":"levelo://app?vid=beaa9004-ca32-4f21-a37f-42789043b0d9","ios":"levelo://app?vid=beaa9004-ca32-4f21-a37f-42789043b0d9"},"vehicle_type_id":"4","last_reported":1701202085,"current_range_meters":12400,"station_id":"","pricing_plan_id":"free"},{"bike_id":"9f0f067c-4570-4779-9fe7-642e24984182","system_id":"levelo_inurba_marseille","lat":43.296138,"lon":5.365504,"is_reserved":false,"is_disabled":false,"rental_uris":{"android":"levelo://app?vid=9f0f067c-4570-4779-9fe7-642e24984182","ios":"levelo://app?vid=9f0f067c-4570-4779-9fe7-642e24984182"},"vehicle_type_id":"4","last_reported":1701202085,"current_range_meters":18400,"station_id":"","pricing_plan_id":"free"},{"bike_id":"03009d43-a9e2-4539-b759-35def726bc65","system_id":"levelo_inurba_marseille","lat":43.29622,"lon":5.37155,"is_reserved":false,"is_disabled":false,"rental_uris":{"android":"levelo://app?vid=03009d43-a9e2-4539-b759-35def726bc65","ios":"levelo://app?vid=03009d43-a9e2-4539-b759-35def726bc65"},"vehicle_type_id":"4","last_reported":1701202085,"current_range_meters":9200,"station_id":"ce4bgk12rcd13ifvqbj0","pricing_plan_id":"free"},{"bike_id":"e84332d4-0417-4127-8d6d-954204f04fe6","system_id":"levelo_inurba_marseille","lat":43.29735,"lon":5.37657,"is_reserved":false,"is_disabled":false,"rental_uris":{"android":"levelo://app?vid=e84332d4-0417-4127-8d6d-954204f04fe6","ios":"levelo://app?vid=e84332d4-0417-4127-8d6d-954204f04fe6"},"vehicle_type_id":"4","last_reported":1701202085,"current_range_meters":6400,"station_id":"ce4bgkh2rcd13ifvqbl0","pricing_plan_id":"free"},{"bike_id":"8aa8e8ec-67cd-417b-b462-460b582b4840","system_id":"levelo_inurba_marseille","lat":43.296935,"lon":5.376544,"is_reserved":false,"is_disabled":false,"rental_uris":{"android":"levelo://app?vid=8aa8e8ec-67cd-417b-b462-460b582b4840","ios":"levelo://app?vid=8aa8e8ec-67cd-417b-b462-460b582b4840"},"vehicle_type_id":"4","last_reported":1701202085,"current_range_meters":31600,"station_id":"ce4bgkh2rcd13ifvqbl0","pricing_plan_id":"free"},{"bike_id":"3a1e9cb1-dfa6-409f-a6ca-b0252754cb07","system_id":"levelo_inurba_marseille","lat":43.296921,"lon":5.376579,"is_reserved":false,"is_disabled":false,"rental_uris":{"android":"levelo://app?vid=3a1e9cb1-dfa6-409f-a6ca-b0252754cb07","ios":"levelo://app?vid=3a1e9cb1-dfa6-409f-a6ca-b0252754cb07"},"vehicle_type_id":"4","last_reported":1701202085,"current_range_meters":7200,"station_id":"ce4bgkh2rcd13ifvqbl0","pricing_plan_id":"free"},{"bike_id":"9210b8b9-817b-47c3-80cb-cba0d84f326c","system_id":"levelo_inurba_marseille","lat":43.296935,"lon":5.376544,"is_reserved":false,"is_disabled":false,"rental_uris":{"android":"levelo://app?vid=9210b8b9-817b-47c3-80cb-cba0d84f326c","ios":"levelo://app?vid=9210b8b9-817b-47c3-80cb-cba0d84f326c"},"vehicle_type_id":"4","last_reported":1701202085,"current_range_meters":30000,"station_id":"ce4bgkh2rcd13ifvqbl0","pricing_plan_id":"free"},{"bike_id":"912f29df-1061-48fb-87a5-6c0ed46c97e8","system_id":"levelo_inurba_marseille","lat":43.309589,"lon":5.390258,"is_reserved":false,"is_disabled":false,"rental_uris":{"android":"levelo://app?vid=912f29df-1061-48fb-87a5-6c0ed46c97e8","ios":"levelo://app?vid=912f29df-1061-48fb-87a5-6c0ed46c97e8"},"vehicle_type_id":"4","last_reported":1701202085,"current_range_meters":2800,"station_id":"ce4bgup2rcd13ifvqco0","pricing_plan_id":"free"},{"bike_id":"199fe738-042f-4e2c-b097-f0095da89891","system_id":"levelo_inurba_marseille","lat":43.29575,"lon":5.375061,"is_reserved":false,"is_disabled":false,"rental_uris":{"android":"levelo://app?vid=199fe738-042f-4e2c-b097-f0095da89891","ios":"levelo://app?vid=199fe738-042f-4e2c-b097-f0095da89891"},"vehicle_type_id":"4","last_reported":1701202085,"current_range_meters":6800,"station_id":"ce4bgh92rcd13ifvqb50","pricing_plan_id":"free"},{"bike_id":"b4e962d0-e735-4f15-87d6-0b21da574dc9","system_id":"levelo_inurba_marseille","lat":43.304274,"lon":5.388873,"is_reserved":false,"is_disabled":false,"rental_uris":{"android":"levelo://app?vid=b4e962d0-e735-4f15-87d6-0b21da574dc9","ios":"levelo://app?vid=b4e962d0-e735-4f15-87d6-0b21da574dc9"},"vehicle_type_id":"4","last_reported":1701202085,"current_range_meters":2800,"station_id":"ce4bgk12rcd13ifvqbi0","pricing_plan_id":"free"},{"bike_id":"a0111534-628c-468d-b725-55684b098122","system_id":"levelo_inurba_marseille","lat":43.298037,"lon":5.381066,"is_reserved":false,"is_disabled":false,"rental_uris":{"android":"levelo://app?vid=a0111534-628c-468d-b725-55684b098122","ios":"levelo://app?vid=a0111534-628c-468d-b725-55684b098122"},"vehicle_type_id":"4","last_reported":1701202085,"current_range_meters":9200,"station_id":"ce4bgip2rcd13ifvqbb0","pricing_plan_id":"free"},{"bike_id":"d5fa19fc-d285-4271-98a8-04c6e1092b34","system_id":"levelo_inurba_marseille","lat":43.304274,"lon":5.388873,"is_reserved":false,"is_disabled":false,"rental_uris":{"android":"levelo://app?vid=d5fa19fc-d285-4271-98a8-04c6e1092b34","ios":"levelo://app?vid=d5fa19fc-d285-4271-98a8-04c6e1092b34"},"vehicle_type_id":"4","last_reported":1701202085,"current_range_meters":24000,"station_id":"ce4bgk12rcd13ifvqbi0","pricing_plan_id":"free"},{"bike_id":"fb0c33fd-906e-4132-a467-0d80ba6fca02","system_id":"levelo_inurba_marseille","lat":43.2962,"lon":5.37728,"is_reserved":false,"is_disabled":false,"rental_uris":{"android":"levelo://app?vid=fb0c33fd-906e-4132-a467-0d80ba6fca02","ios":"levelo://app?vid=fb0c33fd-906e-4132-a467-0d80ba6fca02"},"vehicle_type_id":"4","last_reported":1701202085,"current_range_meters":7600,"station_id":"ce4bgi92rcd13ifvqb90","pricing_plan_id":"free"},{"bike_id":"1db2c07b-1c76-46e1-8254-9e56269c5dec","system_id":"levelo_inurba_marseille","lat":43.296263,"lon":5.377094,"is_reserved":false,"is_disabled":false,"rental_uris":{"android":"levelo://app?vid=1db2c07b-1c76-46e1-8254-9e56269c5dec","ios":"levelo://app?vid=1db2c07b-1c76-46e1-8254-9e56269c5dec"},"vehicle_type_id":"4","last_reported":1701202085,"current_range_meters":0,"station_id":"ce4bgi92rcd13ifvqb90","pricing_plan_id":"free"},{"bike_id":"deed4d43-28f2-4d1d-8bf8-dda5b349a92c","system_id":"levelo_inurba_marseille","lat":43.29539,"lon":5.37447,"is_reserved":false,"is_disabled":false,"rental_uris":{"android":"levelo://app?vid=deed4d43-28f2-4d1d-8bf8-dda5b349a92c","ios":"levelo://app?vid=deed4d43-28f2-4d1d-8bf8-dda5b349a92c"},"vehicle_type_id":"4","last_reported":1701202085,"current_range_meters":17600,"station_id":"ce4bgkp2rcd13ifvqbmg","pricing_plan_id":"free"},{"bike_id":"c34d44a6-81ce-4d1f-979f-06a7c3e6c4a3","system_id":"levelo_inurba_marseille","lat":43.295279,"lon":5.375048,"is_reserved":false,"is_disabled":false,"rental_uris":{"android":"levelo://app?vid=c34d44a6-81ce-4d1f-979f-06a7c3e6c4a3","ios":"levelo://app?vid=c34d44a6-81ce-4d1f-979f-06a7c3e6c4a3"},"vehicle_type_id":"4","last_reported":1701202085,"current_range_meters":17200,"station_id":"ce4bgkp2rcd13ifvqbmg","pricing_plan_id":"free"},{"bike_id":"965669e8-47fe-454c-98ad-b882dbcf10e5","system_id":"levelo_inurba_marseille","lat":43.299707,"lon":5.384859,"is_reserved":false,"is_disabled":false,"rental_uris":{"android":"levelo://app?vid=965669e8-47fe-454c-98ad-b882dbcf10e5","ios":"levelo://app?vid=965669e8-47fe-454c-98ad-b882dbcf10e5"},"vehicle_type_id":"4","last_reported":1701202085,"current_range_meters":18400,"station_id":"ce4bgj92rcd13ifvqbd0","pricing_plan_id":"free"},{"bike_id":"74faea68-f3c8-4602-929b-b3a2fb6f8413","system_id":"levelo_inurba_marseille","lat":43.295279,"lon":5.375048,"is_reserved":false,"is_disabled":false,"rental_uris":{"android":"levelo://app?vid=74faea68-f3c8-4602-929b-b3a2fb6f8413","ios":"levelo://app?vid=74faea68-f3c8-4602-929b-b3a2fb6f8413"},"vehicle_type_id":"4","last_reported":1701202085,"current_range_meters":4000,"station_id":"ce4bgkp2rcd13ifvqbmg","pricing_plan_id":"free"},{"bike_id":"bc278b4d-c498-4950-876d-31d78b1dce80","system_id":"levelo_inurba_marseille","lat":43.29602,"lon":5.381084,"is_reserved":false,"is_disabled":false,"rental_uris":{"android":"levelo://app?vid=bc278b4d-c498-4950-876d-31d78b1dce80","ios":"levelo://app?vid=bc278b4d-c498-4950-876d-31d78b1dce80"},"vehicle_type_id":"4","last_reported":1701202085,"current_range_meters":23600,"station_id":"ce4bgl12rcd13ifvqbo0","pricing_plan_id":"free"},{"bike_id":"2028c840-a802-4884-a72c-5b8d86ff18c0","system_id":"levelo_inurba_marseille","lat":43.293009,"lon":5.374584,"is_reserved":false,"is_disabled":false,"rental_uris":{"android":"levelo://app?vid=2028c840-a802-4884-a72c-5b8d86ff18c0","ios":"levelo://app?vid=2028c840-a802-4884-a72c-5b8d86ff18c0"},"vehicle_type_id":"4","last_reported":1701202085,"current_range_meters":4000,"station_id":"ce4bgi12rcd13ifvqb70","pricing_plan_id":"free"},{"bike_id":"5b190140-7321-48d8-8b24-ae071216c2c8","system_id":"levelo_inurba_marseille","lat":43.293009,"lon":5.374584,"is_reserved":false,"is_disabled":false,"rental_uris":{"android":"levelo://app?vid=5b190140-7321-48d8-8b24-ae071216c2c8","ios":"levelo://app?vid=5b190140-7321-48d8-8b24-ae071216c2c8"},"vehicle_type_id":"4","last_reported":1701202085,"current_range_meters":12400,"station_id":"ce4bgi12rcd13ifvqb70","pricing_plan_id":"free"},{"bike_id":"0845cdcb-425a-498e-b3cd-a53ecb464efa","system_id":"levelo_inurba_marseille","lat":43.2936,"lon":5.37835,"is_reserved":false,"is_disabled":false,"rental_uris":{"android":"levelo://app?vid=0845cdcb-425a-498e-b3cd-a53ecb464efa","ios":"levelo://app?vid=0845cdcb-425a-498e-b3cd-a53ecb464efa"},"vehicle_type_id":"4","last_reported":1701202085,"current_range_meters":18800,"station_id":"ce4bgjh2rcd13ifvqbf0","pricing_plan_id":"free"},{"bike_id":"8572c8b6-0f23-48e2-9049-05ce59e19118","system_id":"levelo_inurba_marseille","lat":43.292663,"lon":5.376394,"is_reserved":false,"is_disabled":false,"rental_uris":{"android":"levelo://app?vid=8572c8b6-0f23-48e2-9049-05ce59e19118","ios":"levelo://app?vid=8572c8b6-0f23-48e2-9049-05ce59e19118"},"vehicle_type_id":"4","last_reported":1701202085,"current_range_meters":30400,"station_id":"ce4bgi12rcd13ifvqb80","pricing_plan_id":"free"},{"bike_id":"88157e01-9d9f-4641-8ceb-ae0ade278196","system_id":"levelo_inurba_marseille","lat":43.300852,"lon":5.390859,"is_reserved":false,"is_disabled":false,"rental_uris":{"android":"levelo://app?vid=88157e01-9d9f-4641-8ceb-ae0ade278196","ios":"levelo://app?vid=88157e01-9d9f-4641-8ceb-ae0ade278196"},"vehicle_type_id":"4","last_reported":1701202085,"current_range_meters":16400,"station_id":"ce4bh192rcd13ifvqdb0","pricing_plan_id":"free"},{"bike_id":"f0e4231c-a65f-4e63-a473-7430b9219fda","system_id":"levelo_inurba_marseille","lat":43.292666,"lon":5.376175,"is_reserved":false,"is_disabled":false,"rental_uris":{"android":"levelo://app?vid=f0e4231c-a65f-4e63-a473-7430b9219fda","ios":"levelo://app?vid=f0e4231c-a65f-4e63-a473-7430b9219fda"},"vehicle_type_id":"4","last_reported":1701202085,"current_range_meters":27200,"station_id":"ce4bgi12rcd13ifvqb80","pricing_plan_id":"free"},{"bike_id":"40389081-d4a4-4bca-8281-a39b3e88a068","system_id":"levelo_inurba_marseille","lat":43.298764,"lon":5.388973,"is_reserved":false,"is_disabled":false,"rental_uris":{"android":"levelo://app?vid=40389081-d4a4-4bca-8281-a39b3e88a068","ios":"levelo://app?vid=40389081-d4a4-4bca-8281-a39b3e88a068"},"vehicle_type_id":"4","last_reported":1701202085,"current_range_meters":8000,"station_id":"ce4bh392rcd13ifvqdl0","pricing_plan_id":"free"},{"bike_id":"d5223cf8-bc81-4baf-b6b0-e47d2e75a2f4","system_id":"levelo_inurba_marseille","lat":43.291675,"lon":5.371583,"is_reserved":false,"is_disabled":false,"rental_uris":{"android":"levelo://app?vid=d5223cf8-bc81-4baf-b6b0-e47d2e75a2f4","ios":"levelo://app?vid=d5223cf8-bc81-4baf-b6b0-e47d2e75a2f4"},"vehicle_type_id":"4","last_reported":1701202085,"current_range_meters":25200,"station_id":"ce4bha92rcd13ifvqeh0","pricing_plan_id":"free"},{"bike_id":"192f24b5-d688-48b4-a0ac-81a0c10f9f0e","system_id":"levelo_inurba_marseille","lat":43.30892,"lon":5.39632,"is_reserved":false,"is_disabled":false,"rental_uris":{"android":"levelo://app?vid=192f24b5-d688-48b4-a0ac-81a0c10f9f0e","ios":"levelo://app?vid=192f24b5-d688-48b4-a0ac-81a0c10f9f0e"},"vehicle_type_id":"4","last_reported":1701202085,"current_range_meters":2800,"station_id":"ce4bh012rcd13ifvqcv0","pricing_plan_id":"free"},{"bike_id":"9ccbe679-5489-4a12-8575-469752b4dbd4","system_id":"levelo_inurba_marseille","lat":43.29197,"lon":5.35803,"is_reserved":false,"is_disabled":false,"rental_uris":{"android":"levelo://app?vid=9ccbe679-5489-4a12-8575-469752b4dbd4","ios":"levelo://app?vid=9ccbe679-5489-4a12-8575-469752b4dbd4"},"vehicle_type_id":"4","last_reported":1701202085,"current_range_meters":17600,"station_id":"ce4bhb12rcd13ifvqel0","pricing_plan_id":"free"},{"bike_id":"f44aac3d-c57b-4aa5-b8e1-495822828b73","system_id":"levelo_inurba_marseille","lat":43.29195,"lon":5.35804,"is_reserved":false,"is_disabled":false,"rental_uris":{"android":"levelo://app?vid=f44aac3d-c57b-4aa5-b8e1-495822828b73","ios":"levelo://app?vid=f44aac3d-c57b-4aa5-b8e1-495822828b73"},"vehicle_type_id":"4","last_reported":1701202085,"current_range_meters":28400,"station_id":"ce4bhb12rcd13ifvqel0","pricing_plan_id":"free"},{"bike_id":"e6b974a6-a806-419d-b5c7-8839f92d2001","system_id":"levelo_inurba_marseille","lat":43.308832,"lon":5.3964,"is_reserved":false,"is_disabled":false,"rental_uris":{"android":"levelo://app?vid=e6b974a6-a806-419d-b5c7-8839f92d2001","ios":"levelo://app?vid=e6b974a6-a806-419d-b5c7-8839f92d2001"},"vehicle_type_id":"4","last_reported":1701202085,"current_range_meters":5600,"station_id":"ce4bh012rcd13ifvqcv0","pricing_plan_id":"free"},{"bike_id":"07dfef92-904f-4c33-8c14-53a178d7ae6f","system_id":"levelo_inurba_marseille","lat":43.31333,"lon":5.39689,"is_reserved":false,"is_disabled":false,"rental_uris":{"android":"levelo://app?vid=07dfef92-904f-4c33-8c14-53a178d7ae6f","ios":"levelo://app?vid=07dfef92-904f-4c33-8c14-53a178d7ae6f"},"vehicle_type_id":"4","last_reported":1701202085,"current_range_meters":12800,"station_id":"ce4bgvp2rcd13ifvqcu0","pricing_plan_id":"free"},{"bike_id":"3ee7d907-a5e0-44b9-803e-ae8687aee0c8","system_id":"levelo_inurba_marseille","lat":43.31329,"lon":5.39692,"is_reserved":false,"is_disabled":false,"rental_uris":{"android":"levelo://app?vid=3ee7d907-a5e0-44b9-803e-ae8687aee0c8","ios":"levelo://app?vid=3ee7d907-a5e0-44b9-803e-ae8687aee0c8"},"vehicle_type_id":"4","last_reported":1701202085,"current_range_meters":14000,"station_id":"ce4bgvp2rcd13ifvqcu0","pricing_plan_id":"free"},{"bike_id":"8cdb4370-8586-4238-9b29-a3c35d971c39","system_id":"levelo_inurba_marseille","lat":43.30888,"lon":5.39646,"is_reserved":false,"is_disabled":false,"rental_uris":{"android":"levelo://app?vid=8cdb4370-8586-4238-9b29-a3c35d971c39","ios":"levelo://app?vid=8cdb4370-8586-4238-9b29-a3c35d971c39"},"vehicle_type_id":"4","last_reported":1701202085,"current_range_meters":10400,"station_id":"ce4bh012rcd13ifvqcv0","pricing_plan_id":"free"},{"bike_id":"a431f85e-aab0-4d1e-978a-1b1ee1d4e8ee","system_id":"levelo_inurba_marseille","lat":43.31332,"lon":5.39694,"is_reserved":false,"is_disabled":false,"rental_uris":{"android":"levelo://app?vid=a431f85e-aab0-4d1e-978a-1b1ee1d4e8ee","ios":"levelo://app?vid=a431f85e-aab0-4d1e-978a-1b1ee1d4e8ee"},"vehicle_type_id":"4","last_reported":1701202085,"current_range_meters":10400,"station_id":"ce4bgvp2rcd13ifvqcu0","pricing_plan_id":"free"},{"bike_id":"48b098ef-f732-4e52-98f6-fb2279f59078","system_id":"levelo_inurba_marseille","lat":43.30892,"lon":5.39651,"is_reserved":false,"is_disabled":false,"rental_uris":{"android":"levelo://app?vid=48b098ef-f732-4e52-98f6-fb2279f59078","ios":"levelo://app?vid=48b098ef-f732-4e52-98f6-fb2279f59078"},"vehicle_type_id":"4","last_reported":1701202085,"current_range_meters":6800,"station_id":"ce4bh012rcd13ifvqcv0","pricing_plan_id":"free"},{"bike_id":"0f3db77d-e619-4bec-822b-52fedc7db269","system_id":"levelo_inurba_marseille","lat":43.291994,"lon":5.357886,"is_reserved":false,"is_disabled":false,"rental_uris":{"android":"levelo://app?vid=0f3db77d-e619-4bec-822b-52fedc7db269","ios":"levelo://app?vid=0f3db77d-e619-4bec-822b-52fedc7db269"},"vehicle_type_id":"4","last_reported":1701202085,"current_range_meters":16400,"station_id":"ce4bhb12rcd13ifvqel0","pricing_plan_id":"free"},{"bike_id":"e9305fe5-70e7-41f7-9c5f-60b3b1782c29","system_id":"levelo_inurba_marseille","lat":43.30883,"lon":5.396535,"is_reserved":false,"is_disabled":false,"rental_uris":{"android":"levelo://app?vid=e9305fe5-70e7-41f7-9c5f-60b3b1782c29","ios":"levelo://app?vid=e9305fe5-70e7-41f7-9c5f-60b3b1782c29"},"vehicle_type_id":"4","last_reported":1701202085,"current_range_meters":5200,"station_id":"ce4bh012rcd13ifvqcv0","pricing_plan_id":"free"},{"bike_id":"77621d6b-8990-4544-be4b-ead551752d29","system_id":"levelo_inurba_marseille","lat":43.31329,"lon":5.39709,"is_reserved":false,"is_disabled":false,"rental_uris":{"android":"levelo://app?vid=77621d6b-8990-4544-be4b-ead551752d29","ios":"levelo://app?vid=77621d6b-8990-4544-be4b-ead551752d29"},"vehicle_type_id":"4","last_reported":1701202085,"current_range_meters":25600,"station_id":"ce4bgvp2rcd13ifvqcu0","pricing_plan_id":"free"},{"bike_id":"251d17ec-2ccb-41eb-8cad-bab865c573ab","system_id":"levelo_inurba_marseille","lat":43.290779,"lon":5.371482,"is_reserved":false,"is_disabled":false,"rental_uris":{"android":"levelo://app?vid=251d17ec-2ccb-41eb-8cad-bab865c573ab","ios":"levelo://app?vid=251d17ec-2ccb-41eb-8cad-bab865c573ab"},"vehicle_type_id":"4","last_reported":1701202085,"current_range_meters":30400,"station_id":"ce4bh5p2rcd13ifvqe4g","pricing_plan_id":"free"},{"bike_id":"6d682541-e303-48f1-a51f-1a3e63d669b4","system_id":"levelo_inurba_marseille","lat":43.32927,"lon":5.38819,"is_reserved":false,"is_disabled":false,"rental_uris":{"android":"levelo://app?vid=6d682541-e303-48f1-a51f-1a3e63d669b4","ios":"levelo://app?vid=6d682541-e303-48f1-a51f-1a3e63d669b4"},"vehicle_type_id":"4","last_reported":1701202085,"current_range_meters":26800,"station_id":"","pricing_plan_id":"free"},{"bike_id":"de4a6d2c-8090-4791-8b77-3b840c5168ad","system_id":"levelo_inurba_marseille","lat":43.289373,"lon":5.36396,"is_reserved":false,"is_disabled":false,"rental_uris":{"android":"levelo://app?vid=de4a6d2c-8090-4791-8b77-3b840c5168ad","ios":"levelo://app?vid=de4a6d2c-8090-4791-8b77-3b840c5168ad"},"vehicle_type_id":"4","last_reported":1701202085,"current_range_meters":23200,"station_id":"ce4bhc92rcd13ifvqetg","pricing_plan_id":"free"},{"bike_id":"90a72ae5-1ff7-4e8e-a79e-4efdc6795242","system_id":"levelo_inurba_marseille","lat":43.29133,"lon":5.38081,"is_reserved":false,"is_disabled":false,"rental_uris":{"android":"levelo://app?vid=90a72ae5-1ff7-4e8e-a79e-4efdc6795242","ios":"levelo://app?vid=90a72ae5-1ff7-4e8e-a79e-4efdc6795242"},"vehicle_type_id":"4","last_reported":1701202085,"current_range_meters":0,"station_id":"","pricing_plan_id":"free"},{"bike_id":"181f8d5c-e394-4fd6-9230-79e312c2d45b","system_id":"levelo_inurba_marseille","lat":43.29274,"lon":5.38445,"is_reserved":false,"is_disabled":false,"rental_uris":{"android":"levelo://app?vid=181f8d5c-e394-4fd6-9230-79e312c2d45b","ios":"levelo://app?vid=181f8d5c-e394-4fd6-9230-79e312c2d45b"},"vehicle_type_id":"4","last_reported":1701202085,"current_range_meters":26400,"station_id":"ce4bh692rcd13ifvqea0","pricing_plan_id":"free"},{"bike_id":"7bc72297-5433-4a2c-ba83-964d2a65788e","system_id":"levelo_inurba_marseille","lat":43.304296,"lon":5.397513,"is_reserved":false,"is_disabled":false,"rental_uris":{"android":"levelo://app?vid=7bc72297-5433-4a2c-ba83-964d2a65788e","ios":"levelo://app?vid=7bc72297-5433-4a2c-ba83-964d2a65788e"},"vehicle_type_id":"4","last_reported":1701202085,"current_range_meters":16000,"station_id":"ce4bh092rcd13ifvqd20","pricing_plan_id":"free"},{"bike_id":"a925aa93-1648-4235-b3b3-04d2ac9ff4e3","system_id":"levelo_inurba_marseille","lat":43.292644,"lon":5.384257,"is_reserved":false,"is_disabled":false,"rental_uris":{"android":"levelo://app?vid=a925aa93-1648-4235-b3b3-04d2ac9ff4e3","ios":"levelo://app?vid=a925aa93-1648-4235-b3b3-04d2ac9ff4e3"},"vehicle_type_id":"4","last_reported":1701202085,"current_range_meters":27600,"station_id":"ce4bh692rcd13ifvqea0","pricing_plan_id":"free"},{"bike_id":"67810528-fb28-41e8-a8bc-9f1e263f753e","system_id":"levelo_inurba_marseille","lat":43.290104,"lon":5.356111,"is_reserved":false,"is_disabled":false,"rental_uris":{"android":"levelo://app?vid=67810528-fb28-41e8-a8bc-9f1e263f753e","ios":"levelo://app?vid=67810528-fb28-41e8-a8bc-9f1e263f753e"},"vehicle_type_id":"4","last_reported":1701202085,"current_range_meters":29600,"station_id":"ce4bhb92rcd13ifvqen0","pricing_plan_id":"free"},{"bike_id":"fc8fcf9f-c687-4daa-87e8-dcdafa5fa665","system_id":"levelo_inurba_marseille","lat":43.29002,"lon":5.35615,"is_reserved":false,"is_disabled":false,"rental_uris":{"android":"levelo://app?vid=fc8fcf9f-c687-4daa-87e8-dcdafa5fa665","ios":"levelo://app?vid=fc8fcf9f-c687-4daa-87e8-dcdafa5fa665"},"vehicle_type_id":"4","last_reported":1701202085,"current_range_meters":31600,"station_id":"ce4bhb92rcd13ifvqen0","pricing_plan_id":"free"},{"bike_id":"e1c7750b-7867-475f-bc65-5c9e541c9931","system_id":"levelo_inurba_marseille","lat":43.29795,"lon":5.39333,"is_reserved":false,"is_disabled":false,"rental_uris":{"android":"levelo://app?vid=e1c7750b-7867-475f-bc65-5c9e541c9931","ios":"levelo://app?vid=e1c7750b-7867-475f-bc65-5c9e541c9931"},"vehicle_type_id":"4","last_reported":1701202085,"current_range_meters":10800,"station_id":"chh1huq6cuj3fo74tm60","pricing_plan_id":"free"},{"bike_id":"7862495b-935d-4ff6-842e-a0db35ec4765","system_id":"levelo_inurba_marseille","lat":43.295169,"lon":5.390426,"is_reserved":false,"is_disabled":false,"rental_uris":{"android":"levelo://app?vid=7862495b-935d-4ff6-842e-a0db35ec4765","ios":"levelo://app?vid=7862495b-935d-4ff6-842e-a0db35ec4765"},"vehicle_type_id":"4","last_reported":1701202085,"current_range_meters":21200,"station_id":"ce4bh3p2rcd13ifvqdp0","pricing_plan_id":"free"},{"bike_id":"0ed24841-fa38-45cc-9295-57c2f2691dc6","system_id":"levelo_inurba_marseille","lat":43.295169,"lon":5.390426,"is_reserved":false,"is_disabled":false,"rental_uris":{"android":"levelo://app?vid=0ed24841-fa38-45cc-9295-57c2f2691dc6","ios":"levelo://app?vid=0ed24841-fa38-45cc-9295-57c2f2691dc6"},"vehicle_type_id":"4","last_reported":1701202085,"current_range_meters":1600,"station_id":"ce4bh3p2rcd13ifvqdp0","pricing_plan_id":"free"},{"bike_id":"186840c5-efff-43df-8daa-063a7fc81c8c","system_id":"levelo_inurba_marseille","lat":43.295169,"lon":5.390426,"is_reserved":false,"is_disabled":false,"rental_uris":{"android":"levelo://app?vid=186840c5-efff-43df-8daa-063a7fc81c8c","ios":"levelo://app?vid=186840c5-efff-43df-8daa-063a7fc81c8c"},"vehicle_type_id":"4","last_reported":1701202085,"current_range_meters":13600,"station_id":"ce4bh3p2rcd13ifvqdp0","pricing_plan_id":"free"},{"bike_id":"820c899a-07ba-4a08-839e-6218f478f73a","system_id":"levelo_inurba_marseille","lat":43.290315,"lon":5.38131,"is_reserved":false,"is_disabled":false,"rental_uris":{"android":"levelo://app?vid=820c899a-07ba-4a08-839e-6218f478f73a","ios":"levelo://app?vid=820c899a-07ba-4a08-839e-6218f478f73a"},"vehicle_type_id":"4","last_reported":1701202085,"current_range_meters":24800,"station_id":"ce4bh4p2rcd13ifvqe1g","pricing_plan_id":"free"},{"bike_id":"cb5674e8-099b-4e92-8c18-f2de76b25e6d","system_id":"levelo_inurba_marseille","lat":43.290283,"lon":5.381425,"is_reserved":false,"is_disabled":false,"rental_uris":{"android":"levelo://app?vid=cb5674e8-099b-4e92-8c18-f2de76b25e6d","ios":"levelo://app?vid=cb5674e8-099b-4e92-8c18-f2de76b25e6d"},"vehicle_type_id":"4","last_reported":1701202085,"current_range_meters":29600,"station_id":"ce4bh4p2rcd13ifvqe1g","pricing_plan_id":"free"},{"bike_id":"ddf26704-29af-4137-b10b-b42944575399","system_id":"levelo_inurba_marseille","lat":43.28856,"lon":5.358371,"is_reserved":false,"is_disabled":false,"rental_uris":{"android":"levelo://app?vid=ddf26704-29af-4137-b10b-b42944575399","ios":"levelo://app?vid=ddf26704-29af-4137-b10b-b42944575399"},"vehicle_type_id":"4","last_reported":1701202085,"current_range_meters":29200,"station_id":"ce4bhb12rcd13ifvqem0","pricing_plan_id":"free"},{"bike_id":"77b088cb-35f9-460a-9f79-0c93b2db5ec1","system_id":"levelo_inurba_marseille","lat":43.28856,"lon":5.358371,"is_reserved":false,"is_disabled":false,"rental_uris":{"android":"levelo://app?vid=77b088cb-35f9-460a-9f79-0c93b2db5ec1","ios":"levelo://app?vid=77b088cb-35f9-460a-9f79-0c93b2db5ec1"},"vehicle_type_id":"4","last_reported":1701202085,"current_range_meters":10400,"station_id":"ce4bhb12rcd13ifvqem0","pricing_plan_id":"free"},{"bike_id":"ccf3a924-b88a-4ef9-ab2f-2b221c8e50b1","system_id":"levelo_inurba_marseille","lat":43.28856,"lon":5.358371,"is_reserved":false,"is_disabled":false,"rental_uris":{"android":"levelo://app?vid=ccf3a924-b88a-4ef9-ab2f-2b221c8e50b1","ios":"levelo://app?vid=ccf3a924-b88a-4ef9-ab2f-2b221c8e50b1"},"vehicle_type_id":"4","last_reported":1701202085,"current_range_meters":31200,"station_id":"ce4bhb12rcd13ifvqem0","pricing_plan_id":"free"},{"bike_id":"e1ea4410-abaf-48c3-bfac-109caf57fcc9","system_id":"levelo_inurba_marseille","lat":43.28856,"lon":5.358371,"is_reserved":false,"is_disabled":false,"rental_uris":{"android":"levelo://app?vid=e1ea4410-abaf-48c3-bfac-109caf57fcc9","ios":"levelo://app?vid=e1ea4410-abaf-48c3-bfac-109caf57fcc9"},"vehicle_type_id":"4","last_reported":1701202085,"current_range_meters":26000,"station_id":"ce4bhb12rcd13ifvqem0","pricing_plan_id":"free"},{"bike_id":"4ce6fe41-9686-46a9-890b-b113b77b9f7d","system_id":"levelo_inurba_marseille","lat":43.309371,"lon":5.401449,"is_reserved":false,"is_disabled":false,"rental_uris":{"android":"levelo://app?vid=4ce6fe41-9686-46a9-890b-b113b77b9f7d","ios":"levelo://app?vid=4ce6fe41-9686-46a9-890b-b113b77b9f7d"},"vehicle_type_id":"4","last_reported":1701202085,"current_range_meters":10400,"station_id":"ce4bgvp2rcd13ifvqct0","pricing_plan_id":"free"},{"bike_id":"086a4989-d215-4f97-90e2-1eed70d0916c","system_id":"levelo_inurba_marseille","lat":43.309235,"lon":5.401362,"is_reserved":false,"is_disabled":false,"rental_uris":{"android":"levelo://app?vid=086a4989-d215-4f97-90e2-1eed70d0916c","ios":"levelo://app?vid=086a4989-d215-4f97-90e2-1eed70d0916c"},"vehicle_type_id":"4","last_reported":1701202085,"current_range_meters":1200,"station_id":"ce4bgvp2rcd13ifvqct0","pricing_plan_id":"free"},{"bike_id":"d683141e-892a-4e66-89fc-36ef6ebc2dd2","system_id":"levelo_inurba_marseille","lat":43.309371,"lon":5.401449,"is_reserved":false,"is_disabled":false,"rental_uris":{"android":"levelo://app?vid=d683141e-892a-4e66-89fc-36ef6ebc2dd2","ios":"levelo://app?vid=d683141e-892a-4e66-89fc-36ef6ebc2dd2"},"vehicle_type_id":"4","last_reported":1701202085,"current_range_meters":19600,"station_id":"ce4bgvp2rcd13ifvqct0","pricing_plan_id":"free"},{"bike_id":"1c5cc5d7-140c-4712-84c3-eab4b233cdd7","system_id":"levelo_inurba_marseille","lat":43.312609,"lon":5.401662,"is_reserved":false,"is_disabled":false,"rental_uris":{"android":"levelo://app?vid=1c5cc5d7-140c-4712-84c3-eab4b233cdd7","ios":"levelo://app?vid=1c5cc5d7-140c-4712-84c3-eab4b233cdd7"},"vehicle_type_id":"4","last_reported":1701202085,"current_range_meters":11600,"station_id":"ce4bh092rcd13ifvqd30","pricing_plan_id":"free"},{"bike_id":"c676974d-3d90-40ba-80fe-f46a28fd0516","system_id":"levelo_inurba_marseille","lat":43.309265,"lon":5.40142,"is_reserved":false,"is_disabled":false,"rental_uris":{"android":"levelo://app?vid=c676974d-3d90-40ba-80fe-f46a28fd0516","ios":"levelo://app?vid=c676974d-3d90-40ba-80fe-f46a28fd0516"},"vehicle_type_id":"4","last_reported":1701202085,"current_range_meters":14800,"station_id":"ce4bgvp2rcd13ifvqct0","pricing_plan_id":"free"},{"bike_id":"dcfc88f9-2d1f-4527-835d-064b40ec56a1","system_id":"levelo_inurba_marseille","lat":43.33754,"lon":5.37449,"is_reserved":false,"is_disabled":false,"rental_uris":{"android":"levelo://app?vid=dcfc88f9-2d1f-4527-835d-064b40ec56a1","ios":"levelo://app?vid=dcfc88f9-2d1f-4527-835d-064b40ec56a1"},"vehicle_type_id":"4","last_reported":1701202085,"current_range_meters":30400,"station_id":"","pricing_plan_id":"free"},{"bike_id":"b8629559-32a8-42c1-a37d-36c3c0889589","system_id":"levelo_inurba_marseille","lat":43.30642,"lon":5.401031,"is_reserved":false,"is_disabled":false,"rental_uris":{"android":"levelo://app?vid=b8629559-32a8-42c1-a37d-36c3c0889589","ios":"levelo://app?vid=b8629559-32a8-42c1-a37d-36c3c0889589"},"vehicle_type_id":"4","last_reported":1701202085,"current_range_meters":28000,"station_id":"ce4bh112rcd13ifvqda0","pricing_plan_id":"free"},{"bike_id":"05fb1921-7921-465c-9046-132299ee5b35","system_id":"levelo_inurba_marseille","lat":43.337592,"lon":5.374564,"is_reserved":false,"is_disabled":false,"rental_uris":{"android":"levelo://app?vid=05fb1921-7921-465c-9046-132299ee5b35","ios":"levelo://app?vid=05fb1921-7921-465c-9046-132299ee5b35"},"vehicle_type_id":"4","last_reported":1701202085,"current_range_meters":31600,"station_id":"","pricing_plan_id":"free"},{"bike_id":"c9ffc660-5a01-40ab-a39f-d3820f6ce2e2","system_id":"levelo_inurba_marseille","lat":43.306412,"lon":5.401035,"is_reserved":false,"is_disabled":false,"rental_uris":{"android":"levelo://app?vid=c9ffc660-5a01-40ab-a39f-d3820f6ce2e2","ios":"levelo://app?vid=c9ffc660-5a01-40ab-a39f-d3820f6ce2e2"},"vehicle_type_id":"4","last_reported":1701202085,"current_range_meters":28400,"station_id":"ce4bh112rcd13ifvqda0","pricing_plan_id":"free"},{"bike_id":"50bada01-5851-437c-9dbf-0054c2a582d8","system_id":"levelo_inurba_marseille","lat":43.286778,"lon":5.36352,"is_reserved":false,"is_disabled":false,"rental_uris":{"android":"levelo://app?vid=50bada01-5851-437c-9dbf-0054c2a582d8","ios":"levelo://app?vid=50bada01-5851-437c-9dbf-0054c2a582d8"},"vehicle_type_id":"4","last_reported":1701202085,"current_range_meters":31200,"station_id":"ce4bhah2rcd13ifvqej0","pricing_plan_id":"free"},{"bike_id":"4c583723-ddf3-463d-afff-20205cc787f8","system_id":"levelo_inurba_marseille","lat":43.286591,"lon":5.363346,"is_reserved":false,"is_disabled":false,"rental_uris":{"android":"levelo://app?vid=4c583723-ddf3-463d-afff-20205cc787f8","ios":"levelo://app?vid=4c583723-ddf3-463d-afff-20205cc787f8"},"vehicle_type_id":"4","last_reported":1701202085,"current_range_meters":20800,"station_id":"ce4bhah2rcd13ifvqej0","pricing_plan_id":"free"},{"bike_id":"0835f735-fbc4-40ca-b02a-112ff61ff6d1","system_id":"levelo_inurba_marseille","lat":43.286591,"lon":5.363346,"is_reserved":false,"is_disabled":false,"rental_uris":{"android":"levelo://app?vid=0835f735-fbc4-40ca-b02a-112ff61ff6d1","ios":"levelo://app?vid=0835f735-fbc4-40ca-b02a-112ff61ff6d1"},"vehicle_type_id":"4","last_reported":1701202085,"current_range_meters":27600,"station_id":"ce4bhah2rcd13ifvqej0","pricing_plan_id":"free"},{"bike_id":"e5723a22-18b0-4bba-944e-f4d0788972cf","system_id":"levelo_inurba_marseille","lat":43.286591,"lon":5.363346,"is_reserved":false,"is_disabled":false,"rental_uris":{"android":"levelo://app?vid=e5723a22-18b0-4bba-944e-f4d0788972cf","ios":"levelo://app?vid=e5723a22-18b0-4bba-944e-f4d0788972cf"},"vehicle_type_id":"4","last_reported":1701202085,"current_range_meters":3600,"station_id":"ce4bhah2rcd13ifvqej0","pricing_plan_id":"free"},{"bike_id":"3fa13cb6-2a4c-4d7f-8ae4-7fd5008a0770","system_id":"levelo_inurba_marseille","lat":43.286961,"lon":5.373785,"is_reserved":false,"is_disabled":false,"rental_uris":{"android":"levelo://app?vid=3fa13cb6-2a4c-4d7f-8ae4-7fd5008a0770","ios":"levelo://app?vid=3fa13cb6-2a4c-4d7f-8ae4-7fd5008a0770"},"vehicle_type_id":"4","last_reported":1701202085,"current_range_meters":1200,"station_id":"ce4bh3p2rcd13ifvqdq0","pricing_plan_id":"free"},{"bike_id":"ccf8a658-8d23-44ae-bcfe-8ae5037717c5","system_id":"levelo_inurba_marseille","lat":43.286591,"lon":5.363346,"is_reserved":false,"is_disabled":false,"rental_uris":{"android":"levelo://app?vid=ccf8a658-8d23-44ae-bcfe-8ae5037717c5","ios":"levelo://app?vid=ccf8a658-8d23-44ae-bcfe-8ae5037717c5"},"vehicle_type_id":"4","last_reported":1701202085,"current_range_meters":22000,"station_id":"ce4bhah2rcd13ifvqej0","pricing_plan_id":"free"},{"bike_id":"c07f0312-a415-4cc2-81a0-38436b7503c9","system_id":"levelo_inurba_marseille","lat":43.286593,"lon":5.363346,"is_reserved":false,"is_disabled":false,"rental_uris":{"android":"levelo://app?vid=c07f0312-a415-4cc2-81a0-38436b7503c9","ios":"levelo://app?vid=c07f0312-a415-4cc2-81a0-38436b7503c9"},"vehicle_type_id":"4","last_reported":1701202085,"current_range_meters":31200,"station_id":"ce4bhah2rcd13ifvqej0","pricing_plan_id":"free"},{"bike_id":"3a445392-6308-45bc-b76b-15a63e619af3","system_id":"levelo_inurba_marseille","lat":43.286591,"lon":5.363346,"is_reserved":false,"is_disabled":false,"rental_uris":{"android":"levelo://app?vid=3a445392-6308-45bc-b76b-15a63e619af3","ios":"levelo://app?vid=3a445392-6308-45bc-b76b-15a63e619af3"},"vehicle_type_id":"4","last_reported":1701202085,"current_range_meters":18400,"station_id":"ce4bhah2rcd13ifvqej0","pricing_plan_id":"free"},{"bike_id":"00badb3d-21f6-427b-a43c-c7e91b23a2b5","system_id":"levelo_inurba_marseille","lat":43.286961,"lon":5.373785,"is_reserved":false,"is_disabled":false,"rental_uris":{"android":"levelo://app?vid=00badb3d-21f6-427b-a43c-c7e91b23a2b5","ios":"levelo://app?vid=00badb3d-21f6-427b-a43c-c7e91b23a2b5"},"vehicle_type_id":"4","last_reported":1701202085,"current_range_meters":14400,"station_id":"ce4bh3p2rcd13ifvqdq0","pricing_plan_id":"free"},{"bike_id":"5f3a261a-b688-44e6-b5df-fc68fca49725","system_id":"levelo_inurba_marseille","lat":43.286961,"lon":5.373785,"is_reserved":false,"is_disabled":false,"rental_uris":{"android":"levelo://app?vid=5f3a261a-b688-44e6-b5df-fc68fca49725","ios":"levelo://app?vid=5f3a261a-b688-44e6-b5df-fc68fca49725"},"vehicle_type_id":"4","last_reported":1701202085,"current_range_meters":400,"station_id":"ce4bh3p2rcd13ifvqdq0","pricing_plan_id":"free"},{"bike_id":"485a242f-8a73-4a00-9661-2e1978e12d3a","system_id":"levelo_inurba_marseille","lat":43.295194,"lon":5.39397,"is_reserved":false,"is_disabled":false,"rental_uris":{"android":"levelo://app?vid=485a242f-8a73-4a00-9661-2e1978e12d3a","ios":"levelo://app?vid=485a242f-8a73-4a00-9661-2e1978e12d3a"},"vehicle_type_id":"4","last_reported":1701202085,"current_range_meters":23200,"station_id":"ce4bh292rcd13ifvqdf0","pricing_plan_id":"free"},{"bike_id":"99bc40da-d976-4ea8-96cc-a962a86df958","system_id":"levelo_inurba_marseille","lat":43.290349,"lon":5.386405,"is_reserved":false,"is_disabled":false,"rental_uris":{"android":"levelo://app?vid=99bc40da-d976-4ea8-96cc-a962a86df958","ios":"levelo://app?vid=99bc40da-d976-4ea8-96cc-a962a86df958"},"vehicle_type_id":"4","last_reported":1701202085,"current_range_meters":14000,"station_id":"","pricing_plan_id":"free"},{"bike_id":"b7b8a2f8-50d8-4c5f-9473-bb6619ea444f","system_id":"levelo_inurba_marseille","lat":43.29037,"lon":5.386473,"is_reserved":false,"is_disabled":false,"rental_uris":{"android":"levelo://app?vid=b7b8a2f8-50d8-4c5f-9473-bb6619ea444f","ios":"levelo://app?vid=b7b8a2f8-50d8-4c5f-9473-bb6619ea444f"},"vehicle_type_id":"4","last_reported":1701202085,"current_range_meters":0,"station_id":"","pricing_plan_id":"free"},{"bike_id":"2f46a048-ec98-478d-a8c0-cc9dd878295d","system_id":"levelo_inurba_marseille","lat":43.290272,"lon":5.386449,"is_reserved":false,"is_disabled":false,"rental_uris":{"android":"levelo://app?vid=2f46a048-ec98-478d-a8c0-cc9dd878295d","ios":"levelo://app?vid=2f46a048-ec98-478d-a8c0-cc9dd878295d"},"vehicle_type_id":"4","last_reported":1701202085,"current_range_meters":400,"station_id":"","pricing_plan_id":"free"},{"bike_id":"9c170648-b835-4ed8-b22f-974e731efb3e","system_id":"levelo_inurba_marseille","lat":43.286039,"lon":5.370681,"is_reserved":false,"is_disabled":false,"rental_uris":{"android":"levelo://app?vid=9c170648-b835-4ed8-b22f-974e731efb3e","ios":"levelo://app?vid=9c170648-b835-4ed8-b22f-974e731efb3e"},"vehicle_type_id":"4","last_reported":1701202085,"current_range_meters":6000,"station_id":"ce4bht12rcd13ifvqi60","pricing_plan_id":"free"},{"bike_id":"387fd0ab-1deb-4aa2-aa50-de18a5320e1f","system_id":"levelo_inurba_marseille","lat":43.287184,"lon":5.37937,"is_reserved":false,"is_disabled":false,"rental_uris":{"android":"levelo://app?vid=387fd0ab-1deb-4aa2-aa50-de18a5320e1f","ios":"levelo://app?vid=387fd0ab-1deb-4aa2-aa50-de18a5320e1f"},"vehicle_type_id":"4","last_reported":1701202085,"current_range_meters":6800,"station_id":"ce4bh9p2rcd13ifvqec0","pricing_plan_id":"free"},{"bike_id":"9bfa7040-5f16-4ac2-9087-8ab6266011e8","system_id":"levelo_inurba_marseille","lat":43.287185,"lon":5.379373,"is_reserved":false,"is_disabled":false,"rental_uris":{"android":"levelo://app?vid=9bfa7040-5f16-4ac2-9087-8ab6266011e8","ios":"levelo://app?vid=9bfa7040-5f16-4ac2-9087-8ab6266011e8"},"vehicle_type_id":"4","last_reported":1701202085,"current_range_meters":14800,"station_id":"ce4bh9p2rcd13ifvqec0","pricing_plan_id":"free"},{"bike_id":"625f7362-4aef-41bf-9975-56a440d1b477","system_id":"levelo_inurba_marseille","lat":43.316517,"lon":5.404375,"is_reserved":false,"is_disabled":false,"rental_uris":{"android":"levelo://app?vid=625f7362-4aef-41bf-9975-56a440d1b477","ios":"levelo://app?vid=625f7362-4aef-41bf-9975-56a440d1b477"},"vehicle_type_id":"4","last_reported":1701202085,"current_range_meters":30400,"station_id":"ce4bh012rcd13ifvqd00","pricing_plan_id":"free"},{"bike_id":"cc8f81d7-030d-4bc6-bcba-0f5509f170e2","system_id":"levelo_inurba_marseille","lat":43.291994,"lon":5.392907,"is_reserved":false,"is_disabled":false,"rental_uris":{"android":"levelo://app?vid=cc8f81d7-030d-4bc6-bcba-0f5509f170e2","ios":"levelo://app?vid=cc8f81d7-030d-4bc6-bcba-0f5509f170e2"},"vehicle_type_id":"4","last_reported":1701202085,"current_range_meters":31600,"station_id":"ce4bh192rcd13ifvqdd0","pricing_plan_id":"free"},{"bike_id":"736457ac-9954-4414-85f7-0ffdab74d67f","system_id":"levelo_inurba_marseille","lat":43.28461,"lon":5.35892,"is_reserved":false,"is_disabled":false,"rental_uris":{"android":"levelo://app?vid=736457ac-9954-4414-85f7-0ffdab74d67f","ios":"levelo://app?vid=736457ac-9954-4414-85f7-0ffdab74d67f"},"vehicle_type_id":"4","last_reported":1701202085,"current_range_meters":31200,"station_id":"ce4bhah2rcd13ifvqei0","pricing_plan_id":"free"},{"bike_id":"5e43b6eb-37fc-481f-83f6-a4b4faa34f4f","system_id":"levelo_inurba_marseille","lat":43.284538,"lon":5.358657,"is_reserved":false,"is_disabled":false,"rental_uris":{"android":"levelo://app?vid=5e43b6eb-37fc-481f-83f6-a4b4faa34f4f","ios":"levelo://app?vid=5e43b6eb-37fc-481f-83f6-a4b4faa34f4f"},"vehicle_type_id":"4","last_reported":1701202085,"current_range_meters":31200,"station_id":"ce4bhah2rcd13ifvqei0","pricing_plan_id":"free"},{"bike_id":"be863781-d1a5-4037-b452-89ec03a9a1ab","system_id":"levelo_inurba_marseille","lat":43.284538,"lon":5.358657,"is_reserved":false,"is_disabled":false,"rental_uris":{"android":"levelo://app?vid=be863781-d1a5-4037-b452-89ec03a9a1ab","ios":"levelo://app?vid=be863781-d1a5-4037-b452-89ec03a9a1ab"},"vehicle_type_id":"4","last_reported":1701202085,"current_range_meters":30400,"station_id":"ce4bhah2rcd13ifvqei0","pricing_plan_id":"free"},{"bike_id":"38e20aee-0f2e-4b14-beaf-ebce34830f09","system_id":"levelo_inurba_marseille","lat":43.284538,"lon":5.358657,"is_reserved":false,"is_disabled":false,"rental_uris":{"android":"levelo://app?vid=38e20aee-0f2e-4b14-beaf-ebce34830f09","ios":"levelo://app?vid=38e20aee-0f2e-4b14-beaf-ebce34830f09"},"vehicle_type_id":"4","last_reported":1701202085,"current_range_meters":31600,"station_id":"ce4bhah2rcd13ifvqei0","pricing_plan_id":"free"},{"bike_id":"a4162281-b0e2-44bd-9b9f-6573a64ff243","system_id":"levelo_inurba_marseille","lat":43.284534,"lon":5.358662,"is_reserved":false,"is_disabled":false,"rental_uris":{"android":"levelo://app?vid=a4162281-b0e2-44bd-9b9f-6573a64ff243","ios":"levelo://app?vid=a4162281-b0e2-44bd-9b9f-6573a64ff243"},"vehicle_type_id":"4","last_reported":1701202085,"current_range_meters":31600,"station_id":"ce4bhah2rcd13ifvqei0","pricing_plan_id":"free"},{"bike_id":"b8eed608-1b7d-4df9-bf7b-4c102276a3a0","system_id":"levelo_inurba_marseille","lat":43.294314,"lon":5.397498,"is_reserved":false,"is_disabled":false,"rental_uris":{"android":"levelo://app?vid=b8eed608-1b7d-4df9-bf7b-4c102276a3a0","ios":"levelo://app?vid=b8eed608-1b7d-4df9-bf7b-4c102276a3a0"},"vehicle_type_id":"4","last_reported":1701202085,"current_range_meters":5200,"station_id":"ce4bh3h2rcd13ifvqdo0","pricing_plan_id":"free"},{"bike_id":"25c2ec6d-e178-4d2f-88d3-840244cb8ec0","system_id":"levelo_inurba_marseille","lat":43.284534,"lon":5.358662,"is_reserved":false,"is_disabled":false,"rental_uris":{"android":"levelo://app?vid=25c2ec6d-e178-4d2f-88d3-840244cb8ec0","ios":"levelo://app?vid=25c2ec6d-e178-4d2f-88d3-840244cb8ec0"},"vehicle_type_id":"4","last_reported":1701202085,"current_range_meters":31600,"station_id":"ce4bhah2rcd13ifvqei0","pricing_plan_id":"free"},{"bike_id":"e683a82d-331b-4597-ad15-481a434b3839","system_id":"levelo_inurba_marseille","lat":43.284538,"lon":5.358657,"is_reserved":false,"is_disabled":false,"rental_uris":{"android":"levelo://app?vid=e683a82d-331b-4597-ad15-481a434b3839","ios":"levelo://app?vid=e683a82d-331b-4597-ad15-481a434b3839"},"vehicle_type_id":"4","last_reported":1701202085,"current_range_meters":31600,"station_id":"ce4bhah2rcd13ifvqei0","pricing_plan_id":"free"},{"bike_id":"f9d317a2-ff24-41e6-9549-7f0d05f9ec1e","system_id":"levelo_inurba_marseille","lat":43.284534,"lon":5.358662,"is_reserved":false,"is_disabled":false,"rental_uris":{"android":"levelo://app?vid=f9d317a2-ff24-41e6-9549-7f0d05f9ec1e","ios":"levelo://app?vid=f9d317a2-ff24-41e6-9549-7f0d05f9ec1e"},"vehicle_type_id":"4","last_reported":1701202085,"current_range_meters":25200,"station_id":"ce4bhah2rcd13ifvqei0","pricing_plan_id":"free"},{"bike_id":"229f4719-7604-417f-9aee-6c36e0def1e9","system_id":"levelo_inurba_marseille","lat":43.28623,"lon":5.35106,"is_reserved":false,"is_disabled":false,"rental_uris":{"android":"levelo://app?vid=229f4719-7604-417f-9aee-6c36e0def1e9","ios":"levelo://app?vid=229f4719-7604-417f-9aee-6c36e0def1e9"},"vehicle_type_id":"4","last_reported":1701202085,"current_range_meters":24000,"station_id":"ce4bhch2rcd13ifvqeug","pricing_plan_id":"free"},{"bike_id":"1c2619ec-a39d-45c6-9881-487a969dd1ec","system_id":"levelo_inurba_marseille","lat":43.286205,"lon":5.35099,"is_reserved":false,"is_disabled":false,"rental_uris":{"android":"levelo://app?vid=1c2619ec-a39d-45c6-9881-487a969dd1ec","ios":"levelo://app?vid=1c2619ec-a39d-45c6-9881-487a969dd1ec"},"vehicle_type_id":"4","last_reported":1701202085,"current_range_meters":31200,"station_id":"ce4bhch2rcd13ifvqeug","pricing_plan_id":"free"},{"bike_id":"4e3bf902-a43e-4c3e-aa91-f4c621c834b6","system_id":"levelo_inurba_marseille","lat":43.28619,"lon":5.35102,"is_reserved":false,"is_disabled":false,"rental_uris":{"android":"levelo://app?vid=4e3bf902-a43e-4c3e-aa91-f4c621c834b6","ios":"levelo://app?vid=4e3bf902-a43e-4c3e-aa91-f4c621c834b6"},"vehicle_type_id":"4","last_reported":1701202085,"current_range_meters":30800,"station_id":"ce4bhch2rcd13ifvqeug","pricing_plan_id":"free"},{"bike_id":"7c6f6130-0650-48a8-bfd8-e068140806bc","system_id":"levelo_inurba_marseille","lat":43.28615,"lon":5.35104,"is_reserved":false,"is_disabled":false,"rental_uris":{"android":"levelo://app?vid=7c6f6130-0650-48a8-bfd8-e068140806bc","ios":"levelo://app?vid=7c6f6130-0650-48a8-bfd8-e068140806bc"},"vehicle_type_id":"4","last_reported":1701202085,"current_range_meters":23600,"station_id":"ce4bhch2rcd13ifvqeug","pricing_plan_id":"free"},{"bike_id":"3a411332-de50-401f-b4fa-5b272c8b4bbf","system_id":"levelo_inurba_marseille","lat":43.285856,"lon":5.350771,"is_reserved":false,"is_disabled":false,"rental_uris":{"android":"levelo://app?vid=3a411332-de50-401f-b4fa-5b272c8b4bbf","ios":"levelo://app?vid=3a411332-de50-401f-b4fa-5b272c8b4bbf"},"vehicle_type_id":"4","last_reported":1701202085,"current_range_meters":30800,"station_id":"ce4bhch2rcd13ifvqeug","pricing_plan_id":"free"},{"bike_id":"f7be22e1-fe6a-463d-9f88-9741c460eeda","system_id":"levelo_inurba_marseille","lat":43.28614,"lon":5.35101,"is_reserved":false,"is_disabled":false,"rental_uris":{"android":"levelo://app?vid=f7be22e1-fe6a-463d-9f88-9741c460eeda","ios":"levelo://app?vid=f7be22e1-fe6a-463d-9f88-9741c460eeda"},"vehicle_type_id":"4","last_reported":1701202085,"current_range_meters":29600,"station_id":"ce4bhch2rcd13ifvqeug","pricing_plan_id":"free"},{"bike_id":"bb08fba1-1d85-49f3-bb19-f02b2f43a564","system_id":"levelo_inurba_marseille","lat":43.283998,"lon":5.375062,"is_reserved":false,"is_disabled":false,"rental_uris":{"android":"levelo://app?vid=bb08fba1-1d85-49f3-bb19-f02b2f43a564","ios":"levelo://app?vid=bb08fba1-1d85-49f3-bb19-f02b2f43a564"},"vehicle_type_id":"4","last_reported":1701202085,"current_range_meters":27200,"station_id":"ce4bh412rcd13ifvqds0","pricing_plan_id":"free"},{"bike_id":"7601045f-9d45-46ee-ac60-4ea59394e47e","system_id":"levelo_inurba_marseille","lat":43.33717,"lon":5.391857,"is_reserved":false,"is_disabled":false,"rental_uris":{"android":"levelo://app?vid=7601045f-9d45-46ee-ac60-4ea59394e47e","ios":"levelo://app?vid=7601045f-9d45-46ee-ac60-4ea59394e47e"},"vehicle_type_id":"4","last_reported":1701202085,"current_range_meters":14000,"station_id":"ce4bhr92rcd13ifvqhsg","pricing_plan_id":"free"},{"bike_id":"c3bf2d53-b0cc-4d41-a634-72976fc395bf","system_id":"levelo_inurba_marseille","lat":43.323464,"lon":5.406297,"is_reserved":false,"is_disabled":false,"rental_uris":{"android":"levelo://app?vid=c3bf2d53-b0cc-4d41-a634-72976fc395bf","ios":"levelo://app?vid=c3bf2d53-b0cc-4d41-a634-72976fc395bf"},"vehicle_type_id":"4","last_reported":1701202085,"current_range_meters":19600,"station_id":"ce4bhq92rcd13ifvqhjg","pricing_plan_id":"free"},{"bike_id":"81867c28-12d5-4cb1-b342-c595224e4e20","system_id":"levelo_inurba_marseille","lat":43.297946,"lon":5.404063,"is_reserved":false,"is_disabled":false,"rental_uris":{"android":"levelo://app?vid=81867c28-12d5-4cb1-b342-c595224e4e20","ios":"levelo://app?vid=81867c28-12d5-4cb1-b342-c595224e4e20"},"vehicle_type_id":"4","last_reported":1701202085,"current_range_meters":24400,"station_id":"ce4bh112rcd13ifvqd90","pricing_plan_id":"free"},{"bike_id":"9c2b0bf1-41c8-4f85-aea0-5272aa18387b","system_id":"levelo_inurba_marseille","lat":43.297946,"lon":5.404063,"is_reserved":false,"is_disabled":false,"rental_uris":{"android":"levelo://app?vid=9c2b0bf1-41c8-4f85-aea0-5272aa18387b","ios":"levelo://app?vid=9c2b0bf1-41c8-4f85-aea0-5272aa18387b"},"vehicle_type_id":"4","last_reported":1701202085,"current_range_meters":22400,"station_id":"ce4bh112rcd13ifvqd90","pricing_plan_id":"free"},{"bike_id":"37e0d794-fb98-4579-94cf-706e14056e19","system_id":"levelo_inurba_marseille","lat":43.297946,"lon":5.404063,"is_reserved":false,"is_disabled":false,"rental_uris":{"android":"levelo://app?vid=37e0d794-fb98-4579-94cf-706e14056e19","ios":"levelo://app?vid=37e0d794-fb98-4579-94cf-706e14056e19"},"vehicle_type_id":"4","last_reported":1701202085,"current_range_meters":23600,"station_id":"ce4bh112rcd13ifvqd90","pricing_plan_id":"free"},{"bike_id":"d15a6300-86c6-4ef0-95fe-ff0cea6cf89d","system_id":"levelo_inurba_marseille","lat":43.28853,"lon":5.39321,"is_reserved":false,"is_disabled":false,"rental_uris":{"android":"levelo://app?vid=d15a6300-86c6-4ef0-95fe-ff0cea6cf89d","ios":"levelo://app?vid=d15a6300-86c6-4ef0-95fe-ff0cea6cf89d"},"vehicle_type_id":"4","last_reported":1701202085,"current_range_meters":7600,"station_id":"ce4bh2p2rcd13ifvqdi0","pricing_plan_id":"free"},{"bike_id":"35f0c128-ade4-4d01-a075-97a38d9d9c62","system_id":"levelo_inurba_marseille","lat":43.283494,"lon":5.380945,"is_reserved":false,"is_disabled":false,"rental_uris":{"android":"levelo://app?vid=35f0c128-ade4-4d01-a075-97a38d9d9c62","ios":"levelo://app?vid=35f0c128-ade4-4d01-a075-97a38d9d9c62"},"vehicle_type_id":"4","last_reported":1701202085,"current_range_meters":2800,"station_id":"ce4bh412rcd13ifvqdr0","pricing_plan_id":"free"},{"bike_id":"2c73d258-726b-458a-a17d-5bb59ebe2373","system_id":"levelo_inurba_marseille","lat":43.284217,"lon":5.349697,"is_reserved":false,"is_disabled":false,"rental_uris":{"android":"levelo://app?vid=2c73d258-726b-458a-a17d-5bb59ebe2373","ios":"levelo://app?vid=2c73d258-726b-458a-a17d-5bb59ebe2373"},"vehicle_type_id":"4","last_reported":1701202085,"current_range_meters":22400,"station_id":"ce4bhbh2rcd13ifvqepg","pricing_plan_id":"free"},{"bike_id":"1562f9ac-8fa1-4b1c-a12e-af0ae46032f5","system_id":"levelo_inurba_marseille","lat":43.284217,"lon":5.349697,"is_reserved":false,"is_disabled":false,"rental_uris":{"android":"levelo://app?vid=1562f9ac-8fa1-4b1c-a12e-af0ae46032f5","ios":"levelo://app?vid=1562f9ac-8fa1-4b1c-a12e-af0ae46032f5"},"vehicle_type_id":"4","last_reported":1701202085,"current_range_meters":12400,"station_id":"ce4bhbh2rcd13ifvqepg","pricing_plan_id":"free"},{"bike_id":"d0afd7e0-1d2f-4c7e-b75c-591a12d383d1","system_id":"levelo_inurba_marseille","lat":43.283502,"lon":5.386471,"is_reserved":false,"is_disabled":false,"rental_uris":{"android":"levelo://app?vid=d0afd7e0-1d2f-4c7e-b75c-591a12d383d1","ios":"levelo://app?vid=d0afd7e0-1d2f-4c7e-b75c-591a12d383d1"},"vehicle_type_id":"4","last_reported":1701202085,"current_range_meters":13200,"station_id":"ce4bh492rcd13ifvqdvg","pricing_plan_id":"free"},{"bike_id":"e4aeb4f8-feae-40be-9dd8-4f8912d79314","system_id":"levelo_inurba_marseille","lat":43.282744,"lon":5.350533,"is_reserved":false,"is_disabled":false,"rental_uris":{"android":"levelo://app?vid=e4aeb4f8-feae-40be-9dd8-4f8912d79314","ios":"levelo://app?vid=e4aeb4f8-feae-40be-9dd8-4f8912d79314"},"vehicle_type_id":"4","last_reported":1701202085,"current_range_meters":28400,"station_id":"ce4bhbp2rcd13ifvqerg","pricing_plan_id":"free"},{"bike_id":"67af646b-0905-4a95-bbdc-393054868a64","system_id":"levelo_inurba_marseille","lat":43.28266,"lon":5.3507,"is_reserved":false,"is_disabled":false,"rental_uris":{"android":"levelo://app?vid=67af646b-0905-4a95-bbdc-393054868a64","ios":"levelo://app?vid=67af646b-0905-4a95-bbdc-393054868a64"},"vehicle_type_id":"4","last_reported":1701202085,"current_range_meters":0,"station_id":"ce4bhbp2rcd13ifvqerg","pricing_plan_id":"free"},{"bike_id":"31248d8a-05f8-40b9-bd91-4da8361a1784","system_id":"levelo_inurba_marseille","lat":43.283502,"lon":5.386471,"is_reserved":false,"is_disabled":false,"rental_uris":{"android":"levelo://app?vid=31248d8a-05f8-40b9-bd91-4da8361a1784","ios":"levelo://app?vid=31248d8a-05f8-40b9-bd91-4da8361a1784"},"vehicle_type_id":"4","last_reported":1701202085,"current_range_meters":10400,"station_id":"ce4bh492rcd13ifvqdvg","pricing_plan_id":"free"},{"bike_id":"f947ac04-b32d-4416-b67f-d60000149146","system_id":"levelo_inurba_marseille","lat":43.282744,"lon":5.350533,"is_reserved":false,"is_disabled":false,"rental_uris":{"android":"levelo://app?vid=f947ac04-b32d-4416-b67f-d60000149146","ios":"levelo://app?vid=f947ac04-b32d-4416-b67f-d60000149146"},"vehicle_type_id":"4","last_reported":1701202085,"current_range_meters":28400,"station_id":"ce4bhbp2rcd13ifvqerg","pricing_plan_id":"free"},{"bike_id":"d5956e3d-d3de-48b3-9bec-2beb921f893f","system_id":"levelo_inurba_marseille","lat":43.282744,"lon":5.350533,"is_reserved":false,"is_disabled":false,"rental_uris":{"android":"levelo://app?vid=d5956e3d-d3de-48b3-9bec-2beb921f893f","ios":"levelo://app?vid=d5956e3d-d3de-48b3-9bec-2beb921f893f"},"vehicle_type_id":"4","last_reported":1701202085,"current_range_meters":4800,"station_id":"ce4bhbp2rcd13ifvqerg","pricing_plan_id":"free"},{"bike_id":"1d6172a7-1636-4546-8355-96457235720f","system_id":"levelo_inurba_marseille","lat":43.283502,"lon":5.386471,"is_reserved":false,"is_disabled":false,"rental_uris":{"android":"levelo://app?vid=1d6172a7-1636-4546-8355-96457235720f","ios":"levelo://app?vid=1d6172a7-1636-4546-8355-96457235720f"},"vehicle_type_id":"4","last_reported":1701202085,"current_range_meters":7200,"station_id":"ce4bh492rcd13ifvqdvg","pricing_plan_id":"free"},{"bike_id":"90bb93de-60c6-45f1-8989-bac32159e22e","system_id":"levelo_inurba_marseille","lat":43.28041,"lon":5.369458,"is_reserved":false,"is_disabled":false,"rental_uris":{"android":"levelo://app?vid=90bb93de-60c6-45f1-8989-bac32159e22e","ios":"levelo://app?vid=90bb93de-60c6-45f1-8989-bac32159e22e"},"vehicle_type_id":"4","last_reported":1701202085,"current_range_meters":0,"station_id":"ce4bha12rcd13ifvqef0","pricing_plan_id":"free"},{"bike_id":"92f90e5e-5f1a-4ffd-8184-97483d213ff0","system_id":"levelo_inurba_marseille","lat":43.282744,"lon":5.350533,"is_reserved":false,"is_disabled":false,"rental_uris":{"android":"levelo://app?vid=92f90e5e-5f1a-4ffd-8184-97483d213ff0","ios":"levelo://app?vid=92f90e5e-5f1a-4ffd-8184-97483d213ff0"},"vehicle_type_id":"4","last_reported":1701202085,"current_range_meters":31200,"station_id":"ce4bhbp2rcd13ifvqerg","pricing_plan_id":"free"},{"bike_id":"4b5b5b9a-04c9-4c9b-9f27-7f62860aeb4d","system_id":"levelo_inurba_marseille","lat":43.2804,"lon":5.36948,"is_reserved":false,"is_disabled":false,"rental_uris":{"android":"levelo://app?vid=4b5b5b9a-04c9-4c9b-9f27-7f62860aeb4d","ios":"levelo://app?vid=4b5b5b9a-04c9-4c9b-9f27-7f62860aeb4d"},"vehicle_type_id":"4","last_reported":1701202085,"current_range_meters":26000,"station_id":"ce4bha12rcd13ifvqef0","pricing_plan_id":"free"},{"bike_id":"52247a62-d59f-4d74-bea3-d9131cb788c0","system_id":"levelo_inurba_marseille","lat":43.28039,"lon":5.369297,"is_reserved":false,"is_disabled":false,"rental_uris":{"android":"levelo://app?vid=52247a62-d59f-4d74-bea3-d9131cb788c0","ios":"levelo://app?vid=52247a62-d59f-4d74-bea3-d9131cb788c0"},"vehicle_type_id":"4","last_reported":1701202085,"current_range_meters":28000,"station_id":"ce4bha12rcd13ifvqef0","pricing_plan_id":"free"},{"bike_id":"f8e93a5f-b85d-4c01-8630-1453bb55b231","system_id":"levelo_inurba_marseille","lat":43.282744,"lon":5.350533,"is_reserved":false,"is_disabled":false,"rental_uris":{"android":"levelo://app?vid=f8e93a5f-b85d-4c01-8630-1453bb55b231","ios":"levelo://app?vid=f8e93a5f-b85d-4c01-8630-1453bb55b231"},"vehicle_type_id":"4","last_reported":1701202085,"current_range_meters":31600,"station_id":"ce4bhbp2rcd13ifvqerg","pricing_plan_id":"free"},{"bike_id":"e59e456b-08bb-4e0f-b88f-d063a3242c94","system_id":"levelo_inurba_marseille","lat":43.281044,"lon":5.378308,"is_reserved":false,"is_disabled":false,"rental_uris":{"android":"levelo://app?vid=e59e456b-08bb-4e0f-b88f-d063a3242c94","ios":"levelo://app?vid=e59e456b-08bb-4e0f-b88f-d063a3242c94"},"vehicle_type_id":"4","last_reported":1701202085,"current_range_meters":9600,"station_id":"ce4bha12rcd13ifvqee0","pricing_plan_id":"free"},{"bike_id":"7ac741a1-22fe-45d7-be42-3360560d78fe","system_id":"levelo_inurba_marseille","lat":43.281044,"lon":5.378308,"is_reserved":false,"is_disabled":false,"rental_uris":{"android":"levelo://app?vid=7ac741a1-22fe-45d7-be42-3360560d78fe","ios":"levelo://app?vid=7ac741a1-22fe-45d7-be42-3360560d78fe"},"vehicle_type_id":"4","last_reported":1701202085,"current_range_meters":10400,"station_id":"ce4bha12rcd13ifvqee0","pricing_plan_id":"free"},{"bike_id":"c3d040bf-f09b-4296-b06e-358ed99b5f65","system_id":"levelo_inurba_marseille","lat":43.281044,"lon":5.378308,"is_reserved":false,"is_disabled":false,"rental_uris":{"android":"levelo://app?vid=c3d040bf-f09b-4296-b06e-358ed99b5f65","ios":"levelo://app?vid=c3d040bf-f09b-4296-b06e-358ed99b5f65"},"vehicle_type_id":"4","last_reported":1701202085,"current_range_meters":27200,"station_id":"ce4bha12rcd13ifvqee0","pricing_plan_id":"free"},{"bike_id":"267bcbbd-a2dc-4612-9f1f-19f848f0b60d","system_id":"levelo_inurba_marseille","lat":43.285742,"lon":5.395004,"is_reserved":false,"is_disabled":false,"rental_uris":{"android":"levelo://app?vid=267bcbbd-a2dc-4612-9f1f-19f848f0b60d","ios":"levelo://app?vid=267bcbbd-a2dc-4612-9f1f-19f848f0b60d"},"vehicle_type_id":"4","last_reported":1701202085,"current_range_meters":4000,"station_id":"ce4bh292rcd13ifvqdg0","pricing_plan_id":"free"},{"bike_id":"9baeb7cd-a12e-484f-80e8-a2fa1799c6e1","system_id":"levelo_inurba_marseille","lat":43.285742,"lon":5.395004,"is_reserved":false,"is_disabled":false,"rental_uris":{"android":"levelo://app?vid=9baeb7cd-a12e-484f-80e8-a2fa1799c6e1","ios":"levelo://app?vid=9baeb7cd-a12e-484f-80e8-a2fa1799c6e1"},"vehicle_type_id":"4","last_reported":1701202085,"current_range_meters":17200,"station_id":"ce4bh292rcd13ifvqdg0","pricing_plan_id":"free"},{"bike_id":"cd5ca4f0-5405-425a-b0d2-db757ba827ad","system_id":"levelo_inurba_marseille","lat":43.279087,"lon":5.380114,"is_reserved":false,"is_disabled":false,"rental_uris":{"android":"levelo://app?vid=cd5ca4f0-5405-425a-b0d2-db757ba827ad","ios":"levelo://app?vid=cd5ca4f0-5405-425a-b0d2-db757ba827ad"},"vehicle_type_id":"4","last_reported":1701202085,"current_range_meters":26400,"station_id":"ce4bhf92rcd13ifvqf50","pricing_plan_id":"free"},{"bike_id":"71d49d15-72a1-4ce0-a668-e881f5d81bfc","system_id":"levelo_inurba_marseille","lat":43.28039,"lon":5.38658,"is_reserved":false,"is_disabled":false,"rental_uris":{"android":"levelo://app?vid=71d49d15-72a1-4ce0-a668-e881f5d81bfc","ios":"levelo://app?vid=71d49d15-72a1-4ce0-a668-e881f5d81bfc"},"vehicle_type_id":"4","last_reported":1701202085,"current_range_meters":10000,"station_id":"","pricing_plan_id":"free"},{"bike_id":"50289298-ce8a-4ddf-bd57-79e118aafb72","system_id":"levelo_inurba_marseille","lat":43.27966,"lon":5.38735,"is_reserved":false,"is_disabled":false,"rental_uris":{"android":"levelo://app?vid=50289298-ce8a-4ddf-bd57-79e118aafb72","ios":"levelo://app?vid=50289298-ce8a-4ddf-bd57-79e118aafb72"},"vehicle_type_id":"4","last_reported":1701202085,"current_range_meters":0,"station_id":"ce4bhg12rcd13ifvqf80","pricing_plan_id":"free"},{"bike_id":"0d410972-8ed3-4feb-8b85-4fc4b172d7fc","system_id":"levelo_inurba_marseille","lat":43.27618,"lon":5.361009,"is_reserved":false,"is_disabled":false,"rental_uris":{"android":"levelo://app?vid=0d410972-8ed3-4feb-8b85-4fc4b172d7fc","ios":"levelo://app?vid=0d410972-8ed3-4feb-8b85-4fc4b172d7fc"},"vehicle_type_id":"4","last_reported":1701202085,"current_range_meters":18800,"station_id":"ce4bgj92rcd13ifvqbe0","pricing_plan_id":"free"},{"bike_id":"0ae4b498-b77c-4813-af12-4503794660e1","system_id":"levelo_inurba_marseille","lat":43.280784,"lon":5.396622,"is_reserved":false,"is_disabled":false,"rental_uris":{"android":"levelo://app?vid=0ae4b498-b77c-4813-af12-4503794660e1","ios":"levelo://app?vid=0ae4b498-b77c-4813-af12-4503794660e1"},"vehicle_type_id":"4","last_reported":1701202085,"current_range_meters":23200,"station_id":"ce4bho12rcd13ifvqh2g","pricing_plan_id":"free"},{"bike_id":"6ae6cffd-f3fa-4656-ae34-9b09325ffa6a","system_id":"levelo_inurba_marseille","lat":43.303837,"lon":5.418724,"is_reserved":false,"is_disabled":false,"rental_uris":{"android":"levelo://app?vid=6ae6cffd-f3fa-4656-ae34-9b09325ffa6a","ios":"levelo://app?vid=6ae6cffd-f3fa-4656-ae34-9b09325ffa6a"},"vehicle_type_id":"4","last_reported":1701202085,"current_range_meters":29600,"station_id":"ce4bhop2rcd13ifvqh7g","pricing_plan_id":"free"},{"bike_id":"c78d9778-891e-4402-aafb-a0e1da2ab261","system_id":"levelo_inurba_marseille","lat":43.275625,"lon":5.384392,"is_reserved":false,"is_disabled":false,"rental_uris":{"android":"levelo://app?vid=c78d9778-891e-4402-aafb-a0e1da2ab261","ios":"levelo://app?vid=c78d9778-891e-4402-aafb-a0e1da2ab261"},"vehicle_type_id":"4","last_reported":1701202085,"current_range_meters":7200,"station_id":"ce4bhh92rcd13ifvqfi0","pricing_plan_id":"free"},{"bike_id":"5676556d-60ca-44de-be13-9b40b562fc07","system_id":"levelo_inurba_marseille","lat":43.273613,"lon":5.362705,"is_reserved":false,"is_disabled":false,"rental_uris":{"android":"levelo://app?vid=5676556d-60ca-44de-be13-9b40b562fc07","ios":"levelo://app?vid=5676556d-60ca-44de-be13-9b40b562fc07"},"vehicle_type_id":"4","last_reported":1701202085,"current_range_meters":22000,"station_id":"ce4bhbh2rcd13ifvqeo0","pricing_plan_id":"free"},{"bike_id":"8a8c30a4-f0b6-4c3a-8d51-b70d782a70c6","system_id":"levelo_inurba_marseille","lat":43.275625,"lon":5.384392,"is_reserved":false,"is_disabled":false,"rental_uris":{"android":"levelo://app?vid=8a8c30a4-f0b6-4c3a-8d51-b70d782a70c6","ios":"levelo://app?vid=8a8c30a4-f0b6-4c3a-8d51-b70d782a70c6"},"vehicle_type_id":"4","last_reported":1701202085,"current_range_meters":2000,"station_id":"ce4bhh92rcd13ifvqfi0","pricing_plan_id":"free"},{"bike_id":"856f0679-fc9f-4639-b2ab-d2a04c4063b2","system_id":"levelo_inurba_marseille","lat":43.279952,"lon":5.400085,"is_reserved":false,"is_disabled":false,"rental_uris":{"android":"levelo://app?vid=856f0679-fc9f-4639-b2ab-d2a04c4063b2","ios":"levelo://app?vid=856f0679-fc9f-4639-b2ab-d2a04c4063b2"},"vehicle_type_id":"4","last_reported":1701202085,"current_range_meters":6800,"station_id":"ce4bho92rcd13ifvqh4g","pricing_plan_id":"free"},{"bike_id":"0d83b665-92a3-4e19-9e9e-5fdcef8f3331","system_id":"levelo_inurba_marseille","lat":43.317121,"lon":5.423936,"is_reserved":false,"is_disabled":false,"rental_uris":{"android":"levelo://app?vid=0d83b665-92a3-4e19-9e9e-5fdcef8f3331","ios":"levelo://app?vid=0d83b665-92a3-4e19-9e9e-5fdcef8f3331"},"vehicle_type_id":"4","last_reported":1701202085,"current_range_meters":17200,"station_id":"ce4bhp92rcd13ifvqhbg","pricing_plan_id":"free"},{"bike_id":"e9c8ea64-74b1-4b58-b699-24b0e3cdcaca","system_id":"levelo_inurba_marseille","lat":43.310785,"lon":5.424305,"is_reserved":false,"is_disabled":false,"rental_uris":{"android":"levelo://app?vid=e9c8ea64-74b1-4b58-b699-24b0e3cdcaca","ios":"levelo://app?vid=e9c8ea64-74b1-4b58-b699-24b0e3cdcaca"},"vehicle_type_id":"4","last_reported":1701202085,"current_range_meters":11200,"station_id":"ce4bhp92rcd13ifvqhag","pricing_plan_id":"free"},{"bike_id":"0d2f8383-0939-4bbd-987a-b05def9a4f03","system_id":"levelo_inurba_marseille","lat":43.310785,"lon":5.424305,"is_reserved":false,"is_disabled":false,"rental_uris":{"android":"levelo://app?vid=0d2f8383-0939-4bbd-987a-b05def9a4f03","ios":"levelo://app?vid=0d2f8383-0939-4bbd-987a-b05def9a4f03"},"vehicle_type_id":"4","last_reported":1701202085,"current_range_meters":24400,"station_id":"ce4bhp92rcd13ifvqhag","pricing_plan_id":"free"},{"bike_id":"ad621d03-7719-4a6e-8e71-5b99643b6424","system_id":"levelo_inurba_marseille","lat":43.274099,"lon":5.394019,"is_reserved":false,"is_disabled":false,"rental_uris":{"android":"levelo://app?vid=ad621d03-7719-4a6e-8e71-5b99643b6424","ios":"levelo://app?vid=ad621d03-7719-4a6e-8e71-5b99643b6424"},"vehicle_type_id":"4","last_reported":1701202085,"current_range_meters":800,"station_id":"ce4bhdp2rcd13ifvqf20","pricing_plan_id":"free"},{"bike_id":"79b95d6a-5832-48e3-90a3-2cb8ab8aff39","system_id":"levelo_inurba_marseille","lat":43.273125,"lon":5.390731,"is_reserved":false,"is_disabled":false,"rental_uris":{"android":"levelo://app?vid=79b95d6a-5832-48e3-90a3-2cb8ab8aff39","ios":"levelo://app?vid=79b95d6a-5832-48e3-90a3-2cb8ab8aff39"},"vehicle_type_id":"4","last_reported":1701202085,"current_range_meters":25600,"station_id":"ce4bhgp2rcd13ifvqfe0","pricing_plan_id":"free"},{"bike_id":"19dd1cee-8873-4a30-9f6c-f5206a9328e0","system_id":"levelo_inurba_marseille","lat":43.295511,"lon":5.422926,"is_reserved":false,"is_disabled":false,"rental_uris":{"android":"levelo://app?vid=19dd1cee-8873-4a30-9f6c-f5206a9328e0","ios":"levelo://app?vid=19dd1cee-8873-4a30-9f6c-f5206a9328e0"},"vehicle_type_id":"4","last_reported":1701202085,"current_range_meters":30400,"station_id":"ce4bhph2rcd13ifvqhdg","pricing_plan_id":"free"},{"bike_id":"62cfa572-51d4-4a04-9e45-ea785883caeb","system_id":"levelo_inurba_marseille","lat":43.27215,"lon":5.39262,"is_reserved":false,"is_disabled":false,"rental_uris":{"android":"levelo://app?vid=62cfa572-51d4-4a04-9e45-ea785883caeb","ios":"levelo://app?vid=62cfa572-51d4-4a04-9e45-ea785883caeb"},"vehicle_type_id":"4","last_reported":1701202085,"current_range_meters":14400,"station_id":"","pricing_plan_id":"free"},{"bike_id":"38f175ae-65e3-4441-bcec-8c3f494df2b3","system_id":"levelo_inurba_marseille","lat":43.278128,"lon":5.407195,"is_reserved":false,"is_disabled":false,"rental_uris":{"android":"levelo://app?vid=38f175ae-65e3-4441-bcec-8c3f494df2b3","ios":"levelo://app?vid=38f175ae-65e3-4441-bcec-8c3f494df2b3"},"vehicle_type_id":"4","last_reported":1701202085,"current_range_meters":6400,"station_id":"ce4bhnh2rcd13ifvqgtg","pricing_plan_id":"free"},{"bike_id":"8b142e0b-7054-49c4-8717-843238b69b39","system_id":"levelo_inurba_marseille","lat":43.278128,"lon":5.407195,"is_reserved":false,"is_disabled":false,"rental_uris":{"android":"levelo://app?vid=8b142e0b-7054-49c4-8717-843238b69b39","ios":"levelo://app?vid=8b142e0b-7054-49c4-8717-843238b69b39"},"vehicle_type_id":"4","last_reported":1701202085,"current_range_meters":13200,"station_id":"ce4bhnh2rcd13ifvqgtg","pricing_plan_id":"free"},{"bike_id":"861ce127-c633-47c4-a541-50848c0dc844","system_id":"levelo_inurba_marseille","lat":43.278128,"lon":5.407195,"is_reserved":false,"is_disabled":false,"rental_uris":{"android":"levelo://app?vid=861ce127-c633-47c4-a541-50848c0dc844","ios":"levelo://app?vid=861ce127-c633-47c4-a541-50848c0dc844"},"vehicle_type_id":"4","last_reported":1701202085,"current_range_meters":24800,"station_id":"ce4bhnh2rcd13ifvqgtg","pricing_plan_id":"free"},{"bike_id":"4384d160-1852-4902-abda-43cc175026ff","system_id":"levelo_inurba_marseille","lat":43.278128,"lon":5.407195,"is_reserved":false,"is_disabled":false,"rental_uris":{"android":"levelo://app?vid=4384d160-1852-4902-abda-43cc175026ff","ios":"levelo://app?vid=4384d160-1852-4902-abda-43cc175026ff"},"vehicle_type_id":"4","last_reported":1701202085,"current_range_meters":24800,"station_id":"ce4bhnh2rcd13ifvqgtg","pricing_plan_id":"free"},{"bike_id":"42e9b9ac-3409-4bd1-9d3c-19eeb06c37c5","system_id":"levelo_inurba_marseille","lat":43.278128,"lon":5.407195,"is_reserved":false,"is_disabled":false,"rental_uris":{"android":"levelo://app?vid=42e9b9ac-3409-4bd1-9d3c-19eeb06c37c5","ios":"levelo://app?vid=42e9b9ac-3409-4bd1-9d3c-19eeb06c37c5"},"vehicle_type_id":"4","last_reported":1701202085,"current_range_meters":7200,"station_id":"ce4bhnh2rcd13ifvqgtg","pricing_plan_id":"free"},{"bike_id":"0a91c66a-c667-4778-872e-179aefacce98","system_id":"levelo_inurba_marseille","lat":43.27809,"lon":5.40717,"is_reserved":false,"is_disabled":false,"rental_uris":{"android":"levelo://app?vid=0a91c66a-c667-4778-872e-179aefacce98","ios":"levelo://app?vid=0a91c66a-c667-4778-872e-179aefacce98"},"vehicle_type_id":"4","last_reported":1701202085,"current_range_meters":0,"station_id":"ce4bhnh2rcd13ifvqgtg","pricing_plan_id":"free"},{"bike_id":"9748b525-197c-44bd-9564-f9928be11a8d","system_id":"levelo_inurba_marseille","lat":43.279465,"lon":5.410561,"is_reserved":false,"is_disabled":false,"rental_uris":{"android":"levelo://app?vid=9748b525-197c-44bd-9564-f9928be11a8d","ios":"levelo://app?vid=9748b525-197c-44bd-9564-f9928be11a8d"},"vehicle_type_id":"4","last_reported":1701202085,"current_range_meters":2000,"station_id":"ce4bhnp2rcd13ifvqh0g","pricing_plan_id":"free"},{"bike_id":"fd6076a2-900b-45c7-a82d-f0f0875b7fad","system_id":"levelo_inurba_marseille","lat":43.279465,"lon":5.410561,"is_reserved":false,"is_disabled":false,"rental_uris":{"android":"levelo://app?vid=fd6076a2-900b-45c7-a82d-f0f0875b7fad","ios":"levelo://app?vid=fd6076a2-900b-45c7-a82d-f0f0875b7fad"},"vehicle_type_id":"4","last_reported":1701202085,"current_range_meters":24000,"station_id":"ce4bhnp2rcd13ifvqh0g","pricing_plan_id":"free"},{"bike_id":"46971e5b-c260-47d1-96af-81b60a8a502c","system_id":"levelo_inurba_marseille","lat":43.279465,"lon":5.410561,"is_reserved":false,"is_disabled":false,"rental_uris":{"android":"levelo://app?vid=46971e5b-c260-47d1-96af-81b60a8a502c","ios":"levelo://app?vid=46971e5b-c260-47d1-96af-81b60a8a502c"},"vehicle_type_id":"4","last_reported":1701202085,"current_range_meters":27200,"station_id":"ce4bhnp2rcd13ifvqh0g","pricing_plan_id":"free"},{"bike_id":"a92d1bc6-333e-49c6-98bb-9efb4a3c53c9","system_id":"levelo_inurba_marseille","lat":43.279465,"lon":5.410561,"is_reserved":false,"is_disabled":false,"rental_uris":{"android":"levelo://app?vid=a92d1bc6-333e-49c6-98bb-9efb4a3c53c9","ios":"levelo://app?vid=a92d1bc6-333e-49c6-98bb-9efb4a3c53c9"},"vehicle_type_id":"4","last_reported":1701202085,"current_range_meters":18000,"station_id":"ce4bhnp2rcd13ifvqh0g","pricing_plan_id":"free"},{"bike_id":"998756c4-33d5-43ee-8d59-0d18ec85cc5c","system_id":"levelo_inurba_marseille","lat":43.26556,"lon":5.37285,"is_reserved":false,"is_disabled":false,"rental_uris":{"android":"levelo://app?vid=998756c4-33d5-43ee-8d59-0d18ec85cc5c","ios":"levelo://app?vid=998756c4-33d5-43ee-8d59-0d18ec85cc5c"},"vehicle_type_id":"4","last_reported":1701202085,"current_range_meters":24400,"station_id":"ce4bhg12rcd13ifvqf70","pricing_plan_id":"free"},{"bike_id":"7769d8a6-ace2-4600-bc82-4d6d23aeed77","system_id":"levelo_inurba_marseille","lat":43.28472,"lon":5.422,"is_reserved":false,"is_disabled":false,"rental_uris":{"android":"levelo://app?vid=7769d8a6-ace2-4600-bc82-4d6d23aeed77","ios":"levelo://app?vid=7769d8a6-ace2-4600-bc82-4d6d23aeed77"},"vehicle_type_id":"4","last_reported":1701202085,"current_range_meters":0,"station_id":"","pricing_plan_id":"free"},{"bike_id":"7535fedc-74ac-474b-8a2d-12a425012ada","system_id":"levelo_inurba_marseille","lat":43.308051,"lon":5.43527,"is_reserved":false,"is_disabled":false,"rental_uris":{"android":"levelo://app?vid=7535fedc-74ac-474b-8a2d-12a425012ada","ios":"levelo://app?vid=7535fedc-74ac-474b-8a2d-12a425012ada"},"vehicle_type_id":"4","last_reported":1701202085,"current_range_meters":31600,"station_id":"ce4bhph2rcd13ifvqheg","pricing_plan_id":"free"},{"bike_id":"23989d20-8a3e-42ec-be34-7eae04d446c8","system_id":"levelo_inurba_marseille","lat":43.308051,"lon":5.43527,"is_reserved":false,"is_disabled":false,"rental_uris":{"android":"levelo://app?vid=23989d20-8a3e-42ec-be34-7eae04d446c8","ios":"levelo://app?vid=23989d20-8a3e-42ec-be34-7eae04d446c8"},"vehicle_type_id":"4","last_reported":1701202085,"current_range_meters":26000,"station_id":"ce4bhph2rcd13ifvqheg","pricing_plan_id":"free"},{"bike_id":"e1e88d5c-27d5-49a9-b126-f457d727bc05","system_id":"levelo_inurba_marseille","lat":43.26571,"lon":5.39003,"is_reserved":false,"is_disabled":false,"rental_uris":{"android":"levelo://app?vid=e1e88d5c-27d5-49a9-b126-f457d727bc05","ios":"levelo://app?vid=e1e88d5c-27d5-49a9-b126-f457d727bc05"},"vehicle_type_id":"4","last_reported":1701202085,"current_range_meters":0,"station_id":"ce4bhe12rcd13ifvqf30","pricing_plan_id":"free"},{"bike_id":"5c451cfb-459e-416e-9d23-11dc22547c31","system_id":"levelo_inurba_marseille","lat":43.26943,"lon":5.40255,"is_reserved":false,"is_disabled":false,"rental_uris":{"android":"levelo://app?vid=5c451cfb-459e-416e-9d23-11dc22547c31","ios":"levelo://app?vid=5c451cfb-459e-416e-9d23-11dc22547c31"},"vehicle_type_id":"4","last_reported":1701202085,"current_range_meters":20800,"station_id":"cjm6bp8fraef2m0cb0m0","pricing_plan_id":"free"},{"bike_id":"be8ab481-9ee8-4337-863a-b39a3ad7e0d8","system_id":"levelo_inurba_marseille","lat":43.261782,"lon":5.374515,"is_reserved":false,"is_disabled":false,"rental_uris":{"android":"levelo://app?vid=be8ab481-9ee8-4337-863a-b39a3ad7e0d8","ios":"levelo://app?vid=be8ab481-9ee8-4337-863a-b39a3ad7e0d8"},"vehicle_type_id":"4","last_reported":1701202085,"current_range_meters":16000,"station_id":"ce4bhgp2rcd13ifvqfc0","pricing_plan_id":"free"},{"bike_id":"2cfd894b-595c-4bac-a01a-4d2673d809b1","system_id":"levelo_inurba_marseille","lat":43.261782,"lon":5.374515,"is_reserved":false,"is_disabled":false,"rental_uris":{"android":"levelo://app?vid=2cfd894b-595c-4bac-a01a-4d2673d809b1","ios":"levelo://app?vid=2cfd894b-595c-4bac-a01a-4d2673d809b1"},"vehicle_type_id":"4","last_reported":1701202085,"current_range_meters":31600,"station_id":"ce4bhgp2rcd13ifvqfc0","pricing_plan_id":"free"},{"bike_id":"3ee6d42b-be43-4558-85e1-d7d39f345c6b","system_id":"levelo_inurba_marseille","lat":43.317104,"lon":5.436818,"is_reserved":false,"is_disabled":false,"rental_uris":{"android":"levelo://app?vid=3ee6d42b-be43-4558-85e1-d7d39f345c6b","ios":"levelo://app?vid=3ee6d42b-be43-4558-85e1-d7d39f345c6b"},"vehicle_type_id":"4","last_reported":1701202085,"current_range_meters":30400,"station_id":"ce4bhp92rcd13ifvqhcg","pricing_plan_id":"free"},{"bike_id":"db2e35b6-91ba-4b8a-b10b-c020bac1b56a","system_id":"levelo_inurba_marseille","lat":43.262012,"lon":5.379307,"is_reserved":false,"is_disabled":false,"rental_uris":{"android":"levelo://app?vid=db2e35b6-91ba-4b8a-b10b-c020bac1b56a","ios":"levelo://app?vid=db2e35b6-91ba-4b8a-b10b-c020bac1b56a"},"vehicle_type_id":"4","last_reported":1701202085,"current_range_meters":28400,"station_id":"ce4bhjp2rcd13ifvqg90","pricing_plan_id":"free"},{"bike_id":"fa7abb30-4346-431c-b1fa-aef86f064968","system_id":"levelo_inurba_marseille","lat":43.26202,"lon":5.379299,"is_reserved":false,"is_disabled":false,"rental_uris":{"android":"levelo://app?vid=fa7abb30-4346-431c-b1fa-aef86f064968","ios":"levelo://app?vid=fa7abb30-4346-431c-b1fa-aef86f064968"},"vehicle_type_id":"4","last_reported":1701202085,"current_range_meters":12400,"station_id":"ce4bhjp2rcd13ifvqg90","pricing_plan_id":"free"},{"bike_id":"5edf4ffd-945c-46ca-853f-f4dc48bf88b7","system_id":"levelo_inurba_marseille","lat":43.26202,"lon":5.379299,"is_reserved":false,"is_disabled":false,"rental_uris":{"android":"levelo://app?vid=5edf4ffd-945c-46ca-853f-f4dc48bf88b7","ios":"levelo://app?vid=5edf4ffd-945c-46ca-853f-f4dc48bf88b7"},"vehicle_type_id":"4","last_reported":1701202085,"current_range_meters":31600,"station_id":"ce4bhjp2rcd13ifvqg90","pricing_plan_id":"free"},{"bike_id":"1b6e1605-822a-4d11-8a82-d6df3a659dce","system_id":"levelo_inurba_marseille","lat":43.271368,"lon":5.40928,"is_reserved":false,"is_disabled":false,"rental_uris":{"android":"levelo://app?vid=1b6e1605-822a-4d11-8a82-d6df3a659dce","ios":"levelo://app?vid=1b6e1605-822a-4d11-8a82-d6df3a659dce"},"vehicle_type_id":"4","last_reported":1701202085,"current_range_meters":4400,"station_id":"ce4bhl12rcd13ifvqgf0","pricing_plan_id":"free"},{"bike_id":"446cd8c0-e899-491b-a3a1-821d86a5b153","system_id":"levelo_inurba_marseille","lat":43.26202,"lon":5.379299,"is_reserved":false,"is_disabled":false,"rental_uris":{"android":"levelo://app?vid=446cd8c0-e899-491b-a3a1-821d86a5b153","ios":"levelo://app?vid=446cd8c0-e899-491b-a3a1-821d86a5b153"},"vehicle_type_id":"4","last_reported":1701202085,"current_range_meters":16400,"station_id":"ce4bhjp2rcd13ifvqg90","pricing_plan_id":"free"},{"bike_id":"9d2d7e59-8bbc-4ed8-8840-d27f38a78f26","system_id":"levelo_inurba_marseille","lat":43.27176,"lon":5.40992,"is_reserved":false,"is_disabled":false,"rental_uris":{"android":"levelo://app?vid=9d2d7e59-8bbc-4ed8-8840-d27f38a78f26","ios":"levelo://app?vid=9d2d7e59-8bbc-4ed8-8840-d27f38a78f26"},"vehicle_type_id":"4","last_reported":1701202085,"current_range_meters":8400,"station_id":"ce4bhl12rcd13ifvqgf0","pricing_plan_id":"free"},{"bike_id":"0a411095-3a8a-4221-843c-f3d98b94b3cb","system_id":"levelo_inurba_marseille","lat":43.271772,"lon":5.409952,"is_reserved":false,"is_disabled":false,"rental_uris":{"android":"levelo://app?vid=0a411095-3a8a-4221-843c-f3d98b94b3cb","ios":"levelo://app?vid=0a411095-3a8a-4221-843c-f3d98b94b3cb"},"vehicle_type_id":"4","last_reported":1701202085,"current_range_meters":30400,"station_id":"ce4bhl12rcd13ifvqgf0","pricing_plan_id":"free"},{"bike_id":"75ef75c1-d239-44ee-b568-8f31b3960974","system_id":"levelo_inurba_marseille","lat":43.271368,"lon":5.40928,"is_reserved":false,"is_disabled":false,"rental_uris":{"android":"levelo://app?vid=75ef75c1-d239-44ee-b568-8f31b3960974","ios":"levelo://app?vid=75ef75c1-d239-44ee-b568-8f31b3960974"},"vehicle_type_id":"4","last_reported":1701202085,"current_range_meters":5200,"station_id":"ce4bhl12rcd13ifvqgf0","pricing_plan_id":"free"},{"bike_id":"a02842d8-6f6a-47d3-83ec-c39f180fdf6c","system_id":"levelo_inurba_marseille","lat":43.298768,"lon":5.43643,"is_reserved":false,"is_disabled":false,"rental_uris":{"android":"levelo://app?vid=a02842d8-6f6a-47d3-83ec-c39f180fdf6c","ios":"levelo://app?vid=a02842d8-6f6a-47d3-83ec-c39f180fdf6c"},"vehicle_type_id":"4","last_reported":1701202085,"current_range_meters":21600,"station_id":"ce4bhpp2rcd13ifvqhfg","pricing_plan_id":"free"},{"bike_id":"baa110bc-e6be-491b-9db8-5e934046b735","system_id":"levelo_inurba_marseille","lat":43.260212,"lon":5.375528,"is_reserved":false,"is_disabled":false,"rental_uris":{"android":"levelo://app?vid=baa110bc-e6be-491b-9db8-5e934046b735","ios":"levelo://app?vid=baa110bc-e6be-491b-9db8-5e934046b735"},"vehicle_type_id":"4","last_reported":1701202085,"current_range_meters":16000,"station_id":"ce4bhgh2rcd13ifvqfa0","pricing_plan_id":"free"},{"bike_id":"61405fe3-3b73-4634-b13e-87eff05ade8a","system_id":"levelo_inurba_marseille","lat":43.281548,"lon":5.42643,"is_reserved":false,"is_disabled":false,"rental_uris":{"android":"levelo://app?vid=61405fe3-3b73-4634-b13e-87eff05ade8a","ios":"levelo://app?vid=61405fe3-3b73-4634-b13e-87eff05ade8a"},"vehicle_type_id":"4","last_reported":1701202085,"current_range_meters":27600,"station_id":"ce4bhnh2rcd13ifvqgug","pricing_plan_id":"free"},{"bike_id":"20c9ac85-5ad0-4d63-a968-38f0a1c34853","system_id":"levelo_inurba_marseille","lat":43.275028,"lon":5.424534,"is_reserved":false,"is_disabled":false,"rental_uris":{"android":"levelo://app?vid=20c9ac85-5ad0-4d63-a968-38f0a1c34853","ios":"levelo://app?vid=20c9ac85-5ad0-4d63-a968-38f0a1c34853"},"vehicle_type_id":"4","last_reported":1701202085,"current_range_meters":20000,"station_id":"ce4bhn92rcd13ifvqgrg","pricing_plan_id":"free"},{"bike_id":"03158746-6a36-467c-85f4-0d9a5c9de7bb","system_id":"levelo_inurba_marseille","lat":43.260909,"lon":5.397591,"is_reserved":false,"is_disabled":false,"rental_uris":{"android":"levelo://app?vid=03158746-6a36-467c-85f4-0d9a5c9de7bb","ios":"levelo://app?vid=03158746-6a36-467c-85f4-0d9a5c9de7bb"},"vehicle_type_id":"4","last_reported":1701202085,"current_range_meters":2400,"station_id":"ce4bhi12rcd13ifvqfq0","pricing_plan_id":"free"},{"bike_id":"28fa65af-94bc-46bf-afd7-eff4cf5577da","system_id":"levelo_inurba_marseille","lat":43.255834,"lon":5.382247,"is_reserved":false,"is_disabled":false,"rental_uris":{"android":"levelo://app?vid=28fa65af-94bc-46bf-afd7-eff4cf5577da","ios":"levelo://app?vid=28fa65af-94bc-46bf-afd7-eff4cf5577da"},"vehicle_type_id":"4","last_reported":1701202085,"current_range_meters":31200,"station_id":"ce4bhih2rcd13ifvqfs0","pricing_plan_id":"free"},{"bike_id":"b09cf6fe-9609-4834-a4fb-3cf72efe3863","system_id":"levelo_inurba_marseille","lat":43.25586,"lon":5.38243,"is_reserved":false,"is_disabled":false,"rental_uris":{"android":"levelo://app?vid=b09cf6fe-9609-4834-a4fb-3cf72efe3863","ios":"levelo://app?vid=b09cf6fe-9609-4834-a4fb-3cf72efe3863"},"vehicle_type_id":"4","last_reported":1701202085,"current_range_meters":19200,"station_id":"ce4bhih2rcd13ifvqfs0","pricing_plan_id":"free"},{"bike_id":"cac19acb-7ce5-48b5-bcc9-ff699b5ef50c","system_id":"levelo_inurba_marseille","lat":43.258224,"lon":5.394369,"is_reserved":false,"is_disabled":false,"rental_uris":{"android":"levelo://app?vid=cac19acb-7ce5-48b5-bcc9-ff699b5ef50c","ios":"levelo://app?vid=cac19acb-7ce5-48b5-bcc9-ff699b5ef50c"},"vehicle_type_id":"4","last_reported":1701202085,"current_range_meters":8000,"station_id":"ce4bhip2rcd13ifvqft0","pricing_plan_id":"free"},{"bike_id":"eaf7bc7b-b85d-4931-80f9-739f7ec6af97","system_id":"levelo_inurba_marseille","lat":43.25584,"lon":5.38245,"is_reserved":false,"is_disabled":false,"rental_uris":{"android":"levelo://app?vid=eaf7bc7b-b85d-4931-80f9-739f7ec6af97","ios":"levelo://app?vid=eaf7bc7b-b85d-4931-80f9-739f7ec6af97"},"vehicle_type_id":"4","last_reported":1701202085,"current_range_meters":30400,"station_id":"ce4bhih2rcd13ifvqfs0","pricing_plan_id":"free"},{"bike_id":"2a359975-e46f-4b44-a624-025c90902ae7","system_id":"levelo_inurba_marseille","lat":43.25582,"lon":5.38241,"is_reserved":false,"is_disabled":false,"rental_uris":{"android":"levelo://app?vid=2a359975-e46f-4b44-a624-025c90902ae7","ios":"levelo://app?vid=2a359975-e46f-4b44-a624-025c90902ae7"},"vehicle_type_id":"4","last_reported":1701202085,"current_range_meters":14000,"station_id":"ce4bhih2rcd13ifvqfs0","pricing_plan_id":"free"},{"bike_id":"e9b77a2f-ee77-4f17-86c7-331142231bdd","system_id":"levelo_inurba_marseille","lat":43.258224,"lon":5.394369,"is_reserved":false,"is_disabled":false,"rental_uris":{"android":"levelo://app?vid=e9b77a2f-ee77-4f17-86c7-331142231bdd","ios":"levelo://app?vid=e9b77a2f-ee77-4f17-86c7-331142231bdd"},"vehicle_type_id":"4","last_reported":1701202085,"current_range_meters":4800,"station_id":"ce4bhip2rcd13ifvqft0","pricing_plan_id":"free"},{"bike_id":"57938117-2341-478e-b38d-5404e82d41c3","system_id":"levelo_inurba_marseille","lat":43.25577,"lon":5.38228,"is_reserved":false,"is_disabled":false,"rental_uris":{"android":"levelo://app?vid=57938117-2341-478e-b38d-5404e82d41c3","ios":"levelo://app?vid=57938117-2341-478e-b38d-5404e82d41c3"},"vehicle_type_id":"4","last_reported":1701202085,"current_range_meters":29600,"station_id":"ce4bhih2rcd13ifvqfs0","pricing_plan_id":"free"},{"bike_id":"c1cb7979-1692-4517-8c61-be3787114d6f","system_id":"levelo_inurba_marseille","lat":43.258224,"lon":5.394369,"is_reserved":false,"is_disabled":false,"rental_uris":{"android":"levelo://app?vid=c1cb7979-1692-4517-8c61-be3787114d6f","ios":"levelo://app?vid=c1cb7979-1692-4517-8c61-be3787114d6f"},"vehicle_type_id":"4","last_reported":1701202085,"current_range_meters":29600,"station_id":"ce4bhip2rcd13ifvqft0","pricing_plan_id":"free"},{"bike_id":"ef726d68-6e70-4b9f-920c-1d2fd391587b","system_id":"levelo_inurba_marseille","lat":43.270721,"lon":5.422764,"is_reserved":false,"is_disabled":false,"rental_uris":{"android":"levelo://app?vid=ef726d68-6e70-4b9f-920c-1d2fd391587b","ios":"levelo://app?vid=ef726d68-6e70-4b9f-920c-1d2fd391587b"},"vehicle_type_id":"4","last_reported":1701202085,"current_range_meters":14800,"station_id":"ce4bhk92rcd13ifvqgb0","pricing_plan_id":"free"},{"bike_id":"f94ed5e3-f68f-4baf-b47d-135c509cb1ee","system_id":"levelo_inurba_marseille","lat":43.25394,"lon":5.38208,"is_reserved":false,"is_disabled":false,"rental_uris":{"android":"levelo://app?vid=f94ed5e3-f68f-4baf-b47d-135c509cb1ee","ios":"levelo://app?vid=f94ed5e3-f68f-4baf-b47d-135c509cb1ee"},"vehicle_type_id":"4","last_reported":1701202085,"current_range_meters":2000,"station_id":"","pricing_plan_id":"free"},{"bike_id":"7fffe5d9-d711-4f9e-b9e1-4f93667956b7","system_id":"levelo_inurba_marseille","lat":43.259009,"lon":5.40929,"is_reserved":false,"is_disabled":false,"rental_uris":{"android":"levelo://app?vid=7fffe5d9-d711-4f9e-b9e1-4f93667956b7","ios":"levelo://app?vid=7fffe5d9-d711-4f9e-b9e1-4f93667956b7"},"vehicle_type_id":"4","last_reported":1701202085,"current_range_meters":9600,"station_id":"ce4bhm92rcd13ifvqglg","pricing_plan_id":"free"},{"bike_id":"863ef484-cba2-49e4-b994-a390b2c37006","system_id":"levelo_inurba_marseille","lat":43.25934,"lon":5.40912,"is_reserved":false,"is_disabled":false,"rental_uris":{"android":"levelo://app?vid=863ef484-cba2-49e4-b994-a390b2c37006","ios":"levelo://app?vid=863ef484-cba2-49e4-b994-a390b2c37006"},"vehicle_type_id":"4","last_reported":1701202085,"current_range_meters":1200,"station_id":"ce4bhm92rcd13ifvqglg","pricing_plan_id":"free"},{"bike_id":"c2fc1e32-bed6-4402-a882-be2fb6e70da0","system_id":"levelo_inurba_marseille","lat":43.257079,"lon":5.411051,"is_reserved":false,"is_disabled":false,"rental_uris":{"android":"levelo://app?vid=c2fc1e32-bed6-4402-a882-be2fb6e70da0","ios":"levelo://app?vid=c2fc1e32-bed6-4402-a882-be2fb6e70da0"},"vehicle_type_id":"4","last_reported":1701202085,"current_range_meters":19600,"station_id":"ce4bhkp2rcd13ifvqgd0","pricing_plan_id":"free"},{"bike_id":"5e4b6cf7-670a-4e3b-905f-ba4f7a87edfb","system_id":"levelo_inurba_marseille","lat":43.257079,"lon":5.411051,"is_reserved":false,"is_disabled":false,"rental_uris":{"android":"levelo://app?vid=5e4b6cf7-670a-4e3b-905f-ba4f7a87edfb","ios":"levelo://app?vid=5e4b6cf7-670a-4e3b-905f-ba4f7a87edfb"},"vehicle_type_id":"4","last_reported":1701202085,"current_range_meters":6400,"station_id":"ce4bhkp2rcd13ifvqgd0","pricing_plan_id":"free"},{"bike_id":"c9850064-9b9b-4d58-b028-cecf78bc864f","system_id":"levelo_inurba_marseille","lat":43.250009,"lon":5.389195,"is_reserved":false,"is_disabled":false,"rental_uris":{"android":"levelo://app?vid=c9850064-9b9b-4d58-b028-cecf78bc864f","ios":"levelo://app?vid=c9850064-9b9b-4d58-b028-cecf78bc864f"},"vehicle_type_id":"4","last_reported":1701202085,"current_range_meters":24000,"station_id":"ce4bhgp2rcd13ifvqfd0","pricing_plan_id":"free"},{"bike_id":"4c0c3118-7eaa-4ebd-8d87-d449bea3e021","system_id":"levelo_inurba_marseille","lat":43.250897,"lon":5.395161,"is_reserved":false,"is_disabled":false,"rental_uris":{"android":"levelo://app?vid=4c0c3118-7eaa-4ebd-8d87-d449bea3e021","ios":"levelo://app?vid=4c0c3118-7eaa-4ebd-8d87-d449bea3e021"},"vehicle_type_id":"4","last_reported":1701202085,"current_range_meters":15200,"station_id":"ce4bhm12rcd13ifvqgkg","pricing_plan_id":"free"},{"bike_id":"71df2fff-e86a-4cfa-81e2-357c58d57938","system_id":"levelo_inurba_marseille","lat":43.250966,"lon":5.395186,"is_reserved":false,"is_disabled":false,"rental_uris":{"android":"levelo://app?vid=71df2fff-e86a-4cfa-81e2-357c58d57938","ios":"levelo://app?vid=71df2fff-e86a-4cfa-81e2-357c58d57938"},"vehicle_type_id":"4","last_reported":1701202085,"current_range_meters":21200,"station_id":"ce4bhm12rcd13ifvqgkg","pricing_plan_id":"free"},{"bike_id":"b869908f-3400-4662-a0fe-d47662830b03","system_id":"levelo_inurba_marseille","lat":43.250966,"lon":5.395186,"is_reserved":false,"is_disabled":false,"rental_uris":{"android":"levelo://app?vid=b869908f-3400-4662-a0fe-d47662830b03","ios":"levelo://app?vid=b869908f-3400-4662-a0fe-d47662830b03"},"vehicle_type_id":"4","last_reported":1701202085,"current_range_meters":27600,"station_id":"ce4bhm12rcd13ifvqgkg","pricing_plan_id":"free"},{"bike_id":"1d75bf00-9b2e-47d6-a7ca-1a053e6df0d0","system_id":"levelo_inurba_marseille","lat":43.24693,"lon":5.382096,"is_reserved":false,"is_disabled":false,"rental_uris":{"android":"levelo://app?vid=1d75bf00-9b2e-47d6-a7ca-1a053e6df0d0","ios":"levelo://app?vid=1d75bf00-9b2e-47d6-a7ca-1a053e6df0d0"},