{"last_updated":1727158384,"ttl":60,"version":"2.2","data":{"bikes":[{"bike_id":"94974735-9e09-4ce4-8c77-f4714a151daf","system_id":"levelo_inurba_marseille","lat":43.22928,"lon":5.35376,"is_reserved":false,"is_disabled":false,"rental_uris":{"android":"levelo://app?vid=94974735-9e09-4ce4-8c77-f4714a151daf","ios":"levelo://app?vid=94974735-9e09-4ce4-8c77-f4714a151daf"},"vehicle_type_id":"4","last_reported":1727158384,"current_range_meters":38000,"station_id":"cpo3532slgdg3j2ikp40","pricing_plan_id":"cebpf4jnsgd1na2vs0mg"},{"bike_id":"4de9f437-157e-4d01-a554-3793fa7c8c3b","system_id":"levelo_inurba_marseille","lat":43.30603,"lon":5.39367,"is_reserved":false,"is_disabled":false,"rental_uris":{"android":"levelo://app?vid=4de9f437-157e-4d01-a554-3793fa7c8c3b","ios":"levelo://app?vid=4de9f437-157e-4d01-a554-3793fa7c8c3b"},"vehicle_type_id":"4","last_reported":1727158384,"current_range_meters":36800,"station_id":"ce4bh0p2rcd13ifvqd80","pricing_plan_id":"cebpf4jnsgd1na2vs0mg"},{"bike_id":"8d02b5fb-a0e6-46b6-bcc0-f7eb3ae307eb","system_id":"levelo_inurba_marseille","lat":43.28719,"lon":5.37926,"is_reserved":false,"is_disabled":false,"rental_uris":{"android":"levelo://app?vid=8d02b5fb-a0e6-46b6-bcc0-f7eb3ae307eb","ios":"levelo://app?vid=8d02b5fb-a0e6-46b6-bcc0-f7eb3ae307eb"},"vehicle_type_id":"4","last_reported":1727158384,"current_range_meters":33200,"station_id":"ce4bh9p2rcd13ifvqec0","pricing_plan_id":"cebpf4jnsgd1na2vs0mg"},{"bike_id":"fa8d4f50-b9e3-4c63-ad5d-ebb3725043c5","system_id":"levelo_inurba_marseille","lat":43.31354,"lon":5.3672,"is_reserved":false,"is_disabled":false,"rental_uris":{"android":"levelo://app?vid=fa8d4f50-b9e3-4c63-ad5d-ebb3725043c5","ios":"levelo://app?vid=fa8d4f50-b9e3-4c63-ad5d-ebb3725043c5"},"vehicle_type_id":"4","last_reported":1727158384,"current_range_meters":9200,"station_id":"ce4bgr92rcd13ifvqc6g","pricing_plan_id":"cebpf4jnsgd1na2vs0mg"},{"bike_id":"5d3d257f-bb51-4bce-a465-c8d6a178e971","system_id":"levelo_inurba_marseille","lat":43.32656,"lon":5.40981,"is_reserved":false,"is_disabled":false,"rental_uris":{"android":"levelo://app?vid=5d3d257f-bb51-4bce-a465-c8d6a178e971","ios":"levelo://app?vid=5d3d257f-bb51-4bce-a465-c8d6a178e971"},"vehicle_type_id":"4","last_reported":1727158384,"current_range_meters":37600,"station_id":"ce4bhpp2rcd13ifvqhgg","pricing_plan_id":"cebpf4jnsgd1na2vs0mg"},{"bike_id":"3701641d-c7cf-492f-be88-2036e8df10fa","system_id":"levelo_inurba_marseille","lat":43.26547,"lon":5.37297,"is_reserved":false,"is_disabled":false,"rental_uris":{"android":"levelo://app?vid=3701641d-c7cf-492f-be88-2036e8df10fa","ios":"levelo://app?vid=3701641d-c7cf-492f-be88-2036e8df10fa"},"vehicle_type_id":"4","last_reported":1727158384,"current_range_meters":37600,"station_id":"ce4bhg12rcd13ifvqf70","pricing_plan_id":"cebpf4jnsgd1na2vs0mg"},{"bike_id":"d6aba790-dec1-40a9-8805-3c4dcf6b7583","system_id":"levelo_inurba_marseille","lat":43.29899,"lon":5.43665,"is_reserved":false,"is_disabled":false,"rental_uris":{"android":"levelo://app?vid=d6aba790-dec1-40a9-8805-3c4dcf6b7583","ios":"levelo://app?vid=d6aba790-dec1-40a9-8805-3c4dcf6b7583"},"vehicle_type_id":"4","last_reported":1727158384,"current_range_meters":38000,"station_id":"ce4bhpp2rcd13ifvqhfg","pricing_plan_id":"cebpf4jnsgd1na2vs0mg"},{"bike_id":"ca284e34-63f1-4ebb-a804-57636408d101","system_id":"levelo_inurba_marseille","lat":43.28348,"lon":5.38098,"is_reserved":false,"is_disabled":false,"rental_uris":{"android":"levelo://app?vid=ca284e34-63f1-4ebb-a804-57636408d101","ios":"levelo://app?vid=ca284e34-63f1-4ebb-a804-57636408d101"},"vehicle_type_id":"4","last_reported":1727158384,"current_range_meters":34000,"station_id":"ce4bh412rcd13ifvqdr0","pricing_plan_id":"cebpf4jnsgd1na2vs0mg"},{"bike_id":"ac6160c3-9cce-433e-9a90-557fb109dab5","system_id":"levelo_inurba_marseille","lat":43.29909,"lon":5.38144,"is_reserved":false,"is_disabled":false,"rental_uris":{"android":"levelo://app?vid=ac6160c3-9cce-433e-9a90-557fb109dab5","ios":"levelo://app?vid=ac6160c3-9cce-433e-9a90-557fb109dab5"},"vehicle_type_id":"4","last_reported":1727158384,"current_range_meters":39200,"station_id":"ce4bgj12rcd13ifvqbc0","pricing_plan_id":"cebpf4jnsgd1na2vs0mg"},{"bike_id":"25ec507d-6c4f-4453-820e-80c7299595ba","system_id":"levelo_inurba_marseille","lat":43.30211,"lon":5.39463,"is_reserved":false,"is_disabled":false,"rental_uris":{"android":"levelo://app?vid=25ec507d-6c4f-4453-820e-80c7299595ba","ios":"levelo://app?vid=25ec507d-6c4f-4453-820e-80c7299595ba"},"vehicle_type_id":"4","last_reported":1727158384,"current_range_meters":39200,"station_id":"ce4bh0p2rcd13ifvqd70","pricing_plan_id":"cebpf4jnsgd1na2vs0mg"},{"bike_id":"d487e4b8-86cb-4b1a-9198-f7495e1b804d","system_id":"levelo_inurba_marseille","lat":43.27183,"lon":5.40984,"is_reserved":false,"is_disabled":false,"rental_uris":{"android":"levelo://app?vid=d487e4b8-86cb-4b1a-9198-f7495e1b804d","ios":"levelo://app?vid=d487e4b8-86cb-4b1a-9198-f7495e1b804d"},"vehicle_type_id":"4","last_reported":1727158384,"current_range_meters":38800,"station_id":"ce4bhl12rcd13ifvqgf0","pricing_plan_id":"cebpf4jnsgd1na2vs0mg"},{"bike_id":"1f881d1c-7592-4952-a915-a27460149b20","system_id":"levelo_inurba_marseille","lat":43.292816,"lon":5.401155,"is_reserved":false,"is_disabled":false,"rental_uris":{"android":"levelo://app?vid=1f881d1c-7592-4952-a915-a27460149b20","ios":"levelo://app?vid=1f881d1c-7592-4952-a915-a27460149b20"},"vehicle_type_id":"4","last_reported":1727158384,"current_range_meters":3600,"station_id":"ce4bh392rcd13ifvqdm0","pricing_plan_id":"cebpf4jnsgd1na2vs0mg"},{"bike_id":"375d5e98-6d51-492d-9997-298916dbc393","system_id":"levelo_inurba_marseille","lat":43.29037,"lon":5.39975,"is_reserved":false,"is_disabled":false,"rental_uris":{"android":"levelo://app?vid=375d5e98-6d51-492d-9997-298916dbc393","ios":"levelo://app?vid=375d5e98-6d51-492d-9997-298916dbc393"},"vehicle_type_id":"4","last_reported":1727158384,"current_range_meters":5600,"station_id":"ce4bh392rcd13ifvqdm0","pricing_plan_id":"cebpf4jnsgd1na2vs0mg"},{"bike_id":"7737b815-6daf-41f0-8354-4b28ba75917f","system_id":"levelo_inurba_marseille","lat":43.30197,"lon":5.39814,"is_reserved":false,"is_disabled":false,"rental_uris":{"android":"levelo://app?vid=7737b815-6daf-41f0-8354-4b28ba75917f","ios":"levelo://app?vid=7737b815-6daf-41f0-8354-4b28ba75917f"},"vehicle_type_id":"4","last_reported":1727158384,"current_range_meters":24800,"station_id":"ce4bgvp2rcd13ifvqct0","pricing_plan_id":"cebpf4jnsgd1na2vs0mg"},{"bike_id":"6af05b22-7037-4454-861c-3b90a9d37c6e","system_id":"levelo_inurba_marseille","lat":43.24105,"lon":5.43866,"is_reserved":false,"is_disabled":false,"rental_uris":{"android":"levelo://app?vid=6af05b22-7037-4454-861c-3b90a9d37c6e","ios":"levelo://app?vid=6af05b22-7037-4454-861c-3b90a9d37c6e"},"vehicle_type_id":"4","last_reported":1727158384,"current_range_meters":21600,"station_id":"ce4bhmp2rcd13ifvqgog","pricing_plan_id":"cebpf4jnsgd1na2vs0mg"},{"bike_id":"488fa0bf-f8fc-40bf-a07a-76f4f28728a7","system_id":"levelo_inurba_marseille","lat":43.28273,"lon":5.3853,"is_reserved":false,"is_disabled":false,"rental_uris":{"android":"levelo://app?vid=488fa0bf-f8fc-40bf-a07a-76f4f28728a7","ios":"levelo://app?vid=488fa0bf-f8fc-40bf-a07a-76f4f28728a7"},"vehicle_type_id":"4","last_reported":1727158384,"current_range_meters":17600,"station_id":"ce4bh692rcd13ifvqe90","pricing_plan_id":"cebpf4jnsgd1na2vs0mg"},{"bike_id":"a0d707e1-1962-44ea-871d-1343e49e7758","system_id":"levelo_inurba_marseille","lat":43.27493,"lon":5.42451,"is_reserved":false,"is_disabled":false,"rental_uris":{"android":"levelo://app?vid=a0d707e1-1962-44ea-871d-1343e49e7758","ios":"levelo://app?vid=a0d707e1-1962-44ea-871d-1343e49e7758"},"vehicle_type_id":"4","last_reported":1727158384,"current_range_meters":36400,"station_id":"ce4bhn92rcd13ifvqgrg","pricing_plan_id":"cebpf4jnsgd1na2vs0mg"},{"bike_id":"d4af3188-051f-4a7d-a203-31b3728fca1e","system_id":"levelo_inurba_marseille","lat":43.2707,"lon":5.42279,"is_reserved":false,"is_disabled":false,"rental_uris":{"android":"levelo://app?vid=d4af3188-051f-4a7d-a203-31b3728fca1e","ios":"levelo://app?vid=d4af3188-051f-4a7d-a203-31b3728fca1e"},"vehicle_type_id":"4","last_reported":1727158384,"current_range_meters":37600,"station_id":"ce4bhk92rcd13ifvqgb0","pricing_plan_id":"cebpf4jnsgd1na2vs0mg"},{"bike_id":"18f2c934-7a91-4893-af21-04349f1f5c0a","system_id":"levelo_inurba_marseille","lat":43.25574,"lon":5.38237,"is_reserved":false,"is_disabled":false,"rental_uris":{"android":"levelo://app?vid=18f2c934-7a91-4893-af21-04349f1f5c0a","ios":"levelo://app?vid=18f2c934-7a91-4893-af21-04349f1f5c0a"},"vehicle_type_id":"4","last_reported":1727158384,"current_range_meters":38000,"station_id":"ce4bhih2rcd13ifvqfs0","pricing_plan_id":"cebpf4jnsgd1na2vs0mg"},{"bike_id":"60a0a219-ff13-48c5-b157-3ef33ba0349c","system_id":"levelo_inurba_marseille","lat":43.30594,"lon":5.393638,"is_reserved":false,"is_disabled":false,"rental_uris":{"android":"levelo://app?vid=60a0a219-ff13-48c5-b157-3ef33ba0349c","ios":"levelo://app?vid=60a0a219-ff13-48c5-b157-3ef33ba0349c"},"vehicle_type_id":"4","last_reported":1727158384,"current_range_meters":6800,"station_id":"ce4bh3h2rcd13ifvqdo0","pricing_plan_id":"cebpf4jnsgd1na2vs0mg"},{"bike_id":"10d0dd91-eb88-4aed-b979-361c847af7cd","system_id":"levelo_inurba_marseille","lat":43.23187,"lon":5.39986,"is_reserved":false,"is_disabled":false,"rental_uris":{"android":"levelo://app?vid=10d0dd91-eb88-4aed-b979-361c847af7cd","ios":"levelo://app?vid=10d0dd91-eb88-4aed-b979-361c847af7cd"},"vehicle_type_id":"4","last_reported":1727158384,"current_range_meters":38800,"station_id":"ce4bhn12rcd13ifvqgqg","pricing_plan_id":"cebpf4jnsgd1na2vs0mg"},{"bike_id":"5453ff63-c479-4c4f-90a6-2244bf56c8f3","system_id":"levelo_inurba_marseille","lat":43.2707,"lon":5.42278,"is_reserved":false,"is_disabled":false,"rental_uris":{"android":"levelo://app?vid=5453ff63-c479-4c4f-90a6-2244bf56c8f3","ios":"levelo://app?vid=5453ff63-c479-4c4f-90a6-2244bf56c8f3"},"vehicle_type_id":"4","last_reported":1727158384,"current_range_meters":38400,"station_id":"ce4bhk92rcd13ifvqgb0","pricing_plan_id":"cebpf4jnsgd1na2vs0mg"},{"bike_id":"4b6cc228-d3e6-44a3-bee8-b0056aed30bf","system_id":"levelo_inurba_marseille","lat":43.23157,"lon":5.43701,"is_reserved":false,"is_disabled":false,"rental_uris":{"android":"levelo://app?vid=4b6cc228-d3e6-44a3-bee8-b0056aed30bf","ios":"levelo://app?vid=4b6cc228-d3e6-44a3-bee8-b0056aed30bf"},"vehicle_type_id":"4","last_reported":1727158384,"current_range_meters":33600,"station_id":"ce4bhmp2rcd13ifvqgog","pricing_plan_id":"cebpf4jnsgd1na2vs0mg"},{"bike_id":"dc9069ed-c408-4b79-991c-e057b54a779a","system_id":"levelo_inurba_marseille","lat":43.30466,"lon":5.37907,"is_reserved":false,"is_disabled":false,"rental_uris":{"android":"levelo://app?vid=dc9069ed-c408-4b79-991c-e057b54a779a","ios":"levelo://app?vid=dc9069ed-c408-4b79-991c-e057b54a779a"},"vehicle_type_id":"4","last_reported":1727158384,"current_range_meters":32000,"station_id":"ce4bgup2rcd13ifvqcn0","pricing_plan_id":"cebpf4jnsgd1na2vs0mg"},{"bike_id":"5bdb4186-315d-4cc8-a5b6-aa323f8bc315","system_id":"levelo_inurba_marseille","lat":43.28716,"lon":5.37922,"is_reserved":false,"is_disabled":false,"rental_uris":{"android":"levelo://app?vid=5bdb4186-315d-4cc8-a5b6-aa323f8bc315","ios":"levelo://app?vid=5bdb4186-315d-4cc8-a5b6-aa323f8bc315"},"vehicle_type_id":"4","last_reported":1727158384,"current_range_meters":36400,"station_id":"ce4bh9p2rcd13ifvqec0","pricing_plan_id":"cebpf4jnsgd1na2vs0mg"},{"bike_id":"7a8458d5-44ac-4f2e-abef-3f01eb31f7ca","system_id":"levelo_inurba_marseille","lat":43.337444,"lon":5.374475,"is_reserved":false,"is_disabled":false,"rental_uris":{"android":"levelo://app?vid=7a8458d5-44ac-4f2e-abef-3f01eb31f7ca","ios":"levelo://app?vid=7a8458d5-44ac-4f2e-abef-3f01eb31f7ca"},"vehicle_type_id":"4","last_reported":1727158384,"current_range_meters":22800,"station_id":"","pricing_plan_id":"cebpf4jnsgd1na2vs0mg"},{"bike_id":"0ada09e5-8947-4c96-8ffe-3979b39d9689","system_id":"levelo_inurba_marseille","lat":43.30248,"lon":5.40056,"is_reserved":false,"is_disabled":false,"rental_uris":{"android":"levelo://app?vid=0ada09e5-8947-4c96-8ffe-3979b39d9689","ios":"levelo://app?vid=0ada09e5-8947-4c96-8ffe-3979b39d9689"},"vehicle_type_id":"4","last_reported":1727158384,"current_range_meters":36800,"station_id":"ce4bgvh2rcd13ifvqcs0","pricing_plan_id":"cebpf4jnsgd1na2vs0mg"},{"bike_id":"3ee12fe8-50f5-45e4-ba8c-aef63c53aec5","system_id":"levelo_inurba_marseille","lat":43.28152,"lon":5.42645,"is_reserved":false,"is_disabled":false,"rental_uris":{"android":"levelo://app?vid=3ee12fe8-50f5-45e4-ba8c-aef63c53aec5","ios":"levelo://app?vid=3ee12fe8-50f5-45e4-ba8c-aef63c53aec5"},"vehicle_type_id":"4","last_reported":1727158384,"current_range_meters":8800,"station_id":"ce4bhnh2rcd13ifvqgug","pricing_plan_id":"cebpf4jnsgd1na2vs0mg"},{"bike_id":"480ca5d4-3f96-4c54-a237-60476e93b9e2","system_id":"levelo_inurba_marseille","lat":43.30464,"lon":5.37904,"is_reserved":false,"is_disabled":false,"rental_uris":{"android":"levelo://app?vid=480ca5d4-3f96-4c54-a237-60476e93b9e2","ios":"levelo://app?vid=480ca5d4-3f96-4c54-a237-60476e93b9e2"},"vehicle_type_id":"4","last_reported":1727158384,"current_range_meters":35600,"station_id":"ce4bgup2rcd13ifvqcn0","pricing_plan_id":"cebpf4jnsgd1na2vs0mg"},{"bike_id":"4ab87cbf-5b12-4878-b3d2-791248eccb2d","system_id":"levelo_inurba_marseille","lat":43.32661,"lon":5.40989,"is_reserved":false,"is_disabled":false,"rental_uris":{"android":"levelo://app?vid=4ab87cbf-5b12-4878-b3d2-791248eccb2d","ios":"levelo://app?vid=4ab87cbf-5b12-4878-b3d2-791248eccb2d"},"vehicle_type_id":"4","last_reported":1727158384,"current_range_meters":38000,"station_id":"ce4bhpp2rcd13ifvqhgg","pricing_plan_id":"cebpf4jnsgd1na2vs0mg"},{"bike_id":"4eb92a69-2224-4476-8576-ec4a94a31006","system_id":"levelo_inurba_marseille","lat":43.28714,"lon":5.37924,"is_reserved":false,"is_disabled":false,"rental_uris":{"android":"levelo://app?vid=4eb92a69-2224-4476-8576-ec4a94a31006","ios":"levelo://app?vid=4eb92a69-2224-4476-8576-ec4a94a31006"},"vehicle_type_id":"4","last_reported":1727158384,"current_range_meters":32000,"station_id":"ce4bh9p2rcd13ifvqec0","pricing_plan_id":"cebpf4jnsgd1na2vs0mg"},{"bike_id":"c8243bdf-7063-48e0-83f5-bba459ffe98b","system_id":"levelo_inurba_marseille","lat":43.24077,"lon":5.37754,"is_reserved":false,"is_disabled":false,"rental_uris":{"android":"levelo://app?vid=c8243bdf-7063-48e0-83f5-bba459ffe98b","ios":"levelo://app?vid=c8243bdf-7063-48e0-83f5-bba459ffe98b"},"vehicle_type_id":"4","last_reported":1727158384,"current_range_meters":38800,"station_id":"ce4bhnp2rcd13ifvqgvg","pricing_plan_id":"cebpf4jnsgd1na2vs0mg"},{"bike_id":"03409d1a-a416-4d64-af15-2f1fc04e5663","system_id":"levelo_inurba_marseille","lat":43.23153,"lon":5.43718,"is_reserved":false,"is_disabled":false,"rental_uris":{"android":"levelo://app?vid=03409d1a-a416-4d64-af15-2f1fc04e5663","ios":"levelo://app?vid=03409d1a-a416-4d64-af15-2f1fc04e5663"},"vehicle_type_id":"4","last_reported":1727158384,"current_range_meters":38000,"station_id":"ce4bhmp2rcd13ifvqgog","pricing_plan_id":"cebpf4jnsgd1na2vs0mg"},{"bike_id":"a3ebf832-5496-44d8-8ca0-67f4b82be774","system_id":"levelo_inurba_marseille","lat":43.29602,"lon":5.38103,"is_reserved":false,"is_disabled":false,"rental_uris":{"android":"levelo://app?vid=a3ebf832-5496-44d8-8ca0-67f4b82be774","ios":"levelo://app?vid=a3ebf832-5496-44d8-8ca0-67f4b82be774"},"vehicle_type_id":"4","last_reported":1727158384,"current_range_meters":14800,"station_id":"ce4bgl12rcd13ifvqbo0","pricing_plan_id":"cebpf4jnsgd1na2vs0mg"},{"bike_id":"2f7e4663-14e2-4631-826d-72106dd5b10a","system_id":"levelo_inurba_marseille","lat":43.28946,"lon":5.364,"is_reserved":false,"is_disabled":false,"rental_uris":{"android":"levelo://app?vid=2f7e4663-14e2-4631-826d-72106dd5b10a","ios":"levelo://app?vid=2f7e4663-14e2-4631-826d-72106dd5b10a"},"vehicle_type_id":"4","last_reported":1727158384,"current_range_meters":32800,"station_id":"ce4bhc92rcd13ifvqetg","pricing_plan_id":"cebpf4jnsgd1na2vs0mg"},{"bike_id":"c29db812-a2ba-4b10-8014-dfbcc2e5e72c","system_id":"levelo_inurba_marseille","lat":43.26019,"lon":5.37586,"is_reserved":false,"is_disabled":false,"rental_uris":{"android":"levelo://app?vid=c29db812-a2ba-4b10-8014-dfbcc2e5e72c","ios":"levelo://app?vid=c29db812-a2ba-4b10-8014-dfbcc2e5e72c"},"vehicle_type_id":"4","last_reported":1727158384,"current_range_meters":4400,"station_id":"ce4bhgh2rcd13ifvqfa0","pricing_plan_id":"cebpf4jnsgd1na2vs0mg"},{"bike_id":"6acc6fab-b5ef-443e-99ba-b8bbb33f88f6","system_id":"levelo_inurba_marseille","lat":43.27497,"lon":5.42446,"is_reserved":false,"is_disabled":false,"rental_uris":{"android":"levelo://app?vid=6acc6fab-b5ef-443e-99ba-b8bbb33f88f6","ios":"levelo://app?vid=6acc6fab-b5ef-443e-99ba-b8bbb33f88f6"},"vehicle_type_id":"4","last_reported":1727158384,"current_range_meters":26000,"station_id":"ce4bhn92rcd13ifvqgrg","pricing_plan_id":"cebpf4jnsgd1na2vs0mg"},{"bike_id":"fd989f36-b67d-41e7-90c0-bb9e96ebc3a4","system_id":"levelo_inurba_marseille","lat":43.31072,"lon":5.38343,"is_reserved":false,"is_disabled":false,"rental_uris":{"android":"levelo://app?vid=fd989f36-b67d-41e7-90c0-bb9e96ebc3a4","ios":"levelo://app?vid=fd989f36-b67d-41e7-90c0-bb9e96ebc3a4"},"vehicle_type_id":"4","last_reported":1727158384,"current_range_meters":38000,"station_id":"ce4bgh92rcd13ifvqb40","pricing_plan_id":"cebpf4jnsgd1na2vs0mg"},{"bike_id":"9b6e22ef-989c-4468-98ba-9259dc1ea5f1","system_id":"levelo_inurba_marseille","lat":43.30595,"lon":5.39357,"is_reserved":false,"is_disabled":false,"rental_uris":{"android":"levelo://app?vid=9b6e22ef-989c-4468-98ba-9259dc1ea5f1","ios":"levelo://app?vid=9b6e22ef-989c-4468-98ba-9259dc1ea5f1"},"vehicle_type_id":"4","last_reported":1727158384,"current_range_meters":23200,"station_id":"ce4bh0p2rcd13ifvqd80","pricing_plan_id":"cebpf4jnsgd1na2vs0mg"},{"bike_id":"71f82c33-2a2c-45d4-a008-86ddaa99ab2b","system_id":"levelo_inurba_marseille","lat":43.26553,"lon":5.37278,"is_reserved":false,"is_disabled":false,"rental_uris":{"android":"levelo://app?vid=71f82c33-2a2c-45d4-a008-86ddaa99ab2b","ios":"levelo://app?vid=71f82c33-2a2c-45d4-a008-86ddaa99ab2b"},"vehicle_type_id":"4","last_reported":1727158384,"current_range_meters":38000,"station_id":"ce4bhg12rcd13ifvqf70","pricing_plan_id":"cebpf4jnsgd1na2vs0mg"},{"bike_id":"87da5202-59d4-4e9d-a627-50c812ca8ee2","system_id":"levelo_inurba_marseille","lat":43.25907,"lon":5.40904,"is_reserved":false,"is_disabled":false,"rental_uris":{"android":"levelo://app?vid=87da5202-59d4-4e9d-a627-50c812ca8ee2","ios":"levelo://app?vid=87da5202-59d4-4e9d-a627-50c812ca8ee2"},"vehicle_type_id":"4","last_reported":1727158384,"current_range_meters":30800,"station_id":"ce4bhm92rcd13ifvqglg","pricing_plan_id":"cebpf4jnsgd1na2vs0mg"},{"bike_id":"e08d4641-5e6e-45e2-87f9-2b5a931bc5a3","system_id":"levelo_inurba_marseille","lat":43.29792,"lon":5.38113,"is_reserved":false,"is_disabled":false,"rental_uris":{"android":"levelo://app?vid=e08d4641-5e6e-45e2-87f9-2b5a931bc5a3","ios":"levelo://app?vid=e08d4641-5e6e-45e2-87f9-2b5a931bc5a3"},"vehicle_type_id":"4","last_reported":1727158384,"current_range_meters":36800,"station_id":"ce4bgip2rcd13ifvqbb0","pricing_plan_id":"cebpf4jnsgd1na2vs0mg"},{"bike_id":"bb747a87-2085-4f66-afb1-a9ac0dca5d25","system_id":"levelo_inurba_marseille","lat":43.33025,"lon":5.39042,"is_reserved":false,"is_disabled":false,"rental_uris":{"android":"levelo://app?vid=bb747a87-2085-4f66-afb1-a9ac0dca5d25","ios":"levelo://app?vid=bb747a87-2085-4f66-afb1-a9ac0dca5d25"},"vehicle_type_id":"4","last_reported":1727158384,"current_range_meters":19600,"station_id":"ce4bhr92rcd13ifvqhrg","pricing_plan_id":"cebpf4jnsgd1na2vs0mg"},{"bike_id":"6a1fdcd8-1ca6-44c6-867c-ff21fcc82a88","system_id":"levelo_inurba_marseille","lat":43.29276,"lon":5.3686,"is_reserved":false,"is_disabled":false,"rental_uris":{"android":"levelo://app?vid=6a1fdcd8-1ca6-44c6-867c-ff21fcc82a88","ios":"levelo://app?vid=6a1fdcd8-1ca6-44c6-867c-ff21fcc82a88"},"vehicle_type_id":"4","last_reported":1727158384,"current_range_meters":27200,"station_id":"ce4bhbp2rcd13ifvqesg","pricing_plan_id":"cebpf4jnsgd1na2vs0mg"},{"bike_id":"573168cc-44b5-4ebc-9dae-6b549bf17843","system_id":"levelo_inurba_marseille","lat":43.29797,"lon":5.38128,"is_reserved":false,"is_disabled":false,"rental_uris":{"android":"levelo://app?vid=573168cc-44b5-4ebc-9dae-6b549bf17843","ios":"levelo://app?vid=573168cc-44b5-4ebc-9dae-6b549bf17843"},"vehicle_type_id":"4","last_reported":1727158384,"current_range_meters":27600,"station_id":"ce4bgip2rcd13ifvqbb0","pricing_plan_id":"cebpf4jnsgd1na2vs0mg"},{"bike_id":"5e12789f-f248-4dda-948e-ed99bea474c4","system_id":"levelo_inurba_marseille","lat":43.28609,"lon":5.37067,"is_reserved":false,"is_disabled":false,"rental_uris":{"android":"levelo://app?vid=5e12789f-f248-4dda-948e-ed99bea474c4","ios":"levelo://app?vid=5e12789f-f248-4dda-948e-ed99bea474c4"},"vehicle_type_id":"4","last_reported":1727158384,"current_range_meters":3200,"station_id":"ce4bht12rcd13ifvqi60","pricing_plan_id":"cebpf4jnsgd1na2vs0mg"},{"bike_id":"1f4ccbd2-fe5d-4761-a748-747bd2944522","system_id":"levelo_inurba_marseille","lat":43.302754,"lon":5.368974,"is_reserved":false,"is_disabled":false,"rental_uris":{"android":"levelo://app?vid=1f4ccbd2-fe5d-4761-a748-747bd2944522","ios":"levelo://app?vid=1f4ccbd2-fe5d-4761-a748-747bd2944522"},"vehicle_type_id":"4","last_reported":1727158384,"current_range_meters":3200,"station_id":"ce4bgqh2rcd13ifvqc5g","pricing_plan_id":"cebpf4jnsgd1na2vs0mg"},{"bike_id":"0c5bbe66-bc77-4ea5-adae-a341e504240f","system_id":"levelo_inurba_marseille","lat":43.28156,"lon":5.42638,"is_reserved":false,"is_disabled":false,"rental_uris":{"android":"levelo://app?vid=0c5bbe66-bc77-4ea5-adae-a341e504240f","ios":"levelo://app?vid=0c5bbe66-bc77-4ea5-adae-a341e504240f"},"vehicle_type_id":"4","last_reported":1727158384,"current_range_meters":18000,"station_id":"ce4bhnh2rcd13ifvqgug","pricing_plan_id":"cebpf4jnsgd1na2vs0mg"},{"bike_id":"90c62813-3961-4eb5-af61-66a07aa0d634","system_id":"levelo_inurba_marseille","lat":43.27904,"lon":5.38015,"is_reserved":false,"is_disabled":false,"rental_uris":{"android":"levelo://app?vid=90c62813-3961-4eb5-af61-66a07aa0d634","ios":"levelo://app?vid=90c62813-3961-4eb5-af61-66a07aa0d634"},"vehicle_type_id":"4","last_reported":1727158384,"current_range_meters":37600,"station_id":"ce4bhf92rcd13ifvqf50","pricing_plan_id":"cebpf4jnsgd1na2vs0mg"},{"bike_id":"3376209d-4bbf-421a-851a-1fe68c76f455","system_id":"levelo_inurba_marseille","lat":43.29598,"lon":5.38091,"is_reserved":false,"is_disabled":false,"rental_uris":{"android":"levelo://app?vid=3376209d-4bbf-421a-851a-1fe68c76f455","ios":"levelo://app?vid=3376209d-4bbf-421a-851a-1fe68c76f455"},"vehicle_type_id":"4","last_reported":1727158384,"current_range_meters":16000,"station_id":"ce4bgl12rcd13ifvqbo0","pricing_plan_id":"cebpf4jnsgd1na2vs0mg"},{"bike_id":"6ef0d495-5ec1-45da-b955-2835139d91dd","system_id":"levelo_inurba_marseille","lat":43.28158,"lon":5.42644,"is_reserved":false,"is_disabled":false,"rental_uris":{"android":"levelo://app?vid=6ef0d495-5ec1-45da-b955-2835139d91dd","ios":"levelo://app?vid=6ef0d495-5ec1-45da-b955-2835139d91dd"},"vehicle_type_id":"4","last_reported":1727158384,"current_range_meters":38000,"station_id":"ce4bhnh2rcd13ifvqgug","pricing_plan_id":"cebpf4jnsgd1na2vs0mg"},{"bike_id":"8673f7f5-e486-4f16-815b-d7987024d350","system_id":"levelo_inurba_marseille","lat":43.29873,"lon":5.38905,"is_reserved":false,"is_disabled":false,"rental_uris":{"android":"levelo://app?vid=8673f7f5-e486-4f16-815b-d7987024d350","ios":"levelo://app?vid=8673f7f5-e486-4f16-815b-d7987024d350"},"vehicle_type_id":"4","last_reported":1727158384,"current_range_meters":35200,"station_id":"ce4bh392rcd13ifvqdl0","pricing_plan_id":"cebpf4jnsgd1na2vs0mg"},{"bike_id":"18e991e4-384b-4dfe-b7c3-864c64de43e3","system_id":"levelo_inurba_marseille","lat":43.24597,"lon":5.3885,"is_reserved":false,"is_disabled":false,"rental_uris":{"android":"levelo://app?vid=18e991e4-384b-4dfe-b7c3-864c64de43e3","ios":"levelo://app?vid=18e991e4-384b-4dfe-b7c3-864c64de43e3"},"vehicle_type_id":"4","last_reported":1727158384,"current_range_meters":37600,"station_id":"ce4bhih2rcd13ifvqfs0","pricing_plan_id":"cebpf4jnsgd1na2vs0mg"},{"bike_id":"f8ed5893-1ff0-4eed-b63f-0ed9231b8a9a","system_id":"levelo_inurba_marseille","lat":43.28347,"lon":5.38101,"is_reserved":false,"is_disabled":false,"rental_uris":{"android":"levelo://app?vid=f8ed5893-1ff0-4eed-b63f-0ed9231b8a9a","ios":"levelo://app?vid=f8ed5893-1ff0-4eed-b63f-0ed9231b8a9a"},"vehicle_type_id":"4","last_reported":1727158384,"current_range_meters":19200,"station_id":"ce4bh412rcd13ifvqdr0","pricing_plan_id":"cebpf4jnsgd1na2vs0mg"},{"bike_id":"a578be38-e360-4614-972e-bddd8629f052","system_id":"levelo_inurba_marseille","lat":43.337444,"lon":5.374475,"is_reserved":false,"is_disabled":false,"rental_uris":{"android":"levelo://app?vid=a578be38-e360-4614-972e-bddd8629f052","ios":"levelo://app?vid=a578be38-e360-4614-972e-bddd8629f052"},"vehicle_type_id":"4","last_reported":1727158384,"current_range_meters":20400,"station_id":"","pricing_plan_id":"cebpf4jnsgd1na2vs0mg"},{"bike_id":"f3e85b4a-a89e-49a6-9e77-e61e591561ea","system_id":"levelo_inurba_marseille","lat":43.26569,"lon":5.39011,"is_reserved":false,"is_disabled":false,"rental_uris":{"android":"levelo://app?vid=f3e85b4a-a89e-49a6-9e77-e61e591561ea","ios":"levelo://app?vid=f3e85b4a-a89e-49a6-9e77-e61e591561ea"},"vehicle_type_id":"4","last_reported":1727158384,"current_range_meters":36000,"station_id":"ce4bhe12rcd13ifvqf30","pricing_plan_id":"cebpf4jnsgd1na2vs0mg"},{"bike_id":"6833131f-96b6-4ce3-b3ab-d205b15aa729","system_id":"levelo_inurba_marseille","lat":43.29603,"lon":5.381,"is_reserved":false,"is_disabled":false,"rental_uris":{"android":"levelo://app?vid=6833131f-96b6-4ce3-b3ab-d205b15aa729","ios":"levelo://app?vid=6833131f-96b6-4ce3-b3ab-d205b15aa729"},"vehicle_type_id":"4","last_reported":1727158384,"current_range_meters":33200,"station_id":"ce4bgl12rcd13ifvqbo0","pricing_plan_id":"cebpf4jnsgd1na2vs0mg"},{"bike_id":"1cf9c6ad-a18e-4581-966a-e4580ac983e8","system_id":"levelo_inurba_marseille","lat":43.3015,"lon":5.38078,"is_reserved":false,"is_disabled":false,"rental_uris":{"android":"levelo://app?vid=1cf9c6ad-a18e-4581-966a-e4580ac983e8","ios":"levelo://app?vid=1cf9c6ad-a18e-4581-966a-e4580ac983e8"},"vehicle_type_id":"4","last_reported":1727158384,"current_range_meters":37600,"station_id":"ce4bgjp2rcd13ifvqbh0","pricing_plan_id":"cebpf4jnsgd1na2vs0mg"},{"bike_id":"25bd7405-be80-4a77-a761-8a1efed52652","system_id":"levelo_inurba_marseille","lat":43.29898,"lon":5.4366,"is_reserved":false,"is_disabled":false,"rental_uris":{"android":"levelo://app?vid=25bd7405-be80-4a77-a761-8a1efed52652","ios":"levelo://app?vid=25bd7405-be80-4a77-a761-8a1efed52652"},"vehicle_type_id":"4","last_reported":1727158384,"current_range_meters":6400,"station_id":"ce4bhpp2rcd13ifvqhfg","pricing_plan_id":"cebpf4jnsgd1na2vs0mg"},{"bike_id":"26abec04-5805-42cb-84f7-81f7c0b9621e","system_id":"levelo_inurba_marseille","lat":43.25828,"lon":5.39433,"is_reserved":false,"is_disabled":false,"rental_uris":{"android":"levelo://app?vid=26abec04-5805-42cb-84f7-81f7c0b9621e","ios":"levelo://app?vid=26abec04-5805-42cb-84f7-81f7c0b9621e"},"vehicle_type_id":"4","last_reported":1727158384,"current_range_meters":29600,"station_id":"ce4bhip2rcd13ifvqft0","pricing_plan_id":"cebpf4jnsgd1na2vs0mg"},{"bike_id":"23e670ee-166c-4a60-9e22-5e7c1c281979","system_id":"levelo_inurba_marseille","lat":43.30464,"lon":5.37908,"is_reserved":false,"is_disabled":false,"rental_uris":{"android":"levelo://app?vid=23e670ee-166c-4a60-9e22-5e7c1c281979","ios":"levelo://app?vid=23e670ee-166c-4a60-9e22-5e7c1c281979"},"vehicle_type_id":"4","last_reported":1727158384,"current_range_meters":11200,"station_id":"ce4bgup2rcd13ifvqcn0","pricing_plan_id":"cebpf4jnsgd1na2vs0mg"},{"bike_id":"7a3d1c66-07df-4c2e-859a-9deffe50748d","system_id":"levelo_inurba_marseille","lat":43.31515,"lon":5.43385,"is_reserved":false,"is_disabled":false,"rental_uris":{"android":"levelo://app?vid=7a3d1c66-07df-4c2e-859a-9deffe50748d","ios":"levelo://app?vid=7a3d1c66-07df-4c2e-859a-9deffe50748d"},"vehicle_type_id":"4","last_reported":1727158384,"current_range_meters":19200,"station_id":"ce4bhop2rcd13ifvqh7g","pricing_plan_id":"cebpf4jnsgd1na2vs0mg"},{"bike_id":"c9d6b1a5-d961-4b81-a8bf-58ac05ab5665","system_id":"levelo_inurba_marseille","lat":43.28151,"lon":5.42641,"is_reserved":false,"is_disabled":false,"rental_uris":{"android":"levelo://app?vid=c9d6b1a5-d961-4b81-a8bf-58ac05ab5665","ios":"levelo://app?vid=c9d6b1a5-d961-4b81-a8bf-58ac05ab5665"},"vehicle_type_id":"4","last_reported":1727158384,"current_range_meters":6400,"station_id":"ce4bhnh2rcd13ifvqgug","pricing_plan_id":"cebpf4jnsgd1na2vs0mg"},{"bike_id":"e0f59cbc-0537-4177-99e2-143bc3cc0686","system_id":"levelo_inurba_marseille","lat":43.31887,"lon":5.40746,"is_reserved":false,"is_disabled":false,"rental_uris":{"android":"levelo://app?vid=e0f59cbc-0537-4177-99e2-143bc3cc0686","ios":"levelo://app?vid=e0f59cbc-0537-4177-99e2-143bc3cc0686"},"vehicle_type_id":"4","last_reported":1727158384,"current_range_meters":34800,"station_id":"ce4bhq12rcd13ifvqhig","pricing_plan_id":"cebpf4jnsgd1na2vs0mg"},{"bike_id":"6c70bfc0-7dcf-4862-b6e9-628ce3ae38c4","system_id":"levelo_inurba_marseille","lat":43.3046,"lon":5.37913,"is_reserved":false,"is_disabled":false,"rental_uris":{"android":"levelo://app?vid=6c70bfc0-7dcf-4862-b6e9-628ce3ae38c4","ios":"levelo://app?vid=6c70bfc0-7dcf-4862-b6e9-628ce3ae38c4"},"vehicle_type_id":"4","last_reported":1727158384,"current_range_meters":32400,"station_id":"ce4bgup2rcd13ifvqcn0","pricing_plan_id":"cebpf4jnsgd1na2vs0mg"},{"bike_id":"307b3e22-8fc2-45fb-a01e-f6962086fd40","system_id":"levelo_inurba_marseille","lat":43.23061,"lon":5.35494,"is_reserved":false,"is_disabled":false,"rental_uris":{"android":"levelo://app?vid=307b3e22-8fc2-45fb-a01e-f6962086fd40","ios":"levelo://app?vid=307b3e22-8fc2-45fb-a01e-f6962086fd40"},"vehicle_type_id":"4","last_reported":1727158384,"current_range_meters":38000,"station_id":"cpo3342slgdg3j2ifvpg","pricing_plan_id":"cebpf4jnsgd1na2vs0mg"},{"bike_id":"2822e6ac-d469-461d-9073-f0d027826cf6","system_id":"levelo_inurba_marseille","lat":43.29959,"lon":5.41317,"is_reserved":false,"is_disabled":false,"rental_uris":{"android":"levelo://app?vid=2822e6ac-d469-461d-9073-f0d027826cf6","ios":"levelo://app?vid=2822e6ac-d469-461d-9073-f0d027826cf6"},"vehicle_type_id":"4","last_reported":1727158384,"current_range_meters":38800,"station_id":"ce4bhp12rcd13ifvqh9g","pricing_plan_id":"cebpf4jnsgd1na2vs0mg"},{"bike_id":"1da69dba-953c-4d21-af9a-699bd6b421bd","system_id":"levelo_inurba_marseille","lat":43.31348,"lon":5.36715,"is_reserved":false,"is_disabled":false,"rental_uris":{"android":"levelo://app?vid=1da69dba-953c-4d21-af9a-699bd6b421bd","ios":"levelo://app?vid=1da69dba-953c-4d21-af9a-699bd6b421bd"},"vehicle_type_id":"4","last_reported":1727158384,"current_range_meters":16400,"station_id":"ce4bgr92rcd13ifvqc6g","pricing_plan_id":"cebpf4jnsgd1na2vs0mg"},{"bike_id":"86be78e2-4f12-439d-add0-ad2cda990968","system_id":"levelo_inurba_marseille","lat":43.28854,"lon":5.35834,"is_reserved":false,"is_disabled":false,"rental_uris":{"android":"levelo://app?vid=86be78e2-4f12-439d-add0-ad2cda990968","ios":"levelo://app?vid=86be78e2-4f12-439d-add0-ad2cda990968"},"vehicle_type_id":"4","last_reported":1727158384,"current_range_meters":20400,"station_id":"ce4bhb12rcd13ifvqem0","pricing_plan_id":"cebpf4jnsgd1na2vs0mg"},{"bike_id":"39386d97-75e2-45da-97ac-63bd55478219","system_id":"levelo_inurba_marseille","lat":43.308,"lon":5.38163,"is_reserved":false,"is_disabled":false,"rental_uris":{"android":"levelo://app?vid=39386d97-75e2-45da-97ac-63bd55478219","ios":"levelo://app?vid=39386d97-75e2-45da-97ac-63bd55478219"},"vehicle_type_id":"4","last_reported":1727158384,"current_range_meters":26800,"station_id":"ce4bgt12rcd13ifvqce0","pricing_plan_id":"cebpf4jnsgd1na2vs0mg"},{"bike_id":"e18843fb-099b-44bc-9b51-164320611449","system_id":"levelo_inurba_marseille","lat":43.23961,"lon":5.36636,"is_reserved":false,"is_disabled":false,"rental_uris":{"android":"levelo://app?vid=e18843fb-099b-44bc-9b51-164320611449","ios":"levelo://app?vid=e18843fb-099b-44bc-9b51-164320611449"},"vehicle_type_id":"4","last_reported":1727158384,"current_range_meters":37600,"station_id":"ce4bhi12rcd13ifvqfp0","pricing_plan_id":"cebpf4jnsgd1na2vs0mg"},{"bike_id":"811e5948-8947-49a9-8202-7a6b14e8b348","system_id":"levelo_inurba_marseille","lat":43.3015,"lon":5.38074,"is_reserved":false,"is_disabled":false,"rental_uris":{"android":"levelo://app?vid=811e5948-8947-49a9-8202-7a6b14e8b348","ios":"levelo://app?vid=811e5948-8947-49a9-8202-7a6b14e8b348"},"vehicle_type_id":"4","last_reported":1727158384,"current_range_meters":36800,"station_id":"ce4bgjp2rcd13ifvqbh0","pricing_plan_id":"cebpf4jnsgd1na2vs0mg"},{"bike_id":"0894e60f-f998-4303-bb38-d241b79db852","system_id":"levelo_inurba_marseille","lat":43.33603,"lon":5.41026,"is_reserved":false,"is_disabled":false,"rental_uris":{"android":"levelo://app?vid=0894e60f-f998-4303-bb38-d241b79db852","ios":"levelo://app?vid=0894e60f-f998-4303-bb38-d241b79db852"},"vehicle_type_id":"4","last_reported":1727158384,"current_range_meters":8400,"station_id":"ce4bhqh2rcd13ifvqhmg","pricing_plan_id":"cebpf4jnsgd1na2vs0mg"},{"bike_id":"01328d1a-46e2-4abc-b12b-32bf41357606","system_id":"levelo_inurba_marseille","lat":43.3054,"lon":5.36704,"is_reserved":false,"is_disabled":false,"rental_uris":{"android":"levelo://app?vid=01328d1a-46e2-4abc-b12b-32bf41357606","ios":"levelo://app?vid=01328d1a-46e2-4abc-b12b-32bf41357606"},"vehicle_type_id":"4","last_reported":1727158384,"current_range_meters":28000,"station_id":"ce4bgrp2rcd13ifvqc9g","pricing_plan_id":"cebpf4jnsgd1na2vs0mg"},{"bike_id":"495c8f04-baa0-4d04-b6e9-fa5581cfae30","system_id":"levelo_inurba_marseille","lat":43.301474,"lon":5.38081,"is_reserved":false,"is_disabled":false,"rental_uris":{"android":"levelo://app?vid=495c8f04-baa0-4d04-b6e9-fa5581cfae30","ios":"levelo://app?vid=495c8f04-baa0-4d04-b6e9-fa5581cfae30"},"vehicle_type_id":"4","last_reported":1727158384,"current_range_meters":4000,"station_id":"ce4bgjp2rcd13ifvqbh0","pricing_plan_id":"cebpf4jnsgd1na2vs0mg"},{"bike_id":"ec1e1b19-5c71-4490-9454-b696256e7d50","system_id":"levelo_inurba_marseille","lat":43.29793,"lon":5.38109,"is_reserved":false,"is_disabled":false,"rental_uris":{"android":"levelo://app?vid=ec1e1b19-5c71-4490-9454-b696256e7d50","ios":"levelo://app?vid=ec1e1b19-5c71-4490-9454-b696256e7d50"},"vehicle_type_id":"4","last_reported":1727158384,"current_range_meters":32800,"station_id":"ce4bgip2rcd13ifvqbb0","pricing_plan_id":"cebpf4jnsgd1na2vs0mg"},{"bike_id":"12c200ed-d35a-43ce-8d6e-751cae72363b","system_id":"levelo_inurba_marseille","lat":43.32544,"lon":5.41437,"is_reserved":false,"is_disabled":false,"rental_uris":{"android":"levelo://app?vid=12c200ed-d35a-43ce-8d6e-751cae72363b","ios":"levelo://app?vid=12c200ed-d35a-43ce-8d6e-751cae72363b"},"vehicle_type_id":"4","last_reported":1727158384,"current_range_meters":19600,"station_id":"ce4bhq12rcd13ifvqhhg","pricing_plan_id":"cebpf4jnsgd1na2vs0mg"},{"bike_id":"87f19d0b-a1b1-4fb8-8996-891f9d067db8","system_id":"levelo_inurba_marseille","lat":43.28933,"lon":5.36658,"is_reserved":false,"is_disabled":false,"rental_uris":{"android":"levelo://app?vid=87f19d0b-a1b1-4fb8-8996-891f9d067db8","ios":"levelo://app?vid=87f19d0b-a1b1-4fb8-8996-891f9d067db8"},"vehicle_type_id":"4","last_reported":1727158384,"current_range_meters":4000,"station_id":"ce4bhap2rcd13ifvqek0","pricing_plan_id":"cebpf4jnsgd1na2vs0mg"},{"bike_id":"ebb7c5ad-05b9-41f0-aaae-a6f130ec014e","system_id":"levelo_inurba_marseille","lat":43.27495,"lon":5.4245,"is_reserved":false,"is_disabled":false,"rental_uris":{"android":"levelo://app?vid=ebb7c5ad-05b9-41f0-aaae-a6f130ec014e","ios":"levelo://app?vid=ebb7c5ad-05b9-41f0-aaae-a6f130ec014e"},"vehicle_type_id":"4","last_reported":1727158384,"current_range_meters":29600,"station_id":"ce4bhn92rcd13ifvqgrg","pricing_plan_id":"cebpf4jnsgd1na2vs0mg"},{"bike_id":"f6a80954-e22d-481e-987d-0e32ed4cbf45","system_id":"levelo_inurba_marseille","lat":43.24548,"lon":5.39522,"is_reserved":false,"is_disabled":false,"rental_uris":{"android":"levelo://app?vid=f6a80954-e22d-481e-987d-0e32ed4cbf45","ios":"levelo://app?vid=f6a80954-e22d-481e-987d-0e32ed4cbf45"},"vehicle_type_id":"4","last_reported":1727158384,"current_range_meters":32000,"station_id":"ce4bhlp2rcd13ifvqgjg","pricing_plan_id":"cebpf4jnsgd1na2vs0mg"},{"bike_id":"8795c973-b803-4c64-8765-8e0c0a970cba","system_id":"levelo_inurba_marseille","lat":43.29611,"lon":5.38103,"is_reserved":false,"is_disabled":false,"rental_uris":{"android":"levelo://app?vid=8795c973-b803-4c64-8765-8e0c0a970cba","ios":"levelo://app?vid=8795c973-b803-4c64-8765-8e0c0a970cba"},"vehicle_type_id":"4","last_reported":1727158384,"current_range_meters":30000,"station_id":"ce4bgl12rcd13ifvqbo0","pricing_plan_id":"cebpf4jnsgd1na2vs0mg"},{"bike_id":"664c1492-4c06-4350-b400-91571a357f51","system_id":"levelo_inurba_marseille","lat":43.298369,"lon":5.362627,"is_reserved":false,"is_disabled":false,"rental_uris":{"android":"levelo://app?vid=664c1492-4c06-4350-b400-91571a357f51","ios":"levelo://app?vid=664c1492-4c06-4350-b400-91571a357f51"},"vehicle_type_id":"4","last_reported":1727158384,"current_range_meters":38000,"station_id":"ce4bgpp2rcd13ifvqc3g","pricing_plan_id":"cebpf4jnsgd1na2vs0mg"},{"bike_id":"8db77e1f-618a-4975-9251-dd06a340034e","system_id":"levelo_inurba_marseille","lat":43.22926,"lon":5.35379,"is_reserved":false,"is_disabled":false,"rental_uris":{"android":"levelo://app?vid=8db77e1f-618a-4975-9251-dd06a340034e","ios":"levelo://app?vid=8db77e1f-618a-4975-9251-dd06a340034e"},"vehicle_type_id":"4","last_reported":1727158384,"current_range_meters":38800,"station_id":"cpo3532slgdg3j2ikp40","pricing_plan_id":"cebpf4jnsgd1na2vs0mg"},{"bike_id":"2bf8e532-bd7d-4d47-b211-a8ddb3761dcc","system_id":"levelo_inurba_marseille","lat":43.3254,"lon":5.41429,"is_reserved":false,"is_disabled":false,"rental_uris":{"android":"levelo://app?vid=2bf8e532-bd7d-4d47-b211-a8ddb3761dcc","ios":"levelo://app?vid=2bf8e532-bd7d-4d47-b211-a8ddb3761dcc"},"vehicle_type_id":"4","last_reported":1727158384,"current_range_meters":25200,"station_id":"ce4bhq12rcd13ifvqhhg","pricing_plan_id":"cebpf4jnsgd1na2vs0mg"},{"bike_id":"b69f31fe-547c-4ed6-b20e-73d029f6f120","system_id":"levelo_inurba_marseille","lat":43.30592,"lon":5.37236,"is_reserved":false,"is_disabled":false,"rental_uris":{"android":"levelo://app?vid=b69f31fe-547c-4ed6-b20e-73d029f6f120","ios":"levelo://app?vid=b69f31fe-547c-4ed6-b20e-73d029f6f120"},"vehicle_type_id":"4","last_reported":1727158384,"current_range_meters":7200,"station_id":"ce4bgqh2rcd13ifvqc4g","pricing_plan_id":"cebpf4jnsgd1na2vs0mg"},{"bike_id":"4e15c965-1bd6-4417-b362-140391f79c62","system_id":"levelo_inurba_marseille","lat":43.274902,"lon":5.389892,"is_reserved":false,"is_disabled":false,"rental_uris":{"android":"levelo://app?vid=4e15c965-1bd6-4417-b362-140391f79c62","ios":"levelo://app?vid=4e15c965-1bd6-4417-b362-140391f79c62"},"vehicle_type_id":"4","last_reported":1727158384,"current_range_meters":37600,"station_id":"ce4bhh12rcd13ifvqfg0","pricing_plan_id":"cebpf4jnsgd1na2vs0mg"},{"bike_id":"7fd0dda8-1cda-49fe-8f22-143af3ca4b76","system_id":"levelo_inurba_marseille","lat":43.27495,"lon":5.42452,"is_reserved":false,"is_disabled":false,"rental_uris":{"android":"levelo://app?vid=7fd0dda8-1cda-49fe-8f22-143af3ca4b76","ios":"levelo://app?vid=7fd0dda8-1cda-49fe-8f22-143af3ca4b76"},"vehicle_type_id":"4","last_reported":1727158384,"current_range_meters":30000,"station_id":"ce4bhn92rcd13ifvqgrg","pricing_plan_id":"cebpf4jnsgd1na2vs0mg"},{"bike_id":"445ab112-1d78-470c-83c0-bb9f52ccf0ad","system_id":"levelo_inurba_marseille","lat":43.24073,"lon":5.37764,"is_reserved":false,"is_disabled":false,"rental_uris":{"android":"levelo://app?vid=445ab112-1d78-470c-83c0-bb9f52ccf0ad","ios":"levelo://app?vid=445ab112-1d78-470c-83c0-bb9f52ccf0ad"},"vehicle_type_id":"4","last_reported":1727158384,"current_range_meters":8400,"station_id":"ce4bhnp2rcd13ifvqgvg","pricing_plan_id":"cebpf4jnsgd1na2vs0mg"},{"bike_id":"5729c6e9-2632-4ac0-8f69-f3c3acc1f442","system_id":"levelo_inurba_marseille","lat":43.287181,"lon":5.360894,"is_reserved":false,"is_disabled":false,"rental_uris":{"android":"levelo://app?vid=5729c6e9-2632-4ac0-8f69-f3c3acc1f442","ios":"levelo://app?vid=5729c6e9-2632-4ac0-8f69-f3c3acc1f442"},"vehicle_type_id":"4","last_reported":1727158384,"current_range_meters":28800,"station_id":"cki0cbj6b192h4jlfktg","pricing_plan_id":"cebpf4jnsgd1na2vs0mg"},{"bike_id":"b8306c75-5036-4b49-8c60-88758b8aad18","system_id":"levelo_inurba_marseille","lat":43.29552,"lon":5.42276,"is_reserved":false,"is_disabled":false,"rental_uris":{"android":"levelo://app?vid=b8306c75-5036-4b49-8c60-88758b8aad18","ios":"levelo://app?vid=b8306c75-5036-4b49-8c60-88758b8aad18"},"vehicle_type_id":"4","last_reported":1727158384,"current_range_meters":24400,"station_id":"ce4bhph2rcd13ifvqhdg","pricing_plan_id":"cebpf4jnsgd1na2vs0mg"},{"bike_id":"1f9fd890-d3f8-4dd1-a967-a3c762e20629","system_id":"levelo_inurba_marseille","lat":43.30776,"lon":5.37647,"is_reserved":false,"is_disabled":false,"rental_uris":{"android":"levelo://app?vid=1f9fd890-d3f8-4dd1-a967-a3c762e20629","ios":"levelo://app?vid=1f9fd890-d3f8-4dd1-a967-a3c762e20629"},"vehicle_type_id":"4","last_reported":1727158384,"current_range_meters":38800,"station_id":"ce4bgv92rcd13ifvqcq0","pricing_plan_id":"cebpf4jnsgd1na2vs0mg"},{"bike_id":"629d79b3-a190-4325-947b-810e3c3ab6b7","system_id":"levelo_inurba_marseille","lat":43.33611,"lon":5.4103,"is_reserved":false,"is_disabled":false,"rental_uris":{"android":"levelo://app?vid=629d79b3-a190-4325-947b-810e3c3ab6b7","ios":"levelo://app?vid=629d79b3-a190-4325-947b-810e3c3ab6b7"},"vehicle_type_id":"4","last_reported":1727158384,"current_range_meters":33200,"station_id":"ce4bhqh2rcd13ifvqhmg","pricing_plan_id":"cebpf4jnsgd1na2vs0mg"},{"bike_id":"c002018b-ccc5-4921-ae3a-43562e85b9f9","system_id":"levelo_inurba_marseille","lat":43.33024,"lon":5.3904,"is_reserved":false,"is_disabled":false,"rental_uris":{"android":"levelo://app?vid=c002018b-ccc5-4921-ae3a-43562e85b9f9","ios":"levelo://app?vid=c002018b-ccc5-4921-ae3a-43562e85b9f9"},"vehicle_type_id":"4","last_reported":1727158384,"current_range_meters":36400,"station_id":"ce4bhr92rcd13ifvqhrg","pricing_plan_id":"cebpf4jnsgd1na2vs0mg"},{"bike_id":"c7cd1ff0-d75c-4dec-9890-0152386fa2d4","system_id":"levelo_inurba_marseille","lat":43.30604,"lon":5.39365,"is_reserved":false,"is_disabled":false,"rental_uris":{"android":"levelo://app?vid=c7cd1ff0-d75c-4dec-9890-0152386fa2d4","ios":"levelo://app?vid=c7cd1ff0-d75c-4dec-9890-0152386fa2d4"},"vehicle_type_id":"4","last_reported":1727158384,"current_range_meters":17600,"station_id":"ce4bh0p2rcd13ifvqd80","pricing_plan_id":"cebpf4jnsgd1na2vs0mg"},{"bike_id":"a782ad03-d0ad-4bce-817a-ef561ea570b7","system_id":"levelo_inurba_marseille","lat":43.26943,"lon":5.40248,"is_reserved":false,"is_disabled":false,"rental_uris":{"android":"levelo://app?vid=a782ad03-d0ad-4bce-817a-ef561ea570b7","ios":"levelo://app?vid=a782ad03-d0ad-4bce-817a-ef561ea570b7"},"vehicle_type_id":"4","last_reported":1727158384,"current_range_meters":38800,"station_id":"cjm6bp8fraef2m0cb0m0","pricing_plan_id":"cebpf4jnsgd1na2vs0mg"},{"bike_id":"f78f3df5-63c1-4e5b-8e4b-1ad375038f9f","system_id":"levelo_inurba_marseille","lat":43.30596,"lon":5.3936,"is_reserved":false,"is_disabled":false,"rental_uris":{"android":"levelo://app?vid=f78f3df5-63c1-4e5b-8e4b-1ad375038f9f","ios":"levelo://app?vid=f78f3df5-63c1-4e5b-8e4b-1ad375038f9f"},"vehicle_type_id":"4","last_reported":1727158384,"current_range_meters":38800,"station_id":"ce4bh0p2rcd13ifvqd80","pricing_plan_id":"cebpf4jnsgd1na2vs0mg"},{"bike_id":"f803a271-824d-45e7-9066-e11e22aff573","system_id":"levelo_inurba_marseille","lat":43.32536,"lon":5.4143,"is_reserved":false,"is_disabled":false,"rental_uris":{"android":"levelo://app?vid=f803a271-824d-45e7-9066-e11e22aff573","ios":"levelo://app?vid=f803a271-824d-45e7-9066-e11e22aff573"},"vehicle_type_id":"4","last_reported":1727158384,"current_range_meters":34800,"station_id":"ce4bhq12rcd13ifvqhhg","pricing_plan_id":"cebpf4jnsgd1na2vs0mg"},{"bike_id":"311cb921-6388-4f0d-aede-0da844c4033e","system_id":"levelo_inurba_marseille","lat":43.239632,"lon":5.36628,"is_reserved":false,"is_disabled":false,"rental_uris":{"android":"levelo://app?vid=311cb921-6388-4f0d-aede-0da844c4033e","ios":"levelo://app?vid=311cb921-6388-4f0d-aede-0da844c4033e"},"vehicle_type_id":"4","last_reported":1727158384,"current_range_meters":38800,"station_id":"ce4bhi12rcd13ifvqfp0","pricing_plan_id":"cebpf4jnsgd1na2vs0mg"},{"bike_id":"b55de1ac-65ee-4022-871b-cb27256e2ad1","system_id":"levelo_inurba_marseille","lat":43.29556,"lon":5.42278,"is_reserved":false,"is_disabled":false,"rental_uris":{"android":"levelo://app?vid=b55de1ac-65ee-4022-871b-cb27256e2ad1","ios":"levelo://app?vid=b55de1ac-65ee-4022-871b-cb27256e2ad1"},"vehicle_type_id":"4","last_reported":1727158384,"current_range_meters":25600,"station_id":"ce4bhph2rcd13ifvqhdg","pricing_plan_id":"cebpf4jnsgd1na2vs0mg"},{"bike_id":"9a19aa13-651a-4b7c-84a2-cb9d28569a16","system_id":"levelo_inurba_marseille","lat":43.30469,"lon":5.37911,"is_reserved":false,"is_disabled":false,"rental_uris":{"android":"levelo://app?vid=9a19aa13-651a-4b7c-84a2-cb9d28569a16","ios":"levelo://app?vid=9a19aa13-651a-4b7c-84a2-cb9d28569a16"},"vehicle_type_id":"4","last_reported":1727158384,"current_range_meters":5600,"station_id":"ce4bgup2rcd13ifvqcn0","pricing_plan_id":"cebpf4jnsgd1na2vs0mg"},{"bike_id":"afa33294-09c0-4a09-beb2-53853c7531c4","system_id":"levelo_inurba_marseille","lat":43.26558,"lon":5.39003,"is_reserved":false,"is_disabled":false,"rental_uris":{"android":"levelo://app?vid=afa33294-09c0-4a09-beb2-53853c7531c4","ios":"levelo://app?vid=afa33294-09c0-4a09-beb2-53853c7531c4"},"vehicle_type_id":"4","last_reported":1727158384,"current_range_meters":37600,"station_id":"ce4bhe12rcd13ifvqf30","pricing_plan_id":"cebpf4jnsgd1na2vs0mg"},{"bike_id":"9f92bf8f-7756-4ffd-ac07-bf9236417f30","system_id":"levelo_inurba_marseille","lat":43.30906,"lon":5.36857,"is_reserved":false,"is_disabled":false,"rental_uris":{"android":"levelo://app?vid=9f92bf8f-7756-4ffd-ac07-bf9236417f30","ios":"levelo://app?vid=9f92bf8f-7756-4ffd-ac07-bf9236417f30"},"vehicle_type_id":"4","last_reported":1727158384,"current_range_meters":4800,"station_id":"ce4bgn92rcd13ifvqbvg","pricing_plan_id":"cebpf4jnsgd1na2vs0mg"},{"bike_id":"852d90da-a9ee-4476-8e76-2ccfc26d7533","system_id":"levelo_inurba_marseille","lat":43.26558,"lon":5.3899,"is_reserved":false,"is_disabled":false,"rental_uris":{"android":"levelo://app?vid=852d90da-a9ee-4476-8e76-2ccfc26d7533","ios":"levelo://app?vid=852d90da-a9ee-4476-8e76-2ccfc26d7533"},"vehicle_type_id":"4","last_reported":1727158384,"current_range_meters":26800,"station_id":"ce4bhe12rcd13ifvqf30","pricing_plan_id":"cebpf4jnsgd1na2vs0mg"},{"bike_id":"d1da9935-cb66-449d-ac02-89accaadec79","system_id":"levelo_inurba_marseille","lat":43.29279,"lon":5.40121,"is_reserved":false,"is_disabled":false,"rental_uris":{"android":"levelo://app?vid=d1da9935-cb66-449d-ac02-89accaadec79","ios":"levelo://app?vid=d1da9935-cb66-449d-ac02-89accaadec79"},"vehicle_type_id":"4","last_reported":1727158384,"current_range_meters":30400,"station_id":"ce4bh312rcd13ifvqdk0","pricing_plan_id":"cebpf4jnsgd1na2vs0mg"},{"bike_id":"ebec7cd5-5fed-46ce-abdb-3cd659f607ac","system_id":"levelo_inurba_marseille","lat":43.2955,"lon":5.42283,"is_reserved":false,"is_disabled":false,"rental_uris":{"android":"levelo://app?vid=ebec7cd5-5fed-46ce-abdb-3cd659f607ac","ios":"levelo://app?vid=ebec7cd5-5fed-46ce-abdb-3cd659f607ac"},"vehicle_type_id":"4","last_reported":1727158384,"current_range_meters":38800,"station_id":"ce4bhph2rcd13ifvqhdg","pricing_plan_id":"cebpf4jnsgd1na2vs0mg"},{"bike_id":"a9124d92-00a2-457e-ae26-f319741cd62d","system_id":"levelo_inurba_marseille","lat":43.26943,"lon":5.40257,"is_reserved":false,"is_disabled":false,"rental_uris":{"android":"levelo://app?vid=a9124d92-00a2-457e-ae26-f319741cd62d","ios":"levelo://app?vid=a9124d92-00a2-457e-ae26-f319741cd62d"},"vehicle_type_id":"4","last_reported":1727158384,"current_range_meters":36000,"station_id":"cjm6bp8fraef2m0cb0m0","pricing_plan_id":"cebpf4jnsgd1na2vs0mg"},{"bike_id":"775ab119-643c-4fc8-82c6-59850358e7a1","system_id":"levelo_inurba_marseille","lat":43.290234,"lon":5.375537,"is_reserved":false,"is_disabled":false,"rental_uris":{"android":"levelo://app?vid=775ab119-643c-4fc8-82c6-59850358e7a1","ios":"levelo://app?vid=775ab119-643c-4fc8-82c6-59850358e7a1"},"vehicle_type_id":"4","last_reported":1727158384,"current_range_meters":36000,"station_id":"ce4bh692rcd13ifvqe90","pricing_plan_id":"cebpf4jnsgd1na2vs0mg"},{"bike_id":"6d6065cc-15d1-48a2-aa33-8bac2101b02a","system_id":"levelo_inurba_marseille","lat":43.22929,"lon":5.35374,"is_reserved":false,"is_disabled":false,"rental_uris":{"android":"levelo://app?vid=6d6065cc-15d1-48a2-aa33-8bac2101b02a","ios":"levelo://app?vid=6d6065cc-15d1-48a2-aa33-8bac2101b02a"},"vehicle_type_id":"4","last_reported":1727158384,"current_range_meters":32800,"station_id":"cpo3532slgdg3j2ikp40","pricing_plan_id":"cebpf4jnsgd1na2vs0mg"},{"bike_id":"747bd37d-b115-4401-b688-2df15c6071e8","system_id":"levelo_inurba_marseille","lat":43.31174,"lon":5.3871,"is_reserved":false,"is_disabled":false,"rental_uris":{"android":"levelo://app?vid=747bd37d-b115-4401-b688-2df15c6071e8","ios":"levelo://app?vid=747bd37d-b115-4401-b688-2df15c6071e8"},"vehicle_type_id":"4","last_reported":1727158384,"current_range_meters":32000,"station_id":"ce4bgv12rcd13ifvqcp0","pricing_plan_id":"cebpf4jnsgd1na2vs0mg"},{"bike_id":"df5b38d2-64cb-4df0-856f-ea9bd22c082c","system_id":"levelo_inurba_marseille","lat":43.23191,"lon":5.35552,"is_reserved":false,"is_disabled":false,"rental_uris":{"android":"levelo://app?vid=df5b38d2-64cb-4df0-856f-ea9bd22c082c","ios":"levelo://app?vid=df5b38d2-64cb-4df0-856f-ea9bd22c082c"},"vehicle_type_id":"4","last_reported":1727158384,"current_range_meters":14000,"station_id":"ce4bhu92rcd13ifvqi70","pricing_plan_id":"cebpf4jnsgd1na2vs0mg"},{"bike_id":"b060e09f-7a6a-43de-ba85-4467b6c67848","system_id":"levelo_inurba_marseille","lat":43.29797,"lon":5.3809,"is_reserved":false,"is_disabled":false,"rental_uris":{"android":"levelo://app?vid=b060e09f-7a6a-43de-ba85-4467b6c67848","ios":"levelo://app?vid=b060e09f-7a6a-43de-ba85-4467b6c67848"},"vehicle_type_id":"4","last_reported":1727158384,"current_range_meters":36400,"station_id":"ce4bgip2rcd13ifvqbb0","pricing_plan_id":"cebpf4jnsgd1na2vs0mg"},{"bike_id":"f09bc159-0021-4221-87b9-f49c764bf3b1","system_id":"levelo_inurba_marseille","lat":43.31497,"lon":5.37315,"is_reserved":false,"is_disabled":false,"rental_uris":{"android":"levelo://app?vid=f09bc159-0021-4221-87b9-f49c764bf3b1","ios":"levelo://app?vid=f09bc159-0021-4221-87b9-f49c764bf3b1"},"vehicle_type_id":"4","last_reported":1727158384,"current_range_meters":38400,"station_id":"ce4bgt12rcd13ifvqcd0","pricing_plan_id":"cebpf4jnsgd1na2vs0mg"},{"bike_id":"035b4f39-0f7e-4060-adc3-8a96de8df3e8","system_id":"levelo_inurba_marseille","lat":43.28498,"lon":5.38571,"is_reserved":false,"is_disabled":false,"rental_uris":{"android":"levelo://app?vid=035b4f39-0f7e-4060-adc3-8a96de8df3e8","ios":"levelo://app?vid=035b4f39-0f7e-4060-adc3-8a96de8df3e8"},"vehicle_type_id":"4","last_reported":1727158384,"current_range_meters":9600,"station_id":"ce4bh8p2rcd13ifvqeb0","pricing_plan_id":"cebpf4jnsgd1na2vs0mg"},{"bike_id":"17b1cd1a-7803-4ca9-91f3-73c4fa44f09e","system_id":"levelo_inurba_marseille","lat":43.29556,"lon":5.42287,"is_reserved":false,"is_disabled":false,"rental_uris":{"android":"levelo://app?vid=17b1cd1a-7803-4ca9-91f3-73c4fa44f09e","ios":"levelo://app?vid=17b1cd1a-7803-4ca9-91f3-73c4fa44f09e"},"vehicle_type_id":"4","last_reported":1727158384,"current_range_meters":9200,"station_id":"ce4bhph2rcd13ifvqhdg","pricing_plan_id":"cebpf4jnsgd1na2vs0mg"},{"bike_id":"cf5cb0a9-82e0-4a76-8ee4-0e5b8000efd6","system_id":"levelo_inurba_marseille","lat":43.25578,"lon":5.38232,"is_reserved":false,"is_disabled":false,"rental_uris":{"android":"levelo://app?vid=cf5cb0a9-82e0-4a76-8ee4-0e5b8000efd6","ios":"levelo://app?vid=cf5cb0a9-82e0-4a76-8ee4-0e5b8000efd6"},"vehicle_type_id":"4","last_reported":1727158384,"current_range_meters":38800,"station_id":"ce4bhih2rcd13ifvqfs0","pricing_plan_id":"cebpf4jnsgd1na2vs0mg"},{"bike_id":"115757b6-eafa-4e2c-a73b-60a5d4121ae4","system_id":"levelo_inurba_marseille","lat":43.29196,"lon":5.35784,"is_reserved":false,"is_disabled":false,"rental_uris":{"android":"levelo://app?vid=115757b6-eafa-4e2c-a73b-60a5d4121ae4","ios":"levelo://app?vid=115757b6-eafa-4e2c-a73b-60a5d4121ae4"},"vehicle_type_id":"4","last_reported":1727158384,"current_range_meters":38400,"station_id":"ce4bhb12rcd13ifvqel0","pricing_plan_id":"cebpf4jnsgd1na2vs0mg"},{"bike_id":"da90f922-8def-4049-9a08-7c8629c4447c","system_id":"levelo_inurba_marseille","lat":43.30464,"lon":5.37901,"is_reserved":false,"is_disabled":false,"rental_uris":{"android":"levelo://app?vid=da90f922-8def-4049-9a08-7c8629c4447c","ios":"levelo://app?vid=da90f922-8def-4049-9a08-7c8629c4447c"},"vehicle_type_id":"4","last_reported":1727158384,"current_range_meters":32000,"station_id":"ce4bgup2rcd13ifvqcn0","pricing_plan_id":"cebpf4jnsgd1na2vs0mg"},{"bike_id":"34566ec9-122d-437f-91a4-18d36f691ab8","system_id":"levelo_inurba_marseille","lat":43.28148,"lon":5.42635,"is_reserved":false,"is_disabled":false,"rental_uris":{"android":"levelo://app?vid=34566ec9-122d-437f-91a4-18d36f691ab8","ios":"levelo://app?vid=34566ec9-122d-437f-91a4-18d36f691ab8"},"vehicle_type_id":"4","last_reported":1727158384,"current_range_meters":37600,"station_id":"ce4bhnh2rcd13ifvqgug","pricing_plan_id":"cebpf4jnsgd1na2vs0mg"},{"bike_id":"2311b366-08a8-45c0-b1a0-46d8bceaf267","system_id":"levelo_inurba_marseille","lat":43.231929,"lon":5.355578,"is_reserved":false,"is_disabled":false,"rental_uris":{"android":"levelo://app?vid=2311b366-08a8-45c0-b1a0-46d8bceaf267","ios":"levelo://app?vid=2311b366-08a8-45c0-b1a0-46d8bceaf267"},"vehicle_type_id":"4","last_reported":1727158384,"current_range_meters":6400,"station_id":"ce4bhu92rcd13ifvqi70","pricing_plan_id":"cebpf4jnsgd1na2vs0mg"},{"bike_id":"0939306b-394d-40d9-a453-39f8fcd6b7d8","system_id":"levelo_inurba_marseille","lat":43.29561,"lon":5.42294,"is_reserved":false,"is_disabled":false,"rental_uris":{"android":"levelo://app?vid=0939306b-394d-40d9-a453-39f8fcd6b7d8","ios":"levelo://app?vid=0939306b-394d-40d9-a453-39f8fcd6b7d8"},"vehicle_type_id":"4","last_reported":1727158384,"current_range_meters":38800,"station_id":"ce4bhph2rcd13ifvqhdg","pricing_plan_id":"cebpf4jnsgd1na2vs0mg"},{"bike_id":"26395923-5013-43fc-b05f-94f6cc877699","system_id":"levelo_inurba_marseille","lat":43.23186,"lon":5.39974,"is_reserved":false,"is_disabled":false,"rental_uris":{"android":"levelo://app?vid=26395923-5013-43fc-b05f-94f6cc877699","ios":"levelo://app?vid=26395923-5013-43fc-b05f-94f6cc877699"},"vehicle_type_id":"4","last_reported":1727158384,"current_range_meters":10000,"station_id":"ce4bhn12rcd13ifvqgqg","pricing_plan_id":"cebpf4jnsgd1na2vs0mg"},{"bike_id":"0ff7aaf4-b18a-47cc-ba55-f23a50841812","system_id":"levelo_inurba_marseille","lat":43.34141,"lon":5.40908,"is_reserved":false,"is_disabled":false,"rental_uris":{"android":"levelo://app?vid=0ff7aaf4-b18a-47cc-ba55-f23a50841812","ios":"levelo://app?vid=0ff7aaf4-b18a-47cc-ba55-f23a50841812"},"vehicle_type_id":"4","last_reported":1727158384,"current_range_meters":38800,"station_id":"ce4bhqh2rcd13ifvqhlg","pricing_plan_id":"cebpf4jnsgd1na2vs0mg"},{"bike_id":"64051b3b-0df0-4b66-a432-1afbff58364a","system_id":"levelo_inurba_marseille","lat":43.31276,"lon":5.4017,"is_reserved":false,"is_disabled":false,"rental_uris":{"android":"levelo://app?vid=64051b3b-0df0-4b66-a432-1afbff58364a","ios":"levelo://app?vid=64051b3b-0df0-4b66-a432-1afbff58364a"},"vehicle_type_id":"4","last_reported":1727158384,"current_range_meters":32400,"station_id":"ce4bh092rcd13ifvqd30","pricing_plan_id":"cebpf4jnsgd1na2vs0mg"},{"bike_id":"6b6f20f8-bb94-4774-8a42-1309ab09f53a","system_id":"levelo_inurba_marseille","lat":43.27495,"lon":5.4245,"is_reserved":false,"is_disabled":false,"rental_uris":{"android":"levelo://app?vid=6b6f20f8-bb94-4774-8a42-1309ab09f53a","ios":"levelo://app?vid=6b6f20f8-bb94-4774-8a42-1309ab09f53a"},"vehicle_type_id":"4","last_reported":1727158384,"current_range_meters":28400,"station_id":"ce4bhn92rcd13ifvqgrg","pricing_plan_id":"cebpf4jnsgd1na2vs0mg"},{"bike_id":"37b52417-87d4-47b4-8910-65bdfc8cdc76","system_id":"levelo_inurba_marseille","lat":43.33591,"lon":5.41034,"is_reserved":false,"is_disabled":false,"rental_uris":{"android":"levelo://app?vid=37b52417-87d4-47b4-8910-65bdfc8cdc76","ios":"levelo://app?vid=37b52417-87d4-47b4-8910-65bdfc8cdc76"},"vehicle_type_id":"4","last_reported":1727158384,"current_range_meters":34800,"station_id":"ce4bhqh2rcd13ifvqhmg","pricing_plan_id":"cebpf4jnsgd1na2vs0mg"},{"bike_id":"8b17e712-5bb1-40fa-9c18-813d464c0a42","system_id":"levelo_inurba_marseille","lat":43.27496,"lon":5.42453,"is_reserved":false,"is_disabled":false,"rental_uris":{"android":"levelo://app?vid=8b17e712-5bb1-40fa-9c18-813d464c0a42","ios":"levelo://app?vid=8b17e712-5bb1-40fa-9c18-813d464c0a42"},"vehicle_type_id":"4","last_reported":1727158384,"current_range_meters":38800,"station_id":"ce4bhn92rcd13ifvqgrg","pricing_plan_id":"cebpf4jnsgd1na2vs0mg"},{"bike_id":"48ad8b8a-f1f7-463f-8d50-31c9f6b5c537","system_id":"levelo_inurba_marseille","lat":43.309559,"lon":5.390316,"is_reserved":false,"is_disabled":false,"rental_uris":{"android":"levelo://app?vid=48ad8b8a-f1f7-463f-8d50-31c9f6b5c537","ios":"levelo://app?vid=48ad8b8a-f1f7-463f-8d50-31c9f6b5c537"},"vehicle_type_id":"4","last_reported":1727158384,"current_range_meters":38400,"station_id":"ce4bgup2rcd13ifvqco0","pricing_plan_id":"cebpf4jnsgd1na2vs0mg"},{"bike_id":"409e62e7-82b0-434f-add4-2bedd6c3ce01","system_id":"levelo_inurba_marseille","lat":43.29788,"lon":5.38084,"is_reserved":false,"is_disabled":false,"rental_uris":{"android":"levelo://app?vid=409e62e7-82b0-434f-add4-2bedd6c3ce01","ios":"levelo://app?vid=409e62e7-82b0-434f-add4-2bedd6c3ce01"},"vehicle_type_id":"4","last_reported":1727158384,"current_range_meters":28400,"station_id":"ce4bgip2rcd13ifvqbb0","pricing_plan_id":"cebpf4jnsgd1na2vs0mg"},{"bike_id":"4b770073-7726-4e78-b34f-a257261dc7d3","system_id":"levelo_inurba_marseille","lat":43.29555,"lon":5.42283,"is_reserved":false,"is_disabled":false,"rental_uris":{"android":"levelo://app?vid=4b770073-7726-4e78-b34f-a257261dc7d3","ios":"levelo://app?vid=4b770073-7726-4e78-b34f-a257261dc7d3"},"vehicle_type_id":"4","last_reported":1727158384,"current_range_meters":28000,"station_id":"ce4bhph2rcd13ifvqhdg","pricing_plan_id":"cebpf4jnsgd1na2vs0mg"},{"bike_id":"d8652924-2187-42bf-848a-1f35c66a4826","system_id":"levelo_inurba_marseille","lat":43.24123,"lon":5.3786,"is_reserved":false,"is_disabled":false,"rental_uris":{"android":"levelo://app?vid=d8652924-2187-42bf-848a-1f35c66a4826","ios":"levelo://app?vid=d8652924-2187-42bf-848a-1f35c66a4826"},"vehicle_type_id":"4","last_reported":1727158384,"current_range_meters":9600,"station_id":"ce4bhnp2rcd13ifvqgvg","pricing_plan_id":"cebpf4jnsgd1na2vs0mg"},{"bike_id":"c03f7e69-3662-4d8b-a2f2-4c8f803c1ea8","system_id":"levelo_inurba_marseille","lat":43.3254,"lon":5.41428,"is_reserved":false,"is_disabled":false,"rental_uris":{"android":"levelo://app?vid=c03f7e69-3662-4d8b-a2f2-4c8f803c1ea8","ios":"levelo://app?vid=c03f7e69-3662-4d8b-a2f2-4c8f803c1ea8"},"vehicle_type_id":"4","last_reported":1727158384,"current_range_meters":20000,"station_id":"ce4bhq12rcd13ifvqhhg","pricing_plan_id":"cebpf4jnsgd1na2vs0mg"},{"bike_id":"efcab10f-f8b5-4015-93f2-6e1654482c73","system_id":"levelo_inurba_marseille","lat":43.24073,"lon":5.37758,"is_reserved":false,"is_disabled":false,"rental_uris":{"android":"levelo://app?vid=efcab10f-f8b5-4015-93f2-6e1654482c73","ios":"levelo://app?vid=efcab10f-f8b5-4015-93f2-6e1654482c73"},"vehicle_type_id":"4","last_reported":1727158384,"current_range_meters":34000,"station_id":"ce4bhnp2rcd13ifvqgvg","pricing_plan_id":"cebpf4jnsgd1na2vs0mg"},{"bike_id":"6c3b78b3-fe70-4d6b-af82-27dfa4b4c1de","system_id":"levelo_inurba_marseille","lat":43.29528,"lon":5.38545,"is_reserved":false,"is_disabled":false,"rental_uris":{"android":"levelo://app?vid=6c3b78b3-fe70-4d6b-af82-27dfa4b4c1de","ios":"levelo://app?vid=6c3b78b3-fe70-4d6b-af82-27dfa4b4c1de"},"vehicle_type_id":"4","last_reported":1727158384,"current_range_meters":38800,"station_id":"ce4bgih2rcd13ifvqba0","pricing_plan_id":"cebpf4jnsgd1na2vs0mg"},{"bike_id":"276b06a5-a2e6-40bd-ae27-764037965b9a","system_id":"levelo_inurba_marseille","lat":43.29896,"lon":5.43657,"is_reserved":false,"is_disabled":false,"rental_uris":{"android":"levelo://app?vid=276b06a5-a2e6-40bd-ae27-764037965b9a","ios":"levelo://app?vid=276b06a5-a2e6-40bd-ae27-764037965b9a"},"vehicle_type_id":"4","last_reported":1727158384,"current_range_meters":37600,"station_id":"ce4bhpp2rcd13ifvqhfg","pricing_plan_id":"cebpf4jnsgd1na2vs0mg"},{"bike_id":"e59b0fcb-9ec1-4e05-a6bd-12eb54ed61ec","system_id":"levelo_inurba_marseille","lat":43.2668,"lon":5.38263,"is_reserved":false,"is_disabled":false,"rental_uris":{"android":"levelo://app?vid=e59b0fcb-9ec1-4e05-a6bd-12eb54ed61ec","ios":"levelo://app?vid=e59b0fcb-9ec1-4e05-a6bd-12eb54ed61ec"},"vehicle_type_id":"4","last_reported":1727158384,"current_range_meters":35600,"station_id":"ce4bhg92rcd13ifvqf90","pricing_plan_id":"cebpf4jnsgd1na2vs0mg"},{"bike_id":"2c567e6d-9516-43a8-a805-6a796053112e","system_id":"levelo_inurba_marseille","lat":43.32485,"lon":5.36556,"is_reserved":false,"is_disabled":false,"rental_uris":{"android":"levelo://app?vid=2c567e6d-9516-43a8-a805-6a796053112e","ios":"levelo://app?vid=2c567e6d-9516-43a8-a805-6a796053112e"},"vehicle_type_id":"4","last_reported":1727158384,"current_range_meters":38800,"station_id":"ce4bhs12rcd13ifvqhvg","pricing_plan_id":"cebpf4jnsgd1na2vs0mg"},{"bike_id":"9dabbe6d-e784-4fa4-a324-7e2f8534d70d","system_id":"levelo_inurba_marseille","lat":43.30546,"lon":5.38424,"is_reserved":false,"is_disabled":false,"rental_uris":{"android":"levelo://app?vid=9dabbe6d-e784-4fa4-a324-7e2f8534d70d","ios":"levelo://app?vid=9dabbe6d-e784-4fa4-a324-7e2f8534d70d"},"vehicle_type_id":"4","last_reported":1727158384,"current_range_meters":39200,"station_id":"ce4bgg92rcd13ifvqb30","pricing_plan_id":"cebpf4jnsgd1na2vs0mg"},{"bike_id":"17701005-77c3-4e4f-a0b4-b2ece630517d","system_id":"levelo_inurba_marseille","lat":43.23961,"lon":5.36636,"is_reserved":false,"is_disabled":false,"rental_uris":{"android":"levelo://app?vid=17701005-77c3-4e4f-a0b4-b2ece630517d","ios":"levelo://app?vid=17701005-77c3-4e4f-a0b4-b2ece630517d"},"vehicle_type_id":"4","last_reported":1727158384,"current_range_meters":38800,"station_id":"ce4bhi12rcd13ifvqfp0","pricing_plan_id":"cebpf4jnsgd1na2vs0mg"},{"bike_id":"16c39192-ea04-44e3-9d42-5325bf0e013c","system_id":"levelo_inurba_marseille","lat":43.32301,"lon":5.38238,"is_reserved":false,"is_disabled":false,"rental_uris":{"android":"levelo://app?vid=16c39192-ea04-44e3-9d42-5325bf0e013c","ios":"levelo://app?vid=16c39192-ea04-44e3-9d42-5325bf0e013c"},"vehicle_type_id":"4","last_reported":1727158384,"current_range_meters":21600,"station_id":"ce4bhr12rcd13ifvqhqg","pricing_plan_id":"cebpf4jnsgd1na2vs0mg"},{"bike_id":"9f6cd24d-b2cc-4dc8-9746-f28736aa085c","system_id":"levelo_inurba_marseille","lat":43.31175,"lon":5.38719,"is_reserved":false,"is_disabled":false,"rental_uris":{"android":"levelo://app?vid=9f6cd24d-b2cc-4dc8-9746-f28736aa085c","ios":"levelo://app?vid=9f6cd24d-b2cc-4dc8-9746-f28736aa085c"},"vehicle_type_id":"4","last_reported":1727158384,"current_range_meters":32800,"station_id":"ce4bgv12rcd13ifvqcp0","pricing_plan_id":"cebpf4jnsgd1na2vs0mg"},{"bike_id":"3311acb8-aedb-481d-991c-0ede8c5360e4","system_id":"levelo_inurba_marseille","lat":43.28228,"lon":5.350891,"is_reserved":false,"is_disabled":false,"rental_uris":{"android":"levelo://app?vid=3311acb8-aedb-481d-991c-0ede8c5360e4","ios":"levelo://app?vid=3311acb8-aedb-481d-991c-0ede8c5360e4"},"vehicle_type_id":"4","last_reported":1727158384,"current_range_meters":18000,"station_id":"","pricing_plan_id":"cebpf4jnsgd1na2vs0mg"},{"bike_id":"48cd47f6-474f-4f11-93d8-ba2d55d51be9","system_id":"levelo_inurba_marseille","lat":43.266809,"lon":5.382731,"is_reserved":false,"is_disabled":false,"rental_uris":{"android":"levelo://app?vid=48cd47f6-474f-4f11-93d8-ba2d55d51be9","ios":"levelo://app?vid=48cd47f6-474f-4f11-93d8-ba2d55d51be9"},"vehicle_type_id":"4","last_reported":1727158384,"current_range_meters":30000,"station_id":"ce4bhg92rcd13ifvqf90","pricing_plan_id":"cebpf4jnsgd1na2vs0mg"},{"bike_id":"cdb389dd-3664-4477-91da-d69d97c2a4b8","system_id":"levelo_inurba_marseille","lat":43.27497,"lon":5.42448,"is_reserved":false,"is_disabled":false,"rental_uris":{"android":"levelo://app?vid=cdb389dd-3664-4477-91da-d69d97c2a4b8","ios":"levelo://app?vid=cdb389dd-3664-4477-91da-d69d97c2a4b8"},"vehicle_type_id":"4","last_reported":1727158384,"current_range_meters":36800,"station_id":"ce4bhn92rcd13ifvqgrg","pricing_plan_id":"cebpf4jnsgd1na2vs0mg"},{"bike_id":"945a70b2-b59f-4256-8815-9e97befd195a","system_id":"levelo_inurba_marseille","lat":43.239716,"lon":5.366446,"is_reserved":false,"is_disabled":false,"rental_uris":{"android":"levelo://app?vid=945a70b2-b59f-4256-8815-9e97befd195a","ios":"levelo://app?vid=945a70b2-b59f-4256-8815-9e97befd195a"},"vehicle_type_id":"4","last_reported":1727158384,"current_range_meters":13600,"station_id":"ce4bhi12rcd13ifvqfp0","pricing_plan_id":"cebpf4jnsgd1na2vs0mg"},{"bike_id":"ef462b40-5abb-456e-ae03-2b347f34b8dc","system_id":"levelo_inurba_marseille","lat":43.304732,"lon":5.379074,"is_reserved":false,"is_disabled":false,"rental_uris":{"android":"levelo://app?vid=ef462b40-5abb-456e-ae03-2b347f34b8dc","ios":"levelo://app?vid=ef462b40-5abb-456e-ae03-2b347f34b8dc"},"vehicle_type_id":"4","last_reported":1727158384,"current_range_meters":24400,"station_id":"ce4bgup2rcd13ifvqcn0","pricing_plan_id":"cebpf4jnsgd1na2vs0mg"},{"bike_id":"45fc3b17-5894-408f-b9ae-5de147801182","system_id":"levelo_inurba_marseille","lat":43.22934,"lon":5.35379,"is_reserved":false,"is_disabled":false,"rental_uris":{"android":"levelo://app?vid=45fc3b17-5894-408f-b9ae-5de147801182","ios":"levelo://app?vid=45fc3b17-5894-408f-b9ae-5de147801182"},"vehicle_type_id":"4","last_reported":1727158384,"current_range_meters":38400,"station_id":"cpo3532slgdg3j2ikp40","pricing_plan_id":"cebpf4jnsgd1na2vs0mg"},{"bike_id":"ebe71fe2-7b77-46de-a9b4-18e210e60bc2","system_id":"levelo_inurba_marseille","lat":43.3095,"lon":5.39036,"is_reserved":false,"is_disabled":false,"rental_uris":{"android":"levelo://app?vid=ebe71fe2-7b77-46de-a9b4-18e210e60bc2","ios":"levelo://app?vid=ebe71fe2-7b77-46de-a9b4-18e210e60bc2"},"vehicle_type_id":"4","last_reported":1727158384,"current_range_meters":38800,"station_id":"ce4bgup2rcd13ifvqco0","pricing_plan_id":"cebpf4jnsgd1na2vs0mg"},{"bike_id":"1b28e901-73cf-46ae-9fac-99d3b80c2128","system_id":"levelo_inurba_marseille","lat":43.29284,"lon":5.40124,"is_reserved":false,"is_disabled":false,"rental_uris":{"android":"levelo://app?vid=1b28e901-73cf-46ae-9fac-99d3b80c2128","ios":"levelo://app?vid=1b28e901-73cf-46ae-9fac-99d3b80c2128"},"vehicle_type_id":"4","last_reported":1727158384,"current_range_meters":38000,"station_id":"ce4bh312rcd13ifvqdk0","pricing_plan_id":"cebpf4jnsgd1na2vs0mg"},{"bike_id":"d817bc66-f8c5-4fbd-8064-d090754c8397","system_id":"levelo_inurba_marseille","lat":43.29032,"lon":5.39971,"is_reserved":false,"is_disabled":false,"rental_uris":{"android":"levelo://app?vid=d817bc66-f8c5-4fbd-8064-d090754c8397","ios":"levelo://app?vid=d817bc66-f8c5-4fbd-8064-d090754c8397"},"vehicle_type_id":"4","last_reported":1727158384,"current_range_meters":36000,"station_id":"ce4bh392rcd13ifvqdm0","pricing_plan_id":"cebpf4jnsgd1na2vs0mg"},{"bike_id":"fe1bfd0f-38fb-4e70-9bf4-81a0745aecbe","system_id":"levelo_inurba_marseille","lat":43.28384,"lon":5.38626,"is_reserved":false,"is_disabled":false,"rental_uris":{"android":"levelo://app?vid=fe1bfd0f-38fb-4e70-9bf4-81a0745aecbe","ios":"levelo://app?vid=fe1bfd0f-38fb-4e70-9bf4-81a0745aecbe"},"vehicle_type_id":"4","last_reported":1727158384,"current_range_meters":32800,"station_id":"","pricing_plan_id":"cebpf4jnsgd1na2vs0mg"},{"bike_id":"a0c97515-3c94-4a97-8379-f7b7767cc614","system_id":"levelo_inurba_marseille","lat":43.24078,"lon":5.37757,"is_reserved":false,"is_disabled":false,"rental_uris":{"android":"levelo://app?vid=a0c97515-3c94-4a97-8379-f7b7767cc614","ios":"levelo://app?vid=a0c97515-3c94-4a97-8379-f7b7767cc614"},"vehicle_type_id":"4","last_reported":1727158384,"current_range_meters":26800,"station_id":"ce4bhnp2rcd13ifvqgvg","pricing_plan_id":"cebpf4jnsgd1na2vs0mg"},{"bike_id":"bd917693-7794-477a-bbac-4e8ac6e75145","system_id":"levelo_inurba_marseille","lat":43.30284,"lon":5.37724,"is_reserved":false,"is_disabled":false,"rental_uris":{"android":"levelo://app?vid=bd917693-7794-477a-bbac-4e8ac6e75145","ios":"levelo://app?vid=bd917693-7794-477a-bbac-4e8ac6e75145"},"vehicle_type_id":"4","last_reported":1727158384,"current_range_meters":29600,"station_id":"ce4bguh2rcd13ifvqcj0","pricing_plan_id":"cebpf4jnsgd1na2vs0mg"},{"bike_id":"4af9e5ca-9e56-4632-b227-0f5a30ce9b0d","system_id":"levelo_inurba_marseille","lat":43.2971,"lon":5.36618,"is_reserved":false,"is_disabled":false,"rental_uris":{"android":"levelo://app?vid=4af9e5ca-9e56-4632-b227-0f5a30ce9b0d","ios":"levelo://app?vid=4af9e5ca-9e56-4632-b227-0f5a30ce9b0d"},"vehicle_type_id":"4","last_reported":1727158384,"current_range_meters":33200,"station_id":"ce4bgn12rcd13ifvqbt0","pricing_plan_id":"cebpf4jnsgd1na2vs0mg"},{"bike_id":"4876bfd1-c475-4122-aef2-52fad00d3fc2","system_id":"levelo_inurba_marseille","lat":43.282928,"lon":5.385144,"is_reserved":false,"is_disabled":false,"rental_uris":{"android":"levelo://app?vid=4876bfd1-c475-4122-aef2-52fad00d3fc2","ios":"levelo://app?vid=4876bfd1-c475-4122-aef2-52fad00d3fc2"},"vehicle_type_id":"4","last_reported":1727158384,"current_range_meters":29600,"station_id":"","pricing_plan_id":"cebpf4jnsgd1na2vs0mg"},{"bike_id":"fce4c3c1-622f-4010-980f-7950b369c25e","system_id":"levelo_inurba_marseille","lat":43.30464,"lon":5.37911,"is_reserved":false,"is_disabled":false,"rental_uris":{"android":"levelo://app?vid=fce4c3c1-622f-4010-980f-7950b369c25e","ios":"levelo://app?vid=fce4c3c1-622f-4010-980f-7950b369c25e"},"vehicle_type_id":"4","last_reported":1727158384,"current_range_meters":37600,"station_id":"ce4bgup2rcd13ifvqcn0","pricing_plan_id":"cebpf4jnsgd1na2vs0mg"},{"bike_id":"dde37c46-a508-466b-8733-5293af20f3c3","system_id":"levelo_inurba_marseille","lat":43.33728,"lon":5.39175,"is_reserved":false,"is_disabled":false,"rental_uris":{"android":"levelo://app?vid=dde37c46-a508-466b-8733-5293af20f3c3","ios":"levelo://app?vid=dde37c46-a508-466b-8733-5293af20f3c3"},"vehicle_type_id":"4","last_reported":1727158384,"current_range_meters":37600,"station_id":"ce4bhr92rcd13ifvqhsg","pricing_plan_id":"cebpf4jnsgd1na2vs0mg"},{"bike_id":"4d248d67-7876-4d4b-a4d0-58c880f6e169","system_id":"levelo_inurba_marseille","lat":43.30146,"lon":5.37421,"is_reserved":false,"is_disabled":false,"rental_uris":{"android":"levelo://app?vid=4d248d67-7876-4d4b-a4d0-58c880f6e169","ios":"levelo://app?vid=4d248d67-7876-4d4b-a4d0-58c880f6e169"},"vehicle_type_id":"4","last_reported":1727158384,"current_range_meters":37600,"station_id":"ce4bgs92rcd13ifvqcc0","pricing_plan_id":"cebpf4jnsgd1na2vs0mg"},{"bike_id":"3813a0ad-5bc5-4993-8d75-fb2d96e4608d","system_id":"levelo_inurba_marseille","lat":43.28937,"lon":5.38766,"is_reserved":false,"is_disabled":false,"rental_uris":{"android":"levelo://app?vid=3813a0ad-5bc5-4993-8d75-fb2d96e4608d","ios":"levelo://app?vid=3813a0ad-5bc5-4993-8d75-fb2d96e4608d"},"vehicle_type_id":"4","last_reported":1727158384,"current_range_meters":34000,"station_id":"","pricing_plan_id":"cebpf4jnsgd1na2vs0mg"},{"bike_id":"bb0fcbbf-9208-4d81-a26c-d9b369e31748","system_id":"levelo_inurba_marseille","lat":43.27493,"lon":5.42452,"is_reserved":false,"is_disabled":false,"rental_uris":{"android":"levelo://app?vid=bb0fcbbf-9208-4d81-a26c-d9b369e31748","ios":"levelo://app?vid=bb0fcbbf-9208-4d81-a26c-d9b369e31748"},"vehicle_type_id":"4","last_reported":1727158384,"current_range_meters":4800,"station_id":"ce4bhn92rcd13ifvqgrg","pricing_plan_id":"cebpf4jnsgd1na2vs0mg"},{"bike_id":"313886ea-d7e6-4f46-88c2-d20fced15e63","system_id":"levelo_inurba_marseille","lat":43.27492,"lon":5.42453,"is_reserved":false,"is_disabled":false,"rental_uris":{"android":"levelo://app?vid=313886ea-d7e6-4f46-88c2-d20fced15e63","ios":"levelo://app?vid=313886ea-d7e6-4f46-88c2-d20fced15e63"},"vehicle_type_id":"4","last_reported":1727158384,"current_range_meters":7200,"station_id":"ce4bhn92rcd13ifvqgrg","pricing_plan_id":"cebpf4jnsgd1na2vs0mg"},{"bike_id":"1711c268-4d22-4a77-8ad1-c137e01a4a75","system_id":"levelo_inurba_marseille","lat":43.27916,"lon":5.39564,"is_reserved":false,"is_disabled":false,"rental_uris":{"android":"levelo://app?vid=1711c268-4d22-4a77-8ad1-c137e01a4a75","ios":"levelo://app?vid=1711c268-4d22-4a77-8ad1-c137e01a4a75"},"vehicle_type_id":"4","last_reported":1727158384,"current_range_meters":38400,"station_id":"ce4bhf92rcd13ifvqf40","pricing_plan_id":"cebpf4jnsgd1na2vs0mg"},{"bike_id":"4a4bfd88-bdfc-4802-b3a8-e798e4274727","system_id":"levelo_inurba_marseille","lat":43.32285,"lon":5.38266,"is_reserved":false,"is_disabled":false,"rental_uris":{"android":"levelo://app?vid=4a4bfd88-bdfc-4802-b3a8-e798e4274727","ios":"levelo://app?vid=4a4bfd88-bdfc-4802-b3a8-e798e4274727"},"vehicle_type_id":"4","last_reported":1727158384,"current_range_meters":35200,"station_id":"ce4bhr12rcd13ifvqhqg","pricing_plan_id":"cebpf4jnsgd1na2vs0mg"},{"bike_id":"fe9291c0-c1e0-47d3-902d-7bd90e99bf30","system_id":"levelo_inurba_marseille","lat":43.25935,"lon":5.40912,"is_reserved":false,"is_disabled":false,"rental_uris":{"android":"levelo://app?vid=fe9291c0-c1e0-47d3-902d-7bd90e99bf30","ios":"levelo://app?vid=fe9291c0-c1e0-47d3-902d-7bd90e99bf30"},"vehicle_type_id":"4","last_reported":1727158384,"current_range_meters":38800,"station_id":"ce4bhm92rcd13ifvqglg","pricing_plan_id":"cebpf4jnsgd1na2vs0mg"},{"bike_id":"16025190-b6fd-4952-9fe4-e261a790747d","system_id":"levelo_inurba_marseille","lat":43.2655,"lon":5.37288,"is_reserved":false,"is_disabled":false,"rental_uris":{"android":"levelo://app?vid=16025190-b6fd-4952-9fe4-e261a790747d","ios":"levelo://app?vid=16025190-b6fd-4952-9fe4-e261a790747d"},"vehicle_type_id":"4","last_reported":1727158384,"current_range_meters":38400,"station_id":"ce4bhg12rcd13ifvqf70","pricing_plan_id":"cebpf4jnsgd1na2vs0mg"},{"bike_id":"e883bbc8-dc82-4b98-9264-d1429d2000f5","system_id":"levelo_inurba_marseille","lat":43.30465,"lon":5.37906,"is_reserved":false,"is_disabled":false,"rental_uris":{"android":"levelo://app?vid=e883bbc8-dc82-4b98-9264-d1429d2000f5","ios":"levelo://app?vid=e883bbc8-dc82-4b98-9264-d1429d2000f5"},"vehicle_type_id":"4","last_reported":1727158384,"current_range_meters":38800,"station_id":"ce4bgup2rcd13ifvqcn0","pricing_plan_id":"cebpf4jnsgd1na2vs0mg"},{"bike_id":"822919aa-46dd-45ec-82ef-b2d2cb31a394","system_id":"levelo_inurba_marseille","lat":43.24552,"lon":5.39523,"is_reserved":false,"is_disabled":false,"rental_uris":{"android":"levelo://app?vid=822919aa-46dd-45ec-82ef-b2d2cb31a394","ios":"levelo://app?vid=822919aa-46dd-45ec-82ef-b2d2cb31a394"},"vehicle_type_id":"4","last_reported":1727158384,"current_range_meters":30800,"station_id":"ce4bhlp2rcd13ifvqgjg","pricing_plan_id":"cebpf4jnsgd1na2vs0mg"},{"bike_id":"1c7e4786-9ca9-4f60-a6d4-ec885e073639","system_id":"levelo_inurba_marseille","lat":43.27498,"lon":5.42444,"is_reserved":false,"is_disabled":false,"rental_uris":{"android":"levelo://app?vid=1c7e4786-9ca9-4f60-a6d4-ec885e073639","ios":"levelo://app?vid=1c7e4786-9ca9-4f60-a6d4-ec885e073639"},"vehicle_type_id":"4","last_reported":1727158384,"current_range_meters":38800,"station_id":"ce4bhn92rcd13ifvqgrg","pricing_plan_id":"cebpf4jnsgd1na2vs0mg"},{"bike_id":"9306918d-16fb-4e72-911c-99481f45834e","system_id":"levelo_inurba_marseille","lat":43.29034,"lon":5.39968,"is_reserved":false,"is_disabled":false,"rental_uris":{"android":"levelo://app?vid=9306918d-16fb-4e72-911c-99481f45834e","ios":"levelo://app?vid=9306918d-16fb-4e72-911c-99481f45834e"},"vehicle_type_id":"4","last_reported":1727158384,"current_range_meters":6800,"station_id":"ce4bh392rcd13ifvqdm0","pricing_plan_id":"cebpf4jnsgd1na2vs0mg"},{"bike_id":"696c13d1-0cb2-402b-905e-76a93b22de56","system_id":"levelo_inurba_marseille","lat":43.28355,"lon":5.38636,"is_reserved":false,"is_disabled":false,"rental_uris":{"android":"levelo://app?vid=696c13d1-0cb2-402b-905e-76a93b22de56","ios":"levelo://app?vid=696c13d1-0cb2-402b-905e-76a93b22de56"},"vehicle_type_id":"4","last_reported":1727158384,"current_range_meters":38800,"station_id":"ce4bh492rcd13ifvqdvg","pricing_plan_id":"cebpf4jnsgd1na2vs0mg"},{"bike_id":"0a63d8a5-7266-48af-833c-64516b763cd6","system_id":"levelo_inurba_marseille","lat":43.24084,"lon":5.37749,"is_reserved":false,"is_disabled":false,"rental_uris":{"android":"levelo://app?vid=0a63d8a5-7266-48af-833c-64516b763cd6","ios":"levelo://app?vid=0a63d8a5-7266-48af-833c-64516b763cd6"},"vehicle_type_id":"4","last_reported":1727158384,"current_range_meters":36000,"station_id":"ce4bhnp2rcd13ifvqgvg","pricing_plan_id":"cebpf4jnsgd1na2vs0mg"},{"bike_id":"94164b84-1e1c-4013-8c12-9b98cc4fa11b","system_id":"levelo_inurba_marseille","lat":43.28146,"lon":5.42484,"is_reserved":false,"is_disabled":false,"rental_uris":{"android":"levelo://app?vid=94164b84-1e1c-4013-8c12-9b98cc4fa11b","ios":"levelo://app?vid=94164b84-1e1c-4013-8c12-9b98cc4fa11b"},"vehicle_type_id":"4","last_reported":1727158384,"current_range_meters":23200,"station_id":"ce4bhnh2rcd13ifvqgug","pricing_plan_id":"cebpf4jnsgd1na2vs0mg"},{"bike_id":"e8033bc9-7f8c-43a9-94d0-446a78b4cf1d","system_id":"levelo_inurba_marseille","lat":43.30463,"lon":5.37915,"is_reserved":false,"is_disabled":false,"rental_uris":{"android":"levelo://app?vid=e8033bc9-7f8c-43a9-94d0-446a78b4cf1d","ios":"levelo://app?vid=e8033bc9-7f8c-43a9-94d0-446a78b4cf1d"},"vehicle_type_id":"4","last_reported":1727158384,"current_range_meters":34800,"station_id":"ce4bgup2rcd13ifvqcn0","pricing_plan_id":"cebpf4jnsgd1na2vs0mg"},{"bike_id":"527f8512-3393-48f9-8f7c-a7d320ece1f5","system_id":"levelo_inurba_marseille","lat":43.3361,"lon":5.41023,"is_reserved":false,"is_disabled":false,"rental_uris":{"android":"levelo://app?vid=527f8512-3393-48f9-8f7c-a7d320ece1f5","ios":"levelo://app?vid=527f8512-3393-48f9-8f7c-a7d320ece1f5"},"vehicle_type_id":"4","last_reported":1727158384,"current_range_meters":36800,"station_id":"ce4bhqh2rcd13ifvqhmg","pricing_plan_id":"cebpf4jnsgd1na2vs0mg"},{"bike_id":"ede37da0-431f-462e-af97-45c71435ab2a","system_id":"levelo_inurba_marseille","lat":43.24179,"lon":5.39707,"is_reserved":false,"is_disabled":false,"rental_uris":{"android":"levelo://app?vid=ede37da0-431f-462e-af97-45c71435ab2a","ios":"levelo://app?vid=ede37da0-431f-462e-af97-45c71435ab2a"},"vehicle_type_id":"4","last_reported":1727158384,"current_range_meters":27600,"station_id":"ce4bhn12rcd13ifvqgpg","pricing_plan_id":"cebpf4jnsgd1na2vs0mg"},{"bike_id":"c52bdf96-a8e0-4ef3-a0af-6238729d4aae","system_id":"levelo_inurba_marseille","lat":43.27496,"lon":5.42451,"is_reserved":false,"is_disabled":false,"rental_uris":{"android":"levelo://app?vid=c52bdf96-a8e0-4ef3-a0af-6238729d4aae","ios":"levelo://app?vid=c52bdf96-a8e0-4ef3-a0af-6238729d4aae"},"vehicle_type_id":"4","last_reported":1727158384,"current_range_meters":19200,"station_id":"ce4bhn92rcd13ifvqgrg","pricing_plan_id":"cebpf4jnsgd1na2vs0mg"},{"bike_id":"74ae7fe3-fda5-4c0f-a670-8a62314004d4","system_id":"levelo_inurba_marseille","lat":43.34148,"lon":5.40905,"is_reserved":false,"is_disabled":false,"rental_uris":{"android":"levelo://app?vid=74ae7fe3-fda5-4c0f-a670-8a62314004d4","ios":"levelo://app?vid=74ae7fe3-fda5-4c0f-a670-8a62314004d4"},"vehicle_type_id":"4","last_reported":1727158384,"current_range_meters":36000,"station_id":"ce4bhqh2rcd13ifvqhlg","pricing_plan_id":"cebpf4jnsgd1na2vs0mg"},{"bike_id":"9fb3478f-69a7-4609-baa9-16096091213c","system_id":"levelo_inurba_marseille","lat":43.337444,"lon":5.374475,"is_reserved":false,"is_disabled":false,"rental_uris":{"android":"levelo://app?vid=9fb3478f-69a7-4609-baa9-16096091213c","ios":"levelo://app?vid=9fb3478f-69a7-4609-baa9-16096091213c"},"vehicle_type_id":"4","last_reported":1727158384,"current_range_meters":38800,"station_id":"","pricing_plan_id":"cebpf4jnsgd1na2vs0mg"},{"bike_id":"71fe9dd5-6eed-434e-abc0-108f9ba18246","system_id":"levelo_inurba_marseille","lat":43.3254,"lon":5.41438,"is_reserved":false,"is_disabled":false,"rental_uris":{"android":"levelo://app?vid=71fe9dd5-6eed-434e-abc0-108f9ba18246","ios":"levelo://app?vid=71fe9dd5-6eed-434e-abc0-108f9ba18246"},"vehicle_type_id":"4","last_reported":1727158384,"current_range_meters":38800,"station_id":"ce4bhq12rcd13ifvqhhg","pricing_plan_id":"cebpf4jnsgd1na2vs0mg"},{"bike_id":"d260216d-6d15-40b1-aec5-d1ea91efd176","system_id":"levelo_inurba_marseille","lat":43.28094,"lon":5.4063,"is_reserved":false,"is_disabled":false,"rental_uris":{"android":"levelo://app?vid=d260216d-6d15-40b1-aec5-d1ea91efd176","ios":"levelo://app?vid=d260216d-6d15-40b1-aec5-d1ea91efd176"},"vehicle_type_id":"4","last_reported":1727158384,"current_range_meters":6400,"station_id":"","pricing_plan_id":"cebpf4jnsgd1na2vs0mg"},{"bike_id":"6d702593-3c06-404e-81bb-6895273bfd64","system_id":"levelo_inurba_marseille","lat":43.306469,"lon":5.400803,"is_reserved":false,"is_disabled":false,"rental_uris":{"android":"levelo://app?vid=6d702593-3c06-404e-81bb-6895273bfd64","ios":"levelo://app?vid=6d702593-3c06-404e-81bb-6895273bfd64"},"vehicle_type_id":"4","last_reported":1727158384,"current_range_meters":36400,"station_id":"ce4bh0p2rcd13ifvqd80","pricing_plan_id":"cebpf4jnsgd1na2vs0mg"},{"bike_id":"eee18177-5d28-47ef-91d1-571a54b7fabc","system_id":"levelo_inurba_marseille","lat":43.27679,"lon":5.38861,"is_reserved":false,"is_disabled":false,"rental_uris":{"android":"levelo://app?vid=eee18177-5d28-47ef-91d1-571a54b7fabc","ios":"levelo://app?vid=eee18177-5d28-47ef-91d1-571a54b7fabc"},"vehicle_type_id":"4","last_reported":1727158384,"current_range_meters":28800,"station_id":"ce4bhip2rcd13ifvqft0","pricing_plan_id":"cebpf4jnsgd1na2vs0mg"},{"bike_id":"73896010-8da0-4dcf-85f6-6cc25841184e","system_id":"levelo_inurba_marseille","lat":43.30797,"lon":5.43526,"is_reserved":false,"is_disabled":false,"rental_uris":{"android":"levelo://app?vid=73896010-8da0-4dcf-85f6-6cc25841184e","ios":"levelo://app?vid=73896010-8da0-4dcf-85f6-6cc25841184e"},"vehicle_type_id":"4","last_reported":1727158384,"current_range_meters":8800,"station_id":"ce4bhph2rcd13ifvqheg","pricing_plan_id":"cebpf4jnsgd1na2vs0mg"},{"bike_id":"36a0fd46-93b1-40f5-88cc-a93c28e81a11","system_id":"levelo_inurba_marseille","lat":43.29559,"lon":5.42288,"is_reserved":false,"is_disabled":false,"rental_uris":{"android":"levelo://app?vid=36a0fd46-93b1-40f5-88cc-a93c28e81a11","ios":"levelo://app?vid=36a0fd46-93b1-40f5-88cc-a93c28e81a11"},"vehicle_type_id":"4","last_reported":1727158384,"current_range_meters":38800,"station_id":"ce4bhph2rcd13ifvqhdg","pricing_plan_id":"cebpf4jnsgd1na2vs0mg"},{"bike_id":"22569b9f-83a0-4920-b5f0-caee0e9b58ea","system_id":"levelo_inurba_marseille","lat":43.306,"lon":5.39357,"is_reserved":false,"is_disabled":false,"rental_uris":{"android":"levelo://app?vid=22569b9f-83a0-4920-b5f0-caee0e9b58ea","ios":"levelo://app?vid=22569b9f-83a0-4920-b5f0-caee0e9b58ea"},"vehicle_type_id":"4","last_reported":1727158384,"current_range_meters":38000,"station_id":"ce4bh0p2rcd13ifvqd80","pricing_plan_id":"cebpf4jnsgd1na2vs0mg"},{"bike_id":"c2570965-aeef-4477-9c93-50e3cd2aa807","system_id":"levelo_inurba_marseille","lat":43.30467,"lon":5.37908,"is_reserved":false,"is_disabled":false,"rental_uris":{"android":"levelo://app?vid=c2570965-aeef-4477-9c93-50e3cd2aa807","ios":"levelo://app?vid=c2570965-aeef-4477-9c93-50e3cd2aa807"},"vehicle_type_id":"4","last_reported":1727158384,"current_range_meters":38800,"station_id":"ce4bgup2rcd13ifvqcn0","pricing_plan_id":"cebpf4jnsgd1na2vs0mg"},{"bike_id":"4d48d42a-04a8-48fd-b6b5-a41934e0147b","system_id":"levelo_inurba_marseille","lat":43.33606,"lon":5.41039,"is_reserved":false,"is_disabled":false,"rental_uris":{"android":"levelo://app?vid=4d48d42a-04a8-48fd-b6b5-a41934e0147b","ios":"levelo://app?vid=4d48d42a-04a8-48fd-b6b5-a41934e0147b"},"vehicle_type_id":"4","last_reported":1727158384,"current_range_meters":21600,"station_id":"ce4bhqh2rcd13ifvqhmg","pricing_plan_id":"cebpf4jnsgd1na2vs0mg"},{"bike_id":"9891a164-a133-4325-b42b-db1c3f9ad654","system_id":"levelo_inurba_marseille","lat":43.23969,"lon":5.36623,"is_reserved":false,"is_disabled":false,"rental_uris":{"android":"levelo://app?vid=9891a164-a133-4325-b42b-db1c3f9ad654","ios":"levelo://app?vid=9891a164-a133-4325-b42b-db1c3f9ad654"},"vehicle_type_id":"4","last_reported":1727158384,"current_range_meters":38000,"station_id":"ce4bhi12rcd13ifvqfp0","pricing_plan_id":"cebpf4jnsgd1na2vs0mg"},{"bike_id":"2f722304-4d8c-445f-80b4-cf418baf785f","system_id":"levelo_inurba_marseille","lat":43.3015,"lon":5.38072,"is_reserved":false,"is_disabled":false,"rental_uris":{"android":"levelo://app?vid=2f722304-4d8c-445f-80b4-cf418baf785f","ios":"levelo://app?vid=2f722304-4d8c-445f-80b4-cf418baf785f"},"vehicle_type_id":"4","last_reported":1727158384,"current_range_meters":37600,"station_id":"ce4bgjp2rcd13ifvqbh0","pricing_plan_id":"cebpf4jnsgd1na2vs0mg"},{"bike_id":"7ac9ac04-d507-4621-a141-c6549ae8e283","system_id":"levelo_inurba_marseille","lat":43.30467,"lon":5.37912,"is_reserved":false,"is_disabled":false,"rental_uris":{"android":"levelo://app?vid=7ac9ac04-d507-4621-a141-c6549ae8e283","ios":"levelo://app?vid=7ac9ac04-d507-4621-a141-c6549ae8e283"},"vehicle_type_id":"4","last_reported":1727158384,"current_range_meters":8800,"station_id":"ce4bgup2rcd13ifvqcn0","pricing_plan_id":"cebpf4jnsgd1na2vs0mg"},{"bike_id":"773ab278-8fe8-4ef2-9130-a31f1a8853aa","system_id":"levelo_inurba_marseille","lat":43.23153,"lon":5.43722,"is_reserved":false,"is_disabled":false,"rental_uris":{"android":"levelo://app?vid=773ab278-8fe8-4ef2-9130-a31f1a8853aa","ios":"levelo://app?vid=773ab278-8fe8-4ef2-9130-a31f1a8853aa"},"vehicle_type_id":"4","last_reported":1727158384,"current_range_meters":28800,"station_id":"ce4bhmp2rcd13ifvqgog","pricing_plan_id":"cebpf4jnsgd1na2vs0mg"},{"bike_id":"35be4688-6680-4c6e-8986-6b48e8be9ac6","system_id":"levelo_inurba_marseille","lat":43.27495,"lon":5.42454,"is_reserved":false,"is_disabled":false,"rental_uris":{"android":"levelo://app?vid=35be4688-6680-4c6e-8986-6b48e8be9ac6","ios":"levelo://app?vid=35be4688-6680-4c6e-8986-6b48e8be9ac6"},"vehicle_type_id":"4","last_reported":1727158384,"current_range_meters":25600,"station_id":"ce4bhn92rcd13ifvqgrg","pricing_plan_id":"cebpf4jnsgd1na2vs0mg"},{"bike_id":"4e13cf06-e690-4ea5-a3d1-37dec1c56528","system_id":"levelo_inurba_marseille","lat":43.23187,"lon":5.3999,"is_reserved":false,"is_disabled":false,"rental_uris":{"android":"levelo://app?vid=4e13cf06-e690-4ea5-a3d1-37dec1c56528","ios":"levelo://app?vid=4e13cf06-e690-4ea5-a3d1-37dec1c56528"},"vehicle_type_id":"4","last_reported":1727158384,"current_range_meters":38000,"station_id":"ce4bhn12rcd13ifvqgqg","pricing_plan_id":"cebpf4jnsgd1na2vs0mg"},{"bike_id":"412f8e99-07a1-4858-bf58-4ffd871bcd0c","system_id":"levelo_inurba_marseille","lat":43.32686,"lon":5.41345,"is_reserved":false,"is_disabled":false,"rental_uris":{"android":"levelo://app?vid=412f8e99-07a1-4858-bf58-4ffd871bcd0c","ios":"levelo://app?vid=412f8e99-07a1-4858-bf58-4ffd871bcd0c"},"vehicle_type_id":"4","last_reported":1727158384,"current_range_meters":14400,"station_id":"","pricing_plan_id":"cebpf4jnsgd1na2vs0mg"},{"bike_id":"a42499d3-0e1f-40d7-a00e-fafb898d43b9","system_id":"levelo_inurba_marseille","lat":43.31186,"lon":5.38712,"is_reserved":false,"is_disabled":false,"rental_uris":{"android":"levelo://app?vid=a42499d3-0e1f-40d7-a00e-fafb898d43b9","ios":"levelo://app?vid=a42499d3-0e1f-40d7-a00e-fafb898d43b9"},"vehicle_type_id":"4","last_reported":1727158384,"current_range_meters":38000,"station_id":"ce4bgv12rcd13ifvqcp0","pricing_plan_id":"cebpf4jnsgd1na2vs0mg"},{"bike_id":"9c19aef1-b442-470b-8ebf-d6d985c879d2","system_id":"levelo_inurba_marseille","lat":43.305934,"lon":5.393654,"is_reserved":false,"is_disabled":false,"rental_uris":{"android":"levelo://app?vid=9c19aef1-b442-470b-8ebf-d6d985c879d2","ios":"levelo://app?vid=9c19aef1-b442-470b-8ebf-d6d985c879d2"},"vehicle_type_id":"4","last_reported":1727158384,"current_range_meters":11200,"station_id":"ce4bh0p2rcd13ifvqd80","pricing_plan_id":"cebpf4jnsgd1na2vs0mg"},{"bike_id":"28f85a09-d048-4378-a0de-d11e2aba0e1f","system_id":"levelo_inurba_marseille","lat":43.30457,"lon":5.37905,"is_reserved":false,"is_disabled":false,"rental_uris":{"android":"levelo://app?vid=28f85a09-d048-4378-a0de-d11e2aba0e1f","ios":"levelo://app?vid=28f85a09-d048-4378-a0de-d11e2aba0e1f"},"vehicle_type_id":"4","last_reported":1727158384,"current_range_meters":32400,"station_id":"ce4bgup2rcd13ifvqcn0","pricing_plan_id":"cebpf4jnsgd1na2vs0mg"},{"bike_id":"7f6cbd5d-5407-4588-b25e-4959c8ba52e5","system_id":"levelo_inurba_marseille","lat":43.30464,"lon":5.37907,"is_reserved":false,"is_disabled":false,"rental_uris":{"android":"levelo://app?vid=7f6cbd5d-5407-4588-b25e-4959c8ba52e5","ios":"levelo://app?vid=7f6cbd5d-5407-4588-b25e-4959c8ba52e5"},"vehicle_type_id":"4","last_reported":1727158384,"current_range_meters":38800,"station_id":"ce4bgup2rcd13ifvqcn0","pricing_plan_id":"cebpf4jnsgd1na2vs0mg"},{"bike_id":"b9de7a58-5570-4899-9bf0-e6aaac917e1b","system_id":"levelo_inurba_marseille","lat":43.24179,"lon":5.39724,"is_reserved":false,"is_disabled":false,"rental_uris":{"android":"levelo://app?vid=b9de7a58-5570-4899-9bf0-e6aaac917e1b","ios":"levelo://app?vid=b9de7a58-5570-4899-9bf0-e6aaac917e1b"},"vehicle_type_id":"4","last_reported":1727158384,"current_range_meters":2800,"station_id":"ce4bhn12rcd13ifvqgpg","pricing_plan_id":"cebpf4jnsgd1na2vs0mg"},{"bike_id":"38c04688-83a6-408b-a36b-57f1f4a3dca3","system_id":"levelo_inurba_marseille","lat":43.25503,"lon":5.3765,"is_reserved":false,"is_disabled":false,"rental_uris":{"android":"levelo://app?vid=38c04688-83a6-408b-a36b-57f1f4a3dca3","ios":"levelo://app?vid=38c04688-83a6-408b-a36b-57f1f4a3dca3"},"vehicle_type_id":"4","last_reported":1727158384,"current_range_meters":38000,"station_id":"ce4bhh12rcd13ifvqff0","pricing_plan_id":"cebpf4jnsgd1na2vs0mg"},{"bike_id":"23eace7c-02f7-4da1-ab3d-2faaa2ba0b30","system_id":"levelo_inurba_marseille","lat":43.25016,"lon":5.37534,"is_reserved":false,"is_disabled":false,"rental_uris":{"android":"levelo://app?vid=23eace7c-02f7-4da1-ab3d-2faaa2ba0b30","ios":"levelo://app?vid=23eace7c-02f7-4da1-ab3d-2faaa2ba0b30"},"vehicle_type_id":"4","last_reported":1727158384,"current_range_meters":30000,"station_id":"","pricing_plan_id":"cebpf4jnsgd1na2vs0mg"},{"bike_id":"5551ac13-7f3a-49b7-b065-e48bf4ad0975","system_id":"levelo_inurba_marseille","lat":43.33608,"lon":5.41031,"is_reserved":false,"is_disabled":false,"rental_uris":{"android":"levelo://app?vid=5551ac13-7f3a-49b7-b065-e48bf4ad0975","ios":"levelo://app?vid=5551ac13-7f3a-49b7-b065-e48bf4ad0975"},"vehicle_type_id":"4","last_reported":1727158384,"current_range_meters":32400,"station_id":"ce4bhqh2rcd13ifvqhmg","pricing_plan_id":"cebpf4jnsgd1na2vs0mg"},{"bike_id":"c812068d-3ac5-480e-97e2-f84e7fe418f0","system_id":"levelo_inurba_marseille","lat":43.30466,"lon":5.3791,"is_reserved":false,"is_disabled":false,"rental_uris":{"android":"levelo://app?vid=c812068d-3ac5-480e-97e2-f84e7fe418f0","ios":"levelo://app?vid=c812068d-3ac5-480e-97e2-f84e7fe418f0"},"vehicle_type_id":"4","last_reported":1727158384,"current_range_meters":32800,"station_id":"ce4bgup2rcd13ifvqcn0","pricing_plan_id":"cebpf4jnsgd1na2vs0mg"},{"bike_id":"f5567d73-39f7-4cc3-838a-d554fff02b7b","system_id":"levelo_inurba_marseille","lat":43.28616,"lon":5.37066,"is_reserved":false,"is_disabled":false,"rental_uris":{"android":"levelo://app?vid=f5567d73-39f7-4cc3-838a-d554fff02b7b","ios":"levelo://app?vid=f5567d73-39f7-4cc3-838a-d554fff02b7b"},"vehicle_type_id":"4","last_reported":1727158384,"current_range_meters":38800,"station_id":"ce4bht12rcd13ifvqi60","pricing_plan_id":"cebpf4jnsgd1na2vs0mg"},{"bike_id":"a0a998b7-2873-4964-9f71-ffb3fcb85933","system_id":"levelo_inurba_marseille","lat":43.31086,"lon":5.42428,"is_reserved":false,"is_disabled":false,"rental_uris":{"android":"levelo://app?vid=a0a998b7-2873-4964-9f71-ffb3fcb85933","ios":"levelo://app?vid=a0a998b7-2873-4964-9f71-ffb3fcb85933"},"vehicle_type_id":"4","last_reported":1727158384,"current_range_meters":17600,"station_id":"ce4bhp92rcd13ifvqhag","pricing_plan_id":"cebpf4jnsgd1na2vs0mg"},{"bike_id":"13cb7a0b-e4aa-4a7f-87a7-1f2d0a0adbad","system_id":"levelo_inurba_marseille","lat":43.283398,"lon":5.381086,"is_reserved":false,"is_disabled":false,"rental_uris":{"android":"levelo://app?vid=13cb7a0b-e4aa-4a7f-87a7-1f2d0a0adbad","ios":"levelo://app?vid=13cb7a0b-e4aa-4a7f-87a7-1f2d0a0adbad"},"vehicle_type_id":"4","last_reported":1727158384,"current_range_meters":22400,"station_id":"ce4bh412rcd13ifvqdr0","pricing_plan_id":"cebpf4jnsgd1na2vs0mg"},{"bike_id":"a4531c9c-0dd8-49b1-b635-dd7a68db825f","system_id":"levelo_inurba_marseille","lat":43.22929,"lon":5.35379,"is_reserved":false,"is_disabled":false,"rental_uris":{"android":"levelo://app?vid=a4531c9c-0dd8-49b1-b635-dd7a68db825f","ios":"levelo://app?vid=a4531c9c-0dd8-49b1-b635-dd7a68db825f"},"vehicle_type_id":"4","last_reported":1727158384,"current_range_meters":38800,"station_id":"cpo3532slgdg3j2ikp40","pricing_plan_id":"cebpf4jnsgd1na2vs0mg"},{"bike_id":"f20ec017-ac0f-433b-8697-6f9f747e8305","system_id":"levelo_inurba_marseille","lat":43.304669,"lon":5.37906,"is_reserved":false,"is_disabled":false,"rental_uris":{"android":"levelo://app?vid=f20ec017-ac0f-433b-8697-6f9f747e8305","ios":"levelo://app?vid=f20ec017-ac0f-433b-8697-6f9f747e8305"},"vehicle_type_id":"4","last_reported":1727158384,"current_range_meters":7200,"station_id":"ce4bgup2rcd13ifvqcn0","pricing_plan_id":"cebpf4jnsgd1na2vs0mg"},{"bike_id":"1619d2d2-7956-4507-a582-5e30a2a866c9","system_id":"levelo_inurba_marseille","lat":43.24075,"lon":5.37759,"is_reserved":false,"is_disabled":false,"rental_uris":{"android":"levelo://app?vid=1619d2d2-7956-4507-a582-5e30a2a866c9","ios":"levelo://app?vid=1619d2d2-7956-4507-a582-5e30a2a866c9"},"vehicle_type_id":"4","last_reported":1727158384,"current_range_meters":21600,"station_id":"ce4bhnp2rcd13ifvqgvg","pricing_plan_id":"cebpf4jnsgd1na2vs0mg"},{"bike_id":"474278e4-fdc9-4dbc-8391-6c8131287588","system_id":"levelo_inurba_marseille","lat":43.30151,"lon":5.3809,"is_reserved":false,"is_disabled":false,"rental_uris":{"android":"levelo://app?vid=474278e4-fdc9-4dbc-8391-6c8131287588","ios":"levelo://app?vid=474278e4-fdc9-4dbc-8391-6c8131287588"},"vehicle_type_id":"4","last_reported":1727158384,"current_range_meters":34800,"station_id":"ce4bgjp2rcd13ifvqbh0","pricing_plan_id":"cebpf4jnsgd1na2vs0mg"},{"bike_id":"e1bc583a-f225-400f-9873-97158aef3cc6","system_id":"levelo_inurba_marseille","lat":43.30231,"lon":5.40055,"is_reserved":false,"is_disabled":false,"rental_uris":{"android":"levelo://app?vid=e1bc583a-f225-400f-9873-97158aef3cc6","ios":"levelo://app?vid=e1bc583a-f225-400f-9873-97158aef3cc6"},"vehicle_type_id":"4","last_reported":1727158384,"current_range_meters":22000,"station_id":"chh1huq6cuj3fo74tm60","pricing_plan_id":"cebpf4jnsgd1na2vs0mg"},{"bike_id":"4e817c6c-8f49-4902-8f76-f393e8479bc0","system_id":"levelo_inurba_marseille","lat":43.24082,"lon":5.37748,"is_reserved":false,"is_disabled":false,"rental_uris":{"android":"levelo://app?vid=4e817c6c-8f49-4902-8f76-f393e8479bc0","ios":"levelo://app?vid=4e817c6c-8f49-4902-8f76-f393e8479bc0"},"vehicle_type_id":"4","last_reported":1727158384,"current_range_meters":33600,"station_id":"ce4bhnp2rcd13ifvqgvg","pricing_plan_id":"cebpf4jnsgd1na2vs0mg"},{"bike_id":"9cb6a479-0c9e-4653-9e48-a1daadebee35","system_id":"levelo_inurba_marseille","lat":43.28711,"lon":5.37922,"is_reserved":false,"is_disabled":false,"rental_uris":{"android":"levelo://app?vid=9cb6a479-0c9e-4653-9e48-a1daadebee35","ios":"levelo://app?vid=9cb6a479-0c9e-4653-9e48-a1daadebee35"},"vehicle_type_id":"4","last_reported":1727158384,"current_range_meters":25600,"station_id":"ce4bh9p2rcd13ifvqec0","pricing_plan_id":"cebpf4jnsgd1na2vs0mg"},{"bike_id":"f684ce4d-051a-4637-9468-f18317054e07","system_id":"levelo_inurba_marseille","lat":43.26569,"lon":5.39011,"is_reserved":false,"is_disabled":false,"rental_uris":{"android":"levelo://app?vid=f684ce4d-051a-4637-9468-f18317054e07","ios":"levelo://app?vid=f684ce4d-051a-4637-9468-f18317054e07"},"vehicle_type_id":"4","last_reported":1727158384,"current_range_meters":34000,"station_id":"ce4bhe12rcd13ifvqf30","pricing_plan_id":"cebpf4jnsgd1na2vs0mg"},{"bike_id":"76444aa2-19b1-44dd-8652-85ef47b3a931","system_id":"levelo_inurba_marseille","lat":43.30545,"lon":5.3842,"is_reserved":false,"is_disabled":false,"rental_uris":{"android":"levelo://app?vid=76444aa2-19b1-44dd-8652-85ef47b3a931","ios":"levelo://app?vid=76444aa2-19b1-44dd-8652-85ef47b3a931"},"vehicle_type_id":"4","last_reported":1727158384,"current_range_meters":32000,"station_id":"ce4bgg92rcd13ifvqb30","pricing_plan_id":"cebpf4jnsgd1na2vs0mg"},{"bike_id":"5b1655ff-6400-4636-a7ee-70f90da36781","system_id":"levelo_inurba_marseille","lat":43.26192,"lon":5.37453,"is_reserved":false,"is_disabled":false,"rental_uris":{"android":"levelo://app?vid=5b1655ff-6400-4636-a7ee-70f90da36781","ios":"levelo://app?vid=5b1655ff-6400-4636-a7ee-70f90da36781"},"vehicle_type_id":"4","last_reported":1727158384,"current_range_meters":38000,"station_id":"ce4bhgp2rcd13ifvqfc0","pricing_plan_id":"cebpf4jnsgd1na2vs0mg"},{"bike_id":"95c27899-7b5f-439e-85ad-f105d7bee900","system_id":"levelo_inurba_marseille","lat":43.29567,"lon":5.39967,"is_reserved":false,"is_disabled":false,"rental_uris":{"android":"levelo://app?vid=95c27899-7b5f-439e-85ad-f105d7bee900","ios":"levelo://app?vid=95c27899-7b5f-439e-85ad-f105d7bee900"},"vehicle_type_id":"4","last_reported":1727158384,"current_range_meters":38000,"station_id":"ce4bh312rcd13ifvqdj0","pricing_plan_id":"cebpf4jnsgd1na2vs0mg"},{"bike_id":"80e7ba47-93a0-4ea1-baa0-398d96327b89","system_id":"levelo_inurba_marseille","lat":43.30165,"lon":5.3807,"is_reserved":false,"is_disabled":false,"rental_uris":{"android":"levelo://app?vid=80e7ba47-93a0-4ea1-baa0-398d96327b89","ios":"levelo://app?vid=80e7ba47-93a0-4ea1-baa0-398d96327b89"},"vehicle_type_id":"4","last_reported":1727158384,"current_range_meters":36000,"station_id":"ce4bgjp2rcd13ifvqbh0","pricing_plan_id":"cebpf4jnsgd1na2vs0mg"},{"bike_id":"59e47a29-2499-41f0-83b9-ec7f7c20e37a","system_id":"levelo_inurba_marseille","lat":43.27666,"lon":5.38903,"is_reserved":false,"is_disabled":false,"rental_uris":{"android":"levelo://app?vid=59e47a29-2499-41f0-83b9-ec7f7c20e37a","ios":"levelo://app?vid=59e47a29-2499-41f0-83b9-ec7f7c20e37a"},"vehicle_type_id":"4","last_reported":1727158384,"current_range_meters":27600,"station_id":"ce4bhi12rcd13ifvqfo0","pricing_plan_id":"cebpf4jnsgd1na2vs0mg"},{"bike_id":"d3097c88-eabb-41e7-868b-70b9b14f7695","system_id":"levelo_inurba_marseille","lat":43.28155,"lon":5.42653,"is_reserved":false,"is_disabled":false,"rental_uris":{"android":"levelo://app?vid=d3097c88-eabb-41e7-868b-70b9b14f7695","ios":"levelo://app?vid=d3097c88-eabb-41e7-868b-70b9b14f7695"},"vehicle_type_id":"4","last_reported":1727158384,"current_range_meters":38000,"station_id":"ce4bhnh2rcd13ifvqgug","pricing_plan_id":"cebpf4jnsgd1na2vs0mg"},