{"last_updated":1678572386,"ttl":30,"version":"2.2","data":{"bikes":[{"bike_id":"39c06f1c-b06b-42ee-aee0-c00fc9ba0555","system_id":"levelo_inurba_marseille","lat":43.312239,"lon":5.368562,"is_reserved":false,"is_disabled":false,"rental_uris":{"android":"levelo://app?vid=39c06f1c-b06b-42ee-aee0-c00fc9ba0555","ios":"levelo://app?vid=39c06f1c-b06b-42ee-aee0-c00fc9ba0555"},"vehicle_type_id":"4","last_reported":1678572386,"current_range_meters":13600,"station_id":"ce4bgl92rcd13ifvqbq0","pricing_plan_id":"free"},{"bike_id":"a8f2d15d-2b6c-472e-aacd-8008d6ecc4cd","system_id":"levelo_inurba_marseille","lat":43.30896,"lon":5.36852,"is_reserved":false,"is_disabled":false,"rental_uris":{"android":"levelo://app?vid=a8f2d15d-2b6c-472e-aacd-8008d6ecc4cd","ios":"levelo://app?vid=a8f2d15d-2b6c-472e-aacd-8008d6ecc4cd"},"vehicle_type_id":"4","last_reported":1678572386,"current_range_meters":0,"station_id":"","pricing_plan_id":"free"},{"bike_id":"9b0ecea1-79c5-46f2-8e25-72eb520d02b3","system_id":"levelo_inurba_marseille","lat":43.314811,"lon":5.373103,"is_reserved":false,"is_disabled":false,"rental_uris":{"android":"levelo://app?vid=9b0ecea1-79c5-46f2-8e25-72eb520d02b3","ios":"levelo://app?vid=9b0ecea1-79c5-46f2-8e25-72eb520d02b3"},"vehicle_type_id":"4","last_reported":1678572386,"current_range_meters":26000,"station_id":"ce4bgt12rcd13ifvqcd0","pricing_plan_id":"free"},{"bike_id":"ccf42d3a-5a2a-44b4-8a68-aa47682ebb3c","system_id":"levelo_inurba_marseille","lat":43.31783,"lon":5.368083,"is_reserved":false,"is_disabled":false,"rental_uris":{"android":"levelo://app?vid=ccf42d3a-5a2a-44b4-8a68-aa47682ebb3c","ios":"levelo://app?vid=ccf42d3a-5a2a-44b4-8a68-aa47682ebb3c"},"vehicle_type_id":"4","last_reported":1678572386,"current_range_meters":12400,"station_id":"","pricing_plan_id":"free"},{"bike_id":"5a284dbb-abf1-44b7-bffb-e6c95d6b63d5","system_id":"levelo_inurba_marseille","lat":43.30894,"lon":5.371893,"is_reserved":false,"is_disabled":false,"rental_uris":{"android":"levelo://app?vid=5a284dbb-abf1-44b7-bffb-e6c95d6b63d5","ios":"levelo://app?vid=5a284dbb-abf1-44b7-bffb-e6c95d6b63d5"},"vehicle_type_id":"4","last_reported":1678572386,"current_range_meters":4000,"station_id":"","pricing_plan_id":"free"},{"bike_id":"249ae0de-eb71-4f3d-a010-dc8efcf1f4f0","system_id":"levelo_inurba_marseille","lat":43.306,"lon":5.37225,"is_reserved":false,"is_disabled":false,"rental_uris":{"android":"levelo://app?vid=249ae0de-eb71-4f3d-a010-dc8efcf1f4f0","ios":"levelo://app?vid=249ae0de-eb71-4f3d-a010-dc8efcf1f4f0"},"vehicle_type_id":"4","last_reported":1678572386,"current_range_meters":3600,"station_id":"ce4bgqh2rcd13ifvqc4g","pricing_plan_id":"free"},{"bike_id":"83129ceb-0c43-479c-94b1-245c23138ee4","system_id":"levelo_inurba_marseille","lat":43.30342,"lon":5.37255,"is_reserved":false,"is_disabled":false,"rental_uris":{"android":"levelo://app?vid=83129ceb-0c43-479c-94b1-245c23138ee4","ios":"levelo://app?vid=83129ceb-0c43-479c-94b1-245c23138ee4"},"vehicle_type_id":"4","last_reported":1678572386,"current_range_meters":0,"station_id":"","pricing_plan_id":"free"},{"bike_id":"3648902a-b589-4dc1-8741-f7f09a99d100","system_id":"levelo_inurba_marseille","lat":43.3019,"lon":5.366,"is_reserved":false,"is_disabled":false,"rental_uris":{"android":"levelo://app?vid=3648902a-b589-4dc1-8741-f7f09a99d100","ios":"levelo://app?vid=3648902a-b589-4dc1-8741-f7f09a99d100"},"vehicle_type_id":"4","last_reported":1678572386,"current_range_meters":0,"station_id":"","pricing_plan_id":"free"},{"bike_id":"4e661f70-2a07-4be3-b2cb-7245fe887a38","system_id":"levelo_inurba_marseille","lat":43.301939,"lon":5.366286,"is_reserved":false,"is_disabled":false,"rental_uris":{"android":"levelo://app?vid=4e661f70-2a07-4be3-b2cb-7245fe887a38","ios":"levelo://app?vid=4e661f70-2a07-4be3-b2cb-7245fe887a38"},"vehicle_type_id":"4","last_reported":1678572386,"current_range_meters":27200,"station_id":"ce4bgrh2rcd13ifvqc8g","pricing_plan_id":"free"},{"bike_id":"040869eb-6005-4d3d-b205-5ab4e86cfaf8","system_id":"levelo_inurba_marseille","lat":43.301939,"lon":5.366286,"is_reserved":false,"is_disabled":false,"rental_uris":{"android":"levelo://app?vid=040869eb-6005-4d3d-b205-5ab4e86cfaf8","ios":"levelo://app?vid=040869eb-6005-4d3d-b205-5ab4e86cfaf8"},"vehicle_type_id":"4","last_reported":1678572386,"current_range_meters":21600,"station_id":"ce4bgrh2rcd13ifvqc8g","pricing_plan_id":"free"},{"bike_id":"a99f89d3-feae-4aed-bd47-6fee3413e405","system_id":"levelo_inurba_marseille","lat":43.301801,"lon":5.366151,"is_reserved":false,"is_disabled":false,"rental_uris":{"android":"levelo://app?vid=a99f89d3-feae-4aed-bd47-6fee3413e405","ios":"levelo://app?vid=a99f89d3-feae-4aed-bd47-6fee3413e405"},"vehicle_type_id":"4","last_reported":1678572386,"current_range_meters":4400,"station_id":"","pricing_plan_id":"free"},{"bike_id":"fbccd5a9-54f6-43be-963b-a159da53f39c","system_id":"levelo_inurba_marseille","lat":43.304606,"lon":5.379026,"is_reserved":false,"is_disabled":false,"rental_uris":{"android":"levelo://app?vid=fbccd5a9-54f6-43be-963b-a159da53f39c","ios":"levelo://app?vid=fbccd5a9-54f6-43be-963b-a159da53f39c"},"vehicle_type_id":"4","last_reported":1678572386,"current_range_meters":15600,"station_id":"ce4bgup2rcd13ifvqcn0","pricing_plan_id":"free"},{"bike_id":"078dc6f0-0cb0-4d18-a762-555bd6e95e9f","system_id":"levelo_inurba_marseille","lat":43.304606,"lon":5.379026,"is_reserved":false,"is_disabled":false,"rental_uris":{"android":"levelo://app?vid=078dc6f0-0cb0-4d18-a762-555bd6e95e9f","ios":"levelo://app?vid=078dc6f0-0cb0-4d18-a762-555bd6e95e9f"},"vehicle_type_id":"4","last_reported":1678572386,"current_range_meters":0,"station_id":"ce4bgup2rcd13ifvqcn0","pricing_plan_id":"free"},{"bike_id":"bb599884-9135-4991-958c-b39dbc7d506d","system_id":"levelo_inurba_marseille","lat":43.30141,"lon":5.37422,"is_reserved":false,"is_disabled":false,"rental_uris":{"android":"levelo://app?vid=bb599884-9135-4991-958c-b39dbc7d506d","ios":"levelo://app?vid=bb599884-9135-4991-958c-b39dbc7d506d"},"vehicle_type_id":"4","last_reported":1678572386,"current_range_meters":10000,"station_id":"","pricing_plan_id":"free"},{"bike_id":"f5c76f12-1c22-47f4-9c6c-a8f622b5a186","system_id":"levelo_inurba_marseille","lat":43.299333,"lon":5.365427,"is_reserved":false,"is_disabled":false,"rental_uris":{"android":"levelo://app?vid=f5c76f12-1c22-47f4-9c6c-a8f622b5a186","ios":"levelo://app?vid=f5c76f12-1c22-47f4-9c6c-a8f622b5a186"},"vehicle_type_id":"4","last_reported":1678572386,"current_range_meters":24000,"station_id":"","pricing_plan_id":"free"},{"bike_id":"3bc9c6d2-60d3-40fb-888b-33cbbb4f4b42","system_id":"levelo_inurba_marseille","lat":43.29933,"lon":5.36546,"is_reserved":false,"is_disabled":false,"rental_uris":{"android":"levelo://app?vid=3bc9c6d2-60d3-40fb-888b-33cbbb4f4b42","ios":"levelo://app?vid=3bc9c6d2-60d3-40fb-888b-33cbbb4f4b42"},"vehicle_type_id":"4","last_reported":1678572386,"current_range_meters":2800,"station_id":"","pricing_plan_id":"free"},{"bike_id":"1ae4b2de-4f68-45ea-9cc4-4719279aa0c3","system_id":"levelo_inurba_marseille","lat":43.29855,"lon":5.36288,"is_reserved":false,"is_disabled":false,"rental_uris":{"android":"levelo://app?vid=1ae4b2de-4f68-45ea-9cc4-4719279aa0c3","ios":"levelo://app?vid=1ae4b2de-4f68-45ea-9cc4-4719279aa0c3"},"vehicle_type_id":"4","last_reported":1678572386,"current_range_meters":8000,"station_id":"ce4bgpp2rcd13ifvqc3g","pricing_plan_id":"free"},{"bike_id":"290aa802-7e59-4bdc-9989-d1583651c86e","system_id":"levelo_inurba_marseille","lat":43.298433,"lon":5.362774,"is_reserved":false,"is_disabled":false,"rental_uris":{"android":"levelo://app?vid=290aa802-7e59-4bdc-9989-d1583651c86e","ios":"levelo://app?vid=290aa802-7e59-4bdc-9989-d1583651c86e"},"vehicle_type_id":"4","last_reported":1678572386,"current_range_meters":29200,"station_id":"ce4bgpp2rcd13ifvqc3g","pricing_plan_id":"free"},{"bike_id":"23069d61-07f8-4a56-85f3-2f8bbcc526f7","system_id":"levelo_inurba_marseille","lat":43.298433,"lon":5.362774,"is_reserved":false,"is_disabled":false,"rental_uris":{"android":"levelo://app?vid=23069d61-07f8-4a56-85f3-2f8bbcc526f7","ios":"levelo://app?vid=23069d61-07f8-4a56-85f3-2f8bbcc526f7"},"vehicle_type_id":"4","last_reported":1678572386,"current_range_meters":17200,"station_id":"ce4bgpp2rcd13ifvqc3g","pricing_plan_id":"free"},{"bike_id":"c3ba4246-2245-4bb8-b6a1-c8d66081702b","system_id":"levelo_inurba_marseille","lat":43.29849,"lon":5.36283,"is_reserved":false,"is_disabled":false,"rental_uris":{"android":"levelo://app?vid=c3ba4246-2245-4bb8-b6a1-c8d66081702b","ios":"levelo://app?vid=c3ba4246-2245-4bb8-b6a1-c8d66081702b"},"vehicle_type_id":"4","last_reported":1678572386,"current_range_meters":0,"station_id":"ce4bgpp2rcd13ifvqc3g","pricing_plan_id":"free"},{"bike_id":"c4ce38dc-1396-4be4-8da2-3101bd599681","system_id":"levelo_inurba_marseille","lat":43.305364,"lon":5.384119,"is_reserved":false,"is_disabled":false,"rental_uris":{"android":"levelo://app?vid=c4ce38dc-1396-4be4-8da2-3101bd599681","ios":"levelo://app?vid=c4ce38dc-1396-4be4-8da2-3101bd599681"},"vehicle_type_id":"4","last_reported":1678572386,"current_range_meters":20800,"station_id":"ce4bgg92rcd13ifvqb30","pricing_plan_id":"free"},{"bike_id":"c2b85416-6862-4494-a6b4-8aed00c3ea93","system_id":"levelo_inurba_marseille","lat":43.29845,"lon":5.3627,"is_reserved":false,"is_disabled":false,"rental_uris":{"android":"levelo://app?vid=c2b85416-6862-4494-a6b4-8aed00c3ea93","ios":"levelo://app?vid=c2b85416-6862-4494-a6b4-8aed00c3ea93"},"vehicle_type_id":"4","last_reported":1678572386,"current_range_meters":15200,"station_id":"","pricing_plan_id":"free"},{"bike_id":"b051fa2b-c90f-447f-981b-ff5274764c6c","system_id":"levelo_inurba_marseille","lat":43.297891,"lon":5.37099,"is_reserved":false,"is_disabled":false,"rental_uris":{"android":"levelo://app?vid=b051fa2b-c90f-447f-981b-ff5274764c6c","ios":"levelo://app?vid=b051fa2b-c90f-447f-981b-ff5274764c6c"},"vehicle_type_id":"4","last_reported":1678572386,"current_range_meters":0,"station_id":"","pricing_plan_id":"free"},{"bike_id":"22ebd2a6-f80f-4c38-ada3-263028153afb","system_id":"levelo_inurba_marseille","lat":43.328371,"lon":5.366912,"is_reserved":false,"is_disabled":false,"rental_uris":{"android":"levelo://app?vid=22ebd2a6-f80f-4c38-ada3-263028153afb","ios":"levelo://app?vid=22ebd2a6-f80f-4c38-ada3-263028153afb"},"vehicle_type_id":"4","last_reported":1678572386,"current_range_meters":28400,"station_id":"ce4bhs92rcd13ifvqi0g","pricing_plan_id":"free"},{"bike_id":"70db027b-5957-4c3d-a2f9-a8a4d79b8eac","system_id":"levelo_inurba_marseille","lat":43.328371,"lon":5.366909,"is_reserved":false,"is_disabled":false,"rental_uris":{"android":"levelo://app?vid=70db027b-5957-4c3d-a2f9-a8a4d79b8eac","ios":"levelo://app?vid=70db027b-5957-4c3d-a2f9-a8a4d79b8eac"},"vehicle_type_id":"4","last_reported":1678572386,"current_range_meters":4000,"station_id":"ce4bhs92rcd13ifvqi0g","pricing_plan_id":"free"},{"bike_id":"c96f2d64-10b9-4826-93b5-7efc32bb0caf","system_id":"levelo_inurba_marseille","lat":43.328371,"lon":5.366909,"is_reserved":false,"is_disabled":false,"rental_uris":{"android":"levelo://app?vid=c96f2d64-10b9-4826-93b5-7efc32bb0caf","ios":"levelo://app?vid=c96f2d64-10b9-4826-93b5-7efc32bb0caf"},"vehicle_type_id":"4","last_reported":1678572386,"current_range_meters":9200,"station_id":"ce4bhs92rcd13ifvqi0g","pricing_plan_id":"free"},{"bike_id":"09c1be90-9a08-43cf-bf13-e1882045e67a","system_id":"levelo_inurba_marseille","lat":43.3003,"lon":5.38072,"is_reserved":false,"is_disabled":false,"rental_uris":{"android":"levelo://app?vid=09c1be90-9a08-43cf-bf13-e1882045e67a","ios":"levelo://app?vid=09c1be90-9a08-43cf-bf13-e1882045e67a"},"vehicle_type_id":"4","last_reported":1678572386,"current_range_meters":16400,"station_id":"","pricing_plan_id":"free"},{"bike_id":"0c23ce3d-451d-4009-9b25-7659456a04bb","system_id":"levelo_inurba_marseille","lat":43.296314,"lon":5.371522,"is_reserved":false,"is_disabled":false,"rental_uris":{"android":"levelo://app?vid=0c23ce3d-451d-4009-9b25-7659456a04bb","ios":"levelo://app?vid=0c23ce3d-451d-4009-9b25-7659456a04bb"},"vehicle_type_id":"4","last_reported":1678572386,"current_range_meters":0,"station_id":"","pricing_plan_id":"free"},{"bike_id":"3fc2c0b3-7b3d-4ffb-b9cd-fe5257ec4daf","system_id":"levelo_inurba_marseille","lat":43.29594,"lon":5.36754,"is_reserved":false,"is_disabled":false,"rental_uris":{"android":"levelo://app?vid=3fc2c0b3-7b3d-4ffb-b9cd-fe5257ec4daf","ios":"levelo://app?vid=3fc2c0b3-7b3d-4ffb-b9cd-fe5257ec4daf"},"vehicle_type_id":"4","last_reported":1678572386,"current_range_meters":12800,"station_id":"","pricing_plan_id":"free"},{"bike_id":"801dea64-4726-447c-8f99-43415a0b6d71","system_id":"levelo_inurba_marseille","lat":43.296131,"lon":5.370791,"is_reserved":false,"is_disabled":false,"rental_uris":{"android":"levelo://app?vid=801dea64-4726-447c-8f99-43415a0b6d71","ios":"levelo://app?vid=801dea64-4726-447c-8f99-43415a0b6d71"},"vehicle_type_id":"4","last_reported":1678572386,"current_range_meters":2800,"station_id":"ce4bgnh2rcd13ifvqc0g","pricing_plan_id":"free"},{"bike_id":"1c4b26ae-6078-4fec-abc8-8e51a59595ae","system_id":"levelo_inurba_marseille","lat":43.29573,"lon":5.367355,"is_reserved":false,"is_disabled":false,"rental_uris":{"android":"levelo://app?vid=1c4b26ae-6078-4fec-abc8-8e51a59595ae","ios":"levelo://app?vid=1c4b26ae-6078-4fec-abc8-8e51a59595ae"},"vehicle_type_id":"4","last_reported":1678572386,"current_range_meters":14800,"station_id":"ce4bgph2rcd13ifvqc2g","pricing_plan_id":"free"},{"bike_id":"50bd9918-8313-4776-baa7-51a598c7f2c6","system_id":"levelo_inurba_marseille","lat":43.29584,"lon":5.36751,"is_reserved":false,"is_disabled":false,"rental_uris":{"android":"levelo://app?vid=50bd9918-8313-4776-baa7-51a598c7f2c6","ios":"levelo://app?vid=50bd9918-8313-4776-baa7-51a598c7f2c6"},"vehicle_type_id":"4","last_reported":1678572386,"current_range_meters":0,"station_id":"ce4bgph2rcd13ifvqc2g","pricing_plan_id":"free"},{"bike_id":"e5f25d41-3cec-44a9-ba83-18ca0bc7160d","system_id":"levelo_inurba_marseille","lat":43.295794,"lon":5.367452,"is_reserved":false,"is_disabled":false,"rental_uris":{"android":"levelo://app?vid=e5f25d41-3cec-44a9-ba83-18ca0bc7160d","ios":"levelo://app?vid=e5f25d41-3cec-44a9-ba83-18ca0bc7160d"},"vehicle_type_id":"4","last_reported":1678572386,"current_range_meters":25200,"station_id":"","pricing_plan_id":"free"},{"bike_id":"4150a8d8-bac4-4d9b-ae1b-4800894199ec","system_id":"levelo_inurba_marseille","lat":43.309589,"lon":5.390258,"is_reserved":false,"is_disabled":false,"rental_uris":{"android":"levelo://app?vid=4150a8d8-bac4-4d9b-ae1b-4800894199ec","ios":"levelo://app?vid=4150a8d8-bac4-4d9b-ae1b-4800894199ec"},"vehicle_type_id":"4","last_reported":1678572386,"current_range_meters":14400,"station_id":"ce4bgup2rcd13ifvqco0","pricing_plan_id":"free"},{"bike_id":"2d147397-e5a0-45aa-b790-5d6dd30c0c24","system_id":"levelo_inurba_marseille","lat":43.30955,"lon":5.39037,"is_reserved":false,"is_disabled":false,"rental_uris":{"android":"levelo://app?vid=2d147397-e5a0-45aa-b790-5d6dd30c0c24","ios":"levelo://app?vid=2d147397-e5a0-45aa-b790-5d6dd30c0c24"},"vehicle_type_id":"4","last_reported":1678572386,"current_range_meters":29600,"station_id":"ce4bgup2rcd13ifvqco0","pricing_plan_id":"free"},{"bike_id":"e612a666-9b67-4a04-b9c9-ccecefbb580c","system_id":"levelo_inurba_marseille","lat":43.317557,"lon":5.390173,"is_reserved":false,"is_disabled":false,"rental_uris":{"android":"levelo://app?vid=e612a666-9b67-4a04-b9c9-ccecefbb580c","ios":"levelo://app?vid=e612a666-9b67-4a04-b9c9-ccecefbb580c"},"vehicle_type_id":"4","last_reported":1678572386,"current_range_meters":31600,"station_id":"ce4bhqp2rcd13ifvqhng","pricing_plan_id":"free"},{"bike_id":"0fbf2b6d-77d8-454f-8789-8881ddd2edd7","system_id":"levelo_inurba_marseille","lat":43.317557,"lon":5.390173,"is_reserved":false,"is_disabled":false,"rental_uris":{"android":"levelo://app?vid=0fbf2b6d-77d8-454f-8789-8881ddd2edd7","ios":"levelo://app?vid=0fbf2b6d-77d8-454f-8789-8881ddd2edd7"},"vehicle_type_id":"4","last_reported":1678572386,"current_range_meters":24000,"station_id":"ce4bhqp2rcd13ifvqhng","pricing_plan_id":"free"},{"bike_id":"776723cd-ea0f-4401-9bc6-9d6bdce7578d","system_id":"levelo_inurba_marseille","lat":43.317557,"lon":5.390173,"is_reserved":false,"is_disabled":false,"rental_uris":{"android":"levelo://app?vid=776723cd-ea0f-4401-9bc6-9d6bdce7578d","ios":"levelo://app?vid=776723cd-ea0f-4401-9bc6-9d6bdce7578d"},"vehicle_type_id":"4","last_reported":1678572386,"current_range_meters":22400,"station_id":"ce4bhqp2rcd13ifvqhng","pricing_plan_id":"free"},{"bike_id":"10181c2b-6116-47eb-ae0b-ff80d825779c","system_id":"levelo_inurba_marseille","lat":43.317557,"lon":5.390173,"is_reserved":false,"is_disabled":false,"rental_uris":{"android":"levelo://app?vid=10181c2b-6116-47eb-ae0b-ff80d825779c","ios":"levelo://app?vid=10181c2b-6116-47eb-ae0b-ff80d825779c"},"vehicle_type_id":"4","last_reported":1678572386,"current_range_meters":24800,"station_id":"ce4bhqp2rcd13ifvqhng","pricing_plan_id":"free"},{"bike_id":"80ad3bc1-c0f4-4ae7-abcc-62ebdf7b454a","system_id":"levelo_inurba_marseille","lat":43.317557,"lon":5.390173,"is_reserved":false,"is_disabled":false,"rental_uris":{"android":"levelo://app?vid=80ad3bc1-c0f4-4ae7-abcc-62ebdf7b454a","ios":"levelo://app?vid=80ad3bc1-c0f4-4ae7-abcc-62ebdf7b454a"},"vehicle_type_id":"4","last_reported":1678572386,"current_range_meters":31600,"station_id":"ce4bhqp2rcd13ifvqhng","pricing_plan_id":"free"},{"bike_id":"7af0b745-be9d-4dd6-8d05-34a9e5e495d5","system_id":"levelo_inurba_marseille","lat":43.317557,"lon":5.390173,"is_reserved":false,"is_disabled":false,"rental_uris":{"android":"levelo://app?vid=7af0b745-be9d-4dd6-8d05-34a9e5e495d5","ios":"levelo://app?vid=7af0b745-be9d-4dd6-8d05-34a9e5e495d5"},"vehicle_type_id":"4","last_reported":1678572386,"current_range_meters":27200,"station_id":"ce4bhqp2rcd13ifvqhng","pricing_plan_id":"free"},{"bike_id":"29ee8031-70ec-42cf-8949-eb5a60c96431","system_id":"levelo_inurba_marseille","lat":43.317557,"lon":5.390173,"is_reserved":false,"is_disabled":false,"rental_uris":{"android":"levelo://app?vid=29ee8031-70ec-42cf-8949-eb5a60c96431","ios":"levelo://app?vid=29ee8031-70ec-42cf-8949-eb5a60c96431"},"vehicle_type_id":"4","last_reported":1678572386,"current_range_meters":30400,"station_id":"ce4bhqp2rcd13ifvqhng","pricing_plan_id":"free"},{"bike_id":"55b0205a-8e75-46f5-99f3-d582e7b5723e","system_id":"levelo_inurba_marseille","lat":43.317557,"lon":5.390173,"is_reserved":false,"is_disabled":false,"rental_uris":{"android":"levelo://app?vid=55b0205a-8e75-46f5-99f3-d582e7b5723e","ios":"levelo://app?vid=55b0205a-8e75-46f5-99f3-d582e7b5723e"},"vehicle_type_id":"4","last_reported":1678572386,"current_range_meters":15200,"station_id":"ce4bhqp2rcd13ifvqhng","pricing_plan_id":"free"},{"bike_id":"0ea9272e-b150-43d9-84e6-2c4cf426bcc2","system_id":"levelo_inurba_marseille","lat":43.298,"lon":5.38093,"is_reserved":false,"is_disabled":false,"rental_uris":{"android":"levelo://app?vid=0ea9272e-b150-43d9-84e6-2c4cf426bcc2","ios":"levelo://app?vid=0ea9272e-b150-43d9-84e6-2c4cf426bcc2"},"vehicle_type_id":"4","last_reported":1678572386,"current_range_meters":10800,"station_id":"ce4bgip2rcd13ifvqbb0","pricing_plan_id":"free"},{"bike_id":"9d80bc61-51f5-4627-8699-121597de8db1","system_id":"levelo_inurba_marseille","lat":43.304278,"lon":5.388868,"is_reserved":false,"is_disabled":false,"rental_uris":{"android":"levelo://app?vid=9d80bc61-51f5-4627-8699-121597de8db1","ios":"levelo://app?vid=9d80bc61-51f5-4627-8699-121597de8db1"},"vehicle_type_id":"4","last_reported":1678572386,"current_range_meters":15200,"station_id":"ce4bgk12rcd13ifvqbi0","pricing_plan_id":"free"},{"bike_id":"5ee9d289-b7ae-4c7e-bb85-5a7411b07fa0","system_id":"levelo_inurba_marseille","lat":43.295748,"lon":5.37522,"is_reserved":false,"is_disabled":false,"rental_uris":{"android":"levelo://app?vid=5ee9d289-b7ae-4c7e-bb85-5a7411b07fa0","ios":"levelo://app?vid=5ee9d289-b7ae-4c7e-bb85-5a7411b07fa0"},"vehicle_type_id":"4","last_reported":1678572386,"current_range_meters":30400,"station_id":"ce4bgh92rcd13ifvqb50","pricing_plan_id":"free"},{"bike_id":"c85cd27b-e69e-4391-8fa7-5d948f5342d2","system_id":"levelo_inurba_marseille","lat":43.29528,"lon":5.37472,"is_reserved":false,"is_disabled":false,"rental_uris":{"android":"levelo://app?vid=c85cd27b-e69e-4391-8fa7-5d948f5342d2","ios":"levelo://app?vid=c85cd27b-e69e-4391-8fa7-5d948f5342d2"},"vehicle_type_id":"4","last_reported":1678572386,"current_range_meters":0,"station_id":"ce4bgkp2rcd13ifvqbmg","pricing_plan_id":"free"},{"bike_id":"119fc3bf-4523-45d0-b759-7d1bbf6fdbf3","system_id":"levelo_inurba_marseille","lat":43.32367,"lon":5.388836,"is_reserved":false,"is_disabled":false,"rental_uris":{"android":"levelo://app?vid=119fc3bf-4523-45d0-b759-7d1bbf6fdbf3","ios":"levelo://app?vid=119fc3bf-4523-45d0-b759-7d1bbf6fdbf3"},"vehicle_type_id":"4","last_reported":1678572386,"current_range_meters":18400,"station_id":"ce4bhqp2rcd13ifvqhog","pricing_plan_id":"free"},{"bike_id":"53b760a8-a9fd-42d5-ab9b-e8ded5d1a33b","system_id":"levelo_inurba_marseille","lat":43.32367,"lon":5.388836,"is_reserved":false,"is_disabled":false,"rental_uris":{"android":"levelo://app?vid=53b760a8-a9fd-42d5-ab9b-e8ded5d1a33b","ios":"levelo://app?vid=53b760a8-a9fd-42d5-ab9b-e8ded5d1a33b"},"vehicle_type_id":"4","last_reported":1678572386,"current_range_meters":27200,"station_id":"ce4bhqp2rcd13ifvqhog","pricing_plan_id":"free"},{"bike_id":"b1e2453e-b5bb-4b6e-8924-e348d50edcfe","system_id":"levelo_inurba_marseille","lat":43.32367,"lon":5.388836,"is_reserved":false,"is_disabled":false,"rental_uris":{"android":"levelo://app?vid=b1e2453e-b5bb-4b6e-8924-e348d50edcfe","ios":"levelo://app?vid=b1e2453e-b5bb-4b6e-8924-e348d50edcfe"},"vehicle_type_id":"4","last_reported":1678572386,"current_range_meters":9600,"station_id":"ce4bhqp2rcd13ifvqhog","pricing_plan_id":"free"},{"bike_id":"007cd52a-fdd4-45d1-92eb-f50edc7c1def","system_id":"levelo_inurba_marseille","lat":43.32367,"lon":5.388836,"is_reserved":false,"is_disabled":false,"rental_uris":{"android":"levelo://app?vid=007cd52a-fdd4-45d1-92eb-f50edc7c1def","ios":"levelo://app?vid=007cd52a-fdd4-45d1-92eb-f50edc7c1def"},"vehicle_type_id":"4","last_reported":1678572386,"current_range_meters":15200,"station_id":"ce4bhqp2rcd13ifvqhog","pricing_plan_id":"free"},{"bike_id":"86b80efd-70e5-4dd9-9b6d-bfcdf21c11d7","system_id":"levelo_inurba_marseille","lat":43.29312,"lon":5.3745,"is_reserved":false,"is_disabled":false,"rental_uris":{"android":"levelo://app?vid=86b80efd-70e5-4dd9-9b6d-bfcdf21c11d7","ios":"levelo://app?vid=86b80efd-70e5-4dd9-9b6d-bfcdf21c11d7"},"vehicle_type_id":"4","last_reported":1678572386,"current_range_meters":11600,"station_id":"ce4bgi12rcd13ifvqb70","pricing_plan_id":"free"},{"bike_id":"bb2df7ac-f070-4cbe-b53c-97073ab0b857","system_id":"levelo_inurba_marseille","lat":43.29369,"lon":5.37842,"is_reserved":false,"is_disabled":false,"rental_uris":{"android":"levelo://app?vid=bb2df7ac-f070-4cbe-b53c-97073ab0b857","ios":"levelo://app?vid=bb2df7ac-f070-4cbe-b53c-97073ab0b857"},"vehicle_type_id":"4","last_reported":1678572386,"current_range_meters":26800,"station_id":"","pricing_plan_id":"free"},{"bike_id":"d9b4699a-fa1b-4749-847e-b399785e4bbf","system_id":"levelo_inurba_marseille","lat":43.292311,"lon":5.360731,"is_reserved":false,"is_disabled":false,"rental_uris":{"android":"levelo://app?vid=d9b4699a-fa1b-4749-847e-b399785e4bbf","ios":"levelo://app?vid=d9b4699a-fa1b-4749-847e-b399785e4bbf"},"vehicle_type_id":"4","last_reported":1678572386,"current_range_meters":17600,"station_id":"ce4bhbh2rcd13ifvqeqg","pricing_plan_id":"free"},{"bike_id":"d3aecc33-74d8-4a94-be80-ca43c11e719f","system_id":"levelo_inurba_marseille","lat":43.30085,"lon":5.390856,"is_reserved":false,"is_disabled":false,"rental_uris":{"android":"levelo://app?vid=d3aecc33-74d8-4a94-be80-ca43c11e719f","ios":"levelo://app?vid=d3aecc33-74d8-4a94-be80-ca43c11e719f"},"vehicle_type_id":"4","last_reported":1678572386,"current_range_meters":4400,"station_id":"ce4bh192rcd13ifvqdb0","pricing_plan_id":"free"},{"bike_id":"bdcd27fc-9d82-4260-96e8-8a0c3fa2518f","system_id":"levelo_inurba_marseille","lat":43.300852,"lon":5.390859,"is_reserved":false,"is_disabled":false,"rental_uris":{"android":"levelo://app?vid=bdcd27fc-9d82-4260-96e8-8a0c3fa2518f","ios":"levelo://app?vid=bdcd27fc-9d82-4260-96e8-8a0c3fa2518f"},"vehicle_type_id":"4","last_reported":1678572386,"current_range_meters":2400,"station_id":"ce4bh192rcd13ifvqdb0","pricing_plan_id":"free"},{"bike_id":"594dfcec-1bc5-4763-9cea-29d136da9ca1","system_id":"levelo_inurba_marseille","lat":43.313291,"lon":5.396838,"is_reserved":false,"is_disabled":false,"rental_uris":{"android":"levelo://app?vid=594dfcec-1bc5-4763-9cea-29d136da9ca1","ios":"levelo://app?vid=594dfcec-1bc5-4763-9cea-29d136da9ca1"},"vehicle_type_id":"4","last_reported":1678572386,"current_range_meters":7600,"station_id":"ce4bgvp2rcd13ifvqcu0","pricing_plan_id":"free"},{"bike_id":"5aebd658-e4ff-4cc9-ad44-80d710027b91","system_id":"levelo_inurba_marseille","lat":43.313291,"lon":5.396838,"is_reserved":false,"is_disabled":false,"rental_uris":{"android":"levelo://app?vid=5aebd658-e4ff-4cc9-ad44-80d710027b91","ios":"levelo://app?vid=5aebd658-e4ff-4cc9-ad44-80d710027b91"},"vehicle_type_id":"4","last_reported":1678572386,"current_range_meters":800,"station_id":"ce4bgvp2rcd13ifvqcu0","pricing_plan_id":"free"},{"bike_id":"2437b172-eec0-4784-9001-787a2825f408","system_id":"levelo_inurba_marseille","lat":43.313291,"lon":5.396838,"is_reserved":false,"is_disabled":false,"rental_uris":{"android":"levelo://app?vid=2437b172-eec0-4784-9001-787a2825f408","ios":"levelo://app?vid=2437b172-eec0-4784-9001-787a2825f408"},"vehicle_type_id":"4","last_reported":1678572386,"current_range_meters":25600,"station_id":"ce4bgvp2rcd13ifvqcu0","pricing_plan_id":"free"},{"bike_id":"e2a973a1-e1fb-4bfd-92ab-c70cee61d7b0","system_id":"levelo_inurba_marseille","lat":43.313291,"lon":5.396838,"is_reserved":false,"is_disabled":false,"rental_uris":{"android":"levelo://app?vid=e2a973a1-e1fb-4bfd-92ab-c70cee61d7b0","ios":"levelo://app?vid=e2a973a1-e1fb-4bfd-92ab-c70cee61d7b0"},"vehicle_type_id":"4","last_reported":1678572386,"current_range_meters":13200,"station_id":"ce4bgvp2rcd13ifvqcu0","pricing_plan_id":"free"},{"bike_id":"b8362f4a-a03b-4747-9bce-6f15ca8f2d49","system_id":"levelo_inurba_marseille","lat":43.313291,"lon":5.396838,"is_reserved":false,"is_disabled":false,"rental_uris":{"android":"levelo://app?vid=b8362f4a-a03b-4747-9bce-6f15ca8f2d49","ios":"levelo://app?vid=b8362f4a-a03b-4747-9bce-6f15ca8f2d49"},"vehicle_type_id":"4","last_reported":1678572386,"current_range_meters":15600,"station_id":"ce4bgvp2rcd13ifvqcu0","pricing_plan_id":"free"},{"bike_id":"c1b7a151-dd87-4a5c-bc0e-dea80827bb70","system_id":"levelo_inurba_marseille","lat":43.313291,"lon":5.396838,"is_reserved":false,"is_disabled":false,"rental_uris":{"android":"levelo://app?vid=c1b7a151-dd87-4a5c-bc0e-dea80827bb70","ios":"levelo://app?vid=c1b7a151-dd87-4a5c-bc0e-dea80827bb70"},"vehicle_type_id":"4","last_reported":1678572386,"current_range_meters":13200,"station_id":"ce4bgvp2rcd13ifvqcu0","pricing_plan_id":"free"},{"bike_id":"93e102b9-14be-4219-ac27-d911d4fe75e9","system_id":"levelo_inurba_marseille","lat":43.313291,"lon":5.396838,"is_reserved":false,"is_disabled":false,"rental_uris":{"android":"levelo://app?vid=93e102b9-14be-4219-ac27-d911d4fe75e9","ios":"levelo://app?vid=93e102b9-14be-4219-ac27-d911d4fe75e9"},"vehicle_type_id":"4","last_reported":1678572386,"current_range_meters":28400,"station_id":"ce4bgvp2rcd13ifvqcu0","pricing_plan_id":"free"},{"bike_id":"9bab2ef2-1b00-4914-ad60-0b1faf39b2e9","system_id":"levelo_inurba_marseille","lat":43.29529,"lon":5.385581,"is_reserved":false,"is_disabled":false,"rental_uris":{"android":"levelo://app?vid=9bab2ef2-1b00-4914-ad60-0b1faf39b2e9","ios":"levelo://app?vid=9bab2ef2-1b00-4914-ad60-0b1faf39b2e9"},"vehicle_type_id":"4","last_reported":1678572386,"current_range_meters":5200,"station_id":"ce4bgih2rcd13ifvqba0","pricing_plan_id":"free"},{"bike_id":"c79628b4-7ed6-4704-9f97-aaf779fb1da4","system_id":"levelo_inurba_marseille","lat":43.29529,"lon":5.385581,"is_reserved":false,"is_disabled":false,"rental_uris":{"android":"levelo://app?vid=c79628b4-7ed6-4704-9f97-aaf779fb1da4","ios":"levelo://app?vid=c79628b4-7ed6-4704-9f97-aaf779fb1da4"},"vehicle_type_id":"4","last_reported":1678572386,"current_range_meters":28000,"station_id":"ce4bgih2rcd13ifvqba0","pricing_plan_id":"free"},{"bike_id":"c955738d-67e6-4f21-b32a-bc08e1e258bd","system_id":"levelo_inurba_marseille","lat":43.29529,"lon":5.385581,"is_reserved":false,"is_disabled":false,"rental_uris":{"android":"levelo://app?vid=c955738d-67e6-4f21-b32a-bc08e1e258bd","ios":"levelo://app?vid=c955738d-67e6-4f21-b32a-bc08e1e258bd"},"vehicle_type_id":"4","last_reported":1678572386,"current_range_meters":4000,"station_id":"ce4bgih2rcd13ifvqba0","pricing_plan_id":"free"},{"bike_id":"2890f0d2-81ec-40f7-bf20-582fc3e523ef","system_id":"levelo_inurba_marseille","lat":43.290779,"lon":5.371482,"is_reserved":false,"is_disabled":false,"rental_uris":{"android":"levelo://app?vid=2890f0d2-81ec-40f7-bf20-582fc3e523ef","ios":"levelo://app?vid=2890f0d2-81ec-40f7-bf20-582fc3e523ef"},"vehicle_type_id":"4","last_reported":1678572386,"current_range_meters":17200,"station_id":"ce4bh5p2rcd13ifvqe4g","pricing_plan_id":"free"},{"bike_id":"63de47b2-1845-47c5-8938-a4c72a4981f0","system_id":"levelo_inurba_marseille","lat":43.291217,"lon":5.37541,"is_reserved":false,"is_disabled":false,"rental_uris":{"android":"levelo://app?vid=63de47b2-1845-47c5-8938-a4c72a4981f0","ios":"levelo://app?vid=63de47b2-1845-47c5-8938-a4c72a4981f0"},"vehicle_type_id":"4","last_reported":1678572386,"current_range_meters":6800,"station_id":"","pricing_plan_id":"free"},{"bike_id":"71a3d5f3-3fa3-4b8a-abf8-6c66d5f01be5","system_id":"levelo_inurba_marseille","lat":43.293666,"lon":5.3835,"is_reserved":false,"is_disabled":false,"rental_uris":{"android":"levelo://app?vid=71a3d5f3-3fa3-4b8a-abf8-6c66d5f01be5","ios":"levelo://app?vid=71a3d5f3-3fa3-4b8a-abf8-6c66d5f01be5"},"vehicle_type_id":"4","last_reported":1678572386,"current_range_meters":20400,"station_id":"","pricing_plan_id":"free"},{"bike_id":"9d8125af-9fb3-4b46-b0f3-1bbe48ee7e7c","system_id":"levelo_inurba_marseille","lat":43.302155,"lon":5.394755,"is_reserved":false,"is_disabled":false,"rental_uris":{"android":"levelo://app?vid=9d8125af-9fb3-4b46-b0f3-1bbe48ee7e7c","ios":"levelo://app?vid=9d8125af-9fb3-4b46-b0f3-1bbe48ee7e7c"},"vehicle_type_id":"4","last_reported":1678572386,"current_range_meters":13600,"station_id":"ce4bh0p2rcd13ifvqd70","pricing_plan_id":"free"},{"bike_id":"dbea8edc-e417-4bc5-a8e7-22e6a1a3829e","system_id":"levelo_inurba_marseille","lat":43.29066,"lon":5.375683,"is_reserved":false,"is_disabled":false,"rental_uris":{"android":"levelo://app?vid=dbea8edc-e417-4bc5-a8e7-22e6a1a3829e","ios":"levelo://app?vid=dbea8edc-e417-4bc5-a8e7-22e6a1a3829e"},"vehicle_type_id":"4","last_reported":1678572386,"current_range_meters":28400,"station_id":"","pricing_plan_id":"free"},{"bike_id":"98d17ab9-cb35-43ad-81e7-9163b0f56535","system_id":"levelo_inurba_marseille","lat":43.290438,"lon":5.359168,"is_reserved":false,"is_disabled":false,"rental_uris":{"android":"levelo://app?vid=98d17ab9-cb35-43ad-81e7-9163b0f56535","ios":"levelo://app?vid=98d17ab9-cb35-43ad-81e7-9163b0f56535"},"vehicle_type_id":"4","last_reported":1678572386,"current_range_meters":10800,"station_id":"","pricing_plan_id":"free"},{"bike_id":"d2a20a43-ff4e-4589-8655-9ac21b27ee74","system_id":"levelo_inurba_marseille","lat":43.291844,"lon":5.380498,"is_reserved":false,"is_disabled":false,"rental_uris":{"android":"levelo://app?vid=d2a20a43-ff4e-4589-8655-9ac21b27ee74","ios":"levelo://app?vid=d2a20a43-ff4e-4589-8655-9ac21b27ee74"},"vehicle_type_id":"4","last_reported":1678572386,"current_range_meters":0,"station_id":"","pricing_plan_id":"free"},{"bike_id":"9e9b389f-19c1-4b90-a8b5-15960b5ff6b0","system_id":"levelo_inurba_marseille","lat":43.29422,"lon":5.38617,"is_reserved":false,"is_disabled":false,"rental_uris":{"android":"levelo://app?vid=9e9b389f-19c1-4b90-a8b5-15960b5ff6b0","ios":"levelo://app?vid=9e9b389f-19c1-4b90-a8b5-15960b5ff6b0"},"vehicle_type_id":"4","last_reported":1678572386,"current_range_meters":9600,"station_id":"ce4bh2h2rcd13ifvqdh0","pricing_plan_id":"free"},{"bike_id":"029b0b1b-536b-49b6-b12f-efb6cfbc3489","system_id":"levelo_inurba_marseille","lat":43.29419,"lon":5.38621,"is_reserved":false,"is_disabled":false,"rental_uris":{"android":"levelo://app?vid=029b0b1b-536b-49b6-b12f-efb6cfbc3489","ios":"levelo://app?vid=029b0b1b-536b-49b6-b12f-efb6cfbc3489"},"vehicle_type_id":"4","last_reported":1678572386,"current_range_meters":18800,"station_id":"ce4bh2h2rcd13ifvqdh0","pricing_plan_id":"free"},{"bike_id":"b7a06c0b-321f-494a-9efb-d720bbf6528a","system_id":"levelo_inurba_marseille","lat":43.29417,"lon":5.3862,"is_reserved":false,"is_disabled":false,"rental_uris":{"android":"levelo://app?vid=b7a06c0b-321f-494a-9efb-d720bbf6528a","ios":"levelo://app?vid=b7a06c0b-321f-494a-9efb-d720bbf6528a"},"vehicle_type_id":"4","last_reported":1678572386,"current_range_meters":21600,"station_id":"ce4bh2h2rcd13ifvqdh0","pricing_plan_id":"free"},{"bike_id":"c4e8688e-b4b5-4508-b692-cf2562c55bf9","system_id":"levelo_inurba_marseille","lat":43.294153,"lon":5.386305,"is_reserved":false,"is_disabled":false,"rental_uris":{"android":"levelo://app?vid=c4e8688e-b4b5-4508-b692-cf2562c55bf9","ios":"levelo://app?vid=c4e8688e-b4b5-4508-b692-cf2562c55bf9"},"vehicle_type_id":"4","last_reported":1678572386,"current_range_meters":7200,"station_id":"ce4bh2h2rcd13ifvqdh0","pricing_plan_id":"free"},{"bike_id":"62f9dd02-149c-41b4-abb8-9dad08314c01","system_id":"levelo_inurba_marseille","lat":43.294172,"lon":5.38626,"is_reserved":false,"is_disabled":false,"rental_uris":{"android":"levelo://app?vid=62f9dd02-149c-41b4-abb8-9dad08314c01","ios":"levelo://app?vid=62f9dd02-149c-41b4-abb8-9dad08314c01"},"vehicle_type_id":"4","last_reported":1678572386,"current_range_meters":25200,"station_id":"ce4bh2h2rcd13ifvqdh0","pricing_plan_id":"free"},{"bike_id":"b4cff01f-a917-4b0a-813f-d55d027bcd82","system_id":"levelo_inurba_marseille","lat":43.294192,"lon":5.386368,"is_reserved":false,"is_disabled":false,"rental_uris":{"android":"levelo://app?vid=b4cff01f-a917-4b0a-813f-d55d027bcd82","ios":"levelo://app?vid=b4cff01f-a917-4b0a-813f-d55d027bcd82"},"vehicle_type_id":"4","last_reported":1678572386,"current_range_meters":24400,"station_id":"","pricing_plan_id":"free"},{"bike_id":"fd427df2-42ea-4384-9a03-51d5e93a8453","system_id":"levelo_inurba_marseille","lat":43.289184,"lon":5.366408,"is_reserved":false,"is_disabled":false,"rental_uris":{"android":"levelo://app?vid=fd427df2-42ea-4384-9a03-51d5e93a8453","ios":"levelo://app?vid=fd427df2-42ea-4384-9a03-51d5e93a8453"},"vehicle_type_id":"4","last_reported":1678572386,"current_range_meters":19200,"station_id":"ce4bhap2rcd13ifvqek0","pricing_plan_id":"free"},{"bike_id":"6b9e8285-5d89-440f-8acf-b2930e4187bc","system_id":"levelo_inurba_marseille","lat":43.289468,"lon":5.363719,"is_reserved":false,"is_disabled":false,"rental_uris":{"android":"levelo://app?vid=6b9e8285-5d89-440f-8acf-b2930e4187bc","ios":"levelo://app?vid=6b9e8285-5d89-440f-8acf-b2930e4187bc"},"vehicle_type_id":"4","last_reported":1678572386,"current_range_meters":10800,"station_id":"ce4bhc92rcd13ifvqetg","pricing_plan_id":"free"},{"bike_id":"53e557b0-1afc-4558-8686-44b47635024b","system_id":"levelo_inurba_marseille","lat":43.292644,"lon":5.384257,"is_reserved":false,"is_disabled":false,"rental_uris":{"android":"levelo://app?vid=53e557b0-1afc-4558-8686-44b47635024b","ios":"levelo://app?vid=53e557b0-1afc-4558-8686-44b47635024b"},"vehicle_type_id":"4","last_reported":1678572386,"current_range_meters":5600,"station_id":"ce4bh692rcd13ifvqea0","pricing_plan_id":"free"},{"bike_id":"edd1151d-a356-4253-9b4a-b5c99aab2539","system_id":"levelo_inurba_marseille","lat":43.292644,"lon":5.384257,"is_reserved":false,"is_disabled":false,"rental_uris":{"android":"levelo://app?vid=edd1151d-a356-4253-9b4a-b5c99aab2539","ios":"levelo://app?vid=edd1151d-a356-4253-9b4a-b5c99aab2539"},"vehicle_type_id":"4","last_reported":1678572386,"current_range_meters":14800,"station_id":"ce4bh692rcd13ifvqea0","pricing_plan_id":"free"},{"bike_id":"cf3f4313-679a-4d84-95de-5e8851ca71a5","system_id":"levelo_inurba_marseille","lat":43.292574,"lon":5.384352,"is_reserved":false,"is_disabled":false,"rental_uris":{"android":"levelo://app?vid=cf3f4313-679a-4d84-95de-5e8851ca71a5","ios":"levelo://app?vid=cf3f4313-679a-4d84-95de-5e8851ca71a5"},"vehicle_type_id":"4","last_reported":1678572386,"current_range_meters":0,"station_id":"ce4bh692rcd13ifvqea0","pricing_plan_id":"free"},{"bike_id":"f39fa085-3947-4dc2-8fff-51c68cc6bf7b","system_id":"levelo_inurba_marseille","lat":43.292644,"lon":5.384257,"is_reserved":false,"is_disabled":false,"rental_uris":{"android":"levelo://app?vid=f39fa085-3947-4dc2-8fff-51c68cc6bf7b","ios":"levelo://app?vid=f39fa085-3947-4dc2-8fff-51c68cc6bf7b"},"vehicle_type_id":"4","last_reported":1678572386,"current_range_meters":26400,"station_id":"ce4bh692rcd13ifvqea0","pricing_plan_id":"free"},{"bike_id":"2182e73a-4abe-45c2-9eb4-6c9d33e2d991","system_id":"levelo_inurba_marseille","lat":43.292644,"lon":5.384257,"is_reserved":false,"is_disabled":false,"rental_uris":{"android":"levelo://app?vid=2182e73a-4abe-45c2-9eb4-6c9d33e2d991","ios":"levelo://app?vid=2182e73a-4abe-45c2-9eb4-6c9d33e2d991"},"vehicle_type_id":"4","last_reported":1678572386,"current_range_meters":13200,"station_id":"ce4bh692rcd13ifvqea0","pricing_plan_id":"free"},{"bike_id":"50dc690d-f1b9-4132-8b7d-266c085dc1e8","system_id":"levelo_inurba_marseille","lat":43.292644,"lon":5.384257,"is_reserved":false,"is_disabled":false,"rental_uris":{"android":"levelo://app?vid=50dc690d-f1b9-4132-8b7d-266c085dc1e8","ios":"levelo://app?vid=50dc690d-f1b9-4132-8b7d-266c085dc1e8"},"vehicle_type_id":"4","last_reported":1678572386,"current_range_meters":14800,"station_id":"ce4bh692rcd13ifvqea0","pricing_plan_id":"free"},{"bike_id":"032bdb2c-cf41-43b7-b509-3a7ee38ae255","system_id":"levelo_inurba_marseille","lat":43.292537,"lon":5.38446,"is_reserved":false,"is_disabled":false,"rental_uris":{"android":"levelo://app?vid=032bdb2c-cf41-43b7-b509-3a7ee38ae255","ios":"levelo://app?vid=032bdb2c-cf41-43b7-b509-3a7ee38ae255"},"vehicle_type_id":"4","last_reported":1678572386,"current_range_meters":27200,"station_id":"","pricing_plan_id":"free"},{"bike_id":"ca5bf7b6-db61-435c-a26c-d967b805e80d","system_id":"levelo_inurba_marseille","lat":43.290104,"lon":5.356111,"is_reserved":false,"is_disabled":false,"rental_uris":{"android":"levelo://app?vid=ca5bf7b6-db61-435c-a26c-d967b805e80d","ios":"levelo://app?vid=ca5bf7b6-db61-435c-a26c-d967b805e80d"},"vehicle_type_id":"4","last_reported":1678572386,"current_range_meters":0,"station_id":"ce4bhb92rcd13ifvqen0","pricing_plan_id":"free"},{"bike_id":"fadca3f6-f342-4b61-ab93-846c87e237ae","system_id":"levelo_inurba_marseille","lat":43.33043,"lon":5.38915,"is_reserved":false,"is_disabled":false,"rental_uris":{"android":"levelo://app?vid=fadca3f6-f342-4b61-ab93-846c87e237ae","ios":"levelo://app?vid=fadca3f6-f342-4b61-ab93-846c87e237ae"},"vehicle_type_id":"4","last_reported":1678572386,"current_range_meters":10400,"station_id":"","pricing_plan_id":"free"},{"bike_id":"3bb2a2fd-7203-4e66-a10c-8493cabe1e9a","system_id":"levelo_inurba_marseille","lat":43.33041,"lon":5.38919,"is_reserved":false,"is_disabled":false,"rental_uris":{"android":"levelo://app?vid=3bb2a2fd-7203-4e66-a10c-8493cabe1e9a","ios":"levelo://app?vid=3bb2a2fd-7203-4e66-a10c-8493cabe1e9a"},"vehicle_type_id":"4","last_reported":1678572386,"current_range_meters":31200,"station_id":"ce4bhr92rcd13ifvqhrg","pricing_plan_id":"free"},{"bike_id":"92896ed1-7b4f-4962-9afc-06bac85c069a","system_id":"levelo_inurba_marseille","lat":43.33042,"lon":5.38918,"is_reserved":false,"is_disabled":false,"rental_uris":{"android":"levelo://app?vid=92896ed1-7b4f-4962-9afc-06bac85c069a","ios":"levelo://app?vid=92896ed1-7b4f-4962-9afc-06bac85c069a"},"vehicle_type_id":"4","last_reported":1678572386,"current_range_meters":15200,"station_id":"","pricing_plan_id":"free"},{"bike_id":"4865b40a-4111-4f1a-8482-fb68e875133f","system_id":"levelo_inurba_marseille","lat":43.33043,"lon":5.38917,"is_reserved":false,"is_disabled":false,"rental_uris":{"android":"levelo://app?vid=4865b40a-4111-4f1a-8482-fb68e875133f","ios":"levelo://app?vid=4865b40a-4111-4f1a-8482-fb68e875133f"},"vehicle_type_id":"4","last_reported":1678572386,"current_range_meters":21200,"station_id":"","pricing_plan_id":"free"},{"bike_id":"d30d104e-54e6-4307-9dc5-6ef881fc6645","system_id":"levelo_inurba_marseille","lat":43.330442,"lon":5.389148,"is_reserved":false,"is_disabled":false,"rental_uris":{"android":"levelo://app?vid=d30d104e-54e6-4307-9dc5-6ef881fc6645","ios":"levelo://app?vid=d30d104e-54e6-4307-9dc5-6ef881fc6645"},"vehicle_type_id":"4","last_reported":1678572386,"current_range_meters":18800,"station_id":"ce4bhr92rcd13ifvqhrg","pricing_plan_id":"free"},{"bike_id":"6119f6ce-6d3d-4b42-a8e5-7d6668c62333","system_id":"levelo_inurba_marseille","lat":43.33046,"lon":5.38915,"is_reserved":false,"is_disabled":false,"rental_uris":{"android":"levelo://app?vid=6119f6ce-6d3d-4b42-a8e5-7d6668c62333","ios":"levelo://app?vid=6119f6ce-6d3d-4b42-a8e5-7d6668c62333"},"vehicle_type_id":"4","last_reported":1678572386,"current_range_meters":12800,"station_id":"","pricing_plan_id":"free"},{"bike_id":"1b0fa346-f7c2-447a-900b-0b83a15ce991","system_id":"levelo_inurba_marseille","lat":43.290104,"lon":5.356111,"is_reserved":false,"is_disabled":false,"rental_uris":{"android":"levelo://app?vid=1b0fa346-f7c2-447a-900b-0b83a15ce991","ios":"levelo://app?vid=1b0fa346-f7c2-447a-900b-0b83a15ce991"},"vehicle_type_id":"4","last_reported":1678572386,"current_range_meters":800,"station_id":"ce4bhb92rcd13ifvqen0","pricing_plan_id":"free"},{"bike_id":"c2d05974-5965-400a-a8b9-66ce4442391b","system_id":"levelo_inurba_marseille","lat":43.290104,"lon":5.356111,"is_reserved":false,"is_disabled":false,"rental_uris":{"android":"levelo://app?vid=c2d05974-5965-400a-a8b9-66ce4442391b","ios":"levelo://app?vid=c2d05974-5965-400a-a8b9-66ce4442391b"},"vehicle_type_id":"4","last_reported":1678572386,"current_range_meters":5200,"station_id":"ce4bhb92rcd13ifvqen0","pricing_plan_id":"free"},{"bike_id":"e55bb4d8-5c5e-4107-8e08-0f72e1003048","system_id":"levelo_inurba_marseille","lat":43.290104,"lon":5.356111,"is_reserved":false,"is_disabled":false,"rental_uris":{"android":"levelo://app?vid=e55bb4d8-5c5e-4107-8e08-0f72e1003048","ios":"levelo://app?vid=e55bb4d8-5c5e-4107-8e08-0f72e1003048"},"vehicle_type_id":"4","last_reported":1678572386,"current_range_meters":28000,"station_id":"ce4bhb92rcd13ifvqen0","pricing_plan_id":"free"},{"bike_id":"18d168bd-3310-483c-84fb-85de0f8cb09e","system_id":"levelo_inurba_marseille","lat":43.290065,"lon":5.35605,"is_reserved":false,"is_disabled":false,"rental_uris":{"android":"levelo://app?vid=18d168bd-3310-483c-84fb-85de0f8cb09e","ios":"levelo://app?vid=18d168bd-3310-483c-84fb-85de0f8cb09e"},"vehicle_type_id":"4","last_reported":1678572386,"current_range_meters":30400,"station_id":"ce4bhb92rcd13ifvqen0","pricing_plan_id":"free"},{"bike_id":"bc0a4780-b21d-4f90-951b-4c0d7a15fd2f","system_id":"levelo_inurba_marseille","lat":43.3015,"lon":5.396097,"is_reserved":false,"is_disabled":false,"rental_uris":{"android":"levelo://app?vid=bc0a4780-b21d-4f90-951b-4c0d7a15fd2f","ios":"levelo://app?vid=bc0a4780-b21d-4f90-951b-4c0d7a15fd2f"},"vehicle_type_id":"4","last_reported":1678572386,"current_range_meters":24800,"station_id":"","pricing_plan_id":"free"},{"bike_id":"105d8262-1720-4247-b9d4-90a8f9b131cf","system_id":"levelo_inurba_marseille","lat":43.290034,"lon":5.356159,"is_reserved":false,"is_disabled":false,"rental_uris":{"android":"levelo://app?vid=105d8262-1720-4247-b9d4-90a8f9b131cf","ios":"levelo://app?vid=105d8262-1720-4247-b9d4-90a8f9b131cf"},"vehicle_type_id":"4","last_reported":1678572386,"current_range_meters":0,"station_id":"","pricing_plan_id":"free"},{"bike_id":"513d8c08-6c50-440b-b153-63305c89126c","system_id":"levelo_inurba_marseille","lat":43.330442,"lon":5.389148,"is_reserved":false,"is_disabled":false,"rental_uris":{"android":"levelo://app?vid=513d8c08-6c50-440b-b153-63305c89126c","ios":"levelo://app?vid=513d8c08-6c50-440b-b153-63305c89126c"},"vehicle_type_id":"4","last_reported":1678572386,"current_range_meters":16400,"station_id":"ce4bhr92rcd13ifvqhrg","pricing_plan_id":"free"},{"bike_id":"3acb9add-bae7-46eb-ad06-2b287e34e542","system_id":"levelo_inurba_marseille","lat":43.290104,"lon":5.356111,"is_reserved":false,"is_disabled":false,"rental_uris":{"android":"levelo://app?vid=3acb9add-bae7-46eb-ad06-2b287e34e542","ios":"levelo://app?vid=3acb9add-bae7-46eb-ad06-2b287e34e542"},"vehicle_type_id":"4","last_reported":1678572386,"current_range_meters":26000,"station_id":"ce4bhb92rcd13ifvqen0","pricing_plan_id":"free"},{"bike_id":"8271fbf2-3b96-4b62-9312-53dc24a199f6","system_id":"levelo_inurba_marseille","lat":43.289741,"lon":5.378306,"is_reserved":false,"is_disabled":false,"rental_uris":{"android":"levelo://app?vid=8271fbf2-3b96-4b62-9312-53dc24a199f6","ios":"levelo://app?vid=8271fbf2-3b96-4b62-9312-53dc24a199f6"},"vehicle_type_id":"4","last_reported":1678572386,"current_range_meters":27600,"station_id":"ce4bh9p2rcd13ifvqed0","pricing_plan_id":"free"},{"bike_id":"59f37bbd-1582-4c5a-88c6-474739c24193","system_id":"levelo_inurba_marseille","lat":43.289741,"lon":5.378306,"is_reserved":false,"is_disabled":false,"rental_uris":{"android":"levelo://app?vid=59f37bbd-1582-4c5a-88c6-474739c24193","ios":"levelo://app?vid=59f37bbd-1582-4c5a-88c6-474739c24193"},"vehicle_type_id":"4","last_reported":1678572386,"current_range_meters":6800,"station_id":"ce4bh9p2rcd13ifvqed0","pricing_plan_id":"free"},{"bike_id":"31aad2b8-13f5-4346-b631-d4edea270abb","system_id":"levelo_inurba_marseille","lat":43.290995,"lon":5.381361,"is_reserved":false,"is_disabled":false,"rental_uris":{"android":"levelo://app?vid=31aad2b8-13f5-4346-b631-d4edea270abb","ios":"levelo://app?vid=31aad2b8-13f5-4346-b631-d4edea270abb"},"vehicle_type_id":"4","last_reported":1678572386,"current_range_meters":14800,"station_id":"ce4bh512rcd13ifvqe2g","pricing_plan_id":"free"},{"bike_id":"dd16e088-e4c3-4ba4-a34e-c7a7ced25394","system_id":"levelo_inurba_marseille","lat":43.29946,"lon":5.39537,"is_reserved":false,"is_disabled":false,"rental_uris":{"android":"levelo://app?vid=dd16e088-e4c3-4ba4-a34e-c7a7ced25394","ios":"levelo://app?vid=dd16e088-e4c3-4ba4-a34e-c7a7ced25394"},"vehicle_type_id":"4","last_reported":1678572386,"current_range_meters":31200,"station_id":"","pricing_plan_id":"free"},{"bike_id":"ff29f9b5-3bf4-4b16-ab40-45b1a7569638","system_id":"levelo_inurba_marseille","lat":43.28856,"lon":5.358371,"is_reserved":false,"is_disabled":false,"rental_uris":{"android":"levelo://app?vid=ff29f9b5-3bf4-4b16-ab40-45b1a7569638","ios":"levelo://app?vid=ff29f9b5-3bf4-4b16-ab40-45b1a7569638"},"vehicle_type_id":"4","last_reported":1678572386,"current_range_meters":19200,"station_id":"ce4bhb12rcd13ifvqem0","pricing_plan_id":"free"},{"bike_id":"d57d7d54-7c2a-4649-b6aa-3a071e51d607","system_id":"levelo_inurba_marseille","lat":43.292765,"lon":5.38743,"is_reserved":false,"is_disabled":false,"rental_uris":{"android":"levelo://app?vid=d57d7d54-7c2a-4649-b6aa-3a071e51d607","ios":"levelo://app?vid=d57d7d54-7c2a-4649-b6aa-3a071e51d607"},"vehicle_type_id":"4","last_reported":1678572386,"current_range_meters":16000,"station_id":"","pricing_plan_id":"free"},{"bike_id":"f85bd304-d6a5-4a84-86c0-38a368531c0c","system_id":"levelo_inurba_marseille","lat":43.28856,"lon":5.358371,"is_reserved":false,"is_disabled":false,"rental_uris":{"android":"levelo://app?vid=f85bd304-d6a5-4a84-86c0-38a368531c0c","ios":"levelo://app?vid=f85bd304-d6a5-4a84-86c0-38a368531c0c"},"vehicle_type_id":"4","last_reported":1678572386,"current_range_meters":28800,"station_id":"ce4bhb12rcd13ifvqem0","pricing_plan_id":"free"},{"bike_id":"eef53a7c-7c27-42df-8630-c7c4381119a8","system_id":"levelo_inurba_marseille","lat":43.28856,"lon":5.358371,"is_reserved":false,"is_disabled":false,"rental_uris":{"android":"levelo://app?vid=eef53a7c-7c27-42df-8630-c7c4381119a8","ios":"levelo://app?vid=eef53a7c-7c27-42df-8630-c7c4381119a8"},"vehicle_type_id":"4","last_reported":1678572386,"current_range_meters":400,"station_id":"ce4bhb12rcd13ifvqem0","pricing_plan_id":"free"},{"bike_id":"feb14c2b-8a5e-47ef-9399-5c4f1977fdb7","system_id":"levelo_inurba_marseille","lat":43.301117,"lon":5.398795,"is_reserved":false,"is_disabled":false,"rental_uris":{"android":"levelo://app?vid=feb14c2b-8a5e-47ef-9399-5c4f1977fdb7","ios":"levelo://app?vid=feb14c2b-8a5e-47ef-9399-5c4f1977fdb7"},"vehicle_type_id":"4","last_reported":1678572386,"current_range_meters":14800,"station_id":"ce4bh0h2rcd13ifvqd40","pricing_plan_id":"free"},{"bike_id":"fc98467d-6308-4f7c-ba29-6e9c1182fb6b","system_id":"levelo_inurba_marseille","lat":43.301117,"lon":5.398795,"is_reserved":false,"is_disabled":false,"rental_uris":{"android":"levelo://app?vid=fc98467d-6308-4f7c-ba29-6e9c1182fb6b","ios":"levelo://app?vid=fc98467d-6308-4f7c-ba29-6e9c1182fb6b"},"vehicle_type_id":"4","last_reported":1678572386,"current_range_meters":19600,"station_id":"ce4bh0h2rcd13ifvqd40","pricing_plan_id":"free"},{"bike_id":"ea5caafb-1c7d-48dd-9a29-2139b2fb1b84","system_id":"levelo_inurba_marseille","lat":43.30149,"lon":5.39881,"is_reserved":false,"is_disabled":false,"rental_uris":{"android":"levelo://app?vid=ea5caafb-1c7d-48dd-9a29-2139b2fb1b84","ios":"levelo://app?vid=ea5caafb-1c7d-48dd-9a29-2139b2fb1b84"},"vehicle_type_id":"4","last_reported":1678572386,"current_range_meters":26800,"station_id":"","pricing_plan_id":"free"},{"bike_id":"4037e529-357e-49dc-9167-2dea6a9367a8","system_id":"levelo_inurba_marseille","lat":43.298681,"lon":5.397225,"is_reserved":false,"is_disabled":false,"rental_uris":{"android":"levelo://app?vid=4037e529-357e-49dc-9167-2dea6a9367a8","ios":"levelo://app?vid=4037e529-357e-49dc-9167-2dea6a9367a8"},"vehicle_type_id":"4","last_reported":1678572386,"current_range_meters":28400,"station_id":"ce4bh0h2rcd13ifvqd50","pricing_plan_id":"free"},{"bike_id":"0b3cf110-468e-49b7-9f5b-aa5ee33089dc","system_id":"levelo_inurba_marseille","lat":43.29522,"lon":5.394,"is_reserved":false,"is_disabled":false,"rental_uris":{"android":"levelo://app?vid=0b3cf110-468e-49b7-9f5b-aa5ee33089dc","ios":"levelo://app?vid=0b3cf110-468e-49b7-9f5b-aa5ee33089dc"},"vehicle_type_id":"4","last_reported":1678572386,"current_range_meters":9200,"station_id":"ce4bh212rcd13ifvqde0","pricing_plan_id":"free"},{"bike_id":"8e70820c-4751-4839-96c2-49d1ba6b4c24","system_id":"levelo_inurba_marseille","lat":43.2952,"lon":5.39401,"is_reserved":false,"is_disabled":false,"rental_uris":{"android":"levelo://app?vid=8e70820c-4751-4839-96c2-49d1ba6b4c24","ios":"levelo://app?vid=8e70820c-4751-4839-96c2-49d1ba6b4c24"},"vehicle_type_id":"4","last_reported":1678572386,"current_range_meters":28400,"station_id":"ce4bh212rcd13ifvqde0","pricing_plan_id":"free"},{"bike_id":"5d4b96b3-2d05-4c0e-8ebd-b0dffbe2f678","system_id":"levelo_inurba_marseille","lat":43.29519,"lon":5.394035,"is_reserved":false,"is_disabled":false,"rental_uris":{"android":"levelo://app?vid=5d4b96b3-2d05-4c0e-8ebd-b0dffbe2f678","ios":"levelo://app?vid=5d4b96b3-2d05-4c0e-8ebd-b0dffbe2f678"},"vehicle_type_id":"4","last_reported":1678572386,"current_range_meters":26400,"station_id":"ce4bh212rcd13ifvqde0","pricing_plan_id":"free"},{"bike_id":"d547db91-b07f-4554-a722-d019c77949cd","system_id":"levelo_inurba_marseille","lat":43.29519,"lon":5.39407,"is_reserved":false,"is_disabled":false,"rental_uris":{"android":"levelo://app?vid=d547db91-b07f-4554-a722-d019c77949cd","ios":"levelo://app?vid=d547db91-b07f-4554-a722-d019c77949cd"},"vehicle_type_id":"4","last_reported":1678572386,"current_range_meters":18400,"station_id":"ce4bh212rcd13ifvqde0","pricing_plan_id":"free"},{"bike_id":"63bbe979-1686-4757-bae6-576183283bc1","system_id":"levelo_inurba_marseille","lat":43.29519,"lon":5.39407,"is_reserved":false,"is_disabled":false,"rental_uris":{"android":"levelo://app?vid=63bbe979-1686-4757-bae6-576183283bc1","ios":"levelo://app?vid=63bbe979-1686-4757-bae6-576183283bc1"},"vehicle_type_id":"4","last_reported":1678572386,"current_range_meters":22000,"station_id":"ce4bh212rcd13ifvqde0","pricing_plan_id":"free"},{"bike_id":"82acec02-11e3-488b-83bf-3a733c4c7eb3","system_id":"levelo_inurba_marseille","lat":43.29042,"lon":5.38649,"is_reserved":false,"is_disabled":false,"rental_uris":{"android":"levelo://app?vid=82acec02-11e3-488b-83bf-3a733c4c7eb3","ios":"levelo://app?vid=82acec02-11e3-488b-83bf-3a733c4c7eb3"},"vehicle_type_id":"4","last_reported":1678572386,"current_range_meters":1200,"station_id":"ce4bh4p2rcd13ifvqe0g","pricing_plan_id":"free"},{"bike_id":"5b23170b-6189-48e2-92a6-2618433b8ed8","system_id":"levelo_inurba_marseille","lat":43.29508,"lon":5.39403,"is_reserved":false,"is_disabled":false,"rental_uris":{"android":"levelo://app?vid=5b23170b-6189-48e2-92a6-2618433b8ed8","ios":"levelo://app?vid=5b23170b-6189-48e2-92a6-2618433b8ed8"},"vehicle_type_id":"4","last_reported":1678572386,"current_range_meters":29600,"station_id":"ce4bh292rcd13ifvqdf0","pricing_plan_id":"free"},{"bike_id":"03e43f06-cd3d-4efc-8476-bbeace3b05e4","system_id":"levelo_inurba_marseille","lat":43.29035,"lon":5.38641,"is_reserved":false,"is_disabled":false,"rental_uris":{"android":"levelo://app?vid=03e43f06-cd3d-4efc-8476-bbeace3b05e4","ios":"levelo://app?vid=03e43f06-cd3d-4efc-8476-bbeace3b05e4"},"vehicle_type_id":"4","last_reported":1678572386,"current_range_meters":0,"station_id":"ce4bh4p2rcd13ifvqe0g","pricing_plan_id":"free"},{"bike_id":"95edac08-5f7a-4823-84e2-a568c8fae293","system_id":"levelo_inurba_marseille","lat":43.29031,"lon":5.3864,"is_reserved":false,"is_disabled":false,"rental_uris":{"android":"levelo://app?vid=95edac08-5f7a-4823-84e2-a568c8fae293","ios":"levelo://app?vid=95edac08-5f7a-4823-84e2-a568c8fae293"},"vehicle_type_id":"4","last_reported":1678572386,"current_range_meters":0,"station_id":"ce4bh4p2rcd13ifvqe0g","pricing_plan_id":"free"},{"bike_id":"9a41290e-d72a-4bdc-a1d8-75a26ee7aa9d","system_id":"levelo_inurba_marseille","lat":43.290265,"lon":5.386327,"is_reserved":false,"is_disabled":false,"rental_uris":{"android":"levelo://app?vid=9a41290e-d72a-4bdc-a1d8-75a26ee7aa9d","ios":"levelo://app?vid=9a41290e-d72a-4bdc-a1d8-75a26ee7aa9d"},"vehicle_type_id":"4","last_reported":1678572386,"current_range_meters":0,"station_id":"ce4bh4p2rcd13ifvqe0g","pricing_plan_id":"free"},{"bike_id":"c81d2e5c-5d97-4ff7-a98d-c7d076d05cf4","system_id":"levelo_inurba_marseille","lat":43.28725,"lon":5.37932,"is_reserved":false,"is_disabled":false,"rental_uris":{"android":"levelo://app?vid=c81d2e5c-5d97-4ff7-a98d-c7d076d05cf4","ios":"levelo://app?vid=c81d2e5c-5d97-4ff7-a98d-c7d076d05cf4"},"vehicle_type_id":"4","last_reported":1678572386,"current_range_meters":16400,"station_id":"ce4bh9p2rcd13ifvqec0","pricing_plan_id":"free"},{"bike_id":"7f2e142d-81fe-4704-bd1a-7b9b30c04f48","system_id":"levelo_inurba_marseille","lat":43.287184,"lon":5.37937,"is_reserved":false,"is_disabled":false,"rental_uris":{"android":"levelo://app?vid=7f2e142d-81fe-4704-bd1a-7b9b30c04f48","ios":"levelo://app?vid=7f2e142d-81fe-4704-bd1a-7b9b30c04f48"},"vehicle_type_id":"4","last_reported":1678572386,"current_range_meters":0,"station_id":"ce4bh9p2rcd13ifvqec0","pricing_plan_id":"free"},{"bike_id":"d93bb3b0-5cb2-422b-9b56-bffe29bb3d7f","system_id":"levelo_inurba_marseille","lat":43.31642,"lon":5.40435,"is_reserved":false,"is_disabled":false,"rental_uris":{"android":"levelo://app?vid=d93bb3b0-5cb2-422b-9b56-bffe29bb3d7f","ios":"levelo://app?vid=d93bb3b0-5cb2-422b-9b56-bffe29bb3d7f"},"vehicle_type_id":"4","last_reported":1678572386,"current_range_meters":20000,"station_id":"ce4bh012rcd13ifvqd00","pricing_plan_id":"free"},{"bike_id":"161db933-aeb8-4b83-a76f-f26a0f465db3","system_id":"levelo_inurba_marseille","lat":43.31642,"lon":5.40435,"is_reserved":false,"is_disabled":false,"rental_uris":{"android":"levelo://app?vid=161db933-aeb8-4b83-a76f-f26a0f465db3","ios":"levelo://app?vid=161db933-aeb8-4b83-a76f-f26a0f465db3"},"vehicle_type_id":"4","last_reported":1678572386,"current_range_meters":1600,"station_id":"","pricing_plan_id":"free"},{"bike_id":"b51d770d-a33a-4431-8dd1-d8967064c1d8","system_id":"levelo_inurba_marseille","lat":43.31644,"lon":5.40436,"is_reserved":false,"is_disabled":false,"rental_uris":{"android":"levelo://app?vid=b51d770d-a33a-4431-8dd1-d8967064c1d8","ios":"levelo://app?vid=b51d770d-a33a-4431-8dd1-d8967064c1d8"},"vehicle_type_id":"4","last_reported":1678572386,"current_range_meters":30800,"station_id":"","pricing_plan_id":"free"},{"bike_id":"a7c54f68-4ebd-46c5-ab43-2625d7f16c76","system_id":"levelo_inurba_marseille","lat":43.31643,"lon":5.40437,"is_reserved":false,"is_disabled":false,"rental_uris":{"android":"levelo://app?vid=a7c54f68-4ebd-46c5-ab43-2625d7f16c76","ios":"levelo://app?vid=a7c54f68-4ebd-46c5-ab43-2625d7f16c76"},"vehicle_type_id":"4","last_reported":1678572386,"current_range_meters":800,"station_id":"ce4bh012rcd13ifvqd00","pricing_plan_id":"free"},{"bike_id":"aeca2a0f-cbe9-4c0c-92ff-53b89f86a313","system_id":"levelo_inurba_marseille","lat":43.31644,"lon":5.40438,"is_reserved":false,"is_disabled":false,"rental_uris":{"android":"levelo://app?vid=aeca2a0f-cbe9-4c0c-92ff-53b89f86a313","ios":"levelo://app?vid=aeca2a0f-cbe9-4c0c-92ff-53b89f86a313"},"vehicle_type_id":"4","last_reported":1678572386,"current_range_meters":0,"station_id":"","pricing_plan_id":"free"},{"bike_id":"ea7b04f1-5b15-4c49-915c-0eaf094396bf","system_id":"levelo_inurba_marseille","lat":43.31642,"lon":5.4044,"is_reserved":false,"is_disabled":false,"rental_uris":{"android":"levelo://app?vid=ea7b04f1-5b15-4c49-915c-0eaf094396bf","ios":"levelo://app?vid=ea7b04f1-5b15-4c49-915c-0eaf094396bf"},"vehicle_type_id":"4","last_reported":1678572386,"current_range_meters":19600,"station_id":"ce4bh012rcd13ifvqd00","pricing_plan_id":"free"},{"bike_id":"1cac3514-301e-4317-8dc5-f87dce2d0a21","system_id":"levelo_inurba_marseille","lat":43.31644,"lon":5.4044,"is_reserved":false,"is_disabled":false,"rental_uris":{"android":"levelo://app?vid=1cac3514-301e-4317-8dc5-f87dce2d0a21","ios":"levelo://app?vid=1cac3514-301e-4317-8dc5-f87dce2d0a21"},"vehicle_type_id":"4","last_reported":1678572386,"current_range_meters":5600,"station_id":"ce4bh012rcd13ifvqd00","pricing_plan_id":"free"},{"bike_id":"4fafd2c1-9cd1-495f-8862-c5a347d4ef27","system_id":"levelo_inurba_marseille","lat":43.31641,"lon":5.40443,"is_reserved":false,"is_disabled":false,"rental_uris":{"android":"levelo://app?vid=4fafd2c1-9cd1-495f-8862-c5a347d4ef27","ios":"levelo://app?vid=4fafd2c1-9cd1-495f-8862-c5a347d4ef27"},"vehicle_type_id":"4","last_reported":1678572386,"current_range_meters":2400,"station_id":"","pricing_plan_id":"free"},{"bike_id":"105e6209-9f81-4dd5-8d75-cd70fa323b30","system_id":"levelo_inurba_marseille","lat":43.29127,"lon":5.392335,"is_reserved":false,"is_disabled":false,"rental_uris":{"android":"levelo://app?vid=105e6209-9f81-4dd5-8d75-cd70fa323b30","ios":"levelo://app?vid=105e6209-9f81-4dd5-8d75-cd70fa323b30"},"vehicle_type_id":"4","last_reported":1678572386,"current_range_meters":17200,"station_id":"","pricing_plan_id":"free"},{"bike_id":"9fd42986-c72b-4c87-b192-feb2f1d10594","system_id":"levelo_inurba_marseille","lat":43.284534,"lon":5.358662,"is_reserved":false,"is_disabled":false,"rental_uris":{"android":"levelo://app?vid=9fd42986-c72b-4c87-b192-feb2f1d10594","ios":"levelo://app?vid=9fd42986-c72b-4c87-b192-feb2f1d10594"},"vehicle_type_id":"4","last_reported":1678572386,"current_range_meters":22000,"station_id":"ce4bhah2rcd13ifvqei0","pricing_plan_id":"free"},{"bike_id":"a74db311-6b8e-45eb-b923-d3fc4f6a3ac7","system_id":"levelo_inurba_marseille","lat":43.284601,"lon":5.35891,"is_reserved":false,"is_disabled":false,"rental_uris":{"android":"levelo://app?vid=a74db311-6b8e-45eb-b923-d3fc4f6a3ac7","ios":"levelo://app?vid=a74db311-6b8e-45eb-b923-d3fc4f6a3ac7"},"vehicle_type_id":"4","last_reported":1678572386,"current_range_meters":2400,"station_id":"","pricing_plan_id":"free"},{"bike_id":"0f1609ff-1bb2-4b9c-92ca-70432aad1896","system_id":"levelo_inurba_marseille","lat":43.284593,"lon":5.358913,"is_reserved":false,"is_disabled":false,"rental_uris":{"android":"levelo://app?vid=0f1609ff-1bb2-4b9c-92ca-70432aad1896","ios":"levelo://app?vid=0f1609ff-1bb2-4b9c-92ca-70432aad1896"},"vehicle_type_id":"4","last_reported":1678572386,"current_range_meters":18000,"station_id":"","pricing_plan_id":"free"},{"bike_id":"c05768e7-b675-4456-86a9-67ebb1521077","system_id":"levelo_inurba_marseille","lat":43.28452,"lon":5.35898,"is_reserved":false,"is_disabled":false,"rental_uris":{"android":"levelo://app?vid=c05768e7-b675-4456-86a9-67ebb1521077","ios":"levelo://app?vid=c05768e7-b675-4456-86a9-67ebb1521077"},"vehicle_type_id":"4","last_reported":1678572386,"current_range_meters":0,"station_id":"ce4bhah2rcd13ifvqei0","pricing_plan_id":"free"},{"bike_id":"43c95647-1902-45b8-b6b1-f2a77b5b8724","system_id":"levelo_inurba_marseille","lat":43.28452,"lon":5.35881,"is_reserved":false,"is_disabled":false,"rental_uris":{"android":"levelo://app?vid=43c95647-1902-45b8-b6b1-f2a77b5b8724","ios":"levelo://app?vid=43c95647-1902-45b8-b6b1-f2a77b5b8724"},"vehicle_type_id":"4","last_reported":1678572386,"current_range_meters":27200,"station_id":"","pricing_plan_id":"free"},{"bike_id":"7a6acfcd-efde-4621-8dc0-236a1f614ad3","system_id":"levelo_inurba_marseille","lat":43.286269,"lon":5.383761,"is_reserved":false,"is_disabled":false,"rental_uris":{"android":"levelo://app?vid=7a6acfcd-efde-4621-8dc0-236a1f614ad3","ios":"levelo://app?vid=7a6acfcd-efde-4621-8dc0-236a1f614ad3"},"vehicle_type_id":"4","last_reported":1678572386,"current_range_meters":0,"station_id":"","pricing_plan_id":"free"},{"bike_id":"2f17af51-443f-44d3-8a00-857bee760e30","system_id":"levelo_inurba_marseille","lat":43.295713,"lon":5.399639,"is_reserved":false,"is_disabled":false,"rental_uris":{"android":"levelo://app?vid=2f17af51-443f-44d3-8a00-857bee760e30","ios":"levelo://app?vid=2f17af51-443f-44d3-8a00-857bee760e30"},"vehicle_type_id":"4","last_reported":1678572386,"current_range_meters":11600,"station_id":"ce4bh312rcd13ifvqdj0","pricing_plan_id":"free"},{"bike_id":"4d360ec4-a2e4-4d97-a8b0-1d9ecce6ea3e","system_id":"levelo_inurba_marseille","lat":43.295713,"lon":5.399639,"is_reserved":false,"is_disabled":false,"rental_uris":{"android":"levelo://app?vid=4d360ec4-a2e4-4d97-a8b0-1d9ecce6ea3e","ios":"levelo://app?vid=4d360ec4-a2e4-4d97-a8b0-1d9ecce6ea3e"},"vehicle_type_id":"4","last_reported":1678572386,"current_range_meters":12400,"station_id":"ce4bh312rcd13ifvqdj0","pricing_plan_id":"free"},{"bike_id":"ab3a7ccc-13b5-430d-b955-40fc7d6bcbc3","system_id":"levelo_inurba_marseille","lat":43.295713,"lon":5.399639,"is_reserved":false,"is_disabled":false,"rental_uris":{"android":"levelo://app?vid=ab3a7ccc-13b5-430d-b955-40fc7d6bcbc3","ios":"levelo://app?vid=ab3a7ccc-13b5-430d-b955-40fc7d6bcbc3"},"vehicle_type_id":"4","last_reported":1678572386,"current_range_meters":0,"station_id":"ce4bh312rcd13ifvqdj0","pricing_plan_id":"free"},{"bike_id":"220dfd62-2d65-4d2e-9927-fa9344990af4","system_id":"levelo_inurba_marseille","lat":43.295713,"lon":5.399639,"is_reserved":false,"is_disabled":false,"rental_uris":{"android":"levelo://app?vid=220dfd62-2d65-4d2e-9927-fa9344990af4","ios":"levelo://app?vid=220dfd62-2d65-4d2e-9927-fa9344990af4"},"vehicle_type_id":"4","last_reported":1678572386,"current_range_meters":0,"station_id":"ce4bh312rcd13ifvqdj0","pricing_plan_id":"free"},{"bike_id":"846d15cf-61c4-4b09-854d-16722c47a8c1","system_id":"levelo_inurba_marseille","lat":43.286595,"lon":5.386795,"is_reserved":false,"is_disabled":false,"rental_uris":{"android":"levelo://app?vid=846d15cf-61c4-4b09-854d-16722c47a8c1","ios":"levelo://app?vid=846d15cf-61c4-4b09-854d-16722c47a8c1"},"vehicle_type_id":"4","last_reported":1678572386,"current_range_meters":4400,"station_id":"ce4bh492rcd13ifvqdug","pricing_plan_id":"free"},{"bike_id":"903a5980-c38b-4495-aec3-d491495d3194","system_id":"levelo_inurba_marseille","lat":43.286595,"lon":5.386795,"is_reserved":false,"is_disabled":false,"rental_uris":{"android":"levelo://app?vid=903a5980-c38b-4495-aec3-d491495d3194","ios":"levelo://app?vid=903a5980-c38b-4495-aec3-d491495d3194"},"vehicle_type_id":"4","last_reported":1678572386,"current_range_meters":7200,"station_id":"ce4bh492rcd13ifvqdug","pricing_plan_id":"free"},{"bike_id":"050f4f1e-b516-4546-a648-9ea0d4e1ed8b","system_id":"levelo_inurba_marseille","lat":43.286595,"lon":5.386795,"is_reserved":false,"is_disabled":false,"rental_uris":{"android":"levelo://app?vid=050f4f1e-b516-4546-a648-9ea0d4e1ed8b","ios":"levelo://app?vid=050f4f1e-b516-4546-a648-9ea0d4e1ed8b"},"vehicle_type_id":"4","last_reported":1678572386,"current_range_meters":0,"station_id":"ce4bh492rcd13ifvqdug","pricing_plan_id":"free"},{"bike_id":"e48c8f9f-92be-4431-b094-5387281544cf","system_id":"levelo_inurba_marseille","lat":43.286438,"lon":5.386033,"is_reserved":false,"is_disabled":false,"rental_uris":{"android":"levelo://app?vid=e48c8f9f-92be-4431-b094-5387281544cf","ios":"levelo://app?vid=e48c8f9f-92be-4431-b094-5387281544cf"},"vehicle_type_id":"4","last_reported":1678572386,"current_range_meters":30800,"station_id":"","pricing_plan_id":"free"},{"bike_id":"c6663e10-5580-4ca6-b47e-7f4f35e494f7","system_id":"levelo_inurba_marseille","lat":43.33715,"lon":5.3918,"is_reserved":false,"is_disabled":false,"rental_uris":{"android":"levelo://app?vid=c6663e10-5580-4ca6-b47e-7f4f35e494f7","ios":"levelo://app?vid=c6663e10-5580-4ca6-b47e-7f4f35e494f7"},"vehicle_type_id":"4","last_reported":1678572386,"current_range_meters":26000,"station_id":"","pricing_plan_id":"free"},{"bike_id":"7ebff1c8-db28-4930-a896-d6a1bb9e737c","system_id":"levelo_inurba_marseille","lat":43.337168,"lon":5.391825,"is_reserved":false,"is_disabled":false,"rental_uris":{"android":"levelo://app?vid=7ebff1c8-db28-4930-a896-d6a1bb9e737c","ios":"levelo://app?vid=7ebff1c8-db28-4930-a896-d6a1bb9e737c"},"vehicle_type_id":"4","last_reported":1678572386,"current_range_meters":31600,"station_id":"ce4bhr92rcd13ifvqhsg","pricing_plan_id":"free"},{"bike_id":"dcb1c353-e269-432c-a7d8-02e1d0292eb6","system_id":"levelo_inurba_marseille","lat":43.337168,"lon":5.391825,"is_reserved":false,"is_disabled":false,"rental_uris":{"android":"levelo://app?vid=dcb1c353-e269-432c-a7d8-02e1d0292eb6","ios":"levelo://app?vid=dcb1c353-e269-432c-a7d8-02e1d0292eb6"},"vehicle_type_id":"4","last_reported":1678572386,"current_range_meters":6000,"station_id":"ce4bhr92rcd13ifvqhsg","pricing_plan_id":"free"},{"bike_id":"071751a6-2257-4f47-b83d-6a49691737ea","system_id":"levelo_inurba_marseille","lat":43.337243,"lon":5.39177,"is_reserved":false,"is_disabled":false,"rental_uris":{"android":"levelo://app?vid=071751a6-2257-4f47-b83d-6a49691737ea","ios":"levelo://app?vid=071751a6-2257-4f47-b83d-6a49691737ea"},"vehicle_type_id":"4","last_reported":1678572386,"current_range_meters":19600,"station_id":"","pricing_plan_id":"free"},{"bike_id":"4e34cadd-607d-4ba4-83f0-da4cac819d45","system_id":"levelo_inurba_marseille","lat":43.337168,"lon":5.391825,"is_reserved":false,"is_disabled":false,"rental_uris":{"android":"levelo://app?vid=4e34cadd-607d-4ba4-83f0-da4cac819d45","ios":"levelo://app?vid=4e34cadd-607d-4ba4-83f0-da4cac819d45"},"vehicle_type_id":"4","last_reported":1678572386,"current_range_meters":27600,"station_id":"ce4bhr92rcd13ifvqhsg","pricing_plan_id":"free"},{"bike_id":"16f0dc7b-56a1-4503-831f-4e1fb24172ab","system_id":"levelo_inurba_marseille","lat":43.337168,"lon":5.391825,"is_reserved":false,"is_disabled":false,"rental_uris":{"android":"levelo://app?vid=16f0dc7b-56a1-4503-831f-4e1fb24172ab","ios":"levelo://app?vid=16f0dc7b-56a1-4503-831f-4e1fb24172ab"},"vehicle_type_id":"4","last_reported":1678572386,"current_range_meters":25600,"station_id":"ce4bhr92rcd13ifvqhsg","pricing_plan_id":"free"},{"bike_id":"42e28ab5-8793-4be0-9d7f-ebdfd7e9b678","system_id":"levelo_inurba_marseille","lat":43.337168,"lon":5.391825,"is_reserved":false,"is_disabled":false,"rental_uris":{"android":"levelo://app?vid=42e28ab5-8793-4be0-9d7f-ebdfd7e9b678","ios":"levelo://app?vid=42e28ab5-8793-4be0-9d7f-ebdfd7e9b678"},"vehicle_type_id":"4","last_reported":1678572386,"current_range_meters":15200,"station_id":"ce4bhr92rcd13ifvqhsg","pricing_plan_id":"free"},{"bike_id":"024758cd-58b3-47e4-a65c-1a19a9b716b5","system_id":"levelo_inurba_marseille","lat":43.337168,"lon":5.391825,"is_reserved":false,"is_disabled":false,"rental_uris":{"android":"levelo://app?vid=024758cd-58b3-47e4-a65c-1a19a9b716b5","ios":"levelo://app?vid=024758cd-58b3-47e4-a65c-1a19a9b716b5"},"vehicle_type_id":"4","last_reported":1678572386,"current_range_meters":13200,"station_id":"ce4bhr92rcd13ifvqhsg","pricing_plan_id":"free"},{"bike_id":"be89b116-4999-470c-a7d4-b1c9dc279419","system_id":"levelo_inurba_marseille","lat":43.337168,"lon":5.391825,"is_reserved":false,"is_disabled":false,"rental_uris":{"android":"levelo://app?vid=be89b116-4999-470c-a7d4-b1c9dc279419","ios":"levelo://app?vid=be89b116-4999-470c-a7d4-b1c9dc279419"},"vehicle_type_id":"4","last_reported":1678572386,"current_range_meters":30000,"station_id":"ce4bhr92rcd13ifvqhsg","pricing_plan_id":"free"},{"bike_id":"8740c9a6-83bd-4ec0-b313-25a6fb365634","system_id":"levelo_inurba_marseille","lat":43.337168,"lon":5.391825,"is_reserved":false,"is_disabled":false,"rental_uris":{"android":"levelo://app?vid=8740c9a6-83bd-4ec0-b313-25a6fb365634","ios":"levelo://app?vid=8740c9a6-83bd-4ec0-b313-25a6fb365634"},"vehicle_type_id":"4","last_reported":1678572386,"current_range_meters":12800,"station_id":"ce4bhr92rcd13ifvqhsg","pricing_plan_id":"free"},{"bike_id":"cfbcfa0e-a04b-48fb-a2af-b7c60c740e1b","system_id":"levelo_inurba_marseille","lat":43.32338,"lon":5.40629,"is_reserved":false,"is_disabled":false,"rental_uris":{"android":"levelo://app?vid=cfbcfa0e-a04b-48fb-a2af-b7c60c740e1b","ios":"levelo://app?vid=cfbcfa0e-a04b-48fb-a2af-b7c60c740e1b"},"vehicle_type_id":"4","last_reported":1678572386,"current_range_meters":5200,"station_id":"","pricing_plan_id":"free"},{"bike_id":"6c61dd91-2bd0-4b7e-920d-81c59afd8c3e","system_id":"levelo_inurba_marseille","lat":43.289363,"lon":5.396322,"is_reserved":false,"is_disabled":false,"rental_uris":{"android":"levelo://app?vid=6c61dd91-2bd0-4b7e-920d-81c59afd8c3e","ios":"levelo://app?vid=6c61dd91-2bd0-4b7e-920d-81c59afd8c3e"},"vehicle_type_id":"4","last_reported":1678572386,"current_range_meters":16000,"station_id":"ce4bh3h2rcd13ifvqdn0","pricing_plan_id":"free"},{"bike_id":"2434d055-f328-4c43-8a05-f9e5a4227747","system_id":"levelo_inurba_marseille","lat":43.292724,"lon":5.401131,"is_reserved":false,"is_disabled":false,"rental_uris":{"android":"levelo://app?vid=2434d055-f328-4c43-8a05-f9e5a4227747","ios":"levelo://app?vid=2434d055-f328-4c43-8a05-f9e5a4227747"},"vehicle_type_id":"4","last_reported":1678572386,"current_range_meters":8400,"station_id":"ce4bh312rcd13ifvqdk0","pricing_plan_id":"free"},{"bike_id":"e057184b-f31f-4200-99d1-6c04a9fceed7","system_id":"levelo_inurba_marseille","lat":43.292724,"lon":5.401131,"is_reserved":false,"is_disabled":false,"rental_uris":{"android":"levelo://app?vid=e057184b-f31f-4200-99d1-6c04a9fceed7","ios":"levelo://app?vid=e057184b-f31f-4200-99d1-6c04a9fceed7"},"vehicle_type_id":"4","last_reported":1678572386,"current_range_meters":25200,"station_id":"ce4bh312rcd13ifvqdk0","pricing_plan_id":"free"},{"bike_id":"964e8de7-9b28-4c90-83b5-3d230da28288","system_id":"levelo_inurba_marseille","lat":43.292724,"lon":5.401131,"is_reserved":false,"is_disabled":false,"rental_uris":{"android":"levelo://app?vid=964e8de7-9b28-4c90-83b5-3d230da28288","ios":"levelo://app?vid=964e8de7-9b28-4c90-83b5-3d230da28288"},"vehicle_type_id":"4","last_reported":1678572386,"current_range_meters":12400,"station_id":"ce4bh312rcd13ifvqdk0","pricing_plan_id":"free"},{"bike_id":"7eea7e0c-b64e-4ea5-897f-164d9bab6995","system_id":"levelo_inurba_marseille","lat":43.282744,"lon":5.350666,"is_reserved":false,"is_disabled":false,"rental_uris":{"android":"levelo://app?vid=7eea7e0c-b64e-4ea5-897f-164d9bab6995","ios":"levelo://app?vid=7eea7e0c-b64e-4ea5-897f-164d9bab6995"},"vehicle_type_id":"4","last_reported":1678572386,"current_range_meters":0,"station_id":"ce4bhbp2rcd13ifvqerg","pricing_plan_id":"free"},{"bike_id":"20033068-6816-49c6-8ecb-581794cf7c4f","system_id":"levelo_inurba_marseille","lat":43.283502,"lon":5.386471,"is_reserved":false,"is_disabled":false,"rental_uris":{"android":"levelo://app?vid=20033068-6816-49c6-8ecb-581794cf7c4f","ios":"levelo://app?vid=20033068-6816-49c6-8ecb-581794cf7c4f"},"vehicle_type_id":"4","last_reported":1678572386,"current_range_meters":0,"station_id":"ce4bh492rcd13ifvqdvg","pricing_plan_id":"free"},{"bike_id":"d2d67695-ea3f-4064-b6b9-6af351070314","system_id":"levelo_inurba_marseille","lat":43.280382,"lon":5.369291,"is_reserved":false,"is_disabled":false,"rental_uris":{"android":"levelo://app?vid=d2d67695-ea3f-4064-b6b9-6af351070314","ios":"levelo://app?vid=d2d67695-ea3f-4064-b6b9-6af351070314"},"vehicle_type_id":"4","last_reported":1678572386,"current_range_meters":17600,"station_id":"ce4bha12rcd13ifvqef0","pricing_plan_id":"free"},{"bike_id":"b9ce73d3-bc74-43a1-b32c-9aff711d22c3","system_id":"levelo_inurba_marseille","lat":43.280382,"lon":5.369291,"is_reserved":false,"is_disabled":false,"rental_uris":{"android":"levelo://app?vid=b9ce73d3-bc74-43a1-b32c-9aff711d22c3","ios":"levelo://app?vid=b9ce73d3-bc74-43a1-b32c-9aff711d22c3"},"vehicle_type_id":"4","last_reported":1678572386,"current_range_meters":5600,"station_id":"ce4bha12rcd13ifvqef0","pricing_plan_id":"free"},{"bike_id":"9cddb692-274a-415b-82e4-93e280e396b0","system_id":"levelo_inurba_marseille","lat":43.280382,"lon":5.369291,"is_reserved":false,"is_disabled":false,"rental_uris":{"android":"levelo://app?vid=9cddb692-274a-415b-82e4-93e280e396b0","ios":"levelo://app?vid=9cddb692-274a-415b-82e4-93e280e396b0"},"vehicle_type_id":"4","last_reported":1678572386,"current_range_meters":5600,"station_id":"ce4bha12rcd13ifvqef0","pricing_plan_id":"free"},{"bike_id":"500a553c-de52-42fd-bf74-2ff59e3a3cff","system_id":"levelo_inurba_marseille","lat":43.28039,"lon":5.369297,"is_reserved":false,"is_disabled":false,"rental_uris":{"android":"levelo://app?vid=500a553c-de52-42fd-bf74-2ff59e3a3cff","ios":"levelo://app?vid=500a553c-de52-42fd-bf74-2ff59e3a3cff"},"vehicle_type_id":"4","last_reported":1678572386,"current_range_meters":29600,"station_id":"ce4bha12rcd13ifvqef0","pricing_plan_id":"free"},{"bike_id":"52600047-77e7-44c4-a3b1-3098851ee8f4","system_id":"levelo_inurba_marseille","lat":43.28039,"lon":5.369297,"is_reserved":false,"is_disabled":false,"rental_uris":{"android":"levelo://app?vid=52600047-77e7-44c4-a3b1-3098851ee8f4","ios":"levelo://app?vid=52600047-77e7-44c4-a3b1-3098851ee8f4"},"vehicle_type_id":"4","last_reported":1678572386,"current_range_meters":12400,"station_id":"ce4bha12rcd13ifvqef0","pricing_plan_id":"free"},{"bike_id":"d4bb87ad-5a94-4ebc-91e6-8d325da11171","system_id":"levelo_inurba_marseille","lat":43.28039,"lon":5.369297,"is_reserved":false,"is_disabled":false,"rental_uris":{"android":"levelo://app?vid=d4bb87ad-5a94-4ebc-91e6-8d325da11171","ios":"levelo://app?vid=d4bb87ad-5a94-4ebc-91e6-8d325da11171"},"vehicle_type_id":"4","last_reported":1678572386,"current_range_meters":8400,"station_id":"ce4bha12rcd13ifvqef0","pricing_plan_id":"free"},{"bike_id":"051d8d00-5ced-43f5-ad27-3cc9f2d03f4f","system_id":"levelo_inurba_marseille","lat":43.28039,"lon":5.369297,"is_reserved":false,"is_disabled":false,"rental_uris":{"android":"levelo://app?vid=051d8d00-5ced-43f5-ad27-3cc9f2d03f4f","ios":"levelo://app?vid=051d8d00-5ced-43f5-ad27-3cc9f2d03f4f"},"vehicle_type_id":"4","last_reported":1678572386,"current_range_meters":11200,"station_id":"ce4bha12rcd13ifvqef0","pricing_plan_id":"free"},{"bike_id":"81fd18e9-7355-4bbd-87bc-229eb8a30511","system_id":"levelo_inurba_marseille","lat":43.28039,"lon":5.369297,"is_reserved":false,"is_disabled":false,"rental_uris":{"android":"levelo://app?vid=81fd18e9-7355-4bbd-87bc-229eb8a30511","ios":"levelo://app?vid=81fd18e9-7355-4bbd-87bc-229eb8a30511"},"vehicle_type_id":"4","last_reported":1678572386,"current_range_meters":18000,"station_id":"ce4bha12rcd13ifvqef0","pricing_plan_id":"free"},{"bike_id":"9a445530-f935-43b9-83cd-dac150e1e678","system_id":"levelo_inurba_marseille","lat":43.290412,"lon":5.399633,"is_reserved":false,"is_disabled":false,"rental_uris":{"android":"levelo://app?vid=9a445530-f935-43b9-83cd-dac150e1e678","ios":"levelo://app?vid=9a445530-f935-43b9-83cd-dac150e1e678"},"vehicle_type_id":"4","last_reported":1678572386,"current_range_meters":12800,"station_id":"ce4bh392rcd13ifvqdm0","pricing_plan_id":"free"},{"bike_id":"6593f8f6-c31c-4083-bbae-2d1be5f23f41","system_id":"levelo_inurba_marseille","lat":43.290412,"lon":5.399633,"is_reserved":false,"is_disabled":false,"rental_uris":{"android":"levelo://app?vid=6593f8f6-c31c-4083-bbae-2d1be5f23f41","ios":"levelo://app?vid=6593f8f6-c31c-4083-bbae-2d1be5f23f41"},"vehicle_type_id":"4","last_reported":1678572386,"current_range_meters":8800,"station_id":"ce4bh392rcd13ifvqdm0","pricing_plan_id":"free"},{"bike_id":"459b3bae-1d22-457e-9249-2ce3b7427b5a","system_id":"levelo_inurba_marseille","lat":43.29031,"lon":5.39959,"is_reserved":false,"is_disabled":false,"rental_uris":{"android":"levelo://app?vid=459b3bae-1d22-457e-9249-2ce3b7427b5a","ios":"levelo://app?vid=459b3bae-1d22-457e-9249-2ce3b7427b5a"},"vehicle_type_id":"4","last_reported":1678572386,"current_range_meters":800,"station_id":"ce4bh392rcd13ifvqdm0","pricing_plan_id":"free"},{"bike_id":"433b0ebb-c6a7-439c-bc79-d8c392491a41","system_id":"levelo_inurba_marseille","lat":43.281044,"lon":5.378308,"is_reserved":false,"is_disabled":false,"rental_uris":{"android":"levelo://app?vid=433b0ebb-c6a7-439c-bc79-d8c392491a41","ios":"levelo://app?vid=433b0ebb-c6a7-439c-bc79-d8c392491a41"},"vehicle_type_id":"4","last_reported":1678572386,"current_range_meters":0,"station_id":"ce4bha12rcd13ifvqee0","pricing_plan_id":"free"},{"bike_id":"fec09732-64aa-43f5-9905-67be1df14449","system_id":"levelo_inurba_marseille","lat":43.28099,"lon":5.37834,"is_reserved":false,"is_disabled":false,"rental_uris":{"android":"levelo://app?vid=fec09732-64aa-43f5-9905-67be1df14449","ios":"levelo://app?vid=fec09732-64aa-43f5-9905-67be1df14449"},"vehicle_type_id":"4","last_reported":1678572386,"current_range_meters":3600,"station_id":"ce4bha12rcd13ifvqee0","pricing_plan_id":"free"},{"bike_id":"5d3089ef-ea26-47cd-a9df-3a22aa2ae572","system_id":"levelo_inurba_marseille","lat":43.28099,"lon":5.37846,"is_reserved":false,"is_disabled":false,"rental_uris":{"android":"levelo://app?vid=5d3089ef-ea26-47cd-a9df-3a22aa2ae572","ios":"levelo://app?vid=5d3089ef-ea26-47cd-a9df-3a22aa2ae572"},"vehicle_type_id":"4","last_reported":1678572386,"current_range_meters":23200,"station_id":"ce4bha12rcd13ifvqee0","pricing_plan_id":"free"},{"bike_id":"2b587f6e-38e5-4a56-8258-6ca43ea1f617","system_id":"levelo_inurba_marseille","lat":43.28092,"lon":5.3783,"is_reserved":false,"is_disabled":false,"rental_uris":{"android":"levelo://app?vid=2b587f6e-38e5-4a56-8258-6ca43ea1f617","ios":"levelo://app?vid=2b587f6e-38e5-4a56-8258-6ca43ea1f617"},"vehicle_type_id":"4","last_reported":1678572386,"current_range_meters":0,"station_id":"ce4bha12rcd13ifvqee0","pricing_plan_id":"free"},{"bike_id":"3f2725b7-2468-4b16-90d5-b1410f43d28c","system_id":"levelo_inurba_marseille","lat":43.28701,"lon":5.39987,"is_reserved":false,"is_disabled":false,"rental_uris":{"android":"levelo://app?vid=3f2725b7-2468-4b16-90d5-b1410f43d28c","ios":"levelo://app?vid=3f2725b7-2468-4b16-90d5-b1410f43d28c"},"vehicle_type_id":"4","last_reported":1678572386,"current_range_meters":5200,"station_id":"ce4bho92rcd13ifvqh3g","pricing_plan_id":"free"},{"bike_id":"5270c8a7-7392-4182-8c5b-b1054d416fd7","system_id":"levelo_inurba_marseille","lat":43.287154,"lon":5.399979,"is_reserved":false,"is_disabled":false,"rental_uris":{"android":"levelo://app?vid=5270c8a7-7392-4182-8c5b-b1054d416fd7","ios":"levelo://app?vid=5270c8a7-7392-4182-8c5b-b1054d416fd7"},"vehicle_type_id":"4","last_reported":1678572386,"current_range_meters":6400,"station_id":"ce4bho92rcd13ifvqh3g","pricing_plan_id":"free"},{"bike_id":"d873de88-39ec-4ff2-9ffd-f98414bb9fd1","system_id":"levelo_inurba_marseille","lat":43.320444,"lon":5.415326,"is_reserved":false,"is_disabled":false,"rental_uris":{"android":"levelo://app?vid=d873de88-39ec-4ff2-9ffd-f98414bb9fd1","ios":"levelo://app?vid=d873de88-39ec-4ff2-9ffd-f98414bb9fd1"},"vehicle_type_id":"4","last_reported":1678572386,"current_range_meters":30400,"station_id":"","pricing_plan_id":"free"},{"bike_id":"f1959eed-5890-462f-b90a-ae35b37bc793","system_id":"levelo_inurba_marseille","lat":43.279742,"lon":5.38744,"is_reserved":false,"is_disabled":false,"rental_uris":{"android":"levelo://app?vid=f1959eed-5890-462f-b90a-ae35b37bc793","ios":"levelo://app?vid=f1959eed-5890-462f-b90a-ae35b37bc793"},"vehicle_type_id":"4","last_reported":1678572386,"current_range_meters":12000,"station_id":"ce4bhg12rcd13ifvqf80","pricing_plan_id":"free"},{"bike_id":"652de2e5-7d4f-41be-8f9e-1dba6d0ea678","system_id":"levelo_inurba_marseille","lat":43.320045,"lon":5.415048,"is_reserved":false,"is_disabled":false,"rental_uris":{"android":"levelo://app?vid=652de2e5-7d4f-41be-8f9e-1dba6d0ea678","ios":"levelo://app?vid=652de2e5-7d4f-41be-8f9e-1dba6d0ea678"},"vehicle_type_id":"4","last_reported":1678572386,"current_range_meters":25200,"station_id":"ce4bhq92rcd13ifvqhkg","pricing_plan_id":"free"},{"bike_id":"86241b88-164f-4ead-ab7e-313f87213e2c","system_id":"levelo_inurba_marseille","lat":43.320045,"lon":5.415048,"is_reserved":false,"is_disabled":false,"rental_uris":{"android":"levelo://app?vid=86241b88-164f-4ead-ab7e-313f87213e2c","ios":"levelo://app?vid=86241b88-164f-4ead-ab7e-313f87213e2c"},"vehicle_type_id":"4","last_reported":1678572386,"current_range_meters":17200,"station_id":"ce4bhq92rcd13ifvqhkg","pricing_plan_id":"free"},{"bike_id":"5dd14ec1-75d5-496b-87fc-db177a17fe58","system_id":"levelo_inurba_marseille","lat":43.320045,"lon":5.415048,"is_reserved":false,"is_disabled":false,"rental_uris":{"android":"levelo://app?vid=5dd14ec1-75d5-496b-87fc-db177a17fe58","ios":"levelo://app?vid=5dd14ec1-75d5-496b-87fc-db177a17fe58"},"vehicle_type_id":"4","last_reported":1678572386,"current_range_meters":14800,"station_id":"ce4bhq92rcd13ifvqhkg","pricing_plan_id":"free"},{"bike_id":"12d93222-8545-4cbc-8d66-06921f4e0044","system_id":"levelo_inurba_marseille","lat":43.320045,"lon":5.415048,"is_reserved":false,"is_disabled":false,"rental_uris":{"android":"levelo://app?vid=12d93222-8545-4cbc-8d66-06921f4e0044","ios":"levelo://app?vid=12d93222-8545-4cbc-8d66-06921f4e0044"},"vehicle_type_id":"4","last_reported":1678572386,"current_range_meters":27200,"station_id":"ce4bhq92rcd13ifvqhkg","pricing_plan_id":"free"},{"bike_id":"8033fd04-d3dd-4935-9ba0-09ae37b10d3b","system_id":"levelo_inurba_marseille","lat":43.320045,"lon":5.415048,"is_reserved":false,"is_disabled":false,"rental_uris":{"android":"levelo://app?vid=8033fd04-d3dd-4935-9ba0-09ae37b10d3b","ios":"levelo://app?vid=8033fd04-d3dd-4935-9ba0-09ae37b10d3b"},"vehicle_type_id":"4","last_reported":1678572386,"current_range_meters":27600,"station_id":"ce4bhq92rcd13ifvqhkg","pricing_plan_id":"free"},{"bike_id":"686ca4df-aa22-4fe5-812e-fa96ecad3590","system_id":"levelo_inurba_marseille","lat":43.31667,"lon":5.416281,"is_reserved":false,"is_disabled":false,"rental_uris":{"android":"levelo://app?vid=686ca4df-aa22-4fe5-812e-fa96ecad3590","ios":"levelo://app?vid=686ca4df-aa22-4fe5-812e-fa96ecad3590"},"vehicle_type_id":"4","last_reported":1678572386,"current_range_meters":3600,"station_id":"","pricing_plan_id":"free"},{"bike_id":"0b7d513a-1686-4af4-b43e-7fa76826ae06","system_id":"levelo_inurba_marseille","lat":43.320045,"lon":5.415048,"is_reserved":false,"is_disabled":false,"rental_uris":{"android":"levelo://app?vid=0b7d513a-1686-4af4-b43e-7fa76826ae06","ios":"levelo://app?vid=0b7d513a-1686-4af4-b43e-7fa76826ae06"},"vehicle_type_id":"4","last_reported":1678572386,"current_range_meters":0,"station_id":"ce4bhq92rcd13ifvqhkg","pricing_plan_id":"free"},{"bike_id":"62d5ccff-05fe-4953-b201-2101628b29e2","system_id":"levelo_inurba_marseille","lat":43.32055,"lon":5.415457,"is_reserved":false,"is_disabled":false,"rental_uris":{"android":"levelo://app?vid=62d5ccff-05fe-4953-b201-2101628b29e2","ios":"levelo://app?vid=62d5ccff-05fe-4953-b201-2101628b29e2"},"vehicle_type_id":"4","last_reported":1678572386,"current_range_meters":28800,"station_id":"","pricing_plan_id":"free"},{"bike_id":"b17c7f76-d7ea-4ce5-a812-b36dc5275426","system_id":"levelo_inurba_marseille","lat":43.279742,"lon":5.38744,"is_reserved":false,"is_disabled":false,"rental_uris":{"android":"levelo://app?vid=b17c7f76-d7ea-4ce5-a812-b36dc5275426","ios":"levelo://app?vid=b17c7f76-d7ea-4ce5-a812-b36dc5275426"},"vehicle_type_id":"4","last_reported":1678572386,"current_range_meters":17200,"station_id":"ce4bhg12rcd13ifvqf80","pricing_plan_id":"free"},{"bike_id":"b193c10f-b1c9-4e3a-a61b-12bc2ed175b1","system_id":"levelo_inurba_marseille","lat":43.32064,"lon":5.41554,"is_reserved":false,"is_disabled":false,"rental_uris":{"android":"levelo://app?vid=b193c10f-b1c9-4e3a-a61b-12bc2ed175b1","ios":"levelo://app?vid=b193c10f-b1c9-4e3a-a61b-12bc2ed175b1"},"vehicle_type_id":"4","last_reported":1678572386,"current_range_meters":31600,"station_id":"","pricing_plan_id":"free"},{"bike_id":"3c66161c-daa5-4bb1-a510-99eaaccccbc3","system_id":"levelo_inurba_marseille","lat":43.320045,"lon":5.415048,"is_reserved":false,"is_disabled":false,"rental_uris":{"android":"levelo://app?vid=3c66161c-daa5-4bb1-a510-99eaaccccbc3","ios":"levelo://app?vid=3c66161c-daa5-4bb1-a510-99eaaccccbc3"},"vehicle_type_id":"4","last_reported":1678572386,"current_range_meters":25200,"station_id":"ce4bhq92rcd13ifvqhkg","pricing_plan_id":"free"},{"bike_id":"fc310a87-5e94-4fdc-a419-ef9c0efa8e04","system_id":"levelo_inurba_marseille","lat":43.320045,"lon":5.415048,"is_reserved":false,"is_disabled":false,"rental_uris":{"android":"levelo://app?vid=fc310a87-5e94-4fdc-a419-ef9c0efa8e04","ios":"levelo://app?vid=fc310a87-5e94-4fdc-a419-ef9c0efa8e04"},"vehicle_type_id":"4","last_reported":1678572386,"current_range_meters":25200,"station_id":"ce4bhq92rcd13ifvqhkg","pricing_plan_id":"free"},{"bike_id":"15a11a18-aa9e-4f3c-9970-5acb808dd945","system_id":"levelo_inurba_marseille","lat":43.292569,"lon":5.409107,"is_reserved":false,"is_disabled":false,"rental_uris":{"android":"levelo://app?vid=15a11a18-aa9e-4f3c-9970-5acb808dd945","ios":"levelo://app?vid=15a11a18-aa9e-4f3c-9970-5acb808dd945"},"vehicle_type_id":"4","last_reported":1678572386,"current_range_meters":4400,"station_id":"ce4bh192rcd13ifvqdc0","pricing_plan_id":"free"},{"bike_id":"45b0a26b-fbe6-4f16-96bd-187a255706eb","system_id":"levelo_inurba_marseille","lat":43.3254,"lon":5.41437,"is_reserved":false,"is_disabled":false,"rental_uris":{"android":"levelo://app?vid=45b0a26b-fbe6-4f16-96bd-187a255706eb","ios":"levelo://app?vid=45b0a26b-fbe6-4f16-96bd-187a255706eb"},"vehicle_type_id":"4","last_reported":1678572386,"current_range_meters":25200,"station_id":"ce4bhq12rcd13ifvqhhg","pricing_plan_id":"free"},{"bike_id":"18aa44bb-65a4-4112-aada-f68a39a6d620","system_id":"levelo_inurba_marseille","lat":43.27618,"lon":5.361009,"is_reserved":false,"is_disabled":false,"rental_uris":{"android":"levelo://app?vid=18aa44bb-65a4-4112-aada-f68a39a6d620","ios":"levelo://app?vid=18aa44bb-65a4-4112-aada-f68a39a6d620"},"vehicle_type_id":"4","last_reported":1678572386,"current_range_meters":28000,"station_id":"ce4bgj92rcd13ifvqbe0","pricing_plan_id":"free"},{"bike_id":"888ec31e-7ff1-4415-9121-a594691e70f7","system_id":"levelo_inurba_marseille","lat":43.27618,"lon":5.361009,"is_reserved":false,"is_disabled":false,"rental_uris":{"android":"levelo://app?vid=888ec31e-7ff1-4415-9121-a594691e70f7","ios":"levelo://app?vid=888ec31e-7ff1-4415-9121-a594691e70f7"},"vehicle_type_id":"4","last_reported":1678572386,"current_range_meters":30800,"station_id":"ce4bgj92rcd13ifvqbe0","pricing_plan_id":"free"},{"bike_id":"c81f28f0-8e18-4d86-9832-4d93127084ed","system_id":"levelo_inurba_marseille","lat":43.27618,"lon":5.361009,"is_reserved":false,"is_disabled":false,"rental_uris":{"android":"levelo://app?vid=c81f28f0-8e18-4d86-9832-4d93127084ed","ios":"levelo://app?vid=c81f28f0-8e18-4d86-9832-4d93127084ed"},"vehicle_type_id":"4","last_reported":1678572386,"current_range_meters":28400,"station_id":"ce4bgj92rcd13ifvqbe0","pricing_plan_id":"free"},{"bike_id":"eeee4959-eb30-4633-8433-8f24fc03fd13","system_id":"levelo_inurba_marseille","lat":43.325243,"lon":5.414326,"is_reserved":false,"is_disabled":false,"rental_uris":{"android":"levelo://app?vid=eeee4959-eb30-4633-8433-8f24fc03fd13","ios":"levelo://app?vid=eeee4959-eb30-4633-8433-8f24fc03fd13"},"vehicle_type_id":"4","last_reported":1678572386,"current_range_meters":26800,"station_id":"ce4bhq12rcd13ifvqhhg","pricing_plan_id":"free"},{"bike_id":"4e3fe89f-1f82-43e6-a58d-364147f1545e","system_id":"levelo_inurba_marseille","lat":43.27618,"lon":5.361009,"is_reserved":false,"is_disabled":false,"rental_uris":{"android":"levelo://app?vid=4e3fe89f-1f82-43e6-a58d-364147f1545e","ios":"levelo://app?vid=4e3fe89f-1f82-43e6-a58d-364147f1545e"},"vehicle_type_id":"4","last_reported":1678572386,"current_range_meters":31200,"station_id":"ce4bgj92rcd13ifvqbe0","pricing_plan_id":"free"},{"bike_id":"8c9726c5-efe4-4657-bcf4-896245da61b0","system_id":"levelo_inurba_marseille","lat":43.27618,"lon":5.361009,"is_reserved":false,"is_disabled":false,"rental_uris":{"android":"levelo://app?vid=8c9726c5-efe4-4657-bcf4-896245da61b0","ios":"levelo://app?vid=8c9726c5-efe4-4657-bcf4-896245da61b0"},"vehicle_type_id":"4","last_reported":1678572386,"current_range_meters":26400,"station_id":"ce4bgj92rcd13ifvqbe0","pricing_plan_id":"free"},{"bike_id":"1d321179-1483-4a22-9355-5170945100a9","system_id":"levelo_inurba_marseille","lat":43.27618,"lon":5.361009,"is_reserved":false,"is_disabled":false,"rental_uris":{"android":"levelo://app?vid=1d321179-1483-4a22-9355-5170945100a9","ios":"levelo://app?vid=1d321179-1483-4a22-9355-5170945100a9"},"vehicle_type_id":"4","last_reported":1678572386,"current_range_meters":26400,"station_id":"ce4bgj92rcd13ifvqbe0","pricing_plan_id":"free"},{"bike_id":"f337c44f-a883-4a34-8cf7-87d7f52e27e0","system_id":"levelo_inurba_marseille","lat":43.27618,"lon":5.361009,"is_reserved":false,"is_disabled":false,"rental_uris":{"android":"levelo://app?vid=f337c44f-a883-4a34-8cf7-87d7f52e27e0","ios":"levelo://app?vid=f337c44f-a883-4a34-8cf7-87d7f52e27e0"},"vehicle_type_id":"4","last_reported":1678572386,"current_range_meters":21600,"station_id":"ce4bgj92rcd13ifvqbe0","pricing_plan_id":"free"},{"bike_id":"6468e0a6-f2cf-467b-8e75-468defeb1af8","system_id":"levelo_inurba_marseille","lat":43.325243,"lon":5.414326,"is_reserved":false,"is_disabled":false,"rental_uris":{"android":"levelo://app?vid=6468e0a6-f2cf-467b-8e75-468defeb1af8","ios":"levelo://app?vid=6468e0a6-f2cf-467b-8e75-468defeb1af8"},"vehicle_type_id":"4","last_reported":1678572386,"current_range_meters":27600,"station_id":"ce4bhq12rcd13ifvqhhg","pricing_plan_id":"free"},{"bike_id":"32eee528-8ea6-4a0c-93c2-aa56b73abd47","system_id":"levelo_inurba_marseille","lat":43.27618,"lon":5.361009,"is_reserved":false,"is_disabled":false,"rental_uris":{"android":"levelo://app?vid=32eee528-8ea6-4a0c-93c2-aa56b73abd47","ios":"levelo://app?vid=32eee528-8ea6-4a0c-93c2-aa56b73abd47"},"vehicle_type_id":"4","last_reported":1678572386,"current_range_meters":5600,"station_id":"ce4bgj92rcd13ifvqbe0","pricing_plan_id":"free"},{"bike_id":"64cc5183-8758-4e73-94a1-6e5b39947225","system_id":"levelo_inurba_marseille","lat":43.28075,"lon":5.39659,"is_reserved":false,"is_disabled":false,"rental_uris":{"android":"levelo://app?vid=64cc5183-8758-4e73-94a1-6e5b39947225","ios":"levelo://app?vid=64cc5183-8758-4e73-94a1-6e5b39947225"},"vehicle_type_id":"4","last_reported":1678572386,"current_range_meters":5600,"station_id":"ce4bho12rcd13ifvqh2g","pricing_plan_id":"free"},{"bike_id":"bc5b89f3-2855-4d4e-8ee1-2e503e73d318","system_id":"levelo_inurba_marseille","lat":43.27374,"lon":5.362571,"is_reserved":false,"is_disabled":false,"rental_uris":{"android":"levelo://app?vid=bc5b89f3-2855-4d4e-8ee1-2e503e73d318","ios":"levelo://app?vid=bc5b89f3-2855-4d4e-8ee1-2e503e73d318"},"vehicle_type_id":"4","last_reported":1678572386,"current_range_meters":5200,"station_id":"","pricing_plan_id":"free"},{"bike_id":"0dc39486-aaef-44b5-8242-d2af21732895","system_id":"levelo_inurba_marseille","lat":43.273613,"lon":5.362705,"is_reserved":false,"is_disabled":false,"rental_uris":{"android":"levelo://app?vid=0dc39486-aaef-44b5-8242-d2af21732895","ios":"levelo://app?vid=0dc39486-aaef-44b5-8242-d2af21732895"},"vehicle_type_id":"4","last_reported":1678572386,"current_range_meters":15200,"station_id":"ce4bhbh2rcd13ifvqeo0","pricing_plan_id":"free"},{"bike_id":"c2f34b34-a363-4bc1-bfc9-0c7448be1f19","system_id":"levelo_inurba_marseille","lat":43.33612,"lon":5.410321,"is_reserved":false,"is_disabled":false,"rental_uris":{"android":"levelo://app?vid=c2f34b34-a363-4bc1-bfc9-0c7448be1f19","ios":"levelo://app?vid=c2f34b34-a363-4bc1-bfc9-0c7448be1f19"},"vehicle_type_id":"4","last_reported":1678572386,"current_range_meters":26800,"station_id":"ce4bhqh2rcd13ifvqhmg","pricing_plan_id":"free"},{"bike_id":"5443ae52-8a2b-40e0-a313-9119cef256e7","system_id":"levelo_inurba_marseille","lat":43.33612,"lon":5.410321,"is_reserved":false,"is_disabled":false,"rental_uris":{"android":"levelo://app?vid=5443ae52-8a2b-40e0-a313-9119cef256e7","ios":"levelo://app?vid=5443ae52-8a2b-40e0-a313-9119cef256e7"},"vehicle_type_id":"4","last_reported":1678572386,"current_range_meters":21600,"station_id":"ce4bhqh2rcd13ifvqhmg","pricing_plan_id":"free"},{"bike_id":"6e7e6b58-27e8-42c5-a438-4508638380dc","system_id":"levelo_inurba_marseille","lat":43.317121,"lon":5.423936,"is_reserved":false,"is_disabled":false,"rental_uris":{"android":"levelo://app?vid=6e7e6b58-27e8-42c5-a438-4508638380dc","ios":"levelo://app?vid=6e7e6b58-27e8-42c5-a438-4508638380dc"},"vehicle_type_id":"4","last_reported":1678572386,"current_range_meters":30000,"station_id":"ce4bhp92rcd13ifvqhbg","pricing_plan_id":"free"},{"bike_id":"320f462b-9eb1-4fb5-a2cd-fe80b8ab86f9","system_id":"levelo_inurba_marseille","lat":43.310785,"lon":5.424305,"is_reserved":false,"is_disabled":false,"rental_uris":{"android":"levelo://app?vid=320f462b-9eb1-4fb5-a2cd-fe80b8ab86f9","ios":"levelo://app?vid=320f462b-9eb1-4fb5-a2cd-fe80b8ab86f9"},"vehicle_type_id":"4","last_reported":1678572386,"current_range_meters":6000,"station_id":"ce4bhp92rcd13ifvqhag","pricing_plan_id":"free"},{"bike_id":"acb252d6-4137-4734-89dd-f03a2f5a61cc","system_id":"levelo_inurba_marseille","lat":43.317121,"lon":5.423936,"is_reserved":false,"is_disabled":false,"rental_uris":{"android":"levelo://app?vid=acb252d6-4137-4734-89dd-f03a2f5a61cc","ios":"levelo://app?vid=acb252d6-4137-4734-89dd-f03a2f5a61cc"},"vehicle_type_id":"4","last_reported":1678572386,"current_range_meters":30400,"station_id":"ce4bhp92rcd13ifvqhbg","pricing_plan_id":"free"},{"bike_id":"1a6a6aee-5226-4f5b-9a87-40269df84807","system_id":"levelo_inurba_marseille","lat":43.31081,"lon":5.42434,"is_reserved":false,"is_disabled":false,"rental_uris":{"android":"levelo://app?vid=1a6a6aee-5226-4f5b-9a87-40269df84807","ios":"levelo://app?vid=1a6a6aee-5226-4f5b-9a87-40269df84807"},"vehicle_type_id":"4","last_reported":1678572386,"current_range_meters":4800,"station_id":"","pricing_plan_id":"free"},{"bike_id":"742cadd3-6767-41ed-83f1-e5e887438f5a","system_id":"levelo_inurba_marseille","lat":43.27321,"lon":5.39259,"is_reserved":false,"is_disabled":false,"rental_uris":{"android":"levelo://app?vid=742cadd3-6767-41ed-83f1-e5e887438f5a","ios":"levelo://app?vid=742cadd3-6767-41ed-83f1-e5e887438f5a"},"vehicle_type_id":"4","last_reported":1678572386,"current_range_meters":0,"station_id":"","pricing_plan_id":"free"},{"bike_id":"14670e19-fc61-4ba5-b833-26488510b22f","system_id":"levelo_inurba_marseille","lat":43.295511,"lon":5.422926,"is_reserved":false,"is_disabled":false,"rental_uris":{"android":"levelo://app?vid=14670e19-fc61-4ba5-b833-26488510b22f","ios":"levelo://app?vid=14670e19-fc61-4ba5-b833-26488510b22f"},"vehicle_type_id":"4","last_reported":1678572386,"current_range_meters":15600,"station_id":"ce4bhph2rcd13ifvqhdg","pricing_plan_id":"free"},{"bike_id":"4abe47de-a7db-4e8a-bf9b-ea3749358064","system_id":"levelo_inurba_marseille","lat":43.295511,"lon":5.422926,"is_reserved":false,"is_disabled":false,"rental_uris":{"android":"levelo://app?vid=4abe47de-a7db-4e8a-bf9b-ea3749358064","ios":"levelo://app?vid=4abe47de-a7db-4e8a-bf9b-ea3749358064"},"vehicle_type_id":"4","last_reported":1678572386,"current_range_meters":2800,"station_id":"ce4bhph2rcd13ifvqhdg","pricing_plan_id":"free"},{"bike_id":"236da3e4-e24a-4414-9e16-0945b3f5d9f5","system_id":"levelo_inurba_marseille","lat":43.295511,"lon":5.422926,"is_reserved":false,"is_disabled":false,"rental_uris":{"android":"levelo://app?vid=236da3e4-e24a-4414-9e16-0945b3f5d9f5","ios":"levelo://app?vid=236da3e4-e24a-4414-9e16-0945b3f5d9f5"},"vehicle_type_id":"4","last_reported":1678572386,"current_range_meters":23200,"station_id":"ce4bhph2rcd13ifvqhdg","pricing_plan_id":"free"},{"bike_id":"e296376b-3c84-420e-8848-33d781bd09f9","system_id":"levelo_inurba_marseille","lat":43.295511,"lon":5.422926,"is_reserved":false,"is_disabled":false,"rental_uris":{"android":"levelo://app?vid=e296376b-3c84-420e-8848-33d781bd09f9","ios":"levelo://app?vid=e296376b-3c84-420e-8848-33d781bd09f9"},"vehicle_type_id":"4","last_reported":1678572386,"current_range_meters":6800,"station_id":"ce4bhph2rcd13ifvqhdg","pricing_plan_id":"free"},{"bike_id":"3b79a11e-19b7-4453-936f-2b7772d911b6","system_id":"levelo_inurba_marseille","lat":43.295511,"lon":5.422926,"is_reserved":false,"is_disabled":false,"rental_uris":{"android":"levelo://app?vid=3b79a11e-19b7-4453-936f-2b7772d911b6","ios":"levelo://app?vid=3b79a11e-19b7-4453-936f-2b7772d911b6"},"vehicle_type_id":"4","last_reported":1678572386,"current_range_meters":7200,"station_id":"ce4bhph2rcd13ifvqhdg","pricing_plan_id":"free"},{"bike_id":"a42f4735-50f8-4936-b56d-f9ba87d03b0f","system_id":"levelo_inurba_marseille","lat":43.278128,"lon":5.407195,"is_reserved":false,"is_disabled":false,"rental_uris":{"android":"levelo://app?vid=a42f4735-50f8-4936-b56d-f9ba87d03b0f","ios":"levelo://app?vid=a42f4735-50f8-4936-b56d-f9ba87d03b0f"},"vehicle_type_id":"4","last_reported":1678572386,"current_range_meters":31600,"station_id":"ce4bhnh2rcd13ifvqgtg","pricing_plan_id":"free"},{"bike_id":"571c0bb9-5085-4b1b-ae9d-103e607c8c16","system_id":"levelo_inurba_marseille","lat":43.278128,"lon":5.407195,"is_reserved":false,"is_disabled":false,"rental_uris":{"android":"levelo://app?vid=571c0bb9-5085-4b1b-ae9d-103e607c8c16","ios":"levelo://app?vid=571c0bb9-5085-4b1b-ae9d-103e607c8c16"},"vehicle_type_id":"4","last_reported":1678572386,"current_range_meters":27200,"station_id":"ce4bhnh2rcd13ifvqgtg","pricing_plan_id":"free"},{"bike_id":"8f450f70-a425-4078-9406-247afee27289","system_id":"levelo_inurba_marseille","lat":43.278128,"lon":5.407195,"is_reserved":false,"is_disabled":false,"rental_uris":{"android":"levelo://app?vid=8f450f70-a425-4078-9406-247afee27289","ios":"levelo://app?vid=8f450f70-a425-4078-9406-247afee27289"},"vehicle_type_id":"4","last_reported":1678572386,"current_range_meters":8800,"station_id":"ce4bhnh2rcd13ifvqgtg","pricing_plan_id":"free"},{"bike_id":"eb64aa52-f4ca-45a0-a970-1a3b54c8b40a","system_id":"levelo_inurba_marseille","lat":43.278128,"lon":5.407195,"is_reserved":false,"is_disabled":false,"rental_uris":{"android":"levelo://app?vid=eb64aa52-f4ca-45a0-a970-1a3b54c8b40a","ios":"levelo://app?vid=eb64aa52-f4ca-45a0-a970-1a3b54c8b40a"},