{"last_updated":1716069962,"ttl":30,"version":"2.2","data":{"bikes":[{"bike_id":"32460bde-8f33-47dd-a2bb-21d9fb813593","system_id":"levelo_inurba_marseille","lat":43.313391,"lon":5.36706,"is_reserved":false,"is_disabled":false,"rental_uris":{"android":"levelo://app?vid=32460bde-8f33-47dd-a2bb-21d9fb813593","ios":"levelo://app?vid=32460bde-8f33-47dd-a2bb-21d9fb813593"},"vehicle_type_id":"4","last_reported":1716069962,"current_range_meters":25200,"station_id":"ce4bgr92rcd13ifvqc6g","pricing_plan_id":"cebpf4jnsgd1na2vs0mg"},{"bike_id":"c2d9cd61-d03b-4e7b-8334-6f3865033b05","system_id":"levelo_inurba_marseille","lat":43.312239,"lon":5.368562,"is_reserved":false,"is_disabled":false,"rental_uris":{"android":"levelo://app?vid=c2d9cd61-d03b-4e7b-8334-6f3865033b05","ios":"levelo://app?vid=c2d9cd61-d03b-4e7b-8334-6f3865033b05"},"vehicle_type_id":"4","last_reported":1716069962,"current_range_meters":0,"station_id":"ce4bgl92rcd13ifvqbq0","pricing_plan_id":"cebpf4jnsgd1na2vs0mg"},{"bike_id":"556213a6-5be5-4677-bd71-b90cfae155e3","system_id":"levelo_inurba_marseille","lat":43.31229,"lon":5.36846,"is_reserved":false,"is_disabled":false,"rental_uris":{"android":"levelo://app?vid=556213a6-5be5-4677-bd71-b90cfae155e3","ios":"levelo://app?vid=556213a6-5be5-4677-bd71-b90cfae155e3"},"vehicle_type_id":"4","last_reported":1716069962,"current_range_meters":800,"station_id":"ce4bgl92rcd13ifvqbq0","pricing_plan_id":"cebpf4jnsgd1na2vs0mg"},{"bike_id":"ac5da85e-4718-4484-a5d6-efff2a2a20bb","system_id":"levelo_inurba_marseille","lat":43.312239,"lon":5.368562,"is_reserved":false,"is_disabled":false,"rental_uris":{"android":"levelo://app?vid=ac5da85e-4718-4484-a5d6-efff2a2a20bb","ios":"levelo://app?vid=ac5da85e-4718-4484-a5d6-efff2a2a20bb"},"vehicle_type_id":"4","last_reported":1716069962,"current_range_meters":800,"station_id":"ce4bgl92rcd13ifvqbq0","pricing_plan_id":"cebpf4jnsgd1na2vs0mg"},{"bike_id":"a34bac37-7d6b-47ec-b4a2-a78639f14042","system_id":"levelo_inurba_marseille","lat":43.312239,"lon":5.368562,"is_reserved":false,"is_disabled":false,"rental_uris":{"android":"levelo://app?vid=a34bac37-7d6b-47ec-b4a2-a78639f14042","ios":"levelo://app?vid=a34bac37-7d6b-47ec-b4a2-a78639f14042"},"vehicle_type_id":"4","last_reported":1716069962,"current_range_meters":2400,"station_id":"ce4bgl92rcd13ifvqbq0","pricing_plan_id":"cebpf4jnsgd1na2vs0mg"},{"bike_id":"72299425-d4c9-4d02-aeae-520d5e142803","system_id":"levelo_inurba_marseille","lat":43.312239,"lon":5.368562,"is_reserved":false,"is_disabled":false,"rental_uris":{"android":"levelo://app?vid=72299425-d4c9-4d02-aeae-520d5e142803","ios":"levelo://app?vid=72299425-d4c9-4d02-aeae-520d5e142803"},"vehicle_type_id":"4","last_reported":1716069962,"current_range_meters":9600,"station_id":"ce4bgl92rcd13ifvqbq0","pricing_plan_id":"cebpf4jnsgd1na2vs0mg"},{"bike_id":"71c94cc2-aa56-434d-a97e-2ed7ac4c7c4e","system_id":"levelo_inurba_marseille","lat":43.312239,"lon":5.368562,"is_reserved":false,"is_disabled":false,"rental_uris":{"android":"levelo://app?vid=71c94cc2-aa56-434d-a97e-2ed7ac4c7c4e","ios":"levelo://app?vid=71c94cc2-aa56-434d-a97e-2ed7ac4c7c4e"},"vehicle_type_id":"4","last_reported":1716069962,"current_range_meters":0,"station_id":"ce4bgl92rcd13ifvqbq0","pricing_plan_id":"cebpf4jnsgd1na2vs0mg"},{"bike_id":"70dd3dac-06bc-4852-addd-a15855cf365c","system_id":"levelo_inurba_marseille","lat":43.312239,"lon":5.368562,"is_reserved":false,"is_disabled":false,"rental_uris":{"android":"levelo://app?vid=70dd3dac-06bc-4852-addd-a15855cf365c","ios":"levelo://app?vid=70dd3dac-06bc-4852-addd-a15855cf365c"},"vehicle_type_id":"4","last_reported":1716069962,"current_range_meters":2800,"station_id":"ce4bgl92rcd13ifvqbq0","pricing_plan_id":"cebpf4jnsgd1na2vs0mg"},{"bike_id":"0408e87e-d2a0-4ed7-8c2b-d9bcfc13dab9","system_id":"levelo_inurba_marseille","lat":43.312239,"lon":5.368562,"is_reserved":false,"is_disabled":false,"rental_uris":{"android":"levelo://app?vid=0408e87e-d2a0-4ed7-8c2b-d9bcfc13dab9","ios":"levelo://app?vid=0408e87e-d2a0-4ed7-8c2b-d9bcfc13dab9"},"vehicle_type_id":"4","last_reported":1716069962,"current_range_meters":8000,"station_id":"ce4bgl92rcd13ifvqbq0","pricing_plan_id":"cebpf4jnsgd1na2vs0mg"},{"bike_id":"b7d69b16-5f0e-4b6e-89ff-1a630de438bb","system_id":"levelo_inurba_marseille","lat":43.31466,"lon":5.37016,"is_reserved":false,"is_disabled":false,"rental_uris":{"android":"levelo://app?vid=b7d69b16-5f0e-4b6e-89ff-1a630de438bb","ios":"levelo://app?vid=b7d69b16-5f0e-4b6e-89ff-1a630de438bb"},"vehicle_type_id":"4","last_reported":1716069962,"current_range_meters":18400,"station_id":"","pricing_plan_id":"cebpf4jnsgd1na2vs0mg"},{"bike_id":"130722a7-8e5d-4b8d-aec7-e3007b4dbb49","system_id":"levelo_inurba_marseille","lat":43.309076,"lon":5.368465,"is_reserved":false,"is_disabled":false,"rental_uris":{"android":"levelo://app?vid=130722a7-8e5d-4b8d-aec7-e3007b4dbb49","ios":"levelo://app?vid=130722a7-8e5d-4b8d-aec7-e3007b4dbb49"},"vehicle_type_id":"4","last_reported":1716069962,"current_range_meters":22000,"station_id":"ce4bgn92rcd13ifvqbvg","pricing_plan_id":"cebpf4jnsgd1na2vs0mg"},{"bike_id":"dfa1bc6f-8c92-4c88-a357-df7598e9015f","system_id":"levelo_inurba_marseille","lat":43.309076,"lon":5.368465,"is_reserved":false,"is_disabled":false,"rental_uris":{"android":"levelo://app?vid=dfa1bc6f-8c92-4c88-a357-df7598e9015f","ios":"levelo://app?vid=dfa1bc6f-8c92-4c88-a357-df7598e9015f"},"vehicle_type_id":"4","last_reported":1716069962,"current_range_meters":9200,"station_id":"ce4bgn92rcd13ifvqbvg","pricing_plan_id":"cebpf4jnsgd1na2vs0mg"},{"bike_id":"480ebdd1-0729-4862-ae1a-b83837e29fe9","system_id":"levelo_inurba_marseille","lat":43.309076,"lon":5.368465,"is_reserved":false,"is_disabled":false,"rental_uris":{"android":"levelo://app?vid=480ebdd1-0729-4862-ae1a-b83837e29fe9","ios":"levelo://app?vid=480ebdd1-0729-4862-ae1a-b83837e29fe9"},"vehicle_type_id":"4","last_reported":1716069962,"current_range_meters":28400,"station_id":"ce4bgn92rcd13ifvqbvg","pricing_plan_id":"cebpf4jnsgd1na2vs0mg"},{"bike_id":"a430a35c-58ad-4699-8031-0929c3001ce0","system_id":"levelo_inurba_marseille","lat":43.309076,"lon":5.368465,"is_reserved":false,"is_disabled":false,"rental_uris":{"android":"levelo://app?vid=a430a35c-58ad-4699-8031-0929c3001ce0","ios":"levelo://app?vid=a430a35c-58ad-4699-8031-0929c3001ce0"},"vehicle_type_id":"4","last_reported":1716069962,"current_range_meters":11200,"station_id":"ce4bgn92rcd13ifvqbvg","pricing_plan_id":"cebpf4jnsgd1na2vs0mg"},{"bike_id":"2c18b6af-4cff-4cdb-a9e2-37f9b2f01964","system_id":"levelo_inurba_marseille","lat":43.30903,"lon":5.36848,"is_reserved":false,"is_disabled":false,"rental_uris":{"android":"levelo://app?vid=2c18b6af-4cff-4cdb-a9e2-37f9b2f01964","ios":"levelo://app?vid=2c18b6af-4cff-4cdb-a9e2-37f9b2f01964"},"vehicle_type_id":"4","last_reported":1716069962,"current_range_meters":0,"station_id":"ce4bgn92rcd13ifvqbvg","pricing_plan_id":"cebpf4jnsgd1na2vs0mg"},{"bike_id":"afab2cc5-130e-4bbc-976b-ed8f91749591","system_id":"levelo_inurba_marseille","lat":43.309402,"lon":5.370872,"is_reserved":false,"is_disabled":false,"rental_uris":{"android":"levelo://app?vid=afab2cc5-130e-4bbc-976b-ed8f91749591","ios":"levelo://app?vid=afab2cc5-130e-4bbc-976b-ed8f91749591"},"vehicle_type_id":"4","last_reported":1716069962,"current_range_meters":21200,"station_id":"","pricing_plan_id":"cebpf4jnsgd1na2vs0mg"},{"bike_id":"17454d5f-221f-4f19-a62f-01664d81abdb","system_id":"levelo_inurba_marseille","lat":43.314811,"lon":5.373103,"is_reserved":false,"is_disabled":false,"rental_uris":{"android":"levelo://app?vid=17454d5f-221f-4f19-a62f-01664d81abdb","ios":"levelo://app?vid=17454d5f-221f-4f19-a62f-01664d81abdb"},"vehicle_type_id":"4","last_reported":1716069962,"current_range_meters":0,"station_id":"ce4bgt12rcd13ifvqcd0","pricing_plan_id":"cebpf4jnsgd1na2vs0mg"},{"bike_id":"5653dacc-d69c-4c23-b552-8feb9ad263f6","system_id":"levelo_inurba_marseille","lat":43.314811,"lon":5.373104,"is_reserved":false,"is_disabled":false,"rental_uris":{"android":"levelo://app?vid=5653dacc-d69c-4c23-b552-8feb9ad263f6","ios":"levelo://app?vid=5653dacc-d69c-4c23-b552-8feb9ad263f6"},"vehicle_type_id":"4","last_reported":1716069962,"current_range_meters":0,"station_id":"ce4bgt12rcd13ifvqcd0","pricing_plan_id":"cebpf4jnsgd1na2vs0mg"},{"bike_id":"8a52e9a8-881b-4e09-8ba1-0ef938bfdff1","system_id":"levelo_inurba_marseille","lat":43.314811,"lon":5.373103,"is_reserved":false,"is_disabled":false,"rental_uris":{"android":"levelo://app?vid=8a52e9a8-881b-4e09-8ba1-0ef938bfdff1","ios":"levelo://app?vid=8a52e9a8-881b-4e09-8ba1-0ef938bfdff1"},"vehicle_type_id":"4","last_reported":1716069962,"current_range_meters":16800,"station_id":"ce4bgt12rcd13ifvqcd0","pricing_plan_id":"cebpf4jnsgd1na2vs0mg"},{"bike_id":"6896e7b0-894f-4c52-81a2-7ca575b212cf","system_id":"levelo_inurba_marseille","lat":43.31501,"lon":5.37308,"is_reserved":false,"is_disabled":false,"rental_uris":{"android":"levelo://app?vid=6896e7b0-894f-4c52-81a2-7ca575b212cf","ios":"levelo://app?vid=6896e7b0-894f-4c52-81a2-7ca575b212cf"},"vehicle_type_id":"4","last_reported":1716069962,"current_range_meters":0,"station_id":"ce4bgt12rcd13ifvqcd0","pricing_plan_id":"cebpf4jnsgd1na2vs0mg"},{"bike_id":"1c9bdaf0-1b50-42b6-bd59-ca5d90401baa","system_id":"levelo_inurba_marseille","lat":43.309039,"lon":5.371797,"is_reserved":false,"is_disabled":false,"rental_uris":{"android":"levelo://app?vid=1c9bdaf0-1b50-42b6-bd59-ca5d90401baa","ios":"levelo://app?vid=1c9bdaf0-1b50-42b6-bd59-ca5d90401baa"},"vehicle_type_id":"4","last_reported":1716069962,"current_range_meters":0,"station_id":"ce4bguh2rcd13ifvqckg","pricing_plan_id":"cebpf4jnsgd1na2vs0mg"},{"bike_id":"aeb8666d-b1c3-430c-875a-b5295405a21d","system_id":"levelo_inurba_marseille","lat":43.309039,"lon":5.371797,"is_reserved":false,"is_disabled":false,"rental_uris":{"android":"levelo://app?vid=aeb8666d-b1c3-430c-875a-b5295405a21d","ios":"levelo://app?vid=aeb8666d-b1c3-430c-875a-b5295405a21d"},"vehicle_type_id":"4","last_reported":1716069962,"current_range_meters":18000,"station_id":"ce4bguh2rcd13ifvqckg","pricing_plan_id":"cebpf4jnsgd1na2vs0mg"},{"bike_id":"d4ad029b-8068-495f-97fc-176655e6dee7","system_id":"levelo_inurba_marseille","lat":43.309039,"lon":5.371797,"is_reserved":false,"is_disabled":false,"rental_uris":{"android":"levelo://app?vid=d4ad029b-8068-495f-97fc-176655e6dee7","ios":"levelo://app?vid=d4ad029b-8068-495f-97fc-176655e6dee7"},"vehicle_type_id":"4","last_reported":1716069962,"current_range_meters":13200,"station_id":"ce4bguh2rcd13ifvqckg","pricing_plan_id":"cebpf4jnsgd1na2vs0mg"},{"bike_id":"ba643919-559c-4b1b-984e-b97f14486f61","system_id":"levelo_inurba_marseille","lat":43.30882,"lon":5.37183,"is_reserved":false,"is_disabled":false,"rental_uris":{"android":"levelo://app?vid=ba643919-559c-4b1b-984e-b97f14486f61","ios":"levelo://app?vid=ba643919-559c-4b1b-984e-b97f14486f61"},"vehicle_type_id":"4","last_reported":1716069962,"current_range_meters":4800,"station_id":"ce4bguh2rcd13ifvqckg","pricing_plan_id":"cebpf4jnsgd1na2vs0mg"},{"bike_id":"a277fe65-7ca8-46b0-927f-8ef2dae50fa5","system_id":"levelo_inurba_marseille","lat":43.309034,"lon":5.371783,"is_reserved":false,"is_disabled":false,"rental_uris":{"android":"levelo://app?vid=a277fe65-7ca8-46b0-927f-8ef2dae50fa5","ios":"levelo://app?vid=a277fe65-7ca8-46b0-927f-8ef2dae50fa5"},"vehicle_type_id":"4","last_reported":1716069962,"current_range_meters":1600,"station_id":"ce4bguh2rcd13ifvqckg","pricing_plan_id":"cebpf4jnsgd1na2vs0mg"},{"bike_id":"0457c65c-3859-4983-94e2-dd5a582ab7dc","system_id":"levelo_inurba_marseille","lat":43.309039,"lon":5.371797,"is_reserved":false,"is_disabled":false,"rental_uris":{"android":"levelo://app?vid=0457c65c-3859-4983-94e2-dd5a582ab7dc","ios":"levelo://app?vid=0457c65c-3859-4983-94e2-dd5a582ab7dc"},"vehicle_type_id":"4","last_reported":1716069962,"current_range_meters":21200,"station_id":"ce4bguh2rcd13ifvqckg","pricing_plan_id":"cebpf4jnsgd1na2vs0mg"},{"bike_id":"9a8b8d24-884d-4d6a-b26a-739d2a9b340c","system_id":"levelo_inurba_marseille","lat":43.305714,"lon":5.365633,"is_reserved":false,"is_disabled":false,"rental_uris":{"android":"levelo://app?vid=9a8b8d24-884d-4d6a-b26a-739d2a9b340c","ios":"levelo://app?vid=9a8b8d24-884d-4d6a-b26a-739d2a9b340c"},"vehicle_type_id":"4","last_reported":1716069962,"current_range_meters":0,"station_id":"ce4bgs12rcd13ifvqcag","pricing_plan_id":"cebpf4jnsgd1na2vs0mg"},{"bike_id":"ca5e5761-7af6-4db2-adbc-31f2ba1332cf","system_id":"levelo_inurba_marseille","lat":43.305714,"lon":5.365633,"is_reserved":false,"is_disabled":false,"rental_uris":{"android":"levelo://app?vid=ca5e5761-7af6-4db2-adbc-31f2ba1332cf","ios":"levelo://app?vid=ca5e5761-7af6-4db2-adbc-31f2ba1332cf"},"vehicle_type_id":"4","last_reported":1716069962,"current_range_meters":19200,"station_id":"ce4bgs12rcd13ifvqcag","pricing_plan_id":"cebpf4jnsgd1na2vs0mg"},{"bike_id":"fa62f0e2-8708-4801-9e78-0c7e73636c28","system_id":"levelo_inurba_marseille","lat":43.305989,"lon":5.37225,"is_reserved":false,"is_disabled":false,"rental_uris":{"android":"levelo://app?vid=fa62f0e2-8708-4801-9e78-0c7e73636c28","ios":"levelo://app?vid=fa62f0e2-8708-4801-9e78-0c7e73636c28"},"vehicle_type_id":"4","last_reported":1716069962,"current_range_meters":16400,"station_id":"ce4bgqh2rcd13ifvqc4g","pricing_plan_id":"cebpf4jnsgd1na2vs0mg"},{"bike_id":"62c01425-2f36-468e-92a9-10bdd9088916","system_id":"levelo_inurba_marseille","lat":43.305989,"lon":5.37225,"is_reserved":false,"is_disabled":false,"rental_uris":{"android":"levelo://app?vid=62c01425-2f36-468e-92a9-10bdd9088916","ios":"levelo://app?vid=62c01425-2f36-468e-92a9-10bdd9088916"},"vehicle_type_id":"4","last_reported":1716069962,"current_range_meters":3200,"station_id":"ce4bgqh2rcd13ifvqc4g","pricing_plan_id":"cebpf4jnsgd1na2vs0mg"},{"bike_id":"8f7e4fe9-82b6-4f0d-9172-d2f29dffc194","system_id":"levelo_inurba_marseille","lat":43.311131,"lon":5.377651,"is_reserved":false,"is_disabled":false,"rental_uris":{"android":"levelo://app?vid=8f7e4fe9-82b6-4f0d-9172-d2f29dffc194","ios":"levelo://app?vid=8f7e4fe9-82b6-4f0d-9172-d2f29dffc194"},"vehicle_type_id":"4","last_reported":1716069962,"current_range_meters":0,"station_id":"ce4bgt92rcd13ifvqcg0","pricing_plan_id":"cebpf4jnsgd1na2vs0mg"},{"bike_id":"6db711fe-8d46-432e-a2e6-fef71eb3a03e","system_id":"levelo_inurba_marseille","lat":43.31123,"lon":5.37767,"is_reserved":false,"is_disabled":false,"rental_uris":{"android":"levelo://app?vid=6db711fe-8d46-432e-a2e6-fef71eb3a03e","ios":"levelo://app?vid=6db711fe-8d46-432e-a2e6-fef71eb3a03e"},"vehicle_type_id":"4","last_reported":1716069962,"current_range_meters":14400,"station_id":"ce4bgt92rcd13ifvqcg0","pricing_plan_id":"cebpf4jnsgd1na2vs0mg"},{"bike_id":"4126e47f-af1e-444e-aafe-488c1431b435","system_id":"levelo_inurba_marseille","lat":43.31126,"lon":5.37771,"is_reserved":false,"is_disabled":false,"rental_uris":{"android":"levelo://app?vid=4126e47f-af1e-444e-aafe-488c1431b435","ios":"levelo://app?vid=4126e47f-af1e-444e-aafe-488c1431b435"},"vehicle_type_id":"4","last_reported":1716069962,"current_range_meters":0,"station_id":"ce4bgt92rcd13ifvqcg0","pricing_plan_id":"cebpf4jnsgd1na2vs0mg"},{"bike_id":"82c26461-735c-4f83-8593-529f07af0e7a","system_id":"levelo_inurba_marseille","lat":43.307945,"lon":5.376487,"is_reserved":false,"is_disabled":false,"rental_uris":{"android":"levelo://app?vid=82c26461-735c-4f83-8593-529f07af0e7a","ios":"levelo://app?vid=82c26461-735c-4f83-8593-529f07af0e7a"},"vehicle_type_id":"4","last_reported":1716069962,"current_range_meters":0,"station_id":"ce4bgv92rcd13ifvqcq0","pricing_plan_id":"cebpf4jnsgd1na2vs0mg"},{"bike_id":"0c84c131-6401-4425-9454-466079597fc5","system_id":"levelo_inurba_marseille","lat":43.307945,"lon":5.376487,"is_reserved":false,"is_disabled":false,"rental_uris":{"android":"levelo://app?vid=0c84c131-6401-4425-9454-466079597fc5","ios":"levelo://app?vid=0c84c131-6401-4425-9454-466079597fc5"},"vehicle_type_id":"4","last_reported":1716069962,"current_range_meters":3600,"station_id":"ce4bgv92rcd13ifvqcq0","pricing_plan_id":"cebpf4jnsgd1na2vs0mg"},{"bike_id":"a1c31be9-0f09-4fdb-86b4-851b1fe08bf2","system_id":"levelo_inurba_marseille","lat":43.307945,"lon":5.376487,"is_reserved":false,"is_disabled":false,"rental_uris":{"android":"levelo://app?vid=a1c31be9-0f09-4fdb-86b4-851b1fe08bf2","ios":"levelo://app?vid=a1c31be9-0f09-4fdb-86b4-851b1fe08bf2"},"vehicle_type_id":"4","last_reported":1716069962,"current_range_meters":3200,"station_id":"ce4bgv92rcd13ifvqcq0","pricing_plan_id":"cebpf4jnsgd1na2vs0mg"},{"bike_id":"6492fa35-4f9b-412c-a9ad-abe271a05baf","system_id":"levelo_inurba_marseille","lat":43.307945,"lon":5.376487,"is_reserved":false,"is_disabled":false,"rental_uris":{"android":"levelo://app?vid=6492fa35-4f9b-412c-a9ad-abe271a05baf","ios":"levelo://app?vid=6492fa35-4f9b-412c-a9ad-abe271a05baf"},"vehicle_type_id":"4","last_reported":1716069962,"current_range_meters":12000,"station_id":"ce4bgv92rcd13ifvqcq0","pricing_plan_id":"cebpf4jnsgd1na2vs0mg"},{"bike_id":"39bbf9f9-5c61-4a44-9968-4a3f9c54234f","system_id":"levelo_inurba_marseille","lat":43.307945,"lon":5.376487,"is_reserved":false,"is_disabled":false,"rental_uris":{"android":"levelo://app?vid=39bbf9f9-5c61-4a44-9968-4a3f9c54234f","ios":"levelo://app?vid=39bbf9f9-5c61-4a44-9968-4a3f9c54234f"},"vehicle_type_id":"4","last_reported":1716069962,"current_range_meters":6400,"station_id":"ce4bgv92rcd13ifvqcq0","pricing_plan_id":"cebpf4jnsgd1na2vs0mg"},{"bike_id":"31bd6a40-d2f1-4675-8818-6aba15163487","system_id":"levelo_inurba_marseille","lat":43.317075,"lon":5.377367,"is_reserved":false,"is_disabled":false,"rental_uris":{"android":"levelo://app?vid=31bd6a40-d2f1-4675-8818-6aba15163487","ios":"levelo://app?vid=31bd6a40-d2f1-4675-8818-6aba15163487"},"vehicle_type_id":"4","last_reported":1716069962,"current_range_meters":21200,"station_id":"ce4bgth2rcd13ifvqch0","pricing_plan_id":"cebpf4jnsgd1na2vs0mg"},{"bike_id":"b3ece96b-a5a0-4947-803e-95ae3d8eaf81","system_id":"levelo_inurba_marseille","lat":43.317075,"lon":5.377367,"is_reserved":false,"is_disabled":false,"rental_uris":{"android":"levelo://app?vid=b3ece96b-a5a0-4947-803e-95ae3d8eaf81","ios":"levelo://app?vid=b3ece96b-a5a0-4947-803e-95ae3d8eaf81"},"vehicle_type_id":"4","last_reported":1716069962,"current_range_meters":14800,"station_id":"ce4bgth2rcd13ifvqch0","pricing_plan_id":"cebpf4jnsgd1na2vs0mg"},{"bike_id":"9cdaba2b-d2a1-484e-ba3b-1772b04cc7cb","system_id":"levelo_inurba_marseille","lat":43.317075,"lon":5.377367,"is_reserved":false,"is_disabled":false,"rental_uris":{"android":"levelo://app?vid=9cdaba2b-d2a1-484e-ba3b-1772b04cc7cb","ios":"levelo://app?vid=9cdaba2b-d2a1-484e-ba3b-1772b04cc7cb"},"vehicle_type_id":"4","last_reported":1716069962,"current_range_meters":12400,"station_id":"ce4bgth2rcd13ifvqch0","pricing_plan_id":"cebpf4jnsgd1na2vs0mg"},{"bike_id":"28c5c110-6129-45f5-a7ee-60d2068a3227","system_id":"levelo_inurba_marseille","lat":43.303046,"lon":5.368981,"is_reserved":false,"is_disabled":false,"rental_uris":{"android":"levelo://app?vid=28c5c110-6129-45f5-a7ee-60d2068a3227","ios":"levelo://app?vid=28c5c110-6129-45f5-a7ee-60d2068a3227"},"vehicle_type_id":"4","last_reported":1716069962,"current_range_meters":10400,"station_id":"ce4bgqh2rcd13ifvqc5g","pricing_plan_id":"cebpf4jnsgd1na2vs0mg"},{"bike_id":"e3227454-0866-4e40-a097-09ee04a738f4","system_id":"levelo_inurba_marseille","lat":43.30304,"lon":5.368987,"is_reserved":false,"is_disabled":false,"rental_uris":{"android":"levelo://app?vid=e3227454-0866-4e40-a097-09ee04a738f4","ios":"levelo://app?vid=e3227454-0866-4e40-a097-09ee04a738f4"},"vehicle_type_id":"4","last_reported":1716069962,"current_range_meters":28400,"station_id":"ce4bgqh2rcd13ifvqc5g","pricing_plan_id":"cebpf4jnsgd1na2vs0mg"},{"bike_id":"242ad698-3e35-4bad-ad9e-0c95b7d6e020","system_id":"levelo_inurba_marseille","lat":43.303062,"lon":5.368935,"is_reserved":false,"is_disabled":false,"rental_uris":{"android":"levelo://app?vid=242ad698-3e35-4bad-ad9e-0c95b7d6e020","ios":"levelo://app?vid=242ad698-3e35-4bad-ad9e-0c95b7d6e020"},"vehicle_type_id":"4","last_reported":1716069962,"current_range_meters":0,"station_id":"ce4bgqh2rcd13ifvqc5g","pricing_plan_id":"cebpf4jnsgd1na2vs0mg"},{"bike_id":"f373353e-710a-40e7-913b-24aa89e59942","system_id":"levelo_inurba_marseille","lat":43.315289,"lon":5.380349,"is_reserved":false,"is_disabled":false,"rental_uris":{"android":"levelo://app?vid=f373353e-710a-40e7-913b-24aa89e59942","ios":"levelo://app?vid=f373353e-710a-40e7-913b-24aa89e59942"},"vehicle_type_id":"4","last_reported":1716069962,"current_range_meters":23600,"station_id":"ce4bhsp2rcd13ifvqi50","pricing_plan_id":"cebpf4jnsgd1na2vs0mg"},{"bike_id":"08ca952f-0523-4288-8294-503c435b718c","system_id":"levelo_inurba_marseille","lat":43.315289,"lon":5.380349,"is_reserved":false,"is_disabled":false,"rental_uris":{"android":"levelo://app?vid=08ca952f-0523-4288-8294-503c435b718c","ios":"levelo://app?vid=08ca952f-0523-4288-8294-503c435b718c"},"vehicle_type_id":"4","last_reported":1716069962,"current_range_meters":17200,"station_id":"ce4bhsp2rcd13ifvqi50","pricing_plan_id":"cebpf4jnsgd1na2vs0mg"},{"bike_id":"07693d09-ac6f-49cd-ae86-16d31d929f02","system_id":"levelo_inurba_marseille","lat":43.301939,"lon":5.366286,"is_reserved":false,"is_disabled":false,"rental_uris":{"android":"levelo://app?vid=07693d09-ac6f-49cd-ae86-16d31d929f02","ios":"levelo://app?vid=07693d09-ac6f-49cd-ae86-16d31d929f02"},"vehicle_type_id":"4","last_reported":1716069962,"current_range_meters":0,"station_id":"ce4bgrh2rcd13ifvqc8g","pricing_plan_id":"cebpf4jnsgd1na2vs0mg"},{"bike_id":"46222669-0e73-42eb-9418-7d925a75bd8d","system_id":"levelo_inurba_marseille","lat":43.301939,"lon":5.366286,"is_reserved":false,"is_disabled":false,"rental_uris":{"android":"levelo://app?vid=46222669-0e73-42eb-9418-7d925a75bd8d","ios":"levelo://app?vid=46222669-0e73-42eb-9418-7d925a75bd8d"},"vehicle_type_id":"4","last_reported":1716069962,"current_range_meters":0,"station_id":"ce4bgrh2rcd13ifvqc8g","pricing_plan_id":"cebpf4jnsgd1na2vs0mg"},{"bike_id":"04e2e0e9-c42c-406f-ba9e-0b47683c2c3e","system_id":"levelo_inurba_marseille","lat":43.307945,"lon":5.376487,"is_reserved":false,"is_disabled":false,"rental_uris":{"android":"levelo://app?vid=04e2e0e9-c42c-406f-ba9e-0b47683c2c3e","ios":"levelo://app?vid=04e2e0e9-c42c-406f-ba9e-0b47683c2c3e"},"vehicle_type_id":"4","last_reported":1716069962,"current_range_meters":5600,"station_id":"ce4bgv92rcd13ifvqcq0","pricing_plan_id":"cebpf4jnsgd1na2vs0mg"},{"bike_id":"cbbcb590-382c-4448-af5e-e644d667a1da","system_id":"levelo_inurba_marseille","lat":43.308012,"lon":5.381511,"is_reserved":false,"is_disabled":false,"rental_uris":{"android":"levelo://app?vid=cbbcb590-382c-4448-af5e-e644d667a1da","ios":"levelo://app?vid=cbbcb590-382c-4448-af5e-e644d667a1da"},"vehicle_type_id":"4","last_reported":1716069962,"current_range_meters":3600,"station_id":"ce4bgt12rcd13ifvqce0","pricing_plan_id":"cebpf4jnsgd1na2vs0mg"},{"bike_id":"73160715-d9d0-4fde-933a-96dec0a04425","system_id":"levelo_inurba_marseille","lat":43.308012,"lon":5.381511,"is_reserved":false,"is_disabled":false,"rental_uris":{"android":"levelo://app?vid=73160715-d9d0-4fde-933a-96dec0a04425","ios":"levelo://app?vid=73160715-d9d0-4fde-933a-96dec0a04425"},"vehicle_type_id":"4","last_reported":1716069962,"current_range_meters":0,"station_id":"ce4bgt12rcd13ifvqce0","pricing_plan_id":"cebpf4jnsgd1na2vs0mg"},{"bike_id":"98aee1ab-44e9-4483-a037-f34081000a1d","system_id":"levelo_inurba_marseille","lat":43.308012,"lon":5.381511,"is_reserved":false,"is_disabled":false,"rental_uris":{"android":"levelo://app?vid=98aee1ab-44e9-4483-a037-f34081000a1d","ios":"levelo://app?vid=98aee1ab-44e9-4483-a037-f34081000a1d"},"vehicle_type_id":"4","last_reported":1716069962,"current_range_meters":29200,"station_id":"ce4bgt12rcd13ifvqce0","pricing_plan_id":"cebpf4jnsgd1na2vs0mg"},{"bike_id":"c3fe7066-c03d-4f3e-888f-627a25bc018d","system_id":"levelo_inurba_marseille","lat":43.308012,"lon":5.381511,"is_reserved":false,"is_disabled":false,"rental_uris":{"android":"levelo://app?vid=c3fe7066-c03d-4f3e-888f-627a25bc018d","ios":"levelo://app?vid=c3fe7066-c03d-4f3e-888f-627a25bc018d"},"vehicle_type_id":"4","last_reported":1716069962,"current_range_meters":17600,"station_id":"ce4bgt12rcd13ifvqce0","pricing_plan_id":"cebpf4jnsgd1na2vs0mg"},{"bike_id":"92142ffd-d991-4dd2-bec7-31f9c0c3e161","system_id":"levelo_inurba_marseille","lat":43.30792,"lon":5.38141,"is_reserved":false,"is_disabled":false,"rental_uris":{"android":"levelo://app?vid=92142ffd-d991-4dd2-bec7-31f9c0c3e161","ios":"levelo://app?vid=92142ffd-d991-4dd2-bec7-31f9c0c3e161"},"vehicle_type_id":"4","last_reported":1716069962,"current_range_meters":2400,"station_id":"ce4bgt12rcd13ifvqce0","pricing_plan_id":"cebpf4jnsgd1na2vs0mg"},{"bike_id":"3d22db5c-74f6-4f31-9fc4-f98c75fbd0d2","system_id":"levelo_inurba_marseille","lat":43.308012,"lon":5.381511,"is_reserved":false,"is_disabled":false,"rental_uris":{"android":"levelo://app?vid=3d22db5c-74f6-4f31-9fc4-f98c75fbd0d2","ios":"levelo://app?vid=3d22db5c-74f6-4f31-9fc4-f98c75fbd0d2"},"vehicle_type_id":"4","last_reported":1716069962,"current_range_meters":4400,"station_id":"ce4bgt12rcd13ifvqce0","pricing_plan_id":"cebpf4jnsgd1na2vs0mg"},{"bike_id":"29e6f70f-0c4c-417a-86e7-1f1feeeb1dc6","system_id":"levelo_inurba_marseille","lat":43.304606,"lon":5.379026,"is_reserved":false,"is_disabled":false,"rental_uris":{"android":"levelo://app?vid=29e6f70f-0c4c-417a-86e7-1f1feeeb1dc6","ios":"levelo://app?vid=29e6f70f-0c4c-417a-86e7-1f1feeeb1dc6"},"vehicle_type_id":"4","last_reported":1716069962,"current_range_meters":0,"station_id":"ce4bgup2rcd13ifvqcn0","pricing_plan_id":"cebpf4jnsgd1na2vs0mg"},{"bike_id":"81978392-a549-4408-b049-8109c7a24e19","system_id":"levelo_inurba_marseille","lat":43.304606,"lon":5.379026,"is_reserved":false,"is_disabled":false,"rental_uris":{"android":"levelo://app?vid=81978392-a549-4408-b049-8109c7a24e19","ios":"levelo://app?vid=81978392-a549-4408-b049-8109c7a24e19"},"vehicle_type_id":"4","last_reported":1716069962,"current_range_meters":1200,"station_id":"ce4bgup2rcd13ifvqcn0","pricing_plan_id":"cebpf4jnsgd1na2vs0mg"},{"bike_id":"b49d0ca6-47a4-4d99-bdaf-8c53a5390679","system_id":"levelo_inurba_marseille","lat":43.30452,"lon":5.37901,"is_reserved":false,"is_disabled":false,"rental_uris":{"android":"levelo://app?vid=b49d0ca6-47a4-4d99-bdaf-8c53a5390679","ios":"levelo://app?vid=b49d0ca6-47a4-4d99-bdaf-8c53a5390679"},"vehicle_type_id":"4","last_reported":1716069962,"current_range_meters":0,"station_id":"ce4bgup2rcd13ifvqcn0","pricing_plan_id":"cebpf4jnsgd1na2vs0mg"},{"bike_id":"e2c798d6-0783-401b-b632-e4a3e6db8597","system_id":"levelo_inurba_marseille","lat":43.324771,"lon":5.36557,"is_reserved":false,"is_disabled":false,"rental_uris":{"android":"levelo://app?vid=e2c798d6-0783-401b-b632-e4a3e6db8597","ios":"levelo://app?vid=e2c798d6-0783-401b-b632-e4a3e6db8597"},"vehicle_type_id":"4","last_reported":1716069962,"current_range_meters":0,"station_id":"ce4bhs12rcd13ifvqhvg","pricing_plan_id":"cebpf4jnsgd1na2vs0mg"},{"bike_id":"4d5c3565-18b5-443e-8fe8-5290564495db","system_id":"levelo_inurba_marseille","lat":43.310804,"lon":5.38359,"is_reserved":false,"is_disabled":false,"rental_uris":{"android":"levelo://app?vid=4d5c3565-18b5-443e-8fe8-5290564495db","ios":"levelo://app?vid=4d5c3565-18b5-443e-8fe8-5290564495db"},"vehicle_type_id":"4","last_reported":1716069962,"current_range_meters":25600,"station_id":"ce4bgv92rcd13ifvqcr0","pricing_plan_id":"cebpf4jnsgd1na2vs0mg"},{"bike_id":"b7d08ec8-0b64-4384-af95-6a38ed1b0585","system_id":"levelo_inurba_marseille","lat":43.310804,"lon":5.38359,"is_reserved":false,"is_disabled":false,"rental_uris":{"android":"levelo://app?vid=b7d08ec8-0b64-4384-af95-6a38ed1b0585","ios":"levelo://app?vid=b7d08ec8-0b64-4384-af95-6a38ed1b0585"},"vehicle_type_id":"4","last_reported":1716069962,"current_range_meters":0,"station_id":"ce4bgv92rcd13ifvqcr0","pricing_plan_id":"cebpf4jnsgd1na2vs0mg"},{"bike_id":"3ab2bea5-bff6-4e4e-8c16-b0d4aad652b2","system_id":"levelo_inurba_marseille","lat":43.310804,"lon":5.38359,"is_reserved":false,"is_disabled":false,"rental_uris":{"android":"levelo://app?vid=3ab2bea5-bff6-4e4e-8c16-b0d4aad652b2","ios":"levelo://app?vid=3ab2bea5-bff6-4e4e-8c16-b0d4aad652b2"},"vehicle_type_id":"4","last_reported":1716069962,"current_range_meters":5200,"station_id":"ce4bgv92rcd13ifvqcr0","pricing_plan_id":"cebpf4jnsgd1na2vs0mg"},{"bike_id":"6082758c-2ac4-4079-bde4-d3ebd00abd9e","system_id":"levelo_inurba_marseille","lat":43.31074,"lon":5.38358,"is_reserved":false,"is_disabled":false,"rental_uris":{"android":"levelo://app?vid=6082758c-2ac4-4079-bde4-d3ebd00abd9e","ios":"levelo://app?vid=6082758c-2ac4-4079-bde4-d3ebd00abd9e"},"vehicle_type_id":"4","last_reported":1716069962,"current_range_meters":5200,"station_id":"ce4bgv92rcd13ifvqcr0","pricing_plan_id":"cebpf4jnsgd1na2vs0mg"},{"bike_id":"f0badbc0-2b83-4b11-985d-e23d9aad46a5","system_id":"levelo_inurba_marseille","lat":43.310804,"lon":5.38359,"is_reserved":false,"is_disabled":false,"rental_uris":{"android":"levelo://app?vid=f0badbc0-2b83-4b11-985d-e23d9aad46a5","ios":"levelo://app?vid=f0badbc0-2b83-4b11-985d-e23d9aad46a5"},"vehicle_type_id":"4","last_reported":1716069962,"current_range_meters":22800,"station_id":"ce4bgv92rcd13ifvqcr0","pricing_plan_id":"cebpf4jnsgd1na2vs0mg"},{"bike_id":"3c9d68b2-7540-496f-9cf3-34860b5246f3","system_id":"levelo_inurba_marseille","lat":43.310804,"lon":5.38359,"is_reserved":false,"is_disabled":false,"rental_uris":{"android":"levelo://app?vid=3c9d68b2-7540-496f-9cf3-34860b5246f3","ios":"levelo://app?vid=3c9d68b2-7540-496f-9cf3-34860b5246f3"},"vehicle_type_id":"4","last_reported":1716069962,"current_range_meters":6400,"station_id":"ce4bgv92rcd13ifvqcr0","pricing_plan_id":"cebpf4jnsgd1na2vs0mg"},{"bike_id":"f0350877-1c74-4a5b-97aa-0b384f979342","system_id":"levelo_inurba_marseille","lat":43.301429,"lon":5.37413,"is_reserved":false,"is_disabled":false,"rental_uris":{"android":"levelo://app?vid=f0350877-1c74-4a5b-97aa-0b384f979342","ios":"levelo://app?vid=f0350877-1c74-4a5b-97aa-0b384f979342"},"vehicle_type_id":"4","last_reported":1716069962,"current_range_meters":4800,"station_id":"ce4bgs92rcd13ifvqcc0","pricing_plan_id":"cebpf4jnsgd1na2vs0mg"},{"bike_id":"fc5834c8-c81b-4754-bb6f-14bcbcc19d8e","system_id":"levelo_inurba_marseille","lat":43.302784,"lon":5.377158,"is_reserved":false,"is_disabled":false,"rental_uris":{"android":"levelo://app?vid=fc5834c8-c81b-4754-bb6f-14bcbcc19d8e","ios":"levelo://app?vid=fc5834c8-c81b-4754-bb6f-14bcbcc19d8e"},"vehicle_type_id":"4","last_reported":1716069962,"current_range_meters":8000,"station_id":"ce4bguh2rcd13ifvqcj0","pricing_plan_id":"cebpf4jnsgd1na2vs0mg"},{"bike_id":"20177888-8f60-4bfb-95ea-49f59a29b03c","system_id":"levelo_inurba_marseille","lat":43.301429,"lon":5.37413,"is_reserved":false,"is_disabled":false,"rental_uris":{"android":"levelo://app?vid=20177888-8f60-4bfb-95ea-49f59a29b03c","ios":"levelo://app?vid=20177888-8f60-4bfb-95ea-49f59a29b03c"},"vehicle_type_id":"4","last_reported":1716069962,"current_range_meters":2000,"station_id":"ce4bgs92rcd13ifvqcc0","pricing_plan_id":"cebpf4jnsgd1na2vs0mg"},{"bike_id":"4e9fbe65-ebb5-4826-86e3-5845c48f289f","system_id":"levelo_inurba_marseille","lat":43.319935,"lon":5.381699,"is_reserved":false,"is_disabled":false,"rental_uris":{"android":"levelo://app?vid=4e9fbe65-ebb5-4826-86e3-5845c48f289f","ios":"levelo://app?vid=4e9fbe65-ebb5-4826-86e3-5845c48f289f"},"vehicle_type_id":"4","last_reported":1716069962,"current_range_meters":3600,"station_id":"ce4bhr12rcd13ifvqhpg","pricing_plan_id":"cebpf4jnsgd1na2vs0mg"},{"bike_id":"892c2c1d-5f6c-4aab-8d33-80f5771c25a5","system_id":"levelo_inurba_marseille","lat":43.319935,"lon":5.381699,"is_reserved":false,"is_disabled":false,"rental_uris":{"android":"levelo://app?vid=892c2c1d-5f6c-4aab-8d33-80f5771c25a5","ios":"levelo://app?vid=892c2c1d-5f6c-4aab-8d33-80f5771c25a5"},"vehicle_type_id":"4","last_reported":1716069962,"current_range_meters":0,"station_id":"ce4bhr12rcd13ifvqhpg","pricing_plan_id":"cebpf4jnsgd1na2vs0mg"},{"bike_id":"338894ec-4fed-4f50-b181-1b47866e8909","system_id":"levelo_inurba_marseille","lat":43.31358,"lon":5.38483,"is_reserved":false,"is_disabled":false,"rental_uris":{"android":"levelo://app?vid=338894ec-4fed-4f50-b181-1b47866e8909","ios":"levelo://app?vid=338894ec-4fed-4f50-b181-1b47866e8909"},"vehicle_type_id":"4","last_reported":1716069962,"current_range_meters":9600,"station_id":"ce4bgt92rcd13ifvqcf0","pricing_plan_id":"cebpf4jnsgd1na2vs0mg"},{"bike_id":"31658f7b-ebaf-49d7-ae33-a753daca8e39","system_id":"levelo_inurba_marseille","lat":43.31355,"lon":5.38486,"is_reserved":false,"is_disabled":false,"rental_uris":{"android":"levelo://app?vid=31658f7b-ebaf-49d7-ae33-a753daca8e39","ios":"levelo://app?vid=31658f7b-ebaf-49d7-ae33-a753daca8e39"},"vehicle_type_id":"4","last_reported":1716069962,"current_range_meters":30400,"station_id":"ce4bgt92rcd13ifvqcf0","pricing_plan_id":"cebpf4jnsgd1na2vs0mg"},{"bike_id":"e0457663-d1d9-4aea-8b2a-88532698451e","system_id":"levelo_inurba_marseille","lat":43.313606,"lon":5.384867,"is_reserved":false,"is_disabled":false,"rental_uris":{"android":"levelo://app?vid=e0457663-d1d9-4aea-8b2a-88532698451e","ios":"levelo://app?vid=e0457663-d1d9-4aea-8b2a-88532698451e"},"vehicle_type_id":"4","last_reported":1716069962,"current_range_meters":0,"station_id":"ce4bgn12rcd13ifvqbt0","pricing_plan_id":"cebpf4jnsgd1na2vs0mg"},{"bike_id":"7fc9be20-2ab5-46e4-9b54-1e823b2db974","system_id":"levelo_inurba_marseille","lat":43.31362,"lon":5.38488,"is_reserved":false,"is_disabled":false,"rental_uris":{"android":"levelo://app?vid=7fc9be20-2ab5-46e4-9b54-1e823b2db974","ios":"levelo://app?vid=7fc9be20-2ab5-46e4-9b54-1e823b2db974"},"vehicle_type_id":"4","last_reported":1716069962,"current_range_meters":1600,"station_id":"ce4bgt92rcd13ifvqcf0","pricing_plan_id":"cebpf4jnsgd1na2vs0mg"},{"bike_id":"bde13806-e952-4e9b-a7d6-55773036b758","system_id":"levelo_inurba_marseille","lat":43.313571,"lon":5.384829,"is_reserved":false,"is_disabled":false,"rental_uris":{"android":"levelo://app?vid=bde13806-e952-4e9b-a7d6-55773036b758","ios":"levelo://app?vid=bde13806-e952-4e9b-a7d6-55773036b758"},"vehicle_type_id":"4","last_reported":1716069962,"current_range_meters":30000,"station_id":"ce4bgt92rcd13ifvqcf0","pricing_plan_id":"cebpf4jnsgd1na2vs0mg"},{"bike_id":"8f9c34c0-7120-40b6-aef6-ffe68053d7e0","system_id":"levelo_inurba_marseille","lat":43.31361,"lon":5.38492,"is_reserved":false,"is_disabled":false,"rental_uris":{"android":"levelo://app?vid=8f9c34c0-7120-40b6-aef6-ffe68053d7e0","ios":"levelo://app?vid=8f9c34c0-7120-40b6-aef6-ffe68053d7e0"},"vehicle_type_id":"4","last_reported":1716069962,"current_range_meters":6400,"station_id":"ce4bgt92rcd13ifvqcf0","pricing_plan_id":"cebpf4jnsgd1na2vs0mg"},{"bike_id":"4e613003-0819-43ab-bd06-fe89b743642c","system_id":"levelo_inurba_marseille","lat":43.31363,"lon":5.38492,"is_reserved":false,"is_disabled":false,"rental_uris":{"android":"levelo://app?vid=4e613003-0819-43ab-bd06-fe89b743642c","ios":"levelo://app?vid=4e613003-0819-43ab-bd06-fe89b743642c"},"vehicle_type_id":"4","last_reported":1716069962,"current_range_meters":2400,"station_id":"ce4bgt92rcd13ifvqcf0","pricing_plan_id":"cebpf4jnsgd1na2vs0mg"},{"bike_id":"4d78f4fe-d780-42c8-8b90-c70d29b200eb","system_id":"levelo_inurba_marseille","lat":43.313634,"lon":5.384937,"is_reserved":false,"is_disabled":false,"rental_uris":{"android":"levelo://app?vid=4d78f4fe-d780-42c8-8b90-c70d29b200eb","ios":"levelo://app?vid=4d78f4fe-d780-42c8-8b90-c70d29b200eb"},"vehicle_type_id":"4","last_reported":1716069962,"current_range_meters":20000,"station_id":"ce4bgt92rcd13ifvqcf0","pricing_plan_id":"cebpf4jnsgd1na2vs0mg"},{"bike_id":"b63523ce-1e3e-43cd-98aa-db78739018e7","system_id":"levelo_inurba_marseille","lat":43.31367,"lon":5.38497,"is_reserved":false,"is_disabled":false,"rental_uris":{"android":"levelo://app?vid=b63523ce-1e3e-43cd-98aa-db78739018e7","ios":"levelo://app?vid=b63523ce-1e3e-43cd-98aa-db78739018e7"},"vehicle_type_id":"4","last_reported":1716069962,"current_range_meters":400,"station_id":"ce4bgt92rcd13ifvqcf0","pricing_plan_id":"cebpf4jnsgd1na2vs0mg"},{"bike_id":"f704b525-ce20-4003-a92d-beba5a58a4de","system_id":"levelo_inurba_marseille","lat":43.313571,"lon":5.384829,"is_reserved":false,"is_disabled":false,"rental_uris":{"android":"levelo://app?vid=f704b525-ce20-4003-a92d-beba5a58a4de","ios":"levelo://app?vid=f704b525-ce20-4003-a92d-beba5a58a4de"},"vehicle_type_id":"4","last_reported":1716069962,"current_range_meters":18400,"station_id":"ce4bgt92rcd13ifvqcf0","pricing_plan_id":"cebpf4jnsgd1na2vs0mg"},{"bike_id":"2187c066-bfbf-4c8d-bda6-1bb6acadeb32","system_id":"levelo_inurba_marseille","lat":43.31365,"lon":5.38507,"is_reserved":false,"is_disabled":false,"rental_uris":{"android":"levelo://app?vid=2187c066-bfbf-4c8d-bda6-1bb6acadeb32","ios":"levelo://app?vid=2187c066-bfbf-4c8d-bda6-1bb6acadeb32"},"vehicle_type_id":"4","last_reported":1716069962,"current_range_meters":0,"station_id":"ce4bgt92rcd13ifvqcf0","pricing_plan_id":"cebpf4jnsgd1na2vs0mg"},{"bike_id":"9c154dd1-b7d6-4e77-841c-7963669b5f1f","system_id":"levelo_inurba_marseille","lat":43.29982,"lon":5.37169,"is_reserved":false,"is_disabled":false,"rental_uris":{"android":"levelo://app?vid=9c154dd1-b7d6-4e77-841c-7963669b5f1f","ios":"levelo://app?vid=9c154dd1-b7d6-4e77-841c-7963669b5f1f"},"vehicle_type_id":"4","last_reported":1716069962,"current_range_meters":0,"station_id":"ce4bgr92rcd13ifvqc7g","pricing_plan_id":"cebpf4jnsgd1na2vs0mg"},{"bike_id":"3af47134-89b5-436d-b23b-5f4868c9fbac","system_id":"levelo_inurba_marseille","lat":43.29855,"lon":5.36289,"is_reserved":false,"is_disabled":false,"rental_uris":{"android":"levelo://app?vid=3af47134-89b5-436d-b23b-5f4868c9fbac","ios":"levelo://app?vid=3af47134-89b5-436d-b23b-5f4868c9fbac"},"vehicle_type_id":"4","last_reported":1716069962,"current_range_meters":5600,"station_id":"ce4bgpp2rcd13ifvqc3g","pricing_plan_id":"cebpf4jnsgd1na2vs0mg"},{"bike_id":"18404868-632e-4a5a-83d9-34b5399974fb","system_id":"levelo_inurba_marseille","lat":43.305364,"lon":5.384119,"is_reserved":false,"is_disabled":false,"rental_uris":{"android":"levelo://app?vid=18404868-632e-4a5a-83d9-34b5399974fb","ios":"levelo://app?vid=18404868-632e-4a5a-83d9-34b5399974fb"},"vehicle_type_id":"4","last_reported":1716069962,"current_range_meters":11600,"station_id":"ce4bgg92rcd13ifvqb30","pricing_plan_id":"cebpf4jnsgd1na2vs0mg"},{"bike_id":"c2b738e2-8923-4b88-93cb-dfb811a2e41a","system_id":"levelo_inurba_marseille","lat":43.305364,"lon":5.384119,"is_reserved":false,"is_disabled":false,"rental_uris":{"android":"levelo://app?vid=c2b738e2-8923-4b88-93cb-dfb811a2e41a","ios":"levelo://app?vid=c2b738e2-8923-4b88-93cb-dfb811a2e41a"},"vehicle_type_id":"4","last_reported":1716069962,"current_range_meters":29600,"station_id":"ce4bgg92rcd13ifvqb30","pricing_plan_id":"cebpf4jnsgd1na2vs0mg"},{"bike_id":"c75895ba-eda2-44d1-8644-264aa9bb4e3c","system_id":"levelo_inurba_marseille","lat":43.29849,"lon":5.36287,"is_reserved":false,"is_disabled":false,"rental_uris":{"android":"levelo://app?vid=c75895ba-eda2-44d1-8644-264aa9bb4e3c","ios":"levelo://app?vid=c75895ba-eda2-44d1-8644-264aa9bb4e3c"},"vehicle_type_id":"4","last_reported":1716069962,"current_range_meters":0,"station_id":"ce4bgpp2rcd13ifvqc3g","pricing_plan_id":"cebpf4jnsgd1na2vs0mg"},{"bike_id":"de1ab3c1-94f3-4d74-84bd-d443f93efa8e","system_id":"levelo_inurba_marseille","lat":43.298433,"lon":5.362774,"is_reserved":false,"is_disabled":false,"rental_uris":{"android":"levelo://app?vid=de1ab3c1-94f3-4d74-84bd-d443f93efa8e","ios":"levelo://app?vid=de1ab3c1-94f3-4d74-84bd-d443f93efa8e"},"vehicle_type_id":"4","last_reported":1716069962,"current_range_meters":28000,"station_id":"ce4bgpp2rcd13ifvqc3g","pricing_plan_id":"cebpf4jnsgd1na2vs0mg"},{"bike_id":"8622cc66-0285-486b-b236-af334e8c7de9","system_id":"levelo_inurba_marseille","lat":43.30541,"lon":5.38426,"is_reserved":false,"is_disabled":false,"rental_uris":{"android":"levelo://app?vid=8622cc66-0285-486b-b236-af334e8c7de9","ios":"levelo://app?vid=8622cc66-0285-486b-b236-af334e8c7de9"},"vehicle_type_id":"4","last_reported":1716069962,"current_range_meters":0,"station_id":"ce4bgg92rcd13ifvqb30","pricing_plan_id":"cebpf4jnsgd1na2vs0mg"},{"bike_id":"9ec2321f-d7ea-4067-ac25-08e0abc91b67","system_id":"levelo_inurba_marseille","lat":43.29918,"lon":5.3745,"is_reserved":false,"is_disabled":false,"rental_uris":{"android":"levelo://app?vid=9ec2321f-d7ea-4067-ac25-08e0abc91b67","ios":"levelo://app?vid=9ec2321f-d7ea-4067-ac25-08e0abc91b67"},"vehicle_type_id":"4","last_reported":1716069962,"current_range_meters":0,"station_id":"ce4bgjh2rcd13ifvqbg0","pricing_plan_id":"cebpf4jnsgd1na2vs0mg"},{"bike_id":"0f1cc8d3-4cd1-4825-b164-7819994133c7","system_id":"levelo_inurba_marseille","lat":43.311722,"lon":5.387247,"is_reserved":false,"is_disabled":false,"rental_uris":{"android":"levelo://app?vid=0f1cc8d3-4cd1-4825-b164-7819994133c7","ios":"levelo://app?vid=0f1cc8d3-4cd1-4825-b164-7819994133c7"},"vehicle_type_id":"4","last_reported":1716069962,"current_range_meters":3600,"station_id":"ce4bgv12rcd13ifvqcp0","pricing_plan_id":"cebpf4jnsgd1na2vs0mg"},{"bike_id":"2d29ab6a-4fcc-4eb2-88fa-9ef2f2e36b12","system_id":"levelo_inurba_marseille","lat":43.311722,"lon":5.387247,"is_reserved":false,"is_disabled":false,"rental_uris":{"android":"levelo://app?vid=2d29ab6a-4fcc-4eb2-88fa-9ef2f2e36b12","ios":"levelo://app?vid=2d29ab6a-4fcc-4eb2-88fa-9ef2f2e36b12"},"vehicle_type_id":"4","last_reported":1716069962,"current_range_meters":29600,"station_id":"ce4bgv12rcd13ifvqcp0","pricing_plan_id":"cebpf4jnsgd1na2vs0mg"},{"bike_id":"ce0b2c1e-a342-4773-be84-c7da6063712c","system_id":"levelo_inurba_marseille","lat":43.311722,"lon":5.387247,"is_reserved":false,"is_disabled":false,"rental_uris":{"android":"levelo://app?vid=ce0b2c1e-a342-4773-be84-c7da6063712c","ios":"levelo://app?vid=ce0b2c1e-a342-4773-be84-c7da6063712c"},"vehicle_type_id":"4","last_reported":1716069962,"current_range_meters":12000,"station_id":"ce4bgv12rcd13ifvqcp0","pricing_plan_id":"cebpf4jnsgd1na2vs0mg"},{"bike_id":"ae3c39b7-ecad-402f-bc97-97ca4b997f7c","system_id":"levelo_inurba_marseille","lat":43.311722,"lon":5.387247,"is_reserved":false,"is_disabled":false,"rental_uris":{"android":"levelo://app?vid=ae3c39b7-ecad-402f-bc97-97ca4b997f7c","ios":"levelo://app?vid=ae3c39b7-ecad-402f-bc97-97ca4b997f7c"},"vehicle_type_id":"4","last_reported":1716069962,"current_range_meters":10800,"station_id":"ce4bgv12rcd13ifvqcp0","pricing_plan_id":"cebpf4jnsgd1na2vs0mg"},{"bike_id":"4a9cf7ca-f688-4605-8e7f-09b50afbacd0","system_id":"levelo_inurba_marseille","lat":43.311722,"lon":5.387247,"is_reserved":false,"is_disabled":false,"rental_uris":{"android":"levelo://app?vid=4a9cf7ca-f688-4605-8e7f-09b50afbacd0","ios":"levelo://app?vid=4a9cf7ca-f688-4605-8e7f-09b50afbacd0"},"vehicle_type_id":"4","last_reported":1716069962,"current_range_meters":2400,"station_id":"ce4bgv12rcd13ifvqcp0","pricing_plan_id":"cebpf4jnsgd1na2vs0mg"},{"bike_id":"61d56cdb-cd6b-4b3a-8534-d61dd7fc9a8f","system_id":"levelo_inurba_marseille","lat":43.302549,"lon":5.381566,"is_reserved":false,"is_disabled":false,"rental_uris":{"android":"levelo://app?vid=61d56cdb-cd6b-4b3a-8534-d61dd7fc9a8f","ios":"levelo://app?vid=61d56cdb-cd6b-4b3a-8534-d61dd7fc9a8f"},"vehicle_type_id":"4","last_reported":1716069962,"current_range_meters":7200,"station_id":"","pricing_plan_id":"cebpf4jnsgd1na2vs0mg"},{"bike_id":"f6672278-5753-4de3-a62f-d92a56bb95f0","system_id":"levelo_inurba_marseille","lat":43.311722,"lon":5.387247,"is_reserved":false,"is_disabled":false,"rental_uris":{"android":"levelo://app?vid=f6672278-5753-4de3-a62f-d92a56bb95f0","ios":"levelo://app?vid=f6672278-5753-4de3-a62f-d92a56bb95f0"},"vehicle_type_id":"4","last_reported":1716069962,"current_range_meters":18800,"station_id":"ce4bgv12rcd13ifvqcp0","pricing_plan_id":"cebpf4jnsgd1na2vs0mg"},{"bike_id":"bea51af3-b1f5-4dee-acc1-88fba806b1b7","system_id":"levelo_inurba_marseille","lat":43.31179,"lon":5.38716,"is_reserved":false,"is_disabled":false,"rental_uris":{"android":"levelo://app?vid=bea51af3-b1f5-4dee-acc1-88fba806b1b7","ios":"levelo://app?vid=bea51af3-b1f5-4dee-acc1-88fba806b1b7"},"vehicle_type_id":"4","last_reported":1716069962,"current_range_meters":0,"station_id":"ce4bgv12rcd13ifvqcp0","pricing_plan_id":"cebpf4jnsgd1na2vs0mg"},{"bike_id":"3e08a4f9-95bf-4361-a550-ffbb09a1d5a5","system_id":"levelo_inurba_marseille","lat":43.31175,"lon":5.38716,"is_reserved":false,"is_disabled":false,"rental_uris":{"android":"levelo://app?vid=3e08a4f9-95bf-4361-a550-ffbb09a1d5a5","ios":"levelo://app?vid=3e08a4f9-95bf-4361-a550-ffbb09a1d5a5"},"vehicle_type_id":"4","last_reported":1716069962,"current_range_meters":1600,"station_id":"ce4bgv12rcd13ifvqcp0","pricing_plan_id":"cebpf4jnsgd1na2vs0mg"},{"bike_id":"69236592-7e63-4a6e-a1ab-8ee639022fec","system_id":"levelo_inurba_marseille","lat":43.311722,"lon":5.387247,"is_reserved":false,"is_disabled":false,"rental_uris":{"android":"levelo://app?vid=69236592-7e63-4a6e-a1ab-8ee639022fec","ios":"levelo://app?vid=69236592-7e63-4a6e-a1ab-8ee639022fec"},"vehicle_type_id":"4","last_reported":1716069962,"current_range_meters":13200,"station_id":"ce4bgv12rcd13ifvqcp0","pricing_plan_id":"cebpf4jnsgd1na2vs0mg"},{"bike_id":"bd830aa9-94b1-40c1-8b25-be28de50e81c","system_id":"levelo_inurba_marseille","lat":43.311722,"lon":5.387247,"is_reserved":false,"is_disabled":false,"rental_uris":{"android":"levelo://app?vid=bd830aa9-94b1-40c1-8b25-be28de50e81c","ios":"levelo://app?vid=bd830aa9-94b1-40c1-8b25-be28de50e81c"},"vehicle_type_id":"4","last_reported":1716069962,"current_range_meters":14400,"station_id":"ce4bgv12rcd13ifvqcp0","pricing_plan_id":"cebpf4jnsgd1na2vs0mg"},{"bike_id":"d6d0f22c-2f8e-4e7e-baa7-87b7f9c8df68","system_id":"levelo_inurba_marseille","lat":43.299073,"lon":5.374767,"is_reserved":false,"is_disabled":false,"rental_uris":{"android":"levelo://app?vid=d6d0f22c-2f8e-4e7e-baa7-87b7f9c8df68","ios":"levelo://app?vid=d6d0f22c-2f8e-4e7e-baa7-87b7f9c8df68"},"vehicle_type_id":"4","last_reported":1716069962,"current_range_meters":0,"station_id":"ce4bgjh2rcd13ifvqbg0","pricing_plan_id":"cebpf4jnsgd1na2vs0mg"},{"bike_id":"aaadd7be-c101-4003-9db0-dd7382c1e1bc","system_id":"levelo_inurba_marseille","lat":43.299243,"lon":5.374807,"is_reserved":false,"is_disabled":false,"rental_uris":{"android":"levelo://app?vid=aaadd7be-c101-4003-9db0-dd7382c1e1bc","ios":"levelo://app?vid=aaadd7be-c101-4003-9db0-dd7382c1e1bc"},"vehicle_type_id":"4","last_reported":1716069962,"current_range_meters":6400,"station_id":"ce4bgjh2rcd13ifvqbg0","pricing_plan_id":"cebpf4jnsgd1na2vs0mg"},{"bike_id":"606f8b43-6510-48b6-88b9-5dbbe1c44b2c","system_id":"levelo_inurba_marseille","lat":43.302214,"lon":5.381705,"is_reserved":false,"is_disabled":false,"rental_uris":{"android":"levelo://app?vid=606f8b43-6510-48b6-88b9-5dbbe1c44b2c","ios":"levelo://app?vid=606f8b43-6510-48b6-88b9-5dbbe1c44b2c"},"vehicle_type_id":"4","last_reported":1716069962,"current_range_meters":20000,"station_id":"","pricing_plan_id":"cebpf4jnsgd1na2vs0mg"},{"bike_id":"a78c0371-18a7-4609-8a16-1a99a180568a","system_id":"levelo_inurba_marseille","lat":43.297794,"lon":5.370888,"is_reserved":false,"is_disabled":false,"rental_uris":{"android":"levelo://app?vid=a78c0371-18a7-4609-8a16-1a99a180568a","ios":"levelo://app?vid=a78c0371-18a7-4609-8a16-1a99a180568a"},"vehicle_type_id":"4","last_reported":1716069962,"current_range_meters":30400,"station_id":"ce4bgop2rcd13ifvqc1g","pricing_plan_id":"cebpf4jnsgd1na2vs0mg"},{"bike_id":"b22379ec-8777-4dcd-8c0e-9642bdad8cfd","system_id":"levelo_inurba_marseille","lat":43.297774,"lon":5.370875,"is_reserved":false,"is_disabled":false,"rental_uris":{"android":"levelo://app?vid=b22379ec-8777-4dcd-8c0e-9642bdad8cfd","ios":"levelo://app?vid=b22379ec-8777-4dcd-8c0e-9642bdad8cfd"},"vehicle_type_id":"4","last_reported":1716069962,"current_range_meters":31200,"station_id":"ce4bgop2rcd13ifvqc1g","pricing_plan_id":"cebpf4jnsgd1na2vs0mg"},{"bike_id":"53b92910-a987-4aeb-8734-ef191a1ac884","system_id":"levelo_inurba_marseille","lat":43.2978,"lon":5.37113,"is_reserved":false,"is_disabled":false,"rental_uris":{"android":"levelo://app?vid=53b92910-a987-4aeb-8734-ef191a1ac884","ios":"levelo://app?vid=53b92910-a987-4aeb-8734-ef191a1ac884"},"vehicle_type_id":"4","last_reported":1716069962,"current_range_meters":24400,"station_id":"ce4bgop2rcd13ifvqc1g","pricing_plan_id":"cebpf4jnsgd1na2vs0mg"},{"bike_id":"8409f9f9-5637-43bd-a6a6-ad78ca54e59a","system_id":"levelo_inurba_marseille","lat":43.32286,"lon":5.38264,"is_reserved":false,"is_disabled":false,"rental_uris":{"android":"levelo://app?vid=8409f9f9-5637-43bd-a6a6-ad78ca54e59a","ios":"levelo://app?vid=8409f9f9-5637-43bd-a6a6-ad78ca54e59a"},"vehicle_type_id":"4","last_reported":1716069962,"current_range_meters":3600,"station_id":"ce4bhr12rcd13ifvqhqg","pricing_plan_id":"cebpf4jnsgd1na2vs0mg"},{"bike_id":"4e35fd5a-bc46-4277-a317-bb300e602173","system_id":"levelo_inurba_marseille","lat":43.3229,"lon":5.38263,"is_reserved":false,"is_disabled":false,"rental_uris":{"android":"levelo://app?vid=4e35fd5a-bc46-4277-a317-bb300e602173","ios":"levelo://app?vid=4e35fd5a-bc46-4277-a317-bb300e602173"},"vehicle_type_id":"4","last_reported":1716069962,"current_range_meters":9200,"station_id":"ce4bhr12rcd13ifvqhqg","pricing_plan_id":"cebpf4jnsgd1na2vs0mg"},{"bike_id":"20a219a4-15d8-4496-9559-cd12f79d5c85","system_id":"levelo_inurba_marseille","lat":43.322896,"lon":5.382778,"is_reserved":false,"is_disabled":false,"rental_uris":{"android":"levelo://app?vid=20a219a4-15d8-4496-9559-cd12f79d5c85","ios":"levelo://app?vid=20a219a4-15d8-4496-9559-cd12f79d5c85"},"vehicle_type_id":"4","last_reported":1716069962,"current_range_meters":30000,"station_id":"ce4bhr12rcd13ifvqhqg","pricing_plan_id":"cebpf4jnsgd1na2vs0mg"},{"bike_id":"9385d173-06b2-4fde-8d3d-ba7b1bec39da","system_id":"levelo_inurba_marseille","lat":43.322894,"lon":5.382787,"is_reserved":false,"is_disabled":false,"rental_uris":{"android":"levelo://app?vid=9385d173-06b2-4fde-8d3d-ba7b1bec39da","ios":"levelo://app?vid=9385d173-06b2-4fde-8d3d-ba7b1bec39da"},"vehicle_type_id":"4","last_reported":1716069962,"current_range_meters":2400,"station_id":"ce4bhr12rcd13ifvqhqg","pricing_plan_id":"cebpf4jnsgd1na2vs0mg"},{"bike_id":"a7531616-f6bf-4a3a-b56b-3faa34f07fa5","system_id":"levelo_inurba_marseille","lat":43.31522,"lon":5.388,"is_reserved":false,"is_disabled":false,"rental_uris":{"android":"levelo://app?vid=a7531616-f6bf-4a3a-b56b-3faa34f07fa5","ios":"levelo://app?vid=a7531616-f6bf-4a3a-b56b-3faa34f07fa5"},"vehicle_type_id":"4","last_reported":1716069962,"current_range_meters":3600,"station_id":"ce4bgt92rcd13ifvqcf0","pricing_plan_id":"cebpf4jnsgd1na2vs0mg"},{"bike_id":"ce33542c-6353-4075-9658-8aa7e800e52c","system_id":"levelo_inurba_marseille","lat":43.297124,"lon":5.366138,"is_reserved":false,"is_disabled":false,"rental_uris":{"android":"levelo://app?vid=ce33542c-6353-4075-9658-8aa7e800e52c","ios":"levelo://app?vid=ce33542c-6353-4075-9658-8aa7e800e52c"},"vehicle_type_id":"4","last_reported":1716069962,"current_range_meters":7200,"station_id":"ce4bgn12rcd13ifvqbt0","pricing_plan_id":"cebpf4jnsgd1na2vs0mg"},{"bike_id":"a0cb5d0a-0f3c-430e-a83c-b12ecd62ed72","system_id":"levelo_inurba_marseille","lat":43.2971,"lon":5.36611,"is_reserved":false,"is_disabled":false,"rental_uris":{"android":"levelo://app?vid=a0cb5d0a-0f3c-430e-a83c-b12ecd62ed72","ios":"levelo://app?vid=a0cb5d0a-0f3c-430e-a83c-b12ecd62ed72"},"vehicle_type_id":"4","last_reported":1716069962,"current_range_meters":0,"station_id":"ce4bgn12rcd13ifvqbt0","pricing_plan_id":"cebpf4jnsgd1na2vs0mg"},{"bike_id":"ca2c17bc-bebc-42a8-a8c2-f69c6a3bac0e","system_id":"levelo_inurba_marseille","lat":43.297163,"lon":5.365866,"is_reserved":false,"is_disabled":false,"rental_uris":{"android":"levelo://app?vid=ca2c17bc-bebc-42a8-a8c2-f69c6a3bac0e","ios":"levelo://app?vid=ca2c17bc-bebc-42a8-a8c2-f69c6a3bac0e"},"vehicle_type_id":"4","last_reported":1716069962,"current_range_meters":0,"station_id":"ce4bgn12rcd13ifvqbt0","pricing_plan_id":"cebpf4jnsgd1na2vs0mg"},{"bike_id":"e8b74b53-1f66-4822-bc9f-59e0cd63ffdc","system_id":"levelo_inurba_marseille","lat":43.297051,"lon":5.368924,"is_reserved":false,"is_disabled":false,"rental_uris":{"android":"levelo://app?vid=e8b74b53-1f66-4822-bc9f-59e0cd63ffdc","ios":"levelo://app?vid=e8b74b53-1f66-4822-bc9f-59e0cd63ffdc"},"vehicle_type_id":"4","last_reported":1716069962,"current_range_meters":0,"station_id":"","pricing_plan_id":"cebpf4jnsgd1na2vs0mg"},{"bike_id":"fa2c076b-ba3d-4ed0-adbd-c95d7fa28c27","system_id":"levelo_inurba_marseille","lat":43.297409,"lon":5.360383,"is_reserved":false,"is_disabled":false,"rental_uris":{"android":"levelo://app?vid=fa2c076b-ba3d-4ed0-adbd-c95d7fa28c27","ios":"levelo://app?vid=fa2c076b-ba3d-4ed0-adbd-c95d7fa28c27"},"vehicle_type_id":"4","last_reported":1716069962,"current_range_meters":0,"station_id":"","pricing_plan_id":"cebpf4jnsgd1na2vs0mg"},{"bike_id":"914918b3-5522-4f78-97d2-88c6276c0735","system_id":"levelo_inurba_marseille","lat":43.29689,"lon":5.37287,"is_reserved":false,"is_disabled":false,"rental_uris":{"android":"levelo://app?vid=914918b3-5522-4f78-97d2-88c6276c0735","ios":"levelo://app?vid=914918b3-5522-4f78-97d2-88c6276c0735"},"vehicle_type_id":"4","last_reported":1716069962,"current_range_meters":0,"station_id":"ce4bgk12rcd13ifvqbj0","pricing_plan_id":"cebpf4jnsgd1na2vs0mg"},{"bike_id":"b153fa12-96ea-424e-bbe7-bc6eddb1f0c1","system_id":"levelo_inurba_marseille","lat":43.29686,"lon":5.3728,"is_reserved":false,"is_disabled":false,"rental_uris":{"android":"levelo://app?vid=b153fa12-96ea-424e-bbe7-bc6eddb1f0c1","ios":"levelo://app?vid=b153fa12-96ea-424e-bbe7-bc6eddb1f0c1"},"vehicle_type_id":"4","last_reported":1716069962,"current_range_meters":0,"station_id":"ce4bgk12rcd13ifvqbj0","pricing_plan_id":"cebpf4jnsgd1na2vs0mg"},{"bike_id":"fb5b02bf-d41d-457d-9ac9-3e377e271631","system_id":"levelo_inurba_marseille","lat":43.2968,"lon":5.37291,"is_reserved":false,"is_disabled":false,"rental_uris":{"android":"levelo://app?vid=fb5b02bf-d41d-457d-9ac9-3e377e271631","ios":"levelo://app?vid=fb5b02bf-d41d-457d-9ac9-3e377e271631"},"vehicle_type_id":"4","last_reported":1716069962,"current_range_meters":31200,"station_id":"ce4bgk12rcd13ifvqbj0","pricing_plan_id":"cebpf4jnsgd1na2vs0mg"},{"bike_id":"c0b498e0-13a8-4048-9ad1-239a98ef44f9","system_id":"levelo_inurba_marseille","lat":43.298795,"lon":5.379995,"is_reserved":false,"is_disabled":false,"rental_uris":{"android":"levelo://app?vid=c0b498e0-13a8-4048-9ad1-239a98ef44f9","ios":"levelo://app?vid=c0b498e0-13a8-4048-9ad1-239a98ef44f9"},"vehicle_type_id":"4","last_reported":1716069962,"current_range_meters":20400,"station_id":"","pricing_plan_id":"cebpf4jnsgd1na2vs0mg"},{"bike_id":"38a559cd-50ae-4335-af8b-08a337aafdc4","system_id":"levelo_inurba_marseille","lat":43.29726,"lon":5.37688,"is_reserved":false,"is_disabled":false,"rental_uris":{"android":"levelo://app?vid=38a559cd-50ae-4335-af8b-08a337aafdc4","ios":"levelo://app?vid=38a559cd-50ae-4335-af8b-08a337aafdc4"},"vehicle_type_id":"4","last_reported":1716069962,"current_range_meters":0,"station_id":"ce4bgkh2rcd13ifvqbl0","pricing_plan_id":"cebpf4jnsgd1na2vs0mg"},{"bike_id":"76155001-9914-4774-9a8b-6633805be1b5","system_id":"levelo_inurba_marseille","lat":43.299028,"lon":5.381509,"is_reserved":false,"is_disabled":false,"rental_uris":{"android":"levelo://app?vid=76155001-9914-4774-9a8b-6633805be1b5","ios":"levelo://app?vid=76155001-9914-4774-9a8b-6633805be1b5"},"vehicle_type_id":"4","last_reported":1716069962,"current_range_meters":11200,"station_id":"ce4bgj12rcd13ifvqbc0","pricing_plan_id":"cebpf4jnsgd1na2vs0mg"},{"bike_id":"7bc69aae-9b54-4418-a224-da7578857fbe","system_id":"levelo_inurba_marseille","lat":43.29716,"lon":5.37683,"is_reserved":false,"is_disabled":false,"rental_uris":{"android":"levelo://app?vid=7bc69aae-9b54-4418-a224-da7578857fbe","ios":"levelo://app?vid=7bc69aae-9b54-4418-a224-da7578857fbe"},"vehicle_type_id":"4","last_reported":1716069962,"current_range_meters":12400,"station_id":"ce4bgkh2rcd13ifvqbl0","pricing_plan_id":"cebpf4jnsgd1na2vs0mg"},{"bike_id":"cd5ac9d5-0c7d-44ac-b9e3-fed0a7f0c15f","system_id":"levelo_inurba_marseille","lat":43.30958,"lon":5.39019,"is_reserved":false,"is_disabled":false,"rental_uris":{"android":"levelo://app?vid=cd5ac9d5-0c7d-44ac-b9e3-fed0a7f0c15f","ios":"levelo://app?vid=cd5ac9d5-0c7d-44ac-b9e3-fed0a7f0c15f"},"vehicle_type_id":"4","last_reported":1716069962,"current_range_meters":16000,"station_id":"ce4bgup2rcd13ifvqco0","pricing_plan_id":"cebpf4jnsgd1na2vs0mg"},{"bike_id":"fc9f4a5d-6533-4e05-bfe2-35f33351f8ce","system_id":"levelo_inurba_marseille","lat":43.30957,"lon":5.390215,"is_reserved":false,"is_disabled":false,"rental_uris":{"android":"levelo://app?vid=fc9f4a5d-6533-4e05-bfe2-35f33351f8ce","ios":"levelo://app?vid=fc9f4a5d-6533-4e05-bfe2-35f33351f8ce"},"vehicle_type_id":"4","last_reported":1716069962,"current_range_meters":31200,"station_id":"ce4bgup2rcd13ifvqco0","pricing_plan_id":"cebpf4jnsgd1na2vs0mg"},{"bike_id":"c98025aa-9e9c-488d-b5b8-d3754878d50d","system_id":"levelo_inurba_marseille","lat":43.309607,"lon":5.390231,"is_reserved":false,"is_disabled":false,"rental_uris":{"android":"levelo://app?vid=c98025aa-9e9c-488d-b5b8-d3754878d50d","ios":"levelo://app?vid=c98025aa-9e9c-488d-b5b8-d3754878d50d"},"vehicle_type_id":"4","last_reported":1716069962,"current_range_meters":30800,"station_id":"ce4bgup2rcd13ifvqco0","pricing_plan_id":"cebpf4jnsgd1na2vs0mg"},{"bike_id":"c2266d9e-95e7-4002-a217-bf0056ade863","system_id":"levelo_inurba_marseille","lat":43.30959,"lon":5.39023,"is_reserved":false,"is_disabled":false,"rental_uris":{"android":"levelo://app?vid=c2266d9e-95e7-4002-a217-bf0056ade863","ios":"levelo://app?vid=c2266d9e-95e7-4002-a217-bf0056ade863"},"vehicle_type_id":"4","last_reported":1716069962,"current_range_meters":7200,"station_id":"ce4bgup2rcd13ifvqco0","pricing_plan_id":"cebpf4jnsgd1na2vs0mg"},{"bike_id":"6c8779a2-43a3-4a2a-b4a3-da1319d6d69a","system_id":"levelo_inurba_marseille","lat":43.299028,"lon":5.381509,"is_reserved":false,"is_disabled":false,"rental_uris":{"android":"levelo://app?vid=6c8779a2-43a3-4a2a-b4a3-da1319d6d69a","ios":"levelo://app?vid=6c8779a2-43a3-4a2a-b4a3-da1319d6d69a"},"vehicle_type_id":"4","last_reported":1716069962,"current_range_meters":0,"station_id":"ce4bgj12rcd13ifvqbc0","pricing_plan_id":"cebpf4jnsgd1na2vs0mg"},{"bike_id":"f1643c9f-8942-4baf-ad44-fb63ba4e60d1","system_id":"levelo_inurba_marseille","lat":43.299028,"lon":5.381509,"is_reserved":false,"is_disabled":false,"rental_uris":{"android":"levelo://app?vid=f1643c9f-8942-4baf-ad44-fb63ba4e60d1","ios":"levelo://app?vid=f1643c9f-8942-4baf-ad44-fb63ba4e60d1"},"vehicle_type_id":"4","last_reported":1716069962,"current_range_meters":16400,"station_id":"ce4bgj12rcd13ifvqbc0","pricing_plan_id":"cebpf4jnsgd1na2vs0mg"},{"bike_id":"d90876d0-48be-4c50-be65-4a8de2e238f4","system_id":"levelo_inurba_marseille","lat":43.30954,"lon":5.39023,"is_reserved":false,"is_disabled":false,"rental_uris":{"android":"levelo://app?vid=d90876d0-48be-4c50-be65-4a8de2e238f4","ios":"levelo://app?vid=d90876d0-48be-4c50-be65-4a8de2e238f4"},"vehicle_type_id":"4","last_reported":1716069962,"current_range_meters":8000,"station_id":"ce4bgup2rcd13ifvqco0","pricing_plan_id":"cebpf4jnsgd1na2vs0mg"},{"bike_id":"26e09fe4-f7a1-4538-a394-3c0c8b7e6f3e","system_id":"levelo_inurba_marseille","lat":43.30954,"lon":5.39023,"is_reserved":false,"is_disabled":false,"rental_uris":{"android":"levelo://app?vid=26e09fe4-f7a1-4538-a394-3c0c8b7e6f3e","ios":"levelo://app?vid=26e09fe4-f7a1-4538-a394-3c0c8b7e6f3e"},"vehicle_type_id":"4","last_reported":1716069962,"current_range_meters":22800,"station_id":"ce4bgup2rcd13ifvqco0","pricing_plan_id":"cebpf4jnsgd1na2vs0mg"},{"bike_id":"14dca137-2fc0-40d1-bbc7-0f86fcb48111","system_id":"levelo_inurba_marseille","lat":43.309589,"lon":5.390258,"is_reserved":false,"is_disabled":false,"rental_uris":{"android":"levelo://app?vid=14dca137-2fc0-40d1-bbc7-0f86fcb48111","ios":"levelo://app?vid=14dca137-2fc0-40d1-bbc7-0f86fcb48111"},"vehicle_type_id":"4","last_reported":1716069962,"current_range_meters":14400,"station_id":"ce4bgup2rcd13ifvqco0","pricing_plan_id":"cebpf4jnsgd1na2vs0mg"},{"bike_id":"4fd52a72-50ae-4b74-bf74-508f338f4bcb","system_id":"levelo_inurba_marseille","lat":43.30959,"lon":5.39026,"is_reserved":false,"is_disabled":false,"rental_uris":{"android":"levelo://app?vid=4fd52a72-50ae-4b74-bf74-508f338f4bcb","ios":"levelo://app?vid=4fd52a72-50ae-4b74-bf74-508f338f4bcb"},"vehicle_type_id":"4","last_reported":1716069962,"current_range_meters":22400,"station_id":"ce4bgup2rcd13ifvqco0","pricing_plan_id":"cebpf4jnsgd1na2vs0mg"},{"bike_id":"1461ee01-395d-4fef-8f50-049f6733ab58","system_id":"levelo_inurba_marseille","lat":43.30949,"lon":5.39024,"is_reserved":false,"is_disabled":false,"rental_uris":{"android":"levelo://app?vid=1461ee01-395d-4fef-8f50-049f6733ab58","ios":"levelo://app?vid=1461ee01-395d-4fef-8f50-049f6733ab58"},"vehicle_type_id":"4","last_reported":1716069962,"current_range_meters":14400,"station_id":"ce4bgup2rcd13ifvqco0","pricing_plan_id":"cebpf4jnsgd1na2vs0mg"},{"bike_id":"a1ed3d20-adf2-4f4d-a3ed-4007243f2648","system_id":"levelo_inurba_marseille","lat":43.30964,"lon":5.39028,"is_reserved":false,"is_disabled":false,"rental_uris":{"android":"levelo://app?vid=a1ed3d20-adf2-4f4d-a3ed-4007243f2648","ios":"levelo://app?vid=a1ed3d20-adf2-4f4d-a3ed-4007243f2648"},"vehicle_type_id":"4","last_reported":1716069962,"current_range_meters":22400,"station_id":"ce4bgup2rcd13ifvqco0","pricing_plan_id":"cebpf4jnsgd1na2vs0mg"},{"bike_id":"04f62384-3fda-4614-8613-50ac0ba565b6","system_id":"levelo_inurba_marseille","lat":43.309589,"lon":5.390258,"is_reserved":false,"is_disabled":false,"rental_uris":{"android":"levelo://app?vid=04f62384-3fda-4614-8613-50ac0ba565b6","ios":"levelo://app?vid=04f62384-3fda-4614-8613-50ac0ba565b6"},"vehicle_type_id":"4","last_reported":1716069962,"current_range_meters":23600,"station_id":"ce4bgup2rcd13ifvqco0","pricing_plan_id":"cebpf4jnsgd1na2vs0mg"},{"bike_id":"73546ffe-3054-4dfa-8c3c-96995872ec94","system_id":"levelo_inurba_marseille","lat":43.309537,"lon":5.390274,"is_reserved":false,"is_disabled":false,"rental_uris":{"android":"levelo://app?vid=73546ffe-3054-4dfa-8c3c-96995872ec94","ios":"levelo://app?vid=73546ffe-3054-4dfa-8c3c-96995872ec94"},"vehicle_type_id":"4","last_reported":1716069962,"current_range_meters":20800,"station_id":"ce4bgup2rcd13ifvqco0","pricing_plan_id":"cebpf4jnsgd1na2vs0mg"},{"bike_id":"9d2e24a4-3688-4027-a9d4-96fe5bd6bb1d","system_id":"levelo_inurba_marseille","lat":43.30956,"lon":5.39028,"is_reserved":false,"is_disabled":false,"rental_uris":{"android":"levelo://app?vid=9d2e24a4-3688-4027-a9d4-96fe5bd6bb1d","ios":"levelo://app?vid=9d2e24a4-3688-4027-a9d4-96fe5bd6bb1d"},"vehicle_type_id":"4","last_reported":1716069962,"current_range_meters":7200,"station_id":"ce4bgup2rcd13ifvqco0","pricing_plan_id":"cebpf4jnsgd1na2vs0mg"},{"bike_id":"c9660d58-c8d9-4a7d-9477-b10e57ee91de","system_id":"levelo_inurba_marseille","lat":43.309565,"lon":5.390296,"is_reserved":false,"is_disabled":false,"rental_uris":{"android":"levelo://app?vid=c9660d58-c8d9-4a7d-9477-b10e57ee91de","ios":"levelo://app?vid=c9660d58-c8d9-4a7d-9477-b10e57ee91de"},"vehicle_type_id":"4","last_reported":1716069962,"current_range_meters":21200,"station_id":"ce4bgup2rcd13ifvqco0","pricing_plan_id":"cebpf4jnsgd1na2vs0mg"},{"bike_id":"4fbadabb-54d1-4bc3-9151-2faeca2ade07","system_id":"levelo_inurba_marseille","lat":43.30963,"lon":5.390313,"is_reserved":false,"is_disabled":false,"rental_uris":{"android":"levelo://app?vid=4fbadabb-54d1-4bc3-9151-2faeca2ade07","ios":"levelo://app?vid=4fbadabb-54d1-4bc3-9151-2faeca2ade07"},"vehicle_type_id":"4","last_reported":1716069962,"current_range_meters":20800,"station_id":"ce4bgup2rcd13ifvqco0","pricing_plan_id":"cebpf4jnsgd1na2vs0mg"},{"bike_id":"6204353c-ae84-4755-863b-af7b0490bd70","system_id":"levelo_inurba_marseille","lat":43.30953,"lon":5.39029,"is_reserved":false,"is_disabled":false,"rental_uris":{"android":"levelo://app?vid=6204353c-ae84-4755-863b-af7b0490bd70","ios":"levelo://app?vid=6204353c-ae84-4755-863b-af7b0490bd70"},"vehicle_type_id":"4","last_reported":1716069962,"current_range_meters":11200,"station_id":"ce4bgup2rcd13ifvqco0","pricing_plan_id":"cebpf4jnsgd1na2vs0mg"},{"bike_id":"3b9a3684-3e04-479d-84b3-d02adcae7a15","system_id":"levelo_inurba_marseille","lat":43.30949,"lon":5.39028,"is_reserved":false,"is_disabled":false,"rental_uris":{"android":"levelo://app?vid=3b9a3684-3e04-479d-84b3-d02adcae7a15","ios":"levelo://app?vid=3b9a3684-3e04-479d-84b3-d02adcae7a15"},"vehicle_type_id":"4","last_reported":1716069962,"current_range_meters":8000,"station_id":"ce4bgup2rcd13ifvqco0","pricing_plan_id":"cebpf4jnsgd1na2vs0mg"},{"bike_id":"63199c3d-db60-4fdb-9ef3-24c237573996","system_id":"levelo_inurba_marseille","lat":43.30955,"lon":5.39031,"is_reserved":false,"is_disabled":false,"rental_uris":{"android":"levelo://app?vid=63199c3d-db60-4fdb-9ef3-24c237573996","ios":"levelo://app?vid=63199c3d-db60-4fdb-9ef3-24c237573996"},"vehicle_type_id":"4","last_reported":1716069962,"current_range_meters":12400,"station_id":"ce4bgup2rcd13ifvqco0","pricing_plan_id":"cebpf4jnsgd1na2vs0mg"},{"bike_id":"a213dca7-ac93-426f-b416-23be39b7a346","system_id":"levelo_inurba_marseille","lat":43.30958,"lon":5.39032,"is_reserved":false,"is_disabled":false,"rental_uris":{"android":"levelo://app?vid=a213dca7-ac93-426f-b416-23be39b7a346","ios":"levelo://app?vid=a213dca7-ac93-426f-b416-23be39b7a346"},"vehicle_type_id":"4","last_reported":1716069962,"current_range_meters":0,"station_id":"ce4bgup2rcd13ifvqco0","pricing_plan_id":"cebpf4jnsgd1na2vs0mg"},{"bike_id":"f545a188-266e-48b2-82a5-1c37b22f898c","system_id":"levelo_inurba_marseille","lat":43.309589,"lon":5.390258,"is_reserved":false,"is_disabled":false,"rental_uris":{"android":"levelo://app?vid=f545a188-266e-48b2-82a5-1c37b22f898c","ios":"levelo://app?vid=f545a188-266e-48b2-82a5-1c37b22f898c"},"vehicle_type_id":"4","last_reported":1716069962,"current_range_meters":2400,"station_id":"ce4bgup2rcd13ifvqco0","pricing_plan_id":"cebpf4jnsgd1na2vs0mg"},{"bike_id":"38348d71-a282-4459-a0c7-2ce4860b1140","system_id":"levelo_inurba_marseille","lat":43.30963,"lon":5.39034,"is_reserved":false,"is_disabled":false,"rental_uris":{"android":"levelo://app?vid=38348d71-a282-4459-a0c7-2ce4860b1140","ios":"levelo://app?vid=38348d71-a282-4459-a0c7-2ce4860b1140"},"vehicle_type_id":"4","last_reported":1716069962,"current_range_meters":31200,"station_id":"ce4bgup2rcd13ifvqco0","pricing_plan_id":"cebpf4jnsgd1na2vs0mg"},{"bike_id":"94c4b772-2bea-4fb3-ba73-367700b914d8","system_id":"levelo_inurba_marseille","lat":43.309589,"lon":5.390258,"is_reserved":false,"is_disabled":false,"rental_uris":{"android":"levelo://app?vid=94c4b772-2bea-4fb3-ba73-367700b914d8","ios":"levelo://app?vid=94c4b772-2bea-4fb3-ba73-367700b914d8"},"vehicle_type_id":"4","last_reported":1716069962,"current_range_meters":5600,"station_id":"ce4bgup2rcd13ifvqco0","pricing_plan_id":"cebpf4jnsgd1na2vs0mg"},{"bike_id":"c83ce6ad-d8ee-47de-817e-b9fbd48cb3b7","system_id":"levelo_inurba_marseille","lat":43.309568,"lon":5.39033,"is_reserved":false,"is_disabled":false,"rental_uris":{"android":"levelo://app?vid=c83ce6ad-d8ee-47de-817e-b9fbd48cb3b7","ios":"levelo://app?vid=c83ce6ad-d8ee-47de-817e-b9fbd48cb3b7"},"vehicle_type_id":"4","last_reported":1716069962,"current_range_meters":2800,"station_id":"ce4bgup2rcd13ifvqco0","pricing_plan_id":"cebpf4jnsgd1na2vs0mg"},{"bike_id":"bdfdb947-33aa-40c9-8c70-df0acff209a2","system_id":"levelo_inurba_marseille","lat":43.309589,"lon":5.390258,"is_reserved":false,"is_disabled":false,"rental_uris":{"android":"levelo://app?vid=bdfdb947-33aa-40c9-8c70-df0acff209a2","ios":"levelo://app?vid=bdfdb947-33aa-40c9-8c70-df0acff209a2"},"vehicle_type_id":"4","last_reported":1716069962,"current_range_meters":4800,"station_id":"ce4bgup2rcd13ifvqco0","pricing_plan_id":"cebpf4jnsgd1na2vs0mg"},{"bike_id":"52d10315-6b0b-4b93-ab36-e55e877849ee","system_id":"levelo_inurba_marseille","lat":43.309589,"lon":5.390258,"is_reserved":false,"is_disabled":false,"rental_uris":{"android":"levelo://app?vid=52d10315-6b0b-4b93-ab36-e55e877849ee","ios":"levelo://app?vid=52d10315-6b0b-4b93-ab36-e55e877849ee"},"vehicle_type_id":"4","last_reported":1716069962,"current_range_meters":31200,"station_id":"ce4bgup2rcd13ifvqco0","pricing_plan_id":"cebpf4jnsgd1na2vs0mg"},{"bike_id":"d2987577-a76f-476b-89db-14e47ab32d33","system_id":"levelo_inurba_marseille","lat":43.309589,"lon":5.390258,"is_reserved":false,"is_disabled":false,"rental_uris":{"android":"levelo://app?vid=d2987577-a76f-476b-89db-14e47ab32d33","ios":"levelo://app?vid=d2987577-a76f-476b-89db-14e47ab32d33"},"vehicle_type_id":"4","last_reported":1716069962,"current_range_meters":31200,"station_id":"ce4bgup2rcd13ifvqco0","pricing_plan_id":"cebpf4jnsgd1na2vs0mg"},{"bike_id":"66903ec4-749d-49bf-879f-126cf23e8e5c","system_id":"levelo_inurba_marseille","lat":43.309643,"lon":5.390363,"is_reserved":false,"is_disabled":false,"rental_uris":{"android":"levelo://app?vid=66903ec4-749d-49bf-879f-126cf23e8e5c","ios":"levelo://app?vid=66903ec4-749d-49bf-879f-126cf23e8e5c"},"vehicle_type_id":"4","last_reported":1716069962,"current_range_meters":31200,"station_id":"ce4bgup2rcd13ifvqco0","pricing_plan_id":"cebpf4jnsgd1na2vs0mg"},{"bike_id":"4f59c17b-14c5-4ed9-9a58-7b3548fac6c1","system_id":"levelo_inurba_marseille","lat":43.309589,"lon":5.390258,"is_reserved":false,"is_disabled":false,"rental_uris":{"android":"levelo://app?vid=4f59c17b-14c5-4ed9-9a58-7b3548fac6c1","ios":"levelo://app?vid=4f59c17b-14c5-4ed9-9a58-7b3548fac6c1"},"vehicle_type_id":"4","last_reported":1716069962,"current_range_meters":16400,"station_id":"ce4bgup2rcd13ifvqco0","pricing_plan_id":"cebpf4jnsgd1na2vs0mg"},{"bike_id":"603baedf-9108-4d5c-a917-a27c83b2b9c4","system_id":"levelo_inurba_marseille","lat":43.309539,"lon":5.390358,"is_reserved":false,"is_disabled":false,"rental_uris":{"android":"levelo://app?vid=603baedf-9108-4d5c-a917-a27c83b2b9c4","ios":"levelo://app?vid=603baedf-9108-4d5c-a917-a27c83b2b9c4"},"vehicle_type_id":"4","last_reported":1716069962,"current_range_meters":11200,"station_id":"ce4bgup2rcd13ifvqco0","pricing_plan_id":"cebpf4jnsgd1na2vs0mg"},{"bike_id":"6e14c1eb-060f-4e58-9c30-cbe95b045d87","system_id":"levelo_inurba_marseille","lat":43.30943,"lon":5.39033,"is_reserved":false,"is_disabled":false,"rental_uris":{"android":"levelo://app?vid=6e14c1eb-060f-4e58-9c30-cbe95b045d87","ios":"levelo://app?vid=6e14c1eb-060f-4e58-9c30-cbe95b045d87"},"vehicle_type_id":"4","last_reported":1716069962,"current_range_meters":31200,"station_id":"ce4bgup2rcd13ifvqco0","pricing_plan_id":"cebpf4jnsgd1na2vs0mg"},{"bike_id":"84691075-ae58-4c9c-9859-483fa7631210","system_id":"levelo_inurba_marseille","lat":43.309597,"lon":5.390377,"is_reserved":false,"is_disabled":false,"rental_uris":{"android":"levelo://app?vid=84691075-ae58-4c9c-9859-483fa7631210","ios":"levelo://app?vid=84691075-ae58-4c9c-9859-483fa7631210"},"vehicle_type_id":"4","last_reported":1716069962,"current_range_meters":16000,"station_id":"ce4bgup2rcd13ifvqco0","pricing_plan_id":"cebpf4jnsgd1na2vs0mg"},{"bike_id":"2392150d-d884-40fe-871f-a13345b37364","system_id":"levelo_inurba_marseille","lat":43.309589,"lon":5.390258,"is_reserved":false,"is_disabled":false,"rental_uris":{"android":"levelo://app?vid=2392150d-d884-40fe-871f-a13345b37364","ios":"levelo://app?vid=2392150d-d884-40fe-871f-a13345b37364"},"vehicle_type_id":"4","last_reported":1716069962,"current_range_meters":25600,"station_id":"ce4bgup2rcd13ifvqco0","pricing_plan_id":"cebpf4jnsgd1na2vs0mg"},{"bike_id":"de8a354f-15f9-47ca-a5fc-95f5e3c3cd40","system_id":"levelo_inurba_marseille","lat":43.309589,"lon":5.390258,"is_reserved":false,"is_disabled":false,"rental_uris":{"android":"levelo://app?vid=de8a354f-15f9-47ca-a5fc-95f5e3c3cd40","ios":"levelo://app?vid=de8a354f-15f9-47ca-a5fc-95f5e3c3cd40"},"vehicle_type_id":"4","last_reported":1716069962,"current_range_meters":9600,"station_id":"ce4bgup2rcd13ifvqco0","pricing_plan_id":"cebpf4jnsgd1na2vs0mg"},{"bike_id":"b10d0cb6-f6e9-40a8-b328-c0b6a731a4dc","system_id":"levelo_inurba_marseille","lat":43.309463,"lon":5.390383,"is_reserved":false,"is_disabled":false,"rental_uris":{"android":"levelo://app?vid=b10d0cb6-f6e9-40a8-b328-c0b6a731a4dc","ios":"levelo://app?vid=b10d0cb6-f6e9-40a8-b328-c0b6a731a4dc"},"vehicle_type_id":"4","last_reported":1716069962,"current_range_meters":30400,"station_id":"ce4bgup2rcd13ifvqco0","pricing_plan_id":"cebpf4jnsgd1na2vs0mg"},{"bike_id":"f76fa8f2-2763-4a95-899c-bd5e8d37af24","system_id":"levelo_inurba_marseille","lat":43.309589,"lon":5.390258,"is_reserved":false,"is_disabled":false,"rental_uris":{"android":"levelo://app?vid=f76fa8f2-2763-4a95-899c-bd5e8d37af24","ios":"levelo://app?vid=f76fa8f2-2763-4a95-899c-bd5e8d37af24"},"vehicle_type_id":"4","last_reported":1716069962,"current_range_meters":19600,"station_id":"ce4bgup2rcd13ifvqco0","pricing_plan_id":"cebpf4jnsgd1na2vs0mg"},{"bike_id":"4d0bb5e6-0474-4729-b17f-0f43ac90100a","system_id":"levelo_inurba_marseille","lat":43.302992,"lon":5.392136,"is_reserved":false,"is_disabled":false,"rental_uris":{"android":"levelo://app?vid=4d0bb5e6-0474-4729-b17f-0f43ac90100a","ios":"levelo://app?vid=4d0bb5e6-0474-4729-b17f-0f43ac90100a"},"vehicle_type_id":"4","last_reported":1716069962,"current_range_meters":0,"station_id":"ce4bgkh2rcd13ifvqbk0","pricing_plan_id":"cebpf4jnsgd1na2vs0mg"},{"bike_id":"12c7bac9-d8e7-4b18-befe-6d3455d2ab15","system_id":"levelo_inurba_marseille","lat":43.309589,"lon":5.390258,"is_reserved":false,"is_disabled":false,"rental_uris":{"android":"levelo://app?vid=12c7bac9-d8e7-4b18-befe-6d3455d2ab15","ios":"levelo://app?vid=12c7bac9-d8e7-4b18-befe-6d3455d2ab15"},"vehicle_type_id":"4","last_reported":1716069962,"current_range_meters":28400,"station_id":"ce4bgup2rcd13ifvqco0","pricing_plan_id":"cebpf4jnsgd1na2vs0mg"},{"bike_id":"8d15b574-1eff-476d-8535-94fd5016567a","system_id":"levelo_inurba_marseille","lat":43.309589,"lon":5.390258,"is_reserved":false,"is_disabled":false,"rental_uris":{"android":"levelo://app?vid=8d15b574-1eff-476d-8535-94fd5016567a","ios":"levelo://app?vid=8d15b574-1eff-476d-8535-94fd5016567a"},"vehicle_type_id":"4","last_reported":1716069962,"current_range_meters":3600,"station_id":"ce4bgup2rcd13ifvqco0","pricing_plan_id":"cebpf4jnsgd1na2vs0mg"},{"bike_id":"07d39b23-6a02-4c05-a800-98926a5d0691","system_id":"levelo_inurba_marseille","lat":43.309589,"lon":5.390258,"is_reserved":false,"is_disabled":false,"rental_uris":{"android":"levelo://app?vid=07d39b23-6a02-4c05-a800-98926a5d0691","ios":"levelo://app?vid=07d39b23-6a02-4c05-a800-98926a5d0691"},"vehicle_type_id":"4","last_reported":1716069962,"current_range_meters":12800,"station_id":"ce4bgup2rcd13ifvqco0","pricing_plan_id":"cebpf4jnsgd1na2vs0mg"},{"bike_id":"7c29e2d7-a738-43d2-b900-5320d2ce0db7","system_id":"levelo_inurba_marseille","lat":43.3176,"lon":5.3901,"is_reserved":false,"is_disabled":false,"rental_uris":{"android":"levelo://app?vid=7c29e2d7-a738-43d2-b900-5320d2ce0db7","ios":"levelo://app?vid=7c29e2d7-a738-43d2-b900-5320d2ce0db7"},"vehicle_type_id":"4","last_reported":1716069962,"current_range_meters":15600,"station_id":"ce4bhqp2rcd13ifvqhng","pricing_plan_id":"cebpf4jnsgd1na2vs0mg"},{"bike_id":"0eb1e6b8-3441-411a-9ef6-669cc4b09f90","system_id":"levelo_inurba_marseille","lat":43.31754,"lon":5.39015,"is_reserved":false,"is_disabled":false,"rental_uris":{"android":"levelo://app?vid=0eb1e6b8-3441-411a-9ef6-669cc4b09f90","ios":"levelo://app?vid=0eb1e6b8-3441-411a-9ef6-669cc4b09f90"},"vehicle_type_id":"4","last_reported":1716069962,"current_range_meters":23600,"station_id":"ce4bhqp2rcd13ifvqhng","pricing_plan_id":"cebpf4jnsgd1na2vs0mg"},{"bike_id":"3c6685f8-9845-4cfd-8f16-35a649f940f6","system_id":"levelo_inurba_marseille","lat":43.297083,"lon":5.377907,"is_reserved":false,"is_disabled":false,"rental_uris":{"android":"levelo://app?vid=3c6685f8-9845-4cfd-8f16-35a649f940f6","ios":"levelo://app?vid=3c6685f8-9845-4cfd-8f16-35a649f940f6"},"vehicle_type_id":"4","last_reported":1716069962,"current_range_meters":0,"station_id":"","pricing_plan_id":"cebpf4jnsgd1na2vs0mg"},{"bike_id":"5676ca2e-62fd-43c4-b577-51ab96a2ba53","system_id":"levelo_inurba_marseille","lat":43.304278,"lon":5.388868,"is_reserved":false,"is_disabled":false,"rental_uris":{"android":"levelo://app?vid=5676ca2e-62fd-43c4-b577-51ab96a2ba53","ios":"levelo://app?vid=5676ca2e-62fd-43c4-b577-51ab96a2ba53"},"vehicle_type_id":"4","last_reported":1716069962,"current_range_meters":23200,"station_id":"ce4bgk12rcd13ifvqbi0","pricing_plan_id":"cebpf4jnsgd1na2vs0mg"},{"bike_id":"d00d1026-f9ef-472e-9273-79a9b4e7704f","system_id":"levelo_inurba_marseille","lat":43.298037,"lon":5.381066,"is_reserved":false,"is_disabled":false,"rental_uris":{"android":"levelo://app?vid=d00d1026-f9ef-472e-9273-79a9b4e7704f","ios":"levelo://app?vid=d00d1026-f9ef-472e-9273-79a9b4e7704f"},"vehicle_type_id":"4","last_reported":1716069962,"current_range_meters":16800,"station_id":"ce4bgip2rcd13ifvqbb0","pricing_plan_id":"cebpf4jnsgd1na2vs0mg"},{"bike_id":"8f7e4d96-6a2a-4580-bc31-18fc76841c33","system_id":"levelo_inurba_marseille","lat":43.29576,"lon":5.37498,"is_reserved":false,"is_disabled":false,"rental_uris":{"android":"levelo://app?vid=8f7e4d96-6a2a-4580-bc31-18fc76841c33","ios":"levelo://app?vid=8f7e4d96-6a2a-4580-bc31-18fc76841c33"},"vehicle_type_id":"4","last_reported":1716069962,"current_range_meters":0,"station_id":"ce4bgh92rcd13ifvqb50","pricing_plan_id":"cebpf4jnsgd1na2vs0mg"},{"bike_id":"6bcc583a-ad7f-4f93-bda0-22b734cb8cc2","system_id":"levelo_inurba_marseille","lat":43.29576,"lon":5.37503,"is_reserved":false,"is_disabled":false,"rental_uris":{"android":"levelo://app?vid=6bcc583a-ad7f-4f93-bda0-22b734cb8cc2","ios":"levelo://app?vid=6bcc583a-ad7f-4f93-bda0-22b734cb8cc2"},"vehicle_type_id":"4","last_reported":1716069962,"current_range_meters":0,"station_id":"ce4bgh92rcd13ifvqb50","pricing_plan_id":"cebpf4jnsgd1na2vs0mg"},{"bike_id":"34365386-b339-4072-a7b2-f8c6437e6f88","system_id":"levelo_inurba_marseille","lat":43.30434,"lon":5.38886,"is_reserved":false,"is_disabled":false,"rental_uris":{"android":"levelo://app?vid=34365386-b339-4072-a7b2-f8c6437e6f88","ios":"levelo://app?vid=34365386-b339-4072-a7b2-f8c6437e6f88"},"vehicle_type_id":"4","last_reported":1716069962,"current_range_meters":0,"station_id":"ce4bgk12rcd13ifvqbi0","pricing_plan_id":"cebpf4jnsgd1na2vs0mg"},{"bike_id":"71b0b263-b6ea-480f-b9a0-1941763efb2c","system_id":"levelo_inurba_marseille","lat":43.304274,"lon":5.388873,"is_reserved":false,"is_disabled":false,"rental_uris":{"android":"levelo://app?vid=71b0b263-b6ea-480f-b9a0-1941763efb2c","ios":"levelo://app?vid=71b0b263-b6ea-480f-b9a0-1941763efb2c"},"vehicle_type_id":"4","last_reported":1716069962,"current_range_meters":22000,"station_id":"ce4bgk12rcd13ifvqbi0","pricing_plan_id":"cebpf4jnsgd1na2vs0mg"},{"bike_id":"bb2f3283-d9b1-4422-ae4d-63cb0f8a3879","system_id":"levelo_inurba_marseille","lat":43.304278,"lon":5.388868,"is_reserved":false,"is_disabled":false,"rental_uris":{"android":"levelo://app?vid=bb2f3283-d9b1-4422-ae4d-63cb0f8a3879","ios":"levelo://app?vid=bb2f3283-d9b1-4422-ae4d-63cb0f8a3879"},"vehicle_type_id":"4","last_reported":1716069962,"current_range_meters":7200,"station_id":"ce4bgk12rcd13ifvqbi0","pricing_plan_id":"cebpf4jnsgd1na2vs0mg"},{"bike_id":"f6147cb1-32e7-4be0-a377-e2cf38f59313","system_id":"levelo_inurba_marseille","lat":43.298037,"lon":5.381066,"is_reserved":false,"is_disabled":false,"rental_uris":{"android":"levelo://app?vid=f6147cb1-32e7-4be0-a377-e2cf38f59313","ios":"levelo://app?vid=f6147cb1-32e7-4be0-a377-e2cf38f59313"},"vehicle_type_id":"4","last_reported":1716069962,"current_range_meters":23600,"station_id":"ce4bgip2rcd13ifvqbb0","pricing_plan_id":"cebpf4jnsgd1na2vs0mg"},{"bike_id":"584677b2-1336-436e-80be-1fca369fbf27","system_id":"levelo_inurba_marseille","lat":43.304274,"lon":5.388873,"is_reserved":false,"is_disabled":false,"rental_uris":{"android":"levelo://app?vid=584677b2-1336-436e-80be-1fca369fbf27","ios":"levelo://app?vid=584677b2-1336-436e-80be-1fca369fbf27"},"vehicle_type_id":"4","last_reported":1716069962,"current_range_meters":5600,"station_id":"ce4bgk12rcd13ifvqbi0","pricing_plan_id":"cebpf4jnsgd1na2vs0mg"},{"bike_id":"d241d29e-efe3-4f47-a377-f4253db9e8fa","system_id":"levelo_inurba_marseille","lat":43.304274,"lon":5.388873,"is_reserved":false,"is_disabled":false,"rental_uris":{"android":"levelo://app?vid=d241d29e-efe3-4f47-a377-f4253db9e8fa","ios":"levelo://app?vid=d241d29e-efe3-4f47-a377-f4253db9e8fa"},"vehicle_type_id":"4","last_reported":1716069962,"current_range_meters":17600,"station_id":"ce4bgk12rcd13ifvqbi0","pricing_plan_id":"cebpf4jnsgd1na2vs0mg"},{"bike_id":"14f1bd29-57ec-417e-86f2-2b507c64e698","system_id":"levelo_inurba_marseille","lat":43.29613,"lon":5.37727,"is_reserved":false,"is_disabled":false,"rental_uris":{"android":"levelo://app?vid=14f1bd29-57ec-417e-86f2-2b507c64e698","ios":"levelo://app?vid=14f1bd29-57ec-417e-86f2-2b507c64e698"},"vehicle_type_id":"4","last_reported":1716069962,"current_range_meters":0,"station_id":"ce4bgi92rcd13ifvqb90","pricing_plan_id":"cebpf4jnsgd1na2vs0mg"},{"bike_id":"683b8f18-cbbe-43ad-b771-bf2ba8225c0d","system_id":"levelo_inurba_marseille","lat":43.29616,"lon":5.37741,"is_reserved":false,"is_disabled":false,"rental_uris":{"android":"levelo://app?vid=683b8f18-cbbe-43ad-b771-bf2ba8225c0d","ios":"levelo://app?vid=683b8f18-cbbe-43ad-b771-bf2ba8225c0d"},"vehicle_type_id":"4","last_reported":1716069962,"current_range_meters":0,"station_id":"ce4bgi92rcd13ifvqb90","pricing_plan_id":"cebpf4jnsgd1na2vs0mg"},{"bike_id":"7b2c406a-1272-4de3-94f0-125b950acb73","system_id":"levelo_inurba_marseille","lat":43.29611,"lon":5.37732,"is_reserved":false,"is_disabled":false,"rental_uris":{"android":"levelo://app?vid=7b2c406a-1272-4de3-94f0-125b950acb73","ios":"levelo://app?vid=7b2c406a-1272-4de3-94f0-125b950acb73"},"vehicle_type_id":"4","last_reported":1716069962,"current_range_meters":0,"station_id":"ce4bgi92rcd13ifvqb90","pricing_plan_id":"cebpf4jnsgd1na2vs0mg"},{"bike_id":"cfb35b11-d3c2-4e1b-bd6a-9d4064988b21","system_id":"levelo_inurba_marseille","lat":43.296277,"lon":5.377108,"is_reserved":false,"is_disabled":false,"rental_uris":{"android":"levelo://app?vid=cfb35b11-d3c2-4e1b-bd6a-9d4064988b21","ios":"levelo://app?vid=cfb35b11-d3c2-4e1b-bd6a-9d4064988b21"},"vehicle_type_id":"4","last_reported":1716069962,"current_range_meters":10400,"station_id":"ce4bgi92rcd13ifvqb90","pricing_plan_id":"cebpf4jnsgd1na2vs0mg"},{"bike_id":"ed446eee-d4f7-47a8-ac57-4156d87348ca","system_id":"levelo_inurba_marseille","lat":43.304278,"lon":5.388868,"is_reserved":false,"is_disabled":false,"rental_uris":{"android":"levelo://app?vid=ed446eee-d4f7-47a8-ac57-4156d87348ca","ios":"levelo://app?vid=ed446eee-d4f7-47a8-ac57-4156d87348ca"},"vehicle_type_id":"4","last_reported":1716069962,"current_range_meters":4000,"station_id":"ce4bgk12rcd13ifvqbi0","pricing_plan_id":"cebpf4jnsgd1na2vs0mg"},{"bike_id":"7e4df22e-fa05-4b43-a08f-f0c4ffaf7a3d","system_id":"levelo_inurba_marseille","lat":43.299717,"lon":5.384845,"is_reserved":false,"is_disabled":false,"rental_uris":{"android":"levelo://app?vid=7e4df22e-fa05-4b43-a08f-f0c4ffaf7a3d","ios":"levelo://app?vid=7e4df22e-fa05-4b43-a08f-f0c4ffaf7a3d"},"vehicle_type_id":"4","last_reported":1716069962,"current_range_meters":21600,"station_id":"ce4bgj92rcd13ifvqbd0","pricing_plan_id":"cebpf4jnsgd1na2vs0mg"},{"bike_id":"9af6aa42-e97a-4f54-ae61-431be70d692e","system_id":"levelo_inurba_marseille","lat":43.295279,"lon":5.375048,"is_reserved":false,"is_disabled":false,"rental_uris":{"android":"levelo://app?vid=9af6aa42-e97a-4f54-ae61-431be70d692e","ios":"levelo://app?vid=9af6aa42-e97a-4f54-ae61-431be70d692e"},"vehicle_type_id":"4","last_reported":1716069962,"current_range_meters":14400,"station_id":"ce4bgkp2rcd13ifvqbmg","pricing_plan_id":"cebpf4jnsgd1na2vs0mg"},{"bike_id":"437b0796-2364-4ff0-b6d8-c185ebfac049","system_id":"levelo_inurba_marseille","lat":43.295279,"lon":5.375048,"is_reserved":false,"is_disabled":false,"rental_uris":{"android":"levelo://app?vid=437b0796-2364-4ff0-b6d8-c185ebfac049","ios":"levelo://app?vid=437b0796-2364-4ff0-b6d8-c185ebfac049"},"vehicle_type_id":"4","last_reported":1716069962,"current_range_meters":22400,"station_id":"ce4bgkp2rcd13ifvqbmg","pricing_plan_id":"cebpf4jnsgd1na2vs0mg"},{"bike_id":"0164d042-e733-4e05-b091-6075a92efe14","system_id":"levelo_inurba_marseille","lat":43.295279,"lon":5.375048,"is_reserved":false,"is_disabled":false,"rental_uris":{"android":"levelo://app?vid=0164d042-e733-4e05-b091-6075a92efe14","ios":"levelo://app?vid=0164d042-e733-4e05-b091-6075a92efe14"},"vehicle_type_id":"4","last_reported":1716069962,"current_range_meters":1600,"station_id":"ce4bgkp2rcd13ifvqbmg","pricing_plan_id":"cebpf4jnsgd1na2vs0mg"},{"bike_id":"ab4100e6-2610-4b89-8f9c-a0c47c1df61a","system_id":"levelo_inurba_marseille","lat":43.295279,"lon":5.375048,"is_reserved":false,"is_disabled":false,"rental_uris":{"android":"levelo://app?vid=ab4100e6-2610-4b89-8f9c-a0c47c1df61a","ios":"levelo://app?vid=ab4100e6-2610-4b89-8f9c-a0c47c1df61a"},"vehicle_type_id":"4","last_reported":1716069962,"current_range_meters":7600,"station_id":"ce4bgkp2rcd13ifvqbmg","pricing_plan_id":"cebpf4jnsgd1na2vs0mg"},{"bike_id":"d5d2eea5-1adb-4a93-8baa-386795011fc2","system_id":"levelo_inurba_marseille","lat":43.325594,"lon":5.386439,"is_reserved":false,"is_disabled":false,"rental_uris":{"android":"levelo://app?vid=d5d2eea5-1adb-4a93-8baa-386795011fc2","ios":"levelo://app?vid=d5d2eea5-1adb-4a93-8baa-386795011fc2"},"vehicle_type_id":"4","last_reported":1716069962,"current_range_meters":2400,"station_id":"","pricing_plan_id":"cebpf4jnsgd1na2vs0mg"},{"bike_id":"637b26be-b165-4886-a639-8f455e4c9e41","system_id":"levelo_inurba_marseille","lat":43.32367,"lon":5.388836,"is_reserved":false,"is_disabled":false,"rental_uris":{"android":"levelo://app?vid=637b26be-b165-4886-a639-8f455e4c9e41","ios":"levelo://app?vid=637b26be-b165-4886-a639-8f455e4c9e41"},"vehicle_type_id":"4","last_reported":1716069962,"current_range_meters":16400,"station_id":"ce4bhqp2rcd13ifvqhog","pricing_plan_id":"cebpf4jnsgd1na2vs0mg"},{"bike_id":"461981fa-eb9c-4ef2-b7b1-6af2f23d76d7","system_id":"levelo_inurba_marseille","lat":43.32367,"lon":5.388836,"is_reserved":false,"is_disabled":false,"rental_uris":{"android":"levelo://app?vid=461981fa-eb9c-4ef2-b7b1-6af2f23d76d7","ios":"levelo://app?vid=461981fa-eb9c-4ef2-b7b1-6af2f23d76d7"},"vehicle_type_id":"4","last_reported":1716069962,"current_range_meters":7200,"station_id":"ce4bhqp2rcd13ifvqhog","pricing_plan_id":"cebpf4jnsgd1na2vs0mg"},{"bike_id":"946c52cb-28d5-4c3e-8f0b-1976a744d353","system_id":"levelo_inurba_marseille","lat":43.29602,"lon":5.381084,"is_reserved":false,"is_disabled":false,"rental_uris":{"android":"levelo://app?vid=946c52cb-28d5-4c3e-8f0b-1976a744d353","ios":"levelo://app?vid=946c52cb-28d5-4c3e-8f0b-1976a744d353"},"vehicle_type_id":"4","last_reported":1716069962,"current_range_meters":24800,"station_id":"ce4bgl12rcd13ifvqbo0","pricing_plan_id":"cebpf4jnsgd1na2vs0mg"},{"bike_id":"f4ec5b20-2071-4f93-b464-5b10d32d7989","system_id":"levelo_inurba_marseille","lat":43.305994,"lon":5.393687,"is_reserved":false,"is_disabled":false,"rental_uris":{"android":"levelo://app?vid=f4ec5b20-2071-4f93-b464-5b10d32d7989","ios":"levelo://app?vid=f4ec5b20-2071-4f93-b464-5b10d32d7989"},"vehicle_type_id":"4","last_reported":1716069962,"current_range_meters":26800,"station_id":"ce4bh0p2rcd13ifvqd80","pricing_plan_id":"cebpf4jnsgd1na2vs0mg"},{"bike_id":"8c944c12-d06f-4b94-80a3-34451e86fb9c","system_id":"levelo_inurba_marseille","lat":43.298457,"lon":5.385461,"is_reserved":false,"is_disabled":false,"rental_uris":{"android":"levelo://app?vid=8c944c12-d06f-4b94-80a3-34451e86fb9c","ios":"levelo://app?vid=8c944c12-d06f-4b94-80a3-34451e86fb9c"},"vehicle_type_id":"4","last_reported":1716069962,"current_range_meters":17200,"station_id":"","pricing_plan_id":"cebpf4jnsgd1na2vs0mg"},{"bike_id":"67e8ba5d-38d3-43cb-867a-2f2ec8cf2921","system_id":"levelo_inurba_marseille","lat":43.295925,"lon":5.381033,"is_reserved":false,"is_disabled":false,"rental_uris":{"android":"levelo://app?vid=67e8ba5d-38d3-43cb-867a-2f2ec8cf2921","ios":"levelo://app?vid=67e8ba5d-38d3-43cb-867a-2f2ec8cf2921"},"vehicle_type_id":"4","last_reported":1716069962,"current_range_meters":0,"station_id":"ce4bgl12rcd13ifvqbo0","pricing_plan_id":"cebpf4jnsgd1na2vs0mg"},{"bike_id":"acbb59c0-7a22-4e04-a633-05d0d591a34f","system_id":"levelo_inurba_marseille","lat":43.29602,"lon":5.381084,"is_reserved":false,"is_disabled":false,"rental_uris":{"android":"levelo://app?vid=acbb59c0-7a22-4e04-a633-05d0d591a34f","ios":"levelo://app?vid=acbb59c0-7a22-4e04-a633-05d0d591a34f"},"vehicle_type_id":"4","last_reported":1716069962,"current_range_meters":4400,"station_id":"ce4bgl12rcd13ifvqbo0","pricing_plan_id":"cebpf4jnsgd1na2vs0mg"},{"bike_id":"f1977373-1533-4b4b-b98d-0f9396f72f1e","system_id":"levelo_inurba_marseille","lat":43.29307,"lon":5.37165,"is_reserved":false,"is_disabled":false,"rental_uris":{"android":"levelo://app?vid=f1977373-1533-4b4b-b98d-0f9396f72f1e","ios":"levelo://app?vid=f1977373-1533-4b4b-b98d-0f9396f72f1e"},"vehicle_type_id":"4","last_reported":1716069962,"current_range_meters":16000,"station_id":"","pricing_plan_id":"cebpf4jnsgd1na2vs0mg"},{"bike_id":"037a1c99-a060-45bf-84d5-076393fe2082","system_id":"levelo_inurba_marseille","lat":43.305994,"lon":5.393687,"is_reserved":false,"is_disabled":false,"rental_uris":{"android":"levelo://app?vid=037a1c99-a060-45bf-84d5-076393fe2082","ios":"levelo://app?vid=037a1c99-a060-45bf-84d5-076393fe2082"},"vehicle_type_id":"4","last_reported":1716069962,"current_range_meters":0,"station_id":"ce4bh0p2rcd13ifvqd80","pricing_plan_id":"cebpf4jnsgd1na2vs0mg"},{"bike_id":"47da8e39-a777-40ac-9814-e89298f1f57e","system_id":"levelo_inurba_marseille","lat":43.305994,"lon":5.393687,"is_reserved":false,"is_disabled":false,"rental_uris":{"android":"levelo://app?vid=47da8e39-a777-40ac-9814-e89298f1f57e","ios":"levelo://app?vid=47da8e39-a777-40ac-9814-e89298f1f57e"},"vehicle_type_id":"4","last_reported":1716069962,"current_range_meters":11200,"station_id":"ce4bh0p2rcd13ifvqd80","pricing_plan_id":"cebpf4jnsgd1na2vs0mg"},{"bike_id":"b3ad9101-99f4-4760-b5d9-6b3e8b94fccc","system_id":"levelo_inurba_marseille","lat":43.305994,"lon":5.393687,"is_reserved":false,"is_disabled":false,"rental_uris":{"android":"levelo://app?vid=b3ad9101-99f4-4760-b5d9-6b3e8b94fccc","ios":"levelo://app?vid=b3ad9101-99f4-4760-b5d9-6b3e8b94fccc"},"vehicle_type_id":"4","last_reported":1716069962,"current_range_meters":6400,"station_id":"ce4bh0p2rcd13ifvqd80","pricing_plan_id":"cebpf4jnsgd1na2vs0mg"},{"bike_id":"f6701ab6-82d1-4d07-a7b5-ebfef6400bbb","system_id":"levelo_inurba_marseille","lat":43.305994,"lon":5.393687,"is_reserved":false,"is_disabled":false,"rental_uris":{"android":"levelo://app?vid=f6701ab6-82d1-4d07-a7b5-ebfef6400bbb","ios":"levelo://app?vid=f6701ab6-82d1-4d07-a7b5-ebfef6400bbb"},"vehicle_type_id":"4","last_reported":1716069962,"current_range_meters":8400,"station_id":"ce4bh0p2rcd13ifvqd80","pricing_plan_id":"cebpf4jnsgd1na2vs0mg"},{"bike_id":"34030621-16f1-4dfb-b3bc-d68ccc3cad25","system_id":"levelo_inurba_marseille","lat":43.305994,"lon":5.393687,"is_reserved":false,"is_disabled":false,"rental_uris":{"android":"levelo://app?vid=34030621-16f1-4dfb-b3bc-d68ccc3cad25","ios":"levelo://app?vid=34030621-16f1-4dfb-b3bc-d68ccc3cad25"},"vehicle_type_id":"4","last_reported":1716069962,"current_range_meters":14400,"station_id":"ce4bh0p2rcd13ifvqd80","pricing_plan_id":"cebpf4jnsgd1na2vs0mg"},{"bike_id":"2406a8aa-bc73-4b38-b8b1-803357fa9b9a","system_id":"levelo_inurba_marseille","lat":43.30595,"lon":5.393598,"is_reserved":false,"is_disabled":false,"rental_uris":{"android":"levelo://app?vid=2406a8aa-bc73-4b38-b8b1-803357fa9b9a","ios":"levelo://app?vid=2406a8aa-bc73-4b38-b8b1-803357fa9b9a"},"vehicle_type_id":"4","last_reported":1716069962,"current_range_meters":2000,"station_id":"ce4bh0p2rcd13ifvqd80","pricing_plan_id":"cebpf4jnsgd1na2vs0mg"},{"bike_id":"455bc284-28b4-427f-8a47-4bfa734a1af7","system_id":"levelo_inurba_marseille","lat":43.305994,"lon":5.393687,"is_reserved":false,"is_disabled":false,"rental_uris":{"android":"levelo://app?vid=455bc284-28b4-427f-8a47-4bfa734a1af7","ios":"levelo://app?vid=455bc284-28b4-427f-8a47-4bfa734a1af7"},"vehicle_type_id":"4","last_reported":1716069962,"current_range_meters":0,"station_id":"ce4bh0p2rcd13ifvqd80","pricing_plan_id":"cebpf4jnsgd1na2vs0mg"},{"bike_id":"e6ad83d6-2459-4495-a2f7-909b7dee6db8","system_id":"levelo_inurba_marseille","lat":43.305994,"lon":5.393687,"is_reserved":false,"is_disabled":false,"rental_uris":{"android":"levelo://app?vid=e6ad83d6-2459-4495-a2f7-909b7dee6db8","ios":"levelo://app?vid=e6ad83d6-2459-4495-a2f7-909b7dee6db8"},"vehicle_type_id":"4","last_reported":1716069962,"current_range_meters":1200,"station_id":"ce4bh0p2rcd13ifvqd80","pricing_plan_id":"cebpf4jnsgd1na2vs0mg"},{"bike_id":"5376463f-e776-438b-9a81-a549dea3c1e9","system_id":"levelo_inurba_marseille","lat":43.2936,"lon":5.37835,"is_reserved":false,"is_disabled":false,"rental_uris":{"android":"levelo://app?vid=5376463f-e776-438b-9a81-a549dea3c1e9","ios":"levelo://app?vid=5376463f-e776-438b-9a81-a549dea3c1e9"},"vehicle_type_id":"4","last_reported":1716069962,"current_range_meters":0,"station_id":"ce4bgjh2rcd13ifvqbf0","pricing_plan_id":"cebpf4jnsgd1na2vs0mg"},{"bike_id":"d8fd115a-d8fb-4fdf-8176-0d458790be13","system_id":"levelo_inurba_marseille","lat":43.2936,"lon":5.37835,"is_reserved":false,"is_disabled":false,"rental_uris":{"android":"levelo://app?vid=d8fd115a-d8fb-4fdf-8176-0d458790be13","ios":"levelo://app?vid=d8fd115a-d8fb-4fdf-8176-0d458790be13"},"vehicle_type_id":"4","last_reported":1716069962,"current_range_meters":18000,"station_id":"ce4bgjh2rcd13ifvqbf0","pricing_plan_id":"cebpf4jnsgd1na2vs0mg"},{"bike_id":"ca0efc9e-1792-4f49-9bae-fcf52357a2dc","system_id":"levelo_inurba_marseille","lat":43.293655,"lon":5.378451,"is_reserved":false,"is_disabled":false,"rental_uris":{"android":"levelo://app?vid=ca0efc9e-1792-4f49-9bae-fcf52357a2dc","ios":"levelo://app?vid=ca0efc9e-1792-4f49-9bae-fcf52357a2dc"},"vehicle_type_id":"4","last_reported":1716069962,"current_range_meters":0,"station_id":"ce4bgjh2rcd13ifvqbf0","pricing_plan_id":"cebpf4jnsgd1na2vs0mg"},{"bike_id":"21b8f7be-aafe-41fb-b135-95ecd6e1bff7","system_id":"levelo_inurba_marseille","lat":43.300852,"lon":5.390859,"is_reserved":false,"is_disabled":false,"rental_uris":{"android":"levelo://app?vid=21b8f7be-aafe-41fb-b135-95ecd6e1bff7","ios":"levelo://app?vid=21b8f7be-aafe-41fb-b135-95ecd6e1bff7"},"vehicle_type_id":"4","last_reported":1716069962,"current_range_meters":0,"station_id":"ce4bh192rcd13ifvqdb0","pricing_plan_id":"cebpf4jnsgd1na2vs0mg"},{"bike_id":"2a52fad9-c6cb-4072-ae1f-7bcafcb355e3","system_id":"levelo_inurba_marseille","lat":43.30085,"lon":5.390856,"is_reserved":false,"is_disabled":false,"rental_uris":{"android":"levelo://app?vid=2a52fad9-c6cb-4072-ae1f-7bcafcb355e3","ios":"levelo://app?vid=2a52fad9-c6cb-4072-ae1f-7bcafcb355e3"},"vehicle_type_id":"4","last_reported":1716069962,"current_range_meters":400,"station_id":"ce4bh192rcd13ifvqdb0","pricing_plan_id":"cebpf4jnsgd1na2vs0mg"},{"bike_id":"9af5f62d-f27a-4f6d-93eb-122968ecd25d","system_id":"levelo_inurba_marseille","lat":43.292311,"lon":5.360731,"is_reserved":false,"is_disabled":false,"rental_uris":{"android":"levelo://app?vid=9af5f62d-f27a-4f6d-93eb-122968ecd25d","ios":"levelo://app?vid=9af5f62d-f27a-4f6d-93eb-122968ecd25d"},"vehicle_type_id":"4","last_reported":1716069962,"current_range_meters":0,"station_id":"ce4bhbh2rcd13ifvqeqg","pricing_plan_id":"cebpf4jnsgd1na2vs0mg"},{"bike_id":"03505d6a-3401-48e7-a2fe-ef21c9967c12","system_id":"levelo_inurba_marseille","lat":43.29275,"lon":5.37607,"is_reserved":false,"is_disabled":false,"rental_uris":{"android":"levelo://app?vid=03505d6a-3401-48e7-a2fe-ef21c9967c12","ios":"levelo://app?vid=03505d6a-3401-48e7-a2fe-ef21c9967c12"},"vehicle_type_id":"4","last_reported":1716069962,"current_range_meters":0,"station_id":"","pricing_plan_id":"cebpf4jnsgd1na2vs0mg"},{"bike_id":"f38019d6-9bdb-460c-b8f6-d5455f26905e","system_id":"levelo_inurba_marseille","lat":43.298764,"lon":5.388973,"is_reserved":false,"is_disabled":false,"rental_uris":{"android":"levelo://app?vid=f38019d6-9bdb-460c-b8f6-d5455f26905e","ios":"levelo://app?vid=f38019d6-9bdb-460c-b8f6-d5455f26905e"},"vehicle_type_id":"4","last_reported":1716069962,"current_range_meters":22000,"station_id":"ce4bh392rcd13ifvqdl0","pricing_plan_id":"cebpf4jnsgd1na2vs0mg"},{"bike_id":"1f3e7094-272b-4556-8d17-ae3505035d12","system_id":"levelo_inurba_marseille","lat":43.293009,"lon":5.374584,"is_reserved":false,"is_disabled":false,"rental_uris":{"android":"levelo://app?vid=1f3e7094-272b-4556-8d17-ae3505035d12","ios":"levelo://app?vid=1f3e7094-272b-4556-8d17-ae3505035d12"},"vehicle_type_id":"4","last_reported":1716069962,"current_range_meters":3600,"station_id":"ce4bgi12rcd13ifvqb70","pricing_plan_id":"cebpf4jnsgd1na2vs0mg"},{"bike_id":"e15ee880-d1ef-4d25-9011-3a8ac1d05781","system_id":"levelo_inurba_marseille","lat":43.29888,"lon":5.38896,"is_reserved":false,"is_disabled":false,"rental_uris":{"android":"levelo://app?vid=e15ee880-d1ef-4d25-9011-3a8ac1d05781","ios":"levelo://app?vid=e15ee880-d1ef-4d25-9011-3a8ac1d05781"},"vehicle_type_id":"4","last_reported":1716069962,"current_range_meters":0,"station_id":"ce4bh392rcd13ifvqdl0","pricing_plan_id":"cebpf4jnsgd1na2vs0mg"},{"bike_id":"587d759a-8226-46bc-b299-b24884b55ade","system_id":"levelo_inurba_marseille","lat":43.29168,"lon":5.37134,"is_reserved":false,"is_disabled":false,"rental_uris":{"android":"levelo://app?vid=587d759a-8226-46bc-b299-b24884b55ade","ios":"levelo://app?vid=587d759a-8226-46bc-b299-b24884b55ade"},"vehicle_type_id":"4","last_reported":1716069962,"current_range_meters":800,"station_id":"ce4bha92rcd13ifvqeh0","pricing_plan_id":"cebpf4jnsgd1na2vs0mg"},{"bike_id":"7a1df5df-d336-4477-9cf9-b4f427f830ce","system_id":"levelo_inurba_marseille","lat":43.2917,"lon":5.37155,"is_reserved":false,"is_disabled":false,"rental_uris":{"android":"levelo://app?vid=7a1df5df-d336-4477-9cf9-b4f427f830ce","ios":"levelo://app?vid=7a1df5df-d336-4477-9cf9-b4f427f830ce"},"vehicle_type_id":"4","last_reported":1716069962,"current_range_meters":6000,"station_id":"ce4bha92rcd13ifvqeh0","pricing_plan_id":"cebpf4jnsgd1na2vs0mg"},{"bike_id":"f791b441-4a84-46ef-9489-b5f9dfb13695","system_id":"levelo_inurba_marseille","lat":43.29167,"lon":5.371446,"is_reserved":false,"is_disabled":false,"rental_uris":{"android":"levelo://app?vid=f791b441-4a84-46ef-9489-b5f9dfb13695","ios":"levelo://app?vid=f791b441-4a84-46ef-9489-b5f9dfb13695"},"vehicle_type_id":"4","last_reported":1716069962,"current_range_meters":0,"station_id":"ce4bha92rcd13ifvqeh0","pricing_plan_id":"cebpf4jnsgd1na2vs0mg"},{"bike_id":"b2767744-eee6-4a32-9236-fa96ad2df66a","system_id":"levelo_inurba_marseille","lat":43.298764,"lon":5.388973,"is_reserved":false,"is_disabled":false,"rental_uris":{"android":"levelo://app?vid=b2767744-eee6-4a32-9236-fa96ad2df66a","ios":"levelo://app?vid=b2767744-eee6-4a32-9236-fa96ad2df66a"},"vehicle_type_id":"4","last_reported":1716069962,"current_range_meters":0,"station_id":"ce4bh392rcd13ifvqdl0","pricing_plan_id":"cebpf4jnsgd1na2vs0mg"},{"bike_id":"0cfe05b4-832f-479f-83ee-ebcbbc249310","system_id":"levelo_inurba_marseille","lat":43.298764,"lon":5.388973,"is_reserved":false,"is_disabled":false,"rental_uris":{"android":"levelo://app?vid=0cfe05b4-832f-479f-83ee-ebcbbc249310","ios":"levelo://app?vid=0cfe05b4-832f-479f-83ee-ebcbbc249310"},"vehicle_type_id":"4","last_reported":1716069962,"current_range_meters":0,"station_id":"ce4bh392rcd13ifvqdl0","pricing_plan_id":"cebpf4jnsgd1na2vs0mg"},