{"last_updated":1726240132,"ttl":30,"version":"2.2","data":{"bikes":[{"bike_id":"bc35aeaa-3e4d-43e6-9935-c8f1110a4b4c","system_id":"levelo_inurba_marseille","lat":43.30503,"lon":5.36706,"is_reserved":false,"is_disabled":false,"rental_uris":{"android":"levelo://app?vid=bc35aeaa-3e4d-43e6-9935-c8f1110a4b4c","ios":"levelo://app?vid=bc35aeaa-3e4d-43e6-9935-c8f1110a4b4c"},"vehicle_type_id":"4","last_reported":1726240132,"current_range_meters":36800,"station_id":"ce4bgrp2rcd13ifvqc9g","pricing_plan_id":"cebpf4jnsgd1na2vs0mg"},{"bike_id":"2ca2fd52-6283-4397-ac7e-8db28b0c8f78","system_id":"levelo_inurba_marseille","lat":43.23196,"lon":5.35555,"is_reserved":false,"is_disabled":false,"rental_uris":{"android":"levelo://app?vid=2ca2fd52-6283-4397-ac7e-8db28b0c8f78","ios":"levelo://app?vid=2ca2fd52-6283-4397-ac7e-8db28b0c8f78"},"vehicle_type_id":"4","last_reported":1726240132,"current_range_meters":11200,"station_id":"ce4bhu92rcd13ifvqi70","pricing_plan_id":"cebpf4jnsgd1na2vs0mg"},{"bike_id":"df7edb97-2a32-471d-9c43-e73e5f6f871c","system_id":"levelo_inurba_marseille","lat":43.32363,"lon":5.38891,"is_reserved":false,"is_disabled":false,"rental_uris":{"android":"levelo://app?vid=df7edb97-2a32-471d-9c43-e73e5f6f871c","ios":"levelo://app?vid=df7edb97-2a32-471d-9c43-e73e5f6f871c"},"vehicle_type_id":"4","last_reported":1726240132,"current_range_meters":16400,"station_id":"ce4bhqp2rcd13ifvqhog","pricing_plan_id":"cebpf4jnsgd1na2vs0mg"},{"bike_id":"78daf548-540b-4a2e-b49b-346b3b3d76ec","system_id":"levelo_inurba_marseille","lat":43.23162,"lon":5.43704,"is_reserved":false,"is_disabled":false,"rental_uris":{"android":"levelo://app?vid=78daf548-540b-4a2e-b49b-346b3b3d76ec","ios":"levelo://app?vid=78daf548-540b-4a2e-b49b-346b3b3d76ec"},"vehicle_type_id":"4","last_reported":1726240132,"current_range_meters":17200,"station_id":"ce4bhmp2rcd13ifvqgog","pricing_plan_id":"cebpf4jnsgd1na2vs0mg"},{"bike_id":"1433cc86-19c5-4d38-a0b5-c5c087739e0a","system_id":"levelo_inurba_marseille","lat":43.22932,"lon":5.35374,"is_reserved":false,"is_disabled":false,"rental_uris":{"android":"levelo://app?vid=1433cc86-19c5-4d38-a0b5-c5c087739e0a","ios":"levelo://app?vid=1433cc86-19c5-4d38-a0b5-c5c087739e0a"},"vehicle_type_id":"4","last_reported":1726240132,"current_range_meters":30000,"station_id":"cpo3532slgdg3j2ikp40","pricing_plan_id":"cebpf4jnsgd1na2vs0mg"},{"bike_id":"c8b8ea19-50a3-4edd-a25b-8da33014e65a","system_id":"levelo_inurba_marseille","lat":43.2695,"lon":5.38627,"is_reserved":false,"is_disabled":false,"rental_uris":{"android":"levelo://app?vid=c8b8ea19-50a3-4edd-a25b-8da33014e65a","ios":"levelo://app?vid=c8b8ea19-50a3-4edd-a25b-8da33014e65a"},"vehicle_type_id":"4","last_reported":1726240132,"current_range_meters":6000,"station_id":"ce4bhh92rcd13ifvqfh0","pricing_plan_id":"cebpf4jnsgd1na2vs0mg"},{"bike_id":"841887be-8767-434c-a90b-93b4d5b7b63a","system_id":"levelo_inurba_marseille","lat":43.32359,"lon":5.38876,"is_reserved":false,"is_disabled":false,"rental_uris":{"android":"levelo://app?vid=841887be-8767-434c-a90b-93b4d5b7b63a","ios":"levelo://app?vid=841887be-8767-434c-a90b-93b4d5b7b63a"},"vehicle_type_id":"4","last_reported":1726240132,"current_range_meters":36400,"station_id":"ce4bhqp2rcd13ifvqhog","pricing_plan_id":"cebpf4jnsgd1na2vs0mg"},{"bike_id":"f128ad67-a490-4cf3-b1e2-6afb844b897e","system_id":"levelo_inurba_marseille","lat":43.28925,"lon":5.38393,"is_reserved":false,"is_disabled":false,"rental_uris":{"android":"levelo://app?vid=f128ad67-a490-4cf3-b1e2-6afb844b897e","ios":"levelo://app?vid=f128ad67-a490-4cf3-b1e2-6afb844b897e"},"vehicle_type_id":"4","last_reported":1726240132,"current_range_meters":24400,"station_id":"ce4bh612rcd13ifvqe6g","pricing_plan_id":"cebpf4jnsgd1na2vs0mg"},{"bike_id":"4f3df2ff-2dde-48b8-9e8e-f806c3c8dd4c","system_id":"levelo_inurba_marseille","lat":43.3248,"lon":5.36565,"is_reserved":false,"is_disabled":false,"rental_uris":{"android":"levelo://app?vid=4f3df2ff-2dde-48b8-9e8e-f806c3c8dd4c","ios":"levelo://app?vid=4f3df2ff-2dde-48b8-9e8e-f806c3c8dd4c"},"vehicle_type_id":"4","last_reported":1726240132,"current_range_meters":24000,"station_id":"ce4bhs12rcd13ifvqhvg","pricing_plan_id":"cebpf4jnsgd1na2vs0mg"},{"bike_id":"083984dd-1abd-4a7d-84c6-e8ceb7b63abe","system_id":"levelo_inurba_marseille","lat":43.31083,"lon":5.37774,"is_reserved":false,"is_disabled":false,"rental_uris":{"android":"levelo://app?vid=083984dd-1abd-4a7d-84c6-e8ceb7b63abe","ios":"levelo://app?vid=083984dd-1abd-4a7d-84c6-e8ceb7b63abe"},"vehicle_type_id":"4","last_reported":1726240132,"current_range_meters":37600,"station_id":"ce4bgt92rcd13ifvqcg0","pricing_plan_id":"cebpf4jnsgd1na2vs0mg"},{"bike_id":"f2aab370-6e0a-414f-a9aa-b82870be9ba4","system_id":"levelo_inurba_marseille","lat":43.28618,"lon":5.35106,"is_reserved":false,"is_disabled":false,"rental_uris":{"android":"levelo://app?vid=f2aab370-6e0a-414f-a9aa-b82870be9ba4","ios":"levelo://app?vid=f2aab370-6e0a-414f-a9aa-b82870be9ba4"},"vehicle_type_id":"4","last_reported":1726240132,"current_range_meters":22400,"station_id":"ce4bhch2rcd13ifvqeug","pricing_plan_id":"cebpf4jnsgd1na2vs0mg"},{"bike_id":"44c607d5-83d1-4f4f-937f-024dd015e659","system_id":"levelo_inurba_marseille","lat":43.29705,"lon":5.36608,"is_reserved":false,"is_disabled":false,"rental_uris":{"android":"levelo://app?vid=44c607d5-83d1-4f4f-937f-024dd015e659","ios":"levelo://app?vid=44c607d5-83d1-4f4f-937f-024dd015e659"},"vehicle_type_id":"4","last_reported":1726240132,"current_range_meters":38800,"station_id":"ce4bgn12rcd13ifvqbt0","pricing_plan_id":"cebpf4jnsgd1na2vs0mg"},{"bike_id":"e0b9cb6c-4996-4b35-baa2-36f702866204","system_id":"levelo_inurba_marseille","lat":43.26044,"lon":5.37542,"is_reserved":false,"is_disabled":false,"rental_uris":{"android":"levelo://app?vid=e0b9cb6c-4996-4b35-baa2-36f702866204","ios":"levelo://app?vid=e0b9cb6c-4996-4b35-baa2-36f702866204"},"vehicle_type_id":"4","last_reported":1726240132,"current_range_meters":28400,"station_id":"ce4bhgh2rcd13ifvqfa0","pricing_plan_id":"cebpf4jnsgd1na2vs0mg"},{"bike_id":"d238f12a-5b9b-4a90-b645-4c303382d805","system_id":"levelo_inurba_marseille","lat":43.2901,"lon":5.39902,"is_reserved":false,"is_disabled":false,"rental_uris":{"android":"levelo://app?vid=d238f12a-5b9b-4a90-b645-4c303382d805","ios":"levelo://app?vid=d238f12a-5b9b-4a90-b645-4c303382d805"},"vehicle_type_id":"4","last_reported":1726240132,"current_range_meters":28400,"station_id":"ce4bhg12rcd13ifvqf80","pricing_plan_id":"cebpf4jnsgd1na2vs0mg"},{"bike_id":"20a93905-b3a1-4ead-a861-f6bd36aa5b5e","system_id":"levelo_inurba_marseille","lat":43.23155,"lon":5.4371,"is_reserved":false,"is_disabled":false,"rental_uris":{"android":"levelo://app?vid=20a93905-b3a1-4ead-a861-f6bd36aa5b5e","ios":"levelo://app?vid=20a93905-b3a1-4ead-a861-f6bd36aa5b5e"},"vehicle_type_id":"4","last_reported":1726240132,"current_range_meters":19200,"station_id":"ce4bhmp2rcd13ifvqgog","pricing_plan_id":"cebpf4jnsgd1na2vs0mg"},{"bike_id":"c5ed8bab-12e3-4101-81bb-39350c57310d","system_id":"levelo_inurba_marseille","lat":43.24171,"lon":5.36389,"is_reserved":false,"is_disabled":false,"rental_uris":{"android":"levelo://app?vid=c5ed8bab-12e3-4101-81bb-39350c57310d","ios":"levelo://app?vid=c5ed8bab-12e3-4101-81bb-39350c57310d"},"vehicle_type_id":"4","last_reported":1726240132,"current_range_meters":4400,"station_id":"cpo36qri1sfpv3e86is0","pricing_plan_id":"cebpf4jnsgd1na2vs0mg"},{"bike_id":"ef1b8045-2f0a-4d86-bf74-93821aeeb0e7","system_id":"levelo_inurba_marseille","lat":43.31761,"lon":5.39016,"is_reserved":false,"is_disabled":false,"rental_uris":{"android":"levelo://app?vid=ef1b8045-2f0a-4d86-bf74-93821aeeb0e7","ios":"levelo://app?vid=ef1b8045-2f0a-4d86-bf74-93821aeeb0e7"},"vehicle_type_id":"4","last_reported":1726240132,"current_range_meters":28000,"station_id":"ce4bhqp2rcd13ifvqhng","pricing_plan_id":"cebpf4jnsgd1na2vs0mg"},{"bike_id":"f45d9413-9a73-47f2-a10e-0dc762623601","system_id":"levelo_inurba_marseille","lat":43.23152,"lon":5.43703,"is_reserved":false,"is_disabled":false,"rental_uris":{"android":"levelo://app?vid=f45d9413-9a73-47f2-a10e-0dc762623601","ios":"levelo://app?vid=f45d9413-9a73-47f2-a10e-0dc762623601"},"vehicle_type_id":"4","last_reported":1726240132,"current_range_meters":38800,"station_id":"ce4bhmp2rcd13ifvqgog","pricing_plan_id":"cebpf4jnsgd1na2vs0mg"},{"bike_id":"fb9dbfe1-01d0-400a-aab3-c465c4c7ed0b","system_id":"levelo_inurba_marseille","lat":43.31169,"lon":5.38714,"is_reserved":false,"is_disabled":false,"rental_uris":{"android":"levelo://app?vid=fb9dbfe1-01d0-400a-aab3-c465c4c7ed0b","ios":"levelo://app?vid=fb9dbfe1-01d0-400a-aab3-c465c4c7ed0b"},"vehicle_type_id":"4","last_reported":1726240132,"current_range_meters":27600,"station_id":"ce4bgv12rcd13ifvqcp0","pricing_plan_id":"cebpf4jnsgd1na2vs0mg"},{"bike_id":"ee0bd8c7-4c07-4d5a-b7da-b65b844a1376","system_id":"levelo_inurba_marseille","lat":43.301242,"lon":5.398665,"is_reserved":false,"is_disabled":false,"rental_uris":{"android":"levelo://app?vid=ee0bd8c7-4c07-4d5a-b7da-b65b844a1376","ios":"levelo://app?vid=ee0bd8c7-4c07-4d5a-b7da-b65b844a1376"},"vehicle_type_id":"4","last_reported":1726240132,"current_range_meters":35200,"station_id":"ce4bgip2rcd13ifvqbb0","pricing_plan_id":"cebpf4jnsgd1na2vs0mg"},{"bike_id":"13ec4916-f0ea-4897-8afc-596425b42c42","system_id":"levelo_inurba_marseille","lat":43.23194,"lon":5.35553,"is_reserved":false,"is_disabled":false,"rental_uris":{"android":"levelo://app?vid=13ec4916-f0ea-4897-8afc-596425b42c42","ios":"levelo://app?vid=13ec4916-f0ea-4897-8afc-596425b42c42"},"vehicle_type_id":"4","last_reported":1726240132,"current_range_meters":31200,"station_id":"ce4bhu92rcd13ifvqi70","pricing_plan_id":"cebpf4jnsgd1na2vs0mg"},{"bike_id":"fbb69908-0749-45d1-8a5b-8e8131c59359","system_id":"levelo_inurba_marseille","lat":43.24661,"lon":5.38162,"is_reserved":false,"is_disabled":false,"rental_uris":{"android":"levelo://app?vid=fbb69908-0749-45d1-8a5b-8e8131c59359","ios":"levelo://app?vid=fbb69908-0749-45d1-8a5b-8e8131c59359"},"vehicle_type_id":"4","last_reported":1726240132,"current_range_meters":19200,"station_id":"ce4bhih2rcd13ifvqfr0","pricing_plan_id":"cebpf4jnsgd1na2vs0mg"},{"bike_id":"171e7c83-45c5-4f40-968b-a2410f7f37a5","system_id":"levelo_inurba_marseille","lat":43.23182,"lon":5.39994,"is_reserved":false,"is_disabled":false,"rental_uris":{"android":"levelo://app?vid=171e7c83-45c5-4f40-968b-a2410f7f37a5","ios":"levelo://app?vid=171e7c83-45c5-4f40-968b-a2410f7f37a5"},"vehicle_type_id":"4","last_reported":1726240132,"current_range_meters":39200,"station_id":"ce4bhn12rcd13ifvqgqg","pricing_plan_id":"cebpf4jnsgd1na2vs0mg"},{"bike_id":"a59d64a6-0c90-478e-8726-6eda2f84c2f7","system_id":"levelo_inurba_marseille","lat":43.26035,"lon":5.37546,"is_reserved":false,"is_disabled":false,"rental_uris":{"android":"levelo://app?vid=a59d64a6-0c90-478e-8726-6eda2f84c2f7","ios":"levelo://app?vid=a59d64a6-0c90-478e-8726-6eda2f84c2f7"},"vehicle_type_id":"4","last_reported":1726240132,"current_range_meters":4000,"station_id":"ce4bhgh2rcd13ifvqfa0","pricing_plan_id":"cebpf4jnsgd1na2vs0mg"},{"bike_id":"1b69e28d-b657-4802-b5dd-aa17fb5a768b","system_id":"levelo_inurba_marseille","lat":43.27143,"lon":5.42801,"is_reserved":false,"is_disabled":false,"rental_uris":{"android":"levelo://app?vid=1b69e28d-b657-4802-b5dd-aa17fb5a768b","ios":"levelo://app?vid=1b69e28d-b657-4802-b5dd-aa17fb5a768b"},"vehicle_type_id":"4","last_reported":1726240132,"current_range_meters":30400,"station_id":"","pricing_plan_id":"cebpf4jnsgd1na2vs0mg"},{"bike_id":"639670f1-50b7-42bc-846e-c57fd18fe089","system_id":"levelo_inurba_marseille","lat":43.316956,"lon":5.404909,"is_reserved":false,"is_disabled":false,"rental_uris":{"android":"levelo://app?vid=639670f1-50b7-42bc-846e-c57fd18fe089","ios":"levelo://app?vid=639670f1-50b7-42bc-846e-c57fd18fe089"},"vehicle_type_id":"4","last_reported":1726240132,"current_range_meters":10800,"station_id":"ce4bh012rcd13ifvqd00","pricing_plan_id":"cebpf4jnsgd1na2vs0mg"},{"bike_id":"995d3a7e-289e-4ebd-b785-9d2da426ad57","system_id":"levelo_inurba_marseille","lat":43.23198,"lon":5.35548,"is_reserved":false,"is_disabled":false,"rental_uris":{"android":"levelo://app?vid=995d3a7e-289e-4ebd-b785-9d2da426ad57","ios":"levelo://app?vid=995d3a7e-289e-4ebd-b785-9d2da426ad57"},"vehicle_type_id":"4","last_reported":1726240132,"current_range_meters":25600,"station_id":"ce4bhu92rcd13ifvqi70","pricing_plan_id":"cebpf4jnsgd1na2vs0mg"},{"bike_id":"74c67d55-8a5f-40c9-8066-d68354718f8c","system_id":"levelo_inurba_marseille","lat":43.232,"lon":5.35555,"is_reserved":false,"is_disabled":false,"rental_uris":{"android":"levelo://app?vid=74c67d55-8a5f-40c9-8066-d68354718f8c","ios":"levelo://app?vid=74c67d55-8a5f-40c9-8066-d68354718f8c"},"vehicle_type_id":"4","last_reported":1726240132,"current_range_meters":29600,"station_id":"ce4bhu92rcd13ifvqi70","pricing_plan_id":"cebpf4jnsgd1na2vs0mg"},{"bike_id":"65b41972-e5b3-473a-a165-476202ec5eb9","system_id":"levelo_inurba_marseille","lat":43.27931,"lon":5.39587,"is_reserved":false,"is_disabled":false,"rental_uris":{"android":"levelo://app?vid=65b41972-e5b3-473a-a165-476202ec5eb9","ios":"levelo://app?vid=65b41972-e5b3-473a-a165-476202ec5eb9"},"vehicle_type_id":"4","last_reported":1726240132,"current_range_meters":9600,"station_id":"ce4bhf92rcd13ifvqf40","pricing_plan_id":"cebpf4jnsgd1na2vs0mg"},{"bike_id":"1d1fe77b-c32b-4d92-8e57-d6a8f8d034dd","system_id":"levelo_inurba_marseille","lat":43.297638,"lon":5.38107,"is_reserved":false,"is_disabled":false,"rental_uris":{"android":"levelo://app?vid=1d1fe77b-c32b-4d92-8e57-d6a8f8d034dd","ios":"levelo://app?vid=1d1fe77b-c32b-4d92-8e57-d6a8f8d034dd"},"vehicle_type_id":"4","last_reported":1726240132,"current_range_meters":32400,"station_id":"ce4bhh92rcd13ifvqfi0","pricing_plan_id":"cebpf4jnsgd1na2vs0mg"},{"bike_id":"96f78135-a3bf-4d89-ae7a-0552f423e639","system_id":"levelo_inurba_marseille","lat":43.27811,"lon":5.40722,"is_reserved":false,"is_disabled":false,"rental_uris":{"android":"levelo://app?vid=96f78135-a3bf-4d89-ae7a-0552f423e639","ios":"levelo://app?vid=96f78135-a3bf-4d89-ae7a-0552f423e639"},"vehicle_type_id":"4","last_reported":1726240132,"current_range_meters":4000,"station_id":"ce4bhnh2rcd13ifvqgtg","pricing_plan_id":"cebpf4jnsgd1na2vs0mg"},{"bike_id":"e2be0aea-67dc-4dc6-b46f-e2412631f2dd","system_id":"levelo_inurba_marseille","lat":43.25007,"lon":5.38931,"is_reserved":false,"is_disabled":false,"rental_uris":{"android":"levelo://app?vid=e2be0aea-67dc-4dc6-b46f-e2412631f2dd","ios":"levelo://app?vid=e2be0aea-67dc-4dc6-b46f-e2412631f2dd"},"vehicle_type_id":"4","last_reported":1726240132,"current_range_meters":8000,"station_id":"ce4bhgp2rcd13ifvqfd0","pricing_plan_id":"cebpf4jnsgd1na2vs0mg"},{"bike_id":"f5340793-de44-4c67-ba5d-46a212b5dd06","system_id":"levelo_inurba_marseille","lat":43.28351,"lon":5.38098,"is_reserved":false,"is_disabled":false,"rental_uris":{"android":"levelo://app?vid=f5340793-de44-4c67-ba5d-46a212b5dd06","ios":"levelo://app?vid=f5340793-de44-4c67-ba5d-46a212b5dd06"},"vehicle_type_id":"4","last_reported":1726240132,"current_range_meters":29600,"station_id":"ce4bh412rcd13ifvqdr0","pricing_plan_id":"cebpf4jnsgd1na2vs0mg"},{"bike_id":"becf01b7-79cb-4d83-b797-89f2c0f6135a","system_id":"levelo_inurba_marseille","lat":43.29623,"lon":5.37163,"is_reserved":false,"is_disabled":false,"rental_uris":{"android":"levelo://app?vid=becf01b7-79cb-4d83-b797-89f2c0f6135a","ios":"levelo://app?vid=becf01b7-79cb-4d83-b797-89f2c0f6135a"},"vehicle_type_id":"4","last_reported":1726240132,"current_range_meters":36800,"station_id":"ce4bgnh2rcd13ifvqc0g","pricing_plan_id":"cebpf4jnsgd1na2vs0mg"},{"bike_id":"d7a61d63-6def-4481-bd23-e09be41f8eb5","system_id":"levelo_inurba_marseille","lat":43.24193,"lon":5.39717,"is_reserved":false,"is_disabled":false,"rental_uris":{"android":"levelo://app?vid=d7a61d63-6def-4481-bd23-e09be41f8eb5","ios":"levelo://app?vid=d7a61d63-6def-4481-bd23-e09be41f8eb5"},"vehicle_type_id":"4","last_reported":1726240132,"current_range_meters":8000,"station_id":"ce4bhn12rcd13ifvqgpg","pricing_plan_id":"cebpf4jnsgd1na2vs0mg"},{"bike_id":"dee60dfc-52c4-4455-8262-0c309cafd341","system_id":"levelo_inurba_marseille","lat":43.3014,"lon":5.38776,"is_reserved":false,"is_disabled":false,"rental_uris":{"android":"levelo://app?vid=dee60dfc-52c4-4455-8262-0c309cafd341","ios":"levelo://app?vid=dee60dfc-52c4-4455-8262-0c309cafd341"},"vehicle_type_id":"4","last_reported":1726240132,"current_range_meters":11200,"station_id":"ce4bghh2rcd13ifvqb60","pricing_plan_id":"cebpf4jnsgd1na2vs0mg"},{"bike_id":"6267baa5-f35c-4311-91c4-71f926f47f2c","system_id":"levelo_inurba_marseille","lat":43.29644,"lon":5.38075,"is_reserved":false,"is_disabled":false,"rental_uris":{"android":"levelo://app?vid=6267baa5-f35c-4311-91c4-71f926f47f2c","ios":"levelo://app?vid=6267baa5-f35c-4311-91c4-71f926f47f2c"},"vehicle_type_id":"4","last_reported":1726240132,"current_range_meters":8400,"station_id":"","pricing_plan_id":"cebpf4jnsgd1na2vs0mg"},{"bike_id":"6f5e4e2a-7d3a-4470-88d8-f1770984d04a","system_id":"levelo_inurba_marseille","lat":43.31995,"lon":5.38155,"is_reserved":false,"is_disabled":false,"rental_uris":{"android":"levelo://app?vid=6f5e4e2a-7d3a-4470-88d8-f1770984d04a","ios":"levelo://app?vid=6f5e4e2a-7d3a-4470-88d8-f1770984d04a"},"vehicle_type_id":"4","last_reported":1726240132,"current_range_meters":23200,"station_id":"ce4bhr12rcd13ifvqhpg","pricing_plan_id":"cebpf4jnsgd1na2vs0mg"},{"bike_id":"6d276034-1f3f-472e-add4-1f566be84615","system_id":"levelo_inurba_marseille","lat":43.3055,"lon":5.36525,"is_reserved":false,"is_disabled":false,"rental_uris":{"android":"levelo://app?vid=6d276034-1f3f-472e-add4-1f566be84615","ios":"levelo://app?vid=6d276034-1f3f-472e-add4-1f566be84615"},"vehicle_type_id":"4","last_reported":1726240132,"current_range_meters":29600,"station_id":"ce4bgs12rcd13ifvqcag","pricing_plan_id":"cebpf4jnsgd1na2vs0mg"},{"bike_id":"149263a6-eb65-4e3f-9292-ce4a8a4a3761","system_id":"levelo_inurba_marseille","lat":43.29539,"lon":5.37505,"is_reserved":false,"is_disabled":false,"rental_uris":{"android":"levelo://app?vid=149263a6-eb65-4e3f-9292-ce4a8a4a3761","ios":"levelo://app?vid=149263a6-eb65-4e3f-9292-ce4a8a4a3761"},"vehicle_type_id":"4","last_reported":1726240132,"current_range_meters":17200,"station_id":"ce4bgkp2rcd13ifvqbmg","pricing_plan_id":"cebpf4jnsgd1na2vs0mg"},{"bike_id":"d84214b9-11c2-4a5e-8f9e-9bd274cfac2e","system_id":"levelo_inurba_marseille","lat":43.2668,"lon":5.38266,"is_reserved":false,"is_disabled":false,"rental_uris":{"android":"levelo://app?vid=d84214b9-11c2-4a5e-8f9e-9bd274cfac2e","ios":"levelo://app?vid=d84214b9-11c2-4a5e-8f9e-9bd274cfac2e"},"vehicle_type_id":"4","last_reported":1726240132,"current_range_meters":38800,"station_id":"ce4bhg92rcd13ifvqf90","pricing_plan_id":"cebpf4jnsgd1na2vs0mg"},{"bike_id":"445c1462-9e37-40c2-92bd-b577e6c50a54","system_id":"levelo_inurba_marseille","lat":43.26953,"lon":5.38628,"is_reserved":false,"is_disabled":false,"rental_uris":{"android":"levelo://app?vid=445c1462-9e37-40c2-92bd-b577e6c50a54","ios":"levelo://app?vid=445c1462-9e37-40c2-92bd-b577e6c50a54"},"vehicle_type_id":"4","last_reported":1726240132,"current_range_meters":37600,"station_id":"ce4bhh92rcd13ifvqfh0","pricing_plan_id":"cebpf4jnsgd1na2vs0mg"},{"bike_id":"b2e0d592-caa5-4ad6-bad1-9d9a6d823e4c","system_id":"levelo_inurba_marseille","lat":43.325378,"lon":5.41434,"is_reserved":false,"is_disabled":false,"rental_uris":{"android":"levelo://app?vid=b2e0d592-caa5-4ad6-bad1-9d9a6d823e4c","ios":"levelo://app?vid=b2e0d592-caa5-4ad6-bad1-9d9a6d823e4c"},"vehicle_type_id":"4","last_reported":1726240132,"current_range_meters":38400,"station_id":"ce4bhq12rcd13ifvqhhg","pricing_plan_id":"cebpf4jnsgd1na2vs0mg"},{"bike_id":"2a089944-b1a6-45af-99d1-9b70add064d3","system_id":"levelo_inurba_marseille","lat":43.24808,"lon":5.37464,"is_reserved":false,"is_disabled":false,"rental_uris":{"android":"levelo://app?vid=2a089944-b1a6-45af-99d1-9b70add064d3","ios":"levelo://app?vid=2a089944-b1a6-45af-99d1-9b70add064d3"},"vehicle_type_id":"4","last_reported":1726240132,"current_range_meters":16400,"station_id":"ce4bhgh2rcd13ifvqfb0","pricing_plan_id":"cebpf4jnsgd1na2vs0mg"},{"bike_id":"34721204-9cc8-4128-8304-5b698c26b1e6","system_id":"levelo_inurba_marseille","lat":43.23185,"lon":5.39977,"is_reserved":false,"is_disabled":false,"rental_uris":{"android":"levelo://app?vid=34721204-9cc8-4128-8304-5b698c26b1e6","ios":"levelo://app?vid=34721204-9cc8-4128-8304-5b698c26b1e6"},"vehicle_type_id":"4","last_reported":1726240132,"current_range_meters":2800,"station_id":"ce4bhn12rcd13ifvqgqg","pricing_plan_id":"cebpf4jnsgd1na2vs0mg"},{"bike_id":"2f902b23-f99f-409f-8e72-f44c942508a2","system_id":"levelo_inurba_marseille","lat":43.30325,"lon":5.404416,"is_reserved":false,"is_disabled":false,"rental_uris":{"android":"levelo://app?vid=2f902b23-f99f-409f-8e72-f44c942508a2","ios":"levelo://app?vid=2f902b23-f99f-409f-8e72-f44c942508a2"},"vehicle_type_id":"4","last_reported":1726240132,"current_range_meters":11200,"station_id":"ce4bh012rcd13ifvqd10","pricing_plan_id":"cebpf4jnsgd1na2vs0mg"},{"bike_id":"39b86749-80ef-4310-953b-c60370086942","system_id":"levelo_inurba_marseille","lat":43.24545,"lon":5.39525,"is_reserved":false,"is_disabled":false,"rental_uris":{"android":"levelo://app?vid=39b86749-80ef-4310-953b-c60370086942","ios":"levelo://app?vid=39b86749-80ef-4310-953b-c60370086942"},"vehicle_type_id":"4","last_reported":1726240132,"current_range_meters":30000,"station_id":"ce4bhlp2rcd13ifvqgjg","pricing_plan_id":"cebpf4jnsgd1na2vs0mg"},{"bike_id":"6a8f2f10-9a94-4930-acf4-9d3abaa17531","system_id":"levelo_inurba_marseille","lat":43.25493,"lon":5.3765,"is_reserved":false,"is_disabled":false,"rental_uris":{"android":"levelo://app?vid=6a8f2f10-9a94-4930-acf4-9d3abaa17531","ios":"levelo://app?vid=6a8f2f10-9a94-4930-acf4-9d3abaa17531"},"vehicle_type_id":"4","last_reported":1726240132,"current_range_meters":36400,"station_id":"ce4bhh12rcd13ifvqff0","pricing_plan_id":"cebpf4jnsgd1na2vs0mg"},{"bike_id":"4cad2379-f22f-4bf0-a45e-a36b3b61dd30","system_id":"levelo_inurba_marseille","lat":43.25582,"lon":5.3823,"is_reserved":false,"is_disabled":false,"rental_uris":{"android":"levelo://app?vid=4cad2379-f22f-4bf0-a45e-a36b3b61dd30","ios":"levelo://app?vid=4cad2379-f22f-4bf0-a45e-a36b3b61dd30"},"vehicle_type_id":"4","last_reported":1726240132,"current_range_meters":38800,"station_id":"ce4bhih2rcd13ifvqfs0","pricing_plan_id":"cebpf4jnsgd1na2vs0mg"},{"bike_id":"463a29c6-de5f-452d-8ad2-3526bf777173","system_id":"levelo_inurba_marseille","lat":43.30522,"lon":5.36537,"is_reserved":false,"is_disabled":false,"rental_uris":{"android":"levelo://app?vid=463a29c6-de5f-452d-8ad2-3526bf777173","ios":"levelo://app?vid=463a29c6-de5f-452d-8ad2-3526bf777173"},"vehicle_type_id":"4","last_reported":1726240132,"current_range_meters":40000,"station_id":"ce4bgs12rcd13ifvqcag","pricing_plan_id":"cebpf4jnsgd1na2vs0mg"},{"bike_id":"acb4473c-f793-440a-9c76-0eca7b03c7c3","system_id":"levelo_inurba_marseille","lat":43.2766,"lon":5.38132,"is_reserved":false,"is_disabled":false,"rental_uris":{"android":"levelo://app?vid=acb4473c-f793-440a-9c76-0eca7b03c7c3","ios":"levelo://app?vid=acb4473c-f793-440a-9c76-0eca7b03c7c3"},"vehicle_type_id":"4","last_reported":1726240132,"current_range_meters":6800,"station_id":"","pricing_plan_id":"cebpf4jnsgd1na2vs0mg"},{"bike_id":"175df47a-0610-4741-8b2d-5c7b4d985ef7","system_id":"levelo_inurba_marseille","lat":43.29705,"lon":5.37705,"is_reserved":false,"is_disabled":false,"rental_uris":{"android":"levelo://app?vid=175df47a-0610-4741-8b2d-5c7b4d985ef7","ios":"levelo://app?vid=175df47a-0610-4741-8b2d-5c7b4d985ef7"},"vehicle_type_id":"4","last_reported":1726240132,"current_range_meters":30800,"station_id":"ce4bgkh2rcd13ifvqbl0","pricing_plan_id":"cebpf4jnsgd1na2vs0mg"},{"bike_id":"e6c6755e-220e-47b9-b066-516fea4e81af","system_id":"levelo_inurba_marseille","lat":43.29438,"lon":5.39759,"is_reserved":false,"is_disabled":false,"rental_uris":{"android":"levelo://app?vid=e6c6755e-220e-47b9-b066-516fea4e81af","ios":"levelo://app?vid=e6c6755e-220e-47b9-b066-516fea4e81af"},"vehicle_type_id":"4","last_reported":1726240132,"current_range_meters":20000,"station_id":"ce4bh3h2rcd13ifvqdo0","pricing_plan_id":"cebpf4jnsgd1na2vs0mg"},{"bike_id":"de0c03fd-df53-4c90-bdc6-56641ff0a144","system_id":"levelo_inurba_marseille","lat":43.28412,"lon":5.34976,"is_reserved":false,"is_disabled":false,"rental_uris":{"android":"levelo://app?vid=de0c03fd-df53-4c90-bdc6-56641ff0a144","ios":"levelo://app?vid=de0c03fd-df53-4c90-bdc6-56641ff0a144"},"vehicle_type_id":"4","last_reported":1726240132,"current_range_meters":15200,"station_id":"ce4bhbh2rcd13ifvqepg","pricing_plan_id":"cebpf4jnsgd1na2vs0mg"},{"bike_id":"eaf3218e-3b2a-4dde-9c15-99a6c4254e56","system_id":"levelo_inurba_marseille","lat":43.299,"lon":5.43657,"is_reserved":false,"is_disabled":false,"rental_uris":{"android":"levelo://app?vid=eaf3218e-3b2a-4dde-9c15-99a6c4254e56","ios":"levelo://app?vid=eaf3218e-3b2a-4dde-9c15-99a6c4254e56"},"vehicle_type_id":"4","last_reported":1726240132,"current_range_meters":39200,"station_id":"ce4bhpp2rcd13ifvqhfg","pricing_plan_id":"cebpf4jnsgd1na2vs0mg"},{"bike_id":"578fe535-1ca5-46e4-9e6c-f0e8aa8560bc","system_id":"levelo_inurba_marseille","lat":43.32368,"lon":5.38884,"is_reserved":false,"is_disabled":false,"rental_uris":{"android":"levelo://app?vid=578fe535-1ca5-46e4-9e6c-f0e8aa8560bc","ios":"levelo://app?vid=578fe535-1ca5-46e4-9e6c-f0e8aa8560bc"},"vehicle_type_id":"4","last_reported":1726240132,"current_range_meters":18000,"station_id":"ce4bhqp2rcd13ifvqhog","pricing_plan_id":"cebpf4jnsgd1na2vs0mg"},{"bike_id":"6dfe49f4-83e2-40d0-8865-0920a4415a17","system_id":"levelo_inurba_marseille","lat":43.29686,"lon":5.37698,"is_reserved":false,"is_disabled":false,"rental_uris":{"android":"levelo://app?vid=6dfe49f4-83e2-40d0-8865-0920a4415a17","ios":"levelo://app?vid=6dfe49f4-83e2-40d0-8865-0920a4415a17"},"vehicle_type_id":"4","last_reported":1726240132,"current_range_meters":38800,"station_id":"ce4bgkh2rcd13ifvqbl0","pricing_plan_id":"cebpf4jnsgd1na2vs0mg"},{"bike_id":"0ea99d89-f29c-4e54-9766-bdcd2d65271c","system_id":"levelo_inurba_marseille","lat":43.22936,"lon":5.35375,"is_reserved":false,"is_disabled":false,"rental_uris":{"android":"levelo://app?vid=0ea99d89-f29c-4e54-9766-bdcd2d65271c","ios":"levelo://app?vid=0ea99d89-f29c-4e54-9766-bdcd2d65271c"},"vehicle_type_id":"4","last_reported":1726240132,"current_range_meters":26800,"station_id":"cpo3532slgdg3j2ikp40","pricing_plan_id":"cebpf4jnsgd1na2vs0mg"},{"bike_id":"ba81e19a-02db-4df6-ba4c-045bfb8f6f7d","system_id":"levelo_inurba_marseille","lat":43.3052,"lon":5.36537,"is_reserved":false,"is_disabled":false,"rental_uris":{"android":"levelo://app?vid=ba81e19a-02db-4df6-ba4c-045bfb8f6f7d","ios":"levelo://app?vid=ba81e19a-02db-4df6-ba4c-045bfb8f6f7d"},"vehicle_type_id":"4","last_reported":1726240132,"current_range_meters":40000,"station_id":"ce4bgs12rcd13ifvqcag","pricing_plan_id":"cebpf4jnsgd1na2vs0mg"},{"bike_id":"4aae81ac-96d4-4e62-af97-4eeda1dbbc3b","system_id":"levelo_inurba_marseille","lat":43.30438,"lon":5.38881,"is_reserved":false,"is_disabled":false,"rental_uris":{"android":"levelo://app?vid=4aae81ac-96d4-4e62-af97-4eeda1dbbc3b","ios":"levelo://app?vid=4aae81ac-96d4-4e62-af97-4eeda1dbbc3b"},"vehicle_type_id":"4","last_reported":1726240132,"current_range_meters":39200,"station_id":"ce4bgk12rcd13ifvqbi0","pricing_plan_id":"cebpf4jnsgd1na2vs0mg"},{"bike_id":"da752d37-08d6-4594-a91f-f2daa05620f5","system_id":"levelo_inurba_marseille","lat":43.24648,"lon":5.38903,"is_reserved":false,"is_disabled":false,"rental_uris":{"android":"levelo://app?vid=da752d37-08d6-4594-a91f-f2daa05620f5","ios":"levelo://app?vid=da752d37-08d6-4594-a91f-f2daa05620f5"},"vehicle_type_id":"4","last_reported":1726240132,"current_range_meters":38400,"station_id":"ce4bhg12rcd13ifvqf60","pricing_plan_id":"cebpf4jnsgd1na2vs0mg"},{"bike_id":"7aac5c76-0b93-49e7-b0ee-5df0d1c5cd30","system_id":"levelo_inurba_marseille","lat":43.24667,"lon":5.38168,"is_reserved":false,"is_disabled":false,"rental_uris":{"android":"levelo://app?vid=7aac5c76-0b93-49e7-b0ee-5df0d1c5cd30","ios":"levelo://app?vid=7aac5c76-0b93-49e7-b0ee-5df0d1c5cd30"},"vehicle_type_id":"4","last_reported":1726240132,"current_range_meters":7200,"station_id":"ce4bhih2rcd13ifvqfr0","pricing_plan_id":"cebpf4jnsgd1na2vs0mg"},{"bike_id":"e49093f7-6383-4e7f-9f16-cb91fa6cb74b","system_id":"levelo_inurba_marseille","lat":43.25011,"lon":5.38926,"is_reserved":false,"is_disabled":false,"rental_uris":{"android":"levelo://app?vid=e49093f7-6383-4e7f-9f16-cb91fa6cb74b","ios":"levelo://app?vid=e49093f7-6383-4e7f-9f16-cb91fa6cb74b"},"vehicle_type_id":"4","last_reported":1726240132,"current_range_meters":28400,"station_id":"ce4bhgp2rcd13ifvqfd0","pricing_plan_id":"cebpf4jnsgd1na2vs0mg"},{"bike_id":"f5d80230-6671-4c19-998a-9bc8d3d47824","system_id":"levelo_inurba_marseille","lat":43.29004,"lon":5.35607,"is_reserved":false,"is_disabled":false,"rental_uris":{"android":"levelo://app?vid=f5d80230-6671-4c19-998a-9bc8d3d47824","ios":"levelo://app?vid=f5d80230-6671-4c19-998a-9bc8d3d47824"},"vehicle_type_id":"4","last_reported":1726240132,"current_range_meters":39200,"station_id":"ce4bhb92rcd13ifvqen0","pricing_plan_id":"cebpf4jnsgd1na2vs0mg"},{"bike_id":"bb3fc49a-00c4-4658-9665-8911d3b728a9","system_id":"levelo_inurba_marseille","lat":43.29626,"lon":5.406,"is_reserved":false,"is_disabled":false,"rental_uris":{"android":"levelo://app?vid=bb3fc49a-00c4-4658-9665-8911d3b728a9","ios":"levelo://app?vid=bb3fc49a-00c4-4658-9665-8911d3b728a9"},"vehicle_type_id":"4","last_reported":1726240132,"current_range_meters":25600,"station_id":"ce4bh0h2rcd13ifvqd60","pricing_plan_id":"cebpf4jnsgd1na2vs0mg"},{"bike_id":"e09e3f76-06e6-4eb1-9bba-f08aa4e37fea","system_id":"levelo_inurba_marseille","lat":43.31364,"lon":5.38498,"is_reserved":false,"is_disabled":false,"rental_uris":{"android":"levelo://app?vid=e09e3f76-06e6-4eb1-9bba-f08aa4e37fea","ios":"levelo://app?vid=e09e3f76-06e6-4eb1-9bba-f08aa4e37fea"},"vehicle_type_id":"4","last_reported":1726240132,"current_range_meters":38800,"station_id":"ce4bgt92rcd13ifvqcf0","pricing_plan_id":"cebpf4jnsgd1na2vs0mg"},{"bike_id":"96cb29cb-8da1-4dd6-bd35-ee190827a973","system_id":"levelo_inurba_marseille","lat":43.26556,"lon":5.37285,"is_reserved":false,"is_disabled":false,"rental_uris":{"android":"levelo://app?vid=96cb29cb-8da1-4dd6-bd35-ee190827a973","ios":"levelo://app?vid=96cb29cb-8da1-4dd6-bd35-ee190827a973"},"vehicle_type_id":"4","last_reported":1726240132,"current_range_meters":6000,"station_id":"ce4bhg12rcd13ifvqf70","pricing_plan_id":"cebpf4jnsgd1na2vs0mg"},{"bike_id":"89619ccd-a17c-4e00-9bd8-3eb58403999c","system_id":"levelo_inurba_marseille","lat":43.28703,"lon":5.37939,"is_reserved":false,"is_disabled":false,"rental_uris":{"android":"levelo://app?vid=89619ccd-a17c-4e00-9bd8-3eb58403999c","ios":"levelo://app?vid=89619ccd-a17c-4e00-9bd8-3eb58403999c"},"vehicle_type_id":"4","last_reported":1726240132,"current_range_meters":25600,"station_id":"ce4bh9p2rcd13ifvqec0","pricing_plan_id":"cebpf4jnsgd1na2vs0mg"},{"bike_id":"9b49fc06-69dc-4375-9bc8-2ab31283d424","system_id":"levelo_inurba_marseille","lat":43.29901,"lon":5.43657,"is_reserved":false,"is_disabled":false,"rental_uris":{"android":"levelo://app?vid=9b49fc06-69dc-4375-9bc8-2ab31283d424","ios":"levelo://app?vid=9b49fc06-69dc-4375-9bc8-2ab31283d424"},"vehicle_type_id":"4","last_reported":1726240132,"current_range_meters":36800,"station_id":"ce4bhpp2rcd13ifvqhfg","pricing_plan_id":"cebpf4jnsgd1na2vs0mg"},{"bike_id":"c6d56cc6-8f39-491f-9320-5e5bfa5fbbf4","system_id":"levelo_inurba_marseille","lat":43.2652,"lon":5.40897,"is_reserved":false,"is_disabled":false,"rental_uris":{"android":"levelo://app?vid=c6d56cc6-8f39-491f-9320-5e5bfa5fbbf4","ios":"levelo://app?vid=c6d56cc6-8f39-491f-9320-5e5bfa5fbbf4"},"vehicle_type_id":"4","last_reported":1726240132,"current_range_meters":3600,"station_id":"","pricing_plan_id":"cebpf4jnsgd1na2vs0mg"},{"bike_id":"a45c4f10-691d-49e6-9dba-0bef3b8ef5a9","system_id":"levelo_inurba_marseille","lat":43.25723,"lon":5.41113,"is_reserved":false,"is_disabled":false,"rental_uris":{"android":"levelo://app?vid=a45c4f10-691d-49e6-9dba-0bef3b8ef5a9","ios":"levelo://app?vid=a45c4f10-691d-49e6-9dba-0bef3b8ef5a9"},"vehicle_type_id":"4","last_reported":1726240132,"current_range_meters":19200,"station_id":"ce4bhkp2rcd13ifvqgd0","pricing_plan_id":"cebpf4jnsgd1na2vs0mg"},{"bike_id":"5935ef20-9cfb-41e2-963d-046642482b06","system_id":"levelo_inurba_marseille","lat":43.29006,"lon":5.35632,"is_reserved":false,"is_disabled":false,"rental_uris":{"android":"levelo://app?vid=5935ef20-9cfb-41e2-963d-046642482b06","ios":"levelo://app?vid=5935ef20-9cfb-41e2-963d-046642482b06"},"vehicle_type_id":"4","last_reported":1726240132,"current_range_meters":22800,"station_id":"ce4bhb92rcd13ifvqen0","pricing_plan_id":"cebpf4jnsgd1na2vs0mg"},{"bike_id":"1954aecd-f6fb-4399-81d9-a41598bec6eb","system_id":"levelo_inurba_marseille","lat":43.283631,"lon":5.380994,"is_reserved":false,"is_disabled":false,"rental_uris":{"android":"levelo://app?vid=1954aecd-f6fb-4399-81d9-a41598bec6eb","ios":"levelo://app?vid=1954aecd-f6fb-4399-81d9-a41598bec6eb"},"vehicle_type_id":"4","last_reported":1726240132,"current_range_meters":29600,"station_id":"ce4bh412rcd13ifvqdr0","pricing_plan_id":"cebpf4jnsgd1na2vs0mg"},{"bike_id":"64a2a00d-df0c-41dd-acd4-cf21aed5b412","system_id":"levelo_inurba_marseille","lat":43.28354,"lon":5.38629,"is_reserved":false,"is_disabled":false,"rental_uris":{"android":"levelo://app?vid=64a2a00d-df0c-41dd-acd4-cf21aed5b412","ios":"levelo://app?vid=64a2a00d-df0c-41dd-acd4-cf21aed5b412"},"vehicle_type_id":"4","last_reported":1726240132,"current_range_meters":24000,"station_id":"ce4bh492rcd13ifvqdvg","pricing_plan_id":"cebpf4jnsgd1na2vs0mg"},{"bike_id":"46d70e9c-49ee-440a-a92c-d8b60775e17c","system_id":"levelo_inurba_marseille","lat":43.27425,"lon":5.39418,"is_reserved":false,"is_disabled":false,"rental_uris":{"android":"levelo://app?vid=46d70e9c-49ee-440a-a92c-d8b60775e17c","ios":"levelo://app?vid=46d70e9c-49ee-440a-a92c-d8b60775e17c"},"vehicle_type_id":"4","last_reported":1726240132,"current_range_meters":8400,"station_id":"ce4bhdp2rcd13ifvqf20","pricing_plan_id":"cebpf4jnsgd1na2vs0mg"},{"bike_id":"0f3930fe-4435-487c-8044-8df1140be5ea","system_id":"levelo_inurba_marseille","lat":43.2902,"lon":5.39974,"is_reserved":false,"is_disabled":false,"rental_uris":{"android":"levelo://app?vid=0f3930fe-4435-487c-8044-8df1140be5ea","ios":"levelo://app?vid=0f3930fe-4435-487c-8044-8df1140be5ea"},"vehicle_type_id":"4","last_reported":1726240132,"current_range_meters":24400,"station_id":"ce4bh392rcd13ifvqdm0","pricing_plan_id":"cebpf4jnsgd1na2vs0mg"},{"bike_id":"8d756671-2650-4022-8405-0146abab11ae","system_id":"levelo_inurba_marseille","lat":43.294177,"lon":5.386177,"is_reserved":false,"is_disabled":false,"rental_uris":{"android":"levelo://app?vid=8d756671-2650-4022-8405-0146abab11ae","ios":"levelo://app?vid=8d756671-2650-4022-8405-0146abab11ae"},"vehicle_type_id":"4","last_reported":1726240132,"current_range_meters":8000,"station_id":"ce4bh2h2rcd13ifvqdh0","pricing_plan_id":"cebpf4jnsgd1na2vs0mg"},{"bike_id":"79b7950d-90c8-4e3c-a243-1a31b18cd68e","system_id":"levelo_inurba_marseille","lat":43.2397,"lon":5.36632,"is_reserved":false,"is_disabled":false,"rental_uris":{"android":"levelo://app?vid=79b7950d-90c8-4e3c-a243-1a31b18cd68e","ios":"levelo://app?vid=79b7950d-90c8-4e3c-a243-1a31b18cd68e"},"vehicle_type_id":"4","last_reported":1726240132,"current_range_meters":10800,"station_id":"ce4bhi12rcd13ifvqfp0","pricing_plan_id":"cebpf4jnsgd1na2vs0mg"},{"bike_id":"dd2da4a1-1e2d-4a91-8829-9d22598c1c22","system_id":"levelo_inurba_marseille","lat":43.30196,"lon":5.36616,"is_reserved":false,"is_disabled":false,"rental_uris":{"android":"levelo://app?vid=dd2da4a1-1e2d-4a91-8829-9d22598c1c22","ios":"levelo://app?vid=dd2da4a1-1e2d-4a91-8829-9d22598c1c22"},"vehicle_type_id":"4","last_reported":1726240132,"current_range_meters":27600,"station_id":"ce4bgrh2rcd13ifvqc8g","pricing_plan_id":"cebpf4jnsgd1na2vs0mg"},{"bike_id":"2c4577b3-3689-495e-a3c3-a78eafd4dc43","system_id":"levelo_inurba_marseille","lat":43.26561,"lon":5.37291,"is_reserved":false,"is_disabled":false,"rental_uris":{"android":"levelo://app?vid=2c4577b3-3689-495e-a3c3-a78eafd4dc43","ios":"levelo://app?vid=2c4577b3-3689-495e-a3c3-a78eafd4dc43"},"vehicle_type_id":"4","last_reported":1726240132,"current_range_meters":27200,"station_id":"ce4bhg12rcd13ifvqf70","pricing_plan_id":"cebpf4jnsgd1na2vs0mg"},{"bike_id":"5808faf6-9bd9-4730-8859-0718e969bfc3","system_id":"levelo_inurba_marseille","lat":43.30554,"lon":5.3654,"is_reserved":false,"is_disabled":false,"rental_uris":{"android":"levelo://app?vid=5808faf6-9bd9-4730-8859-0718e969bfc3","ios":"levelo://app?vid=5808faf6-9bd9-4730-8859-0718e969bfc3"},"vehicle_type_id":"4","last_reported":1726240132,"current_range_meters":38800,"station_id":"ce4bgs12rcd13ifvqcag","pricing_plan_id":"cebpf4jnsgd1na2vs0mg"},{"bike_id":"d1ab1d9d-91f9-4a28-96fe-3929e87ef965","system_id":"levelo_inurba_marseille","lat":43.30795,"lon":5.37639,"is_reserved":false,"is_disabled":false,"rental_uris":{"android":"levelo://app?vid=d1ab1d9d-91f9-4a28-96fe-3929e87ef965","ios":"levelo://app?vid=d1ab1d9d-91f9-4a28-96fe-3929e87ef965"},"vehicle_type_id":"4","last_reported":1726240132,"current_range_meters":37600,"station_id":"ce4bgv92rcd13ifvqcq0","pricing_plan_id":"cebpf4jnsgd1na2vs0mg"},{"bike_id":"131d5fa5-c1d9-42f5-aee0-b67b8af4e503","system_id":"levelo_inurba_marseille","lat":43.30187,"lon":5.36612,"is_reserved":false,"is_disabled":false,"rental_uris":{"android":"levelo://app?vid=131d5fa5-c1d9-42f5-aee0-b67b8af4e503","ios":"levelo://app?vid=131d5fa5-c1d9-42f5-aee0-b67b8af4e503"},"vehicle_type_id":"4","last_reported":1726240132,"current_range_meters":36400,"station_id":"ce4bgrh2rcd13ifvqc8g","pricing_plan_id":"cebpf4jnsgd1na2vs0mg"},{"bike_id":"60d5bda9-f640-405a-935d-62d1314e50fa","system_id":"levelo_inurba_marseille","lat":43.23968,"lon":5.36637,"is_reserved":false,"is_disabled":false,"rental_uris":{"android":"levelo://app?vid=60d5bda9-f640-405a-935d-62d1314e50fa","ios":"levelo://app?vid=60d5bda9-f640-405a-935d-62d1314e50fa"},"vehicle_type_id":"4","last_reported":1726240132,"current_range_meters":27200,"station_id":"ce4bhi12rcd13ifvqfp0","pricing_plan_id":"cebpf4jnsgd1na2vs0mg"},{"bike_id":"0ac58e9a-a095-41b7-922d-ac8fe1420a78","system_id":"levelo_inurba_marseille","lat":43.25124,"lon":5.40315,"is_reserved":false,"is_disabled":false,"rental_uris":{"android":"levelo://app?vid=0ac58e9a-a095-41b7-922d-ac8fe1420a78","ios":"levelo://app?vid=0ac58e9a-a095-41b7-922d-ac8fe1420a78"},"vehicle_type_id":"4","last_reported":1726240132,"current_range_meters":8000,"station_id":"ce4bhlh2rcd13ifvqgig","pricing_plan_id":"cebpf4jnsgd1na2vs0mg"},{"bike_id":"4212a3ec-27aa-42f2-aa10-ad366b875183","system_id":"levelo_inurba_marseille","lat":43.32368,"lon":5.38878,"is_reserved":false,"is_disabled":false,"rental_uris":{"android":"levelo://app?vid=4212a3ec-27aa-42f2-aa10-ad366b875183","ios":"levelo://app?vid=4212a3ec-27aa-42f2-aa10-ad366b875183"},"vehicle_type_id":"4","last_reported":1726240132,"current_range_meters":6800,"station_id":"ce4bhqp2rcd13ifvqhog","pricing_plan_id":"cebpf4jnsgd1na2vs0mg"},{"bike_id":"705da35e-0630-4cf5-a4fd-28c54e186977","system_id":"levelo_inurba_marseille","lat":43.26491,"lon":5.39536,"is_reserved":false,"is_disabled":false,"rental_uris":{"android":"levelo://app?vid=705da35e-0630-4cf5-a4fd-28c54e186977","ios":"levelo://app?vid=705da35e-0630-4cf5-a4fd-28c54e186977"},"vehicle_type_id":"4","last_reported":1726240132,"current_range_meters":6800,"station_id":"ce4bhi12rcd13ifvqfq0","pricing_plan_id":"cebpf4jnsgd1na2vs0mg"},{"bike_id":"4f0ea37a-15ba-4240-b0fa-68e3874bc062","system_id":"levelo_inurba_marseille","lat":43.25004,"lon":5.38937,"is_reserved":false,"is_disabled":false,"rental_uris":{"android":"levelo://app?vid=4f0ea37a-15ba-4240-b0fa-68e3874bc062","ios":"levelo://app?vid=4f0ea37a-15ba-4240-b0fa-68e3874bc062"},"vehicle_type_id":"4","last_reported":1726240132,"current_range_meters":6000,"station_id":"ce4bhgp2rcd13ifvqfd0","pricing_plan_id":"cebpf4jnsgd1na2vs0mg"},{"bike_id":"af3bb50c-b2bc-4829-b52f-372167d0673e","system_id":"levelo_inurba_marseille","lat":43.31173,"lon":5.38716,"is_reserved":false,"is_disabled":false,"rental_uris":{"android":"levelo://app?vid=af3bb50c-b2bc-4829-b52f-372167d0673e","ios":"levelo://app?vid=af3bb50c-b2bc-4829-b52f-372167d0673e"},"vehicle_type_id":"4","last_reported":1726240132,"current_range_meters":33200,"station_id":"ce4bgv12rcd13ifvqcp0","pricing_plan_id":"cebpf4jnsgd1na2vs0mg"},{"bike_id":"335f52d9-c48f-4e44-902b-058c9e2b9cf4","system_id":"levelo_inurba_marseille","lat":43.284851,"lon":5.385674,"is_reserved":false,"is_disabled":false,"rental_uris":{"android":"levelo://app?vid=335f52d9-c48f-4e44-902b-058c9e2b9cf4","ios":"levelo://app?vid=335f52d9-c48f-4e44-902b-058c9e2b9cf4"},"vehicle_type_id":"4","last_reported":1726240132,"current_range_meters":21600,"station_id":"ce4bh8p2rcd13ifvqeb0","pricing_plan_id":"cebpf4jnsgd1na2vs0mg"},{"bike_id":"f274e360-d478-492f-895c-6f267d318609","system_id":"levelo_inurba_marseille","lat":43.2587,"lon":5.399,"is_reserved":false,"is_disabled":false,"rental_uris":{"android":"levelo://app?vid=f274e360-d478-492f-895c-6f267d318609","ios":"levelo://app?vid=f274e360-d478-492f-895c-6f267d318609"},"vehicle_type_id":"4","last_reported":1726240132,"current_range_meters":7200,"station_id":"ce4bhl92rcd13ifvqghg","pricing_plan_id":"cebpf4jnsgd1na2vs0mg"},{"bike_id":"01397819-866a-466e-b7a8-fb1eaee03617","system_id":"levelo_inurba_marseille","lat":43.26946,"lon":5.40252,"is_reserved":false,"is_disabled":false,"rental_uris":{"android":"levelo://app?vid=01397819-866a-466e-b7a8-fb1eaee03617","ios":"levelo://app?vid=01397819-866a-466e-b7a8-fb1eaee03617"},"vehicle_type_id":"4","last_reported":1726240132,"current_range_meters":38000,"station_id":"cjm6bp8fraef2m0cb0m0","pricing_plan_id":"cebpf4jnsgd1na2vs0mg"},{"bike_id":"9e78c4bd-3c37-4468-8f62-302d540d889c","system_id":"levelo_inurba_marseille","lat":43.24189,"lon":5.3972,"is_reserved":false,"is_disabled":false,"rental_uris":{"android":"levelo://app?vid=9e78c4bd-3c37-4468-8f62-302d540d889c","ios":"levelo://app?vid=9e78c4bd-3c37-4468-8f62-302d540d889c"},"vehicle_type_id":"4","last_reported":1726240132,"current_range_meters":36000,"station_id":"ce4bhn12rcd13ifvqgpg","pricing_plan_id":"cebpf4jnsgd1na2vs0mg"},{"bike_id":"b09c33f1-211c-4401-9c5f-be63fa7524f7","system_id":"levelo_inurba_marseille","lat":43.23152,"lon":5.43704,"is_reserved":false,"is_disabled":false,"rental_uris":{"android":"levelo://app?vid=b09c33f1-211c-4401-9c5f-be63fa7524f7","ios":"levelo://app?vid=b09c33f1-211c-4401-9c5f-be63fa7524f7"},"vehicle_type_id":"4","last_reported":1726240132,"current_range_meters":10800,"station_id":"ce4bhmp2rcd13ifvqgog","pricing_plan_id":"cebpf4jnsgd1na2vs0mg"},{"bike_id":"02ad2c3d-0087-4851-8ace-c9437b1855db","system_id":"levelo_inurba_marseille","lat":43.29883,"lon":5.38914,"is_reserved":false,"is_disabled":false,"rental_uris":{"android":"levelo://app?vid=02ad2c3d-0087-4851-8ace-c9437b1855db","ios":"levelo://app?vid=02ad2c3d-0087-4851-8ace-c9437b1855db"},"vehicle_type_id":"4","last_reported":1726240132,"current_range_meters":20000,"station_id":"ce4bh392rcd13ifvqdl0","pricing_plan_id":"cebpf4jnsgd1na2vs0mg"},{"bike_id":"2d9f6a36-1e8d-46ce-8819-b2bb04006d43","system_id":"levelo_inurba_marseille","lat":43.25586,"lon":5.38223,"is_reserved":false,"is_disabled":false,"rental_uris":{"android":"levelo://app?vid=2d9f6a36-1e8d-46ce-8819-b2bb04006d43","ios":"levelo://app?vid=2d9f6a36-1e8d-46ce-8819-b2bb04006d43"},"vehicle_type_id":"4","last_reported":1726240132,"current_range_meters":29600,"station_id":"ce4bhih2rcd13ifvqfs0","pricing_plan_id":"cebpf4jnsgd1na2vs0mg"},{"bike_id":"75c35499-0de6-41a0-acf5-7c9b58381038","system_id":"levelo_inurba_marseille","lat":43.23182,"lon":5.39988,"is_reserved":false,"is_disabled":false,"rental_uris":{"android":"levelo://app?vid=75c35499-0de6-41a0-acf5-7c9b58381038","ios":"levelo://app?vid=75c35499-0de6-41a0-acf5-7c9b58381038"},"vehicle_type_id":"4","last_reported":1726240132,"current_range_meters":18000,"station_id":"ce4bhn12rcd13ifvqgqg","pricing_plan_id":"cebpf4jnsgd1na2vs0mg"},{"bike_id":"e62c8c71-b14f-4c94-8aa4-e0afcaaf93b6","system_id":"levelo_inurba_marseille","lat":43.24816,"lon":5.37461,"is_reserved":false,"is_disabled":false,"rental_uris":{"android":"levelo://app?vid=e62c8c71-b14f-4c94-8aa4-e0afcaaf93b6","ios":"levelo://app?vid=e62c8c71-b14f-4c94-8aa4-e0afcaaf93b6"},"vehicle_type_id":"4","last_reported":1726240132,"current_range_meters":31200,"station_id":"ce4bhgh2rcd13ifvqfb0","pricing_plan_id":"cebpf4jnsgd1na2vs0mg"},{"bike_id":"ebbf86bf-3562-439e-b4b5-008467a81e93","system_id":"levelo_inurba_marseille","lat":43.289562,"lon":5.36641,"is_reserved":false,"is_disabled":false,"rental_uris":{"android":"levelo://app?vid=ebbf86bf-3562-439e-b4b5-008467a81e93","ios":"levelo://app?vid=ebbf86bf-3562-439e-b4b5-008467a81e93"},"vehicle_type_id":"4","last_reported":1726240132,"current_range_meters":36000,"station_id":"ce4bhap2rcd13ifvqek0","pricing_plan_id":"cebpf4jnsgd1na2vs0mg"},{"bike_id":"61c8bf53-5b5a-41b5-922c-c6aae210cb23","system_id":"levelo_inurba_marseille","lat":43.284838,"lon":5.391707,"is_reserved":false,"is_disabled":false,"rental_uris":{"android":"levelo://app?vid=61c8bf53-5b5a-41b5-922c-c6aae210cb23","ios":"levelo://app?vid=61c8bf53-5b5a-41b5-922c-c6aae210cb23"},"vehicle_type_id":"4","last_reported":1726240132,"current_range_meters":32000,"station_id":"ce4bhoh2rcd13ifvqh5g","pricing_plan_id":"cebpf4jnsgd1na2vs0mg"},{"bike_id":"69b26a0b-db83-4395-8ee1-1e784091ffad","system_id":"levelo_inurba_marseille","lat":43.23152,"lon":5.43707,"is_reserved":false,"is_disabled":false,"rental_uris":{"android":"levelo://app?vid=69b26a0b-db83-4395-8ee1-1e784091ffad","ios":"levelo://app?vid=69b26a0b-db83-4395-8ee1-1e784091ffad"},"vehicle_type_id":"4","last_reported":1726240132,"current_range_meters":38800,"station_id":"ce4bhmp2rcd13ifvqgog","pricing_plan_id":"cebpf4jnsgd1na2vs0mg"},{"bike_id":"b506159f-a775-4733-b310-23093ca74a69","system_id":"levelo_inurba_marseille","lat":43.33028,"lon":5.39041,"is_reserved":false,"is_disabled":false,"rental_uris":{"android":"levelo://app?vid=b506159f-a775-4733-b310-23093ca74a69","ios":"levelo://app?vid=b506159f-a775-4733-b310-23093ca74a69"},"vehicle_type_id":"4","last_reported":1726240132,"current_range_meters":18000,"station_id":"ce4bhr92rcd13ifvqhrg","pricing_plan_id":"cebpf4jnsgd1na2vs0mg"},{"bike_id":"46200ef7-b583-42fc-bcdd-0523647cdf6d","system_id":"levelo_inurba_marseille","lat":43.317719,"lon":5.411546,"is_reserved":false,"is_disabled":false,"rental_uris":{"android":"levelo://app?vid=46200ef7-b583-42fc-bcdd-0523647cdf6d","ios":"levelo://app?vid=46200ef7-b583-42fc-bcdd-0523647cdf6d"},"vehicle_type_id":"4","last_reported":1726240132,"current_range_meters":22400,"station_id":"ce4bhpp2rcd13ifvqhgg","pricing_plan_id":"cebpf4jnsgd1na2vs0mg"},{"bike_id":"91d155a1-0e95-42f4-9cf2-24e586735a13","system_id":"levelo_inurba_marseille","lat":43.3291,"lon":5.38797,"is_reserved":false,"is_disabled":false,"rental_uris":{"android":"levelo://app?vid=91d155a1-0e95-42f4-9cf2-24e586735a13","ios":"levelo://app?vid=91d155a1-0e95-42f4-9cf2-24e586735a13"},"vehicle_type_id":"4","last_reported":1726240132,"current_range_meters":27200,"station_id":"ce4bhr92rcd13ifvqhsg","pricing_plan_id":"cebpf4jnsgd1na2vs0mg"},{"bike_id":"44397c47-0c00-40cf-8968-d9ce51ba563d","system_id":"levelo_inurba_marseille","lat":43.29982,"lon":5.3717,"is_reserved":false,"is_disabled":false,"rental_uris":{"android":"levelo://app?vid=44397c47-0c00-40cf-8968-d9ce51ba563d","ios":"levelo://app?vid=44397c47-0c00-40cf-8968-d9ce51ba563d"},"vehicle_type_id":"4","last_reported":1726240132,"current_range_meters":16400,"station_id":"ce4bgr92rcd13ifvqc7g","pricing_plan_id":"cebpf4jnsgd1na2vs0mg"},{"bike_id":"0d4b1e68-00b7-4431-ba96-2b2c71717e20","system_id":"levelo_inurba_marseille","lat":43.31344,"lon":5.38403,"is_reserved":false,"is_disabled":false,"rental_uris":{"android":"levelo://app?vid=0d4b1e68-00b7-4431-ba96-2b2c71717e20","ios":"levelo://app?vid=0d4b1e68-00b7-4431-ba96-2b2c71717e20"},"vehicle_type_id":"4","last_reported":1726240132,"current_range_meters":22800,"station_id":"","pricing_plan_id":"cebpf4jnsgd1na2vs0mg"},{"bike_id":"ad91f2fc-3824-4b54-affc-b4e42a09d32e","system_id":"levelo_inurba_marseille","lat":43.29781,"lon":5.37101,"is_reserved":false,"is_disabled":false,"rental_uris":{"android":"levelo://app?vid=ad91f2fc-3824-4b54-affc-b4e42a09d32e","ios":"levelo://app?vid=ad91f2fc-3824-4b54-affc-b4e42a09d32e"},"vehicle_type_id":"4","last_reported":1726240132,"current_range_meters":18800,"station_id":"ce4bgop2rcd13ifvqc1g","pricing_plan_id":"cebpf4jnsgd1na2vs0mg"},{"bike_id":"a8408bc0-1ad0-4261-92e7-4324637d7c82","system_id":"levelo_inurba_marseille","lat":43.29006,"lon":5.35592,"is_reserved":false,"is_disabled":false,"rental_uris":{"android":"levelo://app?vid=a8408bc0-1ad0-4261-92e7-4324637d7c82","ios":"levelo://app?vid=a8408bc0-1ad0-4261-92e7-4324637d7c82"},"vehicle_type_id":"4","last_reported":1726240132,"current_range_meters":38800,"station_id":"ce4bhb92rcd13ifvqen0","pricing_plan_id":"cebpf4jnsgd1na2vs0mg"},{"bike_id":"0d9f035c-8e47-426d-8593-e2bc7f05f235","system_id":"levelo_inurba_marseille","lat":43.30466,"lon":5.36715,"is_reserved":false,"is_disabled":false,"rental_uris":{"android":"levelo://app?vid=0d9f035c-8e47-426d-8593-e2bc7f05f235","ios":"levelo://app?vid=0d9f035c-8e47-426d-8593-e2bc7f05f235"},"vehicle_type_id":"4","last_reported":1726240132,"current_range_meters":12400,"station_id":"","pricing_plan_id":"cebpf4jnsgd1na2vs0mg"},{"bike_id":"5fce6bb2-22a9-4ab8-9c13-fb9bd59ba5cb","system_id":"levelo_inurba_marseille","lat":43.30887,"lon":5.37184,"is_reserved":false,"is_disabled":false,"rental_uris":{"android":"levelo://app?vid=5fce6bb2-22a9-4ab8-9c13-fb9bd59ba5cb","ios":"levelo://app?vid=5fce6bb2-22a9-4ab8-9c13-fb9bd59ba5cb"},"vehicle_type_id":"4","last_reported":1726240132,"current_range_meters":37600,"station_id":"ce4bguh2rcd13ifvqckg","pricing_plan_id":"cebpf4jnsgd1na2vs0mg"},{"bike_id":"51c484ef-11c2-4c4a-abde-a5bdd899aee7","system_id":"levelo_inurba_marseille","lat":43.25086,"lon":5.39522,"is_reserved":false,"is_disabled":false,"rental_uris":{"android":"levelo://app?vid=51c484ef-11c2-4c4a-abde-a5bdd899aee7","ios":"levelo://app?vid=51c484ef-11c2-4c4a-abde-a5bdd899aee7"},"vehicle_type_id":"4","last_reported":1726240132,"current_range_meters":3600,"station_id":"ce4bhm12rcd13ifvqgkg","pricing_plan_id":"cebpf4jnsgd1na2vs0mg"},{"bike_id":"264c489b-3b1f-4c24-b113-c5465c9713ca","system_id":"levelo_inurba_marseille","lat":43.26204,"lon":5.37936,"is_reserved":false,"is_disabled":false,"rental_uris":{"android":"levelo://app?vid=264c489b-3b1f-4c24-b113-c5465c9713ca","ios":"levelo://app?vid=264c489b-3b1f-4c24-b113-c5465c9713ca"},"vehicle_type_id":"4","last_reported":1726240132,"current_range_meters":26000,"station_id":"ce4bhdp2rcd13ifvqf20","pricing_plan_id":"cebpf4jnsgd1na2vs0mg"},{"bike_id":"bc56def1-43b0-4289-afbb-ab43a56a246f","system_id":"levelo_inurba_marseille","lat":43.28373,"lon":5.38105,"is_reserved":false,"is_disabled":false,"rental_uris":{"android":"levelo://app?vid=bc56def1-43b0-4289-afbb-ab43a56a246f","ios":"levelo://app?vid=bc56def1-43b0-4289-afbb-ab43a56a246f"},"vehicle_type_id":"4","last_reported":1726240132,"current_range_meters":27600,"station_id":"ce4bh412rcd13ifvqdr0","pricing_plan_id":"cebpf4jnsgd1na2vs0mg"},{"bike_id":"e2bae6da-4d10-47c3-a6d3-9542f7c3a449","system_id":"levelo_inurba_marseille","lat":43.28572,"lon":5.39499,"is_reserved":false,"is_disabled":false,"rental_uris":{"android":"levelo://app?vid=e2bae6da-4d10-47c3-a6d3-9542f7c3a449","ios":"levelo://app?vid=e2bae6da-4d10-47c3-a6d3-9542f7c3a449"},"vehicle_type_id":"4","last_reported":1726240132,"current_range_meters":33200,"station_id":"ce4bh292rcd13ifvqdg0","pricing_plan_id":"cebpf4jnsgd1na2vs0mg"},{"bike_id":"7c0ae92f-06d0-4ab8-bbd8-831a5ec57f08","system_id":"levelo_inurba_marseille","lat":43.24665,"lon":5.38562,"is_reserved":false,"is_disabled":false,"rental_uris":{"android":"levelo://app?vid=7c0ae92f-06d0-4ab8-bbd8-831a5ec57f08","ios":"levelo://app?vid=7c0ae92f-06d0-4ab8-bbd8-831a5ec57f08"},"vehicle_type_id":"4","last_reported":1726240132,"current_range_meters":4000,"station_id":"","pricing_plan_id":"cebpf4jnsgd1na2vs0mg"},{"bike_id":"47456ee9-a7f0-444f-ad0e-ab1f5adaac61","system_id":"levelo_inurba_marseille","lat":43.31329,"lon":5.39688,"is_reserved":false,"is_disabled":false,"rental_uris":{"android":"levelo://app?vid=47456ee9-a7f0-444f-ad0e-ab1f5adaac61","ios":"levelo://app?vid=47456ee9-a7f0-444f-ad0e-ab1f5adaac61"},"vehicle_type_id":"4","last_reported":1726240132,"current_range_meters":8000,"station_id":"ce4bgvp2rcd13ifvqcu0","pricing_plan_id":"cebpf4jnsgd1na2vs0mg"},{"bike_id":"99d71669-09a0-47af-836f-a81d7b0a0219","system_id":"levelo_inurba_marseille","lat":43.24655,"lon":5.38892,"is_reserved":false,"is_disabled":false,"rental_uris":{"android":"levelo://app?vid=99d71669-09a0-47af-836f-a81d7b0a0219","ios":"levelo://app?vid=99d71669-09a0-47af-836f-a81d7b0a0219"},"vehicle_type_id":"4","last_reported":1726240132,"current_range_meters":6400,"station_id":"ce4bhg12rcd13ifvqf60","pricing_plan_id":"cebpf4jnsgd1na2vs0mg"},{"bike_id":"fa99e920-2add-4024-9507-277d5c4af360","system_id":"levelo_inurba_marseille","lat":43.28658,"lon":5.36347,"is_reserved":false,"is_disabled":false,"rental_uris":{"android":"levelo://app?vid=fa99e920-2add-4024-9507-277d5c4af360","ios":"levelo://app?vid=fa99e920-2add-4024-9507-277d5c4af360"},"vehicle_type_id":"4","last_reported":1726240132,"current_range_meters":22800,"station_id":"ce4bhah2rcd13ifvqej0","pricing_plan_id":"cebpf4jnsgd1na2vs0mg"},{"bike_id":"b0666794-5bb5-44e3-b4ac-7c9d34d8bf34","system_id":"levelo_inurba_marseille","lat":43.30551,"lon":5.36557,"is_reserved":false,"is_disabled":false,"rental_uris":{"android":"levelo://app?vid=b0666794-5bb5-44e3-b4ac-7c9d34d8bf34","ios":"levelo://app?vid=b0666794-5bb5-44e3-b4ac-7c9d34d8bf34"},"vehicle_type_id":"4","last_reported":1726240132,"current_range_meters":2800,"station_id":"ce4bgs12rcd13ifvqcag","pricing_plan_id":"cebpf4jnsgd1na2vs0mg"},{"bike_id":"65add43a-04e5-4738-a0f2-db0e99d4689b","system_id":"levelo_inurba_marseille","lat":43.29511,"lon":5.39388,"is_reserved":false,"is_disabled":false,"rental_uris":{"android":"levelo://app?vid=65add43a-04e5-4738-a0f2-db0e99d4689b","ios":"levelo://app?vid=65add43a-04e5-4738-a0f2-db0e99d4689b"},"vehicle_type_id":"4","last_reported":1726240132,"current_range_meters":20400,"station_id":"ce4bh292rcd13ifvqdf0","pricing_plan_id":"cebpf4jnsgd1na2vs0mg"},{"bike_id":"c2fffdea-fea6-4584-bd0b-df4cf5a5c761","system_id":"levelo_inurba_marseille","lat":43.24669,"lon":5.3816,"is_reserved":false,"is_disabled":false,"rental_uris":{"android":"levelo://app?vid=c2fffdea-fea6-4584-bd0b-df4cf5a5c761","ios":"levelo://app?vid=c2fffdea-fea6-4584-bd0b-df4cf5a5c761"},"vehicle_type_id":"4","last_reported":1726240132,"current_range_meters":12400,"station_id":"ce4bhih2rcd13ifvqfr0","pricing_plan_id":"cebpf4jnsgd1na2vs0mg"},{"bike_id":"d093cabe-e20b-431f-a905-ee2541759ecf","system_id":"levelo_inurba_marseille","lat":43.27949,"lon":5.41046,"is_reserved":false,"is_disabled":false,"rental_uris":{"android":"levelo://app?vid=d093cabe-e20b-431f-a905-ee2541759ecf","ios":"levelo://app?vid=d093cabe-e20b-431f-a905-ee2541759ecf"},"vehicle_type_id":"4","last_reported":1726240132,"current_range_meters":24000,"station_id":"ce4bhnp2rcd13ifvqh0g","pricing_plan_id":"cebpf4jnsgd1na2vs0mg"},{"bike_id":"1f04f185-f4cc-45ae-ad89-ff90d03dca2c","system_id":"levelo_inurba_marseille","lat":43.29787,"lon":5.381,"is_reserved":false,"is_disabled":false,"rental_uris":{"android":"levelo://app?vid=1f04f185-f4cc-45ae-ad89-ff90d03dca2c","ios":"levelo://app?vid=1f04f185-f4cc-45ae-ad89-ff90d03dca2c"},"vehicle_type_id":"4","last_reported":1726240132,"current_range_meters":14000,"station_id":"ce4bgip2rcd13ifvqbb0","pricing_plan_id":"cebpf4jnsgd1na2vs0mg"},{"bike_id":"eaf80f1d-6b18-46eb-97ae-479d9a397391","system_id":"levelo_inurba_marseille","lat":43.25491,"lon":5.37647,"is_reserved":false,"is_disabled":false,"rental_uris":{"android":"levelo://app?vid=eaf80f1d-6b18-46eb-97ae-479d9a397391","ios":"levelo://app?vid=eaf80f1d-6b18-46eb-97ae-479d9a397391"},"vehicle_type_id":"4","last_reported":1726240132,"current_range_meters":4400,"station_id":"ce4bhh12rcd13ifvqff0","pricing_plan_id":"cebpf4jnsgd1na2vs0mg"},{"bike_id":"8261ace5-2139-442c-b15a-c46a7ca49df2","system_id":"levelo_inurba_marseille","lat":43.299,"lon":5.43668,"is_reserved":false,"is_disabled":false,"rental_uris":{"android":"levelo://app?vid=8261ace5-2139-442c-b15a-c46a7ca49df2","ios":"levelo://app?vid=8261ace5-2139-442c-b15a-c46a7ca49df2"},"vehicle_type_id":"4","last_reported":1726240132,"current_range_meters":30400,"station_id":"ce4bhpp2rcd13ifvqhfg","pricing_plan_id":"cebpf4jnsgd1na2vs0mg"},{"bike_id":"4afb8b00-be3a-4d15-9b8b-47916e625762","system_id":"levelo_inurba_marseille","lat":43.28539,"lon":5.44234,"is_reserved":false,"is_disabled":false,"rental_uris":{"android":"levelo://app?vid=4afb8b00-be3a-4d15-9b8b-47916e625762","ios":"levelo://app?vid=4afb8b00-be3a-4d15-9b8b-47916e625762"},"vehicle_type_id":"4","last_reported":1726240132,"current_range_meters":27200,"station_id":"","pricing_plan_id":"cebpf4jnsgd1na2vs0mg"},{"bike_id":"6160092f-4981-4a7f-8ab0-7f6f0d746aa2","system_id":"levelo_inurba_marseille","lat":43.25001,"lon":5.38937,"is_reserved":false,"is_disabled":false,"rental_uris":{"android":"levelo://app?vid=6160092f-4981-4a7f-8ab0-7f6f0d746aa2","ios":"levelo://app?vid=6160092f-4981-4a7f-8ab0-7f6f0d746aa2"},"vehicle_type_id":"4","last_reported":1726240132,"current_range_meters":3200,"station_id":"ce4bhgp2rcd13ifvqfd0","pricing_plan_id":"cebpf4jnsgd1na2vs0mg"},{"bike_id":"bb7acf50-b6bc-4b2d-adf4-833abc23b24c","system_id":"levelo_inurba_marseille","lat":43.23191,"lon":5.35546,"is_reserved":false,"is_disabled":false,"rental_uris":{"android":"levelo://app?vid=bb7acf50-b6bc-4b2d-adf4-833abc23b24c","ios":"levelo://app?vid=bb7acf50-b6bc-4b2d-adf4-833abc23b24c"},"vehicle_type_id":"4","last_reported":1726240132,"current_range_meters":38800,"station_id":"ce4bhu92rcd13ifvqi70","pricing_plan_id":"cebpf4jnsgd1na2vs0mg"},{"bike_id":"30185eb9-6d76-4f5b-8b01-90344d5ee667","system_id":"levelo_inurba_marseille","lat":43.30419,"lon":5.41284,"is_reserved":false,"is_disabled":false,"rental_uris":{"android":"levelo://app?vid=30185eb9-6d76-4f5b-8b01-90344d5ee667","ios":"levelo://app?vid=30185eb9-6d76-4f5b-8b01-90344d5ee667"},"vehicle_type_id":"4","last_reported":1726240132,"current_range_meters":9600,"station_id":"ce4bhop2rcd13ifvqh8g","pricing_plan_id":"cebpf4jnsgd1na2vs0mg"},{"bike_id":"be7bfaa6-0069-4ed5-8160-e180e412dac9","system_id":"levelo_inurba_marseille","lat":43.286505,"lon":5.362678,"is_reserved":false,"is_disabled":false,"rental_uris":{"android":"levelo://app?vid=be7bfaa6-0069-4ed5-8160-e180e412dac9","ios":"levelo://app?vid=be7bfaa6-0069-4ed5-8160-e180e412dac9"},"vehicle_type_id":"4","last_reported":1726240132,"current_range_meters":15200,"station_id":"ce4bhah2rcd13ifvqej0","pricing_plan_id":"cebpf4jnsgd1na2vs0mg"},{"bike_id":"bc8be1fd-7bee-49c5-817c-184bdd69b536","system_id":"levelo_inurba_marseille","lat":43.27075,"lon":5.42277,"is_reserved":false,"is_disabled":false,"rental_uris":{"android":"levelo://app?vid=bc8be1fd-7bee-49c5-817c-184bdd69b536","ios":"levelo://app?vid=bc8be1fd-7bee-49c5-817c-184bdd69b536"},"vehicle_type_id":"4","last_reported":1726240132,"current_range_meters":30000,"station_id":"","pricing_plan_id":"cebpf4jnsgd1na2vs0mg"},{"bike_id":"1c6f7f1a-30ee-4547-9969-7cf0a0716f9a","system_id":"levelo_inurba_marseille","lat":43.29629,"lon":5.37717,"is_reserved":false,"is_disabled":false,"rental_uris":{"android":"levelo://app?vid=1c6f7f1a-30ee-4547-9969-7cf0a0716f9a","ios":"levelo://app?vid=1c6f7f1a-30ee-4547-9969-7cf0a0716f9a"},"vehicle_type_id":"4","last_reported":1726240132,"current_range_meters":21600,"station_id":"ce4bgi92rcd13ifvqb90","pricing_plan_id":"cebpf4jnsgd1na2vs0mg"},{"bike_id":"452dd062-9dd5-418a-a8a9-271926c5cfa3","system_id":"levelo_inurba_marseille","lat":43.30196,"lon":5.36616,"is_reserved":false,"is_disabled":false,"rental_uris":{"android":"levelo://app?vid=452dd062-9dd5-418a-a8a9-271926c5cfa3","ios":"levelo://app?vid=452dd062-9dd5-418a-a8a9-271926c5cfa3"},"vehicle_type_id":"4","last_reported":1726240132,"current_range_meters":38800,"station_id":"ce4bgrh2rcd13ifvqc8g","pricing_plan_id":"cebpf4jnsgd1na2vs0mg"},{"bike_id":"bacbd85c-71dc-4ea1-8e8c-762e4476b5b0","system_id":"levelo_inurba_marseille","lat":43.323761,"lon":5.388966,"is_reserved":false,"is_disabled":false,"rental_uris":{"android":"levelo://app?vid=bacbd85c-71dc-4ea1-8e8c-762e4476b5b0","ios":"levelo://app?vid=bacbd85c-71dc-4ea1-8e8c-762e4476b5b0"},"vehicle_type_id":"4","last_reported":1726240132,"current_range_meters":35200,"station_id":"ce4bhqp2rcd13ifvqhog","pricing_plan_id":"cebpf4jnsgd1na2vs0mg"},{"bike_id":"0582fe3d-368a-49a2-b069-35b6e4067b4b","system_id":"levelo_inurba_marseille","lat":43.31331,"lon":5.397,"is_reserved":false,"is_disabled":false,"rental_uris":{"android":"levelo://app?vid=0582fe3d-368a-49a2-b069-35b6e4067b4b","ios":"levelo://app?vid=0582fe3d-368a-49a2-b069-35b6e4067b4b"},"vehicle_type_id":"4","last_reported":1726240132,"current_range_meters":39200,"station_id":"ce4bgvp2rcd13ifvqcu0","pricing_plan_id":"cebpf4jnsgd1na2vs0mg"},{"bike_id":"5e80569e-3c80-456a-8f02-7d1290b9becb","system_id":"levelo_inurba_marseille","lat":43.33026,"lon":5.39039,"is_reserved":false,"is_disabled":false,"rental_uris":{"android":"levelo://app?vid=5e80569e-3c80-456a-8f02-7d1290b9becb","ios":"levelo://app?vid=5e80569e-3c80-456a-8f02-7d1290b9becb"},"vehicle_type_id":"4","last_reported":1726240132,"current_range_meters":32800,"station_id":"ce4bhr92rcd13ifvqhrg","pricing_plan_id":"cebpf4jnsgd1na2vs0mg"},{"bike_id":"bdb2cd35-e808-476a-b03f-f5897d1c9ab6","system_id":"levelo_inurba_marseille","lat":43.295532,"lon":5.42293,"is_reserved":false,"is_disabled":false,"rental_uris":{"android":"levelo://app?vid=bdb2cd35-e808-476a-b03f-f5897d1c9ab6","ios":"levelo://app?vid=bdb2cd35-e808-476a-b03f-f5897d1c9ab6"},"vehicle_type_id":"4","last_reported":1726240132,"current_range_meters":9200,"station_id":"ce4bhph2rcd13ifvqhdg","pricing_plan_id":"cebpf4jnsgd1na2vs0mg"},{"bike_id":"65c1412b-046f-4164-bac6-8d82df38fef4","system_id":"levelo_inurba_marseille","lat":43.30554,"lon":5.36526,"is_reserved":false,"is_disabled":false,"rental_uris":{"android":"levelo://app?vid=65c1412b-046f-4164-bac6-8d82df38fef4","ios":"levelo://app?vid=65c1412b-046f-4164-bac6-8d82df38fef4"},"vehicle_type_id":"4","last_reported":1726240132,"current_range_meters":38800,"station_id":"ce4bgs12rcd13ifvqcag","pricing_plan_id":"cebpf4jnsgd1na2vs0mg"},{"bike_id":"3c24178f-7475-4b53-907a-d84ec8f312ab","system_id":"levelo_inurba_marseille","lat":43.29607,"lon":5.37734,"is_reserved":false,"is_disabled":false,"rental_uris":{"android":"levelo://app?vid=3c24178f-7475-4b53-907a-d84ec8f312ab","ios":"levelo://app?vid=3c24178f-7475-4b53-907a-d84ec8f312ab"},"vehicle_type_id":"4","last_reported":1726240132,"current_range_meters":36800,"station_id":"ce4bgi92rcd13ifvqb90","pricing_plan_id":"cebpf4jnsgd1na2vs0mg"},{"bike_id":"dee76204-6d67-4a6f-a2d8-5cb5a4972b73","system_id":"levelo_inurba_marseille","lat":43.30465,"lon":5.37904,"is_reserved":false,"is_disabled":false,"rental_uris":{"android":"levelo://app?vid=dee76204-6d67-4a6f-a2d8-5cb5a4972b73","ios":"levelo://app?vid=dee76204-6d67-4a6f-a2d8-5cb5a4972b73"},"vehicle_type_id":"4","last_reported":1726240132,"current_range_meters":16400,"station_id":"ce4bgup2rcd13ifvqcn0","pricing_plan_id":"cebpf4jnsgd1na2vs0mg"},{"bike_id":"c28ff0f1-1713-431a-bccf-4e7a21e8e39b","system_id":"levelo_inurba_marseille","lat":43.25508,"lon":5.37657,"is_reserved":false,"is_disabled":false,"rental_uris":{"android":"levelo://app?vid=c28ff0f1-1713-431a-bccf-4e7a21e8e39b","ios":"levelo://app?vid=c28ff0f1-1713-431a-bccf-4e7a21e8e39b"},"vehicle_type_id":"4","last_reported":1726240132,"current_range_meters":38800,"station_id":"ce4bhh12rcd13ifvqff0","pricing_plan_id":"cebpf4jnsgd1na2vs0mg"},{"bike_id":"d63b08fd-7716-422a-94e4-8f1dfff5bb11","system_id":"levelo_inurba_marseille","lat":43.28615,"lon":5.35097,"is_reserved":false,"is_disabled":false,"rental_uris":{"android":"levelo://app?vid=d63b08fd-7716-422a-94e4-8f1dfff5bb11","ios":"levelo://app?vid=d63b08fd-7716-422a-94e4-8f1dfff5bb11"},"vehicle_type_id":"4","last_reported":1726240132,"current_range_meters":38400,"station_id":"ce4bhch2rcd13ifvqeug","pricing_plan_id":"cebpf4jnsgd1na2vs0mg"},{"bike_id":"3005b8e8-b987-4081-8362-5c9ca36dc9ef","system_id":"levelo_inurba_marseille","lat":43.28951,"lon":5.3963,"is_reserved":false,"is_disabled":false,"rental_uris":{"android":"levelo://app?vid=3005b8e8-b987-4081-8362-5c9ca36dc9ef","ios":"levelo://app?vid=3005b8e8-b987-4081-8362-5c9ca36dc9ef"},"vehicle_type_id":"4","last_reported":1726240132,"current_range_meters":25200,"station_id":"ce4bh3h2rcd13ifvqdn0","pricing_plan_id":"cebpf4jnsgd1na2vs0mg"},{"bike_id":"ec70d30b-37ec-4b5c-b10c-9617e30c7fa0","system_id":"levelo_inurba_marseille","lat":43.29897,"lon":5.36622,"is_reserved":false,"is_disabled":false,"rental_uris":{"android":"levelo://app?vid=ec70d30b-37ec-4b5c-b10c-9617e30c7fa0","ios":"levelo://app?vid=ec70d30b-37ec-4b5c-b10c-9617e30c7fa0"},"vehicle_type_id":"4","last_reported":1726240132,"current_range_meters":16400,"station_id":"","pricing_plan_id":"cebpf4jnsgd1na2vs0mg"},{"bike_id":"415d3c4f-5242-4572-8d05-9e1bd45eae7f","system_id":"levelo_inurba_marseille","lat":43.2558,"lon":5.38229,"is_reserved":false,"is_disabled":false,"rental_uris":{"android":"levelo://app?vid=415d3c4f-5242-4572-8d05-9e1bd45eae7f","ios":"levelo://app?vid=415d3c4f-5242-4572-8d05-9e1bd45eae7f"},"vehicle_type_id":"4","last_reported":1726240132,"current_range_meters":32800,"station_id":"ce4bhih2rcd13ifvqfs0","pricing_plan_id":"cebpf4jnsgd1na2vs0mg"},{"bike_id":"06be586c-7c46-466c-8f97-eac0c3d41244","system_id":"levelo_inurba_marseille","lat":43.27372,"lon":5.3626,"is_reserved":false,"is_disabled":false,"rental_uris":{"android":"levelo://app?vid=06be586c-7c46-466c-8f97-eac0c3d41244","ios":"levelo://app?vid=06be586c-7c46-466c-8f97-eac0c3d41244"},"vehicle_type_id":"4","last_reported":1726240132,"current_range_meters":28800,"station_id":"ce4bhbh2rcd13ifvqeo0","pricing_plan_id":"cebpf4jnsgd1na2vs0mg"},{"bike_id":"321776d9-93da-4f1b-96be-0c30e8fca15a","system_id":"levelo_inurba_marseille","lat":43.25724,"lon":5.41106,"is_reserved":false,"is_disabled":false,"rental_uris":{"android":"levelo://app?vid=321776d9-93da-4f1b-96be-0c30e8fca15a","ios":"levelo://app?vid=321776d9-93da-4f1b-96be-0c30e8fca15a"},"vehicle_type_id":"4","last_reported":1726240132,"current_range_meters":26800,"station_id":"ce4bhkp2rcd13ifvqgd0","pricing_plan_id":"cebpf4jnsgd1na2vs0mg"},{"bike_id":"db3c2f76-d7fd-47df-ba22-745306b0c317","system_id":"levelo_inurba_marseille","lat":43.29798,"lon":5.4041,"is_reserved":false,"is_disabled":false,"rental_uris":{"android":"levelo://app?vid=db3c2f76-d7fd-47df-ba22-745306b0c317","ios":"levelo://app?vid=db3c2f76-d7fd-47df-ba22-745306b0c317"},"vehicle_type_id":"4","last_reported":1726240132,"current_range_meters":31200,"station_id":"ce4bh112rcd13ifvqd90","pricing_plan_id":"cebpf4jnsgd1na2vs0mg"},{"bike_id":"b5b5287e-b66f-4f19-b47a-1f428d9f1b49","system_id":"levelo_inurba_marseille","lat":43.2315,"lon":5.43699,"is_reserved":false,"is_disabled":false,"rental_uris":{"android":"levelo://app?vid=b5b5287e-b66f-4f19-b47a-1f428d9f1b49","ios":"levelo://app?vid=b5b5287e-b66f-4f19-b47a-1f428d9f1b49"},"vehicle_type_id":"4","last_reported":1726240132,"current_range_meters":0,"station_id":"ce4bhmp2rcd13ifvqgog","pricing_plan_id":"cebpf4jnsgd1na2vs0mg"},{"bike_id":"42e84e6d-33b9-4c46-830b-ea91b25f5838","system_id":"levelo_inurba_marseille","lat":43.30647,"lon":5.40079,"is_reserved":false,"is_disabled":false,"rental_uris":{"android":"levelo://app?vid=42e84e6d-33b9-4c46-830b-ea91b25f5838","ios":"levelo://app?vid=42e84e6d-33b9-4c46-830b-ea91b25f5838"},"vehicle_type_id":"4","last_reported":1726240132,"current_range_meters":32000,"station_id":"ce4bh112rcd13ifvqda0","pricing_plan_id":"cebpf4jnsgd1na2vs0mg"},{"bike_id":"924911a6-77d9-4562-b496-03204cbef587","system_id":"levelo_inurba_marseille","lat":43.28924,"lon":5.38397,"is_reserved":false,"is_disabled":false,"rental_uris":{"android":"levelo://app?vid=924911a6-77d9-4562-b496-03204cbef587","ios":"levelo://app?vid=924911a6-77d9-4562-b496-03204cbef587"},"vehicle_type_id":"4","last_reported":1726240132,"current_range_meters":24400,"station_id":"ce4bh612rcd13ifvqe6g","pricing_plan_id":"cebpf4jnsgd1na2vs0mg"},{"bike_id":"5370546a-7244-45da-af29-6ba1e105add1","system_id":"levelo_inurba_marseille","lat":43.27372,"lon":5.36245,"is_reserved":false,"is_disabled":false,"rental_uris":{"android":"levelo://app?vid=5370546a-7244-45da-af29-6ba1e105add1","ios":"levelo://app?vid=5370546a-7244-45da-af29-6ba1e105add1"},"vehicle_type_id":"4","last_reported":1726240132,"current_range_meters":24400,"station_id":"ce4bhbh2rcd13ifvqeo0","pricing_plan_id":"cebpf4jnsgd1na2vs0mg"},{"bike_id":"14ef0fd9-2f5a-476b-bc63-7ef2c68fe8f1","system_id":"levelo_inurba_marseille","lat":43.31119,"lon":5.37769,"is_reserved":false,"is_disabled":false,"rental_uris":{"android":"levelo://app?vid=14ef0fd9-2f5a-476b-bc63-7ef2c68fe8f1","ios":"levelo://app?vid=14ef0fd9-2f5a-476b-bc63-7ef2c68fe8f1"},"vehicle_type_id":"4","last_reported":1726240132,"current_range_meters":38400,"station_id":"ce4bgt92rcd13ifvqcg0","pricing_plan_id":"cebpf4jnsgd1na2vs0mg"},{"bike_id":"9abd496e-486b-47ce-ac45-5ed07c879677","system_id":"levelo_inurba_marseille","lat":43.29939,"lon":5.3846,"is_reserved":false,"is_disabled":false,"rental_uris":{"android":"levelo://app?vid=9abd496e-486b-47ce-ac45-5ed07c879677","ios":"levelo://app?vid=9abd496e-486b-47ce-ac45-5ed07c879677"},"vehicle_type_id":"4","last_reported":1726240132,"current_range_meters":16800,"station_id":"ce4bhb92rcd13ifvqen0","pricing_plan_id":"cebpf4jnsgd1na2vs0mg"},{"bike_id":"c38c479d-fa17-4193-b4dc-3af0a96a56b4","system_id":"levelo_inurba_marseille","lat":43.24188,"lon":5.39722,"is_reserved":false,"is_disabled":false,"rental_uris":{"android":"levelo://app?vid=c38c479d-fa17-4193-b4dc-3af0a96a56b4","ios":"levelo://app?vid=c38c479d-fa17-4193-b4dc-3af0a96a56b4"},"vehicle_type_id":"4","last_reported":1726240132,"current_range_meters":6400,"station_id":"ce4bhn12rcd13ifvqgpg","pricing_plan_id":"cebpf4jnsgd1na2vs0mg"},{"bike_id":"d36bb78f-d929-4d06-b64b-cab67d5b9432","system_id":"levelo_inurba_marseille","lat":43.29729,"lon":5.37685,"is_reserved":false,"is_disabled":false,"rental_uris":{"android":"levelo://app?vid=d36bb78f-d929-4d06-b64b-cab67d5b9432","ios":"levelo://app?vid=d36bb78f-d929-4d06-b64b-cab67d5b9432"},"vehicle_type_id":"4","last_reported":1726240132,"current_range_meters":32800,"station_id":"ce4bgkh2rcd13ifvqbl0","pricing_plan_id":"cebpf4jnsgd1na2vs0mg"},{"bike_id":"1964d304-3ebb-4f59-a5c9-a65ad18d80cb","system_id":"levelo_inurba_marseille","lat":43.31074,"lon":5.38358,"is_reserved":false,"is_disabled":false,"rental_uris":{"android":"levelo://app?vid=1964d304-3ebb-4f59-a5c9-a65ad18d80cb","ios":"levelo://app?vid=1964d304-3ebb-4f59-a5c9-a65ad18d80cb"},"vehicle_type_id":"4","last_reported":1726240132,"current_range_meters":36400,"station_id":"ce4bgv92rcd13ifvqcr0","pricing_plan_id":"cebpf4jnsgd1na2vs0mg"},{"bike_id":"5a546f6a-4ccc-41a1-bd2d-4d336a47f11e","system_id":"levelo_inurba_marseille","lat":43.28357,"lon":5.38637,"is_reserved":false,"is_disabled":false,"rental_uris":{"android":"levelo://app?vid=5a546f6a-4ccc-41a1-bd2d-4d336a47f11e","ios":"levelo://app?vid=5a546f6a-4ccc-41a1-bd2d-4d336a47f11e"},"vehicle_type_id":"4","last_reported":1726240132,"current_range_meters":10000,"station_id":"ce4bh492rcd13ifvqdvg","pricing_plan_id":"cebpf4jnsgd1na2vs0mg"},{"bike_id":"1e9ab519-e28c-400f-aecb-cbc58f39def2","system_id":"levelo_inurba_marseille","lat":43.29788,"lon":5.37886,"is_reserved":false,"is_disabled":false,"rental_uris":{"android":"levelo://app?vid=1e9ab519-e28c-400f-aecb-cbc58f39def2","ios":"levelo://app?vid=1e9ab519-e28c-400f-aecb-cbc58f39def2"},"vehicle_type_id":"4","last_reported":1726240132,"current_range_meters":8000,"station_id":"","pricing_plan_id":"cebpf4jnsgd1na2vs0mg"},{"bike_id":"03200ce1-e816-4485-a9db-29a204ad97d8","system_id":"levelo_inurba_marseille","lat":43.23963,"lon":5.36638,"is_reserved":false,"is_disabled":false,"rental_uris":{"android":"levelo://app?vid=03200ce1-e816-4485-a9db-29a204ad97d8","ios":"levelo://app?vid=03200ce1-e816-4485-a9db-29a204ad97d8"},"vehicle_type_id":"4","last_reported":1726240132,"current_range_meters":38800,"station_id":"ce4bhi12rcd13ifvqfp0","pricing_plan_id":"cebpf4jnsgd1na2vs0mg"},{"bike_id":"954d2b54-362e-442e-bcaa-d17939d90e2d","system_id":"levelo_inurba_marseille","lat":43.25495,"lon":5.37653,"is_reserved":false,"is_disabled":false,"rental_uris":{"android":"levelo://app?vid=954d2b54-362e-442e-bcaa-d17939d90e2d","ios":"levelo://app?vid=954d2b54-362e-442e-bcaa-d17939d90e2d"},"vehicle_type_id":"4","last_reported":1726240132,"current_range_meters":38800,"station_id":"ce4bhh12rcd13ifvqff0","pricing_plan_id":"cebpf4jnsgd1na2vs0mg"},{"bike_id":"82dec1e1-c024-4a59-b080-1ca526441f94","system_id":"levelo_inurba_marseille","lat":43.337612,"lon":5.374504,"is_reserved":false,"is_disabled":false,"rental_uris":{"android":"levelo://app?vid=82dec1e1-c024-4a59-b080-1ca526441f94","ios":"levelo://app?vid=82dec1e1-c024-4a59-b080-1ca526441f94"},"vehicle_type_id":"4","last_reported":1726240132,"current_range_meters":14400,"station_id":"","pricing_plan_id":"cebpf4jnsgd1na2vs0mg"},{"bike_id":"c0767bd9-0db4-4436-a665-e30c30593076","system_id":"levelo_inurba_marseille","lat":43.29786,"lon":5.37108,"is_reserved":false,"is_disabled":false,"rental_uris":{"android":"levelo://app?vid=c0767bd9-0db4-4436-a665-e30c30593076","ios":"levelo://app?vid=c0767bd9-0db4-4436-a665-e30c30593076"},"vehicle_type_id":"4","last_reported":1726240132,"current_range_meters":22000,"station_id":"ce4bgop2rcd13ifvqc1g","pricing_plan_id":"cebpf4jnsgd1na2vs0mg"},{"bike_id":"e212e744-567b-4d8c-935f-b00de9e51f68","system_id":"levelo_inurba_marseille","lat":43.30419,"lon":5.41276,"is_reserved":false,"is_disabled":false,"rental_uris":{"android":"levelo://app?vid=e212e744-567b-4d8c-935f-b00de9e51f68","ios":"levelo://app?vid=e212e744-567b-4d8c-935f-b00de9e51f68"},"vehicle_type_id":"4","last_reported":1726240132,"current_range_meters":21600,"station_id":"ce4bhop2rcd13ifvqh8g","pricing_plan_id":"cebpf4jnsgd1na2vs0mg"},{"bike_id":"2deeed66-456e-4f3b-be82-f36b0e3c9d4c","system_id":"levelo_inurba_marseille","lat":43.23152,"lon":5.43709,"is_reserved":false,"is_disabled":false,"rental_uris":{"android":"levelo://app?vid=2deeed66-456e-4f3b-be82-f36b0e3c9d4c","ios":"levelo://app?vid=2deeed66-456e-4f3b-be82-f36b0e3c9d4c"},"vehicle_type_id":"4","last_reported":1726240132,"current_range_meters":17600,"station_id":"ce4bhmp2rcd13ifvqgog","pricing_plan_id":"cebpf4jnsgd1na2vs0mg"},{"bike_id":"fad4ce5f-29e2-4402-92b3-eafa4b8fc708","system_id":"levelo_inurba_marseille","lat":43.26029,"lon":5.37551,"is_reserved":false,"is_disabled":false,"rental_uris":{"android":"levelo://app?vid=fad4ce5f-29e2-4402-92b3-eafa4b8fc708","ios":"levelo://app?vid=fad4ce5f-29e2-4402-92b3-eafa4b8fc708"},"vehicle_type_id":"4","last_reported":1726240132,"current_range_meters":30800,"station_id":"ce4bhgh2rcd13ifvqfa0","pricing_plan_id":"cebpf4jnsgd1na2vs0mg"},{"bike_id":"4fdffe56-1274-4eb7-9c81-25469e755406","system_id":"levelo_inurba_marseille","lat":43.292725,"lon":5.374774,"is_reserved":false,"is_disabled":false,"rental_uris":{"android":"levelo://app?vid=4fdffe56-1274-4eb7-9c81-25469e755406","ios":"levelo://app?vid=4fdffe56-1274-4eb7-9c81-25469e755406"},"vehicle_type_id":"4","last_reported":1726240132,"current_range_meters":12000,"station_id":"ce4bh692rcd13ifvqe90","pricing_plan_id":"cebpf4jnsgd1na2vs0mg"},{"bike_id":"a695abc5-3e12-4a12-97a7-bd1eda6fe232","system_id":"levelo_inurba_marseille","lat":43.32474,"lon":5.3657,"is_reserved":false,"is_disabled":false,"rental_uris":{"android":"levelo://app?vid=a695abc5-3e12-4a12-97a7-bd1eda6fe232","ios":"levelo://app?vid=a695abc5-3e12-4a12-97a7-bd1eda6fe232"},"vehicle_type_id":"4","last_reported":1726240132,"current_range_meters":29600,"station_id":"ce4bhs12rcd13ifvqhvg","pricing_plan_id":"cebpf4jnsgd1na2vs0mg"},{"bike_id":"62034a38-4359-4ade-a5be-becacdb5806b","system_id":"levelo_inurba_marseille","lat":43.29525,"lon":5.3904,"is_reserved":false,"is_disabled":false,"rental_uris":{"android":"levelo://app?vid=62034a38-4359-4ade-a5be-becacdb5806b","ios":"levelo://app?vid=62034a38-4359-4ade-a5be-becacdb5806b"},"vehicle_type_id":"4","last_reported":1726240132,"current_range_meters":28000,"station_id":"ce4bh3p2rcd13ifvqdp0","pricing_plan_id":"cebpf4jnsgd1na2vs0mg"},{"bike_id":"d6766db9-65af-4436-94ce-bd1adef694c7","system_id":"levelo_inurba_marseille","lat":43.26684,"lon":5.38263,"is_reserved":false,"is_disabled":false,"rental_uris":{"android":"levelo://app?vid=d6766db9-65af-4436-94ce-bd1adef694c7","ios":"levelo://app?vid=d6766db9-65af-4436-94ce-bd1adef694c7"},"vehicle_type_id":"4","last_reported":1726240132,"current_range_meters":38800,"station_id":"ce4bhg92rcd13ifvqf90","pricing_plan_id":"cebpf4jnsgd1na2vs0mg"},{"bike_id":"c5316401-bd1f-44c8-b0df-5dc7bdba245f","system_id":"levelo_inurba_marseille","lat":43.29679,"lon":5.37284,"is_reserved":false,"is_disabled":false,"rental_uris":{"android":"levelo://app?vid=c5316401-bd1f-44c8-b0df-5dc7bdba245f","ios":"levelo://app?vid=c5316401-bd1f-44c8-b0df-5dc7bdba245f"},"vehicle_type_id":"4","last_reported":1726240132,"current_range_meters":38800,"station_id":"ce4bgk12rcd13ifvqbj0","pricing_plan_id":"cebpf4jnsgd1na2vs0mg"},{"bike_id":"61e00977-be43-400f-99ea-3c33330f7657","system_id":"levelo_inurba_marseille","lat":43.2501,"lon":5.38916,"is_reserved":false,"is_disabled":false,"rental_uris":{"android":"levelo://app?vid=61e00977-be43-400f-99ea-3c33330f7657","ios":"levelo://app?vid=61e00977-be43-400f-99ea-3c33330f7657"},"vehicle_type_id":"4","last_reported":1726240132,"current_range_meters":24800,"station_id":"ce4bhgp2rcd13ifvqfd0","pricing_plan_id":"cebpf4jnsgd1na2vs0mg"},{"bike_id":"0032f5f1-e541-4093-a68c-d29e851a1466","system_id":"levelo_inurba_marseille","lat":43.25016,"lon":5.38928,"is_reserved":false,"is_disabled":false,"rental_uris":{"android":"levelo://app?vid=0032f5f1-e541-4093-a68c-d29e851a1466","ios":"levelo://app?vid=0032f5f1-e541-4093-a68c-d29e851a1466"},"vehicle_type_id":"4","last_reported":1726240132,"current_range_meters":16800,"station_id":"ce4bhgp2rcd13ifvqfd0","pricing_plan_id":"cebpf4jnsgd1na2vs0mg"},{"bike_id":"6f460960-ce1e-4b86-8066-4975ee77fdb2","system_id":"levelo_inurba_marseille","lat":43.32487,"lon":5.36567,"is_reserved":false,"is_disabled":false,"rental_uris":{"android":"levelo://app?vid=6f460960-ce1e-4b86-8066-4975ee77fdb2","ios":"levelo://app?vid=6f460960-ce1e-4b86-8066-4975ee77fdb2"},"vehicle_type_id":"4","last_reported":1726240132,"current_range_meters":4800,"station_id":"ce4bhs12rcd13ifvqhvg","pricing_plan_id":"cebpf4jnsgd1na2vs0mg"},{"bike_id":"c79bad12-f55d-46b4-bfa0-b763f6cd5e8e","system_id":"levelo_inurba_marseille","lat":43.29781,"lon":5.38097,"is_reserved":false,"is_disabled":false,"rental_uris":{"android":"levelo://app?vid=c79bad12-f55d-46b4-bfa0-b763f6cd5e8e","ios":"levelo://app?vid=c79bad12-f55d-46b4-bfa0-b763f6cd5e8e"},"vehicle_type_id":"4","last_reported":1726240132,"current_range_meters":26800,"station_id":"ce4bgip2rcd13ifvqbb0","pricing_plan_id":"cebpf4jnsgd1na2vs0mg"},{"bike_id":"f8dcd742-f179-459d-bc2e-d13a3e98b89a","system_id":"levelo_inurba_marseille","lat":43.260651,"lon":5.397981,"is_reserved":false,"is_disabled":false,"rental_uris":{"android":"levelo://app?vid=f8dcd742-f179-459d-bc2e-d13a3e98b89a","ios":"levelo://app?vid=f8dcd742-f179-459d-bc2e-d13a3e98b89a"},"vehicle_type_id":"4","last_reported":1726240132,"current_range_meters":38400,"station_id":"","pricing_plan_id":"cebpf4jnsgd1na2vs0mg"},{"bike_id":"cd36c563-2066-400a-aeb7-7d2e69a58965","system_id":"levelo_inurba_marseille","lat":43.26681,"lon":5.38264,"is_reserved":false,"is_disabled":false,"rental_uris":{"android":"levelo://app?vid=cd36c563-2066-400a-aeb7-7d2e69a58965","ios":"levelo://app?vid=cd36c563-2066-400a-aeb7-7d2e69a58965"},"vehicle_type_id":"4","last_reported":1726240132,"current_range_meters":38800,"station_id":"ce4bhg92rcd13ifvqf90","pricing_plan_id":"cebpf4jnsgd1na2vs0mg"},{"bike_id":"69d55fab-597a-463e-984f-3b364d624ad4","system_id":"levelo_inurba_marseille","lat":43.290689,"lon":5.371137,"is_reserved":false,"is_disabled":false,"rental_uris":{"android":"levelo://app?vid=69d55fab-597a-463e-984f-3b364d624ad4","ios":"levelo://app?vid=69d55fab-597a-463e-984f-3b364d624ad4"},"vehicle_type_id":"4","last_reported":1726240132,"current_range_meters":9600,"station_id":"ce4bhb12rcd13ifvqem0","pricing_plan_id":"cebpf4jnsgd1na2vs0mg"},{"bike_id":"2963c7ee-a014-4099-8a12-f0a4dd9c2eaa","system_id":"levelo_inurba_marseille","lat":43.29582,"lon":5.36741,"is_reserved":false,"is_disabled":false,"rental_uris":{"android":"levelo://app?vid=2963c7ee-a014-4099-8a12-f0a4dd9c2eaa","ios":"levelo://app?vid=2963c7ee-a014-4099-8a12-f0a4dd9c2eaa"},"vehicle_type_id":"4","last_reported":1726240132,"current_range_meters":20800,"station_id":"ce4bgph2rcd13ifvqc2g","pricing_plan_id":"cebpf4jnsgd1na2vs0mg"},{"bike_id":"b2875d85-0a3a-4d9d-b469-98661aed2432","system_id":"levelo_inurba_marseille","lat":43.28155,"lon":5.42653,"is_reserved":false,"is_disabled":false,"rental_uris":{"android":"levelo://app?vid=b2875d85-0a3a-4d9d-b469-98661aed2432","ios":"levelo://app?vid=b2875d85-0a3a-4d9d-b469-98661aed2432"},"vehicle_type_id":"4","last_reported":1726240132,"current_range_meters":32400,"station_id":"ce4bhnh2rcd13ifvqgug","pricing_plan_id":"cebpf4jnsgd1na2vs0mg"},{"bike_id":"ee3f4c33-e058-48ba-834a-b6efb6b4c176","system_id":"levelo_inurba_marseille","lat":43.290222,"lon":5.386521,"is_reserved":false,"is_disabled":false,"rental_uris":{"android":"levelo://app?vid=ee3f4c33-e058-48ba-834a-b6efb6b4c176","ios":"levelo://app?vid=ee3f4c33-e058-48ba-834a-b6efb6b4c176"},"vehicle_type_id":"4","last_reported":1726240132,"current_range_meters":20000,"station_id":"ce4bh4p2rcd13ifvqe0g","pricing_plan_id":"cebpf4jnsgd1na2vs0mg"},{"bike_id":"894e79ad-f346-4719-ac03-32a4e7d42b40","system_id":"levelo_inurba_marseille","lat":43.26934,"lon":5.38919,"is_reserved":false,"is_disabled":false,"rental_uris":{"android":"levelo://app?vid=894e79ad-f346-4719-ac03-32a4e7d42b40","ios":"levelo://app?vid=894e79ad-f346-4719-ac03-32a4e7d42b40"},"vehicle_type_id":"4","last_reported":1726240132,"current_range_meters":18800,"station_id":"ce4bhhh2rcd13ifvqfl0","pricing_plan_id":"cebpf4jnsgd1na2vs0mg"},{"bike_id":"8375304b-8959-48b9-88d3-f98e6b2b9263","system_id":"levelo_inurba_marseille","lat":43.30184,"lon":5.36615,"is_reserved":false,"is_disabled":false,"rental_uris":{"android":"levelo://app?vid=8375304b-8959-48b9-88d3-f98e6b2b9263","ios":"levelo://app?vid=8375304b-8959-48b9-88d3-f98e6b2b9263"},"vehicle_type_id":"4","last_reported":1726240132,"current_range_meters":24400,"station_id":"ce4bgrh2rcd13ifvqc8g","pricing_plan_id":"cebpf4jnsgd1na2vs0mg"},{"bike_id":"a45a1df7-7bab-45ab-8705-38226200840c","system_id":"levelo_inurba_marseille","lat":43.29871,"lon":5.38907,"is_reserved":false,"is_disabled":false,"rental_uris":{"android":"levelo://app?vid=a45a1df7-7bab-45ab-8705-38226200840c","ios":"levelo://app?vid=a45a1df7-7bab-45ab-8705-38226200840c"},"vehicle_type_id":"4","last_reported":1726240132,"current_range_meters":35200,"station_id":"ce4bh392rcd13ifvqdl0","pricing_plan_id":"cebpf4jnsgd1na2vs0mg"},{"bike_id":"d2cd1f90-89b5-4901-9285-3b0f4664628e","system_id":"levelo_inurba_marseille","lat":43.27316,"lon":5.39076,"is_reserved":false,"is_disabled":false,"rental_uris":{"android":"levelo://app?vid=d2cd1f90-89b5-4901-9285-3b0f4664628e","ios":"levelo://app?vid=d2cd1f90-89b5-4901-9285-3b0f4664628e"},"vehicle_type_id":"4","last_reported":1726240132,"current_range_meters":24000,"station_id":"ce4bhgp2rcd13ifvqfe0","pricing_plan_id":"cebpf4jnsgd1na2vs0mg"},{"bike_id":"bc6f5d67-e5da-4841-a122-d160861ea0ae","system_id":"levelo_inurba_marseille","lat":43.29624,"lon":5.37169,"is_reserved":false,"is_disabled":false,"rental_uris":{"android":"levelo://app?vid=bc6f5d67-e5da-4841-a122-d160861ea0ae","ios":"levelo://app?vid=bc6f5d67-e5da-4841-a122-d160861ea0ae"},"vehicle_type_id":"4","last_reported":1726240132,"current_range_meters":38400,"station_id":"ce4bgnh2rcd13ifvqc0g","pricing_plan_id":"cebpf4jnsgd1na2vs0mg"},{"bike_id":"f20f613d-77b3-4abc-847d-4abd98073b48","system_id":"levelo_inurba_marseille","lat":43.28621,"lon":5.35104,"is_reserved":false,"is_disabled":false,"rental_uris":{"android":"levelo://app?vid=f20f613d-77b3-4abc-847d-4abd98073b48","ios":"levelo://app?vid=f20f613d-77b3-4abc-847d-4abd98073b48"},"vehicle_type_id":"4","last_reported":1726240132,"current_range_meters":30800,"station_id":"ce4bhch2rcd13ifvqeug","pricing_plan_id":"cebpf4jnsgd1na2vs0mg"},{"bike_id":"52ef493d-112f-4c68-8662-3bb1cdb9cb18","system_id":"levelo_inurba_marseille","lat":43.23152,"lon":5.43721,"is_reserved":false,"is_disabled":false,"rental_uris":{"android":"levelo://app?vid=52ef493d-112f-4c68-8662-3bb1cdb9cb18","ios":"levelo://app?vid=52ef493d-112f-4c68-8662-3bb1cdb9cb18"},"vehicle_type_id":"4","last_reported":1726240132,"current_range_meters":34800,"station_id":"ce4bhmp2rcd13ifvqgog","pricing_plan_id":"cebpf4jnsgd1na2vs0mg"},{"bike_id":"57f3470f-3714-42cf-85d1-0d02df45598d","system_id":"levelo_inurba_marseille","lat":43.27499,"lon":5.42452,"is_reserved":false,"is_disabled":false,"rental_uris":{"android":"levelo://app?vid=57f3470f-3714-42cf-85d1-0d02df45598d","ios":"levelo://app?vid=57f3470f-3714-42cf-85d1-0d02df45598d"},"vehicle_type_id":"4","last_reported":1726240132,"current_range_meters":36800,"station_id":"ce4bhn92rcd13ifvqgrg","pricing_plan_id":"cebpf4jnsgd1na2vs0mg"},{"bike_id":"e2a9ef80-b0c6-4e8a-a032-3e6634094c93","system_id":"levelo_inurba_marseille","lat":43.28616,"lon":5.35105,"is_reserved":false,"is_disabled":false,"rental_uris":{"android":"levelo://app?vid=e2a9ef80-b0c6-4e8a-a032-3e6634094c93","ios":"levelo://app?vid=e2a9ef80-b0c6-4e8a-a032-3e6634094c93"},"vehicle_type_id":"4","last_reported":1726240132,"current_range_meters":3600,"station_id":"ce4bhch2rcd13ifvqeug","pricing_plan_id":"cebpf4jnsgd1na2vs0mg"},{"bike_id":"777e8c02-4812-4553-9346-a7a9f60db499","system_id":"levelo_inurba_marseille","lat":43.30421,"lon":5.41286,"is_reserved":false,"is_disabled":false,"rental_uris":{"android":"levelo://app?vid=777e8c02-4812-4553-9346-a7a9f60db499","ios":"levelo://app?vid=777e8c02-4812-4553-9346-a7a9f60db499"},"vehicle_type_id":"4","last_reported":1726240132,"current_range_meters":30000,"station_id":"ce4bhop2rcd13ifvqh8g","pricing_plan_id":"cebpf4jnsgd1na2vs0mg"},{"bike_id":"78a19e14-5ef8-4995-a212-c9c7b2b69636","system_id":"levelo_inurba_marseille","lat":43.30194,"lon":5.36616,"is_reserved":false,"is_disabled":false,"rental_uris":{"android":"levelo://app?vid=78a19e14-5ef8-4995-a212-c9c7b2b69636","ios":"levelo://app?vid=78a19e14-5ef8-4995-a212-c9c7b2b69636"},"vehicle_type_id":"4","last_reported":1726240132,"current_range_meters":28800,"station_id":"ce4bgrh2rcd13ifvqc8g","pricing_plan_id":"cebpf4jnsgd1na2vs0mg"},{"bike_id":"c59cbd5b-78e7-4818-90da-39045820cc09","system_id":"levelo_inurba_marseille","lat":43.29573,"lon":5.39972,"is_reserved":false,"is_disabled":false,"rental_uris":{"android":"levelo://app?vid=c59cbd5b-78e7-4818-90da-39045820cc09","ios":"levelo://app?vid=c59cbd5b-78e7-4818-90da-39045820cc09"},"vehicle_type_id":"4","last_reported":1726240132,"current_range_meters":30400,"station_id":"ce4bh312rcd13ifvqdj0","pricing_plan_id":"cebpf4jnsgd1na2vs0mg"},{"bike_id":"d91b2ce1-75f7-4b47-9670-dd17a0cfcfa7","system_id":"levelo_inurba_marseille","lat":43.24551,"lon":5.39529,"is_reserved":false,"is_disabled":false,"rental_uris":{"android":"levelo://app?vid=d91b2ce1-75f7-4b47-9670-dd17a0cfcfa7","ios":"levelo://app?vid=d91b2ce1-75f7-4b47-9670-dd17a0cfcfa7"},"vehicle_type_id":"4","last_reported":1726240132,"current_range_meters":28800,"station_id":"ce4bhlp2rcd13ifvqgjg","pricing_plan_id":"cebpf4jnsgd1na2vs0mg"},{"bike_id":"b8842ea2-ab2d-4b52-b429-382a81c1a7d1","system_id":"levelo_inurba_marseille","lat":43.27997,"lon":5.40009,"is_reserved":false,"is_disabled":false,"rental_uris":{"android":"levelo://app?vid=b8842ea2-ab2d-4b52-b429-382a81c1a7d1","ios":"levelo://app?vid=b8842ea2-ab2d-4b52-b429-382a81c1a7d1"},"vehicle_type_id":"4","last_reported":1726240132,"current_range_meters":14000,"station_id":"ce4bho92rcd13ifvqh4g","pricing_plan_id":"cebpf4jnsgd1na2vs0mg"},{"bike_id":"32194af3-86e9-4c13-82d6-0103baeea50e","system_id":"levelo_inurba_marseille","lat":43.275698,"lon":5.384385,"is_reserved":false,"is_disabled":false,"rental_uris":{"android":"levelo://app?vid=32194af3-86e9-4c13-82d6-0103baeea50e","ios":"levelo://app?vid=32194af3-86e9-4c13-82d6-0103baeea50e"},"vehicle_type_id":"4","last_reported":1726240132,"current_range_meters":20000,"station_id":"ce4bhh92rcd13ifvqfi0","pricing_plan_id":"cebpf4jnsgd1na2vs0mg"},{"bike_id":"8431cde2-6bab-4b9d-9d3c-38ae873b457e","system_id":"levelo_inurba_marseille","lat":43.24188,"lon":5.39727,"is_reserved":false,"is_disabled":false,"rental_uris":{"android":"levelo://app?vid=8431cde2-6bab-4b9d-9d3c-38ae873b457e","ios":"levelo://app?vid=8431cde2-6bab-4b9d-9d3c-38ae873b457e"},"vehicle_type_id":"4","last_reported":1726240132,"current_range_meters":17200,"station_id":"ce4bhn12rcd13ifvqgpg","pricing_plan_id":"cebpf4jnsgd1na2vs0mg"},{"bike_id":"d1dccf63-de56-45e9-a282-8c949b45e17c","system_id":"levelo_inurba_marseille","lat":43.278208,"lon":5.407173,"is_reserved":false,"is_disabled":false,"rental_uris":{"android":"levelo://app?vid=d1dccf63-de56-45e9-a282-8c949b45e17c","ios":"levelo://app?vid=d1dccf63-de56-45e9-a282-8c949b45e17c"},"vehicle_type_id":"4","last_reported":1726240132,"current_range_meters":29600,"station_id":"ce4bhnh2rcd13ifvqgtg","pricing_plan_id":"cebpf4jnsgd1na2vs0mg"},{"bike_id":"1fbfcef5-5c30-4030-a701-888e9e3dc455","system_id":"levelo_inurba_marseille","lat":43.26933,"lon":5.38914,"is_reserved":false,"is_disabled":false,"rental_uris":{"android":"levelo://app?vid=1fbfcef5-5c30-4030-a701-888e9e3dc455","ios":"levelo://app?vid=1fbfcef5-5c30-4030-a701-888e9e3dc455"},"vehicle_type_id":"4","last_reported":1726240132,"current_range_meters":20400,"station_id":"ce4bhhh2rcd13ifvqfl0","pricing_plan_id":"cebpf4jnsgd1na2vs0mg"},{"bike_id":"f400d370-a20e-4ced-86f0-64f62510749c","system_id":"levelo_inurba_marseille","lat":43.3237,"lon":5.38926,"is_reserved":false,"is_disabled":false,"rental_uris":{"android":"levelo://app?vid=f400d370-a20e-4ced-86f0-64f62510749c","ios":"levelo://app?vid=f400d370-a20e-4ced-86f0-64f62510749c"},"vehicle_type_id":"4","last_reported":1726240132,"current_range_meters":4400,"station_id":"","pricing_plan_id":"cebpf4jnsgd1na2vs0mg"},{"bike_id":"8578940c-55cb-4da5-a5e8-95031a7a0872","system_id":"levelo_inurba_marseille","lat":43.25866,"lon":5.39904,"is_reserved":false,"is_disabled":false,"rental_uris":{"android":"levelo://app?vid=8578940c-55cb-4da5-a5e8-95031a7a0872","ios":"levelo://app?vid=8578940c-55cb-4da5-a5e8-95031a7a0872"},"vehicle_type_id":"4","last_reported":1726240132,"current_range_meters":36000,"station_id":"ce4bhl92rcd13ifvqghg","pricing_plan_id":"cebpf4jnsgd1na2vs0mg"},{"bike_id":"5115cfc7-2f9b-470d-8e05-d689bff19441","system_id":"levelo_inurba_marseille","lat":43.30542,"lon":5.36532,"is_reserved":false,"is_disabled":false,"rental_uris":{"android":"levelo://app?vid=5115cfc7-2f9b-470d-8e05-d689bff19441","ios":"levelo://app?vid=5115cfc7-2f9b-470d-8e05-d689bff19441"},"vehicle_type_id":"4","last_reported":1726240132,"current_range_meters":11200,"station_id":"ce4bgs12rcd13ifvqcag","pricing_plan_id":"cebpf4jnsgd1na2vs0mg"},{"bike_id":"29cde858-91d6-4fe7-8095-73bb300eeeb0","system_id":"levelo_inurba_marseille","lat":43.31754,"lon":5.39006,"is_reserved":false,"is_disabled":false,"rental_uris":{"android":"levelo://app?vid=29cde858-91d6-4fe7-8095-73bb300eeeb0","ios":"levelo://app?vid=29cde858-91d6-4fe7-8095-73bb300eeeb0"},"vehicle_type_id":"4","last_reported":1726240132,"current_range_meters":30800,"station_id":"ce4bhqp2rcd13ifvqhng","pricing_plan_id":"cebpf4jnsgd1na2vs0mg"},{"bike_id":"fc61066f-06d8-4a2f-adcf-8c083d39053f","system_id":"levelo_inurba_marseille","lat":43.25583,"lon":5.38234,"is_reserved":false,"is_disabled":false,"rental_uris":{"android":"levelo://app?vid=fc61066f-06d8-4a2f-adcf-8c083d39053f","ios":"levelo://app?vid=fc61066f-06d8-4a2f-adcf-8c083d39053f"},"vehicle_type_id":"4","last_reported":1726240132,"current_range_meters":12800,"station_id":"ce4bhih2rcd13ifvqfs0","pricing_plan_id":"cebpf4jnsgd1na2vs0mg"},{"bike_id":"c4093f77-0916-42d1-abc4-6d30d46fc212","system_id":"levelo_inurba_marseille","lat":43.29735,"lon":5.37682,"is_reserved":false,"is_disabled":false,"rental_uris":{"android":"levelo://app?vid=c4093f77-0916-42d1-abc4-6d30d46fc212","ios":"levelo://app?vid=c4093f77-0916-42d1-abc4-6d30d46fc212"},"vehicle_type_id":"4","last_reported":1726240132,"current_range_meters":38800,"station_id":"ce4bgkh2rcd13ifvqbl0","pricing_plan_id":"cebpf4jnsgd1na2vs0mg"},{"bike_id":"328d45f9-980e-4811-97c0-47d761861509","system_id":"levelo_inurba_marseille","lat":43.29849,"lon":5.37838,"is_reserved":false,"is_disabled":false,"rental_uris":{"android":"levelo://app?vid=328d45f9-980e-4811-97c0-47d761861509","ios":"levelo://app?vid=328d45f9-980e-4811-97c0-47d761861509"},"vehicle_type_id":"4","last_reported":1726240132,"current_range_meters":36800,"station_id":"ce4bgkh2rcd13ifvqbl0","pricing_plan_id":"cebpf4jnsgd1na2vs0mg"},{"bike_id":"439ce068-90f6-4bff-826e-5c676dfdced2","system_id":"levelo_inurba_marseille","lat":43.23155,"lon":5.43712,"is_reserved":false,"is_disabled":false,"rental_uris":{"android":"levelo://app?vid=439ce068-90f6-4bff-826e-5c676dfdced2","ios":"levelo://app?vid=439ce068-90f6-4bff-826e-5c676dfdced2"},"vehicle_type_id":"4","last_reported":1726240132,"current_range_meters":38800,"station_id":"ce4bhmp2rcd13ifvqgog","pricing_plan_id":"cebpf4jnsgd1na2vs0mg"},{"bike_id":"85647a9a-754b-4dbe-9881-33eec02e99ac","system_id":"levelo_inurba_marseille","lat":43.25012,"lon":5.38928,"is_reserved":false,"is_disabled":false,"rental_uris":{"android":"levelo://app?vid=85647a9a-754b-4dbe-9881-33eec02e99ac","ios":"levelo://app?vid=85647a9a-754b-4dbe-9881-33eec02e99ac"},"vehicle_type_id":"4","last_reported":1726240132,"current_range_meters":31200,"station_id":"ce4bhgp2rcd13ifvqfd0","pricing_plan_id":"cebpf4jnsgd1na2vs0mg"},{"bike_id":"63b79cae-8738-43b3-8da9-ab7ada18a6bc","system_id":"levelo_inurba_marseille","lat":43.31359,"lon":5.38501,"is_reserved":false,"is_disabled":false,"rental_uris":{"android":"levelo://app?vid=63b79cae-8738-43b3-8da9-ab7ada18a6bc","ios":"levelo://app?vid=63b79cae-8738-43b3-8da9-ab7ada18a6bc"},"vehicle_type_id":"4","last_reported":1726240132,"current_range_meters":15200,"station_id":"ce4bgt92rcd13ifvqcf0","pricing_plan_id":"cebpf4jnsgd1na2vs0mg"},{"bike_id":"3aaf23df-ab45-4cad-bb64-d814895b7209","system_id":"levelo_inurba_marseille","lat":43.28442,"lon":5.392075,"is_reserved":false,"is_disabled":false,"rental_uris":{"android":"levelo://app?vid=3aaf23df-ab45-4cad-bb64-d814895b7209","ios":"levelo://app?vid=3aaf23df-ab45-4cad-bb64-d814895b7209"},"vehicle_type_id":"4","last_reported":1726240132,"current_range_meters":14000,"station_id":"ce4bhoh2rcd13ifvqh5g","pricing_plan_id":"cebpf4jnsgd1na2vs0mg"},{"bike_id":"ac974833-bf29-40c5-8b1f-f6a6dac97cf2","system_id":"levelo_inurba_marseille","lat":43.24175,"lon":5.39732,"is_reserved":false,"is_disabled":false,"rental_uris":{"android":"levelo://app?vid=ac974833-bf29-40c5-8b1f-f6a6dac97cf2","ios":"levelo://app?vid=ac974833-bf29-40c5-8b1f-f6a6dac97cf2"},"vehicle_type_id":"4","last_reported":1726240132,"current_range_meters":24000,"station_id":"ce4bhn12rcd13ifvqgpg","pricing_plan_id":"cebpf4jnsgd1na2vs0mg"},{"bike_id":"88037bb2-f14b-40d5-81df-8dd308ab8129","system_id":"levelo_inurba_marseille","lat":43.27426,"lon":5.394,"is_reserved":false,"is_disabled":false,"rental_uris":{"android":"levelo://app?vid=88037bb2-f14b-40d5-81df-8dd308ab8129","ios":"levelo://app?vid=88037bb2-f14b-40d5-81df-8dd308ab8129"},"vehicle_type_id":"4","last_reported":1726240132,"current_range_meters":38800,"station_id":"ce4bhdp2rcd13ifvqf20","pricing_plan_id":"cebpf4jnsgd1na2vs0mg"},{"bike_id":"d33e2940-31d9-4472-93e5-d5bbd5ac177e","system_id":"levelo_inurba_marseille","lat":43.27818,"lon":5.40721,"is_reserved":false,"is_disabled":false,"rental_uris":{"android":"levelo://app?vid=d33e2940-31d9-4472-93e5-d5bbd5ac177e","ios":"levelo://app?vid=d33e2940-31d9-4472-93e5-d5bbd5ac177e"},"vehicle_type_id":"4","last_reported":1726240132,"current_range_meters":27200,"station_id":"ce4bhnh2rcd13ifvqgtg","pricing_plan_id":"cebpf4jnsgd1na2vs0mg"},{"bike_id":"ecdac26d-d372-4ba8-9f12-39c902244768","system_id":"levelo_inurba_marseille","lat":43.231529,"lon":5.437238,"is_reserved":false,"is_disabled":false,"rental_uris":{"android":"levelo://app?vid=ecdac26d-d372-4ba8-9f12-39c902244768","ios":"levelo://app?vid=ecdac26d-d372-4ba8-9f12-39c902244768"},"vehicle_type_id":"4","last_reported":1726240132,"current_range_meters":31200,"station_id":"ce4bhmp2rcd13ifvqgog","pricing_plan_id":"cebpf4jnsgd1na2vs0mg"},{"bike_id":"58d2ae2e-6be8-44fb-a158-9208802b6cf8","system_id":"levelo_inurba_marseille","lat":43.2315,"lon":5.43717,"is_reserved":false,"is_disabled":false,"rental_uris":{"android":"levelo://app?vid=58d2ae2e-6be8-44fb-a158-9208802b6cf8","ios":"levelo://app?vid=58d2ae2e-6be8-44fb-a158-9208802b6cf8"},"vehicle_type_id":"4","last_reported":1726240132,"current_range_meters":30400,"station_id":"ce4bhmp2rcd13ifvqgog","pricing_plan_id":"cebpf4jnsgd1na2vs0mg"},{"bike_id":"d88e7f88-079f-47bc-a221-65511ef4ddc6","system_id":"levelo_inurba_marseille","lat":43.27176,"lon":5.40996,"is_reserved":false,"is_disabled":false,"rental_uris":{"android":"levelo://app?vid=d88e7f88-079f-47bc-a221-65511ef4ddc6","ios":"levelo://app?vid=d88e7f88-079f-47bc-a221-65511ef4ddc6"},"vehicle_type_id":"4","last_reported":1726240132,"current_range_meters":37600,"station_id":"ce4bhl12rcd13ifvqgf0","pricing_plan_id":"cebpf4jnsgd1na2vs0mg"},{"bike_id":"10419694-5aae-4432-9607-cf0c5ae37877","system_id":"levelo_inurba_marseille","lat":43.28863,"lon":5.35845,"is_reserved":false,"is_disabled":false,"rental_uris":{"android":"levelo://app?vid=10419694-5aae-4432-9607-cf0c5ae37877","ios":"levelo://app?vid=10419694-5aae-4432-9607-cf0c5ae37877"},"vehicle_type_id":"4","last_reported":1726240132,"current_range_meters":7200,"station_id":"ce4bhb12rcd13ifvqem0","pricing_plan_id":"cebpf4jnsgd1na2vs0mg"},{"bike_id":"b2f5e160-6301-4e31-9546-2f35d4ad08b9","system_id":"levelo_inurba_marseille","lat":43.24809,"lon":5.37465,"is_reserved":false,"is_disabled":false,"rental_uris":{"android":"levelo://app?vid=b2f5e160-6301-4e31-9546-2f35d4ad08b9","ios":"levelo://app?vid=b2f5e160-6301-4e31-9546-2f35d4ad08b9"},"vehicle_type_id":"4","last_reported":1726240132,"current_range_meters":14800,"station_id":"ce4bhgh2rcd13ifvqfb0","pricing_plan_id":"cebpf4jnsgd1na2vs0mg"},{"bike_id":"26afe759-2001-4462-84aa-106146ecbe64","system_id":"levelo_inurba_marseille","lat":43.25006,"lon":5.38926,"is_reserved":false,"is_disabled":false,"rental_uris":{"android":"levelo://app?vid=26afe759-2001-4462-84aa-106146ecbe64","ios":"levelo://app?vid=26afe759-2001-4462-84aa-106146ecbe64"},"vehicle_type_id":"4","last_reported":1726240132,"current_range_meters":38800,"station_id":"ce4bhgp2rcd13ifvqfd0","pricing_plan_id":"cebpf4jnsgd1na2vs0mg"},