{"last_updated":1741000141,"ttl":60,"version":"2.2","data":{"bikes":[{"bike_id":"79feedda-f181-4666-b735-dd3cfb2d8c0f","system_id":"levelo_inurba_marseille","lat":43.3193,"lon":5.41125,"is_reserved":false,"is_disabled":true,"rental_uris":{"android":"levelo://app?vid=79feedda-f181-4666-b735-dd3cfb2d8c0f","ios":"levelo://app?vid=79feedda-f181-4666-b735-dd3cfb2d8c0f"},"vehicle_type_id":"4","last_reported":1741000141,"current_range_meters":0,"station_id":"","pricing_plan_id":"cebpf4jnsgd1na2vs0mg"},{"bike_id":"d5458f89-73a3-43f1-9894-000389f52995","system_id":"levelo_inurba_marseille","lat":43.27611,"lon":5.41496,"is_reserved":false,"is_disabled":true,"rental_uris":{"android":"levelo://app?vid=d5458f89-73a3-43f1-9894-000389f52995","ios":"levelo://app?vid=d5458f89-73a3-43f1-9894-000389f52995"},"vehicle_type_id":"4","last_reported":1741000141,"current_range_meters":0,"station_id":"","pricing_plan_id":"cebpf4jnsgd1na2vs0mg"},{"bike_id":"5ed974d0-e815-4356-aea9-23a7a86e1688","system_id":"levelo_inurba_marseille","lat":43.27859,"lon":5.40717,"is_reserved":false,"is_disabled":true,"rental_uris":{"android":"levelo://app?vid=5ed974d0-e815-4356-aea9-23a7a86e1688","ios":"levelo://app?vid=5ed974d0-e815-4356-aea9-23a7a86e1688"},"vehicle_type_id":"4","last_reported":1741000141,"current_range_meters":0,"station_id":"","pricing_plan_id":"cebpf4jnsgd1na2vs0mg"},{"bike_id":"afcec8eb-28d8-4889-8879-0897cb5957e3","system_id":"levelo_inurba_marseille","lat":43.27993,"lon":5.40591,"is_reserved":false,"is_disabled":true,"rental_uris":{"android":"levelo://app?vid=afcec8eb-28d8-4889-8879-0897cb5957e3","ios":"levelo://app?vid=afcec8eb-28d8-4889-8879-0897cb5957e3"},"vehicle_type_id":"4","last_reported":1741000141,"current_range_meters":0,"station_id":"","pricing_plan_id":"cebpf4jnsgd1na2vs0mg"},{"bike_id":"7299c7f5-b19a-415a-98fb-92e8f867f54e","system_id":"levelo_inurba_marseille","lat":43.31699,"lon":5.39715,"is_reserved":false,"is_disabled":true,"rental_uris":{"android":"levelo://app?vid=7299c7f5-b19a-415a-98fb-92e8f867f54e","ios":"levelo://app?vid=7299c7f5-b19a-415a-98fb-92e8f867f54e"},"vehicle_type_id":"4","last_reported":1741000141,"current_range_meters":0,"station_id":"","pricing_plan_id":"cebpf4jnsgd1na2vs0mg"},{"bike_id":"6bead628-b45f-47a3-8763-22c7c035af2e","system_id":"levelo_inurba_marseille","lat":43.33205,"lon":5.39837,"is_reserved":false,"is_disabled":true,"rental_uris":{"android":"levelo://app?vid=6bead628-b45f-47a3-8763-22c7c035af2e","ios":"levelo://app?vid=6bead628-b45f-47a3-8763-22c7c035af2e"},"vehicle_type_id":"4","last_reported":1741000141,"current_range_meters":0,"station_id":"","pricing_plan_id":"cebpf4jnsgd1na2vs0mg"},{"bike_id":"0aba857b-44fd-4c08-a47b-aac762062db1","system_id":"levelo_inurba_marseille","lat":43.26893,"lon":5.39348,"is_reserved":false,"is_disabled":true,"rental_uris":{"android":"levelo://app?vid=0aba857b-44fd-4c08-a47b-aac762062db1","ios":"levelo://app?vid=0aba857b-44fd-4c08-a47b-aac762062db1"},"vehicle_type_id":"4","last_reported":1741000141,"current_range_meters":0,"station_id":"","pricing_plan_id":"cebpf4jnsgd1na2vs0mg"},{"bike_id":"d5de36dd-5d22-4765-8f01-09ddd8b02c2e","system_id":"levelo_inurba_marseille","lat":43.33007,"lon":5.40875,"is_reserved":false,"is_disabled":true,"rental_uris":{"android":"levelo://app?vid=d5de36dd-5d22-4765-8f01-09ddd8b02c2e","ios":"levelo://app?vid=d5de36dd-5d22-4765-8f01-09ddd8b02c2e"},"vehicle_type_id":"4","last_reported":1741000141,"current_range_meters":0,"station_id":"","pricing_plan_id":"cebpf4jnsgd1na2vs0mg"},{"bike_id":"789c8af4-8f0b-4447-bef0-06a8e7d83ddb","system_id":"levelo_inurba_marseille","lat":43.30209,"lon":5.36662,"is_reserved":false,"is_disabled":true,"rental_uris":{"android":"levelo://app?vid=789c8af4-8f0b-4447-bef0-06a8e7d83ddb","ios":"levelo://app?vid=789c8af4-8f0b-4447-bef0-06a8e7d83ddb"},"vehicle_type_id":"4","last_reported":1741000141,"current_range_meters":0,"station_id":"ce4bgrh2rcd13ifvqc8g","pricing_plan_id":"cebpf4jnsgd1na2vs0mg"},{"bike_id":"056fe720-fbba-435e-8b6e-1023d90274d9","system_id":"levelo_inurba_marseille","lat":43.30093,"lon":5.39082,"is_reserved":false,"is_disabled":true,"rental_uris":{"android":"levelo://app?vid=056fe720-fbba-435e-8b6e-1023d90274d9","ios":"levelo://app?vid=056fe720-fbba-435e-8b6e-1023d90274d9"},"vehicle_type_id":"4","last_reported":1741000141,"current_range_meters":0,"station_id":"ce4bh192rcd13ifvqdb0","pricing_plan_id":"cebpf4jnsgd1na2vs0mg"},{"bike_id":"7661d539-bffb-44cc-a64d-67a8684941c2","system_id":"levelo_inurba_marseille","lat":43.26032,"lon":5.37554,"is_reserved":false,"is_disabled":true,"rental_uris":{"android":"levelo://app?vid=7661d539-bffb-44cc-a64d-67a8684941c2","ios":"levelo://app?vid=7661d539-bffb-44cc-a64d-67a8684941c2"},"vehicle_type_id":"4","last_reported":1741000141,"current_range_meters":0,"station_id":"ce4bhgh2rcd13ifvqfa0","pricing_plan_id":"cebpf4jnsgd1na2vs0mg"},{"bike_id":"2f91dc2e-9bfe-4b4b-9407-d984fd8ccf1f","system_id":"levelo_inurba_marseille","lat":43.2316,"lon":5.43708,"is_reserved":false,"is_disabled":true,"rental_uris":{"android":"levelo://app?vid=2f91dc2e-9bfe-4b4b-9407-d984fd8ccf1f","ios":"levelo://app?vid=2f91dc2e-9bfe-4b4b-9407-d984fd8ccf1f"},"vehicle_type_id":"4","last_reported":1741000141,"current_range_meters":0,"station_id":"ce4bhmp2rcd13ifvqgog","pricing_plan_id":"cebpf4jnsgd1na2vs0mg"},{"bike_id":"757eba66-4149-42bd-b948-108e047a6ee8","system_id":"levelo_inurba_marseille","lat":43.23152,"lon":5.43703,"is_reserved":false,"is_disabled":true,"rental_uris":{"android":"levelo://app?vid=757eba66-4149-42bd-b948-108e047a6ee8","ios":"levelo://app?vid=757eba66-4149-42bd-b948-108e047a6ee8"},"vehicle_type_id":"4","last_reported":1741000141,"current_range_meters":0,"station_id":"ce4bhmp2rcd13ifvqgog","pricing_plan_id":"cebpf4jnsgd1na2vs0mg"},{"bike_id":"28f34d60-4464-4cd7-a2b7-feed8edfc586","system_id":"levelo_inurba_marseille","lat":43.27492,"lon":5.42452,"is_reserved":false,"is_disabled":true,"rental_uris":{"android":"levelo://app?vid=28f34d60-4464-4cd7-a2b7-feed8edfc586","ios":"levelo://app?vid=28f34d60-4464-4cd7-a2b7-feed8edfc586"},"vehicle_type_id":"4","last_reported":1741000141,"current_range_meters":0,"station_id":"ce4bhn92rcd13ifvqgrg","pricing_plan_id":"cebpf4jnsgd1na2vs0mg"},{"bike_id":"d7ee2a0c-5521-43cd-b5d8-51146eb86d00","system_id":"levelo_inurba_marseille","lat":43.28162,"lon":5.4264,"is_reserved":false,"is_disabled":true,"rental_uris":{"android":"levelo://app?vid=d7ee2a0c-5521-43cd-b5d8-51146eb86d00","ios":"levelo://app?vid=d7ee2a0c-5521-43cd-b5d8-51146eb86d00"},"vehicle_type_id":"4","last_reported":1741000141,"current_range_meters":0,"station_id":"ce4bhnh2rcd13ifvqgug","pricing_plan_id":"cebpf4jnsgd1na2vs0mg"},{"bike_id":"2b3ffbed-53e1-4abd-aef4-e1ad79b4146a","system_id":"levelo_inurba_marseille","lat":43.27937,"lon":5.41054,"is_reserved":false,"is_disabled":true,"rental_uris":{"android":"levelo://app?vid=2b3ffbed-53e1-4abd-aef4-e1ad79b4146a","ios":"levelo://app?vid=2b3ffbed-53e1-4abd-aef4-e1ad79b4146a"},"vehicle_type_id":"4","last_reported":1741000141,"current_range_meters":0,"station_id":"ce4bhnp2rcd13ifvqh0g","pricing_plan_id":"cebpf4jnsgd1na2vs0mg"},{"bike_id":"bfdffacc-57e7-4b26-ac88-982817e70f42","system_id":"levelo_inurba_marseille","lat":43.32385,"lon":5.38874,"is_reserved":false,"is_disabled":true,"rental_uris":{"android":"levelo://app?vid=bfdffacc-57e7-4b26-ac88-982817e70f42","ios":"levelo://app?vid=bfdffacc-57e7-4b26-ac88-982817e70f42"},"vehicle_type_id":"4","last_reported":1741000141,"current_range_meters":0,"station_id":"ce4bhqp2rcd13ifvqhog","pricing_plan_id":"cebpf4jnsgd1na2vs0mg"},{"bike_id":"21762d5f-08a9-43d5-a2a2-f08660ddcc46","system_id":"levelo_inurba_marseille","lat":43.23072,"lon":5.35504,"is_reserved":false,"is_disabled":true,"rental_uris":{"android":"levelo://app?vid=21762d5f-08a9-43d5-a2a2-f08660ddcc46","ios":"levelo://app?vid=21762d5f-08a9-43d5-a2a2-f08660ddcc46"},"vehicle_type_id":"4","last_reported":1741000141,"current_range_meters":0,"station_id":"cpo3342slgdg3j2ifvpg","pricing_plan_id":"cebpf4jnsgd1na2vs0mg"},{"bike_id":"613e3526-b6a4-409f-b980-9e4eb31ee1fd","system_id":"levelo_inurba_marseille","lat":43.23059,"lon":5.3549,"is_reserved":false,"is_disabled":true,"rental_uris":{"android":"levelo://app?vid=613e3526-b6a4-409f-b980-9e4eb31ee1fd","ios":"levelo://app?vid=613e3526-b6a4-409f-b980-9e4eb31ee1fd"},"vehicle_type_id":"4","last_reported":1741000141,"current_range_meters":0,"station_id":"cpo3342slgdg3j2ifvpg","pricing_plan_id":"cebpf4jnsgd1na2vs0mg"},{"bike_id":"d81b2cc8-fb23-4c08-9ddd-89d546b76a90","system_id":"levelo_inurba_marseille","lat":43.32507,"lon":5.38603,"is_reserved":false,"is_disabled":true,"rental_uris":{"android":"levelo://app?vid=d81b2cc8-fb23-4c08-9ddd-89d546b76a90","ios":"levelo://app?vid=d81b2cc8-fb23-4c08-9ddd-89d546b76a90"},"vehicle_type_id":"4","last_reported":1741000141,"current_range_meters":400,"station_id":"","pricing_plan_id":"cebpf4jnsgd1na2vs0mg"},{"bike_id":"05efb80a-a1a5-4b4d-8733-2780fddf4e5b","system_id":"levelo_inurba_marseille","lat":43.28057,"lon":5.40791,"is_reserved":false,"is_disabled":true,"rental_uris":{"android":"levelo://app?vid=05efb80a-a1a5-4b4d-8733-2780fddf4e5b","ios":"levelo://app?vid=05efb80a-a1a5-4b4d-8733-2780fddf4e5b"},"vehicle_type_id":"4","last_reported":1741000141,"current_range_meters":400,"station_id":"","pricing_plan_id":"cebpf4jnsgd1na2vs0mg"},{"bike_id":"27b7843e-3934-44bc-8565-42c1b5629bf5","system_id":"levelo_inurba_marseille","lat":43.27071,"lon":5.42277,"is_reserved":false,"is_disabled":true,"rental_uris":{"android":"levelo://app?vid=27b7843e-3934-44bc-8565-42c1b5629bf5","ios":"levelo://app?vid=27b7843e-3934-44bc-8565-42c1b5629bf5"},"vehicle_type_id":"4","last_reported":1741000141,"current_range_meters":800,"station_id":"ce4bhk92rcd13ifvqgb0","pricing_plan_id":"cebpf4jnsgd1na2vs0mg"},{"bike_id":"b009fe55-4d59-4f52-910b-e497dc53dfe6","system_id":"levelo_inurba_marseille","lat":43.23169,"lon":5.43701,"is_reserved":false,"is_disabled":true,"rental_uris":{"android":"levelo://app?vid=b009fe55-4d59-4f52-910b-e497dc53dfe6","ios":"levelo://app?vid=b009fe55-4d59-4f52-910b-e497dc53dfe6"},"vehicle_type_id":"4","last_reported":1741000141,"current_range_meters":800,"station_id":"ce4bhmp2rcd13ifvqgog","pricing_plan_id":"cebpf4jnsgd1na2vs0mg"},{"bike_id":"318e62ec-c992-4c2f-8ce0-cf60457d06ba","system_id":"levelo_inurba_marseille","lat":43.21782,"lon":5.34626,"is_reserved":false,"is_disabled":true,"rental_uris":{"android":"levelo://app?vid=318e62ec-c992-4c2f-8ce0-cf60457d06ba","ios":"levelo://app?vid=318e62ec-c992-4c2f-8ce0-cf60457d06ba"},"vehicle_type_id":"4","last_reported":1741000141,"current_range_meters":1200,"station_id":"","pricing_plan_id":"cebpf4jnsgd1na2vs0mg"},{"bike_id":"d5f3545a-d7d3-4bdb-b9ca-af46e105f623","system_id":"levelo_inurba_marseille","lat":43.27427,"lon":5.39372,"is_reserved":false,"is_disabled":true,"rental_uris":{"android":"levelo://app?vid=d5f3545a-d7d3-4bdb-b9ca-af46e105f623","ios":"levelo://app?vid=d5f3545a-d7d3-4bdb-b9ca-af46e105f623"},"vehicle_type_id":"4","last_reported":1741000141,"current_range_meters":1200,"station_id":"ce4bhdp2rcd13ifvqf20","pricing_plan_id":"cebpf4jnsgd1na2vs0mg"},{"bike_id":"cae47438-eddb-4ea7-ad60-e45ef1cce088","system_id":"levelo_inurba_marseille","lat":43.3253,"lon":5.41432,"is_reserved":false,"is_disabled":true,"rental_uris":{"android":"levelo://app?vid=cae47438-eddb-4ea7-ad60-e45ef1cce088","ios":"levelo://app?vid=cae47438-eddb-4ea7-ad60-e45ef1cce088"},"vehicle_type_id":"4","last_reported":1741000141,"current_range_meters":1200,"station_id":"ce4bhq12rcd13ifvqhhg","pricing_plan_id":"cebpf4jnsgd1na2vs0mg"},{"bike_id":"7975bf2e-3940-4d61-af33-364d38f4d9f7","system_id":"levelo_inurba_marseille","lat":43.30096,"lon":5.39071,"is_reserved":false,"is_disabled":false,"rental_uris":{"android":"levelo://app?vid=7975bf2e-3940-4d61-af33-364d38f4d9f7","ios":"levelo://app?vid=7975bf2e-3940-4d61-af33-364d38f4d9f7"},"vehicle_type_id":"4","last_reported":1741000141,"current_range_meters":2800,"station_id":"ce4bh192rcd13ifvqdb0","pricing_plan_id":"cebpf4jnsgd1na2vs0mg"},{"bike_id":"b87c0fcc-589e-4306-b237-4b54a317d895","system_id":"levelo_inurba_marseille","lat":43.23969,"lon":5.36629,"is_reserved":false,"is_disabled":false,"rental_uris":{"android":"levelo://app?vid=b87c0fcc-589e-4306-b237-4b54a317d895","ios":"levelo://app?vid=b87c0fcc-589e-4306-b237-4b54a317d895"},"vehicle_type_id":"4","last_reported":1741000141,"current_range_meters":2800,"station_id":"ce4bhi12rcd13ifvqfp0","pricing_plan_id":"cebpf4jnsgd1na2vs0mg"},{"bike_id":"55a1ef90-8e03-4d66-a511-1cff29e70999","system_id":"levelo_inurba_marseille","lat":43.25498,"lon":5.37651,"is_reserved":false,"is_disabled":false,"rental_uris":{"android":"levelo://app?vid=55a1ef90-8e03-4d66-a511-1cff29e70999","ios":"levelo://app?vid=55a1ef90-8e03-4d66-a511-1cff29e70999"},"vehicle_type_id":"4","last_reported":1741000141,"current_range_meters":3200,"station_id":"ce4bhh12rcd13ifvqff0","pricing_plan_id":"cebpf4jnsgd1na2vs0mg"},{"bike_id":"8dae6813-5d96-47e2-a473-cd2b9c3d47d2","system_id":"levelo_inurba_marseille","lat":43.31885,"lon":5.40739,"is_reserved":false,"is_disabled":false,"rental_uris":{"android":"levelo://app?vid=8dae6813-5d96-47e2-a473-cd2b9c3d47d2","ios":"levelo://app?vid=8dae6813-5d96-47e2-a473-cd2b9c3d47d2"},"vehicle_type_id":"4","last_reported":1741000141,"current_range_meters":4000,"station_id":"ce4bhq12rcd13ifvqhig","pricing_plan_id":"cebpf4jnsgd1na2vs0mg"},{"bike_id":"eafe4694-db55-4cde-85aa-971c3787bde8","system_id":"levelo_inurba_marseille","lat":43.24158,"lon":5.3641,"is_reserved":false,"is_disabled":false,"rental_uris":{"android":"levelo://app?vid=eafe4694-db55-4cde-85aa-971c3787bde8","ios":"levelo://app?vid=eafe4694-db55-4cde-85aa-971c3787bde8"},"vehicle_type_id":"4","last_reported":1741000141,"current_range_meters":4800,"station_id":"cpo36qri1sfpv3e86is0","pricing_plan_id":"cebpf4jnsgd1na2vs0mg"},{"bike_id":"97e8d4c3-f9a5-4604-95d3-9a0f93d23194","system_id":"levelo_inurba_marseille","lat":43.2918,"lon":5.40931,"is_reserved":false,"is_disabled":false,"rental_uris":{"android":"levelo://app?vid=97e8d4c3-f9a5-4604-95d3-9a0f93d23194","ios":"levelo://app?vid=97e8d4c3-f9a5-4604-95d3-9a0f93d23194"},"vehicle_type_id":"4","last_reported":1741000141,"current_range_meters":6000,"station_id":"","pricing_plan_id":"cebpf4jnsgd1na2vs0mg"},{"bike_id":"3cbb5843-7d6f-4ab1-8221-c879ecca96e4","system_id":"levelo_inurba_marseille","lat":43.32708,"lon":5.36264,"is_reserved":false,"is_disabled":false,"rental_uris":{"android":"levelo://app?vid=3cbb5843-7d6f-4ab1-8221-c879ecca96e4","ios":"levelo://app?vid=3cbb5843-7d6f-4ab1-8221-c879ecca96e4"},"vehicle_type_id":"4","last_reported":1741000141,"current_range_meters":6000,"station_id":"","pricing_plan_id":"cebpf4jnsgd1na2vs0mg"},{"bike_id":"822ba722-c0d0-4cc1-831a-ec528db99bbb","system_id":"levelo_inurba_marseille","lat":43.25015,"lon":5.38919,"is_reserved":false,"is_disabled":false,"rental_uris":{"android":"levelo://app?vid=822ba722-c0d0-4cc1-831a-ec528db99bbb","ios":"levelo://app?vid=822ba722-c0d0-4cc1-831a-ec528db99bbb"},"vehicle_type_id":"4","last_reported":1741000141,"current_range_meters":6000,"station_id":"ce4bhgp2rcd13ifvqfd0","pricing_plan_id":"cebpf4jnsgd1na2vs0mg"},{"bike_id":"c4631532-3f68-4434-8cfb-0fbafa323a5d","system_id":"levelo_inurba_marseille","lat":43.2465,"lon":5.38174,"is_reserved":false,"is_disabled":false,"rental_uris":{"android":"levelo://app?vid=c4631532-3f68-4434-8cfb-0fbafa323a5d","ios":"levelo://app?vid=c4631532-3f68-4434-8cfb-0fbafa323a5d"},"vehicle_type_id":"4","last_reported":1741000141,"current_range_meters":6000,"station_id":"ce4bhih2rcd13ifvqfr0","pricing_plan_id":"cebpf4jnsgd1na2vs0mg"},{"bike_id":"7f47d482-09e6-40be-bf28-f1af69f2fc72","system_id":"levelo_inurba_marseille","lat":43.24075,"lon":5.37715,"is_reserved":false,"is_disabled":false,"rental_uris":{"android":"levelo://app?vid=7f47d482-09e6-40be-bf28-f1af69f2fc72","ios":"levelo://app?vid=7f47d482-09e6-40be-bf28-f1af69f2fc72"},"vehicle_type_id":"4","last_reported":1741000141,"current_range_meters":6000,"station_id":"ce4bhnp2rcd13ifvqgvg","pricing_plan_id":"cebpf4jnsgd1na2vs0mg"},{"bike_id":"7e57feb3-b099-4928-a843-4bcc80e172de","system_id":"levelo_inurba_marseille","lat":43.336,"lon":5.41009,"is_reserved":false,"is_disabled":false,"rental_uris":{"android":"levelo://app?vid=7e57feb3-b099-4928-a843-4bcc80e172de","ios":"levelo://app?vid=7e57feb3-b099-4928-a843-4bcc80e172de"},"vehicle_type_id":"4","last_reported":1741000141,"current_range_meters":6000,"station_id":"ce4bhqh2rcd13ifvqhmg","pricing_plan_id":"cebpf4jnsgd1na2vs0mg"},{"bike_id":"166ed55d-674e-4fe2-a52c-516e3c8e917a","system_id":"levelo_inurba_marseille","lat":43.30257,"lon":5.40075,"is_reserved":false,"is_disabled":false,"rental_uris":{"android":"levelo://app?vid=166ed55d-674e-4fe2-a52c-516e3c8e917a","ios":"levelo://app?vid=166ed55d-674e-4fe2-a52c-516e3c8e917a"},"vehicle_type_id":"4","last_reported":1741000141,"current_range_meters":6400,"station_id":"ce4bgvh2rcd13ifvqcs0","pricing_plan_id":"cebpf4jnsgd1na2vs0mg"},{"bike_id":"97d6055a-227d-43fa-838a-acb3e683329f","system_id":"levelo_inurba_marseille","lat":43.30427,"lon":5.39739,"is_reserved":false,"is_disabled":false,"rental_uris":{"android":"levelo://app?vid=97d6055a-227d-43fa-838a-acb3e683329f","ios":"levelo://app?vid=97d6055a-227d-43fa-838a-acb3e683329f"},"vehicle_type_id":"4","last_reported":1741000141,"current_range_meters":6400,"station_id":"ce4bh092rcd13ifvqd20","pricing_plan_id":"cebpf4jnsgd1na2vs0mg"},{"bike_id":"926c1bda-983c-4a02-8b9b-c145d55d3b98","system_id":"levelo_inurba_marseille","lat":43.24092,"lon":5.37744,"is_reserved":false,"is_disabled":false,"rental_uris":{"android":"levelo://app?vid=926c1bda-983c-4a02-8b9b-c145d55d3b98","ios":"levelo://app?vid=926c1bda-983c-4a02-8b9b-c145d55d3b98"},"vehicle_type_id":"4","last_reported":1741000141,"current_range_meters":6400,"station_id":"ce4bhnp2rcd13ifvqgvg","pricing_plan_id":"cebpf4jnsgd1na2vs0mg"},{"bike_id":"0693b9d6-4a9d-4e38-bfa2-80f934bcc2e3","system_id":"levelo_inurba_marseille","lat":43.24162,"lon":5.36401,"is_reserved":false,"is_disabled":false,"rental_uris":{"android":"levelo://app?vid=0693b9d6-4a9d-4e38-bfa2-80f934bcc2e3","ios":"levelo://app?vid=0693b9d6-4a9d-4e38-bfa2-80f934bcc2e3"},"vehicle_type_id":"4","last_reported":1741000141,"current_range_meters":6400,"station_id":"cpo36qri1sfpv3e86is0","pricing_plan_id":"cebpf4jnsgd1na2vs0mg"},{"bike_id":"9a2448ef-ed82-456c-830e-124af05c344c","system_id":"levelo_inurba_marseille","lat":43.30301,"lon":5.36895,"is_reserved":false,"is_disabled":false,"rental_uris":{"android":"levelo://app?vid=9a2448ef-ed82-456c-830e-124af05c344c","ios":"levelo://app?vid=9a2448ef-ed82-456c-830e-124af05c344c"},"vehicle_type_id":"4","last_reported":1741000141,"current_range_meters":6800,"station_id":"ce4bgqh2rcd13ifvqc5g","pricing_plan_id":"cebpf4jnsgd1na2vs0mg"},{"bike_id":"f9ccfbef-79ff-49a8-9a80-e5768beda111","system_id":"levelo_inurba_marseille","lat":43.30554,"lon":5.36556,"is_reserved":false,"is_disabled":false,"rental_uris":{"android":"levelo://app?vid=f9ccfbef-79ff-49a8-9a80-e5768beda111","ios":"levelo://app?vid=f9ccfbef-79ff-49a8-9a80-e5768beda111"},"vehicle_type_id":"4","last_reported":1741000141,"current_range_meters":6800,"station_id":"ce4bgs12rcd13ifvqcag","pricing_plan_id":"cebpf4jnsgd1na2vs0mg"},{"bike_id":"7eba43a7-8e2c-49b9-a472-5d1908d08c6d","system_id":"levelo_inurba_marseille","lat":43.25143,"lon":5.40312,"is_reserved":false,"is_disabled":false,"rental_uris":{"android":"levelo://app?vid=7eba43a7-8e2c-49b9-a472-5d1908d08c6d","ios":"levelo://app?vid=7eba43a7-8e2c-49b9-a472-5d1908d08c6d"},"vehicle_type_id":"4","last_reported":1741000141,"current_range_meters":6800,"station_id":"ce4bhlh2rcd13ifvqgig","pricing_plan_id":"cebpf4jnsgd1na2vs0mg"},{"bike_id":"3cf66c9d-78c4-4298-b6dd-d8495231a0ae","system_id":"levelo_inurba_marseille","lat":43.23192,"lon":5.35553,"is_reserved":false,"is_disabled":false,"rental_uris":{"android":"levelo://app?vid=3cf66c9d-78c4-4298-b6dd-d8495231a0ae","ios":"levelo://app?vid=3cf66c9d-78c4-4298-b6dd-d8495231a0ae"},"vehicle_type_id":"4","last_reported":1741000141,"current_range_meters":6800,"station_id":"ce4bhu92rcd13ifvqi70","pricing_plan_id":"cebpf4jnsgd1na2vs0mg"},{"bike_id":"23e5926c-db83-4f6a-a899-d46a4064205b","system_id":"levelo_inurba_marseille","lat":43.29312,"lon":5.37173,"is_reserved":false,"is_disabled":false,"rental_uris":{"android":"levelo://app?vid=23e5926c-db83-4f6a-a899-d46a4064205b","ios":"levelo://app?vid=23e5926c-db83-4f6a-a899-d46a4064205b"},"vehicle_type_id":"4","last_reported":1741000141,"current_range_meters":7200,"station_id":"ce4bgh92rcd13ifvqb40","pricing_plan_id":"cebpf4jnsgd1na2vs0mg"},{"bike_id":"45c63551-ba7c-402b-ae67-a6020c30c5c0","system_id":"levelo_inurba_marseille","lat":43.31225,"lon":5.36857,"is_reserved":false,"is_disabled":false,"rental_uris":{"android":"levelo://app?vid=45c63551-ba7c-402b-ae67-a6020c30c5c0","ios":"levelo://app?vid=45c63551-ba7c-402b-ae67-a6020c30c5c0"},"vehicle_type_id":"4","last_reported":1741000141,"current_range_meters":7200,"station_id":"ce4bgl92rcd13ifvqbq0","pricing_plan_id":"cebpf4jnsgd1na2vs0mg"},{"bike_id":"5cd98d5c-b597-439a-af43-27202e065720","system_id":"levelo_inurba_marseille","lat":43.29855,"lon":5.36285,"is_reserved":false,"is_disabled":false,"rental_uris":{"android":"levelo://app?vid=5cd98d5c-b597-439a-af43-27202e065720","ios":"levelo://app?vid=5cd98d5c-b597-439a-af43-27202e065720"},"vehicle_type_id":"4","last_reported":1741000141,"current_range_meters":7200,"station_id":"ce4bgpp2rcd13ifvqc3g","pricing_plan_id":"cebpf4jnsgd1na2vs0mg"},{"bike_id":"659f9072-0df2-4e68-831d-c46b9e5315f4","system_id":"levelo_inurba_marseille","lat":43.27208,"lon":5.39181,"is_reserved":false,"is_disabled":false,"rental_uris":{"android":"levelo://app?vid=659f9072-0df2-4e68-831d-c46b9e5315f4","ios":"levelo://app?vid=659f9072-0df2-4e68-831d-c46b9e5315f4"},"vehicle_type_id":"4","last_reported":1741000141,"current_range_meters":7200,"station_id":"ce4bhhp2rcd13ifvqfm0","pricing_plan_id":"cebpf4jnsgd1na2vs0mg"},{"bike_id":"0ae26234-8d13-496b-85ef-ee7fcde2c590","system_id":"levelo_inurba_marseille","lat":43.24088,"lon":5.37726,"is_reserved":false,"is_disabled":false,"rental_uris":{"android":"levelo://app?vid=0ae26234-8d13-496b-85ef-ee7fcde2c590","ios":"levelo://app?vid=0ae26234-8d13-496b-85ef-ee7fcde2c590"},"vehicle_type_id":"4","last_reported":1741000141,"current_range_meters":7200,"station_id":"ce4bhnp2rcd13ifvqgvg","pricing_plan_id":"cebpf4jnsgd1na2vs0mg"},{"bike_id":"932a3899-2128-4dc9-85e7-90d84891eaea","system_id":"levelo_inurba_marseille","lat":43.28116,"lon":5.39906,"is_reserved":false,"is_disabled":false,"rental_uris":{"android":"levelo://app?vid=932a3899-2128-4dc9-85e7-90d84891eaea","ios":"levelo://app?vid=932a3899-2128-4dc9-85e7-90d84891eaea"},"vehicle_type_id":"4","last_reported":1741000141,"current_range_meters":8000,"station_id":"","pricing_plan_id":"cebpf4jnsgd1na2vs0mg"},{"bike_id":"d2d07d98-2d21-485e-9109-47a64ede7e52","system_id":"levelo_inurba_marseille","lat":43.28107,"lon":5.37846,"is_reserved":false,"is_disabled":false,"rental_uris":{"android":"levelo://app?vid=d2d07d98-2d21-485e-9109-47a64ede7e52","ios":"levelo://app?vid=d2d07d98-2d21-485e-9109-47a64ede7e52"},"vehicle_type_id":"4","last_reported":1741000141,"current_range_meters":8000,"station_id":"ce4bha12rcd13ifvqee0","pricing_plan_id":"cebpf4jnsgd1na2vs0mg"},{"bike_id":"25df8132-4386-4da2-bc35-759c58bda8ec","system_id":"levelo_inurba_marseille","lat":43.26551,"lon":5.39019,"is_reserved":false,"is_disabled":false,"rental_uris":{"android":"levelo://app?vid=25df8132-4386-4da2-bc35-759c58bda8ec","ios":"levelo://app?vid=25df8132-4386-4da2-bc35-759c58bda8ec"},"vehicle_type_id":"4","last_reported":1741000141,"current_range_meters":8000,"station_id":"ce4bhe12rcd13ifvqf30","pricing_plan_id":"cebpf4jnsgd1na2vs0mg"},{"bike_id":"d7e4b643-f4bb-4858-b99e-1e809ea6bd9a","system_id":"levelo_inurba_marseille","lat":43.24398,"lon":5.37065,"is_reserved":false,"is_disabled":false,"rental_uris":{"android":"levelo://app?vid=d7e4b643-f4bb-4858-b99e-1e809ea6bd9a","ios":"levelo://app?vid=d7e4b643-f4bb-4858-b99e-1e809ea6bd9a"},"vehicle_type_id":"4","last_reported":1741000141,"current_range_meters":8000,"station_id":"ce4bhhh2rcd13ifvqfk0","pricing_plan_id":"cebpf4jnsgd1na2vs0mg"},{"bike_id":"7c4be158-4b98-4ffa-8fd3-45ef392532d1","system_id":"levelo_inurba_marseille","lat":43.23148,"lon":5.43723,"is_reserved":false,"is_disabled":false,"rental_uris":{"android":"levelo://app?vid=7c4be158-4b98-4ffa-8fd3-45ef392532d1","ios":"levelo://app?vid=7c4be158-4b98-4ffa-8fd3-45ef392532d1"},"vehicle_type_id":"4","last_reported":1741000141,"current_range_meters":8000,"station_id":"ce4bhmp2rcd13ifvqgog","pricing_plan_id":"cebpf4jnsgd1na2vs0mg"},{"bike_id":"1d3c7fd7-b709-4008-8e9f-a0f764fe60d9","system_id":"levelo_inurba_marseille","lat":43.28295,"lon":5.38575,"is_reserved":false,"is_disabled":false,"rental_uris":{"android":"levelo://app?vid=1d3c7fd7-b709-4008-8e9f-a0f764fe60d9","ios":"levelo://app?vid=1d3c7fd7-b709-4008-8e9f-a0f764fe60d9"},"vehicle_type_id":"4","last_reported":1741000141,"current_range_meters":8400,"station_id":"","pricing_plan_id":"cebpf4jnsgd1na2vs0mg"},{"bike_id":"b697f903-9efa-4e6e-92e5-f941f495a2a9","system_id":"levelo_inurba_marseille","lat":43.31328,"lon":5.39702,"is_reserved":false,"is_disabled":false,"rental_uris":{"android":"levelo://app?vid=b697f903-9efa-4e6e-92e5-f941f495a2a9","ios":"levelo://app?vid=b697f903-9efa-4e6e-92e5-f941f495a2a9"},"vehicle_type_id":"4","last_reported":1741000141,"current_range_meters":8400,"station_id":"ce4bgvp2rcd13ifvqcu0","pricing_plan_id":"cebpf4jnsgd1na2vs0mg"},{"bike_id":"af350208-3c28-4e16-a32b-71d85c9a5000","system_id":"levelo_inurba_marseille","lat":43.26683,"lon":5.38267,"is_reserved":false,"is_disabled":false,"rental_uris":{"android":"levelo://app?vid=af350208-3c28-4e16-a32b-71d85c9a5000","ios":"levelo://app?vid=af350208-3c28-4e16-a32b-71d85c9a5000"},"vehicle_type_id":"4","last_reported":1741000141,"current_range_meters":8400,"station_id":"ce4bhg92rcd13ifvqf90","pricing_plan_id":"cebpf4jnsgd1na2vs0mg"},{"bike_id":"95bb5a60-e338-4ea7-a971-63dccfeeec35","system_id":"levelo_inurba_marseille","lat":43.25833,"lon":5.39414,"is_reserved":false,"is_disabled":false,"rental_uris":{"android":"levelo://app?vid=95bb5a60-e338-4ea7-a971-63dccfeeec35","ios":"levelo://app?vid=95bb5a60-e338-4ea7-a971-63dccfeeec35"},"vehicle_type_id":"4","last_reported":1741000141,"current_range_meters":8400,"station_id":"ce4bhip2rcd13ifvqft0","pricing_plan_id":"cebpf4jnsgd1na2vs0mg"},{"bike_id":"470a2095-f30d-4e3d-8d9b-faf2ab63b772","system_id":"levelo_inurba_marseille","lat":43.24172,"lon":5.39731,"is_reserved":false,"is_disabled":false,"rental_uris":{"android":"levelo://app?vid=470a2095-f30d-4e3d-8d9b-faf2ab63b772","ios":"levelo://app?vid=470a2095-f30d-4e3d-8d9b-faf2ab63b772"},"vehicle_type_id":"4","last_reported":1741000141,"current_range_meters":8400,"station_id":"ce4bhn12rcd13ifvqgpg","pricing_plan_id":"cebpf4jnsgd1na2vs0mg"},{"bike_id":"4178758f-5fb6-4574-a559-1de008b66805","system_id":"levelo_inurba_marseille","lat":43.27847,"lon":5.40696,"is_reserved":false,"is_disabled":false,"rental_uris":{"android":"levelo://app?vid=4178758f-5fb6-4574-a559-1de008b66805","ios":"levelo://app?vid=4178758f-5fb6-4574-a559-1de008b66805"},"vehicle_type_id":"4","last_reported":1741000141,"current_range_meters":8400,"station_id":"ce4bhnh2rcd13ifvqgtg","pricing_plan_id":"cebpf4jnsgd1na2vs0mg"},{"bike_id":"0677b421-a0e9-4507-94d0-59c61f133610","system_id":"levelo_inurba_marseille","lat":43.24095,"lon":5.37751,"is_reserved":false,"is_disabled":false,"rental_uris":{"android":"levelo://app?vid=0677b421-a0e9-4507-94d0-59c61f133610","ios":"levelo://app?vid=0677b421-a0e9-4507-94d0-59c61f133610"},"vehicle_type_id":"4","last_reported":1741000141,"current_range_meters":8400,"station_id":"ce4bhnp2rcd13ifvqgvg","pricing_plan_id":"cebpf4jnsgd1na2vs0mg"},{"bike_id":"7e3aaf23-4e05-447e-be3d-119728910ab6","system_id":"levelo_inurba_marseille","lat":43.3112,"lon":5.36752,"is_reserved":false,"is_disabled":false,"rental_uris":{"android":"levelo://app?vid=7e3aaf23-4e05-447e-be3d-119728910ab6","ios":"levelo://app?vid=7e3aaf23-4e05-447e-be3d-119728910ab6"},"vehicle_type_id":"4","last_reported":1741000141,"current_range_meters":8800,"station_id":"","pricing_plan_id":"cebpf4jnsgd1na2vs0mg"},{"bike_id":"88d09cbc-1497-4fea-99b9-c1fe29ff58f0","system_id":"levelo_inurba_marseille","lat":43.28081,"lon":5.36638,"is_reserved":false,"is_disabled":false,"rental_uris":{"android":"levelo://app?vid=88d09cbc-1497-4fea-99b9-c1fe29ff58f0","ios":"levelo://app?vid=88d09cbc-1497-4fea-99b9-c1fe29ff58f0"},"vehicle_type_id":"4","last_reported":1741000141,"current_range_meters":8800,"station_id":"","pricing_plan_id":"cebpf4jnsgd1na2vs0mg"},{"bike_id":"05e9cf7b-c090-4ef5-8c8c-4775308fa653","system_id":"levelo_inurba_marseille","lat":43.31256,"lon":5.36848,"is_reserved":false,"is_disabled":false,"rental_uris":{"android":"levelo://app?vid=05e9cf7b-c090-4ef5-8c8c-4775308fa653","ios":"levelo://app?vid=05e9cf7b-c090-4ef5-8c8c-4775308fa653"},"vehicle_type_id":"4","last_reported":1741000141,"current_range_meters":8800,"station_id":"ce4bgl92rcd13ifvqbq0","pricing_plan_id":"cebpf4jnsgd1na2vs0mg"},{"bike_id":"dd94c117-66b0-42e1-85c3-29bb393d5c22","system_id":"levelo_inurba_marseille","lat":43.2783,"lon":5.40717,"is_reserved":false,"is_disabled":false,"rental_uris":{"android":"levelo://app?vid=dd94c117-66b0-42e1-85c3-29bb393d5c22","ios":"levelo://app?vid=dd94c117-66b0-42e1-85c3-29bb393d5c22"},"vehicle_type_id":"4","last_reported":1741000141,"current_range_meters":8800,"station_id":"ce4bhnh2rcd13ifvqgtg","pricing_plan_id":"cebpf4jnsgd1na2vs0mg"},{"bike_id":"e9c24fe2-7e9b-4330-ba27-2bb80e7481df","system_id":"levelo_inurba_marseille","lat":43.27843,"lon":5.40734,"is_reserved":false,"is_disabled":false,"rental_uris":{"android":"levelo://app?vid=e9c24fe2-7e9b-4330-ba27-2bb80e7481df","ios":"levelo://app?vid=e9c24fe2-7e9b-4330-ba27-2bb80e7481df"},"vehicle_type_id":"4","last_reported":1741000141,"current_range_meters":8800,"station_id":"ce4bhnh2rcd13ifvqgtg","pricing_plan_id":"cebpf4jnsgd1na2vs0mg"},{"bike_id":"a3e4e670-96af-42cb-8c2e-a7c558780b0b","system_id":"levelo_inurba_marseille","lat":43.24091,"lon":5.37838,"is_reserved":false,"is_disabled":false,"rental_uris":{"android":"levelo://app?vid=a3e4e670-96af-42cb-8c2e-a7c558780b0b","ios":"levelo://app?vid=a3e4e670-96af-42cb-8c2e-a7c558780b0b"},"vehicle_type_id":"4","last_reported":1741000141,"current_range_meters":8800,"station_id":"ce4bhnp2rcd13ifvqgvg","pricing_plan_id":"cebpf4jnsgd1na2vs0mg"},{"bike_id":"d0b9ab13-f70e-4932-b67c-b3f78648cb88","system_id":"levelo_inurba_marseille","lat":43.30539,"lon":5.36703,"is_reserved":false,"is_disabled":false,"rental_uris":{"android":"levelo://app?vid=d0b9ab13-f70e-4932-b67c-b3f78648cb88","ios":"levelo://app?vid=d0b9ab13-f70e-4932-b67c-b3f78648cb88"},"vehicle_type_id":"4","last_reported":1741000141,"current_range_meters":9200,"station_id":"ce4bgrp2rcd13ifvqc9g","pricing_plan_id":"cebpf4jnsgd1na2vs0mg"},{"bike_id":"8df62b44-eaab-4154-ab7b-449371a8c2eb","system_id":"levelo_inurba_marseille","lat":43.26558,"lon":5.37283,"is_reserved":false,"is_disabled":false,"rental_uris":{"android":"levelo://app?vid=8df62b44-eaab-4154-ab7b-449371a8c2eb","ios":"levelo://app?vid=8df62b44-eaab-4154-ab7b-449371a8c2eb"},"vehicle_type_id":"4","last_reported":1741000141,"current_range_meters":9200,"station_id":"ce4bhg12rcd13ifvqf70","pricing_plan_id":"cebpf4jnsgd1na2vs0mg"},{"bike_id":"4a943d57-3277-4327-b8d5-c5f2b47403a4","system_id":"levelo_inurba_marseille","lat":43.251112,"lon":5.403173,"is_reserved":false,"is_disabled":false,"rental_uris":{"android":"levelo://app?vid=4a943d57-3277-4327-b8d5-c5f2b47403a4","ios":"levelo://app?vid=4a943d57-3277-4327-b8d5-c5f2b47403a4"},"vehicle_type_id":"4","last_reported":1741000141,"current_range_meters":9200,"station_id":"ce4bhh92rcd13ifvqfj0","pricing_plan_id":"cebpf4jnsgd1na2vs0mg"},{"bike_id":"9fe32dd4-8c83-4f55-8d4d-26816ab2fe7e","system_id":"levelo_inurba_marseille","lat":43.23157,"lon":5.43714,"is_reserved":false,"is_disabled":false,"rental_uris":{"android":"levelo://app?vid=9fe32dd4-8c83-4f55-8d4d-26816ab2fe7e","ios":"levelo://app?vid=9fe32dd4-8c83-4f55-8d4d-26816ab2fe7e"},"vehicle_type_id":"4","last_reported":1741000141,"current_range_meters":9200,"station_id":"ce4bhmp2rcd13ifvqgog","pricing_plan_id":"cebpf4jnsgd1na2vs0mg"},{"bike_id":"4fac24a8-35f4-4dd1-b551-c517fd4c5a62","system_id":"levelo_inurba_marseille","lat":43.23192,"lon":5.35551,"is_reserved":false,"is_disabled":false,"rental_uris":{"android":"levelo://app?vid=4fac24a8-35f4-4dd1-b551-c517fd4c5a62","ios":"levelo://app?vid=4fac24a8-35f4-4dd1-b551-c517fd4c5a62"},"vehicle_type_id":"4","last_reported":1741000141,"current_range_meters":9200,"station_id":"ce4bhu92rcd13ifvqi70","pricing_plan_id":"cebpf4jnsgd1na2vs0mg"},{"bike_id":"3db63e1c-f912-4551-bfd3-ee24e3e2eebe","system_id":"levelo_inurba_marseille","lat":43.30881,"lon":5.36846,"is_reserved":false,"is_disabled":false,"rental_uris":{"android":"levelo://app?vid=3db63e1c-f912-4551-bfd3-ee24e3e2eebe","ios":"levelo://app?vid=3db63e1c-f912-4551-bfd3-ee24e3e2eebe"},"vehicle_type_id":"4","last_reported":1741000141,"current_range_meters":9600,"station_id":"","pricing_plan_id":"cebpf4jnsgd1na2vs0mg"},{"bike_id":"61e3c74e-7012-4cb6-8ef4-17db5d82fdf7","system_id":"levelo_inurba_marseille","lat":43.25322,"lon":5.39281,"is_reserved":false,"is_disabled":false,"rental_uris":{"android":"levelo://app?vid=61e3c74e-7012-4cb6-8ef4-17db5d82fdf7","ios":"levelo://app?vid=61e3c74e-7012-4cb6-8ef4-17db5d82fdf7"},"vehicle_type_id":"4","last_reported":1741000141,"current_range_meters":9600,"station_id":"","pricing_plan_id":"cebpf4jnsgd1na2vs0mg"},{"bike_id":"53682d1a-3c4c-48d8-86fb-90fac64cd913","system_id":"levelo_inurba_marseille","lat":43.29234,"lon":5.40116,"is_reserved":false,"is_disabled":false,"rental_uris":{"android":"levelo://app?vid=53682d1a-3c4c-48d8-86fb-90fac64cd913","ios":"levelo://app?vid=53682d1a-3c4c-48d8-86fb-90fac64cd913"},"vehicle_type_id":"4","last_reported":1741000141,"current_range_meters":9600,"station_id":"ce4bh312rcd13ifvqdk0","pricing_plan_id":"cebpf4jnsgd1na2vs0mg"},{"bike_id":"e0c607bf-7f3d-4c22-8ed8-7156f04c1a25","system_id":"levelo_inurba_marseille","lat":43.28159,"lon":5.42656,"is_reserved":false,"is_disabled":false,"rental_uris":{"android":"levelo://app?vid=e0c607bf-7f3d-4c22-8ed8-7156f04c1a25","ios":"levelo://app?vid=e0c607bf-7f3d-4c22-8ed8-7156f04c1a25"},"vehicle_type_id":"4","last_reported":1741000141,"current_range_meters":9600,"station_id":"ce4bhnh2rcd13ifvqgug","pricing_plan_id":"cebpf4jnsgd1na2vs0mg"},{"bike_id":"9f6b431d-a5b8-4b48-ab67-931e4dd7486d","system_id":"levelo_inurba_marseille","lat":43.27972,"lon":5.41043,"is_reserved":false,"is_disabled":false,"rental_uris":{"android":"levelo://app?vid=9f6b431d-a5b8-4b48-ab67-931e4dd7486d","ios":"levelo://app?vid=9f6b431d-a5b8-4b48-ab67-931e4dd7486d"},"vehicle_type_id":"4","last_reported":1741000141,"current_range_meters":9600,"station_id":"ce4bhnp2rcd13ifvqh0g","pricing_plan_id":"cebpf4jnsgd1na2vs0mg"},{"bike_id":"1d3d85ce-89a4-46c1-b453-f830d9b5a502","system_id":"levelo_inurba_marseille","lat":43.29794,"lon":5.38107,"is_reserved":false,"is_disabled":false,"rental_uris":{"android":"levelo://app?vid=1d3d85ce-89a4-46c1-b453-f830d9b5a502","ios":"levelo://app?vid=1d3d85ce-89a4-46c1-b453-f830d9b5a502"},"vehicle_type_id":"4","last_reported":1741000141,"current_range_meters":10000,"station_id":"ce4bgip2rcd13ifvqbb0","pricing_plan_id":"cebpf4jnsgd1na2vs0mg"},{"bike_id":"2cd1d484-9a1b-427e-8eba-a2971082a0e0","system_id":"levelo_inurba_marseille","lat":43.29982,"lon":5.38518,"is_reserved":false,"is_disabled":false,"rental_uris":{"android":"levelo://app?vid=2cd1d484-9a1b-427e-8eba-a2971082a0e0","ios":"levelo://app?vid=2cd1d484-9a1b-427e-8eba-a2971082a0e0"},"vehicle_type_id":"4","last_reported":1741000141,"current_range_meters":10000,"station_id":"ce4bgj92rcd13ifvqbd0","pricing_plan_id":"cebpf4jnsgd1na2vs0mg"},{"bike_id":"ad32254e-8609-42c5-8df7-9012f5ec17c7","system_id":"levelo_inurba_marseille","lat":43.23149,"lon":5.43711,"is_reserved":false,"is_disabled":false,"rental_uris":{"android":"levelo://app?vid=ad32254e-8609-42c5-8df7-9012f5ec17c7","ios":"levelo://app?vid=ad32254e-8609-42c5-8df7-9012f5ec17c7"},"vehicle_type_id":"4","last_reported":1741000141,"current_range_meters":10000,"station_id":"ce4bhmp2rcd13ifvqgog","pricing_plan_id":"cebpf4jnsgd1na2vs0mg"},{"bike_id":"b013add8-306f-455f-8106-4ff222c92509","system_id":"levelo_inurba_marseille","lat":43.336114,"lon":5.410224,"is_reserved":false,"is_disabled":false,"rental_uris":{"android":"levelo://app?vid=b013add8-306f-455f-8106-4ff222c92509","ios":"levelo://app?vid=b013add8-306f-455f-8106-4ff222c92509"},"vehicle_type_id":"4","last_reported":1741000141,"current_range_meters":10000,"station_id":"ce4bhqh2rcd13ifvqhmg","pricing_plan_id":"cebpf4jnsgd1na2vs0mg"},{"bike_id":"fa99dc59-4ea3-41b1-bdef-0fd8a7de9150","system_id":"levelo_inurba_marseille","lat":43.27684,"lon":5.41541,"is_reserved":false,"is_disabled":false,"rental_uris":{"android":"levelo://app?vid=fa99dc59-4ea3-41b1-bdef-0fd8a7de9150","ios":"levelo://app?vid=fa99dc59-4ea3-41b1-bdef-0fd8a7de9150"},"vehicle_type_id":"4","last_reported":1741000141,"current_range_meters":10800,"station_id":"","pricing_plan_id":"cebpf4jnsgd1na2vs0mg"},{"bike_id":"4d0d92c6-bc02-4a9f-87d1-bc1c8643f0ba","system_id":"levelo_inurba_marseille","lat":43.29857,"lon":5.36281,"is_reserved":false,"is_disabled":false,"rental_uris":{"android":"levelo://app?vid=4d0d92c6-bc02-4a9f-87d1-bc1c8643f0ba","ios":"levelo://app?vid=4d0d92c6-bc02-4a9f-87d1-bc1c8643f0ba"},"vehicle_type_id":"4","last_reported":1741000141,"current_range_meters":10800,"station_id":"ce4bgpp2rcd13ifvqc3g","pricing_plan_id":"cebpf4jnsgd1na2vs0mg"},{"bike_id":"08fcbf20-6137-4a38-b465-7fdaaa59a1ab","system_id":"levelo_inurba_marseille","lat":43.31321,"lon":5.39695,"is_reserved":false,"is_disabled":false,"rental_uris":{"android":"levelo://app?vid=08fcbf20-6137-4a38-b465-7fdaaa59a1ab","ios":"levelo://app?vid=08fcbf20-6137-4a38-b465-7fdaaa59a1ab"},"vehicle_type_id":"4","last_reported":1741000141,"current_range_meters":10800,"station_id":"ce4bgvp2rcd13ifvqcu0","pricing_plan_id":"cebpf4jnsgd1na2vs0mg"},{"bike_id":"09393a00-973d-43b6-814c-ce2027404caf","system_id":"levelo_inurba_marseille","lat":43.25845,"lon":5.39415,"is_reserved":false,"is_disabled":false,"rental_uris":{"android":"levelo://app?vid=09393a00-973d-43b6-814c-ce2027404caf","ios":"levelo://app?vid=09393a00-973d-43b6-814c-ce2027404caf"},"vehicle_type_id":"4","last_reported":1741000141,"current_range_meters":10800,"station_id":"ce4bhip2rcd13ifvqft0","pricing_plan_id":"cebpf4jnsgd1na2vs0mg"},{"bike_id":"66f06281-a636-4776-8c10-352d3e8d1011","system_id":"levelo_inurba_marseille","lat":43.23193,"lon":5.35551,"is_reserved":false,"is_disabled":false,"rental_uris":{"android":"levelo://app?vid=66f06281-a636-4776-8c10-352d3e8d1011","ios":"levelo://app?vid=66f06281-a636-4776-8c10-352d3e8d1011"},"vehicle_type_id":"4","last_reported":1741000141,"current_range_meters":10800,"station_id":"ce4bhu92rcd13ifvqi70","pricing_plan_id":"cebpf4jnsgd1na2vs0mg"},{"bike_id":"c5b35fc3-133b-4fcd-9bc1-000b1b46221f","system_id":"levelo_inurba_marseille","lat":43.24156,"lon":5.36408,"is_reserved":false,"is_disabled":false,"rental_uris":{"android":"levelo://app?vid=c5b35fc3-133b-4fcd-9bc1-000b1b46221f","ios":"levelo://app?vid=c5b35fc3-133b-4fcd-9bc1-000b1b46221f"},"vehicle_type_id":"4","last_reported":1741000141,"current_range_meters":10800,"station_id":"cpo36qri1sfpv3e86is0","pricing_plan_id":"cebpf4jnsgd1na2vs0mg"},{"bike_id":"b1347c40-027c-4511-a736-aa6ddd081356","system_id":"levelo_inurba_marseille","lat":43.30955,"lon":5.39033,"is_reserved":false,"is_disabled":false,"rental_uris":{"android":"levelo://app?vid=b1347c40-027c-4511-a736-aa6ddd081356","ios":"levelo://app?vid=b1347c40-027c-4511-a736-aa6ddd081356"},"vehicle_type_id":"4","last_reported":1741000141,"current_range_meters":11200,"station_id":"ce4bgup2rcd13ifvqco0","pricing_plan_id":"cebpf4jnsgd1na2vs0mg"},{"bike_id":"edc1a413-247b-4125-8ff6-3193d9b9b0b7","system_id":"levelo_inurba_marseille","lat":43.24406,"lon":5.37049,"is_reserved":false,"is_disabled":false,"rental_uris":{"android":"levelo://app?vid=edc1a413-247b-4125-8ff6-3193d9b9b0b7","ios":"levelo://app?vid=edc1a413-247b-4125-8ff6-3193d9b9b0b7"},"vehicle_type_id":"4","last_reported":1741000141,"current_range_meters":11200,"station_id":"ce4bhhh2rcd13ifvqfk0","pricing_plan_id":"cebpf4jnsgd1na2vs0mg"},{"bike_id":"30452236-79fc-4cba-8ba7-e268e5bb0e99","system_id":"levelo_inurba_marseille","lat":43.2319,"lon":5.43713,"is_reserved":false,"is_disabled":false,"rental_uris":{"android":"levelo://app?vid=30452236-79fc-4cba-8ba7-e268e5bb0e99","ios":"levelo://app?vid=30452236-79fc-4cba-8ba7-e268e5bb0e99"},"vehicle_type_id":"4","last_reported":1741000141,"current_range_meters":11200,"station_id":"ce4bhmp2rcd13ifvqgog","pricing_plan_id":"cebpf4jnsgd1na2vs0mg"},{"bike_id":"8afe136c-0c51-4aca-ad51-f30e81f8c519","system_id":"levelo_inurba_marseille","lat":43.32446,"lon":5.42657,"is_reserved":false,"is_disabled":false,"rental_uris":{"android":"levelo://app?vid=8afe136c-0c51-4aca-ad51-f30e81f8c519","ios":"levelo://app?vid=8afe136c-0c51-4aca-ad51-f30e81f8c519"},"vehicle_type_id":"4","last_reported":1741000141,"current_range_meters":11600,"station_id":"","pricing_plan_id":"cebpf4jnsgd1na2vs0mg"},{"bike_id":"a5d67b8b-c1b7-4de5-ba1e-c23dbefc7e59","system_id":"levelo_inurba_marseille","lat":43.30309,"lon":5.36885,"is_reserved":false,"is_disabled":false,"rental_uris":{"android":"levelo://app?vid=a5d67b8b-c1b7-4de5-ba1e-c23dbefc7e59","ios":"levelo://app?vid=a5d67b8b-c1b7-4de5-ba1e-c23dbefc7e59"},"vehicle_type_id":"4","last_reported":1741000141,"current_range_meters":11600,"station_id":"ce4bgqh2rcd13ifvqc5g","pricing_plan_id":"cebpf4jnsgd1na2vs0mg"},{"bike_id":"8a18f2a4-da80-4b1a-9405-c714ecb2b212","system_id":"levelo_inurba_marseille","lat":43.31175,"lon":5.38709,"is_reserved":false,"is_disabled":false,"rental_uris":{"android":"levelo://app?vid=8a18f2a4-da80-4b1a-9405-c714ecb2b212","ios":"levelo://app?vid=8a18f2a4-da80-4b1a-9405-c714ecb2b212"},"vehicle_type_id":"4","last_reported":1741000141,"current_range_meters":11600,"station_id":"ce4bgv12rcd13ifvqcp0","pricing_plan_id":"cebpf4jnsgd1na2vs0mg"},{"bike_id":"c0a61975-122c-4b56-92f1-c70a7f6c9f97","system_id":"levelo_inurba_marseille","lat":43.299774,"lon":5.384992,"is_reserved":false,"is_disabled":false,"rental_uris":{"android":"levelo://app?vid=c0a61975-122c-4b56-92f1-c70a7f6c9f97","ios":"levelo://app?vid=c0a61975-122c-4b56-92f1-c70a7f6c9f97"},"vehicle_type_id":"4","last_reported":1741000141,"current_range_meters":11600,"station_id":"ce4bhgp2rcd13ifvqfe0","pricing_plan_id":"cebpf4jnsgd1na2vs0mg"},{"bike_id":"f164bd11-0ab8-433b-8827-632ef0abcfea","system_id":"levelo_inurba_marseille","lat":43.24184,"lon":5.39721,"is_reserved":false,"is_disabled":false,"rental_uris":{"android":"levelo://app?vid=f164bd11-0ab8-433b-8827-632ef0abcfea","ios":"levelo://app?vid=f164bd11-0ab8-433b-8827-632ef0abcfea"},"vehicle_type_id":"4","last_reported":1741000141,"current_range_meters":11600,"station_id":"ce4bhn12rcd13ifvqgpg","pricing_plan_id":"cebpf4jnsgd1na2vs0mg"},{"bike_id":"1dbb7892-6d49-4ed6-a1e0-b97a2ae818b1","system_id":"levelo_inurba_marseille","lat":43.2783,"lon":5.40723,"is_reserved":false,"is_disabled":false,"rental_uris":{"android":"levelo://app?vid=1dbb7892-6d49-4ed6-a1e0-b97a2ae818b1","ios":"levelo://app?vid=1dbb7892-6d49-4ed6-a1e0-b97a2ae818b1"},"vehicle_type_id":"4","last_reported":1741000141,"current_range_meters":11600,"station_id":"ce4bhnh2rcd13ifvqgtg","pricing_plan_id":"cebpf4jnsgd1na2vs0mg"},{"bike_id":"d0e90060-d634-4f5f-8a3a-6f8ec476c326","system_id":"levelo_inurba_marseille","lat":43.32475,"lon":5.36571,"is_reserved":false,"is_disabled":false,"rental_uris":{"android":"levelo://app?vid=d0e90060-d634-4f5f-8a3a-6f8ec476c326","ios":"levelo://app?vid=d0e90060-d634-4f5f-8a3a-6f8ec476c326"},"vehicle_type_id":"4","last_reported":1741000141,"current_range_meters":11600,"station_id":"ce4bhs12rcd13ifvqhvg","pricing_plan_id":"cebpf4jnsgd1na2vs0mg"},{"bike_id":"687cd9e6-0cef-4cf3-a0fd-75f582330f2e","system_id":"levelo_inurba_marseille","lat":43.337444,"lon":5.374475,"is_reserved":false,"is_disabled":false,"rental_uris":{"android":"levelo://app?vid=687cd9e6-0cef-4cf3-a0fd-75f582330f2e","ios":"levelo://app?vid=687cd9e6-0cef-4cf3-a0fd-75f582330f2e"},"vehicle_type_id":"4","last_reported":1741000141,"current_range_meters":12000,"station_id":"","pricing_plan_id":"cebpf4jnsgd1na2vs0mg"},{"bike_id":"21a25fa3-011a-487c-a6a1-9a4a8b99ec63","system_id":"levelo_inurba_marseille","lat":43.31268,"lon":5.37752,"is_reserved":false,"is_disabled":false,"rental_uris":{"android":"levelo://app?vid=21a25fa3-011a-487c-a6a1-9a4a8b99ec63","ios":"levelo://app?vid=21a25fa3-011a-487c-a6a1-9a4a8b99ec63"},"vehicle_type_id":"4","last_reported":1741000141,"current_range_meters":12000,"station_id":"","pricing_plan_id":"cebpf4jnsgd1na2vs0mg"},{"bike_id":"f65c263c-a403-464a-9333-43a93de9c972","system_id":"levelo_inurba_marseille","lat":43.29876,"lon":5.39742,"is_reserved":false,"is_disabled":false,"rental_uris":{"android":"levelo://app?vid=f65c263c-a403-464a-9333-43a93de9c972","ios":"levelo://app?vid=f65c263c-a403-464a-9333-43a93de9c972"},"vehicle_type_id":"4","last_reported":1741000141,"current_range_meters":12000,"station_id":"ce4bh0h2rcd13ifvqd50","pricing_plan_id":"cebpf4jnsgd1na2vs0mg"},{"bike_id":"18dda957-3659-4111-8f9d-293dfb6e4e36","system_id":"levelo_inurba_marseille","lat":43.301521,"lon":5.380923,"is_reserved":false,"is_disabled":false,"rental_uris":{"android":"levelo://app?vid=18dda957-3659-4111-8f9d-293dfb6e4e36","ios":"levelo://app?vid=18dda957-3659-4111-8f9d-293dfb6e4e36"},"vehicle_type_id":"4","last_reported":1741000141,"current_range_meters":12400,"station_id":"ce4bgjp2rcd13ifvqbh0","pricing_plan_id":"cebpf4jnsgd1na2vs0mg"},{"bike_id":"822123c7-bc1b-469c-ae4b-4e688daf332e","system_id":"levelo_inurba_marseille","lat":43.25003,"lon":5.38926,"is_reserved":false,"is_disabled":false,"rental_uris":{"android":"levelo://app?vid=822123c7-bc1b-469c-ae4b-4e688daf332e","ios":"levelo://app?vid=822123c7-bc1b-469c-ae4b-4e688daf332e"},"vehicle_type_id":"4","last_reported":1741000141,"current_range_meters":12400,"station_id":"ce4bhgp2rcd13ifvqfd0","pricing_plan_id":"cebpf4jnsgd1na2vs0mg"},{"bike_id":"5b0b6803-8d85-4899-8cce-7f71b4c2bf31","system_id":"levelo_inurba_marseille","lat":43.27214,"lon":5.39186,"is_reserved":false,"is_disabled":false,"rental_uris":{"android":"levelo://app?vid=5b0b6803-8d85-4899-8cce-7f71b4c2bf31","ios":"levelo://app?vid=5b0b6803-8d85-4899-8cce-7f71b4c2bf31"},"vehicle_type_id":"4","last_reported":1741000141,"current_range_meters":12400,"station_id":"ce4bhhp2rcd13ifvqfm0","pricing_plan_id":"cebpf4jnsgd1na2vs0mg"},{"bike_id":"003579b7-224f-4fd5-9014-b9cc0d5e0822","system_id":"levelo_inurba_marseille","lat":43.2467,"lon":5.38146,"is_reserved":false,"is_disabled":false,"rental_uris":{"android":"levelo://app?vid=003579b7-224f-4fd5-9014-b9cc0d5e0822","ios":"levelo://app?vid=003579b7-224f-4fd5-9014-b9cc0d5e0822"},"vehicle_type_id":"4","last_reported":1741000141,"current_range_meters":12400,"station_id":"ce4bhih2rcd13ifvqfr0","pricing_plan_id":"cebpf4jnsgd1na2vs0mg"},{"bike_id":"ed7da576-e349-42a9-b88d-fc5826b9e322","system_id":"levelo_inurba_marseille","lat":43.25095,"lon":5.39524,"is_reserved":false,"is_disabled":false,"rental_uris":{"android":"levelo://app?vid=ed7da576-e349-42a9-b88d-fc5826b9e322","ios":"levelo://app?vid=ed7da576-e349-42a9-b88d-fc5826b9e322"},"vehicle_type_id":"4","last_reported":1741000141,"current_range_meters":12400,"station_id":"ce4bhm12rcd13ifvqgkg","pricing_plan_id":"cebpf4jnsgd1na2vs0mg"},{"bike_id":"2848430c-e0ac-406b-99f8-d4a1f7459337","system_id":"levelo_inurba_marseille","lat":43.212653,"lon":5.353479,"is_reserved":false,"is_disabled":false,"rental_uris":{"android":"levelo://app?vid=2848430c-e0ac-406b-99f8-d4a1f7459337","ios":"levelo://app?vid=2848430c-e0ac-406b-99f8-d4a1f7459337"},"vehicle_type_id":"4","last_reported":1741000141,"current_range_meters":12800,"station_id":"","pricing_plan_id":"cebpf4jnsgd1na2vs0mg"},{"bike_id":"9b215d68-0d27-40bf-8c82-8eb47b1d2777","system_id":"levelo_inurba_marseille","lat":43.30526,"lon":5.36478,"is_reserved":false,"is_disabled":false,"rental_uris":{"android":"levelo://app?vid=9b215d68-0d27-40bf-8c82-8eb47b1d2777","ios":"levelo://app?vid=9b215d68-0d27-40bf-8c82-8eb47b1d2777"},"vehicle_type_id":"4","last_reported":1741000141,"current_range_meters":12800,"station_id":"","pricing_plan_id":"cebpf4jnsgd1na2vs0mg"},{"bike_id":"6178867d-ecd2-4e55-883a-3ee976114fc5","system_id":"levelo_inurba_marseille","lat":43.2847,"lon":5.3841,"is_reserved":false,"is_disabled":false,"rental_uris":{"android":"levelo://app?vid=6178867d-ecd2-4e55-883a-3ee976114fc5","ios":"levelo://app?vid=6178867d-ecd2-4e55-883a-3ee976114fc5"},"vehicle_type_id":"4","last_reported":1741000141,"current_range_meters":12800,"station_id":"ce4bh512rcd13ifvqe3g","pricing_plan_id":"cebpf4jnsgd1na2vs0mg"},{"bike_id":"f80adb4d-755a-4c9d-867d-4ad01abe820c","system_id":"levelo_inurba_marseille","lat":43.24178,"lon":5.39712,"is_reserved":false,"is_disabled":false,"rental_uris":{"android":"levelo://app?vid=f80adb4d-755a-4c9d-867d-4ad01abe820c","ios":"levelo://app?vid=f80adb4d-755a-4c9d-867d-4ad01abe820c"},"vehicle_type_id":"4","last_reported":1741000141,"current_range_meters":12800,"station_id":"ce4bhn12rcd13ifvqgpg","pricing_plan_id":"cebpf4jnsgd1na2vs0mg"},{"bike_id":"72044541-597e-4fdd-ba4c-86eac32221af","system_id":"levelo_inurba_marseille","lat":43.24636,"lon":5.38109,"is_reserved":false,"is_disabled":false,"rental_uris":{"android":"levelo://app?vid=72044541-597e-4fdd-ba4c-86eac32221af","ios":"levelo://app?vid=72044541-597e-4fdd-ba4c-86eac32221af"},"vehicle_type_id":"4","last_reported":1741000141,"current_range_meters":13600,"station_id":"","pricing_plan_id":"cebpf4jnsgd1na2vs0mg"},{"bike_id":"76f0ecc2-74d2-4458-9089-c4bdf8553e65","system_id":"levelo_inurba_marseille","lat":43.27165,"lon":5.41856,"is_reserved":false,"is_disabled":false,"rental_uris":{"android":"levelo://app?vid=76f0ecc2-74d2-4458-9089-c4bdf8553e65","ios":"levelo://app?vid=76f0ecc2-74d2-4458-9089-c4bdf8553e65"},"vehicle_type_id":"4","last_reported":1741000141,"current_range_meters":13600,"station_id":"","pricing_plan_id":"cebpf4jnsgd1na2vs0mg"},{"bike_id":"10f7f7d5-77d0-4a6a-b46c-3bfd612f33e0","system_id":"levelo_inurba_marseille","lat":43.29935,"lon":5.36523,"is_reserved":false,"is_disabled":false,"rental_uris":{"android":"levelo://app?vid=10f7f7d5-77d0-4a6a-b46c-3bfd612f33e0","ios":"levelo://app?vid=10f7f7d5-77d0-4a6a-b46c-3bfd612f33e0"},"vehicle_type_id":"4","last_reported":1741000141,"current_range_meters":13600,"station_id":"ce4bgm92rcd13ifvqbr0","pricing_plan_id":"cebpf4jnsgd1na2vs0mg"},{"bike_id":"f1870ac6-1c7a-4b05-b210-00eb28d79851","system_id":"levelo_inurba_marseille","lat":43.25593,"lon":5.38245,"is_reserved":false,"is_disabled":false,"rental_uris":{"android":"levelo://app?vid=f1870ac6-1c7a-4b05-b210-00eb28d79851","ios":"levelo://app?vid=f1870ac6-1c7a-4b05-b210-00eb28d79851"},"vehicle_type_id":"4","last_reported":1741000141,"current_range_meters":13600,"station_id":"ce4bhih2rcd13ifvqfs0","pricing_plan_id":"cebpf4jnsgd1na2vs0mg"},{"bike_id":"1fc63ad9-5919-4127-b591-b507dba27254","system_id":"levelo_inurba_marseille","lat":43.28153,"lon":5.42652,"is_reserved":false,"is_disabled":false,"rental_uris":{"android":"levelo://app?vid=1fc63ad9-5919-4127-b591-b507dba27254","ios":"levelo://app?vid=1fc63ad9-5919-4127-b591-b507dba27254"},"vehicle_type_id":"4","last_reported":1741000141,"current_range_meters":13600,"station_id":"ce4bhnh2rcd13ifvqgug","pricing_plan_id":"cebpf4jnsgd1na2vs0mg"},{"bike_id":"62cb0cc9-5e6c-492a-b088-33fea151eb3e","system_id":"levelo_inurba_marseille","lat":43.27921,"lon":5.41657,"is_reserved":false,"is_disabled":false,"rental_uris":{"android":"levelo://app?vid=62cb0cc9-5e6c-492a-b088-33fea151eb3e","ios":"levelo://app?vid=62cb0cc9-5e6c-492a-b088-33fea151eb3e"},"vehicle_type_id":"4","last_reported":1741000141,"current_range_meters":14000,"station_id":"","pricing_plan_id":"cebpf4jnsgd1na2vs0mg"},{"bike_id":"11ec5e2c-091f-43ea-9e28-889e2f836e87","system_id":"levelo_inurba_marseille","lat":43.23142,"lon":5.43723,"is_reserved":false,"is_disabled":false,"rental_uris":{"android":"levelo://app?vid=11ec5e2c-091f-43ea-9e28-889e2f836e87","ios":"levelo://app?vid=11ec5e2c-091f-43ea-9e28-889e2f836e87"},"vehicle_type_id":"4","last_reported":1741000141,"current_range_meters":14000,"station_id":"ce4bhmp2rcd13ifvqgog","pricing_plan_id":"cebpf4jnsgd1na2vs0mg"},{"bike_id":"8f91da26-e2cf-46fe-b02f-7e053f55b38a","system_id":"levelo_inurba_marseille","lat":43.3015,"lon":5.37429,"is_reserved":false,"is_disabled":false,"rental_uris":{"android":"levelo://app?vid=8f91da26-e2cf-46fe-b02f-7e053f55b38a","ios":"levelo://app?vid=8f91da26-e2cf-46fe-b02f-7e053f55b38a"},"vehicle_type_id":"4","last_reported":1741000141,"current_range_meters":14400,"station_id":"ce4bgs92rcd13ifvqcc0","pricing_plan_id":"cebpf4jnsgd1na2vs0mg"},{"bike_id":"2de073ad-d9d1-4c35-9f8e-b8b136ae6986","system_id":"levelo_inurba_marseille","lat":43.29889,"lon":5.39742,"is_reserved":false,"is_disabled":false,"rental_uris":{"android":"levelo://app?vid=2de073ad-d9d1-4c35-9f8e-b8b136ae6986","ios":"levelo://app?vid=2de073ad-d9d1-4c35-9f8e-b8b136ae6986"},"vehicle_type_id":"4","last_reported":1741000141,"current_range_meters":14400,"station_id":"ce4bh0h2rcd13ifvqd50","pricing_plan_id":"cebpf4jnsgd1na2vs0mg"},{"bike_id":"7d3f29a2-77e1-43cf-a74e-c2df62166b7a","system_id":"levelo_inurba_marseille","lat":43.24811,"lon":5.37455,"is_reserved":false,"is_disabled":false,"rental_uris":{"android":"levelo://app?vid=7d3f29a2-77e1-43cf-a74e-c2df62166b7a","ios":"levelo://app?vid=7d3f29a2-77e1-43cf-a74e-c2df62166b7a"},"vehicle_type_id":"4","last_reported":1741000141,"current_range_meters":14400,"station_id":"ce4bhgh2rcd13ifvqfb0","pricing_plan_id":"cebpf4jnsgd1na2vs0mg"},{"bike_id":"6681b17c-9812-4854-8129-b9185587238f","system_id":"levelo_inurba_marseille","lat":43.23962,"lon":5.36632,"is_reserved":false,"is_disabled":false,"rental_uris":{"android":"levelo://app?vid=6681b17c-9812-4854-8129-b9185587238f","ios":"levelo://app?vid=6681b17c-9812-4854-8129-b9185587238f"},"vehicle_type_id":"4","last_reported":1741000141,"current_range_meters":14400,"station_id":"ce4bhi12rcd13ifvqfp0","pricing_plan_id":"cebpf4jnsgd1na2vs0mg"},{"bike_id":"ed5d0ef3-c829-4838-97e0-fd2bf3c2b10d","system_id":"levelo_inurba_marseille","lat":43.25933,"lon":5.40895,"is_reserved":false,"is_disabled":false,"rental_uris":{"android":"levelo://app?vid=ed5d0ef3-c829-4838-97e0-fd2bf3c2b10d","ios":"levelo://app?vid=ed5d0ef3-c829-4838-97e0-fd2bf3c2b10d"},"vehicle_type_id":"4","last_reported":1741000141,"current_range_meters":14400,"station_id":"ce4bhm92rcd13ifvqglg","pricing_plan_id":"cebpf4jnsgd1na2vs0mg"},{"bike_id":"568dfd18-4bb9-452a-9ba1-aabf419f22a2","system_id":"levelo_inurba_marseille","lat":43.29622,"lon":5.37725,"is_reserved":false,"is_disabled":false,"rental_uris":{"android":"levelo://app?vid=568dfd18-4bb9-452a-9ba1-aabf419f22a2","ios":"levelo://app?vid=568dfd18-4bb9-452a-9ba1-aabf419f22a2"},"vehicle_type_id":"4","last_reported":1741000141,"current_range_meters":14800,"station_id":"ce4bgi92rcd13ifvqb90","pricing_plan_id":"cebpf4jnsgd1na2vs0mg"},{"bike_id":"c6b0f669-369d-4212-81aa-f7baefa1f761","system_id":"levelo_inurba_marseille","lat":43.26215,"lon":5.37439,"is_reserved":false,"is_disabled":false,"rental_uris":{"android":"levelo://app?vid=c6b0f669-369d-4212-81aa-f7baefa1f761","ios":"levelo://app?vid=c6b0f669-369d-4212-81aa-f7baefa1f761"},"vehicle_type_id":"4","last_reported":1741000141,"current_range_meters":14800,"station_id":"ce4bhgp2rcd13ifvqfc0","pricing_plan_id":"cebpf4jnsgd1na2vs0mg"},{"bike_id":"84bada60-5ac6-469d-8f3e-12bad91d447d","system_id":"levelo_inurba_marseille","lat":43.27571,"lon":5.38414,"is_reserved":false,"is_disabled":false,"rental_uris":{"android":"levelo://app?vid=84bada60-5ac6-469d-8f3e-12bad91d447d","ios":"levelo://app?vid=84bada60-5ac6-469d-8f3e-12bad91d447d"},"vehicle_type_id":"4","last_reported":1741000141,"current_range_meters":14800,"station_id":"ce4bhh92rcd13ifvqfi0","pricing_plan_id":"cebpf4jnsgd1na2vs0mg"},{"bike_id":"578621c9-c334-4a06-8780-f3274d12c938","system_id":"levelo_inurba_marseille","lat":43.24071,"lon":5.37765,"is_reserved":false,"is_disabled":false,"rental_uris":{"android":"levelo://app?vid=578621c9-c334-4a06-8780-f3274d12c938","ios":"levelo://app?vid=578621c9-c334-4a06-8780-f3274d12c938"},"vehicle_type_id":"4","last_reported":1741000141,"current_range_meters":14800,"station_id":"ce4bhnp2rcd13ifvqgvg","pricing_plan_id":"cebpf4jnsgd1na2vs0mg"},{"bike_id":"b94571a4-2bdc-4bdb-bb79-84efe8609c50","system_id":"levelo_inurba_marseille","lat":43.32521,"lon":5.36555,"is_reserved":false,"is_disabled":false,"rental_uris":{"android":"levelo://app?vid=b94571a4-2bdc-4bdb-bb79-84efe8609c50","ios":"levelo://app?vid=b94571a4-2bdc-4bdb-bb79-84efe8609c50"},"vehicle_type_id":"4","last_reported":1741000141,"current_range_meters":14800,"station_id":"ce4bhs12rcd13ifvqhvg","pricing_plan_id":"cebpf4jnsgd1na2vs0mg"},{"bike_id":"bbfc1f0b-7516-482b-ba93-62568297a8ed","system_id":"levelo_inurba_marseille","lat":43.23063,"lon":5.35497,"is_reserved":false,"is_disabled":false,"rental_uris":{"android":"levelo://app?vid=bbfc1f0b-7516-482b-ba93-62568297a8ed","ios":"levelo://app?vid=bbfc1f0b-7516-482b-ba93-62568297a8ed"},"vehicle_type_id":"4","last_reported":1741000141,"current_range_meters":14800,"station_id":"cpo3342slgdg3j2ifvpg","pricing_plan_id":"cebpf4jnsgd1na2vs0mg"},{"bike_id":"5633531e-7e99-4c95-89e5-a3437752c317","system_id":"levelo_inurba_marseille","lat":43.24804,"lon":5.37455,"is_reserved":false,"is_disabled":false,"rental_uris":{"android":"levelo://app?vid=5633531e-7e99-4c95-89e5-a3437752c317","ios":"levelo://app?vid=5633531e-7e99-4c95-89e5-a3437752c317"},"vehicle_type_id":"4","last_reported":1741000141,"current_range_meters":15200,"station_id":"ce4bhgh2rcd13ifvqfb0","pricing_plan_id":"cebpf4jnsgd1na2vs0mg"},{"bike_id":"db6557e3-d612-45f1-870f-c403bf17088e","system_id":"levelo_inurba_marseille","lat":43.21277,"lon":5.35333,"is_reserved":false,"is_disabled":false,"rental_uris":{"android":"levelo://app?vid=db6557e3-d612-45f1-870f-c403bf17088e","ios":"levelo://app?vid=db6557e3-d612-45f1-870f-c403bf17088e"},"vehicle_type_id":"4","last_reported":1741000141,"current_range_meters":16000,"station_id":"","pricing_plan_id":"cebpf4jnsgd1na2vs0mg"},{"bike_id":"24277934-128b-4cd2-a73c-75476a3856a1","system_id":"levelo_inurba_marseille","lat":43.29521,"lon":5.3908,"is_reserved":false,"is_disabled":false,"rental_uris":{"android":"levelo://app?vid=24277934-128b-4cd2-a73c-75476a3856a1","ios":"levelo://app?vid=24277934-128b-4cd2-a73c-75476a3856a1"},"vehicle_type_id":"4","last_reported":1741000141,"current_range_meters":16000,"station_id":"ce4bh3p2rcd13ifvqdp0","pricing_plan_id":"cebpf4jnsgd1na2vs0mg"},{"bike_id":"93d88e24-e0d4-48f6-b6ca-1ff58fe102cd","system_id":"levelo_inurba_marseille","lat":43.2848,"lon":5.38554,"is_reserved":false,"is_disabled":false,"rental_uris":{"android":"levelo://app?vid=93d88e24-e0d4-48f6-b6ca-1ff58fe102cd","ios":"levelo://app?vid=93d88e24-e0d4-48f6-b6ca-1ff58fe102cd"},"vehicle_type_id":"4","last_reported":1741000141,"current_range_meters":16000,"station_id":"ce4bh8p2rcd13ifvqeb0","pricing_plan_id":"cebpf4jnsgd1na2vs0mg"},{"bike_id":"360cb8fb-ae2d-4942-a777-0b20fe1843ea","system_id":"levelo_inurba_marseille","lat":43.26578,"lon":5.37343,"is_reserved":false,"is_disabled":false,"rental_uris":{"android":"levelo://app?vid=360cb8fb-ae2d-4942-a777-0b20fe1843ea","ios":"levelo://app?vid=360cb8fb-ae2d-4942-a777-0b20fe1843ea"},"vehicle_type_id":"4","last_reported":1741000141,"current_range_meters":16000,"station_id":"ce4bhg12rcd13ifvqf70","pricing_plan_id":"cebpf4jnsgd1na2vs0mg"},{"bike_id":"a290df5b-47a1-48f8-a4fe-b45c8cada7c4","system_id":"levelo_inurba_marseille","lat":43.26682,"lon":5.38272,"is_reserved":false,"is_disabled":false,"rental_uris":{"android":"levelo://app?vid=a290df5b-47a1-48f8-a4fe-b45c8cada7c4","ios":"levelo://app?vid=a290df5b-47a1-48f8-a4fe-b45c8cada7c4"},"vehicle_type_id":"4","last_reported":1741000141,"current_range_meters":16000,"station_id":"ce4bhg92rcd13ifvqf90","pricing_plan_id":"cebpf4jnsgd1na2vs0mg"},{"bike_id":"1024a527-973e-4d90-8c0e-33da3577f919","system_id":"levelo_inurba_marseille","lat":43.24998,"lon":5.38938,"is_reserved":false,"is_disabled":false,"rental_uris":{"android":"levelo://app?vid=1024a527-973e-4d90-8c0e-33da3577f919","ios":"levelo://app?vid=1024a527-973e-4d90-8c0e-33da3577f919"},"vehicle_type_id":"4","last_reported":1741000141,"current_range_meters":16000,"station_id":"ce4bhgp2rcd13ifvqfd0","pricing_plan_id":"cebpf4jnsgd1na2vs0mg"},{"bike_id":"a3fdac1b-69a8-42b0-ae47-bcf671ff3241","system_id":"levelo_inurba_marseille","lat":43.25012,"lon":5.38926,"is_reserved":false,"is_disabled":false,"rental_uris":{"android":"levelo://app?vid=a3fdac1b-69a8-42b0-ae47-bcf671ff3241","ios":"levelo://app?vid=a3fdac1b-69a8-42b0-ae47-bcf671ff3241"},"vehicle_type_id":"4","last_reported":1741000141,"current_range_meters":16000,"station_id":"ce4bhgp2rcd13ifvqfd0","pricing_plan_id":"cebpf4jnsgd1na2vs0mg"},{"bike_id":"ba1ba081-a651-458b-864c-f93419b9b0b6","system_id":"levelo_inurba_marseille","lat":43.25021,"lon":5.38913,"is_reserved":false,"is_disabled":false,"rental_uris":{"android":"levelo://app?vid=ba1ba081-a651-458b-864c-f93419b9b0b6","ios":"levelo://app?vid=ba1ba081-a651-458b-864c-f93419b9b0b6"},"vehicle_type_id":"4","last_reported":1741000141,"current_range_meters":16000,"station_id":"ce4bhgp2rcd13ifvqfd0","pricing_plan_id":"cebpf4jnsgd1na2vs0mg"},{"bike_id":"aab51bbc-3ab4-4d20-9eb7-ef91ecee4234","system_id":"levelo_inurba_marseille","lat":43.26087,"lon":5.39401,"is_reserved":false,"is_disabled":false,"rental_uris":{"android":"levelo://app?vid=aab51bbc-3ab4-4d20-9eb7-ef91ecee4234","ios":"levelo://app?vid=aab51bbc-3ab4-4d20-9eb7-ef91ecee4234"},"vehicle_type_id":"4","last_reported":1741000141,"current_range_meters":16000,"station_id":"ce4bhh92rcd13ifvqfj0","pricing_plan_id":"cebpf4jnsgd1na2vs0mg"},{"bike_id":"f8a6667f-b1cb-45b4-af07-08e19aba090b","system_id":"levelo_inurba_marseille","lat":43.25084,"lon":5.3951,"is_reserved":false,"is_disabled":false,"rental_uris":{"android":"levelo://app?vid=f8a6667f-b1cb-45b4-af07-08e19aba090b","ios":"levelo://app?vid=f8a6667f-b1cb-45b4-af07-08e19aba090b"},"vehicle_type_id":"4","last_reported":1741000141,"current_range_meters":16000,"station_id":"ce4bhm12rcd13ifvqgkg","pricing_plan_id":"cebpf4jnsgd1na2vs0mg"},{"bike_id":"335de567-973d-4d4a-a45e-574d6adac4d8","system_id":"levelo_inurba_marseille","lat":43.32537,"lon":5.41453,"is_reserved":false,"is_disabled":false,"rental_uris":{"android":"levelo://app?vid=335de567-973d-4d4a-a45e-574d6adac4d8","ios":"levelo://app?vid=335de567-973d-4d4a-a45e-574d6adac4d8"},"vehicle_type_id":"4","last_reported":1741000141,"current_range_meters":16000,"station_id":"ce4bhq12rcd13ifvqhhg","pricing_plan_id":"cebpf4jnsgd1na2vs0mg"},{"bike_id":"76394e5b-b5d3-409a-954a-e09b2559a295","system_id":"levelo_inurba_marseille","lat":43.23199,"lon":5.35551,"is_reserved":false,"is_disabled":false,"rental_uris":{"android":"levelo://app?vid=76394e5b-b5d3-409a-954a-e09b2559a295","ios":"levelo://app?vid=76394e5b-b5d3-409a-954a-e09b2559a295"},"vehicle_type_id":"4","last_reported":1741000141,"current_range_meters":16000,"station_id":"ce4bhu92rcd13ifvqi70","pricing_plan_id":"cebpf4jnsgd1na2vs0mg"},{"bike_id":"88858c28-5a08-41e9-b766-6b2e555e71e3","system_id":"levelo_inurba_marseille","lat":43.30884,"lon":5.36848,"is_reserved":false,"is_disabled":false,"rental_uris":{"android":"levelo://app?vid=88858c28-5a08-41e9-b766-6b2e555e71e3","ios":"levelo://app?vid=88858c28-5a08-41e9-b766-6b2e555e71e3"},"vehicle_type_id":"4","last_reported":1741000141,"current_range_meters":16400,"station_id":"","pricing_plan_id":"cebpf4jnsgd1na2vs0mg"},{"bike_id":"068118a3-c830-4f43-b6e1-24335d3a93b6","system_id":"levelo_inurba_marseille","lat":43.337444,"lon":5.374475,"is_reserved":false,"is_disabled":false,"rental_uris":{"android":"levelo://app?vid=068118a3-c830-4f43-b6e1-24335d3a93b6","ios":"levelo://app?vid=068118a3-c830-4f43-b6e1-24335d3a93b6"},"vehicle_type_id":"4","last_reported":1741000141,"current_range_meters":16400,"station_id":"ce4bh092rcd13ifvqd20","pricing_plan_id":"cebpf4jnsgd1na2vs0mg"},{"bike_id":"3b778583-4fa4-4286-b3fb-8e250bde10fe","system_id":"levelo_inurba_marseille","lat":43.2417,"lon":5.3973,"is_reserved":false,"is_disabled":false,"rental_uris":{"android":"levelo://app?vid=3b778583-4fa4-4286-b3fb-8e250bde10fe","ios":"levelo://app?vid=3b778583-4fa4-4286-b3fb-8e250bde10fe"},"vehicle_type_id":"4","last_reported":1741000141,"current_range_meters":16400,"station_id":"ce4bhn12rcd13ifvqgpg","pricing_plan_id":"cebpf4jnsgd1na2vs0mg"},{"bike_id":"90004ba0-bd32-4e16-8c12-2d5313fe0453","system_id":"levelo_inurba_marseille","lat":43.28725,"lon":5.36085,"is_reserved":false,"is_disabled":false,"rental_uris":{"android":"levelo://app?vid=90004ba0-bd32-4e16-8c12-2d5313fe0453","ios":"levelo://app?vid=90004ba0-bd32-4e16-8c12-2d5313fe0453"},"vehicle_type_id":"4","last_reported":1741000141,"current_range_meters":16400,"station_id":"cki0cbj6b192h4jlfktg","pricing_plan_id":"cebpf4jnsgd1na2vs0mg"},{"bike_id":"056e5918-eaae-4bb0-a14f-4ff0f6c20d5c","system_id":"levelo_inurba_marseille","lat":43.24187,"lon":5.36392,"is_reserved":false,"is_disabled":false,"rental_uris":{"android":"levelo://app?vid=056e5918-eaae-4bb0-a14f-4ff0f6c20d5c","ios":"levelo://app?vid=056e5918-eaae-4bb0-a14f-4ff0f6c20d5c"},"vehicle_type_id":"4","last_reported":1741000141,"current_range_meters":16400,"station_id":"cpo36qri1sfpv3e86is0","pricing_plan_id":"cebpf4jnsgd1na2vs0mg"},{"bike_id":"4300cf9b-3f21-4db1-957e-9b9d93ea7ac9","system_id":"levelo_inurba_marseille","lat":43.31085,"lon":5.38144,"is_reserved":false,"is_disabled":false,"rental_uris":{"android":"levelo://app?vid=4300cf9b-3f21-4db1-957e-9b9d93ea7ac9","ios":"levelo://app?vid=4300cf9b-3f21-4db1-957e-9b9d93ea7ac9"},"vehicle_type_id":"4","last_reported":1741000141,"current_range_meters":16800,"station_id":"","pricing_plan_id":"cebpf4jnsgd1na2vs0mg"},{"bike_id":"c779a216-676a-4c34-a96b-8f3ead75d784","system_id":"levelo_inurba_marseille","lat":43.30543,"lon":5.38416,"is_reserved":false,"is_disabled":false,"rental_uris":{"android":"levelo://app?vid=c779a216-676a-4c34-a96b-8f3ead75d784","ios":"levelo://app?vid=c779a216-676a-4c34-a96b-8f3ead75d784"},"vehicle_type_id":"4","last_reported":1741000141,"current_range_meters":16800,"station_id":"ce4bgg92rcd13ifvqb30","pricing_plan_id":"cebpf4jnsgd1na2vs0mg"},{"bike_id":"2e98121c-8891-4ab6-a9c5-0c0bca4f1004","system_id":"levelo_inurba_marseille","lat":43.29953,"lon":5.36534,"is_reserved":false,"is_disabled":false,"rental_uris":{"android":"levelo://app?vid=2e98121c-8891-4ab6-a9c5-0c0bca4f1004","ios":"levelo://app?vid=2e98121c-8891-4ab6-a9c5-0c0bca4f1004"},"vehicle_type_id":"4","last_reported":1741000141,"current_range_meters":16800,"station_id":"ce4bgm92rcd13ifvqbr0","pricing_plan_id":"cebpf4jnsgd1na2vs0mg"},{"bike_id":"13203078-7922-4853-ab3a-32638914891f","system_id":"levelo_inurba_marseille","lat":43.24078,"lon":5.37742,"is_reserved":false,"is_disabled":false,"rental_uris":{"android":"levelo://app?vid=13203078-7922-4853-ab3a-32638914891f","ios":"levelo://app?vid=13203078-7922-4853-ab3a-32638914891f"},"vehicle_type_id":"4","last_reported":1741000141,"current_range_meters":16800,"station_id":"ce4bhnp2rcd13ifvqgvg","pricing_plan_id":"cebpf4jnsgd1na2vs0mg"},{"bike_id":"dfa506fb-9ece-4c98-bdf1-4cc3ff8774e6","system_id":"levelo_inurba_marseille","lat":43.32479,"lon":5.36578,"is_reserved":false,"is_disabled":false,"rental_uris":{"android":"levelo://app?vid=dfa506fb-9ece-4c98-bdf1-4cc3ff8774e6","ios":"levelo://app?vid=dfa506fb-9ece-4c98-bdf1-4cc3ff8774e6"},"vehicle_type_id":"4","last_reported":1741000141,"current_range_meters":16800,"station_id":"ce4bhs12rcd13ifvqhvg","pricing_plan_id":"cebpf4jnsgd1na2vs0mg"},{"bike_id":"e88a87d4-3672-416f-8603-3ed881deae6c","system_id":"levelo_inurba_marseille","lat":43.30793,"lon":5.3815,"is_reserved":false,"is_disabled":false,"rental_uris":{"android":"levelo://app?vid=e88a87d4-3672-416f-8603-3ed881deae6c","ios":"levelo://app?vid=e88a87d4-3672-416f-8603-3ed881deae6c"},"vehicle_type_id":"4","last_reported":1741000141,"current_range_meters":17200,"station_id":"ce4bgt12rcd13ifvqce0","pricing_plan_id":"cebpf4jnsgd1na2vs0mg"},{"bike_id":"c367ef4c-4ff5-4dba-b6a9-3a5dbbd96c71","system_id":"levelo_inurba_marseille","lat":43.3169,"lon":5.40478,"is_reserved":false,"is_disabled":false,"rental_uris":{"android":"levelo://app?vid=c367ef4c-4ff5-4dba-b6a9-3a5dbbd96c71","ios":"levelo://app?vid=c367ef4c-4ff5-4dba-b6a9-3a5dbbd96c71"},"vehicle_type_id":"4","last_reported":1741000141,"current_range_meters":17200,"station_id":"ce4bh012rcd13ifvqd00","pricing_plan_id":"cebpf4jnsgd1na2vs0mg"},{"bike_id":"91d140ff-1575-411b-bb1d-beb39d8b3b19","system_id":"levelo_inurba_marseille","lat":43.29575,"lon":5.39978,"is_reserved":false,"is_disabled":false,"rental_uris":{"android":"levelo://app?vid=91d140ff-1575-411b-bb1d-beb39d8b3b19","ios":"levelo://app?vid=91d140ff-1575-411b-bb1d-beb39d8b3b19"},"vehicle_type_id":"4","last_reported":1741000141,"current_range_meters":17200,"station_id":"ce4bh312rcd13ifvqdj0","pricing_plan_id":"cebpf4jnsgd1na2vs0mg"},{"bike_id":"4aaec2e6-2dfb-4159-821a-7a493fa8e5f4","system_id":"levelo_inurba_marseille","lat":43.25005,"lon":5.38913,"is_reserved":false,"is_disabled":false,"rental_uris":{"android":"levelo://app?vid=4aaec2e6-2dfb-4159-821a-7a493fa8e5f4","ios":"levelo://app?vid=4aaec2e6-2dfb-4159-821a-7a493fa8e5f4"},"vehicle_type_id":"4","last_reported":1741000141,"current_range_meters":17200,"station_id":"ce4bhgp2rcd13ifvqfd0","pricing_plan_id":"cebpf4jnsgd1na2vs0mg"},{"bike_id":"3bb60d81-263f-4c01-b89b-e6042baf1c71","system_id":"levelo_inurba_marseille","lat":43.25001,"lon":5.38934,"is_reserved":false,"is_disabled":false,"rental_uris":{"android":"levelo://app?vid=3bb60d81-263f-4c01-b89b-e6042baf1c71","ios":"levelo://app?vid=3bb60d81-263f-4c01-b89b-e6042baf1c71"},"vehicle_type_id":"4","last_reported":1741000141,"current_range_meters":17200,"station_id":"ce4bhgp2rcd13ifvqfd0","pricing_plan_id":"cebpf4jnsgd1na2vs0mg"},{"bike_id":"b6e6106f-0746-491a-9be6-56aeaff10cea","system_id":"levelo_inurba_marseille","lat":43.23155,"lon":5.43705,"is_reserved":false,"is_disabled":false,"rental_uris":{"android":"levelo://app?vid=b6e6106f-0746-491a-9be6-56aeaff10cea","ios":"levelo://app?vid=b6e6106f-0746-491a-9be6-56aeaff10cea"},"vehicle_type_id":"4","last_reported":1741000141,"current_range_meters":17200,"station_id":"ce4bhmp2rcd13ifvqgog","pricing_plan_id":"cebpf4jnsgd1na2vs0mg"},{"bike_id":"8a176c24-9cad-47e8-8777-72b0e258a9fd","system_id":"levelo_inurba_marseille","lat":43.29295,"lon":5.3744,"is_reserved":false,"is_disabled":false,"rental_uris":{"android":"levelo://app?vid=8a176c24-9cad-47e8-8777-72b0e258a9fd","ios":"levelo://app?vid=8a176c24-9cad-47e8-8777-72b0e258a9fd"},"vehicle_type_id":"4","last_reported":1741000141,"current_range_meters":17600,"station_id":"ce4bgi12rcd13ifvqb70","pricing_plan_id":"cebpf4jnsgd1na2vs0mg"},{"bike_id":"fda92bef-506c-4939-af7d-4ce1dca0e499","system_id":"levelo_inurba_marseille","lat":43.29854,"lon":5.36284,"is_reserved":false,"is_disabled":false,"rental_uris":{"android":"levelo://app?vid=fda92bef-506c-4939-af7d-4ce1dca0e499","ios":"levelo://app?vid=fda92bef-506c-4939-af7d-4ce1dca0e499"},"vehicle_type_id":"4","last_reported":1741000141,"current_range_meters":17600,"station_id":"ce4bgpp2rcd13ifvqc3g","pricing_plan_id":"cebpf4jnsgd1na2vs0mg"},{"bike_id":"f1dcfab8-8c4b-4001-beee-8a2b3c7442f3","system_id":"levelo_inurba_marseille","lat":43.26684,"lon":5.38269,"is_reserved":false,"is_disabled":false,"rental_uris":{"android":"levelo://app?vid=f1dcfab8-8c4b-4001-beee-8a2b3c7442f3","ios":"levelo://app?vid=f1dcfab8-8c4b-4001-beee-8a2b3c7442f3"},"vehicle_type_id":"4","last_reported":1741000141,"current_range_meters":17600,"station_id":"ce4bhg92rcd13ifvqf90","pricing_plan_id":"cebpf4jnsgd1na2vs0mg"},{"bike_id":"bf17c198-d903-43e0-b82d-4fa46fe4c1fa","system_id":"levelo_inurba_marseille","lat":43.23196,"lon":5.39983,"is_reserved":false,"is_disabled":false,"rental_uris":{"android":"levelo://app?vid=bf17c198-d903-43e0-b82d-4fa46fe4c1fa","ios":"levelo://app?vid=bf17c198-d903-43e0-b82d-4fa46fe4c1fa"},"vehicle_type_id":"4","last_reported":1741000141,"current_range_meters":17600,"station_id":"ce4bhn12rcd13ifvqgqg","pricing_plan_id":"cebpf4jnsgd1na2vs0mg"},{"bike_id":"69379c57-b1c7-4e95-b8eb-049067b38329","system_id":"levelo_inurba_marseille","lat":43.275,"lon":5.42478,"is_reserved":false,"is_disabled":false,"rental_uris":{"android":"levelo://app?vid=69379c57-b1c7-4e95-b8eb-049067b38329","ios":"levelo://app?vid=69379c57-b1c7-4e95-b8eb-049067b38329"},"vehicle_type_id":"4","last_reported":1741000141,"current_range_meters":17600,"station_id":"ce4bhn92rcd13ifvqgrg","pricing_plan_id":"cebpf4jnsgd1na2vs0mg"},{"bike_id":"88ea3635-d6ec-4847-b8de-04e30512df40","system_id":"levelo_inurba_marseille","lat":43.29927,"lon":5.36517,"is_reserved":false,"is_disabled":false,"rental_uris":{"android":"levelo://app?vid=88ea3635-d6ec-4847-b8de-04e30512df40","ios":"levelo://app?vid=88ea3635-d6ec-4847-b8de-04e30512df40"},"vehicle_type_id":"4","last_reported":1741000141,"current_range_meters":18000,"station_id":"ce4bgm92rcd13ifvqbr0","pricing_plan_id":"cebpf4jnsgd1na2vs0mg"},{"bike_id":"dea98afb-bb4e-4a6d-b20e-200595b5e05a","system_id":"levelo_inurba_marseille","lat":43.29854,"lon":5.36245,"is_reserved":false,"is_disabled":false,"rental_uris":{"android":"levelo://app?vid=dea98afb-bb4e-4a6d-b20e-200595b5e05a","ios":"levelo://app?vid=dea98afb-bb4e-4a6d-b20e-200595b5e05a"},"vehicle_type_id":"4","last_reported":1741000141,"current_range_meters":18000,"station_id":"ce4bgpp2rcd13ifvqc3g","pricing_plan_id":"cebpf4jnsgd1na2vs0mg"},{"bike_id":"137b7204-5aa6-4cee-8b01-8ea34f4b8c3e","system_id":"levelo_inurba_marseille","lat":43.28103,"lon":5.37834,"is_reserved":false,"is_disabled":false,"rental_uris":{"android":"levelo://app?vid=137b7204-5aa6-4cee-8b01-8ea34f4b8c3e","ios":"levelo://app?vid=137b7204-5aa6-4cee-8b01-8ea34f4b8c3e"},"vehicle_type_id":"4","last_reported":1741000141,"current_range_meters":18000,"station_id":"ce4bha12rcd13ifvqee0","pricing_plan_id":"cebpf4jnsgd1na2vs0mg"},{"bike_id":"31ef60c5-6d04-4645-8220-1969e9442ba2","system_id":"levelo_inurba_marseille","lat":43.28097,"lon":5.37832,"is_reserved":false,"is_disabled":false,"rental_uris":{"android":"levelo://app?vid=31ef60c5-6d04-4645-8220-1969e9442ba2","ios":"levelo://app?vid=31ef60c5-6d04-4645-8220-1969e9442ba2"},"vehicle_type_id":"4","last_reported":1741000141,"current_range_meters":18000,"station_id":"ce4bha12rcd13ifvqee0","pricing_plan_id":"cebpf4jnsgd1na2vs0mg"},{"bike_id":"127a1fac-5e85-4bf8-a2a4-9dd40f0473f7","system_id":"levelo_inurba_marseille","lat":43.27475,"lon":5.42468,"is_reserved":false,"is_disabled":false,"rental_uris":{"android":"levelo://app?vid=127a1fac-5e85-4bf8-a2a4-9dd40f0473f7","ios":"levelo://app?vid=127a1fac-5e85-4bf8-a2a4-9dd40f0473f7"},"vehicle_type_id":"4","last_reported":1741000141,"current_range_meters":18000,"station_id":"ce4bhn92rcd13ifvqgrg","pricing_plan_id":"cebpf4jnsgd1na2vs0mg"},{"bike_id":"b49050a7-0ea8-46d2-9831-68f0b93f9b29","system_id":"levelo_inurba_marseille","lat":43.24171,"lon":5.36402,"is_reserved":false,"is_disabled":false,"rental_uris":{"android":"levelo://app?vid=b49050a7-0ea8-46d2-9831-68f0b93f9b29","ios":"levelo://app?vid=b49050a7-0ea8-46d2-9831-68f0b93f9b29"},"vehicle_type_id":"4","last_reported":1741000141,"current_range_meters":18000,"station_id":"cpo36qri1sfpv3e86is0","pricing_plan_id":"cebpf4jnsgd1na2vs0mg"},{"bike_id":"43099ed8-c284-4b7a-993c-835512f450ad","system_id":"levelo_inurba_marseille","lat":43.3293,"lon":5.43005,"is_reserved":false,"is_disabled":false,"rental_uris":{"android":"levelo://app?vid=43099ed8-c284-4b7a-993c-835512f450ad","ios":"levelo://app?vid=43099ed8-c284-4b7a-993c-835512f450ad"},"vehicle_type_id":"4","last_reported":1741000141,"current_range_meters":18800,"station_id":"","pricing_plan_id":"cebpf4jnsgd1na2vs0mg"},{"bike_id":"f57abd34-ece4-42fe-a8b8-f10a92956111","system_id":"levelo_inurba_marseille","lat":43.23142,"lon":5.43715,"is_reserved":false,"is_disabled":false,"rental_uris":{"android":"levelo://app?vid=f57abd34-ece4-42fe-a8b8-f10a92956111","ios":"levelo://app?vid=f57abd34-ece4-42fe-a8b8-f10a92956111"},"vehicle_type_id":"4","last_reported":1741000141,"current_range_meters":18800,"station_id":"ce4bhmp2rcd13ifvqgog","pricing_plan_id":"cebpf4jnsgd1na2vs0mg"},{"bike_id":"71d2d9e1-13cc-4811-9025-ef4d811ce446","system_id":"levelo_inurba_marseille","lat":43.30278,"lon":5.37691,"is_reserved":false,"is_disabled":false,"rental_uris":{"android":"levelo://app?vid=71d2d9e1-13cc-4811-9025-ef4d811ce446","ios":"levelo://app?vid=71d2d9e1-13cc-4811-9025-ef4d811ce446"},"vehicle_type_id":"4","last_reported":1741000141,"current_range_meters":19200,"station_id":"ce4bguh2rcd13ifvqcj0","pricing_plan_id":"cebpf4jnsgd1na2vs0mg"},{"bike_id":"e5132245-aa56-4fe5-99c7-e1061f7dfd0e","system_id":"levelo_inurba_marseille","lat":43.29636,"lon":5.40596,"is_reserved":false,"is_disabled":false,"rental_uris":{"android":"levelo://app?vid=e5132245-aa56-4fe5-99c7-e1061f7dfd0e","ios":"levelo://app?vid=e5132245-aa56-4fe5-99c7-e1061f7dfd0e"},"vehicle_type_id":"4","last_reported":1741000141,"current_range_meters":19200,"station_id":"ce4bh0h2rcd13ifvqd60","pricing_plan_id":"cebpf4jnsgd1na2vs0mg"},{"bike_id":"28b4eb2f-a491-4f0b-8601-fb56ff1edd5f","system_id":"levelo_inurba_marseille","lat":43.28658,"lon":5.38657,"is_reserved":false,"is_disabled":false,"rental_uris":{"android":"levelo://app?vid=28b4eb2f-a491-4f0b-8601-fb56ff1edd5f","ios":"levelo://app?vid=28b4eb2f-a491-4f0b-8601-fb56ff1edd5f"},"vehicle_type_id":"4","last_reported":1741000141,"current_range_meters":19200,"station_id":"ce4bh492rcd13ifvqdug","pricing_plan_id":"cebpf4jnsgd1na2vs0mg"},{"bike_id":"564620e2-74cc-4af8-8d6f-3478451b0b45","system_id":"levelo_inurba_marseille","lat":43.26065,"lon":5.39398,"is_reserved":false,"is_disabled":false,"rental_uris":{"android":"levelo://app?vid=564620e2-74cc-4af8-8d6f-3478451b0b45","ios":"levelo://app?vid=564620e2-74cc-4af8-8d6f-3478451b0b45"},"vehicle_type_id":"4","last_reported":1741000141,"current_range_meters":19200,"station_id":"ce4bhh92rcd13ifvqfj0","pricing_plan_id":"cebpf4jnsgd1na2vs0mg"},{"bike_id":"eae398bc-91bf-451a-bd78-bc0ce4649278","system_id":"levelo_inurba_marseille","lat":43.29549,"lon":5.42274,"is_reserved":false,"is_disabled":false,"rental_uris":{"android":"levelo://app?vid=eae398bc-91bf-451a-bd78-bc0ce4649278","ios":"levelo://app?vid=eae398bc-91bf-451a-bd78-bc0ce4649278"},"vehicle_type_id":"4","last_reported":1741000141,"current_range_meters":19200,"station_id":"ce4bhph2rcd13ifvqhdg","pricing_plan_id":"cebpf4jnsgd1na2vs0mg"},{"bike_id":"35097479-58f2-48ae-b670-ae68f79f8afe","system_id":"levelo_inurba_marseille","lat":43.30489,"lon":5.39758,"is_reserved":false,"is_disabled":false,"rental_uris":{"android":"levelo://app?vid=35097479-58f2-48ae-b670-ae68f79f8afe","ios":"levelo://app?vid=35097479-58f2-48ae-b670-ae68f79f8afe"},"vehicle_type_id":"4","last_reported":1741000141,"current_range_meters":19600,"station_id":"","pricing_plan_id":"cebpf4jnsgd1na2vs0mg"},{"bike_id":"51a3706d-d50d-4125-bd64-0b2923d0ffe6","system_id":"levelo_inurba_marseille","lat":43.3014,"lon":5.3985,"is_reserved":false,"is_disabled":false,"rental_uris":{"android":"levelo://app?vid=51a3706d-d50d-4125-bd64-0b2923d0ffe6","ios":"levelo://app?vid=51a3706d-d50d-4125-bd64-0b2923d0ffe6"},"vehicle_type_id":"4","last_reported":1741000141,"current_range_meters":19600,"station_id":"ce4bh0h2rcd13ifvqd40","pricing_plan_id":"cebpf4jnsgd1na2vs0mg"},{"bike_id":"c96edc7f-31e7-4758-a99a-e02b8cef5467","system_id":"levelo_inurba_marseille","lat":43.290344,"lon":5.376389,"is_reserved":false,"is_disabled":false,"rental_uris":{"android":"levelo://app?vid=c96edc7f-31e7-4758-a99a-e02b8cef5467","ios":"levelo://app?vid=c96edc7f-31e7-4758-a99a-e02b8cef5467"},"vehicle_type_id":"4","last_reported":1741000141,"current_range_meters":19600,"station_id":"ce4bh292rcd13ifvqdf0","pricing_plan_id":"cebpf4jnsgd1na2vs0mg"},{"bike_id":"2d8674e1-af8f-4f30-8fb5-f4c9a098905f","system_id":"levelo_inurba_marseille","lat":43.27835,"lon":5.40716,"is_reserved":false,"is_disabled":false,"rental_uris":{"android":"levelo://app?vid=2d8674e1-af8f-4f30-8fb5-f4c9a098905f","ios":"levelo://app?vid=2d8674e1-af8f-4f30-8fb5-f4c9a098905f"},"vehicle_type_id":"4","last_reported":1741000141,"current_range_meters":19600,"station_id":"ce4bhnh2rcd13ifvqgtg","pricing_plan_id":"cebpf4jnsgd1na2vs0mg"},{"bike_id":"44a9f278-966b-49d3-8294-63abee646591","system_id":"levelo_inurba_marseille","lat":43.24071,"lon":5.37765,"is_reserved":false,"is_disabled":false,"rental_uris":{"android":"levelo://app?vid=44a9f278-966b-49d3-8294-63abee646591","ios":"levelo://app?vid=44a9f278-966b-49d3-8294-63abee646591"},"vehicle_type_id":"4","last_reported":1741000141,"current_range_meters":19600,"station_id":"ce4bhnp2rcd13ifvqgvg","pricing_plan_id":"cebpf4jnsgd1na2vs0mg"},{"bike_id":"5563387c-bd60-4558-a9a2-533bd90adc86","system_id":"levelo_inurba_marseille","lat":43.295563,"lon":5.43233,"is_reserved":false,"is_disabled":false,"rental_uris":{"android":"levelo://app?vid=5563387c-bd60-4558-a9a2-533bd90adc86","ios":"levelo://app?vid=5563387c-bd60-4558-a9a2-533bd90adc86"},"vehicle_type_id":"4","last_reported":1741000141,"current_range_meters":19600,"station_id":"ce4bhpp2rcd13ifvqhfg","pricing_plan_id":"cebpf4jnsgd1na2vs0mg"},{"bike_id":"31accac7-daa1-48e4-9364-efbbdee2d729","system_id":"levelo_inurba_marseille","lat":43.31437,"lon":5.38607,"is_reserved":false,"is_disabled":false,"rental_uris":{"android":"levelo://app?vid=31accac7-daa1-48e4-9364-efbbdee2d729","ios":"levelo://app?vid=31accac7-daa1-48e4-9364-efbbdee2d729"},"vehicle_type_id":"4","last_reported":1741000141,"current_range_meters":20000,"station_id":"","pricing_plan_id":"cebpf4jnsgd1na2vs0mg"},{"bike_id":"d5871994-6bbc-4539-90ae-04244fd18631","system_id":"levelo_inurba_marseille","lat":43.28686,"lon":5.40066,"is_reserved":false,"is_disabled":false,"rental_uris":{"android":"levelo://app?vid=d5871994-6bbc-4539-90ae-04244fd18631","ios":"levelo://app?vid=d5871994-6bbc-4539-90ae-04244fd18631"},"vehicle_type_id":"4","last_reported":1741000141,"current_range_meters":20000,"station_id":"","pricing_plan_id":"cebpf4jnsgd1na2vs0mg"},{"bike_id":"6f488553-cf0a-4175-bd5b-d23bf61df2fa","system_id":"levelo_inurba_marseille","lat":43.29575,"lon":5.37515,"is_reserved":false,"is_disabled":false,"rental_uris":{"android":"levelo://app?vid=6f488553-cf0a-4175-bd5b-d23bf61df2fa","ios":"levelo://app?vid=6f488553-cf0a-4175-bd5b-d23bf61df2fa"},"vehicle_type_id":"4","last_reported":1741000141,"current_range_meters":20000,"station_id":"ce4bgh92rcd13ifvqb50","pricing_plan_id":"cebpf4jnsgd1na2vs0mg"},{"bike_id":"73d30b01-c62a-4110-b405-9fd8cc43096e","system_id":"levelo_inurba_marseille","lat":43.30155,"lon":5.38083,"is_reserved":false,"is_disabled":false,"rental_uris":{"android":"levelo://app?vid=73d30b01-c62a-4110-b405-9fd8cc43096e","ios":"levelo://app?vid=73d30b01-c62a-4110-b405-9fd8cc43096e"},"vehicle_type_id":"4","last_reported":1741000141,"current_range_meters":20000,"station_id":"ce4bgjp2rcd13ifvqbh0","pricing_plan_id":"cebpf4jnsgd1na2vs0mg"},{"bike_id":"b5ccea05-d5f0-4c55-8e0a-e9d39e58f27a","system_id":"levelo_inurba_marseille","lat":43.31222,"lon":5.36857,"is_reserved":false,"is_disabled":false,"rental_uris":{"android":"levelo://app?vid=b5ccea05-d5f0-4c55-8e0a-e9d39e58f27a","ios":"levelo://app?vid=b5ccea05-d5f0-4c55-8e0a-e9d39e58f27a"},"vehicle_type_id":"4","last_reported":1741000141,"current_range_meters":20000,"station_id":"ce4bgl92rcd13ifvqbq0","pricing_plan_id":"cebpf4jnsgd1na2vs0mg"},{"bike_id":"635da790-fffd-4511-ac5e-ef09942085ad","system_id":"levelo_inurba_marseille","lat":43.27049,"lon":5.40259,"is_reserved":false,"is_disabled":false,"rental_uris":{"android":"levelo://app?vid=635da790-fffd-4511-ac5e-ef09942085ad","ios":"levelo://app?vid=635da790-fffd-4511-ac5e-ef09942085ad"},"vehicle_type_id":"4","last_reported":1741000141,"current_range_meters":20000,"station_id":"ce4bhk92rcd13ifvqgc0","pricing_plan_id":"cebpf4jnsgd1na2vs0mg"},{"bike_id":"5adca0c6-4b24-4647-938a-5901c7772c02","system_id":"levelo_inurba_marseille","lat":43.25931,"lon":5.40907,"is_reserved":false,"is_disabled":false,"rental_uris":{"android":"levelo://app?vid=5adca0c6-4b24-4647-938a-5901c7772c02","ios":"levelo://app?vid=5adca0c6-4b24-4647-938a-5901c7772c02"},"vehicle_type_id":"4","last_reported":1741000141,"current_range_meters":20000,"station_id":"ce4bhm92rcd13ifvqglg","pricing_plan_id":"cebpf4jnsgd1na2vs0mg"},{"bike_id":"9a839f17-338c-4ae9-b389-b16a1b29e0d5","system_id":"levelo_inurba_marseille","lat":43.23192,"lon":5.35554,"is_reserved":false,"is_disabled":false,"rental_uris":{"android":"levelo://app?vid=9a839f17-338c-4ae9-b389-b16a1b29e0d5","ios":"levelo://app?vid=9a839f17-338c-4ae9-b389-b16a1b29e0d5"},"vehicle_type_id":"4","last_reported":1741000141,"current_range_meters":20000,"station_id":"ce4bhu92rcd13ifvqi70","pricing_plan_id":"cebpf4jnsgd1na2vs0mg"},{"bike_id":"d1a8027a-5f74-4b58-bebd-fcd4ef7e5181","system_id":"levelo_inurba_marseille","lat":43.29912,"lon":5.38157,"is_reserved":false,"is_disabled":false,"rental_uris":{"android":"levelo://app?vid=d1a8027a-5f74-4b58-bebd-fcd4ef7e5181","ios":"levelo://app?vid=d1a8027a-5f74-4b58-bebd-fcd4ef7e5181"},"vehicle_type_id":"4","last_reported":1741000141,"current_range_meters":20400,"station_id":"ce4bgj12rcd13ifvqbc0","pricing_plan_id":"cebpf4jnsgd1na2vs0mg"},{"bike_id":"8e4b3b1b-80a9-4972-8eea-981b9e4e4549","system_id":"levelo_inurba_marseille","lat":43.29937,"lon":5.37465,"is_reserved":false,"is_disabled":false,"rental_uris":{"android":"levelo://app?vid=8e4b3b1b-80a9-4972-8eea-981b9e4e4549","ios":"levelo://app?vid=8e4b3b1b-80a9-4972-8eea-981b9e4e4549"},"vehicle_type_id":"4","last_reported":1741000141,"current_range_meters":20400,"station_id":"ce4bgjh2rcd13ifvqbg0","pricing_plan_id":"cebpf4jnsgd1na2vs0mg"},{"bike_id":"8856bf39-74a5-45be-976f-f14e57807ea6","system_id":"levelo_inurba_marseille","lat":43.28618,"lon":5.35103,"is_reserved":false,"is_disabled":false,"rental_uris":{"android":"levelo://app?vid=8856bf39-74a5-45be-976f-f14e57807ea6","ios":"levelo://app?vid=8856bf39-74a5-45be-976f-f14e57807ea6"},"vehicle_type_id":"4","last_reported":1741000141,"current_range_meters":20400,"station_id":"ce4bhch2rcd13ifvqeug","pricing_plan_id":"cebpf4jnsgd1na2vs0mg"},{"bike_id":"97d2bd57-6755-471c-bdc9-8f0916d0fcd8","system_id":"levelo_inurba_marseille","lat":43.31,"lon":5.38463,"is_reserved":false,"is_disabled":false,"rental_uris":{"android":"levelo://app?vid=97d2bd57-6755-471c-bdc9-8f0916d0fcd8","ios":"levelo://app?vid=97d2bd57-6755-471c-bdc9-8f0916d0fcd8"},"vehicle_type_id":"4","last_reported":1741000141,"current_range_meters":20800,"station_id":"","pricing_plan_id":"cebpf4jnsgd1na2vs0mg"},{"bike_id":"33f12a97-26db-466b-b677-e70aa65aba42","system_id":"levelo_inurba_marseille","lat":43.30412,"lon":5.39746,"is_reserved":false,"is_disabled":false,"rental_uris":{"android":"levelo://app?vid=33f12a97-26db-466b-b677-e70aa65aba42","ios":"levelo://app?vid=33f12a97-26db-466b-b677-e70aa65aba42"},"vehicle_type_id":"4","last_reported":1741000141,"current_range_meters":20800,"station_id":"ce4bh092rcd13ifvqd20","pricing_plan_id":"cebpf4jnsgd1na2vs0mg"},{"bike_id":"3f40e03f-95b4-4a68-95b6-e867a3f93c72","system_id":"levelo_inurba_marseille","lat":43.25823,"lon":5.39393,"is_reserved":false,"is_disabled":false,"rental_uris":{"android":"levelo://app?vid=3f40e03f-95b4-4a68-95b6-e867a3f93c72","ios":"levelo://app?vid=3f40e03f-95b4-4a68-95b6-e867a3f93c72"},"vehicle_type_id":"4","last_reported":1741000141,"current_range_meters":20800,"station_id":"ce4bhip2rcd13ifvqft0","pricing_plan_id":"cebpf4jnsgd1na2vs0mg"},{"bike_id":"3f6d7de6-55bc-48a2-947d-ece8ba3b9f27","system_id":"levelo_inurba_marseille","lat":43.24177,"lon":5.36396,"is_reserved":false,"is_disabled":false,"rental_uris":{"android":"levelo://app?vid=3f6d7de6-55bc-48a2-947d-ece8ba3b9f27","ios":"levelo://app?vid=3f6d7de6-55bc-48a2-947d-ece8ba3b9f27"},"vehicle_type_id":"4","last_reported":1741000141,"current_range_meters":20800,"station_id":"cpo36qri1sfpv3e86is0","pricing_plan_id":"cebpf4jnsgd1na2vs0mg"},{"bike_id":"893778f4-7857-4872-b4f1-730baad1d468","system_id":"levelo_inurba_marseille","lat":43.30153,"lon":5.3808,"is_reserved":false,"is_disabled":false,"rental_uris":{"android":"levelo://app?vid=893778f4-7857-4872-b4f1-730baad1d468","ios":"levelo://app?vid=893778f4-7857-4872-b4f1-730baad1d468"},"vehicle_type_id":"4","last_reported":1741000141,"current_range_meters":21600,"station_id":"ce4bgjp2rcd13ifvqbh0","pricing_plan_id":"cebpf4jnsgd1na2vs0mg"},{"bike_id":"52271471-26ba-467e-9a63-16ee69b978b0","system_id":"levelo_inurba_marseille","lat":43.30914,"lon":5.3686,"is_reserved":false,"is_disabled":false,"rental_uris":{"android":"levelo://app?vid=52271471-26ba-467e-9a63-16ee69b978b0","ios":"levelo://app?vid=52271471-26ba-467e-9a63-16ee69b978b0"},"vehicle_type_id":"4","last_reported":1741000141,"current_range_meters":21600,"station_id":"ce4bgn92rcd13ifvqbvg","pricing_plan_id":"cebpf4jnsgd1na2vs0mg"},{"bike_id":"3b676d38-fd0a-4dc8-b7e5-08f731799086","system_id":"levelo_inurba_marseille","lat":43.29865,"lon":5.36271,"is_reserved":false,"is_disabled":false,"rental_uris":{"android":"levelo://app?vid=3b676d38-fd0a-4dc8-b7e5-08f731799086","ios":"levelo://app?vid=3b676d38-fd0a-4dc8-b7e5-08f731799086"},"vehicle_type_id":"4","last_reported":1741000141,"current_range_meters":21600,"station_id":"ce4bgpp2rcd13ifvqc3g","pricing_plan_id":"cebpf4jnsgd1na2vs0mg"},{"bike_id":"ecec2ac9-b500-4d07-888b-51cfb4d37942","system_id":"levelo_inurba_marseille","lat":43.30544,"lon":5.36549,"is_reserved":false,"is_disabled":false,"rental_uris":{"android":"levelo://app?vid=ecec2ac9-b500-4d07-888b-51cfb4d37942","ios":"levelo://app?vid=ecec2ac9-b500-4d07-888b-51cfb4d37942"},"vehicle_type_id":"4","last_reported":1741000141,"current_range_meters":21600,"station_id":"ce4bgs12rcd13ifvqcag","pricing_plan_id":"cebpf4jnsgd1na2vs0mg"},{"bike_id":"e088df72-0a54-43e3-aa17-f7f9803813ed","system_id":"levelo_inurba_marseille","lat":43.30529,"lon":5.365385,"is_reserved":false,"is_disabled":false,"rental_uris":{"android":"levelo://app?vid=e088df72-0a54-43e3-aa17-f7f9803813ed","ios":"levelo://app?vid=e088df72-0a54-43e3-aa17-f7f9803813ed"},"vehicle_type_id":"4","last_reported":1741000141,"current_range_meters":21600,"station_id":"ce4bgs12rcd13ifvqcag","pricing_plan_id":"cebpf4jnsgd1na2vs0mg"},{"bike_id":"6fbbcee5-0028-4887-9a31-2ba53b17cd3e","system_id":"levelo_inurba_marseille","lat":43.30148,"lon":5.37418,"is_reserved":false,"is_disabled":false,"rental_uris":{"android":"levelo://app?vid=6fbbcee5-0028-4887-9a31-2ba53b17cd3e","ios":"levelo://app?vid=6fbbcee5-0028-4887-9a31-2ba53b17cd3e"},"vehicle_type_id":"4","last_reported":1741000141,"current_range_meters":21600,"station_id":"ce4bgs92rcd13ifvqcc0","pricing_plan_id":"cebpf4jnsgd1na2vs0mg"},{"bike_id":"99a1e384-5cf7-4f05-84c8-892020e70c11","system_id":"levelo_inurba_marseille","lat":43.29356,"lon":5.37948,"is_reserved":false,"is_disabled":false,"rental_uris":{"android":"levelo://app?vid=99a1e384-5cf7-4f05-84c8-892020e70c11","ios":"levelo://app?vid=99a1e384-5cf7-4f05-84c8-892020e70c11"},"vehicle_type_id":"4","last_reported":1741000141,"current_range_meters":21600,"station_id":"ce4bh9p2rcd13ifvqed0","pricing_plan_id":"cebpf4jnsgd1na2vs0mg"},{"bike_id":"8e11b3d0-2a89-4c8c-80e1-a3d616c7c579","system_id":"levelo_inurba_marseille","lat":43.26568,"lon":5.39003,"is_reserved":false,"is_disabled":false,"rental_uris":{"android":"levelo://app?vid=8e11b3d0-2a89-4c8c-80e1-a3d616c7c579","ios":"levelo://app?vid=8e11b3d0-2a89-4c8c-80e1-a3d616c7c579"},"vehicle_type_id":"4","last_reported":1741000141,"current_range_meters":21600,"station_id":"ce4bhe12rcd13ifvqf30","pricing_plan_id":"cebpf4jnsgd1na2vs0mg"},{"bike_id":"bf7b74d5-e9b0-4629-ba2d-ab9940acb4c6","system_id":"levelo_inurba_marseille","lat":43.26578,"lon":5.39013,"is_reserved":false,"is_disabled":false,"rental_uris":{"android":"levelo://app?vid=bf7b74d5-e9b0-4629-ba2d-ab9940acb4c6","ios":"levelo://app?vid=bf7b74d5-e9b0-4629-ba2d-ab9940acb4c6"},"vehicle_type_id":"4","last_reported":1741000141,"current_range_meters":21600,"station_id":"ce4bhe12rcd13ifvqf30","pricing_plan_id":"cebpf4jnsgd1na2vs0mg"},{"bike_id":"8474e65a-12c0-4925-857b-50c7089e6556","system_id":"levelo_inurba_marseille","lat":43.26686,"lon":5.38267,"is_reserved":false,"is_disabled":false,"rental_uris":{"android":"levelo://app?vid=8474e65a-12c0-4925-857b-50c7089e6556","ios":"levelo://app?vid=8474e65a-12c0-4925-857b-50c7089e6556"},"vehicle_type_id":"4","last_reported":1741000141,"current_range_meters":21600,"station_id":"ce4bhg92rcd13ifvqf90","pricing_plan_id":"cebpf4jnsgd1na2vs0mg"},{"bike_id":"30ff89c1-0225-4d8d-90df-775f65cb777d","system_id":"levelo_inurba_marseille","lat":43.25016,"lon":5.38916,"is_reserved":false,"is_disabled":false,"rental_uris":{"android":"levelo://app?vid=30ff89c1-0225-4d8d-90df-775f65cb777d","ios":"levelo://app?vid=30ff89c1-0225-4d8d-90df-775f65cb777d"},"vehicle_type_id":"4","last_reported":1741000141,"current_range_meters":21600,"station_id":"ce4bhgp2rcd13ifvqfd0","pricing_plan_id":"cebpf4jnsgd1na2vs0mg"},{"bike_id":"5aa5865a-e63a-40b5-ba08-9535f078b97f","system_id":"levelo_inurba_marseille","lat":43.28166,"lon":5.42638,"is_reserved":false,"is_disabled":false,"rental_uris":{"android":"levelo://app?vid=5aa5865a-e63a-40b5-ba08-9535f078b97f","ios":"levelo://app?vid=5aa5865a-e63a-40b5-ba08-9535f078b97f"},"vehicle_type_id":"4","last_reported":1741000141,"current_range_meters":21600,"station_id":"ce4bhnh2rcd13ifvqgug","pricing_plan_id":"cebpf4jnsgd1na2vs0mg"},{"bike_id":"19243cf0-0a05-4d03-9e6d-0d71ebef71c3","system_id":"levelo_inurba_marseille","lat":43.3362,"lon":5.41035,"is_reserved":false,"is_disabled":false,"rental_uris":{"android":"levelo://app?vid=19243cf0-0a05-4d03-9e6d-0d71ebef71c3","ios":"levelo://app?vid=19243cf0-0a05-4d03-9e6d-0d71ebef71c3"},"vehicle_type_id":"4","last_reported":1741000141,"current_range_meters":21600,"station_id":"ce4bhqh2rcd13ifvqhmg","pricing_plan_id":"cebpf4jnsgd1na2vs0mg"},{"bike_id":"1f56ea98-3422-427d-80a0-b0449b4a89ac","system_id":"levelo_inurba_marseille","lat":43.324792,"lon":5.365789,"is_reserved":false,"is_disabled":false,"rental_uris":{"android":"levelo://app?vid=1f56ea98-3422-427d-80a0-b0449b4a89ac","ios":"levelo://app?vid=1f56ea98-3422-427d-80a0-b0449b4a89ac"},"vehicle_type_id":"4","last_reported":1741000141,"current_range_meters":21600,"station_id":"ce4bhs12rcd13ifvqhvg","pricing_plan_id":"cebpf4jnsgd1na2vs0mg"},{"bike_id":"a2fe882a-c2d4-49ba-8081-a6380c566d52","system_id":"levelo_inurba_marseille","lat":43.30768,"lon":5.36757,"is_reserved":false,"is_disabled":false,"rental_uris":{"android":"levelo://app?vid=a2fe882a-c2d4-49ba-8081-a6380c566d52","ios":"levelo://app?vid=a2fe882a-c2d4-49ba-8081-a6380c566d52"},"vehicle_type_id":"4","last_reported":1741000141,"current_range_meters":22000,"station_id":"","pricing_plan_id":"cebpf4jnsgd1na2vs0mg"},{"bike_id":"0b8364a5-51f8-4f85-8184-c1888f54f9d4","system_id":"levelo_inurba_marseille","lat":43.3055,"lon":5.3669,"is_reserved":false,"is_disabled":false,"rental_uris":{"android":"levelo://app?vid=0b8364a5-51f8-4f85-8184-c1888f54f9d4","ios":"levelo://app?vid=0b8364a5-51f8-4f85-8184-c1888f54f9d4"},"vehicle_type_id":"4","last_reported":1741000141,"current_range_meters":22000,"station_id":"ce4bgrp2rcd13ifvqc9g","pricing_plan_id":"cebpf4jnsgd1na2vs0mg"},{"bike_id":"aa465e24-440b-4a9f-993f-ef30b1067007","system_id":"levelo_inurba_marseille","lat":43.2606,"lon":5.39398,"is_reserved":false,"is_disabled":false,"rental_uris":{"android":"levelo://app?vid=aa465e24-440b-4a9f-993f-ef30b1067007","ios":"levelo://app?vid=aa465e24-440b-4a9f-993f-ef30b1067007"},"vehicle_type_id":"4","last_reported":1741000141,"current_range_meters":22000,"station_id":"ce4bhh92rcd13ifvqfj0","pricing_plan_id":"cebpf4jnsgd1na2vs0mg"},{"bike_id":"23e7b74e-5cc3-434b-85a0-4486a824dddd","system_id":"levelo_inurba_marseille","lat":43.2315,"lon":5.43709,"is_reserved":false,"is_disabled":false,"rental_uris":{"android":"levelo://app?vid=23e7b74e-5cc3-434b-85a0-4486a824dddd","ios":"levelo://app?vid=23e7b74e-5cc3-434b-85a0-4486a824dddd"},"vehicle_type_id":"4","last_reported":1741000141,"current_range_meters":22000,"station_id":"ce4bhmp2rcd13ifvqgog","pricing_plan_id":"cebpf4jnsgd1na2vs0mg"},{"bike_id":"10f9c714-d249-4cbc-8e94-be41f8a97a85","system_id":"levelo_inurba_marseille","lat":43.3059,"lon":5.36538,"is_reserved":false,"is_disabled":false,"rental_uris":{"android":"levelo://app?vid=10f9c714-d249-4cbc-8e94-be41f8a97a85","ios":"levelo://app?vid=10f9c714-d249-4cbc-8e94-be41f8a97a85"},"vehicle_type_id":"4","last_reported":1741000141,"current_range_meters":22400,"station_id":"ce4bgs12rcd13ifvqcag","pricing_plan_id":"cebpf4jnsgd1na2vs0mg"},{"bike_id":"c123ba5f-a104-4cd4-b069-af360134ff2f","system_id":"levelo_inurba_marseille","lat":43.26728,"lon":5.38259,"is_reserved":false,"is_disabled":false,"rental_uris":{"android":"levelo://app?vid=c123ba5f-a104-4cd4-b069-af360134ff2f","ios":"levelo://app?vid=c123ba5f-a104-4cd4-b069-af360134ff2f"},"vehicle_type_id":"4","last_reported":1741000141,"current_range_meters":22400,"station_id":"ce4bhg92rcd13ifvqf90","pricing_plan_id":"cebpf4jnsgd1na2vs0mg"},{"bike_id":"d2b4c6d8-d0d6-4d6a-8ff0-f1f30b79b693","system_id":"levelo_inurba_marseille","lat":43.24663,"lon":5.38167,"is_reserved":false,"is_disabled":false,"rental_uris":{"android":"levelo://app?vid=d2b4c6d8-d0d6-4d6a-8ff0-f1f30b79b693","ios":"levelo://app?vid=d2b4c6d8-d0d6-4d6a-8ff0-f1f30b79b693"},"vehicle_type_id":"4","last_reported":1741000141,"current_range_meters":22400,"station_id":"ce4bhih2rcd13ifvqfr0","pricing_plan_id":"cebpf4jnsgd1na2vs0mg"},{"bike_id":"876579e7-5f21-47df-ad1e-ec4981d13cb4","system_id":"levelo_inurba_marseille","lat":43.23183,"lon":5.3999,"is_reserved":false,"is_disabled":false,"rental_uris":{"android":"levelo://app?vid=876579e7-5f21-47df-ad1e-ec4981d13cb4","ios":"levelo://app?vid=876579e7-5f21-47df-ad1e-ec4981d13cb4"},"vehicle_type_id":"4","last_reported":1741000141,"current_range_meters":22400,"station_id":"ce4bhn12rcd13ifvqgqg","pricing_plan_id":"cebpf4jnsgd1na2vs0mg"},{"bike_id":"711cab11-7f45-42c1-b724-bd0b4f34ee68","system_id":"levelo_inurba_marseille","lat":43.27509,"lon":5.4246,"is_reserved":false,"is_disabled":false,"rental_uris":{"android":"levelo://app?vid=711cab11-7f45-42c1-b724-bd0b4f34ee68","ios":"levelo://app?vid=711cab11-7f45-42c1-b724-bd0b4f34ee68"},"vehicle_type_id":"4","last_reported":1741000141,"current_range_meters":22400,"station_id":"ce4bhn92rcd13ifvqgrg","pricing_plan_id":"cebpf4jnsgd1na2vs0mg"},{"bike_id":"8905a009-a950-487a-b270-d3a878ce29f7","system_id":"levelo_inurba_marseille","lat":43.32373,"lon":5.3887,"is_reserved":false,"is_disabled":false,"rental_uris":{"android":"levelo://app?vid=8905a009-a950-487a-b270-d3a878ce29f7","ios":"levelo://app?vid=8905a009-a950-487a-b270-d3a878ce29f7"},"vehicle_type_id":"4","last_reported":1741000141,"current_range_meters":22400,"station_id":"ce4bhqp2rcd13ifvqhog","pricing_plan_id":"cebpf4jnsgd1na2vs0mg"},{"bike_id":"b6f10cf8-7a8d-4575-a947-824602d7b36f","system_id":"levelo_inurba_marseille","lat":43.29929,"lon":5.36536,"is_reserved":false,"is_disabled":false,"rental_uris":{"android":"levelo://app?vid=b6f10cf8-7a8d-4575-a947-824602d7b36f","ios":"levelo://app?vid=b6f10cf8-7a8d-4575-a947-824602d7b36f"},