{"last_updated":1689807980,"ttl":30,"version":"2.2","data":{"bikes":[{"bike_id":"362a8bf0-a5ae-46a7-909a-b0519d6ef789","system_id":"levelo_inurba_marseille","lat":43.30907,"lon":5.36849,"is_reserved":false,"is_disabled":false,"rental_uris":{"android":"levelo://app?vid=362a8bf0-a5ae-46a7-909a-b0519d6ef789","ios":"levelo://app?vid=362a8bf0-a5ae-46a7-909a-b0519d6ef789"},"vehicle_type_id":"4","last_reported":1689807980,"current_range_meters":0,"station_id":"ce4bgn92rcd13ifvqbvg","pricing_plan_id":"free"},{"bike_id":"115ddc84-9963-4371-ac88-90df75990d15","system_id":"levelo_inurba_marseille","lat":43.3149,"lon":5.37297,"is_reserved":false,"is_disabled":false,"rental_uris":{"android":"levelo://app?vid=115ddc84-9963-4371-ac88-90df75990d15","ios":"levelo://app?vid=115ddc84-9963-4371-ac88-90df75990d15"},"vehicle_type_id":"4","last_reported":1689807980,"current_range_meters":31600,"station_id":"ce4bgt12rcd13ifvqcd0","pricing_plan_id":"free"},{"bike_id":"b72d355d-0402-4194-9cfe-a35e9fb208f6","system_id":"levelo_inurba_marseille","lat":43.314811,"lon":5.373103,"is_reserved":false,"is_disabled":false,"rental_uris":{"android":"levelo://app?vid=b72d355d-0402-4194-9cfe-a35e9fb208f6","ios":"levelo://app?vid=b72d355d-0402-4194-9cfe-a35e9fb208f6"},"vehicle_type_id":"4","last_reported":1689807980,"current_range_meters":24800,"station_id":"ce4bgt12rcd13ifvqcd0","pricing_plan_id":"free"},{"bike_id":"0b12a1dd-1564-4aa9-b61c-6fcd6a1ec6e0","system_id":"levelo_inurba_marseille","lat":43.314811,"lon":5.373103,"is_reserved":false,"is_disabled":false,"rental_uris":{"android":"levelo://app?vid=0b12a1dd-1564-4aa9-b61c-6fcd6a1ec6e0","ios":"levelo://app?vid=0b12a1dd-1564-4aa9-b61c-6fcd6a1ec6e0"},"vehicle_type_id":"4","last_reported":1689807980,"current_range_meters":31200,"station_id":"ce4bgt12rcd13ifvqcd0","pricing_plan_id":"free"},{"bike_id":"3dbbc142-3027-495a-ab18-b55fafa8ac87","system_id":"levelo_inurba_marseille","lat":43.314811,"lon":5.373103,"is_reserved":false,"is_disabled":false,"rental_uris":{"android":"levelo://app?vid=3dbbc142-3027-495a-ab18-b55fafa8ac87","ios":"levelo://app?vid=3dbbc142-3027-495a-ab18-b55fafa8ac87"},"vehicle_type_id":"4","last_reported":1689807980,"current_range_meters":22400,"station_id":"ce4bgt12rcd13ifvqcd0","pricing_plan_id":"free"},{"bike_id":"e525b9a2-2bec-41de-bebf-24b8bc05a878","system_id":"levelo_inurba_marseille","lat":43.314811,"lon":5.373103,"is_reserved":false,"is_disabled":false,"rental_uris":{"android":"levelo://app?vid=e525b9a2-2bec-41de-bebf-24b8bc05a878","ios":"levelo://app?vid=e525b9a2-2bec-41de-bebf-24b8bc05a878"},"vehicle_type_id":"4","last_reported":1689807980,"current_range_meters":11600,"station_id":"ce4bgt12rcd13ifvqcd0","pricing_plan_id":"free"},{"bike_id":"62f3738f-26d2-43ab-86bf-592eb5da1b81","system_id":"levelo_inurba_marseille","lat":43.314811,"lon":5.373103,"is_reserved":false,"is_disabled":false,"rental_uris":{"android":"levelo://app?vid=62f3738f-26d2-43ab-86bf-592eb5da1b81","ios":"levelo://app?vid=62f3738f-26d2-43ab-86bf-592eb5da1b81"},"vehicle_type_id":"4","last_reported":1689807980,"current_range_meters":30400,"station_id":"ce4bgt12rcd13ifvqcd0","pricing_plan_id":"free"},{"bike_id":"5932235f-f865-410b-ac0e-1378ecb6b06f","system_id":"levelo_inurba_marseille","lat":43.314811,"lon":5.373103,"is_reserved":false,"is_disabled":false,"rental_uris":{"android":"levelo://app?vid=5932235f-f865-410b-ac0e-1378ecb6b06f","ios":"levelo://app?vid=5932235f-f865-410b-ac0e-1378ecb6b06f"},"vehicle_type_id":"4","last_reported":1689807980,"current_range_meters":25200,"station_id":"ce4bgt12rcd13ifvqcd0","pricing_plan_id":"free"},{"bike_id":"8a9f8d2a-3734-4f6a-a888-ffa5fddb1d6d","system_id":"levelo_inurba_marseille","lat":43.314811,"lon":5.373103,"is_reserved":false,"is_disabled":false,"rental_uris":{"android":"levelo://app?vid=8a9f8d2a-3734-4f6a-a888-ffa5fddb1d6d","ios":"levelo://app?vid=8a9f8d2a-3734-4f6a-a888-ffa5fddb1d6d"},"vehicle_type_id":"4","last_reported":1689807980,"current_range_meters":13600,"station_id":"ce4bgt12rcd13ifvqcd0","pricing_plan_id":"free"},{"bike_id":"4e5744a6-1dff-46ab-aded-6c43e7789cd1","system_id":"levelo_inurba_marseille","lat":43.314811,"lon":5.373103,"is_reserved":false,"is_disabled":false,"rental_uris":{"android":"levelo://app?vid=4e5744a6-1dff-46ab-aded-6c43e7789cd1","ios":"levelo://app?vid=4e5744a6-1dff-46ab-aded-6c43e7789cd1"},"vehicle_type_id":"4","last_reported":1689807980,"current_range_meters":25200,"station_id":"ce4bgt12rcd13ifvqcd0","pricing_plan_id":"free"},{"bike_id":"360650f3-a957-4815-8ebd-1e40102227b7","system_id":"levelo_inurba_marseille","lat":43.31416,"lon":5.3735,"is_reserved":false,"is_disabled":false,"rental_uris":{"android":"levelo://app?vid=360650f3-a957-4815-8ebd-1e40102227b7","ios":"levelo://app?vid=360650f3-a957-4815-8ebd-1e40102227b7"},"vehicle_type_id":"4","last_reported":1689807980,"current_range_meters":26000,"station_id":"","pricing_plan_id":"free"},{"bike_id":"9ebfdadf-eebb-4934-973d-55963c25c762","system_id":"levelo_inurba_marseille","lat":43.31578,"lon":5.37306,"is_reserved":false,"is_disabled":false,"rental_uris":{"android":"levelo://app?vid=9ebfdadf-eebb-4934-973d-55963c25c762","ios":"levelo://app?vid=9ebfdadf-eebb-4934-973d-55963c25c762"},"vehicle_type_id":"4","last_reported":1689807980,"current_range_meters":30400,"station_id":"","pricing_plan_id":"free"},{"bike_id":"8dab606f-2c1b-4486-94b1-66ef570c57d5","system_id":"levelo_inurba_marseille","lat":43.30891,"lon":5.37304,"is_reserved":false,"is_disabled":false,"rental_uris":{"android":"levelo://app?vid=8dab606f-2c1b-4486-94b1-66ef570c57d5","ios":"levelo://app?vid=8dab606f-2c1b-4486-94b1-66ef570c57d5"},"vehicle_type_id":"4","last_reported":1689807980,"current_range_meters":12800,"station_id":"","pricing_plan_id":"free"},{"bike_id":"f508272a-ab00-434e-841c-4959d5643898","system_id":"levelo_inurba_marseille","lat":43.31675,"lon":5.37299,"is_reserved":false,"is_disabled":false,"rental_uris":{"android":"levelo://app?vid=f508272a-ab00-434e-841c-4959d5643898","ios":"levelo://app?vid=f508272a-ab00-434e-841c-4959d5643898"},"vehicle_type_id":"4","last_reported":1689807980,"current_range_meters":20400,"station_id":"","pricing_plan_id":"free"},{"bike_id":"d5452eac-45ec-41ca-8734-58f25f4b1789","system_id":"levelo_inurba_marseille","lat":43.31313,"lon":5.37667,"is_reserved":false,"is_disabled":false,"rental_uris":{"android":"levelo://app?vid=d5452eac-45ec-41ca-8734-58f25f4b1789","ios":"levelo://app?vid=d5452eac-45ec-41ca-8734-58f25f4b1789"},"vehicle_type_id":"4","last_reported":1689807980,"current_range_meters":24800,"station_id":"","pricing_plan_id":"free"},{"bike_id":"a2e136f1-c728-4018-88c2-a46aa30aa3c2","system_id":"levelo_inurba_marseille","lat":43.305368,"lon":5.367343,"is_reserved":false,"is_disabled":false,"rental_uris":{"android":"levelo://app?vid=a2e136f1-c728-4018-88c2-a46aa30aa3c2","ios":"levelo://app?vid=a2e136f1-c728-4018-88c2-a46aa30aa3c2"},"vehicle_type_id":"4","last_reported":1689807980,"current_range_meters":20000,"station_id":"ce4bgrp2rcd13ifvqc9g","pricing_plan_id":"free"},{"bike_id":"52a9a922-ce92-4c1e-8b9b-d06771db6cfe","system_id":"levelo_inurba_marseille","lat":43.305989,"lon":5.37225,"is_reserved":false,"is_disabled":false,"rental_uris":{"android":"levelo://app?vid=52a9a922-ce92-4c1e-8b9b-d06771db6cfe","ios":"levelo://app?vid=52a9a922-ce92-4c1e-8b9b-d06771db6cfe"},"vehicle_type_id":"4","last_reported":1689807980,"current_range_meters":30800,"station_id":"ce4bgqh2rcd13ifvqc4g","pricing_plan_id":"free"},{"bike_id":"2b5c4b16-4fca-4092-9a7e-7bab75229f1c","system_id":"levelo_inurba_marseille","lat":43.305989,"lon":5.37225,"is_reserved":false,"is_disabled":false,"rental_uris":{"android":"levelo://app?vid=2b5c4b16-4fca-4092-9a7e-7bab75229f1c","ios":"levelo://app?vid=2b5c4b16-4fca-4092-9a7e-7bab75229f1c"},"vehicle_type_id":"4","last_reported":1689807980,"current_range_meters":3600,"station_id":"ce4bgqh2rcd13ifvqc4g","pricing_plan_id":"free"},{"bike_id":"2f95f846-5b17-4802-a27e-e384284fc635","system_id":"levelo_inurba_marseille","lat":43.305989,"lon":5.37225,"is_reserved":false,"is_disabled":false,"rental_uris":{"android":"levelo://app?vid=2f95f846-5b17-4802-a27e-e384284fc635","ios":"levelo://app?vid=2f95f846-5b17-4802-a27e-e384284fc635"},"vehicle_type_id":"4","last_reported":1689807980,"current_range_meters":17600,"station_id":"ce4bgqh2rcd13ifvqc4g","pricing_plan_id":"free"},{"bike_id":"886c41ed-7acf-42a4-beac-6bccea93354f","system_id":"levelo_inurba_marseille","lat":43.311131,"lon":5.377651,"is_reserved":false,"is_disabled":false,"rental_uris":{"android":"levelo://app?vid=886c41ed-7acf-42a4-beac-6bccea93354f","ios":"levelo://app?vid=886c41ed-7acf-42a4-beac-6bccea93354f"},"vehicle_type_id":"4","last_reported":1689807980,"current_range_meters":16800,"station_id":"ce4bgt92rcd13ifvqcg0","pricing_plan_id":"free"},{"bike_id":"d00b0635-d050-4234-b5d5-e3e14afe6371","system_id":"levelo_inurba_marseille","lat":43.311125,"lon":5.377624,"is_reserved":false,"is_disabled":false,"rental_uris":{"android":"levelo://app?vid=d00b0635-d050-4234-b5d5-e3e14afe6371","ios":"levelo://app?vid=d00b0635-d050-4234-b5d5-e3e14afe6371"},"vehicle_type_id":"4","last_reported":1689807980,"current_range_meters":7600,"station_id":"ce4bgt92rcd13ifvqcg0","pricing_plan_id":"free"},{"bike_id":"7d5f22e2-47bd-4532-8d08-29e3414eabfc","system_id":"levelo_inurba_marseille","lat":43.317075,"lon":5.377367,"is_reserved":false,"is_disabled":false,"rental_uris":{"android":"levelo://app?vid=7d5f22e2-47bd-4532-8d08-29e3414eabfc","ios":"levelo://app?vid=7d5f22e2-47bd-4532-8d08-29e3414eabfc"},"vehicle_type_id":"4","last_reported":1689807980,"current_range_meters":5600,"station_id":"ce4bgth2rcd13ifvqch0","pricing_plan_id":"free"},{"bike_id":"c0a093f0-cbe8-4784-a4fa-055fdbcae3ca","system_id":"levelo_inurba_marseille","lat":43.317075,"lon":5.377367,"is_reserved":false,"is_disabled":false,"rental_uris":{"android":"levelo://app?vid=c0a093f0-cbe8-4784-a4fa-055fdbcae3ca","ios":"levelo://app?vid=c0a093f0-cbe8-4784-a4fa-055fdbcae3ca"},"vehicle_type_id":"4","last_reported":1689807980,"current_range_meters":31200,"station_id":"ce4bgth2rcd13ifvqch0","pricing_plan_id":"free"},{"bike_id":"735f386f-7db9-435a-93c7-b04fca6e6c61","system_id":"levelo_inurba_marseille","lat":43.31711,"lon":5.37762,"is_reserved":false,"is_disabled":false,"rental_uris":{"android":"levelo://app?vid=735f386f-7db9-435a-93c7-b04fca6e6c61","ios":"levelo://app?vid=735f386f-7db9-435a-93c7-b04fca6e6c61"},"vehicle_type_id":"4","last_reported":1689807980,"current_range_meters":30000,"station_id":"","pricing_plan_id":"free"},{"bike_id":"9599f709-3cb8-4be8-b6d2-64beea24b87e","system_id":"levelo_inurba_marseille","lat":43.315293,"lon":5.380349,"is_reserved":false,"is_disabled":false,"rental_uris":{"android":"levelo://app?vid=9599f709-3cb8-4be8-b6d2-64beea24b87e","ios":"levelo://app?vid=9599f709-3cb8-4be8-b6d2-64beea24b87e"},"vehicle_type_id":"4","last_reported":1689807980,"current_range_meters":6000,"station_id":"ce4bhsp2rcd13ifvqi50","pricing_plan_id":"free"},{"bike_id":"c3be3ed4-091b-4a6d-bccb-64e0dc394b8c","system_id":"levelo_inurba_marseille","lat":43.315293,"lon":5.380349,"is_reserved":false,"is_disabled":false,"rental_uris":{"android":"levelo://app?vid=c3be3ed4-091b-4a6d-bccb-64e0dc394b8c","ios":"levelo://app?vid=c3be3ed4-091b-4a6d-bccb-64e0dc394b8c"},"vehicle_type_id":"4","last_reported":1689807980,"current_range_meters":21200,"station_id":"ce4bhsp2rcd13ifvqi50","pricing_plan_id":"free"},{"bike_id":"ea2adf0f-3fd5-485e-9332-fdf53469ff4d","system_id":"levelo_inurba_marseille","lat":43.315293,"lon":5.380349,"is_reserved":false,"is_disabled":false,"rental_uris":{"android":"levelo://app?vid=ea2adf0f-3fd5-485e-9332-fdf53469ff4d","ios":"levelo://app?vid=ea2adf0f-3fd5-485e-9332-fdf53469ff4d"},"vehicle_type_id":"4","last_reported":1689807980,"current_range_meters":5600,"station_id":"ce4bhsp2rcd13ifvqi50","pricing_plan_id":"free"},{"bike_id":"d01c5677-6b8f-4062-9642-b2f462857e6f","system_id":"levelo_inurba_marseille","lat":43.315293,"lon":5.380349,"is_reserved":false,"is_disabled":false,"rental_uris":{"android":"levelo://app?vid=d01c5677-6b8f-4062-9642-b2f462857e6f","ios":"levelo://app?vid=d01c5677-6b8f-4062-9642-b2f462857e6f"},"vehicle_type_id":"4","last_reported":1689807980,"current_range_meters":23600,"station_id":"ce4bhsp2rcd13ifvqi50","pricing_plan_id":"free"},{"bike_id":"4f37349a-775a-4d46-8382-eab939068dff","system_id":"levelo_inurba_marseille","lat":43.308012,"lon":5.381511,"is_reserved":false,"is_disabled":false,"rental_uris":{"android":"levelo://app?vid=4f37349a-775a-4d46-8382-eab939068dff","ios":"levelo://app?vid=4f37349a-775a-4d46-8382-eab939068dff"},"vehicle_type_id":"4","last_reported":1689807980,"current_range_meters":20400,"station_id":"ce4bgt12rcd13ifvqce0","pricing_plan_id":"free"},{"bike_id":"8b46eca2-fd70-4a8c-9e2c-f1aa2ab1fa88","system_id":"levelo_inurba_marseille","lat":43.308012,"lon":5.381511,"is_reserved":false,"is_disabled":false,"rental_uris":{"android":"levelo://app?vid=8b46eca2-fd70-4a8c-9e2c-f1aa2ab1fa88","ios":"levelo://app?vid=8b46eca2-fd70-4a8c-9e2c-f1aa2ab1fa88"},"vehicle_type_id":"4","last_reported":1689807980,"current_range_meters":3200,"station_id":"ce4bgt12rcd13ifvqce0","pricing_plan_id":"free"},{"bike_id":"10eca847-1140-42aa-b502-a5a73fc4cef6","system_id":"levelo_inurba_marseille","lat":43.308012,"lon":5.381511,"is_reserved":false,"is_disabled":false,"rental_uris":{"android":"levelo://app?vid=10eca847-1140-42aa-b502-a5a73fc4cef6","ios":"levelo://app?vid=10eca847-1140-42aa-b502-a5a73fc4cef6"},"vehicle_type_id":"4","last_reported":1689807980,"current_range_meters":14000,"station_id":"ce4bgt12rcd13ifvqce0","pricing_plan_id":"free"},{"bike_id":"0a507bae-5c39-4a3d-aa28-e35a02398864","system_id":"levelo_inurba_marseille","lat":43.308012,"lon":5.381511,"is_reserved":false,"is_disabled":false,"rental_uris":{"android":"levelo://app?vid=0a507bae-5c39-4a3d-aa28-e35a02398864","ios":"levelo://app?vid=0a507bae-5c39-4a3d-aa28-e35a02398864"},"vehicle_type_id":"4","last_reported":1689807980,"current_range_meters":15200,"station_id":"ce4bgt12rcd13ifvqce0","pricing_plan_id":"free"},{"bike_id":"a7a740d0-f9ff-4551-8294-79c73fd3af2a","system_id":"levelo_inurba_marseille","lat":43.308012,"lon":5.381511,"is_reserved":false,"is_disabled":false,"rental_uris":{"android":"levelo://app?vid=a7a740d0-f9ff-4551-8294-79c73fd3af2a","ios":"levelo://app?vid=a7a740d0-f9ff-4551-8294-79c73fd3af2a"},"vehicle_type_id":"4","last_reported":1689807980,"current_range_meters":20000,"station_id":"ce4bgt12rcd13ifvqce0","pricing_plan_id":"free"},{"bike_id":"fc8a80ae-72a3-466f-b4b5-1b8355e80efa","system_id":"levelo_inurba_marseille","lat":43.308012,"lon":5.381511,"is_reserved":false,"is_disabled":false,"rental_uris":{"android":"levelo://app?vid=fc8a80ae-72a3-466f-b4b5-1b8355e80efa","ios":"levelo://app?vid=fc8a80ae-72a3-466f-b4b5-1b8355e80efa"},"vehicle_type_id":"4","last_reported":1689807980,"current_range_meters":28000,"station_id":"ce4bgt12rcd13ifvqce0","pricing_plan_id":"free"},{"bike_id":"9ab133cc-59b0-4c34-8ef0-99233425e24b","system_id":"levelo_inurba_marseille","lat":43.308012,"lon":5.381511,"is_reserved":false,"is_disabled":false,"rental_uris":{"android":"levelo://app?vid=9ab133cc-59b0-4c34-8ef0-99233425e24b","ios":"levelo://app?vid=9ab133cc-59b0-4c34-8ef0-99233425e24b"},"vehicle_type_id":"4","last_reported":1689807980,"current_range_meters":18000,"station_id":"ce4bgt12rcd13ifvqce0","pricing_plan_id":"free"},{"bike_id":"5a605a45-c07c-4c30-aab9-ebd8a401dcf0","system_id":"levelo_inurba_marseille","lat":43.308012,"lon":5.381511,"is_reserved":false,"is_disabled":false,"rental_uris":{"android":"levelo://app?vid=5a605a45-c07c-4c30-aab9-ebd8a401dcf0","ios":"levelo://app?vid=5a605a45-c07c-4c30-aab9-ebd8a401dcf0"},"vehicle_type_id":"4","last_reported":1689807980,"current_range_meters":18400,"station_id":"ce4bgt12rcd13ifvqce0","pricing_plan_id":"free"},{"bike_id":"98350bb9-df50-430a-b9f1-bd3dd91331e8","system_id":"levelo_inurba_marseille","lat":43.308012,"lon":5.381511,"is_reserved":false,"is_disabled":false,"rental_uris":{"android":"levelo://app?vid=98350bb9-df50-430a-b9f1-bd3dd91331e8","ios":"levelo://app?vid=98350bb9-df50-430a-b9f1-bd3dd91331e8"},"vehicle_type_id":"4","last_reported":1689807980,"current_range_meters":9200,"station_id":"ce4bgt12rcd13ifvqce0","pricing_plan_id":"free"},{"bike_id":"b58a98e5-d099-4a5d-a40a-598f779edcc3","system_id":"levelo_inurba_marseille","lat":43.308012,"lon":5.381511,"is_reserved":false,"is_disabled":false,"rental_uris":{"android":"levelo://app?vid=b58a98e5-d099-4a5d-a40a-598f779edcc3","ios":"levelo://app?vid=b58a98e5-d099-4a5d-a40a-598f779edcc3"},"vehicle_type_id":"4","last_reported":1689807980,"current_range_meters":3200,"station_id":"ce4bgt12rcd13ifvqce0","pricing_plan_id":"free"},{"bike_id":"f5fb15ce-c159-46d1-afce-1d638128580d","system_id":"levelo_inurba_marseille","lat":43.308012,"lon":5.381511,"is_reserved":false,"is_disabled":false,"rental_uris":{"android":"levelo://app?vid=f5fb15ce-c159-46d1-afce-1d638128580d","ios":"levelo://app?vid=f5fb15ce-c159-46d1-afce-1d638128580d"},"vehicle_type_id":"4","last_reported":1689807980,"current_range_meters":17600,"station_id":"ce4bgt12rcd13ifvqce0","pricing_plan_id":"free"},{"bike_id":"bc9ecdbd-f758-441d-a2a1-cfe345658aab","system_id":"levelo_inurba_marseille","lat":43.308012,"lon":5.381511,"is_reserved":false,"is_disabled":false,"rental_uris":{"android":"levelo://app?vid=bc9ecdbd-f758-441d-a2a1-cfe345658aab","ios":"levelo://app?vid=bc9ecdbd-f758-441d-a2a1-cfe345658aab"},"vehicle_type_id":"4","last_reported":1689807980,"current_range_meters":12800,"station_id":"ce4bgt12rcd13ifvqce0","pricing_plan_id":"free"},{"bike_id":"70aca016-273b-4183-a734-597be4276064","system_id":"levelo_inurba_marseille","lat":43.308012,"lon":5.381511,"is_reserved":false,"is_disabled":false,"rental_uris":{"android":"levelo://app?vid=70aca016-273b-4183-a734-597be4276064","ios":"levelo://app?vid=70aca016-273b-4183-a734-597be4276064"},"vehicle_type_id":"4","last_reported":1689807980,"current_range_meters":18000,"station_id":"ce4bgt12rcd13ifvqce0","pricing_plan_id":"free"},{"bike_id":"6a2f6de2-7208-4388-837e-10d928fefd84","system_id":"levelo_inurba_marseille","lat":43.308012,"lon":5.381511,"is_reserved":false,"is_disabled":false,"rental_uris":{"android":"levelo://app?vid=6a2f6de2-7208-4388-837e-10d928fefd84","ios":"levelo://app?vid=6a2f6de2-7208-4388-837e-10d928fefd84"},"vehicle_type_id":"4","last_reported":1689807980,"current_range_meters":6000,"station_id":"ce4bgt12rcd13ifvqce0","pricing_plan_id":"free"},{"bike_id":"c80c4fe4-817e-4b7f-87e2-7f54de52c5e9","system_id":"levelo_inurba_marseille","lat":43.308012,"lon":5.381511,"is_reserved":false,"is_disabled":false,"rental_uris":{"android":"levelo://app?vid=c80c4fe4-817e-4b7f-87e2-7f54de52c5e9","ios":"levelo://app?vid=c80c4fe4-817e-4b7f-87e2-7f54de52c5e9"},"vehicle_type_id":"4","last_reported":1689807980,"current_range_meters":15200,"station_id":"ce4bgt12rcd13ifvqce0","pricing_plan_id":"free"},{"bike_id":"43e8cc75-ffe6-4a18-839a-c6d0c4d3b2f9","system_id":"levelo_inurba_marseille","lat":43.304606,"lon":5.379026,"is_reserved":false,"is_disabled":false,"rental_uris":{"android":"levelo://app?vid=43e8cc75-ffe6-4a18-839a-c6d0c4d3b2f9","ios":"levelo://app?vid=43e8cc75-ffe6-4a18-839a-c6d0c4d3b2f9"},"vehicle_type_id":"4","last_reported":1689807980,"current_range_meters":31200,"station_id":"ce4bgup2rcd13ifvqcn0","pricing_plan_id":"free"},{"bike_id":"417d9bb0-0255-4773-b84f-701fd06899cf","system_id":"levelo_inurba_marseille","lat":43.30467,"lon":5.37897,"is_reserved":false,"is_disabled":false,"rental_uris":{"android":"levelo://app?vid=417d9bb0-0255-4773-b84f-701fd06899cf","ios":"levelo://app?vid=417d9bb0-0255-4773-b84f-701fd06899cf"},"vehicle_type_id":"4","last_reported":1689807980,"current_range_meters":12400,"station_id":"ce4bgup2rcd13ifvqcn0","pricing_plan_id":"free"},{"bike_id":"ab9484aa-8827-4c0d-9193-4a0bc2166247","system_id":"levelo_inurba_marseille","lat":43.30473,"lon":5.37906,"is_reserved":false,"is_disabled":false,"rental_uris":{"android":"levelo://app?vid=ab9484aa-8827-4c0d-9193-4a0bc2166247","ios":"levelo://app?vid=ab9484aa-8827-4c0d-9193-4a0bc2166247"},"vehicle_type_id":"4","last_reported":1689807980,"current_range_meters":28000,"station_id":"ce4bgup2rcd13ifvqcn0","pricing_plan_id":"free"},{"bike_id":"0bdd39eb-497c-4e9b-9fd9-d8a8cf7f2a53","system_id":"levelo_inurba_marseille","lat":43.304606,"lon":5.379026,"is_reserved":false,"is_disabled":false,"rental_uris":{"android":"levelo://app?vid=0bdd39eb-497c-4e9b-9fd9-d8a8cf7f2a53","ios":"levelo://app?vid=0bdd39eb-497c-4e9b-9fd9-d8a8cf7f2a53"},"vehicle_type_id":"4","last_reported":1689807980,"current_range_meters":31600,"station_id":"ce4bgup2rcd13ifvqcn0","pricing_plan_id":"free"},{"bike_id":"64dbc8b1-b06e-4adc-8a95-5f14a007bb7c","system_id":"levelo_inurba_marseille","lat":43.304606,"lon":5.379026,"is_reserved":false,"is_disabled":false,"rental_uris":{"android":"levelo://app?vid=64dbc8b1-b06e-4adc-8a95-5f14a007bb7c","ios":"levelo://app?vid=64dbc8b1-b06e-4adc-8a95-5f14a007bb7c"},"vehicle_type_id":"4","last_reported":1689807980,"current_range_meters":16800,"station_id":"ce4bgup2rcd13ifvqcn0","pricing_plan_id":"free"},{"bike_id":"3e6b9371-617c-4bd2-b060-d8fe6d26cf94","system_id":"levelo_inurba_marseille","lat":43.304606,"lon":5.379026,"is_reserved":false,"is_disabled":false,"rental_uris":{"android":"levelo://app?vid=3e6b9371-617c-4bd2-b060-d8fe6d26cf94","ios":"levelo://app?vid=3e6b9371-617c-4bd2-b060-d8fe6d26cf94"},"vehicle_type_id":"4","last_reported":1689807980,"current_range_meters":31200,"station_id":"ce4bgup2rcd13ifvqcn0","pricing_plan_id":"free"},{"bike_id":"f3607e89-89c1-412e-8937-05484510165e","system_id":"levelo_inurba_marseille","lat":43.304606,"lon":5.379026,"is_reserved":false,"is_disabled":false,"rental_uris":{"android":"levelo://app?vid=f3607e89-89c1-412e-8937-05484510165e","ios":"levelo://app?vid=f3607e89-89c1-412e-8937-05484510165e"},"vehicle_type_id":"4","last_reported":1689807980,"current_range_meters":31200,"station_id":"ce4bgup2rcd13ifvqcn0","pricing_plan_id":"free"},{"bike_id":"4581826f-77bd-4dc4-bf24-c2b55bd5a15b","system_id":"levelo_inurba_marseille","lat":43.304606,"lon":5.379026,"is_reserved":false,"is_disabled":false,"rental_uris":{"android":"levelo://app?vid=4581826f-77bd-4dc4-bf24-c2b55bd5a15b","ios":"levelo://app?vid=4581826f-77bd-4dc4-bf24-c2b55bd5a15b"},"vehicle_type_id":"4","last_reported":1689807980,"current_range_meters":28800,"station_id":"ce4bgup2rcd13ifvqcn0","pricing_plan_id":"free"},{"bike_id":"b72385d5-c93a-42de-9669-adb18cecb870","system_id":"levelo_inurba_marseille","lat":43.30142,"lon":5.37416,"is_reserved":false,"is_disabled":false,"rental_uris":{"android":"levelo://app?vid=b72385d5-c93a-42de-9669-adb18cecb870","ios":"levelo://app?vid=b72385d5-c93a-42de-9669-adb18cecb870"},"vehicle_type_id":"4","last_reported":1689807980,"current_range_meters":23200,"station_id":"ce4bgs92rcd13ifvqcc0","pricing_plan_id":"free"},{"bike_id":"9f03a4dd-df2e-4157-a8bf-57a40ce14c85","system_id":"levelo_inurba_marseille","lat":43.319935,"lon":5.381699,"is_reserved":false,"is_disabled":false,"rental_uris":{"android":"levelo://app?vid=9f03a4dd-df2e-4157-a8bf-57a40ce14c85","ios":"levelo://app?vid=9f03a4dd-df2e-4157-a8bf-57a40ce14c85"},"vehicle_type_id":"4","last_reported":1689807980,"current_range_meters":29600,"station_id":"ce4bhr12rcd13ifvqhpg","pricing_plan_id":"free"},{"bike_id":"b0dd87b2-d98f-41f0-92f5-f872f1fe0084","system_id":"levelo_inurba_marseille","lat":43.319935,"lon":5.381699,"is_reserved":false,"is_disabled":false,"rental_uris":{"android":"levelo://app?vid=b0dd87b2-d98f-41f0-92f5-f872f1fe0084","ios":"levelo://app?vid=b0dd87b2-d98f-41f0-92f5-f872f1fe0084"},"vehicle_type_id":"4","last_reported":1689807980,"current_range_meters":25600,"station_id":"ce4bhr12rcd13ifvqhpg","pricing_plan_id":"free"},{"bike_id":"f90240af-64d0-4ba8-8f20-53e145a77c44","system_id":"levelo_inurba_marseille","lat":43.319935,"lon":5.381699,"is_reserved":false,"is_disabled":false,"rental_uris":{"android":"levelo://app?vid=f90240af-64d0-4ba8-8f20-53e145a77c44","ios":"levelo://app?vid=f90240af-64d0-4ba8-8f20-53e145a77c44"},"vehicle_type_id":"4","last_reported":1689807980,"current_range_meters":26000,"station_id":"ce4bhr12rcd13ifvqhpg","pricing_plan_id":"free"},{"bike_id":"81dbb561-ba63-4cda-a721-d080e1d9f826","system_id":"levelo_inurba_marseille","lat":43.319935,"lon":5.381699,"is_reserved":false,"is_disabled":false,"rental_uris":{"android":"levelo://app?vid=81dbb561-ba63-4cda-a721-d080e1d9f826","ios":"levelo://app?vid=81dbb561-ba63-4cda-a721-d080e1d9f826"},"vehicle_type_id":"4","last_reported":1689807980,"current_range_meters":13200,"station_id":"ce4bhr12rcd13ifvqhpg","pricing_plan_id":"free"},{"bike_id":"aecf68cc-6dab-4d48-9b33-456f56f1c060","system_id":"levelo_inurba_marseille","lat":43.319935,"lon":5.381699,"is_reserved":false,"is_disabled":false,"rental_uris":{"android":"levelo://app?vid=aecf68cc-6dab-4d48-9b33-456f56f1c060","ios":"levelo://app?vid=aecf68cc-6dab-4d48-9b33-456f56f1c060"},"vehicle_type_id":"4","last_reported":1689807980,"current_range_meters":21600,"station_id":"ce4bhr12rcd13ifvqhpg","pricing_plan_id":"free"},{"bike_id":"faa650bc-ef8b-4851-89a5-35d775b19054","system_id":"levelo_inurba_marseille","lat":43.319935,"lon":5.381699,"is_reserved":false,"is_disabled":false,"rental_uris":{"android":"levelo://app?vid=faa650bc-ef8b-4851-89a5-35d775b19054","ios":"levelo://app?vid=faa650bc-ef8b-4851-89a5-35d775b19054"},"vehicle_type_id":"4","last_reported":1689807980,"current_range_meters":5600,"station_id":"ce4bhr12rcd13ifvqhpg","pricing_plan_id":"free"},{"bike_id":"46ab4ae8-3e03-4e2f-88b5-ce635874443d","system_id":"levelo_inurba_marseille","lat":43.319935,"lon":5.381699,"is_reserved":false,"is_disabled":false,"rental_uris":{"android":"levelo://app?vid=46ab4ae8-3e03-4e2f-88b5-ce635874443d","ios":"levelo://app?vid=46ab4ae8-3e03-4e2f-88b5-ce635874443d"},"vehicle_type_id":"4","last_reported":1689807980,"current_range_meters":18000,"station_id":"ce4bhr12rcd13ifvqhpg","pricing_plan_id":"free"},{"bike_id":"d38cccfa-5ebc-4b9c-9934-933da8233c7f","system_id":"levelo_inurba_marseille","lat":43.319935,"lon":5.381699,"is_reserved":false,"is_disabled":false,"rental_uris":{"android":"levelo://app?vid=d38cccfa-5ebc-4b9c-9934-933da8233c7f","ios":"levelo://app?vid=d38cccfa-5ebc-4b9c-9934-933da8233c7f"},"vehicle_type_id":"4","last_reported":1689807980,"current_range_meters":8800,"station_id":"ce4bhr12rcd13ifvqhpg","pricing_plan_id":"free"},{"bike_id":"19100311-c096-4ea3-9658-fe0675467fb5","system_id":"levelo_inurba_marseille","lat":43.319935,"lon":5.381699,"is_reserved":false,"is_disabled":false,"rental_uris":{"android":"levelo://app?vid=19100311-c096-4ea3-9658-fe0675467fb5","ios":"levelo://app?vid=19100311-c096-4ea3-9658-fe0675467fb5"},"vehicle_type_id":"4","last_reported":1689807980,"current_range_meters":25200,"station_id":"ce4bhr12rcd13ifvqhpg","pricing_plan_id":"free"},{"bike_id":"d83eaa40-f4d3-4e37-910c-d9a6410f7691","system_id":"levelo_inurba_marseille","lat":43.319935,"lon":5.381699,"is_reserved":false,"is_disabled":false,"rental_uris":{"android":"levelo://app?vid=d83eaa40-f4d3-4e37-910c-d9a6410f7691","ios":"levelo://app?vid=d83eaa40-f4d3-4e37-910c-d9a6410f7691"},"vehicle_type_id":"4","last_reported":1689807980,"current_range_meters":15200,"station_id":"ce4bhr12rcd13ifvqhpg","pricing_plan_id":"free"},{"bike_id":"cfb78d01-6ffa-4260-adff-75021a45d8ba","system_id":"levelo_inurba_marseille","lat":43.319935,"lon":5.381699,"is_reserved":false,"is_disabled":false,"rental_uris":{"android":"levelo://app?vid=cfb78d01-6ffa-4260-adff-75021a45d8ba","ios":"levelo://app?vid=cfb78d01-6ffa-4260-adff-75021a45d8ba"},"vehicle_type_id":"4","last_reported":1689807980,"current_range_meters":16400,"station_id":"ce4bhr12rcd13ifvqhpg","pricing_plan_id":"free"},{"bike_id":"7e978c5a-8374-49be-a43f-68687687a67a","system_id":"levelo_inurba_marseille","lat":43.31362,"lon":5.38483,"is_reserved":false,"is_disabled":false,"rental_uris":{"android":"levelo://app?vid=7e978c5a-8374-49be-a43f-68687687a67a","ios":"levelo://app?vid=7e978c5a-8374-49be-a43f-68687687a67a"},"vehicle_type_id":"4","last_reported":1689807980,"current_range_meters":23600,"station_id":"ce4bgt92rcd13ifvqcf0","pricing_plan_id":"free"},{"bike_id":"4a19f3d9-a77e-419f-8309-bb45c0dba1a8","system_id":"levelo_inurba_marseille","lat":43.313571,"lon":5.384829,"is_reserved":false,"is_disabled":false,"rental_uris":{"android":"levelo://app?vid=4a19f3d9-a77e-419f-8309-bb45c0dba1a8","ios":"levelo://app?vid=4a19f3d9-a77e-419f-8309-bb45c0dba1a8"},"vehicle_type_id":"4","last_reported":1689807980,"current_range_meters":28800,"station_id":"ce4bgt92rcd13ifvqcf0","pricing_plan_id":"free"},{"bike_id":"fd242919-17d6-4c09-be04-801d0b1fb50e","system_id":"levelo_inurba_marseille","lat":43.313571,"lon":5.384829,"is_reserved":false,"is_disabled":false,"rental_uris":{"android":"levelo://app?vid=fd242919-17d6-4c09-be04-801d0b1fb50e","ios":"levelo://app?vid=fd242919-17d6-4c09-be04-801d0b1fb50e"},"vehicle_type_id":"4","last_reported":1689807980,"current_range_meters":21600,"station_id":"ce4bgt92rcd13ifvqcf0","pricing_plan_id":"free"},{"bike_id":"a6359dd9-cc7f-4822-9296-ee0550b695ae","system_id":"levelo_inurba_marseille","lat":43.3137,"lon":5.38507,"is_reserved":false,"is_disabled":false,"rental_uris":{"android":"levelo://app?vid=a6359dd9-cc7f-4822-9296-ee0550b695ae","ios":"levelo://app?vid=a6359dd9-cc7f-4822-9296-ee0550b695ae"},"vehicle_type_id":"4","last_reported":1689807980,"current_range_meters":24800,"station_id":"ce4bgt92rcd13ifvqcf0","pricing_plan_id":"free"},{"bike_id":"e69bf61d-9a95-4cad-a8bd-da5033f7d0b6","system_id":"levelo_inurba_marseille","lat":43.3137,"lon":5.38521,"is_reserved":false,"is_disabled":false,"rental_uris":{"android":"levelo://app?vid=e69bf61d-9a95-4cad-a8bd-da5033f7d0b6","ios":"levelo://app?vid=e69bf61d-9a95-4cad-a8bd-da5033f7d0b6"},"vehicle_type_id":"4","last_reported":1689807980,"current_range_meters":28000,"station_id":"ce4bgt92rcd13ifvqcf0","pricing_plan_id":"free"},{"bike_id":"a7e326fc-a7b6-4a92-bad2-cbcd0d3bcab9","system_id":"levelo_inurba_marseille","lat":43.29932,"lon":5.36637,"is_reserved":false,"is_disabled":false,"rental_uris":{"android":"levelo://app?vid=a7e326fc-a7b6-4a92-bad2-cbcd0d3bcab9","ios":"levelo://app?vid=a7e326fc-a7b6-4a92-bad2-cbcd0d3bcab9"},"vehicle_type_id":"4","last_reported":1689807980,"current_range_meters":11200,"station_id":"","pricing_plan_id":"free"},{"bike_id":"abcd80e0-37ff-4442-a7b9-13e86bb2b907","system_id":"levelo_inurba_marseille","lat":43.30033,"lon":5.37637,"is_reserved":false,"is_disabled":false,"rental_uris":{"android":"levelo://app?vid=abcd80e0-37ff-4442-a7b9-13e86bb2b907","ios":"levelo://app?vid=abcd80e0-37ff-4442-a7b9-13e86bb2b907"},"vehicle_type_id":"4","last_reported":1689807980,"current_range_meters":5600,"station_id":"","pricing_plan_id":"free"},{"bike_id":"65d84cb3-cc96-4b33-a7aa-7b6a39041141","system_id":"levelo_inurba_marseille","lat":43.305364,"lon":5.384119,"is_reserved":false,"is_disabled":false,"rental_uris":{"android":"levelo://app?vid=65d84cb3-cc96-4b33-a7aa-7b6a39041141","ios":"levelo://app?vid=65d84cb3-cc96-4b33-a7aa-7b6a39041141"},"vehicle_type_id":"4","last_reported":1689807980,"current_range_meters":8400,"station_id":"ce4bgg92rcd13ifvqb30","pricing_plan_id":"free"},{"bike_id":"3f6d7855-2040-4120-b0bb-bccf1e7b961f","system_id":"levelo_inurba_marseille","lat":43.305364,"lon":5.384119,"is_reserved":false,"is_disabled":false,"rental_uris":{"android":"levelo://app?vid=3f6d7855-2040-4120-b0bb-bccf1e7b961f","ios":"levelo://app?vid=3f6d7855-2040-4120-b0bb-bccf1e7b961f"},"vehicle_type_id":"4","last_reported":1689807980,"current_range_meters":6000,"station_id":"ce4bgg92rcd13ifvqb30","pricing_plan_id":"free"},{"bike_id":"db104de0-dac4-420c-8460-a4649f76d9d4","system_id":"levelo_inurba_marseille","lat":43.305364,"lon":5.384119,"is_reserved":false,"is_disabled":false,"rental_uris":{"android":"levelo://app?vid=db104de0-dac4-420c-8460-a4649f76d9d4","ios":"levelo://app?vid=db104de0-dac4-420c-8460-a4649f76d9d4"},"vehicle_type_id":"4","last_reported":1689807980,"current_range_meters":18000,"station_id":"ce4bgg92rcd13ifvqb30","pricing_plan_id":"free"},{"bike_id":"8fef798b-9c1a-4c7e-9640-5d86d9bfbebd","system_id":"levelo_inurba_marseille","lat":43.31171,"lon":5.38705,"is_reserved":false,"is_disabled":false,"rental_uris":{"android":"levelo://app?vid=8fef798b-9c1a-4c7e-9640-5d86d9bfbebd","ios":"levelo://app?vid=8fef798b-9c1a-4c7e-9640-5d86d9bfbebd"},"vehicle_type_id":"4","last_reported":1689807980,"current_range_meters":26400,"station_id":"ce4bgv12rcd13ifvqcp0","pricing_plan_id":"free"},{"bike_id":"6cc50536-6efd-4f65-8477-e13a95899fef","system_id":"levelo_inurba_marseille","lat":43.311722,"lon":5.387247,"is_reserved":false,"is_disabled":false,"rental_uris":{"android":"levelo://app?vid=6cc50536-6efd-4f65-8477-e13a95899fef","ios":"levelo://app?vid=6cc50536-6efd-4f65-8477-e13a95899fef"},"vehicle_type_id":"4","last_reported":1689807980,"current_range_meters":31200,"station_id":"ce4bgv12rcd13ifvqcp0","pricing_plan_id":"free"},{"bike_id":"91785d1e-fddb-4759-956c-bbeda6ee28be","system_id":"levelo_inurba_marseille","lat":43.298433,"lon":5.362774,"is_reserved":false,"is_disabled":false,"rental_uris":{"android":"levelo://app?vid=91785d1e-fddb-4759-956c-bbeda6ee28be","ios":"levelo://app?vid=91785d1e-fddb-4759-956c-bbeda6ee28be"},"vehicle_type_id":"4","last_reported":1689807980,"current_range_meters":8800,"station_id":"ce4bgpp2rcd13ifvqc3g","pricing_plan_id":"free"},{"bike_id":"e01d59e3-f51d-479d-abfd-af12e9aa917d","system_id":"levelo_inurba_marseille","lat":43.311722,"lon":5.387247,"is_reserved":false,"is_disabled":false,"rental_uris":{"android":"levelo://app?vid=e01d59e3-f51d-479d-abfd-af12e9aa917d","ios":"levelo://app?vid=e01d59e3-f51d-479d-abfd-af12e9aa917d"},"vehicle_type_id":"4","last_reported":1689807980,"current_range_meters":22000,"station_id":"ce4bgv12rcd13ifvqcp0","pricing_plan_id":"free"},{"bike_id":"2ffc08e5-00f0-446e-814a-181a084153fe","system_id":"levelo_inurba_marseille","lat":43.311722,"lon":5.387247,"is_reserved":false,"is_disabled":false,"rental_uris":{"android":"levelo://app?vid=2ffc08e5-00f0-446e-814a-181a084153fe","ios":"levelo://app?vid=2ffc08e5-00f0-446e-814a-181a084153fe"},"vehicle_type_id":"4","last_reported":1689807980,"current_range_meters":12000,"station_id":"ce4bgv12rcd13ifvqcp0","pricing_plan_id":"free"},{"bike_id":"74938e7e-f1ad-49cf-a085-7d0cff10da01","system_id":"levelo_inurba_marseille","lat":43.311722,"lon":5.387247,"is_reserved":false,"is_disabled":false,"rental_uris":{"android":"levelo://app?vid=74938e7e-f1ad-49cf-a085-7d0cff10da01","ios":"levelo://app?vid=74938e7e-f1ad-49cf-a085-7d0cff10da01"},"vehicle_type_id":"4","last_reported":1689807980,"current_range_meters":14000,"station_id":"ce4bgv12rcd13ifvqcp0","pricing_plan_id":"free"},{"bike_id":"6e540f5c-0a2b-4998-a803-006b3bd56c6d","system_id":"levelo_inurba_marseille","lat":43.311722,"lon":5.387247,"is_reserved":false,"is_disabled":false,"rental_uris":{"android":"levelo://app?vid=6e540f5c-0a2b-4998-a803-006b3bd56c6d","ios":"levelo://app?vid=6e540f5c-0a2b-4998-a803-006b3bd56c6d"},"vehicle_type_id":"4","last_reported":1689807980,"current_range_meters":28400,"station_id":"ce4bgv12rcd13ifvqcp0","pricing_plan_id":"free"},{"bike_id":"bd6ff138-9b05-43aa-a500-8caf08da3f7b","system_id":"levelo_inurba_marseille","lat":43.31171,"lon":5.38713,"is_reserved":false,"is_disabled":false,"rental_uris":{"android":"levelo://app?vid=bd6ff138-9b05-43aa-a500-8caf08da3f7b","ios":"levelo://app?vid=bd6ff138-9b05-43aa-a500-8caf08da3f7b"},"vehicle_type_id":"4","last_reported":1689807980,"current_range_meters":31200,"station_id":"ce4bgv12rcd13ifvqcp0","pricing_plan_id":"free"},{"bike_id":"fa16ec5c-c682-4914-8534-2baacf712cd2","system_id":"levelo_inurba_marseille","lat":43.31167,"lon":5.38715,"is_reserved":false,"is_disabled":false,"rental_uris":{"android":"levelo://app?vid=fa16ec5c-c682-4914-8534-2baacf712cd2","ios":"levelo://app?vid=fa16ec5c-c682-4914-8534-2baacf712cd2"},"vehicle_type_id":"4","last_reported":1689807980,"current_range_meters":20000,"station_id":"ce4bgv12rcd13ifvqcp0","pricing_plan_id":"free"},{"bike_id":"2b99c012-1aba-43c2-b514-08f00c796379","system_id":"levelo_inurba_marseille","lat":43.31175,"lon":5.38717,"is_reserved":false,"is_disabled":false,"rental_uris":{"android":"levelo://app?vid=2b99c012-1aba-43c2-b514-08f00c796379","ios":"levelo://app?vid=2b99c012-1aba-43c2-b514-08f00c796379"},"vehicle_type_id":"4","last_reported":1689807980,"current_range_meters":2400,"station_id":"ce4bgv12rcd13ifvqcp0","pricing_plan_id":"free"},{"bike_id":"cb7231b6-405d-4cb9-b9c1-efd668fe2079","system_id":"levelo_inurba_marseille","lat":43.31172,"lon":5.3872,"is_reserved":false,"is_disabled":false,"rental_uris":{"android":"levelo://app?vid=cb7231b6-405d-4cb9-b9c1-efd668fe2079","ios":"levelo://app?vid=cb7231b6-405d-4cb9-b9c1-efd668fe2079"},"vehicle_type_id":"4","last_reported":1689807980,"current_range_meters":7200,"station_id":"ce4bgv12rcd13ifvqcp0","pricing_plan_id":"free"},{"bike_id":"7c154cf1-be76-45ac-8f98-526cdbeb1a99","system_id":"levelo_inurba_marseille","lat":43.32292,"lon":5.38261,"is_reserved":false,"is_disabled":false,"rental_uris":{"android":"levelo://app?vid=7c154cf1-be76-45ac-8f98-526cdbeb1a99","ios":"levelo://app?vid=7c154cf1-be76-45ac-8f98-526cdbeb1a99"},"vehicle_type_id":"4","last_reported":1689807980,"current_range_meters":20800,"station_id":"ce4bhr12rcd13ifvqhqg","pricing_plan_id":"free"},{"bike_id":"38cb8470-ab16-4d1e-bd37-13ef2ac7db48","system_id":"levelo_inurba_marseille","lat":43.322872,"lon":5.382756,"is_reserved":false,"is_disabled":false,"rental_uris":{"android":"levelo://app?vid=38cb8470-ab16-4d1e-bd37-13ef2ac7db48","ios":"levelo://app?vid=38cb8470-ab16-4d1e-bd37-13ef2ac7db48"},"vehicle_type_id":"4","last_reported":1689807980,"current_range_meters":20400,"station_id":"ce4bhr12rcd13ifvqhqg","pricing_plan_id":"free"},{"bike_id":"b795213b-a1bf-4ed8-9d4d-f4a3b5a2a58d","system_id":"levelo_inurba_marseille","lat":43.322872,"lon":5.382756,"is_reserved":false,"is_disabled":false,"rental_uris":{"android":"levelo://app?vid=b795213b-a1bf-4ed8-9d4d-f4a3b5a2a58d","ios":"levelo://app?vid=b795213b-a1bf-4ed8-9d4d-f4a3b5a2a58d"},"vehicle_type_id":"4","last_reported":1689807980,"current_range_meters":10800,"station_id":"ce4bhr12rcd13ifvqhqg","pricing_plan_id":"free"},{"bike_id":"3296666b-4550-46e5-8780-de3f4f4bdb22","system_id":"levelo_inurba_marseille","lat":43.322872,"lon":5.382756,"is_reserved":false,"is_disabled":false,"rental_uris":{"android":"levelo://app?vid=3296666b-4550-46e5-8780-de3f4f4bdb22","ios":"levelo://app?vid=3296666b-4550-46e5-8780-de3f4f4bdb22"},"vehicle_type_id":"4","last_reported":1689807980,"current_range_meters":18800,"station_id":"ce4bhr12rcd13ifvqhqg","pricing_plan_id":"free"},{"bike_id":"2ed41945-cea8-4afa-87d0-4eb6bbef9c57","system_id":"levelo_inurba_marseille","lat":43.32291,"lon":5.38269,"is_reserved":false,"is_disabled":false,"rental_uris":{"android":"levelo://app?vid=2ed41945-cea8-4afa-87d0-4eb6bbef9c57","ios":"levelo://app?vid=2ed41945-cea8-4afa-87d0-4eb6bbef9c57"},"vehicle_type_id":"4","last_reported":1689807980,"current_range_meters":20800,"station_id":"ce4bhr12rcd13ifvqhqg","pricing_plan_id":"free"},{"bike_id":"e916ca30-98a4-4365-b6d6-d96cd71c267d","system_id":"levelo_inurba_marseille","lat":43.322872,"lon":5.382756,"is_reserved":false,"is_disabled":false,"rental_uris":{"android":"levelo://app?vid=e916ca30-98a4-4365-b6d6-d96cd71c267d","ios":"levelo://app?vid=e916ca30-98a4-4365-b6d6-d96cd71c267d"},"vehicle_type_id":"4","last_reported":1689807980,"current_range_meters":10400,"station_id":"ce4bhr12rcd13ifvqhqg","pricing_plan_id":"free"},{"bike_id":"818a262c-8ab2-47ea-b60a-ae52f0d82709","system_id":"levelo_inurba_marseille","lat":43.322872,"lon":5.382756,"is_reserved":false,"is_disabled":false,"rental_uris":{"android":"levelo://app?vid=818a262c-8ab2-47ea-b60a-ae52f0d82709","ios":"levelo://app?vid=818a262c-8ab2-47ea-b60a-ae52f0d82709"},"vehicle_type_id":"4","last_reported":1689807980,"current_range_meters":19200,"station_id":"ce4bhr12rcd13ifvqhqg","pricing_plan_id":"free"},{"bike_id":"c2dbc644-c7fb-4fb5-923b-703ff3d9c54f","system_id":"levelo_inurba_marseille","lat":43.328371,"lon":5.366912,"is_reserved":false,"is_disabled":false,"rental_uris":{"android":"levelo://app?vid=c2dbc644-c7fb-4fb5-923b-703ff3d9c54f","ios":"levelo://app?vid=c2dbc644-c7fb-4fb5-923b-703ff3d9c54f"},"vehicle_type_id":"4","last_reported":1689807980,"current_range_meters":28400,"station_id":"ce4bhs92rcd13ifvqi0g","pricing_plan_id":"free"},{"bike_id":"da10ba33-5415-4d7a-97f6-c10c6d32e73b","system_id":"levelo_inurba_marseille","lat":43.32825,"lon":5.367,"is_reserved":false,"is_disabled":false,"rental_uris":{"android":"levelo://app?vid=da10ba33-5415-4d7a-97f6-c10c6d32e73b","ios":"levelo://app?vid=da10ba33-5415-4d7a-97f6-c10c6d32e73b"},"vehicle_type_id":"4","last_reported":1689807980,"current_range_meters":10800,"station_id":"ce4bhs92rcd13ifvqi0g","pricing_plan_id":"free"},{"bike_id":"613c152a-da35-48a6-b01f-b1926d03745e","system_id":"levelo_inurba_marseille","lat":43.328371,"lon":5.366912,"is_reserved":false,"is_disabled":false,"rental_uris":{"android":"levelo://app?vid=613c152a-da35-48a6-b01f-b1926d03745e","ios":"levelo://app?vid=613c152a-da35-48a6-b01f-b1926d03745e"},"vehicle_type_id":"4","last_reported":1689807980,"current_range_meters":28400,"station_id":"ce4bhs92rcd13ifvqi0g","pricing_plan_id":"free"},{"bike_id":"1b1a92f9-a469-49be-ae33-4794a606317c","system_id":"levelo_inurba_marseille","lat":43.328371,"lon":5.366909,"is_reserved":false,"is_disabled":false,"rental_uris":{"android":"levelo://app?vid=1b1a92f9-a469-49be-ae33-4794a606317c","ios":"levelo://app?vid=1b1a92f9-a469-49be-ae33-4794a606317c"},"vehicle_type_id":"4","last_reported":1689807980,"current_range_meters":13200,"station_id":"ce4bhs92rcd13ifvqi0g","pricing_plan_id":"free"},{"bike_id":"bccd87f9-44fb-4c8c-b55e-836d1e79bd1d","system_id":"levelo_inurba_marseille","lat":43.328371,"lon":5.366909,"is_reserved":false,"is_disabled":false,"rental_uris":{"android":"levelo://app?vid=bccd87f9-44fb-4c8c-b55e-836d1e79bd1d","ios":"levelo://app?vid=bccd87f9-44fb-4c8c-b55e-836d1e79bd1d"},"vehicle_type_id":"4","last_reported":1689807980,"current_range_meters":20400,"station_id":"ce4bhs92rcd13ifvqi0g","pricing_plan_id":"free"},{"bike_id":"68aff992-6a2f-4df7-84f1-5f129124d378","system_id":"levelo_inurba_marseille","lat":43.32827,"lon":5.36688,"is_reserved":false,"is_disabled":false,"rental_uris":{"android":"levelo://app?vid=68aff992-6a2f-4df7-84f1-5f129124d378","ios":"levelo://app?vid=68aff992-6a2f-4df7-84f1-5f129124d378"},"vehicle_type_id":"4","last_reported":1689807980,"current_range_meters":28800,"station_id":"ce4bhs92rcd13ifvqi0g","pricing_plan_id":"free"},{"bike_id":"c52398db-3149-4ccd-8b41-49b4cc753238","system_id":"levelo_inurba_marseille","lat":43.328371,"lon":5.366912,"is_reserved":false,"is_disabled":false,"rental_uris":{"android":"levelo://app?vid=c52398db-3149-4ccd-8b41-49b4cc753238","ios":"levelo://app?vid=c52398db-3149-4ccd-8b41-49b4cc753238"},"vehicle_type_id":"4","last_reported":1689807980,"current_range_meters":13600,"station_id":"ce4bhs92rcd13ifvqi0g","pricing_plan_id":"free"},{"bike_id":"ac5cfb6f-c8fe-4d94-9b01-7245050c3bee","system_id":"levelo_inurba_marseille","lat":43.328371,"lon":5.366912,"is_reserved":false,"is_disabled":false,"rental_uris":{"android":"levelo://app?vid=ac5cfb6f-c8fe-4d94-9b01-7245050c3bee","ios":"levelo://app?vid=ac5cfb6f-c8fe-4d94-9b01-7245050c3bee"},"vehicle_type_id":"4","last_reported":1689807980,"current_range_meters":17200,"station_id":"ce4bhs92rcd13ifvqi0g","pricing_plan_id":"free"},{"bike_id":"fa22a42c-19fd-4d4c-b13d-acfa470204e5","system_id":"levelo_inurba_marseille","lat":43.328371,"lon":5.366909,"is_reserved":false,"is_disabled":false,"rental_uris":{"android":"levelo://app?vid=fa22a42c-19fd-4d4c-b13d-acfa470204e5","ios":"levelo://app?vid=fa22a42c-19fd-4d4c-b13d-acfa470204e5"},"vehicle_type_id":"4","last_reported":1689807980,"current_range_meters":18000,"station_id":"ce4bhs92rcd13ifvqi0g","pricing_plan_id":"free"},{"bike_id":"c60ae560-9dc6-4bdd-b313-baa25229a308","system_id":"levelo_inurba_marseille","lat":43.328371,"lon":5.366912,"is_reserved":false,"is_disabled":false,"rental_uris":{"android":"levelo://app?vid=c60ae560-9dc6-4bdd-b313-baa25229a308","ios":"levelo://app?vid=c60ae560-9dc6-4bdd-b313-baa25229a308"},"vehicle_type_id":"4","last_reported":1689807980,"current_range_meters":18800,"station_id":"ce4bhs92rcd13ifvqi0g","pricing_plan_id":"free"},{"bike_id":"8301fc62-03e5-4157-b5c8-6668c5d99125","system_id":"levelo_inurba_marseille","lat":43.3283,"lon":5.36685,"is_reserved":false,"is_disabled":false,"rental_uris":{"android":"levelo://app?vid=8301fc62-03e5-4157-b5c8-6668c5d99125","ios":"levelo://app?vid=8301fc62-03e5-4157-b5c8-6668c5d99125"},"vehicle_type_id":"4","last_reported":1689807980,"current_range_meters":2400,"station_id":"ce4bhs92rcd13ifvqi0g","pricing_plan_id":"free"},{"bike_id":"3916e407-8c11-4a2b-8e00-1d25f7bfdca8","system_id":"levelo_inurba_marseille","lat":43.297163,"lon":5.365866,"is_reserved":false,"is_disabled":false,"rental_uris":{"android":"levelo://app?vid=3916e407-8c11-4a2b-8e00-1d25f7bfdca8","ios":"levelo://app?vid=3916e407-8c11-4a2b-8e00-1d25f7bfdca8"},"vehicle_type_id":"4","last_reported":1689807980,"current_range_meters":24800,"station_id":"ce4bgn12rcd13ifvqbt0","pricing_plan_id":"free"},{"bike_id":"4339c714-480f-436b-b9e8-7710d4628761","system_id":"levelo_inurba_marseille","lat":43.32831,"lon":5.36687,"is_reserved":false,"is_disabled":false,"rental_uris":{"android":"levelo://app?vid=4339c714-480f-436b-b9e8-7710d4628761","ios":"levelo://app?vid=4339c714-480f-436b-b9e8-7710d4628761"},"vehicle_type_id":"4","last_reported":1689807980,"current_range_meters":10000,"station_id":"ce4bhs92rcd13ifvqi0g","pricing_plan_id":"free"},{"bike_id":"13d003be-42f5-4e3b-9b1b-d7cf7e52da36","system_id":"levelo_inurba_marseille","lat":43.32832,"lon":5.36687,"is_reserved":false,"is_disabled":false,"rental_uris":{"android":"levelo://app?vid=13d003be-42f5-4e3b-9b1b-d7cf7e52da36","ios":"levelo://app?vid=13d003be-42f5-4e3b-9b1b-d7cf7e52da36"},"vehicle_type_id":"4","last_reported":1689807980,"current_range_meters":19200,"station_id":"ce4bhs92rcd13ifvqi0g","pricing_plan_id":"free"},{"bike_id":"0f345e3d-5b36-45f0-a32d-1d2b1d8409e4","system_id":"levelo_inurba_marseille","lat":43.32524,"lon":5.38179,"is_reserved":false,"is_disabled":false,"rental_uris":{"android":"levelo://app?vid=0f345e3d-5b36-45f0-a32d-1d2b1d8409e4","ios":"levelo://app?vid=0f345e3d-5b36-45f0-a32d-1d2b1d8409e4"},"vehicle_type_id":"4","last_reported":1689807980,"current_range_meters":20800,"station_id":"","pricing_plan_id":"free"},{"bike_id":"5190cbf6-4352-41af-b5fd-9e0f4654dc8c","system_id":"levelo_inurba_marseille","lat":43.2969,"lon":5.37591,"is_reserved":false,"is_disabled":false,"rental_uris":{"android":"levelo://app?vid=5190cbf6-4352-41af-b5fd-9e0f4654dc8c","ios":"levelo://app?vid=5190cbf6-4352-41af-b5fd-9e0f4654dc8c"},"vehicle_type_id":"4","last_reported":1689807980,"current_range_meters":9200,"station_id":"","pricing_plan_id":"free"},{"bike_id":"f9d209b6-dc93-4a81-b83c-3c2bb6c98dd6","system_id":"levelo_inurba_marseille","lat":43.29613,"lon":5.36057,"is_reserved":false,"is_disabled":false,"rental_uris":{"android":"levelo://app?vid=f9d209b6-dc93-4a81-b83c-3c2bb6c98dd6","ios":"levelo://app?vid=f9d209b6-dc93-4a81-b83c-3c2bb6c98dd6"},"vehicle_type_id":"4","last_reported":1689807980,"current_range_meters":25600,"station_id":"","pricing_plan_id":"free"},{"bike_id":"d29f2e58-5cd8-44bb-a5e9-4832d4454a1d","system_id":"levelo_inurba_marseille","lat":43.309589,"lon":5.390258,"is_reserved":false,"is_disabled":false,"rental_uris":{"android":"levelo://app?vid=d29f2e58-5cd8-44bb-a5e9-4832d4454a1d","ios":"levelo://app?vid=d29f2e58-5cd8-44bb-a5e9-4832d4454a1d"},"vehicle_type_id":"4","last_reported":1689807980,"current_range_meters":26800,"station_id":"ce4bgup2rcd13ifvqco0","pricing_plan_id":"free"},{"bike_id":"faec38ab-b2d4-4046-b4b1-f0c1dfc4fd49","system_id":"levelo_inurba_marseille","lat":43.309589,"lon":5.390258,"is_reserved":false,"is_disabled":false,"rental_uris":{"android":"levelo://app?vid=faec38ab-b2d4-4046-b4b1-f0c1dfc4fd49","ios":"levelo://app?vid=faec38ab-b2d4-4046-b4b1-f0c1dfc4fd49"},"vehicle_type_id":"4","last_reported":1689807980,"current_range_meters":20800,"station_id":"ce4bgup2rcd13ifvqco0","pricing_plan_id":"free"},{"bike_id":"c2fe72fc-b5f7-46b5-bead-863357a2d29f","system_id":"levelo_inurba_marseille","lat":43.299028,"lon":5.381509,"is_reserved":false,"is_disabled":false,"rental_uris":{"android":"levelo://app?vid=c2fe72fc-b5f7-46b5-bead-863357a2d29f","ios":"levelo://app?vid=c2fe72fc-b5f7-46b5-bead-863357a2d29f"},"vehicle_type_id":"4","last_reported":1689807980,"current_range_meters":21200,"station_id":"ce4bgj12rcd13ifvqbc0","pricing_plan_id":"free"},{"bike_id":"547ebcab-c826-47da-a439-80020c8fa12b","system_id":"levelo_inurba_marseille","lat":43.299028,"lon":5.381509,"is_reserved":false,"is_disabled":false,"rental_uris":{"android":"levelo://app?vid=547ebcab-c826-47da-a439-80020c8fa12b","ios":"levelo://app?vid=547ebcab-c826-47da-a439-80020c8fa12b"},"vehicle_type_id":"4","last_reported":1689807980,"current_range_meters":31600,"station_id":"ce4bgj12rcd13ifvqbc0","pricing_plan_id":"free"},{"bike_id":"1f3910e8-463f-4d1f-8856-a147fc87ee7d","system_id":"levelo_inurba_marseille","lat":43.309589,"lon":5.390258,"is_reserved":false,"is_disabled":false,"rental_uris":{"android":"levelo://app?vid=1f3910e8-463f-4d1f-8856-a147fc87ee7d","ios":"levelo://app?vid=1f3910e8-463f-4d1f-8856-a147fc87ee7d"},"vehicle_type_id":"4","last_reported":1689807980,"current_range_meters":12400,"station_id":"ce4bgup2rcd13ifvqco0","pricing_plan_id":"free"},{"bike_id":"3e68acac-5d66-4f9e-aca6-91f240b0491a","system_id":"levelo_inurba_marseille","lat":43.299028,"lon":5.381509,"is_reserved":false,"is_disabled":false,"rental_uris":{"android":"levelo://app?vid=3e68acac-5d66-4f9e-aca6-91f240b0491a","ios":"levelo://app?vid=3e68acac-5d66-4f9e-aca6-91f240b0491a"},"vehicle_type_id":"4","last_reported":1689807980,"current_range_meters":31200,"station_id":"ce4bgj12rcd13ifvqbc0","pricing_plan_id":"free"},{"bike_id":"6d0db09a-8870-4cb3-8d96-4d5c3834cf92","system_id":"levelo_inurba_marseille","lat":43.309589,"lon":5.390258,"is_reserved":false,"is_disabled":false,"rental_uris":{"android":"levelo://app?vid=6d0db09a-8870-4cb3-8d96-4d5c3834cf92","ios":"levelo://app?vid=6d0db09a-8870-4cb3-8d96-4d5c3834cf92"},"vehicle_type_id":"4","last_reported":1689807980,"current_range_meters":16800,"station_id":"ce4bgup2rcd13ifvqco0","pricing_plan_id":"free"},{"bike_id":"4ba7d06b-350f-4d41-83b0-07d897c408af","system_id":"levelo_inurba_marseille","lat":43.299028,"lon":5.381509,"is_reserved":false,"is_disabled":false,"rental_uris":{"android":"levelo://app?vid=4ba7d06b-350f-4d41-83b0-07d897c408af","ios":"levelo://app?vid=4ba7d06b-350f-4d41-83b0-07d897c408af"},"vehicle_type_id":"4","last_reported":1689807980,"current_range_meters":31600,"station_id":"ce4bgj12rcd13ifvqbc0","pricing_plan_id":"free"},{"bike_id":"9c198be8-ebfa-4850-917b-8c9e4598fd2d","system_id":"levelo_inurba_marseille","lat":43.317557,"lon":5.390173,"is_reserved":false,"is_disabled":false,"rental_uris":{"android":"levelo://app?vid=9c198be8-ebfa-4850-917b-8c9e4598fd2d","ios":"levelo://app?vid=9c198be8-ebfa-4850-917b-8c9e4598fd2d"},"vehicle_type_id":"4","last_reported":1689807980,"current_range_meters":28000,"station_id":"ce4bhqp2rcd13ifvqhng","pricing_plan_id":"free"},{"bike_id":"433b16e5-ef4a-484c-a62d-532404766549","system_id":"levelo_inurba_marseille","lat":43.317557,"lon":5.390173,"is_reserved":false,"is_disabled":false,"rental_uris":{"android":"levelo://app?vid=433b16e5-ef4a-484c-a62d-532404766549","ios":"levelo://app?vid=433b16e5-ef4a-484c-a62d-532404766549"},"vehicle_type_id":"4","last_reported":1689807980,"current_range_meters":27200,"station_id":"ce4bhqp2rcd13ifvqhng","pricing_plan_id":"free"},{"bike_id":"d2d350ac-00a0-41d5-b88e-3c410e763201","system_id":"levelo_inurba_marseille","lat":43.304278,"lon":5.388868,"is_reserved":false,"is_disabled":false,"rental_uris":{"android":"levelo://app?vid=d2d350ac-00a0-41d5-b88e-3c410e763201","ios":"levelo://app?vid=d2d350ac-00a0-41d5-b88e-3c410e763201"},"vehicle_type_id":"4","last_reported":1689807980,"current_range_meters":14400,"station_id":"ce4bgk12rcd13ifvqbi0","pricing_plan_id":"free"},{"bike_id":"be58a856-69a2-4bea-8d50-7dd0c535c30b","system_id":"levelo_inurba_marseille","lat":43.29621,"lon":5.37672,"is_reserved":false,"is_disabled":false,"rental_uris":{"android":"levelo://app?vid=be58a856-69a2-4bea-8d50-7dd0c535c30b","ios":"levelo://app?vid=be58a856-69a2-4bea-8d50-7dd0c535c30b"},"vehicle_type_id":"4","last_reported":1689807980,"current_range_meters":8400,"station_id":"ce4bgi92rcd13ifvqb90","pricing_plan_id":"free"},{"bike_id":"32ae728d-5e01-47be-8daa-a5054aa529e1","system_id":"levelo_inurba_marseille","lat":43.304278,"lon":5.388868,"is_reserved":false,"is_disabled":false,"rental_uris":{"android":"levelo://app?vid=32ae728d-5e01-47be-8daa-a5054aa529e1","ios":"levelo://app?vid=32ae728d-5e01-47be-8daa-a5054aa529e1"},"vehicle_type_id":"4","last_reported":1689807980,"current_range_meters":26000,"station_id":"ce4bgk12rcd13ifvqbi0","pricing_plan_id":"free"},{"bike_id":"69070388-842b-4f3e-95bc-4bee4ee07ccb","system_id":"levelo_inurba_marseille","lat":43.304278,"lon":5.388868,"is_reserved":false,"is_disabled":false,"rental_uris":{"android":"levelo://app?vid=69070388-842b-4f3e-95bc-4bee4ee07ccb","ios":"levelo://app?vid=69070388-842b-4f3e-95bc-4bee4ee07ccb"},"vehicle_type_id":"4","last_reported":1689807980,"current_range_meters":16800,"station_id":"ce4bgk12rcd13ifvqbi0","pricing_plan_id":"free"},{"bike_id":"51eb1122-2f67-4929-9db4-fd665f07c7fc","system_id":"levelo_inurba_marseille","lat":43.304278,"lon":5.388868,"is_reserved":false,"is_disabled":false,"rental_uris":{"android":"levelo://app?vid=51eb1122-2f67-4929-9db4-fd665f07c7fc","ios":"levelo://app?vid=51eb1122-2f67-4929-9db4-fd665f07c7fc"},"vehicle_type_id":"4","last_reported":1689807980,"current_range_meters":31200,"station_id":"ce4bgk12rcd13ifvqbi0","pricing_plan_id":"free"},{"bike_id":"a0d07209-683d-446a-bbe7-c7d07e4bc2e2","system_id":"levelo_inurba_marseille","lat":43.30434,"lon":5.3889,"is_reserved":false,"is_disabled":false,"rental_uris":{"android":"levelo://app?vid=a0d07209-683d-446a-bbe7-c7d07e4bc2e2","ios":"levelo://app?vid=a0d07209-683d-446a-bbe7-c7d07e4bc2e2"},"vehicle_type_id":"4","last_reported":1689807980,"current_range_meters":26000,"station_id":"ce4bgk12rcd13ifvqbi0","pricing_plan_id":"free"},{"bike_id":"300dc40f-50a9-448f-b297-beaecc743c0a","system_id":"levelo_inurba_marseille","lat":43.30428,"lon":5.38886,"is_reserved":false,"is_disabled":false,"rental_uris":{"android":"levelo://app?vid=300dc40f-50a9-448f-b297-beaecc743c0a","ios":"levelo://app?vid=300dc40f-50a9-448f-b297-beaecc743c0a"},"vehicle_type_id":"4","last_reported":1689807980,"current_range_meters":17600,"station_id":"ce4bgk12rcd13ifvqbi0","pricing_plan_id":"free"},{"bike_id":"07e23162-9109-4458-a675-580cf8694036","system_id":"levelo_inurba_marseille","lat":43.304278,"lon":5.388868,"is_reserved":false,"is_disabled":false,"rental_uris":{"android":"levelo://app?vid=07e23162-9109-4458-a675-580cf8694036","ios":"levelo://app?vid=07e23162-9109-4458-a675-580cf8694036"},"vehicle_type_id":"4","last_reported":1689807980,"current_range_meters":4400,"station_id":"ce4bgk12rcd13ifvqbi0","pricing_plan_id":"free"},{"bike_id":"15c529fb-5969-4375-96e2-0b2d221cbd48","system_id":"levelo_inurba_marseille","lat":43.29972,"lon":5.38489,"is_reserved":false,"is_disabled":false,"rental_uris":{"android":"levelo://app?vid=15c529fb-5969-4375-96e2-0b2d221cbd48","ios":"levelo://app?vid=15c529fb-5969-4375-96e2-0b2d221cbd48"},"vehicle_type_id":"4","last_reported":1689807980,"current_range_meters":10000,"station_id":"ce4bgj92rcd13ifvqbd0","pricing_plan_id":"free"},{"bike_id":"38770162-7c67-425c-a043-712da5f9b2d7","system_id":"levelo_inurba_marseille","lat":43.299707,"lon":5.384859,"is_reserved":false,"is_disabled":false,"rental_uris":{"android":"levelo://app?vid=38770162-7c67-425c-a043-712da5f9b2d7","ios":"levelo://app?vid=38770162-7c67-425c-a043-712da5f9b2d7"},"vehicle_type_id":"4","last_reported":1689807980,"current_range_meters":10800,"station_id":"ce4bgj92rcd13ifvqbd0","pricing_plan_id":"free"},{"bike_id":"b201d5c9-2487-4a4d-9486-801352ffe77b","system_id":"levelo_inurba_marseille","lat":43.299707,"lon":5.384859,"is_reserved":false,"is_disabled":false,"rental_uris":{"android":"levelo://app?vid=b201d5c9-2487-4a4d-9486-801352ffe77b","ios":"levelo://app?vid=b201d5c9-2487-4a4d-9486-801352ffe77b"},"vehicle_type_id":"4","last_reported":1689807980,"current_range_meters":27600,"station_id":"ce4bgj92rcd13ifvqbd0","pricing_plan_id":"free"},{"bike_id":"a4d9f348-0acc-4bf2-8a82-8b56b6e91833","system_id":"levelo_inurba_marseille","lat":43.299717,"lon":5.384845,"is_reserved":false,"is_disabled":false,"rental_uris":{"android":"levelo://app?vid=a4d9f348-0acc-4bf2-8a82-8b56b6e91833","ios":"levelo://app?vid=a4d9f348-0acc-4bf2-8a82-8b56b6e91833"},"vehicle_type_id":"4","last_reported":1689807980,"current_range_meters":6400,"station_id":"ce4bgj92rcd13ifvqbd0","pricing_plan_id":"free"},{"bike_id":"7c39531b-e3f6-432a-b4af-94bab5d3ee0a","system_id":"levelo_inurba_marseille","lat":43.299717,"lon":5.384845,"is_reserved":false,"is_disabled":false,"rental_uris":{"android":"levelo://app?vid=7c39531b-e3f6-432a-b4af-94bab5d3ee0a","ios":"levelo://app?vid=7c39531b-e3f6-432a-b4af-94bab5d3ee0a"},"vehicle_type_id":"4","last_reported":1689807980,"current_range_meters":28400,"station_id":"ce4bgj92rcd13ifvqbd0","pricing_plan_id":"free"},{"bike_id":"350642f8-b006-4b71-8e93-6f4f5bf5787a","system_id":"levelo_inurba_marseille","lat":43.299717,"lon":5.384845,"is_reserved":false,"is_disabled":false,"rental_uris":{"android":"levelo://app?vid=350642f8-b006-4b71-8e93-6f4f5bf5787a","ios":"levelo://app?vid=350642f8-b006-4b71-8e93-6f4f5bf5787a"},"vehicle_type_id":"4","last_reported":1689807980,"current_range_meters":12400,"station_id":"ce4bgj92rcd13ifvqbd0","pricing_plan_id":"free"},{"bike_id":"3d294ead-c051-4034-9716-b61263d1815e","system_id":"levelo_inurba_marseille","lat":43.299717,"lon":5.384845,"is_reserved":false,"is_disabled":false,"rental_uris":{"android":"levelo://app?vid=3d294ead-c051-4034-9716-b61263d1815e","ios":"levelo://app?vid=3d294ead-c051-4034-9716-b61263d1815e"},"vehicle_type_id":"4","last_reported":1689807980,"current_range_meters":30000,"station_id":"ce4bgj92rcd13ifvqbd0","pricing_plan_id":"free"},{"bike_id":"61229be2-0960-48eb-b40b-2ad919debe09","system_id":"levelo_inurba_marseille","lat":43.29969,"lon":5.38499,"is_reserved":false,"is_disabled":false,"rental_uris":{"android":"levelo://app?vid=61229be2-0960-48eb-b40b-2ad919debe09","ios":"levelo://app?vid=61229be2-0960-48eb-b40b-2ad919debe09"},"vehicle_type_id":"4","last_reported":1689807980,"current_range_meters":15200,"station_id":"ce4bgj92rcd13ifvqbd0","pricing_plan_id":"free"},{"bike_id":"3a335245-ecaf-4465-97ea-210dda0f4744","system_id":"levelo_inurba_marseille","lat":43.299717,"lon":5.384845,"is_reserved":false,"is_disabled":false,"rental_uris":{"android":"levelo://app?vid=3a335245-ecaf-4465-97ea-210dda0f4744","ios":"levelo://app?vid=3a335245-ecaf-4465-97ea-210dda0f4744"},"vehicle_type_id":"4","last_reported":1689807980,"current_range_meters":5600,"station_id":"ce4bgj92rcd13ifvqbd0","pricing_plan_id":"free"},{"bike_id":"7bd88bd0-e57b-43af-8a6e-0967debe6b12","system_id":"levelo_inurba_marseille","lat":43.29965,"lon":5.38497,"is_reserved":false,"is_disabled":false,"rental_uris":{"android":"levelo://app?vid=7bd88bd0-e57b-43af-8a6e-0967debe6b12","ios":"levelo://app?vid=7bd88bd0-e57b-43af-8a6e-0967debe6b12"},"vehicle_type_id":"4","last_reported":1689807980,"current_range_meters":30800,"station_id":"ce4bgj92rcd13ifvqbd0","pricing_plan_id":"free"},{"bike_id":"8915427b-c342-4dd9-a656-1ede38c32562","system_id":"levelo_inurba_marseille","lat":43.299717,"lon":5.384845,"is_reserved":false,"is_disabled":false,"rental_uris":{"android":"levelo://app?vid=8915427b-c342-4dd9-a656-1ede38c32562","ios":"levelo://app?vid=8915427b-c342-4dd9-a656-1ede38c32562"},"vehicle_type_id":"4","last_reported":1689807980,"current_range_meters":28400,"station_id":"ce4bgj92rcd13ifvqbd0","pricing_plan_id":"free"},{"bike_id":"d09e0f9b-258a-4c72-948a-b14d3637d2b6","system_id":"levelo_inurba_marseille","lat":43.29961,"lon":5.38492,"is_reserved":false,"is_disabled":false,"rental_uris":{"android":"levelo://app?vid=d09e0f9b-258a-4c72-948a-b14d3637d2b6","ios":"levelo://app?vid=d09e0f9b-258a-4c72-948a-b14d3637d2b6"},"vehicle_type_id":"4","last_reported":1689807980,"current_range_meters":11600,"station_id":"ce4bgj92rcd13ifvqbd0","pricing_plan_id":"free"},{"bike_id":"354a0ba5-e887-4181-bcbd-a25b2f01dbfb","system_id":"levelo_inurba_marseille","lat":43.29962,"lon":5.385,"is_reserved":false,"is_disabled":false,"rental_uris":{"android":"levelo://app?vid=354a0ba5-e887-4181-bcbd-a25b2f01dbfb","ios":"levelo://app?vid=354a0ba5-e887-4181-bcbd-a25b2f01dbfb"},"vehicle_type_id":"4","last_reported":1689807980,"current_range_meters":9600,"station_id":"ce4bgj92rcd13ifvqbd0","pricing_plan_id":"free"},{"bike_id":"c504a71b-c0b5-4949-a4e0-5d747ef9fefc","system_id":"levelo_inurba_marseille","lat":43.29595,"lon":5.38097,"is_reserved":false,"is_disabled":false,"rental_uris":{"android":"levelo://app?vid=c504a71b-c0b5-4949-a4e0-5d747ef9fefc","ios":"levelo://app?vid=c504a71b-c0b5-4949-a4e0-5d747ef9fefc"},"vehicle_type_id":"4","last_reported":1689807980,"current_range_meters":27600,"station_id":"ce4bgl12rcd13ifvqbo0","pricing_plan_id":"free"},{"bike_id":"6c5f7333-014e-4129-86c1-d3187c34faa8","system_id":"levelo_inurba_marseille","lat":43.29602,"lon":5.381084,"is_reserved":false,"is_disabled":false,"rental_uris":{"android":"levelo://app?vid=6c5f7333-014e-4129-86c1-d3187c34faa8","ios":"levelo://app?vid=6c5f7333-014e-4129-86c1-d3187c34faa8"},"vehicle_type_id":"4","last_reported":1689807980,"current_range_meters":10400,"station_id":"ce4bgl12rcd13ifvqbo0","pricing_plan_id":"free"},{"bike_id":"8acd08c5-0dda-45b1-920b-df7f92047c24","system_id":"levelo_inurba_marseille","lat":43.29602,"lon":5.381084,"is_reserved":false,"is_disabled":false,"rental_uris":{"android":"levelo://app?vid=8acd08c5-0dda-45b1-920b-df7f92047c24","ios":"levelo://app?vid=8acd08c5-0dda-45b1-920b-df7f92047c24"},"vehicle_type_id":"4","last_reported":1689807980,"current_range_meters":29600,"station_id":"ce4bgl12rcd13ifvqbo0","pricing_plan_id":"free"},{"bike_id":"843c2a1a-9269-4f05-af95-56bcf404767c","system_id":"levelo_inurba_marseille","lat":43.305994,"lon":5.393687,"is_reserved":false,"is_disabled":false,"rental_uris":{"android":"levelo://app?vid=843c2a1a-9269-4f05-af95-56bcf404767c","ios":"levelo://app?vid=843c2a1a-9269-4f05-af95-56bcf404767c"},"vehicle_type_id":"4","last_reported":1689807980,"current_range_meters":30000,"station_id":"ce4bh0p2rcd13ifvqd80","pricing_plan_id":"free"},{"bike_id":"c692545d-74c9-484b-a2ff-ee571d589158","system_id":"levelo_inurba_marseille","lat":43.30611,"lon":5.39359,"is_reserved":false,"is_disabled":false,"rental_uris":{"android":"levelo://app?vid=c692545d-74c9-484b-a2ff-ee571d589158","ios":"levelo://app?vid=c692545d-74c9-484b-a2ff-ee571d589158"},"vehicle_type_id":"4","last_reported":1689807980,"current_range_meters":1600,"station_id":"ce4bh0p2rcd13ifvqd80","pricing_plan_id":"free"},{"bike_id":"4f78588d-27c1-4901-8f56-977684ed6fa2","system_id":"levelo_inurba_marseille","lat":43.29301,"lon":5.3746,"is_reserved":false,"is_disabled":false,"rental_uris":{"android":"levelo://app?vid=4f78588d-27c1-4901-8f56-977684ed6fa2","ios":"levelo://app?vid=4f78588d-27c1-4901-8f56-977684ed6fa2"},"vehicle_type_id":"4","last_reported":1689807980,"current_range_meters":28000,"station_id":"ce4bgi12rcd13ifvqb70","pricing_plan_id":"free"},{"bike_id":"87346092-0a90-402d-a374-a80c830aa67d","system_id":"levelo_inurba_marseille","lat":43.305994,"lon":5.393687,"is_reserved":false,"is_disabled":false,"rental_uris":{"android":"levelo://app?vid=87346092-0a90-402d-a374-a80c830aa67d","ios":"levelo://app?vid=87346092-0a90-402d-a374-a80c830aa67d"},"vehicle_type_id":"4","last_reported":1689807980,"current_range_meters":24400,"station_id":"ce4bh0p2rcd13ifvqd80","pricing_plan_id":"free"},{"bike_id":"985e622a-ac0d-455d-a3ca-0cbc230cd5e0","system_id":"levelo_inurba_marseille","lat":43.305994,"lon":5.393687,"is_reserved":false,"is_disabled":false,"rental_uris":{"android":"levelo://app?vid=985e622a-ac0d-455d-a3ca-0cbc230cd5e0","ios":"levelo://app?vid=985e622a-ac0d-455d-a3ca-0cbc230cd5e0"},"vehicle_type_id":"4","last_reported":1689807980,"current_range_meters":17600,"station_id":"ce4bh0p2rcd13ifvqd80","pricing_plan_id":"free"},{"bike_id":"8c528537-fb95-438f-a64e-61a8cf7750ad","system_id":"levelo_inurba_marseille","lat":43.30596,"lon":5.39357,"is_reserved":false,"is_disabled":false,"rental_uris":{"android":"levelo://app?vid=8c528537-fb95-438f-a64e-61a8cf7750ad","ios":"levelo://app?vid=8c528537-fb95-438f-a64e-61a8cf7750ad"},"vehicle_type_id":"4","last_reported":1689807980,"current_range_meters":31200,"station_id":"ce4bh0p2rcd13ifvqd80","pricing_plan_id":"free"},{"bike_id":"adab4b92-bafd-42f8-a6d3-ca2f72ae8b93","system_id":"levelo_inurba_marseille","lat":43.305994,"lon":5.393687,"is_reserved":false,"is_disabled":false,"rental_uris":{"android":"levelo://app?vid=adab4b92-bafd-42f8-a6d3-ca2f72ae8b93","ios":"levelo://app?vid=adab4b92-bafd-42f8-a6d3-ca2f72ae8b93"},"vehicle_type_id":"4","last_reported":1689807980,"current_range_meters":26000,"station_id":"ce4bh0p2rcd13ifvqd80","pricing_plan_id":"free"},{"bike_id":"87a5977b-8c4d-4b21-866d-f258e399e487","system_id":"levelo_inurba_marseille","lat":43.305994,"lon":5.393687,"is_reserved":false,"is_disabled":false,"rental_uris":{"android":"levelo://app?vid=87a5977b-8c4d-4b21-866d-f258e399e487","ios":"levelo://app?vid=87a5977b-8c4d-4b21-866d-f258e399e487"},"vehicle_type_id":"4","last_reported":1689807980,"current_range_meters":26800,"station_id":"ce4bh0p2rcd13ifvqd80","pricing_plan_id":"free"},{"bike_id":"a5fa0624-2a79-4b58-9679-c3ceef85725a","system_id":"levelo_inurba_marseille","lat":43.303002,"lon":5.392142,"is_reserved":false,"is_disabled":false,"rental_uris":{"android":"levelo://app?vid=a5fa0624-2a79-4b58-9679-c3ceef85725a","ios":"levelo://app?vid=a5fa0624-2a79-4b58-9679-c3ceef85725a"},"vehicle_type_id":"4","last_reported":1689807980,"current_range_meters":27600,"station_id":"ce4bgkh2rcd13ifvqbk0","pricing_plan_id":"free"},{"bike_id":"6d3c7235-fb98-4566-991d-d3bf8d8fe729","system_id":"levelo_inurba_marseille","lat":43.303002,"lon":5.392142,"is_reserved":false,"is_disabled":false,"rental_uris":{"android":"levelo://app?vid=6d3c7235-fb98-4566-991d-d3bf8d8fe729","ios":"levelo://app?vid=6d3c7235-fb98-4566-991d-d3bf8d8fe729"},"vehicle_type_id":"4","last_reported":1689807980,"current_range_meters":4400,"station_id":"ce4bgkh2rcd13ifvqbk0","pricing_plan_id":"free"},{"bike_id":"00347ab9-c04d-427d-b123-f99a61d784bd","system_id":"levelo_inurba_marseille","lat":43.303002,"lon":5.392142,"is_reserved":false,"is_disabled":false,"rental_uris":{"android":"levelo://app?vid=00347ab9-c04d-427d-b123-f99a61d784bd","ios":"levelo://app?vid=00347ab9-c04d-427d-b123-f99a61d784bd"},"vehicle_type_id":"4","last_reported":1689807980,"current_range_meters":27200,"station_id":"ce4bgkh2rcd13ifvqbk0","pricing_plan_id":"free"},{"bike_id":"b2c344c3-7e25-44a4-830a-d20f761595c5","system_id":"levelo_inurba_marseille","lat":43.302992,"lon":5.392136,"is_reserved":false,"is_disabled":false,"rental_uris":{"android":"levelo://app?vid=b2c344c3-7e25-44a4-830a-d20f761595c5","ios":"levelo://app?vid=b2c344c3-7e25-44a4-830a-d20f761595c5"},"vehicle_type_id":"4","last_reported":1689807980,"current_range_meters":7200,"station_id":"ce4bgkh2rcd13ifvqbk0","pricing_plan_id":"free"},{"bike_id":"0f4c3e26-56e6-4363-89b9-ce14da69020c","system_id":"levelo_inurba_marseille","lat":43.302992,"lon":5.392136,"is_reserved":false,"is_disabled":false,"rental_uris":{"android":"levelo://app?vid=0f4c3e26-56e6-4363-89b9-ce14da69020c","ios":"levelo://app?vid=0f4c3e26-56e6-4363-89b9-ce14da69020c"},"vehicle_type_id":"4","last_reported":1689807980,"current_range_meters":16800,"station_id":"ce4bgkh2rcd13ifvqbk0","pricing_plan_id":"free"},{"bike_id":"7e3e234d-4c10-4e99-9677-593b8430ad9d","system_id":"levelo_inurba_marseille","lat":43.302992,"lon":5.392136,"is_reserved":false,"is_disabled":false,"rental_uris":{"android":"levelo://app?vid=7e3e234d-4c10-4e99-9677-593b8430ad9d","ios":"levelo://app?vid=7e3e234d-4c10-4e99-9677-593b8430ad9d"},"vehicle_type_id":"4","last_reported":1689807980,"current_range_meters":29600,"station_id":"ce4bgkh2rcd13ifvqbk0","pricing_plan_id":"free"},{"bike_id":"edc8292a-825a-4447-882e-1ebb311a610b","system_id":"levelo_inurba_marseille","lat":43.2936,"lon":5.37835,"is_reserved":false,"is_disabled":false,"rental_uris":{"android":"levelo://app?vid=edc8292a-825a-4447-882e-1ebb311a610b","ios":"levelo://app?vid=edc8292a-825a-4447-882e-1ebb311a610b"},"vehicle_type_id":"4","last_reported":1689807980,"current_range_meters":400,"station_id":"ce4bgjh2rcd13ifvqbf0","pricing_plan_id":"free"},{"bike_id":"f634662a-87ac-4bb0-afd2-60550f374c39","system_id":"levelo_inurba_marseille","lat":43.30301,"lon":5.39229,"is_reserved":false,"is_disabled":false,"rental_uris":{"android":"levelo://app?vid=f634662a-87ac-4bb0-afd2-60550f374c39","ios":"levelo://app?vid=f634662a-87ac-4bb0-afd2-60550f374c39"},"vehicle_type_id":"4","last_reported":1689807980,"current_range_meters":2000,"station_id":"ce4bgkh2rcd13ifvqbk0","pricing_plan_id":"free"},{"bike_id":"d9dcaf61-a487-4dfa-b647-4cd759eedf7a","system_id":"levelo_inurba_marseille","lat":43.300852,"lon":5.390859,"is_reserved":false,"is_disabled":false,"rental_uris":{"android":"levelo://app?vid=d9dcaf61-a487-4dfa-b647-4cd759eedf7a","ios":"levelo://app?vid=d9dcaf61-a487-4dfa-b647-4cd759eedf7a"},"vehicle_type_id":"4","last_reported":1689807980,"current_range_meters":30800,"station_id":"ce4bh192rcd13ifvqdb0","pricing_plan_id":"free"},{"bike_id":"d6e8853a-2a8f-419d-a0dc-7d7e0ae1bf71","system_id":"levelo_inurba_marseille","lat":43.30085,"lon":5.390856,"is_reserved":false,"is_disabled":false,"rental_uris":{"android":"levelo://app?vid=d6e8853a-2a8f-419d-a0dc-7d7e0ae1bf71","ios":"levelo://app?vid=d6e8853a-2a8f-419d-a0dc-7d7e0ae1bf71"},"vehicle_type_id":"4","last_reported":1689807980,"current_range_meters":19200,"station_id":"ce4bh192rcd13ifvqdb0","pricing_plan_id":"free"},{"bike_id":"99fe7a8e-8156-47f0-a717-f006de5f9616","system_id":"levelo_inurba_marseille","lat":43.30085,"lon":5.390856,"is_reserved":false,"is_disabled":false,"rental_uris":{"android":"levelo://app?vid=99fe7a8e-8156-47f0-a717-f006de5f9616","ios":"levelo://app?vid=99fe7a8e-8156-47f0-a717-f006de5f9616"},"vehicle_type_id":"4","last_reported":1689807980,"current_range_meters":13200,"station_id":"ce4bh192rcd13ifvqdb0","pricing_plan_id":"free"},{"bike_id":"700f48bf-279a-4894-a499-98cf0b144faf","system_id":"levelo_inurba_marseille","lat":43.30085,"lon":5.390856,"is_reserved":false,"is_disabled":false,"rental_uris":{"android":"levelo://app?vid=700f48bf-279a-4894-a499-98cf0b144faf","ios":"levelo://app?vid=700f48bf-279a-4894-a499-98cf0b144faf"},"vehicle_type_id":"4","last_reported":1689807980,"current_range_meters":30800,"station_id":"ce4bh192rcd13ifvqdb0","pricing_plan_id":"free"},{"bike_id":"f0199da0-70d6-49d3-b3af-f706c7321fc8","system_id":"levelo_inurba_marseille","lat":43.30085,"lon":5.390856,"is_reserved":false,"is_disabled":false,"rental_uris":{"android":"levelo://app?vid=f0199da0-70d6-49d3-b3af-f706c7321fc8","ios":"levelo://app?vid=f0199da0-70d6-49d3-b3af-f706c7321fc8"},"vehicle_type_id":"4","last_reported":1689807980,"current_range_meters":28400,"station_id":"ce4bh192rcd13ifvqdb0","pricing_plan_id":"free"},{"bike_id":"f688a2cd-4fe1-4b57-8842-de63631294c5","system_id":"levelo_inurba_marseille","lat":43.298764,"lon":5.388973,"is_reserved":false,"is_disabled":false,"rental_uris":{"android":"levelo://app?vid=f688a2cd-4fe1-4b57-8842-de63631294c5","ios":"levelo://app?vid=f688a2cd-4fe1-4b57-8842-de63631294c5"},"vehicle_type_id":"4","last_reported":1689807980,"current_range_meters":28800,"station_id":"ce4bh392rcd13ifvqdl0","pricing_plan_id":"free"},{"bike_id":"3fe07b01-6359-4395-8456-f02044e430dd","system_id":"levelo_inurba_marseille","lat":43.298764,"lon":5.388973,"is_reserved":false,"is_disabled":false,"rental_uris":{"android":"levelo://app?vid=3fe07b01-6359-4395-8456-f02044e430dd","ios":"levelo://app?vid=3fe07b01-6359-4395-8456-f02044e430dd"},"vehicle_type_id":"4","last_reported":1689807980,"current_range_meters":23200,"station_id":"ce4bh392rcd13ifvqdl0","pricing_plan_id":"free"},{"bike_id":"471b7e02-c8a9-4e64-b13f-82f94c5a7c96","system_id":"levelo_inurba_marseille","lat":43.298764,"lon":5.388973,"is_reserved":false,"is_disabled":false,"rental_uris":{"android":"levelo://app?vid=471b7e02-c8a9-4e64-b13f-82f94c5a7c96","ios":"levelo://app?vid=471b7e02-c8a9-4e64-b13f-82f94c5a7c96"},"vehicle_type_id":"4","last_reported":1689807980,"current_range_meters":30400,"station_id":"ce4bh392rcd13ifvqdl0","pricing_plan_id":"free"},{"bike_id":"c29c43e7-209c-4a53-96da-5695fa59f8ee","system_id":"levelo_inurba_marseille","lat":43.298764,"lon":5.388973,"is_reserved":false,"is_disabled":false,"rental_uris":{"android":"levelo://app?vid=c29c43e7-209c-4a53-96da-5695fa59f8ee","ios":"levelo://app?vid=c29c43e7-209c-4a53-96da-5695fa59f8ee"},"vehicle_type_id":"4","last_reported":1689807980,"current_range_meters":26000,"station_id":"ce4bh392rcd13ifvqdl0","pricing_plan_id":"free"},{"bike_id":"ee5cecc0-b570-48ce-9228-c7e7d6a822b0","system_id":"levelo_inurba_marseille","lat":43.298764,"lon":5.388973,"is_reserved":false,"is_disabled":false,"rental_uris":{"android":"levelo://app?vid=ee5cecc0-b570-48ce-9228-c7e7d6a822b0","ios":"levelo://app?vid=ee5cecc0-b570-48ce-9228-c7e7d6a822b0"},"vehicle_type_id":"4","last_reported":1689807980,"current_range_meters":31600,"station_id":"ce4bh392rcd13ifvqdl0","pricing_plan_id":"free"},{"bike_id":"4c4317b0-2557-437e-99fb-9864289cc338","system_id":"levelo_inurba_marseille","lat":43.291675,"lon":5.371583,"is_reserved":false,"is_disabled":false,"rental_uris":{"android":"levelo://app?vid=4c4317b0-2557-437e-99fb-9864289cc338","ios":"levelo://app?vid=4c4317b0-2557-437e-99fb-9864289cc338"},"vehicle_type_id":"4","last_reported":1689807980,"current_range_meters":13200,"station_id":"ce4bha92rcd13ifvqeh0","pricing_plan_id":"free"},{"bike_id":"4e5d0700-4c01-41fd-8ef7-1f94730a8d2a","system_id":"levelo_inurba_marseille","lat":43.298764,"lon":5.388973,"is_reserved":false,"is_disabled":false,"rental_uris":{"android":"levelo://app?vid=4e5d0700-4c01-41fd-8ef7-1f94730a8d2a","ios":"levelo://app?vid=4e5d0700-4c01-41fd-8ef7-1f94730a8d2a"},"vehicle_type_id":"4","last_reported":1689807980,"current_range_meters":31200,"station_id":"ce4bh392rcd13ifvqdl0","pricing_plan_id":"free"},{"bike_id":"f0f0bc7c-8780-45e4-9d4b-4074406b3df0","system_id":"levelo_inurba_marseille","lat":43.313291,"lon":5.396838,"is_reserved":false,"is_disabled":false,"rental_uris":{"android":"levelo://app?vid=f0f0bc7c-8780-45e4-9d4b-4074406b3df0","ios":"levelo://app?vid=f0f0bc7c-8780-45e4-9d4b-4074406b3df0"},"vehicle_type_id":"4","last_reported":1689807980,"current_range_meters":16000,"station_id":"ce4bgvp2rcd13ifvqcu0","pricing_plan_id":"free"},{"bike_id":"892468a7-8e76-4722-b45a-401394794269","system_id":"levelo_inurba_marseille","lat":43.313291,"lon":5.396838,"is_reserved":false,"is_disabled":false,"rental_uris":{"android":"levelo://app?vid=892468a7-8e76-4722-b45a-401394794269","ios":"levelo://app?vid=892468a7-8e76-4722-b45a-401394794269"},"vehicle_type_id":"4","last_reported":1689807980,"current_range_meters":2800,"station_id":"ce4bgvp2rcd13ifvqcu0","pricing_plan_id":"free"},{"bike_id":"12dc8dac-15d4-4f7b-829d-7b9c9c29a37f","system_id":"levelo_inurba_marseille","lat":43.313291,"lon":5.396838,"is_reserved":false,"is_disabled":false,"rental_uris":{"android":"levelo://app?vid=12dc8dac-15d4-4f7b-829d-7b9c9c29a37f","ios":"levelo://app?vid=12dc8dac-15d4-4f7b-829d-7b9c9c29a37f"},"vehicle_type_id":"4","last_reported":1689807980,"current_range_meters":19600,"station_id":"ce4bgvp2rcd13ifvqcu0","pricing_plan_id":"free"},{"bike_id":"0df22751-5c2a-477c-9353-cc3d92ab7ea5","system_id":"levelo_inurba_marseille","lat":43.291994,"lon":5.357886,"is_reserved":false,"is_disabled":false,"rental_uris":{"android":"levelo://app?vid=0df22751-5c2a-477c-9353-cc3d92ab7ea5","ios":"levelo://app?vid=0df22751-5c2a-477c-9353-cc3d92ab7ea5"},"vehicle_type_id":"4","last_reported":1689807980,"current_range_meters":26000,"station_id":"ce4bhb12rcd13ifvqel0","pricing_plan_id":"free"},{"bike_id":"f045e2ba-5b44-42a2-a049-edab6ab8ba1e","system_id":"levelo_inurba_marseille","lat":43.313291,"lon":5.396838,"is_reserved":false,"is_disabled":false,"rental_uris":{"android":"levelo://app?vid=f045e2ba-5b44-42a2-a049-edab6ab8ba1e","ios":"levelo://app?vid=f045e2ba-5b44-42a2-a049-edab6ab8ba1e"},"vehicle_type_id":"4","last_reported":1689807980,"current_range_meters":17600,"station_id":"ce4bgvp2rcd13ifvqcu0","pricing_plan_id":"free"},{"bike_id":"7f4802cd-523e-414b-b7a0-c89008a5941d","system_id":"levelo_inurba_marseille","lat":43.313291,"lon":5.396838,"is_reserved":false,"is_disabled":false,"rental_uris":{"android":"levelo://app?vid=7f4802cd-523e-414b-b7a0-c89008a5941d","ios":"levelo://app?vid=7f4802cd-523e-414b-b7a0-c89008a5941d"},"vehicle_type_id":"4","last_reported":1689807980,"current_range_meters":14400,"station_id":"ce4bgvp2rcd13ifvqcu0","pricing_plan_id":"free"},{"bike_id":"54e54747-9498-4ef8-b70e-1988b8609035","system_id":"levelo_inurba_marseille","lat":43.313291,"lon":5.396838,"is_reserved":false,"is_disabled":false,"rental_uris":{"android":"levelo://app?vid=54e54747-9498-4ef8-b70e-1988b8609035","ios":"levelo://app?vid=54e54747-9498-4ef8-b70e-1988b8609035"},"vehicle_type_id":"4","last_reported":1689807980,"current_range_meters":28000,"station_id":"ce4bgvp2rcd13ifvqcu0","pricing_plan_id":"free"},{"bike_id":"9fd04e2d-072b-43fd-9aaa-85540e0ab1e0","system_id":"levelo_inurba_marseille","lat":43.313291,"lon":5.396838,"is_reserved":false,"is_disabled":false,"rental_uris":{"android":"levelo://app?vid=9fd04e2d-072b-43fd-9aaa-85540e0ab1e0","ios":"levelo://app?vid=9fd04e2d-072b-43fd-9aaa-85540e0ab1e0"},"vehicle_type_id":"4","last_reported":1689807980,"current_range_meters":3600,"station_id":"ce4bgvp2rcd13ifvqcu0","pricing_plan_id":"free"},{"bike_id":"5b901635-3d76-4922-899b-1d981c50e29d","system_id":"levelo_inurba_marseille","lat":43.309038,"lon":5.396546,"is_reserved":false,"is_disabled":false,"rental_uris":{"android":"levelo://app?vid=5b901635-3d76-4922-899b-1d981c50e29d","ios":"levelo://app?vid=5b901635-3d76-4922-899b-1d981c50e29d"},"vehicle_type_id":"4","last_reported":1689807980,"current_range_meters":6400,"station_id":"ce4bh012rcd13ifvqcv0","pricing_plan_id":"free"},{"bike_id":"daf3d815-1fd8-4032-97ba-d9e041537a1c","system_id":"levelo_inurba_marseille","lat":43.309038,"lon":5.396546,"is_reserved":false,"is_disabled":false,"rental_uris":{"android":"levelo://app?vid=daf3d815-1fd8-4032-97ba-d9e041537a1c","ios":"levelo://app?vid=daf3d815-1fd8-4032-97ba-d9e041537a1c"},"vehicle_type_id":"4","last_reported":1689807980,"current_range_meters":12000,"station_id":"ce4bh012rcd13ifvqcv0","pricing_plan_id":"free"},{"bike_id":"9bb7c9ba-18eb-42f6-83dc-7d81482d4f0c","system_id":"levelo_inurba_marseille","lat":43.309038,"lon":5.396546,"is_reserved":false,"is_disabled":false,"rental_uris":{"android":"levelo://app?vid=9bb7c9ba-18eb-42f6-83dc-7d81482d4f0c","ios":"levelo://app?vid=9bb7c9ba-18eb-42f6-83dc-7d81482d4f0c"},"vehicle_type_id":"4","last_reported":1689807980,"current_range_meters":26000,"station_id":"ce4bh012rcd13ifvqcv0","pricing_plan_id":"free"},{"bike_id":"05305c32-7402-43c5-8e5e-1766cea5e2d9","system_id":"levelo_inurba_marseille","lat":43.309038,"lon":5.396546,"is_reserved":false,"is_disabled":false,"rental_uris":{"android":"levelo://app?vid=05305c32-7402-43c5-8e5e-1766cea5e2d9","ios":"levelo://app?vid=05305c32-7402-43c5-8e5e-1766cea5e2d9"},"vehicle_type_id":"4","last_reported":1689807980,"current_range_meters":2000,"station_id":"ce4bh012rcd13ifvqcv0","pricing_plan_id":"free"},{"bike_id":"458a3ca6-27f1-4f2d-8349-a3026b98698f","system_id":"levelo_inurba_marseille","lat":43.309038,"lon":5.396546,"is_reserved":false,"is_disabled":false,"rental_uris":{"android":"levelo://app?vid=458a3ca6-27f1-4f2d-8349-a3026b98698f","ios":"levelo://app?vid=458a3ca6-27f1-4f2d-8349-a3026b98698f"},"vehicle_type_id":"4","last_reported":1689807980,"current_range_meters":4000,"station_id":"ce4bh012rcd13ifvqcv0","pricing_plan_id":"free"},{"bike_id":"abf08713-5058-4980-99e8-a4bf9b6d1ebf","system_id":"levelo_inurba_marseille","lat":43.309038,"lon":5.396546,"is_reserved":false,"is_disabled":false,"rental_uris":{"android":"levelo://app?vid=abf08713-5058-4980-99e8-a4bf9b6d1ebf","ios":"levelo://app?vid=abf08713-5058-4980-99e8-a4bf9b6d1ebf"},"vehicle_type_id":"4","last_reported":1689807980,"current_range_meters":13600,"station_id":"ce4bh012rcd13ifvqcv0","pricing_plan_id":"free"},{"bike_id":"7e138ae6-deee-4873-9fe5-3d890f624019","system_id":"levelo_inurba_marseille","lat":43.309038,"lon":5.396546,"is_reserved":false,"is_disabled":false,"rental_uris":{"android":"levelo://app?vid=7e138ae6-deee-4873-9fe5-3d890f624019","ios":"levelo://app?vid=7e138ae6-deee-4873-9fe5-3d890f624019"},"vehicle_type_id":"4","last_reported":1689807980,"current_range_meters":22400,"station_id":"ce4bh012rcd13ifvqcv0","pricing_plan_id":"free"},{"bike_id":"ba9742d5-5e1e-458f-9055-959b9ff70161","system_id":"levelo_inurba_marseille","lat":43.309038,"lon":5.396546,"is_reserved":false,"is_disabled":false,"rental_uris":{"android":"levelo://app?vid=ba9742d5-5e1e-458f-9055-959b9ff70161","ios":"levelo://app?vid=ba9742d5-5e1e-458f-9055-959b9ff70161"},"vehicle_type_id":"4","last_reported":1689807980,"current_range_meters":24800,"station_id":"ce4bh012rcd13ifvqcv0","pricing_plan_id":"free"},{"bike_id":"5f48b745-977e-43e8-8b95-d59b5e1c3f31","system_id":"levelo_inurba_marseille","lat":43.309038,"lon":5.396546,"is_reserved":false,"is_disabled":false,"rental_uris":{"android":"levelo://app?vid=5f48b745-977e-43e8-8b95-d59b5e1c3f31","ios":"levelo://app?vid=5f48b745-977e-43e8-8b95-d59b5e1c3f31"},"vehicle_type_id":"4","last_reported":1689807980,"current_range_meters":4400,"station_id":"ce4bh012rcd13ifvqcv0","pricing_plan_id":"free"},{"bike_id":"7c789a75-961e-4af4-9e93-0152b71a380d","system_id":"levelo_inurba_marseille","lat":43.309038,"lon":5.396546,"is_reserved":false,"is_disabled":false,"rental_uris":{"android":"levelo://app?vid=7c789a75-961e-4af4-9e93-0152b71a380d","ios":"levelo://app?vid=7c789a75-961e-4af4-9e93-0152b71a380d"},"vehicle_type_id":"4","last_reported":1689807980,"current_range_meters":13600,"station_id":"ce4bh012rcd13ifvqcv0","pricing_plan_id":"free"},{"bike_id":"e6119747-ffd1-485c-bf4e-05414138ac23","system_id":"levelo_inurba_marseille","lat":43.309038,"lon":5.396546,"is_reserved":false,"is_disabled":false,"rental_uris":{"android":"levelo://app?vid=e6119747-ffd1-485c-bf4e-05414138ac23","ios":"levelo://app?vid=e6119747-ffd1-485c-bf4e-05414138ac23"},"vehicle_type_id":"4","last_reported":1689807980,"current_range_meters":0,"station_id":"ce4bh012rcd13ifvqcv0","pricing_plan_id":"free"},{"bike_id":"ce9936d8-847c-4b43-8af3-644987d88eaf","system_id":"levelo_inurba_marseille","lat":43.309038,"lon":5.396546,"is_reserved":false,"is_disabled":false,"rental_uris":{"android":"levelo://app?vid=ce9936d8-847c-4b43-8af3-644987d88eaf","ios":"levelo://app?vid=ce9936d8-847c-4b43-8af3-644987d88eaf"},"vehicle_type_id":"4","last_reported":1689807980,"current_range_meters":4800,"station_id":"ce4bh012rcd13ifvqcv0","pricing_plan_id":"free"},{"bike_id":"f2dc1592-11f0-489c-a88d-dcdea69b28f7","system_id":"levelo_inurba_marseille","lat":43.309038,"lon":5.396546,"is_reserved":false,"is_disabled":false,"rental_uris":{"android":"levelo://app?vid=f2dc1592-11f0-489c-a88d-dcdea69b28f7","ios":"levelo://app?vid=f2dc1592-11f0-489c-a88d-dcdea69b28f7"},"vehicle_type_id":"4","last_reported":1689807980,"current_range_meters":22800,"station_id":"ce4bh012rcd13ifvqcv0","pricing_plan_id":"free"},{"bike_id":"3f82ae94-ae71-407c-a181-0e75387a26f7","system_id":"levelo_inurba_marseille","lat":43.309038,"lon":5.396546,"is_reserved":false,"is_disabled":false,"rental_uris":{"android":"levelo://app?vid=3f82ae94-ae71-407c-a181-0e75387a26f7","ios":"levelo://app?vid=3f82ae94-ae71-407c-a181-0e75387a26f7"},"vehicle_type_id":"4","last_reported":1689807980,"current_range_meters":5600,"station_id":"ce4bh012rcd13ifvqcv0","pricing_plan_id":"free"},{"bike_id":"2dbde184-76e3-4790-bf1f-c786b5b157ae","system_id":"levelo_inurba_marseille","lat":43.309038,"lon":5.396546,"is_reserved":false,"is_disabled":false,"rental_uris":{"android":"levelo://app?vid=2dbde184-76e3-4790-bf1f-c786b5b157ae","ios":"levelo://app?vid=2dbde184-76e3-4790-bf1f-c786b5b157ae"},"vehicle_type_id":"4","last_reported":1689807980,"current_range_meters":27600,"station_id":"ce4bh012rcd13ifvqcv0","pricing_plan_id":"free"},{"bike_id":"cbc40f46-0f3e-4364-842f-2610ba19acfd","system_id":"levelo_inurba_marseille","lat":43.309038,"lon":5.396546,"is_reserved":false,"is_disabled":false,"rental_uris":{"android":"levelo://app?vid=cbc40f46-0f3e-4364-842f-2610ba19acfd","ios":"levelo://app?vid=cbc40f46-0f3e-4364-842f-2610ba19acfd"},"vehicle_type_id":"4","last_reported":1689807980,"current_range_meters":30000,"station_id":"ce4bh012rcd13ifvqcv0","pricing_plan_id":"free"},{"bike_id":"e889ae86-5b8b-4e40-9a1a-f4dd18d7f07e","system_id":"levelo_inurba_marseille","lat":43.309038,"lon":5.396546,"is_reserved":false,"is_disabled":false,"rental_uris":{"android":"levelo://app?vid=e889ae86-5b8b-4e40-9a1a-f4dd18d7f07e","ios":"levelo://app?vid=e889ae86-5b8b-4e40-9a1a-f4dd18d7f07e"},"vehicle_type_id":"4","last_reported":1689807980,"current_range_meters":17600,"station_id":"ce4bh012rcd13ifvqcv0","pricing_plan_id":"free"},{"bike_id":"b7ca54a8-acf2-4328-a6e6-c4e8f4ed41f5","system_id":"levelo_inurba_marseille","lat":43.309038,"lon":5.396546,"is_reserved":false,"is_disabled":false,"rental_uris":{"android":"levelo://app?vid=b7ca54a8-acf2-4328-a6e6-c4e8f4ed41f5","ios":"levelo://app?vid=b7ca54a8-acf2-4328-a6e6-c4e8f4ed41f5"},"vehicle_type_id":"4","last_reported":1689807980,"current_range_meters":26000,"station_id":"ce4bh012rcd13ifvqcv0","pricing_plan_id":"free"},{"bike_id":"e68b5237-e636-44ae-9f1a-c25a2affefb3","system_id":"levelo_inurba_marseille","lat":43.29529,"lon":5.385581,"is_reserved":false,"is_disabled":false,"rental_uris":{"android":"levelo://app?vid=e68b5237-e636-44ae-9f1a-c25a2affefb3","ios":"levelo://app?vid=e68b5237-e636-44ae-9f1a-c25a2affefb3"},"vehicle_type_id":"4","last_reported":1689807980,"current_range_meters":12400,"station_id":"ce4bgih2rcd13ifvqba0","pricing_plan_id":"free"},{"bike_id":"cd3b3478-31f2-44a8-9032-5029c9f2194b","system_id":"levelo_inurba_marseille","lat":43.29529,"lon":5.385581,"is_reserved":false,"is_disabled":false,"rental_uris":{"android":"levelo://app?vid=cd3b3478-31f2-44a8-9032-5029c9f2194b","ios":"levelo://app?vid=cd3b3478-31f2-44a8-9032-5029c9f2194b"},"vehicle_type_id":"4","last_reported":1689807980,"current_range_meters":15600,"station_id":"ce4bgih2rcd13ifvqba0","pricing_plan_id":"free"},{"bike_id":"35a6a6a1-876b-4ba0-9c19-bf16bd5f31eb","system_id":"levelo_inurba_marseille","lat":43.29529,"lon":5.385581,"is_reserved":false,"is_disabled":false,"rental_uris":{"android":"levelo://app?vid=35a6a6a1-876b-4ba0-9c19-bf16bd5f31eb","ios":"levelo://app?vid=35a6a6a1-876b-4ba0-9c19-bf16bd5f31eb"},"vehicle_type_id":"4","last_reported":1689807980,"current_range_meters":17600,"station_id":"ce4bgih2rcd13ifvqba0","pricing_plan_id":"free"},{"bike_id":"af93776f-3954-412a-bdb8-5fa72b2af08d","system_id":"levelo_inurba_marseille","lat":43.29529,"lon":5.385581,"is_reserved":false,"is_disabled":false,"rental_uris":{"android":"levelo://app?vid=af93776f-3954-412a-bdb8-5fa72b2af08d","ios":"levelo://app?vid=af93776f-3954-412a-bdb8-5fa72b2af08d"},"vehicle_type_id":"4","last_reported":1689807980,"current_range_meters":30800,"station_id":"ce4bgih2rcd13ifvqba0","pricing_plan_id":"free"},{"bike_id":"126b09fb-bf68-4d4e-9e75-c2ea4e780357","system_id":"levelo_inurba_marseille","lat":43.29529,"lon":5.385581,"is_reserved":false,"is_disabled":false,"rental_uris":{"android":"levelo://app?vid=126b09fb-bf68-4d4e-9e75-c2ea4e780357","ios":"levelo://app?vid=126b09fb-bf68-4d4e-9e75-c2ea4e780357"},"vehicle_type_id":"4","last_reported":1689807980,"current_range_meters":30800,"station_id":"ce4bgih2rcd13ifvqba0","pricing_plan_id":"free"},{"bike_id":"b69faa0e-7096-4522-acce-d15564b8da8f","system_id":"levelo_inurba_marseille","lat":43.290779,"lon":5.371482,"is_reserved":false,"is_disabled":false,"rental_uris":{"android":"levelo://app?vid=b69faa0e-7096-4522-acce-d15564b8da8f","ios":"levelo://app?vid=b69faa0e-7096-4522-acce-d15564b8da8f"},"vehicle_type_id":"4","last_reported":1689807980,"current_range_meters":31600,"station_id":"ce4bh5p2rcd13ifvqe4g","pricing_plan_id":"free"},{"bike_id":"2549aea2-fc57-43ee-9865-4423cb32b72d","system_id":"levelo_inurba_marseille","lat":43.290779,"lon":5.371482,"is_reserved":false,"is_disabled":false,"rental_uris":{"android":"levelo://app?vid=2549aea2-fc57-43ee-9865-4423cb32b72d","ios":"levelo://app?vid=2549aea2-fc57-43ee-9865-4423cb32b72d"},"vehicle_type_id":"4","last_reported":1689807980,"current_range_meters":16000,"station_id":"ce4bh5p2rcd13ifvqe4g","pricing_plan_id":"free"},{"bike_id":"7b8f80af-20ef-47d9-8069-8181bf1ddeb8","system_id":"levelo_inurba_marseille","lat":43.290779,"lon":5.371482,"is_reserved":false,"is_disabled":false,"rental_uris":{"android":"levelo://app?vid=7b8f80af-20ef-47d9-8069-8181bf1ddeb8","ios":"levelo://app?vid=7b8f80af-20ef-47d9-8069-8181bf1ddeb8"},"vehicle_type_id":"4","last_reported":1689807980,"current_range_meters":23200,"station_id":"ce4bh5p2rcd13ifvqe4g","pricing_plan_id":"free"},{"bike_id":"14d26390-788e-48fc-92ed-2817c3660a9d","system_id":"levelo_inurba_marseille","lat":43.302008,"lon":5.394694,"is_reserved":false,"is_disabled":false,"rental_uris":{"android":"levelo://app?vid=14d26390-788e-48fc-92ed-2817c3660a9d","ios":"levelo://app?vid=14d26390-788e-48fc-92ed-2817c3660a9d"},"vehicle_type_id":"4","last_reported":1689807980,"current_range_meters":31200,"station_id":"ce4bh0p2rcd13ifvqd70","pricing_plan_id":"free"},{"bike_id":"207add4c-4844-4e74-b9bb-608669af267d","system_id":"levelo_inurba_marseille","lat":43.302008,"lon":5.394694,"is_reserved":false,"is_disabled":false,"rental_uris":{"android":"levelo://app?vid=207add4c-4844-4e74-b9bb-608669af267d","ios":"levelo://app?vid=207add4c-4844-4e74-b9bb-608669af267d"},"vehicle_type_id":"4","last_reported":1689807980,"current_range_meters":11600,"station_id":"ce4bh0p2rcd13ifvqd70","pricing_plan_id":"free"},{"bike_id":"161fbc69-ff05-4dd8-b60c-08d46f534769","system_id":"levelo_inurba_marseille","lat":43.302008,"lon":5.394694,"is_reserved":false,"is_disabled":false,"rental_uris":{"android":"levelo://app?vid=161fbc69-ff05-4dd8-b60c-08d46f534769","ios":"levelo://app?vid=161fbc69-ff05-4dd8-b60c-08d46f534769"},"vehicle_type_id":"4","last_reported":1689807980,"current_range_meters":9200,"station_id":"ce4bh0p2rcd13ifvqd70","pricing_plan_id":"free"},{"bike_id":"0dd35aed-2a1d-4e6f-a64d-1b754f58e58a","system_id":"levelo_inurba_marseille","lat":43.302008,"lon":5.394694,"is_reserved":false,"is_disabled":false,"rental_uris":{"android":"levelo://app?vid=0dd35aed-2a1d-4e6f-a64d-1b754f58e58a","ios":"levelo://app?vid=0dd35aed-2a1d-4e6f-a64d-1b754f58e58a"},"vehicle_type_id":"4","last_reported":1689807980,"current_range_meters":16400,"station_id":"ce4bh0p2rcd13ifvqd70","pricing_plan_id":"free"},{"bike_id":"264b2df1-1152-4efe-9732-0f1ea5e572de","system_id":"levelo_inurba_marseille","lat":43.302008,"lon":5.394694,"is_reserved":false,"is_disabled":false,"rental_uris":{"android":"levelo://app?vid=264b2df1-1152-4efe-9732-0f1ea5e572de","ios":"levelo://app?vid=264b2df1-1152-4efe-9732-0f1ea5e572de"},"vehicle_type_id":"4","last_reported":1689807980,"current_range_meters":31200,"station_id":"ce4bh0p2rcd13ifvqd70","pricing_plan_id":"free"},{"bike_id":"e4901c8d-d8e6-40a0-a87e-93b92e824164","system_id":"levelo_inurba_marseille","lat":43.302008,"lon":5.394694,"is_reserved":false,"is_disabled":false,"rental_uris":{"android":"levelo://app?vid=e4901c8d-d8e6-40a0-a87e-93b92e824164","ios":"levelo://app?vid=e4901c8d-d8e6-40a0-a87e-93b92e824164"},"vehicle_type_id":"4","last_reported":1689807980,"current_range_meters":31200,"station_id":"ce4bh0p2rcd13ifvqd70","pricing_plan_id":"free"},{"bike_id":"e9ad24f3-b12d-46a6-b013-47efcd16aca4","system_id":"levelo_inurba_marseille","lat":43.302008,"lon":5.394694,"is_reserved":false,"is_disabled":false,"rental_uris":{"android":"levelo://app?vid=e9ad24f3-b12d-46a6-b013-47efcd16aca4","ios":"levelo://app?vid=e9ad24f3-b12d-46a6-b013-47efcd16aca4"},"vehicle_type_id":"4","last_reported":1689807980,"current_range_meters":20400,"station_id":"ce4bh0p2rcd13ifvqd70","pricing_plan_id":"free"},{"bike_id":"bef2692f-f8d7-4dc7-b32f-6ad85144d213","system_id":"levelo_inurba_marseille","lat":43.29444,"lon":5.38622,"is_reserved":false,"is_disabled":false,"rental_uris":{"android":"levelo://app?vid=bef2692f-f8d7-4dc7-b32f-6ad85144d213","ios":"levelo://app?vid=bef2692f-f8d7-4dc7-b32f-6ad85144d213"},"vehicle_type_id":"4","last_reported":1689807980,"current_range_meters":31200,"station_id":"ce4bh2h2rcd13ifvqdh0","pricing_plan_id":"free"},{"bike_id":"84fcd434-8627-4e85-8c61-dffbb4bcf90e","system_id":"levelo_inurba_marseille","lat":43.29426,"lon":5.38621,"is_reserved":false,"is_disabled":false,"rental_uris":{"android":"levelo://app?vid=84fcd434-8627-4e85-8c61-dffbb4bcf90e","ios":"levelo://app?vid=84fcd434-8627-4e85-8c61-dffbb4bcf90e"},"vehicle_type_id":"4","last_reported":1689807980,"current_range_meters":17200,"station_id":"ce4bh2h2rcd13ifvqdh0","pricing_plan_id":"free"},{"bike_id":"1cf64c89-8a67-413c-8ba7-5e6384a5c82d","system_id":"levelo_inurba_marseille","lat":43.290327,"lon":5.375711,"is_reserved":false,"is_disabled":false,"rental_uris":{"android":"levelo://app?vid=1cf64c89-8a67-413c-8ba7-5e6384a5c82d","ios":"levelo://app?vid=1cf64c89-8a67-413c-8ba7-5e6384a5c82d"},"vehicle_type_id":"4","last_reported":1689807980,"current_range_meters":31200,"station_id":"ce4bh692rcd13ifvqe90","pricing_plan_id":"free"},{"bike_id":"c3be12d3-5e2f-4296-82c0-3a30a7707148","system_id":"levelo_inurba_marseille","lat":43.29423,"lon":5.38621,"is_reserved":false,"is_disabled":false,"rental_uris":{"android":"levelo://app?vid=c3be12d3-5e2f-4296-82c0-3a30a7707148","ios":"levelo://app?vid=c3be12d3-5e2f-4296-82c0-3a30a7707148"},"vehicle_type_id":"4","last_reported":1689807980,"current_range_meters":31200,"station_id":"ce4bh2h2rcd13ifvqdh0","pricing_plan_id":"free"},{"bike_id":"80a3fbf8-6f7f-4e3e-a352-40f6b2242616","system_id":"levelo_inurba_marseille","lat":43.294162,"lon":5.386292,"is_reserved":false,"is_disabled":false,"rental_uris":{"android":"levelo://app?vid=80a3fbf8-6f7f-4e3e-a352-40f6b2242616","ios":"levelo://app?vid=80a3fbf8-6f7f-4e3e-a352-40f6b2242616"},"vehicle_type_id":"4","last_reported":1689807980,"current_range_meters":31200,"station_id":"ce4bh2h2rcd13ifvqdh0","pricing_plan_id":"free"},{"bike_id":"96646845-5929-401b-a368-25ec9d6b4d8d","system_id":"levelo_inurba_marseille","lat":43.28951,"lon":5.36634,"is_reserved":false,"is_disabled":false,"rental_uris":{"android":"levelo://app?vid=96646845-5929-401b-a368-25ec9d6b4d8d","ios":"levelo://app?vid=96646845-5929-401b-a368-25ec9d6b4d8d"},"vehicle_type_id":"4","last_reported":1689807980,"current_range_meters":31200,"station_id":"ce4bhap2rcd13ifvqek0","pricing_plan_id":"free"},{"bike_id":"90048e69-dc8b-4bc5-a7a5-6ead3393902c","system_id":"levelo_inurba_marseille","lat":43.2942,"lon":5.38619,"is_reserved":false,"is_disabled":false,"rental_uris":{"android":"levelo://app?vid=90048e69-dc8b-4bc5-a7a5-6ead3393902c","ios":"levelo://app?vid=90048e69-dc8b-4bc5-a7a5-6ead3393902c"},"vehicle_type_id":"4","last_reported":1689807980,"current_range_meters":28400,"station_id":"ce4bh2h2rcd13ifvqdh0","pricing_plan_id":"free"},{"bike_id":"87ea3b2b-ac7d-481d-a84d-ab979120c837","system_id":"levelo_inurba_marseille","lat":43.29416,"lon":5.38612,"is_reserved":false,"is_disabled":false,"rental_uris":{"android":"levelo://app?vid=87ea3b2b-ac7d-481d-a84d-ab979120c837","ios":"levelo://app?vid=87ea3b2b-ac7d-481d-a84d-ab979120c837"},"vehicle_type_id":"4","last_reported":1689807980,"current_range_meters":21600,"station_id":"ce4bh2h2rcd13ifvqdh0","pricing_plan_id":"free"},{"bike_id":"6f76cc37-5e14-4c64-a67e-6dfae69a6b02","system_id":"levelo_inurba_marseille","lat":43.29419,"lon":5.38618,"is_reserved":false,"is_disabled":false,"rental_uris":{"android":"levelo://app?vid=6f76cc37-5e14-4c64-a67e-6dfae69a6b02","ios":"levelo://app?vid=6f76cc37-5e14-4c64-a67e-6dfae69a6b02"},"vehicle_type_id":"4","last_reported":1689807980,"current_range_meters":29600,"station_id":"ce4bh2h2rcd13ifvqdh0","pricing_plan_id":"free"},{"bike_id":"25cddc9e-f71d-4f67-961d-c0a8416ad358","system_id":"levelo_inurba_marseille","lat":43.29419,"lon":5.38618,"is_reserved":false,"is_disabled":false,"rental_uris":{"android":"levelo://app?vid=25cddc9e-f71d-4f67-961d-c0a8416ad358","ios":"levelo://app?vid=25cddc9e-f71d-4f67-961d-c0a8416ad358"},"vehicle_type_id":"4","last_reported":1689807980,"current_range_meters":22000,"station_id":"ce4bh2h2rcd13ifvqdh0","pricing_plan_id":"free"},{"bike_id":"d0d29560-f5bb-4f75-9405-1fd71fdff5e1","system_id":"levelo_inurba_marseille","lat":43.2942,"lon":5.38624,"is_reserved":false,"is_disabled":false,"rental_uris":{"android":"levelo://app?vid=d0d29560-f5bb-4f75-9405-1fd71fdff5e1","ios":"levelo://app?vid=d0d29560-f5bb-4f75-9405-1fd71fdff5e1"},"vehicle_type_id":"4","last_reported":1689807980,"current_range_meters":30800,"station_id":"ce4bh2h2rcd13ifvqdh0","pricing_plan_id":"free"},{"bike_id":"224df5a6-562d-411d-ae00-df6232145b98","system_id":"levelo_inurba_marseille","lat":43.29421,"lon":5.38626,"is_reserved":false,"is_disabled":false,"rental_uris":{"android":"levelo://app?vid=224df5a6-562d-411d-ae00-df6232145b98","ios":"levelo://app?vid=224df5a6-562d-411d-ae00-df6232145b98"},"vehicle_type_id":"4","last_reported":1689807980,"current_range_meters":30000,"station_id":"ce4bh2h2rcd13ifvqdh0","pricing_plan_id":"free"},{"bike_id":"3e63f95f-e8ee-479a-b936-3ff28b0402d7","system_id":"levelo_inurba_marseille","lat":43.29421,"lon":5.38626,"is_reserved":false,"is_disabled":false,"rental_uris":{"android":"levelo://app?vid=3e63f95f-e8ee-479a-b936-3ff28b0402d7","ios":"levelo://app?vid=3e63f95f-e8ee-479a-b936-3ff28b0402d7"},"vehicle_type_id":"4","last_reported":1689807980,"current_range_meters":27200,"station_id":"ce4bh2h2rcd13ifvqdh0","pricing_plan_id":"free"},{"bike_id":"04cf044c-603c-4988-b4c0-d8bf6c08a385","system_id":"levelo_inurba_marseille","lat":43.28947,"lon":5.36626,"is_reserved":false,"is_disabled":false,"rental_uris":{"android":"levelo://app?vid=04cf044c-603c-4988-b4c0-d8bf6c08a385","ios":"levelo://app?vid=04cf044c-603c-4988-b4c0-d8bf6c08a385"},"vehicle_type_id":"4","last_reported":1689807980,"current_range_meters":26800,"station_id":"ce4bhap2rcd13ifvqek0","pricing_plan_id":"free"},{"bike_id":"c87c7d3c-ad3e-4ebd-9c3d-b6f7bbce590a","system_id":"levelo_inurba_marseille","lat":43.295713,"lon":5.399639,"is_reserved":false,"is_disabled":false,"rental_uris":{"android":"levelo://app?vid=c87c7d3c-ad3e-4ebd-9c3d-b6f7bbce590a","ios":"levelo://app?vid=c87c7d3c-ad3e-4ebd-9c3d-b6f7bbce590a"},"vehicle_type_id":"4","last_reported":1689807980,"current_range_meters":14800,"station_id":"ce4bh312rcd13ifvqdj0","pricing_plan_id":"free"},