{"last_updated":1729152738,"ttl":60,"version":"2.2","data":{"bikes":[{"bike_id":"ca9b36f4-b4f8-462e-9ed9-17e10932734a","system_id":"levelo_inurba_marseille","lat":43.249969,"lon":5.389247,"is_reserved":false,"is_disabled":false,"rental_uris":{"android":"levelo://app?vid=ca9b36f4-b4f8-462e-9ed9-17e10932734a","ios":"levelo://app?vid=ca9b36f4-b4f8-462e-9ed9-17e10932734a"},"vehicle_type_id":"4","last_reported":1729152738,"current_range_meters":38400,"station_id":"ce4bhgp2rcd13ifvqfd0","pricing_plan_id":"cebpf4jnsgd1na2vs0mg"},{"bike_id":"79f217c8-f3c8-4068-bc7d-b11fe64e9200","system_id":"levelo_inurba_marseille","lat":43.31493,"lon":5.37305,"is_reserved":false,"is_disabled":false,"rental_uris":{"android":"levelo://app?vid=79f217c8-f3c8-4068-bc7d-b11fe64e9200","ios":"levelo://app?vid=79f217c8-f3c8-4068-bc7d-b11fe64e9200"},"vehicle_type_id":"4","last_reported":1729152738,"current_range_meters":36000,"station_id":"ce4bgt12rcd13ifvqcd0","pricing_plan_id":"cebpf4jnsgd1na2vs0mg"},{"bike_id":"38af802b-0dd3-4001-8bdf-786db676d355","system_id":"levelo_inurba_marseille","lat":43.30547,"lon":5.37507,"is_reserved":false,"is_disabled":false,"rental_uris":{"android":"levelo://app?vid=38af802b-0dd3-4001-8bdf-786db676d355","ios":"levelo://app?vid=38af802b-0dd3-4001-8bdf-786db676d355"},"vehicle_type_id":"4","last_reported":1729152738,"current_range_meters":30800,"station_id":"","pricing_plan_id":"cebpf4jnsgd1na2vs0mg"},{"bike_id":"676ec6c4-6b42-43e0-81fe-327782965da5","system_id":"levelo_inurba_marseille","lat":43.337444,"lon":5.374475,"is_reserved":false,"is_disabled":false,"rental_uris":{"android":"levelo://app?vid=676ec6c4-6b42-43e0-81fe-327782965da5","ios":"levelo://app?vid=676ec6c4-6b42-43e0-81fe-327782965da5"},"vehicle_type_id":"4","last_reported":1729152738,"current_range_meters":17600,"station_id":"","pricing_plan_id":"cebpf4jnsgd1na2vs0mg"},{"bike_id":"6b5cda88-1627-4aff-9f71-ae4a2467498b","system_id":"levelo_inurba_marseille","lat":43.29599,"lon":5.38098,"is_reserved":false,"is_disabled":false,"rental_uris":{"android":"levelo://app?vid=6b5cda88-1627-4aff-9f71-ae4a2467498b","ios":"levelo://app?vid=6b5cda88-1627-4aff-9f71-ae4a2467498b"},"vehicle_type_id":"4","last_reported":1729152738,"current_range_meters":5600,"station_id":"ce4bgl12rcd13ifvqbo0","pricing_plan_id":"cebpf4jnsgd1na2vs0mg"},{"bike_id":"89882e14-33a3-43bf-a489-42ef5b00225f","system_id":"levelo_inurba_marseille","lat":43.24671,"lon":5.38153,"is_reserved":false,"is_disabled":false,"rental_uris":{"android":"levelo://app?vid=89882e14-33a3-43bf-a489-42ef5b00225f","ios":"levelo://app?vid=89882e14-33a3-43bf-a489-42ef5b00225f"},"vehicle_type_id":"4","last_reported":1729152738,"current_range_meters":38400,"station_id":"ce4bhih2rcd13ifvqfr0","pricing_plan_id":"cebpf4jnsgd1na2vs0mg"},{"bike_id":"ee22ed23-b661-4149-8d5e-d3667e92dc0b","system_id":"levelo_inurba_marseille","lat":43.27492,"lon":5.42455,"is_reserved":false,"is_disabled":false,"rental_uris":{"android":"levelo://app?vid=ee22ed23-b661-4149-8d5e-d3667e92dc0b","ios":"levelo://app?vid=ee22ed23-b661-4149-8d5e-d3667e92dc0b"},"vehicle_type_id":"4","last_reported":1729152738,"current_range_meters":40000,"station_id":"ce4bhn92rcd13ifvqgrg","pricing_plan_id":"cebpf4jnsgd1na2vs0mg"},{"bike_id":"7bcf8252-a14c-4b37-a024-2aecfd6c0d3e","system_id":"levelo_inurba_marseille","lat":43.295898,"lon":5.377385,"is_reserved":false,"is_disabled":false,"rental_uris":{"android":"levelo://app?vid=7bcf8252-a14c-4b37-a024-2aecfd6c0d3e","ios":"levelo://app?vid=7bcf8252-a14c-4b37-a024-2aecfd6c0d3e"},"vehicle_type_id":"4","last_reported":1729152738,"current_range_meters":12800,"station_id":"ce4bgi92rcd13ifvqb90","pricing_plan_id":"cebpf4jnsgd1na2vs0mg"},{"bike_id":"254b87d7-1259-4640-853e-15d04eede601","system_id":"levelo_inurba_marseille","lat":43.294026,"lon":5.386144,"is_reserved":false,"is_disabled":false,"rental_uris":{"android":"levelo://app?vid=254b87d7-1259-4640-853e-15d04eede601","ios":"levelo://app?vid=254b87d7-1259-4640-853e-15d04eede601"},"vehicle_type_id":"4","last_reported":1729152738,"current_range_meters":31200,"station_id":"ce4bh2h2rcd13ifvqdh0","pricing_plan_id":"cebpf4jnsgd1na2vs0mg"},{"bike_id":"50bb76b7-ffa2-4860-8b82-ac405e39f0e8","system_id":"levelo_inurba_marseille","lat":43.30306,"lon":5.36891,"is_reserved":false,"is_disabled":false,"rental_uris":{"android":"levelo://app?vid=50bb76b7-ffa2-4860-8b82-ac405e39f0e8","ios":"levelo://app?vid=50bb76b7-ffa2-4860-8b82-ac405e39f0e8"},"vehicle_type_id":"4","last_reported":1729152738,"current_range_meters":8400,"station_id":"ce4bgqh2rcd13ifvqc5g","pricing_plan_id":"cebpf4jnsgd1na2vs0mg"},{"bike_id":"f3147d8e-92df-4fc8-ae6d-c9849284365c","system_id":"levelo_inurba_marseille","lat":43.3136,"lon":5.36714,"is_reserved":false,"is_disabled":false,"rental_uris":{"android":"levelo://app?vid=f3147d8e-92df-4fc8-ae6d-c9849284365c","ios":"levelo://app?vid=f3147d8e-92df-4fc8-ae6d-c9849284365c"},"vehicle_type_id":"4","last_reported":1729152738,"current_range_meters":12400,"station_id":"ce4bgr92rcd13ifvqc6g","pricing_plan_id":"cebpf4jnsgd1na2vs0mg"},{"bike_id":"d1ec7458-cbdf-411a-82ea-473f4dc1791a","system_id":"levelo_inurba_marseille","lat":43.275,"lon":5.42453,"is_reserved":false,"is_disabled":false,"rental_uris":{"android":"levelo://app?vid=d1ec7458-cbdf-411a-82ea-473f4dc1791a","ios":"levelo://app?vid=d1ec7458-cbdf-411a-82ea-473f4dc1791a"},"vehicle_type_id":"4","last_reported":1729152738,"current_range_meters":17200,"station_id":"ce4bhn92rcd13ifvqgrg","pricing_plan_id":"cebpf4jnsgd1na2vs0mg"},{"bike_id":"a40ad836-acea-448a-9033-d53805f655be","system_id":"levelo_inurba_marseille","lat":43.3047,"lon":5.37902,"is_reserved":false,"is_disabled":false,"rental_uris":{"android":"levelo://app?vid=a40ad836-acea-448a-9033-d53805f655be","ios":"levelo://app?vid=a40ad836-acea-448a-9033-d53805f655be"},"vehicle_type_id":"4","last_reported":1729152738,"current_range_meters":31200,"station_id":"ce4bgup2rcd13ifvqcn0","pricing_plan_id":"cebpf4jnsgd1na2vs0mg"},{"bike_id":"9d3bde82-5023-43d8-a7fa-acc7e09dc6df","system_id":"levelo_inurba_marseille","lat":43.30313,"lon":5.36903,"is_reserved":false,"is_disabled":false,"rental_uris":{"android":"levelo://app?vid=9d3bde82-5023-43d8-a7fa-acc7e09dc6df","ios":"levelo://app?vid=9d3bde82-5023-43d8-a7fa-acc7e09dc6df"},"vehicle_type_id":"4","last_reported":1729152738,"current_range_meters":16000,"station_id":"ce4bgqh2rcd13ifvqc5g","pricing_plan_id":"cebpf4jnsgd1na2vs0mg"},{"bike_id":"91465fcb-56c4-402d-86e0-a549eae86045","system_id":"levelo_inurba_marseille","lat":43.27175,"lon":5.40994,"is_reserved":false,"is_disabled":false,"rental_uris":{"android":"levelo://app?vid=91465fcb-56c4-402d-86e0-a549eae86045","ios":"levelo://app?vid=91465fcb-56c4-402d-86e0-a549eae86045"},"vehicle_type_id":"4","last_reported":1729152738,"current_range_meters":31200,"station_id":"ce4bhl12rcd13ifvqgf0","pricing_plan_id":"cebpf4jnsgd1na2vs0mg"},{"bike_id":"60e8a30b-e6df-4270-a024-b91a11740c88","system_id":"levelo_inurba_marseille","lat":43.30186,"lon":5.36634,"is_reserved":false,"is_disabled":false,"rental_uris":{"android":"levelo://app?vid=60e8a30b-e6df-4270-a024-b91a11740c88","ios":"levelo://app?vid=60e8a30b-e6df-4270-a024-b91a11740c88"},"vehicle_type_id":"4","last_reported":1729152738,"current_range_meters":26000,"station_id":"ce4bgrh2rcd13ifvqc8g","pricing_plan_id":"cebpf4jnsgd1na2vs0mg"},{"bike_id":"39d30df0-f9b0-4501-af02-4fc85ad423f3","system_id":"levelo_inurba_marseille","lat":43.29598,"lon":5.38108,"is_reserved":false,"is_disabled":false,"rental_uris":{"android":"levelo://app?vid=39d30df0-f9b0-4501-af02-4fc85ad423f3","ios":"levelo://app?vid=39d30df0-f9b0-4501-af02-4fc85ad423f3"},"vehicle_type_id":"4","last_reported":1729152738,"current_range_meters":14800,"station_id":"ce4bgl12rcd13ifvqbo0","pricing_plan_id":"cebpf4jnsgd1na2vs0mg"},{"bike_id":"5e71b035-27fe-4188-85ce-f59b32638687","system_id":"levelo_inurba_marseille","lat":43.298,"lon":5.38099,"is_reserved":false,"is_disabled":false,"rental_uris":{"android":"levelo://app?vid=5e71b035-27fe-4188-85ce-f59b32638687","ios":"levelo://app?vid=5e71b035-27fe-4188-85ce-f59b32638687"},"vehicle_type_id":"4","last_reported":1729152738,"current_range_meters":16400,"station_id":"ce4bgip2rcd13ifvqbb0","pricing_plan_id":"cebpf4jnsgd1na2vs0mg"},{"bike_id":"4ae2c184-8c50-452d-87fb-8f7bf4f540f3","system_id":"levelo_inurba_marseille","lat":43.24653,"lon":5.38895,"is_reserved":false,"is_disabled":false,"rental_uris":{"android":"levelo://app?vid=4ae2c184-8c50-452d-87fb-8f7bf4f540f3","ios":"levelo://app?vid=4ae2c184-8c50-452d-87fb-8f7bf4f540f3"},"vehicle_type_id":"4","last_reported":1729152738,"current_range_meters":25200,"station_id":"ce4bhg12rcd13ifvqf60","pricing_plan_id":"cebpf4jnsgd1na2vs0mg"},{"bike_id":"b4f76d8a-e95a-4f93-9b45-a2edbf056c37","system_id":"levelo_inurba_marseille","lat":43.29038,"lon":5.37551,"is_reserved":false,"is_disabled":false,"rental_uris":{"android":"levelo://app?vid=b4f76d8a-e95a-4f93-9b45-a2edbf056c37","ios":"levelo://app?vid=b4f76d8a-e95a-4f93-9b45-a2edbf056c37"},"vehicle_type_id":"4","last_reported":1729152738,"current_range_meters":38400,"station_id":"ce4bh692rcd13ifvqe90","pricing_plan_id":"cebpf4jnsgd1na2vs0mg"},{"bike_id":"6886648b-f8bb-4bcf-84ec-7aee4f26a8e2","system_id":"levelo_inurba_marseille","lat":43.27486,"lon":5.42458,"is_reserved":false,"is_disabled":false,"rental_uris":{"android":"levelo://app?vid=6886648b-f8bb-4bcf-84ec-7aee4f26a8e2","ios":"levelo://app?vid=6886648b-f8bb-4bcf-84ec-7aee4f26a8e2"},"vehicle_type_id":"4","last_reported":1729152738,"current_range_meters":36400,"station_id":"ce4bhn92rcd13ifvqgrg","pricing_plan_id":"cebpf4jnsgd1na2vs0mg"},{"bike_id":"f73a80b4-3162-4963-9098-64de35487ff5","system_id":"levelo_inurba_marseille","lat":43.24077,"lon":5.37743,"is_reserved":false,"is_disabled":false,"rental_uris":{"android":"levelo://app?vid=f73a80b4-3162-4963-9098-64de35487ff5","ios":"levelo://app?vid=f73a80b4-3162-4963-9098-64de35487ff5"},"vehicle_type_id":"4","last_reported":1729152738,"current_range_meters":22000,"station_id":"ce4bhnp2rcd13ifvqgvg","pricing_plan_id":"cebpf4jnsgd1na2vs0mg"},{"bike_id":"56da5a5d-e301-4452-8c07-d6a5a0f92928","system_id":"levelo_inurba_marseille","lat":43.30543,"lon":5.36723,"is_reserved":false,"is_disabled":false,"rental_uris":{"android":"levelo://app?vid=56da5a5d-e301-4452-8c07-d6a5a0f92928","ios":"levelo://app?vid=56da5a5d-e301-4452-8c07-d6a5a0f92928"},"vehicle_type_id":"4","last_reported":1729152738,"current_range_meters":9200,"station_id":"ce4bgrp2rcd13ifvqc9g","pricing_plan_id":"cebpf4jnsgd1na2vs0mg"},{"bike_id":"d5be6b8b-d4c0-4423-96a8-3fa59e23e89b","system_id":"levelo_inurba_marseille","lat":43.3047,"lon":5.37907,"is_reserved":false,"is_disabled":false,"rental_uris":{"android":"levelo://app?vid=d5be6b8b-d4c0-4423-96a8-3fa59e23e89b","ios":"levelo://app?vid=d5be6b8b-d4c0-4423-96a8-3fa59e23e89b"},"vehicle_type_id":"4","last_reported":1729152738,"current_range_meters":36000,"station_id":"","pricing_plan_id":"cebpf4jnsgd1na2vs0mg"},{"bike_id":"459b9707-1ebe-414b-8708-e8195cc06d8f","system_id":"levelo_inurba_marseille","lat":43.24077,"lon":5.37756,"is_reserved":false,"is_disabled":false,"rental_uris":{"android":"levelo://app?vid=459b9707-1ebe-414b-8708-e8195cc06d8f","ios":"levelo://app?vid=459b9707-1ebe-414b-8708-e8195cc06d8f"},"vehicle_type_id":"4","last_reported":1729152738,"current_range_meters":37600,"station_id":"ce4bhnp2rcd13ifvqgvg","pricing_plan_id":"cebpf4jnsgd1na2vs0mg"},{"bike_id":"38585b14-faaa-42d5-a9c6-d16bb1bfb7ad","system_id":"levelo_inurba_marseille","lat":43.3046,"lon":5.37911,"is_reserved":false,"is_disabled":false,"rental_uris":{"android":"levelo://app?vid=38585b14-faaa-42d5-a9c6-d16bb1bfb7ad","ios":"levelo://app?vid=38585b14-faaa-42d5-a9c6-d16bb1bfb7ad"},"vehicle_type_id":"4","last_reported":1729152738,"current_range_meters":22400,"station_id":"ce4bgup2rcd13ifvqcn0","pricing_plan_id":"cebpf4jnsgd1na2vs0mg"},{"bike_id":"9e17e85f-1c1c-4b96-93bc-7facc4eb1fb9","system_id":"levelo_inurba_marseille","lat":43.3054,"lon":5.36716,"is_reserved":false,"is_disabled":false,"rental_uris":{"android":"levelo://app?vid=9e17e85f-1c1c-4b96-93bc-7facc4eb1fb9","ios":"levelo://app?vid=9e17e85f-1c1c-4b96-93bc-7facc4eb1fb9"},"vehicle_type_id":"4","last_reported":1729152738,"current_range_meters":8400,"station_id":"ce4bgrp2rcd13ifvqc9g","pricing_plan_id":"cebpf4jnsgd1na2vs0mg"},{"bike_id":"052b3563-392a-4857-8174-027696f961ab","system_id":"levelo_inurba_marseille","lat":43.337444,"lon":5.374475,"is_reserved":false,"is_disabled":false,"rental_uris":{"android":"levelo://app?vid=052b3563-392a-4857-8174-027696f961ab","ios":"levelo://app?vid=052b3563-392a-4857-8174-027696f961ab"},"vehicle_type_id":"4","last_reported":1729152738,"current_range_meters":24800,"station_id":"ce4bhg12rcd13ifvqf60","pricing_plan_id":"cebpf4jnsgd1na2vs0mg"},{"bike_id":"7088a2f7-553c-47a2-a80a-ed0ece411348","system_id":"levelo_inurba_marseille","lat":43.27174,"lon":5.40992,"is_reserved":false,"is_disabled":false,"rental_uris":{"android":"levelo://app?vid=7088a2f7-553c-47a2-a80a-ed0ece411348","ios":"levelo://app?vid=7088a2f7-553c-47a2-a80a-ed0ece411348"},"vehicle_type_id":"4","last_reported":1729152738,"current_range_meters":14800,"station_id":"ce4bhl12rcd13ifvqgf0","pricing_plan_id":"cebpf4jnsgd1na2vs0mg"},{"bike_id":"319a4fe5-d3c2-475d-8d1a-a386dfca73d4","system_id":"levelo_inurba_marseille","lat":43.31353,"lon":5.36708,"is_reserved":false,"is_disabled":false,"rental_uris":{"android":"levelo://app?vid=319a4fe5-d3c2-475d-8d1a-a386dfca73d4","ios":"levelo://app?vid=319a4fe5-d3c2-475d-8d1a-a386dfca73d4"},"vehicle_type_id":"4","last_reported":1729152738,"current_range_meters":39200,"station_id":"ce4bgr92rcd13ifvqc6g","pricing_plan_id":"cebpf4jnsgd1na2vs0mg"},{"bike_id":"63b2cd26-fe78-4925-a2bc-6ec63db0d274","system_id":"levelo_inurba_marseille","lat":43.27495,"lon":5.42453,"is_reserved":false,"is_disabled":false,"rental_uris":{"android":"levelo://app?vid=63b2cd26-fe78-4925-a2bc-6ec63db0d274","ios":"levelo://app?vid=63b2cd26-fe78-4925-a2bc-6ec63db0d274"},"vehicle_type_id":"4","last_reported":1729152738,"current_range_meters":23200,"station_id":"ce4bhn92rcd13ifvqgrg","pricing_plan_id":"cebpf4jnsgd1na2vs0mg"},{"bike_id":"68d3708f-b662-4a36-98a7-3d293d171090","system_id":"levelo_inurba_marseille","lat":43.3091,"lon":5.36853,"is_reserved":false,"is_disabled":false,"rental_uris":{"android":"levelo://app?vid=68d3708f-b662-4a36-98a7-3d293d171090","ios":"levelo://app?vid=68d3708f-b662-4a36-98a7-3d293d171090"},"vehicle_type_id":"4","last_reported":1729152738,"current_range_meters":28400,"station_id":"ce4bgn92rcd13ifvqbvg","pricing_plan_id":"cebpf4jnsgd1na2vs0mg"},{"bike_id":"ee07eab1-d6cf-499f-9946-cf995decd1fd","system_id":"levelo_inurba_marseille","lat":43.27998,"lon":5.40031,"is_reserved":false,"is_disabled":false,"rental_uris":{"android":"levelo://app?vid=ee07eab1-d6cf-499f-9946-cf995decd1fd","ios":"levelo://app?vid=ee07eab1-d6cf-499f-9946-cf995decd1fd"},"vehicle_type_id":"4","last_reported":1729152738,"current_range_meters":32800,"station_id":"ce4bho92rcd13ifvqh4g","pricing_plan_id":"cebpf4jnsgd1na2vs0mg"},{"bike_id":"2af9a2ff-1e0c-4010-b9be-2899a0856ccd","system_id":"levelo_inurba_marseille","lat":43.24077,"lon":5.37759,"is_reserved":false,"is_disabled":false,"rental_uris":{"android":"levelo://app?vid=2af9a2ff-1e0c-4010-b9be-2899a0856ccd","ios":"levelo://app?vid=2af9a2ff-1e0c-4010-b9be-2899a0856ccd"},"vehicle_type_id":"4","last_reported":1729152738,"current_range_meters":36800,"station_id":"ce4bhnp2rcd13ifvqgvg","pricing_plan_id":"cebpf4jnsgd1na2vs0mg"},{"bike_id":"b5872dda-a93e-41d0-be24-ecdb4758650a","system_id":"levelo_inurba_marseille","lat":43.30126,"lon":5.37419,"is_reserved":false,"is_disabled":false,"rental_uris":{"android":"levelo://app?vid=b5872dda-a93e-41d0-be24-ecdb4758650a","ios":"levelo://app?vid=b5872dda-a93e-41d0-be24-ecdb4758650a"},"vehicle_type_id":"4","last_reported":1729152738,"current_range_meters":17200,"station_id":"ce4bgs92rcd13ifvqcc0","pricing_plan_id":"cebpf4jnsgd1na2vs0mg"},{"bike_id":"eae59f67-fffa-47e3-836c-f1a6255b59b9","system_id":"levelo_inurba_marseille","lat":43.26683,"lon":5.38269,"is_reserved":false,"is_disabled":false,"rental_uris":{"android":"levelo://app?vid=eae59f67-fffa-47e3-836c-f1a6255b59b9","ios":"levelo://app?vid=eae59f67-fffa-47e3-836c-f1a6255b59b9"},"vehicle_type_id":"4","last_reported":1729152738,"current_range_meters":27600,"station_id":"ce4bhg92rcd13ifvqf90","pricing_plan_id":"cebpf4jnsgd1na2vs0mg"},{"bike_id":"f8616bb9-c63b-416b-b8c4-507ff62f07bf","system_id":"levelo_inurba_marseille","lat":43.30538,"lon":5.36558,"is_reserved":false,"is_disabled":false,"rental_uris":{"android":"levelo://app?vid=f8616bb9-c63b-416b-b8c4-507ff62f07bf","ios":"levelo://app?vid=f8616bb9-c63b-416b-b8c4-507ff62f07bf"},"vehicle_type_id":"4","last_reported":1729152738,"current_range_meters":38800,"station_id":"ce4bgs12rcd13ifvqcag","pricing_plan_id":"cebpf4jnsgd1na2vs0mg"},{"bike_id":"3010ec48-9760-492e-aa23-bad0703f2ce1","system_id":"levelo_inurba_marseille","lat":43.30466,"lon":5.37909,"is_reserved":false,"is_disabled":false,"rental_uris":{"android":"levelo://app?vid=3010ec48-9760-492e-aa23-bad0703f2ce1","ios":"levelo://app?vid=3010ec48-9760-492e-aa23-bad0703f2ce1"},"vehicle_type_id":"4","last_reported":1729152738,"current_range_meters":38400,"station_id":"","pricing_plan_id":"cebpf4jnsgd1na2vs0mg"},{"bike_id":"eaa677eb-d031-4170-9bfa-9305bf3b65ac","system_id":"levelo_inurba_marseille","lat":43.23152,"lon":5.43719,"is_reserved":false,"is_disabled":false,"rental_uris":{"android":"levelo://app?vid=eaa677eb-d031-4170-9bfa-9305bf3b65ac","ios":"levelo://app?vid=eaa677eb-d031-4170-9bfa-9305bf3b65ac"},"vehicle_type_id":"4","last_reported":1729152738,"current_range_meters":20000,"station_id":"ce4bhmp2rcd13ifvqgog","pricing_plan_id":"cebpf4jnsgd1na2vs0mg"},{"bike_id":"a75130ca-cb6a-4cf7-ad50-92bf50006bc2","system_id":"levelo_inurba_marseille","lat":43.27486,"lon":5.42457,"is_reserved":false,"is_disabled":false,"rental_uris":{"android":"levelo://app?vid=a75130ca-cb6a-4cf7-ad50-92bf50006bc2","ios":"levelo://app?vid=a75130ca-cb6a-4cf7-ad50-92bf50006bc2"},"vehicle_type_id":"4","last_reported":1729152738,"current_range_meters":17600,"station_id":"ce4bhn92rcd13ifvqgrg","pricing_plan_id":"cebpf4jnsgd1na2vs0mg"},{"bike_id":"2fa100d4-7645-41b8-8fc4-64d2fc317362","system_id":"levelo_inurba_marseille","lat":43.24665,"lon":5.38158,"is_reserved":false,"is_disabled":false,"rental_uris":{"android":"levelo://app?vid=2fa100d4-7645-41b8-8fc4-64d2fc317362","ios":"levelo://app?vid=2fa100d4-7645-41b8-8fc4-64d2fc317362"},"vehicle_type_id":"4","last_reported":1729152738,"current_range_meters":18000,"station_id":"ce4bhih2rcd13ifvqfr0","pricing_plan_id":"cebpf4jnsgd1na2vs0mg"},{"bike_id":"73ef4567-982a-4187-a030-dba6d8fafa37","system_id":"levelo_inurba_marseille","lat":43.23151,"lon":5.43721,"is_reserved":false,"is_disabled":false,"rental_uris":{"android":"levelo://app?vid=73ef4567-982a-4187-a030-dba6d8fafa37","ios":"levelo://app?vid=73ef4567-982a-4187-a030-dba6d8fafa37"},"vehicle_type_id":"4","last_reported":1729152738,"current_range_meters":16000,"station_id":"ce4bhmp2rcd13ifvqgog","pricing_plan_id":"cebpf4jnsgd1na2vs0mg"},{"bike_id":"e371bd4b-4485-4c8b-8e23-26c25e523a51","system_id":"levelo_inurba_marseille","lat":43.25935,"lon":5.40921,"is_reserved":false,"is_disabled":false,"rental_uris":{"android":"levelo://app?vid=e371bd4b-4485-4c8b-8e23-26c25e523a51","ios":"levelo://app?vid=e371bd4b-4485-4c8b-8e23-26c25e523a51"},"vehicle_type_id":"4","last_reported":1729152738,"current_range_meters":19600,"station_id":"ce4bhm92rcd13ifvqglg","pricing_plan_id":"cebpf4jnsgd1na2vs0mg"},{"bike_id":"7925cb4c-3131-4bfe-a3a4-e99dcb28db07","system_id":"levelo_inurba_marseille","lat":43.26027,"lon":5.37551,"is_reserved":false,"is_disabled":false,"rental_uris":{"android":"levelo://app?vid=7925cb4c-3131-4bfe-a3a4-e99dcb28db07","ios":"levelo://app?vid=7925cb4c-3131-4bfe-a3a4-e99dcb28db07"},"vehicle_type_id":"4","last_reported":1729152738,"current_range_meters":19600,"station_id":"ce4bhgh2rcd13ifvqfa0","pricing_plan_id":"cebpf4jnsgd1na2vs0mg"},{"bike_id":"6c0cb852-8a6d-4147-92b5-d0bcf163ea0b","system_id":"levelo_inurba_marseille","lat":43.26198,"lon":5.37931,"is_reserved":false,"is_disabled":false,"rental_uris":{"android":"levelo://app?vid=6c0cb852-8a6d-4147-92b5-d0bcf163ea0b","ios":"levelo://app?vid=6c0cb852-8a6d-4147-92b5-d0bcf163ea0b"},"vehicle_type_id":"4","last_reported":1729152738,"current_range_meters":37600,"station_id":"ce4bhjp2rcd13ifvqg90","pricing_plan_id":"cebpf4jnsgd1na2vs0mg"},{"bike_id":"5f15a4dd-f686-4ec1-8cb3-6403c4fcadd9","system_id":"levelo_inurba_marseille","lat":43.30471,"lon":5.37905,"is_reserved":false,"is_disabled":false,"rental_uris":{"android":"levelo://app?vid=5f15a4dd-f686-4ec1-8cb3-6403c4fcadd9","ios":"levelo://app?vid=5f15a4dd-f686-4ec1-8cb3-6403c4fcadd9"},"vehicle_type_id":"4","last_reported":1729152738,"current_range_meters":20400,"station_id":"ce4bgup2rcd13ifvqcn0","pricing_plan_id":"cebpf4jnsgd1na2vs0mg"},{"bike_id":"529f1cb0-669d-4d61-8ec3-399902784bc3","system_id":"levelo_inurba_marseille","lat":43.29785,"lon":5.38134,"is_reserved":false,"is_disabled":false,"rental_uris":{"android":"levelo://app?vid=529f1cb0-669d-4d61-8ec3-399902784bc3","ios":"levelo://app?vid=529f1cb0-669d-4d61-8ec3-399902784bc3"},"vehicle_type_id":"4","last_reported":1729152738,"current_range_meters":37600,"station_id":"ce4bgip2rcd13ifvqbb0","pricing_plan_id":"cebpf4jnsgd1na2vs0mg"},{"bike_id":"63bedbba-df40-486c-8ecb-d53934c4c022","system_id":"levelo_inurba_marseille","lat":43.26059,"lon":5.39398,"is_reserved":false,"is_disabled":false,"rental_uris":{"android":"levelo://app?vid=63bedbba-df40-486c-8ecb-d53934c4c022","ios":"levelo://app?vid=63bedbba-df40-486c-8ecb-d53934c4c022"},"vehicle_type_id":"4","last_reported":1729152738,"current_range_meters":10000,"station_id":"ce4bhh92rcd13ifvqfj0","pricing_plan_id":"cebpf4jnsgd1na2vs0mg"},{"bike_id":"55c5585e-e16e-435a-8f48-ce57c692cd0e","system_id":"levelo_inurba_marseille","lat":43.3056,"lon":5.3655,"is_reserved":false,"is_disabled":false,"rental_uris":{"android":"levelo://app?vid=55c5585e-e16e-435a-8f48-ce57c692cd0e","ios":"levelo://app?vid=55c5585e-e16e-435a-8f48-ce57c692cd0e"},"vehicle_type_id":"4","last_reported":1729152738,"current_range_meters":10000,"station_id":"ce4bgs12rcd13ifvqcag","pricing_plan_id":"cebpf4jnsgd1na2vs0mg"},{"bike_id":"b3b8591c-5379-4a69-90ab-ae3253c0799a","system_id":"levelo_inurba_marseille","lat":43.23156,"lon":5.43708,"is_reserved":false,"is_disabled":false,"rental_uris":{"android":"levelo://app?vid=b3b8591c-5379-4a69-90ab-ae3253c0799a","ios":"levelo://app?vid=b3b8591c-5379-4a69-90ab-ae3253c0799a"},"vehicle_type_id":"4","last_reported":1729152738,"current_range_meters":8400,"station_id":"ce4bhmp2rcd13ifvqgog","pricing_plan_id":"cebpf4jnsgd1na2vs0mg"},{"bike_id":"f190ca05-6503-4341-9f52-5e58df7d231e","system_id":"levelo_inurba_marseille","lat":43.30543,"lon":5.367,"is_reserved":false,"is_disabled":false,"rental_uris":{"android":"levelo://app?vid=f190ca05-6503-4341-9f52-5e58df7d231e","ios":"levelo://app?vid=f190ca05-6503-4341-9f52-5e58df7d231e"},"vehicle_type_id":"4","last_reported":1729152738,"current_range_meters":30000,"station_id":"ce4bgrp2rcd13ifvqc9g","pricing_plan_id":"cebpf4jnsgd1na2vs0mg"},{"bike_id":"030efa25-c8c4-4f8f-8ca0-9cbcaee53feb","system_id":"levelo_inurba_marseille","lat":43.25001,"lon":5.38924,"is_reserved":false,"is_disabled":false,"rental_uris":{"android":"levelo://app?vid=030efa25-c8c4-4f8f-8ca0-9cbcaee53feb","ios":"levelo://app?vid=030efa25-c8c4-4f8f-8ca0-9cbcaee53feb"},"vehicle_type_id":"4","last_reported":1729152738,"current_range_meters":5600,"station_id":"ce4bhgp2rcd13ifvqfd0","pricing_plan_id":"cebpf4jnsgd1na2vs0mg"},{"bike_id":"136691a5-9545-43b4-9a3c-1627adb33171","system_id":"levelo_inurba_marseille","lat":43.27491,"lon":5.42454,"is_reserved":false,"is_disabled":false,"rental_uris":{"android":"levelo://app?vid=136691a5-9545-43b4-9a3c-1627adb33171","ios":"levelo://app?vid=136691a5-9545-43b4-9a3c-1627adb33171"},"vehicle_type_id":"4","last_reported":1729152738,"current_range_meters":33600,"station_id":"ce4bhn92rcd13ifvqgrg","pricing_plan_id":"cebpf4jnsgd1na2vs0mg"},{"bike_id":"90263e99-d5aa-44b8-a4c8-0353aa3b308c","system_id":"levelo_inurba_marseille","lat":43.23067,"lon":5.35491,"is_reserved":false,"is_disabled":false,"rental_uris":{"android":"levelo://app?vid=90263e99-d5aa-44b8-a4c8-0353aa3b308c","ios":"levelo://app?vid=90263e99-d5aa-44b8-a4c8-0353aa3b308c"},"vehicle_type_id":"4","last_reported":1729152738,"current_range_meters":9600,"station_id":"cpo3342slgdg3j2ifvpg","pricing_plan_id":"cebpf4jnsgd1na2vs0mg"},{"bike_id":"2871640c-a4f3-4f61-a342-156b39b491e5","system_id":"levelo_inurba_marseille","lat":43.23149,"lon":5.43714,"is_reserved":false,"is_disabled":false,"rental_uris":{"android":"levelo://app?vid=2871640c-a4f3-4f61-a342-156b39b491e5","ios":"levelo://app?vid=2871640c-a4f3-4f61-a342-156b39b491e5"},"vehicle_type_id":"4","last_reported":1729152738,"current_range_meters":14400,"station_id":"ce4bhmp2rcd13ifvqgog","pricing_plan_id":"cebpf4jnsgd1na2vs0mg"},{"bike_id":"595ffabd-273c-4e9e-a9e7-1f7852f1d0de","system_id":"levelo_inurba_marseille","lat":43.26946,"lon":5.38632,"is_reserved":false,"is_disabled":false,"rental_uris":{"android":"levelo://app?vid=595ffabd-273c-4e9e-a9e7-1f7852f1d0de","ios":"levelo://app?vid=595ffabd-273c-4e9e-a9e7-1f7852f1d0de"},"vehicle_type_id":"4","last_reported":1729152738,"current_range_meters":25600,"station_id":"ce4bhh92rcd13ifvqfh0","pricing_plan_id":"cebpf4jnsgd1na2vs0mg"},{"bike_id":"1fbe0edb-c6fe-491f-bb20-5f563ad528b8","system_id":"levelo_inurba_marseille","lat":43.29853,"lon":5.36285,"is_reserved":false,"is_disabled":false,"rental_uris":{"android":"levelo://app?vid=1fbe0edb-c6fe-491f-bb20-5f563ad528b8","ios":"levelo://app?vid=1fbe0edb-c6fe-491f-bb20-5f563ad528b8"},"vehicle_type_id":"4","last_reported":1729152738,"current_range_meters":23200,"station_id":"ce4bgpp2rcd13ifvqc3g","pricing_plan_id":"cebpf4jnsgd1na2vs0mg"},{"bike_id":"f5a04492-2577-4fe1-b6be-5f7687c9119f","system_id":"levelo_inurba_marseille","lat":43.27493,"lon":5.42455,"is_reserved":false,"is_disabled":false,"rental_uris":{"android":"levelo://app?vid=f5a04492-2577-4fe1-b6be-5f7687c9119f","ios":"levelo://app?vid=f5a04492-2577-4fe1-b6be-5f7687c9119f"},"vehicle_type_id":"4","last_reported":1729152738,"current_range_meters":24400,"station_id":"ce4bhn92rcd13ifvqgrg","pricing_plan_id":"cebpf4jnsgd1na2vs0mg"},{"bike_id":"1c7e008e-ad54-4317-a21d-f941311a9e7a","system_id":"levelo_inurba_marseille","lat":43.290111,"lon":5.356005,"is_reserved":false,"is_disabled":false,"rental_uris":{"android":"levelo://app?vid=1c7e008e-ad54-4317-a21d-f941311a9e7a","ios":"levelo://app?vid=1c7e008e-ad54-4317-a21d-f941311a9e7a"},"vehicle_type_id":"4","last_reported":1729152738,"current_range_meters":16800,"station_id":"ce4bhb92rcd13ifvqen0","pricing_plan_id":"cebpf4jnsgd1na2vs0mg"},{"bike_id":"1cd343c8-245e-4510-bed9-dcc94a7ab19d","system_id":"levelo_inurba_marseille","lat":43.259156,"lon":5.408952,"is_reserved":false,"is_disabled":false,"rental_uris":{"android":"levelo://app?vid=1cd343c8-245e-4510-bed9-dcc94a7ab19d","ios":"levelo://app?vid=1cd343c8-245e-4510-bed9-dcc94a7ab19d"},"vehicle_type_id":"4","last_reported":1729152738,"current_range_meters":8800,"station_id":"ce4bhm92rcd13ifvqglg","pricing_plan_id":"cebpf4jnsgd1na2vs0mg"},{"bike_id":"259adaf4-2099-4724-93a6-9b4c595d6c04","system_id":"levelo_inurba_marseille","lat":43.24666,"lon":5.38158,"is_reserved":false,"is_disabled":false,"rental_uris":{"android":"levelo://app?vid=259adaf4-2099-4724-93a6-9b4c595d6c04","ios":"levelo://app?vid=259adaf4-2099-4724-93a6-9b4c595d6c04"},"vehicle_type_id":"4","last_reported":1729152738,"current_range_meters":30800,"station_id":"ce4bhih2rcd13ifvqfr0","pricing_plan_id":"cebpf4jnsgd1na2vs0mg"},{"bike_id":"f0a85da4-95f0-4613-ac48-f51fb4590b24","system_id":"levelo_inurba_marseille","lat":43.23149,"lon":5.43721,"is_reserved":false,"is_disabled":false,"rental_uris":{"android":"levelo://app?vid=f0a85da4-95f0-4613-ac48-f51fb4590b24","ios":"levelo://app?vid=f0a85da4-95f0-4613-ac48-f51fb4590b24"},"vehicle_type_id":"4","last_reported":1729152738,"current_range_meters":28000,"station_id":"ce4bhmp2rcd13ifvqgog","pricing_plan_id":"cebpf4jnsgd1na2vs0mg"},{"bike_id":"74c32cf3-99f1-4902-95c0-ae0ad9ed9462","system_id":"levelo_inurba_marseille","lat":43.31354,"lon":5.36717,"is_reserved":false,"is_disabled":false,"rental_uris":{"android":"levelo://app?vid=74c32cf3-99f1-4902-95c0-ae0ad9ed9462","ios":"levelo://app?vid=74c32cf3-99f1-4902-95c0-ae0ad9ed9462"},"vehicle_type_id":"4","last_reported":1729152738,"current_range_meters":40000,"station_id":"ce4bgr92rcd13ifvqc6g","pricing_plan_id":"cebpf4jnsgd1na2vs0mg"},{"bike_id":"df8adece-9866-4131-88ad-9e4f198de9a1","system_id":"levelo_inurba_marseille","lat":43.23148,"lon":5.4372,"is_reserved":false,"is_disabled":false,"rental_uris":{"android":"levelo://app?vid=df8adece-9866-4131-88ad-9e4f198de9a1","ios":"levelo://app?vid=df8adece-9866-4131-88ad-9e4f198de9a1"},"vehicle_type_id":"4","last_reported":1729152738,"current_range_meters":8800,"station_id":"ce4bhmp2rcd13ifvqgog","pricing_plan_id":"cebpf4jnsgd1na2vs0mg"},{"bike_id":"b7e6907d-9542-4b5a-bb00-0187e2a0917a","system_id":"levelo_inurba_marseille","lat":43.30461,"lon":5.37915,"is_reserved":false,"is_disabled":false,"rental_uris":{"android":"levelo://app?vid=b7e6907d-9542-4b5a-bb00-0187e2a0917a","ios":"levelo://app?vid=b7e6907d-9542-4b5a-bb00-0187e2a0917a"},"vehicle_type_id":"4","last_reported":1729152738,"current_range_meters":28400,"station_id":"","pricing_plan_id":"cebpf4jnsgd1na2vs0mg"},{"bike_id":"3b1b5b6d-3af0-4cfd-b777-5712634b429e","system_id":"levelo_inurba_marseille","lat":43.26949,"lon":5.38637,"is_reserved":false,"is_disabled":false,"rental_uris":{"android":"levelo://app?vid=3b1b5b6d-3af0-4cfd-b777-5712634b429e","ios":"levelo://app?vid=3b1b5b6d-3af0-4cfd-b777-5712634b429e"},"vehicle_type_id":"4","last_reported":1729152738,"current_range_meters":16800,"station_id":"ce4bhh92rcd13ifvqfh0","pricing_plan_id":"cebpf4jnsgd1na2vs0mg"},{"bike_id":"9b3adecf-4c49-4ef4-b2d9-c951223c1bbe","system_id":"levelo_inurba_marseille","lat":43.27075,"lon":5.42283,"is_reserved":false,"is_disabled":false,"rental_uris":{"android":"levelo://app?vid=9b3adecf-4c49-4ef4-b2d9-c951223c1bbe","ios":"levelo://app?vid=9b3adecf-4c49-4ef4-b2d9-c951223c1bbe"},"vehicle_type_id":"4","last_reported":1729152738,"current_range_meters":19200,"station_id":"ce4bhk92rcd13ifvqgb0","pricing_plan_id":"cebpf4jnsgd1na2vs0mg"},{"bike_id":"cc29fe9b-c75c-4149-8234-d09f40316e47","system_id":"levelo_inurba_marseille","lat":43.24075,"lon":5.37759,"is_reserved":false,"is_disabled":false,"rental_uris":{"android":"levelo://app?vid=cc29fe9b-c75c-4149-8234-d09f40316e47","ios":"levelo://app?vid=cc29fe9b-c75c-4149-8234-d09f40316e47"},"vehicle_type_id":"4","last_reported":1729152738,"current_range_meters":27600,"station_id":"ce4bhnp2rcd13ifvqgvg","pricing_plan_id":"cebpf4jnsgd1na2vs0mg"},{"bike_id":"fa7bbdc9-afbe-404d-8676-647037cc76a9","system_id":"levelo_inurba_marseille","lat":43.23195,"lon":5.35546,"is_reserved":false,"is_disabled":false,"rental_uris":{"android":"levelo://app?vid=fa7bbdc9-afbe-404d-8676-647037cc76a9","ios":"levelo://app?vid=fa7bbdc9-afbe-404d-8676-647037cc76a9"},"vehicle_type_id":"4","last_reported":1729152738,"current_range_meters":35200,"station_id":"ce4bhu92rcd13ifvqi70","pricing_plan_id":"cebpf4jnsgd1na2vs0mg"},{"bike_id":"ee35ad9e-a46a-4390-9dbe-4da8b2518be3","system_id":"levelo_inurba_marseille","lat":43.34146,"lon":5.40905,"is_reserved":false,"is_disabled":false,"rental_uris":{"android":"levelo://app?vid=ee35ad9e-a46a-4390-9dbe-4da8b2518be3","ios":"levelo://app?vid=ee35ad9e-a46a-4390-9dbe-4da8b2518be3"},"vehicle_type_id":"4","last_reported":1729152738,"current_range_meters":17200,"station_id":"ce4bhqh2rcd13ifvqhlg","pricing_plan_id":"cebpf4jnsgd1na2vs0mg"},{"bike_id":"931ad2f4-35ea-42b5-bc1a-1fdec477398a","system_id":"levelo_inurba_marseille","lat":43.337444,"lon":5.374475,"is_reserved":false,"is_disabled":false,"rental_uris":{"android":"levelo://app?vid=931ad2f4-35ea-42b5-bc1a-1fdec477398a","ios":"levelo://app?vid=931ad2f4-35ea-42b5-bc1a-1fdec477398a"},"vehicle_type_id":"4","last_reported":1729152738,"current_range_meters":34800,"station_id":"","pricing_plan_id":"cebpf4jnsgd1na2vs0mg"},{"bike_id":"fc1cd7fd-1915-4417-a8b6-97cc78187f4c","system_id":"levelo_inurba_marseille","lat":43.27482,"lon":5.42471,"is_reserved":false,"is_disabled":false,"rental_uris":{"android":"levelo://app?vid=fc1cd7fd-1915-4417-a8b6-97cc78187f4c","ios":"levelo://app?vid=fc1cd7fd-1915-4417-a8b6-97cc78187f4c"},"vehicle_type_id":"4","last_reported":1729152738,"current_range_meters":32400,"station_id":"ce4bhn92rcd13ifvqgrg","pricing_plan_id":"cebpf4jnsgd1na2vs0mg"},{"bike_id":"89e45b8b-dc82-4018-a313-5f868c8711f0","system_id":"levelo_inurba_marseille","lat":43.33613,"lon":5.41026,"is_reserved":false,"is_disabled":false,"rental_uris":{"android":"levelo://app?vid=89e45b8b-dc82-4018-a313-5f868c8711f0","ios":"levelo://app?vid=89e45b8b-dc82-4018-a313-5f868c8711f0"},"vehicle_type_id":"4","last_reported":1729152738,"current_range_meters":40000,"station_id":"ce4bhqh2rcd13ifvqhmg","pricing_plan_id":"cebpf4jnsgd1na2vs0mg"},{"bike_id":"e1fe222c-06a5-4c62-b95a-c69ecba28d53","system_id":"levelo_inurba_marseille","lat":43.31364,"lon":5.36712,"is_reserved":false,"is_disabled":false,"rental_uris":{"android":"levelo://app?vid=e1fe222c-06a5-4c62-b95a-c69ecba28d53","ios":"levelo://app?vid=e1fe222c-06a5-4c62-b95a-c69ecba28d53"},"vehicle_type_id":"4","last_reported":1729152738,"current_range_meters":14000,"station_id":"ce4bgr92rcd13ifvqc6g","pricing_plan_id":"cebpf4jnsgd1na2vs0mg"},{"bike_id":"c7671745-53fc-4e7c-8000-63dbb88ab13f","system_id":"levelo_inurba_marseille","lat":43.27617,"lon":5.36115,"is_reserved":false,"is_disabled":false,"rental_uris":{"android":"levelo://app?vid=c7671745-53fc-4e7c-8000-63dbb88ab13f","ios":"levelo://app?vid=c7671745-53fc-4e7c-8000-63dbb88ab13f"},"vehicle_type_id":"4","last_reported":1729152738,"current_range_meters":31200,"station_id":"ce4bgj92rcd13ifvqbe0","pricing_plan_id":"cebpf4jnsgd1na2vs0mg"},{"bike_id":"306be4e4-518e-462a-a570-d17dd0a2c384","system_id":"levelo_inurba_marseille","lat":43.31348,"lon":5.36708,"is_reserved":false,"is_disabled":false,"rental_uris":{"android":"levelo://app?vid=306be4e4-518e-462a-a570-d17dd0a2c384","ios":"levelo://app?vid=306be4e4-518e-462a-a570-d17dd0a2c384"},"vehicle_type_id":"4","last_reported":1729152738,"current_range_meters":36400,"station_id":"ce4bgr92rcd13ifvqc6g","pricing_plan_id":"cebpf4jnsgd1na2vs0mg"},{"bike_id":"9f8c40b5-c4d0-4cbf-9a71-1cd16415f999","system_id":"levelo_inurba_marseille","lat":43.30537,"lon":5.36549,"is_reserved":false,"is_disabled":false,"rental_uris":{"android":"levelo://app?vid=9f8c40b5-c4d0-4cbf-9a71-1cd16415f999","ios":"levelo://app?vid=9f8c40b5-c4d0-4cbf-9a71-1cd16415f999"},"vehicle_type_id":"4","last_reported":1729152738,"current_range_meters":24800,"station_id":"ce4bgs12rcd13ifvqcag","pricing_plan_id":"cebpf4jnsgd1na2vs0mg"},{"bike_id":"d72d2bac-08a8-426a-a553-555703f25fbd","system_id":"levelo_inurba_marseille","lat":43.25114,"lon":5.40324,"is_reserved":false,"is_disabled":false,"rental_uris":{"android":"levelo://app?vid=d72d2bac-08a8-426a-a553-555703f25fbd","ios":"levelo://app?vid=d72d2bac-08a8-426a-a553-555703f25fbd"},"vehicle_type_id":"4","last_reported":1729152738,"current_range_meters":24400,"station_id":"ce4bhlh2rcd13ifvqgig","pricing_plan_id":"cebpf4jnsgd1na2vs0mg"},{"bike_id":"8c1ec6cb-2291-4814-837b-be8625c706f3","system_id":"levelo_inurba_marseille","lat":43.23196,"lon":5.3554,"is_reserved":false,"is_disabled":false,"rental_uris":{"android":"levelo://app?vid=8c1ec6cb-2291-4814-837b-be8625c706f3","ios":"levelo://app?vid=8c1ec6cb-2291-4814-837b-be8625c706f3"},"vehicle_type_id":"4","last_reported":1729152738,"current_range_meters":37600,"station_id":"ce4bhu92rcd13ifvqi70","pricing_plan_id":"cebpf4jnsgd1na2vs0mg"},{"bike_id":"c6964a67-916a-4c16-b990-f077fe436533","system_id":"levelo_inurba_marseille","lat":43.26963,"lon":5.38625,"is_reserved":false,"is_disabled":false,"rental_uris":{"android":"levelo://app?vid=c6964a67-916a-4c16-b990-f077fe436533","ios":"levelo://app?vid=c6964a67-916a-4c16-b990-f077fe436533"},"vehicle_type_id":"4","last_reported":1729152738,"current_range_meters":32800,"station_id":"ce4bhh92rcd13ifvqfh0","pricing_plan_id":"cebpf4jnsgd1na2vs0mg"},{"bike_id":"5b63688c-baee-442f-86d4-7a0be8d883e8","system_id":"levelo_inurba_marseille","lat":43.26938,"lon":5.38917,"is_reserved":false,"is_disabled":false,"rental_uris":{"android":"levelo://app?vid=5b63688c-baee-442f-86d4-7a0be8d883e8","ios":"levelo://app?vid=5b63688c-baee-442f-86d4-7a0be8d883e8"},"vehicle_type_id":"4","last_reported":1729152738,"current_range_meters":3200,"station_id":"ce4bhhh2rcd13ifvqfl0","pricing_plan_id":"cebpf4jnsgd1na2vs0mg"},{"bike_id":"6aad7b35-09a3-4656-912f-91689d5fb051","system_id":"levelo_inurba_marseille","lat":43.26209,"lon":5.37923,"is_reserved":false,"is_disabled":false,"rental_uris":{"android":"levelo://app?vid=6aad7b35-09a3-4656-912f-91689d5fb051","ios":"levelo://app?vid=6aad7b35-09a3-4656-912f-91689d5fb051"},"vehicle_type_id":"4","last_reported":1729152738,"current_range_meters":23200,"station_id":"ce4bhjp2rcd13ifvqg90","pricing_plan_id":"cebpf4jnsgd1na2vs0mg"},{"bike_id":"c1b4d58c-7d67-4800-b5de-bf664ea422e8","system_id":"levelo_inurba_marseille","lat":43.24647,"lon":5.38891,"is_reserved":false,"is_disabled":false,"rental_uris":{"android":"levelo://app?vid=c1b4d58c-7d67-4800-b5de-bf664ea422e8","ios":"levelo://app?vid=c1b4d58c-7d67-4800-b5de-bf664ea422e8"},"vehicle_type_id":"4","last_reported":1729152738,"current_range_meters":14000,"station_id":"ce4bhg12rcd13ifvqf60","pricing_plan_id":"cebpf4jnsgd1na2vs0mg"},{"bike_id":"4dff3f2d-8f80-481e-a769-c8fed23ab2fa","system_id":"levelo_inurba_marseille","lat":43.26203,"lon":5.37929,"is_reserved":false,"is_disabled":false,"rental_uris":{"android":"levelo://app?vid=4dff3f2d-8f80-481e-a769-c8fed23ab2fa","ios":"levelo://app?vid=4dff3f2d-8f80-481e-a769-c8fed23ab2fa"},"vehicle_type_id":"4","last_reported":1729152738,"current_range_meters":20000,"station_id":"ce4bhjp2rcd13ifvqg90","pricing_plan_id":"cebpf4jnsgd1na2vs0mg"},{"bike_id":"5099587e-b454-4caf-b510-00f9f479d0b1","system_id":"levelo_inurba_marseille","lat":43.2948,"lon":5.381813,"is_reserved":false,"is_disabled":false,"rental_uris":{"android":"levelo://app?vid=5099587e-b454-4caf-b510-00f9f479d0b1","ios":"levelo://app?vid=5099587e-b454-4caf-b510-00f9f479d0b1"},"vehicle_type_id":"4","last_reported":1729152738,"current_range_meters":26000,"station_id":"ce4bhgp2rcd13ifvqfe0","pricing_plan_id":"cebpf4jnsgd1na2vs0mg"},{"bike_id":"d372c23a-dc85-401e-bc89-b7954e57f68b","system_id":"levelo_inurba_marseille","lat":43.30543,"lon":5.3671,"is_reserved":false,"is_disabled":false,"rental_uris":{"android":"levelo://app?vid=d372c23a-dc85-401e-bc89-b7954e57f68b","ios":"levelo://app?vid=d372c23a-dc85-401e-bc89-b7954e57f68b"},"vehicle_type_id":"4","last_reported":1729152738,"current_range_meters":30000,"station_id":"ce4bgrp2rcd13ifvqc9g","pricing_plan_id":"cebpf4jnsgd1na2vs0mg"},{"bike_id":"9e1a9053-a22e-4a9b-98a7-d370811bc374","system_id":"levelo_inurba_marseille","lat":43.27176,"lon":5.40993,"is_reserved":false,"is_disabled":false,"rental_uris":{"android":"levelo://app?vid=9e1a9053-a22e-4a9b-98a7-d370811bc374","ios":"levelo://app?vid=9e1a9053-a22e-4a9b-98a7-d370811bc374"},"vehicle_type_id":"4","last_reported":1729152738,"current_range_meters":10000,"station_id":"ce4bhl12rcd13ifvqgf0","pricing_plan_id":"cebpf4jnsgd1na2vs0mg"},{"bike_id":"3f43ca71-8e24-4dc6-b18e-5cd39f480bea","system_id":"levelo_inurba_marseille","lat":43.29904,"lon":5.38147,"is_reserved":false,"is_disabled":false,"rental_uris":{"android":"levelo://app?vid=3f43ca71-8e24-4dc6-b18e-5cd39f480bea","ios":"levelo://app?vid=3f43ca71-8e24-4dc6-b18e-5cd39f480bea"},"vehicle_type_id":"4","last_reported":1729152738,"current_range_meters":38400,"station_id":"ce4bgj12rcd13ifvqbc0","pricing_plan_id":"cebpf4jnsgd1na2vs0mg"},{"bike_id":"874494de-7452-4f47-9fec-c5ec79478035","system_id":"levelo_inurba_marseille","lat":43.239646,"lon":5.366379,"is_reserved":false,"is_disabled":false,"rental_uris":{"android":"levelo://app?vid=874494de-7452-4f47-9fec-c5ec79478035","ios":"levelo://app?vid=874494de-7452-4f47-9fec-c5ec79478035"},"vehicle_type_id":"4","last_reported":1729152738,"current_range_meters":28800,"station_id":"ce4bhi12rcd13ifvqfp0","pricing_plan_id":"cebpf4jnsgd1na2vs0mg"},{"bike_id":"38f2a4ce-0eca-440a-a6cf-96856f1ec943","system_id":"levelo_inurba_marseille","lat":43.3055,"lon":5.36546,"is_reserved":false,"is_disabled":false,"rental_uris":{"android":"levelo://app?vid=38f2a4ce-0eca-440a-a6cf-96856f1ec943","ios":"levelo://app?vid=38f2a4ce-0eca-440a-a6cf-96856f1ec943"},"vehicle_type_id":"4","last_reported":1729152738,"current_range_meters":34000,"station_id":"ce4bgs12rcd13ifvqcag","pricing_plan_id":"cebpf4jnsgd1na2vs0mg"},{"bike_id":"9cab4e9f-1e69-4842-82e4-ee6684a3dc1f","system_id":"levelo_inurba_marseille","lat":43.25934,"lon":5.40904,"is_reserved":false,"is_disabled":false,"rental_uris":{"android":"levelo://app?vid=9cab4e9f-1e69-4842-82e4-ee6684a3dc1f","ios":"levelo://app?vid=9cab4e9f-1e69-4842-82e4-ee6684a3dc1f"},"vehicle_type_id":"4","last_reported":1729152738,"current_range_meters":29600,"station_id":"ce4bhm92rcd13ifvqglg","pricing_plan_id":"cebpf4jnsgd1na2vs0mg"},{"bike_id":"08ae83cb-f31d-469e-8b8d-1172d9f867d3","system_id":"levelo_inurba_marseille","lat":43.23962,"lon":5.36641,"is_reserved":false,"is_disabled":false,"rental_uris":{"android":"levelo://app?vid=08ae83cb-f31d-469e-8b8d-1172d9f867d3","ios":"levelo://app?vid=08ae83cb-f31d-469e-8b8d-1172d9f867d3"},"vehicle_type_id":"4","last_reported":1729152738,"current_range_meters":18000,"station_id":"ce4bhi12rcd13ifvqfp0","pricing_plan_id":"cebpf4jnsgd1na2vs0mg"},{"bike_id":"ffb30cf1-3d79-4825-943d-e778c4be0262","system_id":"levelo_inurba_marseille","lat":43.26954,"lon":5.38628,"is_reserved":false,"is_disabled":false,"rental_uris":{"android":"levelo://app?vid=ffb30cf1-3d79-4825-943d-e778c4be0262","ios":"levelo://app?vid=ffb30cf1-3d79-4825-943d-e778c4be0262"},"vehicle_type_id":"4","last_reported":1729152738,"current_range_meters":3600,"station_id":"ce4bhh92rcd13ifvqfh0","pricing_plan_id":"cebpf4jnsgd1na2vs0mg"},{"bike_id":"97ac16e6-8b35-4d2e-b34b-0f0b6df37fae","system_id":"levelo_inurba_marseille","lat":43.24999,"lon":5.38924,"is_reserved":false,"is_disabled":false,"rental_uris":{"android":"levelo://app?vid=97ac16e6-8b35-4d2e-b34b-0f0b6df37fae","ios":"levelo://app?vid=97ac16e6-8b35-4d2e-b34b-0f0b6df37fae"},"vehicle_type_id":"4","last_reported":1729152738,"current_range_meters":24000,"station_id":"ce4bhgp2rcd13ifvqfd0","pricing_plan_id":"cebpf4jnsgd1na2vs0mg"},{"bike_id":"0994d7f0-fa2e-480f-b967-2b1e1b476b78","system_id":"levelo_inurba_marseille","lat":43.23188,"lon":5.35558,"is_reserved":false,"is_disabled":false,"rental_uris":{"android":"levelo://app?vid=0994d7f0-fa2e-480f-b967-2b1e1b476b78","ios":"levelo://app?vid=0994d7f0-fa2e-480f-b967-2b1e1b476b78"},"vehicle_type_id":"4","last_reported":1729152738,"current_range_meters":16400,"station_id":"ce4bhu92rcd13ifvqi70","pricing_plan_id":"cebpf4jnsgd1na2vs0mg"},{"bike_id":"94205477-3904-442b-b987-9754f9f73cf5","system_id":"levelo_inurba_marseille","lat":43.23963,"lon":5.3663,"is_reserved":false,"is_disabled":false,"rental_uris":{"android":"levelo://app?vid=94205477-3904-442b-b987-9754f9f73cf5","ios":"levelo://app?vid=94205477-3904-442b-b987-9754f9f73cf5"},"vehicle_type_id":"4","last_reported":1729152738,"current_range_meters":28400,"station_id":"ce4bhi12rcd13ifvqfp0","pricing_plan_id":"cebpf4jnsgd1na2vs0mg"},{"bike_id":"df8834dc-6561-4928-8d70-a3972a766a87","system_id":"levelo_inurba_marseille","lat":43.34142,"lon":5.40899,"is_reserved":false,"is_disabled":false,"rental_uris":{"android":"levelo://app?vid=df8834dc-6561-4928-8d70-a3972a766a87","ios":"levelo://app?vid=df8834dc-6561-4928-8d70-a3972a766a87"},"vehicle_type_id":"4","last_reported":1729152738,"current_range_meters":33600,"station_id":"ce4bhqh2rcd13ifvqhlg","pricing_plan_id":"cebpf4jnsgd1na2vs0mg"},{"bike_id":"66ccc46d-618e-4760-b09c-27382152bdab","system_id":"levelo_inurba_marseille","lat":43.23195,"lon":5.35537,"is_reserved":false,"is_disabled":false,"rental_uris":{"android":"levelo://app?vid=66ccc46d-618e-4760-b09c-27382152bdab","ios":"levelo://app?vid=66ccc46d-618e-4760-b09c-27382152bdab"},"vehicle_type_id":"4","last_reported":1729152738,"current_range_meters":34000,"station_id":"ce4bhu92rcd13ifvqi70","pricing_plan_id":"cebpf4jnsgd1na2vs0mg"},{"bike_id":"f37b6b36-22f7-4bbb-9415-766320a22b6c","system_id":"levelo_inurba_marseille","lat":43.28395,"lon":5.385865,"is_reserved":false,"is_disabled":false,"rental_uris":{"android":"levelo://app?vid=f37b6b36-22f7-4bbb-9415-766320a22b6c","ios":"levelo://app?vid=f37b6b36-22f7-4bbb-9415-766320a22b6c"},"vehicle_type_id":"4","last_reported":1729152738,"current_range_meters":19200,"station_id":"ce4bhs12rcd13ifvqhvg","pricing_plan_id":"cebpf4jnsgd1na2vs0mg"},{"bike_id":"5c9a185f-32c4-4da8-ac4a-897b69dea5d8","system_id":"levelo_inurba_marseille","lat":43.30172,"lon":5.36615,"is_reserved":false,"is_disabled":false,"rental_uris":{"android":"levelo://app?vid=5c9a185f-32c4-4da8-ac4a-897b69dea5d8","ios":"levelo://app?vid=5c9a185f-32c4-4da8-ac4a-897b69dea5d8"},"vehicle_type_id":"4","last_reported":1729152738,"current_range_meters":24800,"station_id":"ce4bgrh2rcd13ifvqc8g","pricing_plan_id":"cebpf4jnsgd1na2vs0mg"},{"bike_id":"168a271a-8673-45f2-bafe-0e70e2c77c4d","system_id":"levelo_inurba_marseille","lat":43.26684,"lon":5.38274,"is_reserved":false,"is_disabled":false,"rental_uris":{"android":"levelo://app?vid=168a271a-8673-45f2-bafe-0e70e2c77c4d","ios":"levelo://app?vid=168a271a-8673-45f2-bafe-0e70e2c77c4d"},"vehicle_type_id":"4","last_reported":1729152738,"current_range_meters":17200,"station_id":"ce4bhg92rcd13ifvqf90","pricing_plan_id":"cebpf4jnsgd1na2vs0mg"},{"bike_id":"bdb35537-e146-4505-aa2c-9bd36f349ae8","system_id":"levelo_inurba_marseille","lat":43.3135,"lon":5.36693,"is_reserved":false,"is_disabled":false,"rental_uris":{"android":"levelo://app?vid=bdb35537-e146-4505-aa2c-9bd36f349ae8","ios":"levelo://app?vid=bdb35537-e146-4505-aa2c-9bd36f349ae8"},"vehicle_type_id":"4","last_reported":1729152738,"current_range_meters":6800,"station_id":"ce4bgr92rcd13ifvqc6g","pricing_plan_id":"cebpf4jnsgd1na2vs0mg"},{"bike_id":"42c8dee7-e7b7-4b6b-91d9-857a41bb6bb3","system_id":"levelo_inurba_marseille","lat":43.24389,"lon":5.37059,"is_reserved":false,"is_disabled":false,"rental_uris":{"android":"levelo://app?vid=42c8dee7-e7b7-4b6b-91d9-857a41bb6bb3","ios":"levelo://app?vid=42c8dee7-e7b7-4b6b-91d9-857a41bb6bb3"},"vehicle_type_id":"4","last_reported":1729152738,"current_range_meters":24800,"station_id":"ce4bhhh2rcd13ifvqfk0","pricing_plan_id":"cebpf4jnsgd1na2vs0mg"},{"bike_id":"30404aca-08a3-4264-987a-aa6acb1f5cf1","system_id":"levelo_inurba_marseille","lat":43.25939,"lon":5.40902,"is_reserved":false,"is_disabled":false,"rental_uris":{"android":"levelo://app?vid=30404aca-08a3-4264-987a-aa6acb1f5cf1","ios":"levelo://app?vid=30404aca-08a3-4264-987a-aa6acb1f5cf1"},"vehicle_type_id":"4","last_reported":1729152738,"current_range_meters":20800,"station_id":"ce4bhm92rcd13ifvqglg","pricing_plan_id":"cebpf4jnsgd1na2vs0mg"},{"bike_id":"6300df2c-b9fe-4275-916d-dd75e59140c9","system_id":"levelo_inurba_marseille","lat":43.2319,"lon":5.35544,"is_reserved":false,"is_disabled":false,"rental_uris":{"android":"levelo://app?vid=6300df2c-b9fe-4275-916d-dd75e59140c9","ios":"levelo://app?vid=6300df2c-b9fe-4275-916d-dd75e59140c9"},"vehicle_type_id":"4","last_reported":1729152738,"current_range_meters":34800,"station_id":"ce4bhu92rcd13ifvqi70","pricing_plan_id":"cebpf4jnsgd1na2vs0mg"},{"bike_id":"8e1baea2-0043-41da-84e4-03869e41ad9c","system_id":"levelo_inurba_marseille","lat":43.25004,"lon":5.38925,"is_reserved":false,"is_disabled":false,"rental_uris":{"android":"levelo://app?vid=8e1baea2-0043-41da-84e4-03869e41ad9c","ios":"levelo://app?vid=8e1baea2-0043-41da-84e4-03869e41ad9c"},"vehicle_type_id":"4","last_reported":1729152738,"current_range_meters":38000,"station_id":"ce4bhgp2rcd13ifvqfd0","pricing_plan_id":"cebpf4jnsgd1na2vs0mg"},{"bike_id":"cb654da1-eb22-4fb9-ad1d-dbe5f51770dc","system_id":"levelo_inurba_marseille","lat":43.29908,"lon":5.38133,"is_reserved":false,"is_disabled":false,"rental_uris":{"android":"levelo://app?vid=cb654da1-eb22-4fb9-ad1d-dbe5f51770dc","ios":"levelo://app?vid=cb654da1-eb22-4fb9-ad1d-dbe5f51770dc"},"vehicle_type_id":"4","last_reported":1729152738,"current_range_meters":38800,"station_id":"ce4bgj12rcd13ifvqbc0","pricing_plan_id":"cebpf4jnsgd1na2vs0mg"},{"bike_id":"82b34ebe-841b-4fb1-b62e-56bca04c722f","system_id":"levelo_inurba_marseille","lat":43.25942,"lon":5.40897,"is_reserved":false,"is_disabled":false,"rental_uris":{"android":"levelo://app?vid=82b34ebe-841b-4fb1-b62e-56bca04c722f","ios":"levelo://app?vid=82b34ebe-841b-4fb1-b62e-56bca04c722f"},"vehicle_type_id":"4","last_reported":1729152738,"current_range_meters":25200,"station_id":"ce4bhm92rcd13ifvqglg","pricing_plan_id":"cebpf4jnsgd1na2vs0mg"},{"bike_id":"0d7bd601-09b1-4590-bdcc-9de15918a736","system_id":"levelo_inurba_marseille","lat":43.30908,"lon":5.36853,"is_reserved":false,"is_disabled":false,"rental_uris":{"android":"levelo://app?vid=0d7bd601-09b1-4590-bdcc-9de15918a736","ios":"levelo://app?vid=0d7bd601-09b1-4590-bdcc-9de15918a736"},"vehicle_type_id":"4","last_reported":1729152738,"current_range_meters":25600,"station_id":"ce4bgn92rcd13ifvqbvg","pricing_plan_id":"cebpf4jnsgd1na2vs0mg"},{"bike_id":"e45f2400-0028-4537-a944-51c3ca880896","system_id":"levelo_inurba_marseille","lat":43.27496,"lon":5.4245,"is_reserved":false,"is_disabled":false,"rental_uris":{"android":"levelo://app?vid=e45f2400-0028-4537-a944-51c3ca880896","ios":"levelo://app?vid=e45f2400-0028-4537-a944-51c3ca880896"},"vehicle_type_id":"4","last_reported":1729152738,"current_range_meters":38000,"station_id":"ce4bhn92rcd13ifvqgrg","pricing_plan_id":"cebpf4jnsgd1na2vs0mg"},{"bike_id":"a2b2864f-6afb-46e5-a502-9789958951c7","system_id":"levelo_inurba_marseille","lat":43.2593,"lon":5.40913,"is_reserved":false,"is_disabled":false,"rental_uris":{"android":"levelo://app?vid=a2b2864f-6afb-46e5-a502-9789958951c7","ios":"levelo://app?vid=a2b2864f-6afb-46e5-a502-9789958951c7"},"vehicle_type_id":"4","last_reported":1729152738,"current_range_meters":38400,"station_id":"ce4bhm92rcd13ifvqglg","pricing_plan_id":"cebpf4jnsgd1na2vs0mg"},{"bike_id":"4562e9bb-7c1e-4e0e-95e1-858d0f8d86d1","system_id":"levelo_inurba_marseille","lat":43.23196,"lon":5.35553,"is_reserved":false,"is_disabled":false,"rental_uris":{"android":"levelo://app?vid=4562e9bb-7c1e-4e0e-95e1-858d0f8d86d1","ios":"levelo://app?vid=4562e9bb-7c1e-4e0e-95e1-858d0f8d86d1"},"vehicle_type_id":"4","last_reported":1729152738,"current_range_meters":8400,"station_id":"ce4bhu92rcd13ifvqi70","pricing_plan_id":"cebpf4jnsgd1na2vs0mg"},{"bike_id":"9017b7a7-a119-4c68-9fa0-3cd1e39de0c5","system_id":"levelo_inurba_marseille","lat":43.31349,"lon":5.36722,"is_reserved":false,"is_disabled":false,"rental_uris":{"android":"levelo://app?vid=9017b7a7-a119-4c68-9fa0-3cd1e39de0c5","ios":"levelo://app?vid=9017b7a7-a119-4c68-9fa0-3cd1e39de0c5"},"vehicle_type_id":"4","last_reported":1729152738,"current_range_meters":38800,"station_id":"ce4bgr92rcd13ifvqc6g","pricing_plan_id":"cebpf4jnsgd1na2vs0mg"},{"bike_id":"c60ae59c-5f3f-493b-82be-9fdc769a1273","system_id":"levelo_inurba_marseille","lat":43.24087,"lon":5.37753,"is_reserved":false,"is_disabled":false,"rental_uris":{"android":"levelo://app?vid=c60ae59c-5f3f-493b-82be-9fdc769a1273","ios":"levelo://app?vid=c60ae59c-5f3f-493b-82be-9fdc769a1273"},"vehicle_type_id":"4","last_reported":1729152738,"current_range_meters":8000,"station_id":"ce4bhnp2rcd13ifvqgvg","pricing_plan_id":"cebpf4jnsgd1na2vs0mg"},{"bike_id":"2140b6a3-5118-4150-823e-9225aeb56201","system_id":"levelo_inurba_marseille","lat":43.23197,"lon":5.35547,"is_reserved":false,"is_disabled":false,"rental_uris":{"android":"levelo://app?vid=2140b6a3-5118-4150-823e-9225aeb56201","ios":"levelo://app?vid=2140b6a3-5118-4150-823e-9225aeb56201"},"vehicle_type_id":"4","last_reported":1729152738,"current_range_meters":36800,"station_id":"ce4bhu92rcd13ifvqi70","pricing_plan_id":"cebpf4jnsgd1na2vs0mg"},{"bike_id":"00e30ce6-20de-4934-9202-fdb41d8f8103","system_id":"levelo_inurba_marseille","lat":43.27317,"lon":5.39072,"is_reserved":false,"is_disabled":false,"rental_uris":{"android":"levelo://app?vid=00e30ce6-20de-4934-9202-fdb41d8f8103","ios":"levelo://app?vid=00e30ce6-20de-4934-9202-fdb41d8f8103"},"vehicle_type_id":"4","last_reported":1729152738,"current_range_meters":12400,"station_id":"ce4bhgp2rcd13ifvqfe0","pricing_plan_id":"cebpf4jnsgd1na2vs0mg"},{"bike_id":"115559f1-a4b2-4815-8d74-a49a194d5ed3","system_id":"levelo_inurba_marseille","lat":43.29798,"lon":5.38094,"is_reserved":false,"is_disabled":false,"rental_uris":{"android":"levelo://app?vid=115559f1-a4b2-4815-8d74-a49a194d5ed3","ios":"levelo://app?vid=115559f1-a4b2-4815-8d74-a49a194d5ed3"},"vehicle_type_id":"4","last_reported":1729152738,"current_range_meters":8800,"station_id":"ce4bgip2rcd13ifvqbb0","pricing_plan_id":"cebpf4jnsgd1na2vs0mg"},{"bike_id":"0575f104-b7d9-4f46-b667-438433510d2a","system_id":"levelo_inurba_marseille","lat":43.31028,"lon":5.37919,"is_reserved":false,"is_disabled":false,"rental_uris":{"android":"levelo://app?vid=0575f104-b7d9-4f46-b667-438433510d2a","ios":"levelo://app?vid=0575f104-b7d9-4f46-b667-438433510d2a"},"vehicle_type_id":"4","last_reported":1729152738,"current_range_meters":11200,"station_id":"","pricing_plan_id":"cebpf4jnsgd1na2vs0mg"},{"bike_id":"964ae955-378e-4bb5-8e3d-e3a6bcb497b4","system_id":"levelo_inurba_marseille","lat":43.29804,"lon":5.38109,"is_reserved":false,"is_disabled":false,"rental_uris":{"android":"levelo://app?vid=964ae955-378e-4bb5-8e3d-e3a6bcb497b4","ios":"levelo://app?vid=964ae955-378e-4bb5-8e3d-e3a6bcb497b4"},"vehicle_type_id":"4","last_reported":1729152738,"current_range_meters":31200,"station_id":"ce4bgip2rcd13ifvqbb0","pricing_plan_id":"cebpf4jnsgd1na2vs0mg"},{"bike_id":"b325a85e-8ef9-454c-8892-9fa3884b4fa5","system_id":"levelo_inurba_marseille","lat":43.30465,"lon":5.37914,"is_reserved":false,"is_disabled":false,"rental_uris":{"android":"levelo://app?vid=b325a85e-8ef9-454c-8892-9fa3884b4fa5","ios":"levelo://app?vid=b325a85e-8ef9-454c-8892-9fa3884b4fa5"},"vehicle_type_id":"4","last_reported":1729152738,"current_range_meters":10800,"station_id":"","pricing_plan_id":"cebpf4jnsgd1na2vs0mg"},{"bike_id":"7d84c70a-bd84-45f3-8bfd-776007cd64e5","system_id":"levelo_inurba_marseille","lat":43.24071,"lon":5.37759,"is_reserved":false,"is_disabled":false,"rental_uris":{"android":"levelo://app?vid=7d84c70a-bd84-45f3-8bfd-776007cd64e5","ios":"levelo://app?vid=7d84c70a-bd84-45f3-8bfd-776007cd64e5"},"vehicle_type_id":"4","last_reported":1729152738,"current_range_meters":35600,"station_id":"ce4bhnp2rcd13ifvqgvg","pricing_plan_id":"cebpf4jnsgd1na2vs0mg"},{"bike_id":"c7c2759f-6756-4905-a201-8ac04e9864d0","system_id":"levelo_inurba_marseille","lat":43.2668,"lon":5.3827,"is_reserved":false,"is_disabled":false,"rental_uris":{"android":"levelo://app?vid=c7c2759f-6756-4905-a201-8ac04e9864d0","ios":"levelo://app?vid=c7c2759f-6756-4905-a201-8ac04e9864d0"},"vehicle_type_id":"4","last_reported":1729152738,"current_range_meters":40000,"station_id":"ce4bhg92rcd13ifvqf90","pricing_plan_id":"cebpf4jnsgd1na2vs0mg"},{"bike_id":"3d7f24d0-8186-4b5e-a3d8-9a5c4bd24af2","system_id":"levelo_inurba_marseille","lat":43.24174,"lon":5.39726,"is_reserved":false,"is_disabled":false,"rental_uris":{"android":"levelo://app?vid=3d7f24d0-8186-4b5e-a3d8-9a5c4bd24af2","ios":"levelo://app?vid=3d7f24d0-8186-4b5e-a3d8-9a5c4bd24af2"},"vehicle_type_id":"4","last_reported":1729152738,"current_range_meters":38000,"station_id":"ce4bhn12rcd13ifvqgpg","pricing_plan_id":"cebpf4jnsgd1na2vs0mg"},{"bike_id":"d79f5525-0de1-4334-802e-69c7e1b3ac65","system_id":"levelo_inurba_marseille","lat":43.24649,"lon":5.38893,"is_reserved":false,"is_disabled":false,"rental_uris":{"android":"levelo://app?vid=d79f5525-0de1-4334-802e-69c7e1b3ac65","ios":"levelo://app?vid=d79f5525-0de1-4334-802e-69c7e1b3ac65"},"vehicle_type_id":"4","last_reported":1729152738,"current_range_meters":20800,"station_id":"ce4bhg12rcd13ifvqf60","pricing_plan_id":"cebpf4jnsgd1na2vs0mg"},{"bike_id":"fe56b1b6-4176-4fd3-a6e0-f0e26f564241","system_id":"levelo_inurba_marseille","lat":43.30462,"lon":5.37904,"is_reserved":false,"is_disabled":false,"rental_uris":{"android":"levelo://app?vid=fe56b1b6-4176-4fd3-a6e0-f0e26f564241","ios":"levelo://app?vid=fe56b1b6-4176-4fd3-a6e0-f0e26f564241"},"vehicle_type_id":"4","last_reported":1729152738,"current_range_meters":38800,"station_id":"","pricing_plan_id":"cebpf4jnsgd1na2vs0mg"},{"bike_id":"35c9823e-b77e-49aa-a02b-8fc718817843","system_id":"levelo_inurba_marseille","lat":43.31226,"lon":5.36862,"is_reserved":false,"is_disabled":false,"rental_uris":{"android":"levelo://app?vid=35c9823e-b77e-49aa-a02b-8fc718817843","ios":"levelo://app?vid=35c9823e-b77e-49aa-a02b-8fc718817843"},"vehicle_type_id":"4","last_reported":1729152738,"current_range_meters":26000,"station_id":"ce4bgl92rcd13ifvqbq0","pricing_plan_id":"cebpf4jnsgd1na2vs0mg"},{"bike_id":"83bcafb6-7740-4133-8b56-4bf302222f17","system_id":"levelo_inurba_marseille","lat":43.23965,"lon":5.36638,"is_reserved":false,"is_disabled":false,"rental_uris":{"android":"levelo://app?vid=83bcafb6-7740-4133-8b56-4bf302222f17","ios":"levelo://app?vid=83bcafb6-7740-4133-8b56-4bf302222f17"},"vehicle_type_id":"4","last_reported":1729152738,"current_range_meters":6000,"station_id":"ce4bhi12rcd13ifvqfp0","pricing_plan_id":"cebpf4jnsgd1na2vs0mg"},{"bike_id":"7772d39f-5e28-445c-af91-069b0cf63793","system_id":"levelo_inurba_marseille","lat":43.33758,"lon":5.37448,"is_reserved":false,"is_disabled":false,"rental_uris":{"android":"levelo://app?vid=7772d39f-5e28-445c-af91-069b0cf63793","ios":"levelo://app?vid=7772d39f-5e28-445c-af91-069b0cf63793"},"vehicle_type_id":"4","last_reported":1729152738,"current_range_meters":16800,"station_id":"","pricing_plan_id":"cebpf4jnsgd1na2vs0mg"},{"bike_id":"30d72a6b-3af6-4948-9c7c-7ee2e8f9a670","system_id":"levelo_inurba_marseille","lat":43.3136,"lon":5.36718,"is_reserved":false,"is_disabled":false,"rental_uris":{"android":"levelo://app?vid=30d72a6b-3af6-4948-9c7c-7ee2e8f9a670","ios":"levelo://app?vid=30d72a6b-3af6-4948-9c7c-7ee2e8f9a670"},"vehicle_type_id":"4","last_reported":1729152738,"current_range_meters":33200,"station_id":"ce4bgr92rcd13ifvqc6g","pricing_plan_id":"cebpf4jnsgd1na2vs0mg"},{"bike_id":"3213665e-989c-4d22-9f5a-31c8522597dd","system_id":"levelo_inurba_marseille","lat":43.296,"lon":5.36142,"is_reserved":false,"is_disabled":false,"rental_uris":{"android":"levelo://app?vid=3213665e-989c-4d22-9f5a-31c8522597dd","ios":"levelo://app?vid=3213665e-989c-4d22-9f5a-31c8522597dd"},"vehicle_type_id":"4","last_reported":1729152738,"current_range_meters":29600,"station_id":"","pricing_plan_id":"cebpf4jnsgd1na2vs0mg"},{"bike_id":"3f211a83-46fa-4c28-b9fc-781f2ac471b9","system_id":"levelo_inurba_marseille","lat":43.30312,"lon":5.36888,"is_reserved":false,"is_disabled":false,"rental_uris":{"android":"levelo://app?vid=3f211a83-46fa-4c28-b9fc-781f2ac471b9","ios":"levelo://app?vid=3f211a83-46fa-4c28-b9fc-781f2ac471b9"},"vehicle_type_id":"4","last_reported":1729152738,"current_range_meters":36400,"station_id":"ce4bgqh2rcd13ifvqc5g","pricing_plan_id":"cebpf4jnsgd1na2vs0mg"},{"bike_id":"279e289d-9b1b-40b7-ab63-31b6f0b20953","system_id":"levelo_inurba_marseille","lat":43.33602,"lon":5.41034,"is_reserved":false,"is_disabled":false,"rental_uris":{"android":"levelo://app?vid=279e289d-9b1b-40b7-ab63-31b6f0b20953","ios":"levelo://app?vid=279e289d-9b1b-40b7-ab63-31b6f0b20953"},"vehicle_type_id":"4","last_reported":1729152738,"current_range_meters":8000,"station_id":"ce4bhqh2rcd13ifvqhmg","pricing_plan_id":"cebpf4jnsgd1na2vs0mg"},{"bike_id":"ba69c766-7b52-4df2-9a01-12b1972d425e","system_id":"levelo_inurba_marseille","lat":43.33608,"lon":5.41033,"is_reserved":false,"is_disabled":false,"rental_uris":{"android":"levelo://app?vid=ba69c766-7b52-4df2-9a01-12b1972d425e","ios":"levelo://app?vid=ba69c766-7b52-4df2-9a01-12b1972d425e"},"vehicle_type_id":"4","last_reported":1729152738,"current_range_meters":36400,"station_id":"ce4bhqh2rcd13ifvqhmg","pricing_plan_id":"cebpf4jnsgd1na2vs0mg"},{"bike_id":"c9eae638-5acd-4654-a36a-1b906214b0f3","system_id":"levelo_inurba_marseille","lat":43.25933,"lon":5.40915,"is_reserved":false,"is_disabled":false,"rental_uris":{"android":"levelo://app?vid=c9eae638-5acd-4654-a36a-1b906214b0f3","ios":"levelo://app?vid=c9eae638-5acd-4654-a36a-1b906214b0f3"},"vehicle_type_id":"4","last_reported":1729152738,"current_range_meters":32800,"station_id":"ce4bhm92rcd13ifvqglg","pricing_plan_id":"cebpf4jnsgd1na2vs0mg"},{"bike_id":"1641b826-604a-4181-8231-dca386f637a6","system_id":"levelo_inurba_marseille","lat":43.23189,"lon":5.35554,"is_reserved":false,"is_disabled":false,"rental_uris":{"android":"levelo://app?vid=1641b826-604a-4181-8231-dca386f637a6","ios":"levelo://app?vid=1641b826-604a-4181-8231-dca386f637a6"},"vehicle_type_id":"4","last_reported":1729152738,"current_range_meters":35200,"station_id":"ce4bhu92rcd13ifvqi70","pricing_plan_id":"cebpf4jnsgd1na2vs0mg"},{"bike_id":"89211ee2-076f-4df3-92bd-cd8885f2e76d","system_id":"levelo_inurba_marseille","lat":43.23194,"lon":5.35563,"is_reserved":false,"is_disabled":false,"rental_uris":{"android":"levelo://app?vid=89211ee2-076f-4df3-92bd-cd8885f2e76d","ios":"levelo://app?vid=89211ee2-076f-4df3-92bd-cd8885f2e76d"},"vehicle_type_id":"4","last_reported":1729152738,"current_range_meters":34800,"station_id":"ce4bhu92rcd13ifvqi70","pricing_plan_id":"cebpf4jnsgd1na2vs0mg"},{"bike_id":"22ee74a2-7428-4203-800f-11a417fac485","system_id":"levelo_inurba_marseille","lat":43.27179,"lon":5.40993,"is_reserved":false,"is_disabled":false,"rental_uris":{"android":"levelo://app?vid=22ee74a2-7428-4203-800f-11a417fac485","ios":"levelo://app?vid=22ee74a2-7428-4203-800f-11a417fac485"},"vehicle_type_id":"4","last_reported":1729152738,"current_range_meters":11200,"station_id":"ce4bhl12rcd13ifvqgf0","pricing_plan_id":"cebpf4jnsgd1na2vs0mg"},{"bike_id":"48e6c989-8e4e-4330-9315-8bc9e5c40a82","system_id":"levelo_inurba_marseille","lat":43.30313,"lon":5.36894,"is_reserved":false,"is_disabled":false,"rental_uris":{"android":"levelo://app?vid=48e6c989-8e4e-4330-9315-8bc9e5c40a82","ios":"levelo://app?vid=48e6c989-8e4e-4330-9315-8bc9e5c40a82"},"vehicle_type_id":"4","last_reported":1729152738,"current_range_meters":10800,"station_id":"ce4bgqh2rcd13ifvqc5g","pricing_plan_id":"cebpf4jnsgd1na2vs0mg"},{"bike_id":"32a49fe8-5752-4e25-9677-224e653ef32f","system_id":"levelo_inurba_marseille","lat":43.24092,"lon":5.37758,"is_reserved":false,"is_disabled":false,"rental_uris":{"android":"levelo://app?vid=32a49fe8-5752-4e25-9677-224e653ef32f","ios":"levelo://app?vid=32a49fe8-5752-4e25-9677-224e653ef32f"},"vehicle_type_id":"4","last_reported":1729152738,"current_range_meters":20000,"station_id":"ce4bhnp2rcd13ifvqgvg","pricing_plan_id":"cebpf4jnsgd1na2vs0mg"},{"bike_id":"b0d32892-91f1-45ad-ba89-968a04f1b24c","system_id":"levelo_inurba_marseille","lat":43.32492,"lon":5.3656,"is_reserved":false,"is_disabled":false,"rental_uris":{"android":"levelo://app?vid=b0d32892-91f1-45ad-ba89-968a04f1b24c","ios":"levelo://app?vid=b0d32892-91f1-45ad-ba89-968a04f1b24c"},"vehicle_type_id":"4","last_reported":1729152738,"current_range_meters":37600,"station_id":"ce4bhs12rcd13ifvqhvg","pricing_plan_id":"cebpf4jnsgd1na2vs0mg"},{"bike_id":"d39a5687-1116-472f-a8fb-62c0d09c90d0","system_id":"levelo_inurba_marseille","lat":43.23152,"lon":5.43711,"is_reserved":false,"is_disabled":false,"rental_uris":{"android":"levelo://app?vid=d39a5687-1116-472f-a8fb-62c0d09c90d0","ios":"levelo://app?vid=d39a5687-1116-472f-a8fb-62c0d09c90d0"},"vehicle_type_id":"4","last_reported":1729152738,"current_range_meters":37600,"station_id":"ce4bhmp2rcd13ifvqgog","pricing_plan_id":"cebpf4jnsgd1na2vs0mg"},{"bike_id":"84bc220c-9b9c-49bc-aaa6-1d0bf46eb357","system_id":"levelo_inurba_marseille","lat":43.24083,"lon":5.37742,"is_reserved":false,"is_disabled":false,"rental_uris":{"android":"levelo://app?vid=84bc220c-9b9c-49bc-aaa6-1d0bf46eb357","ios":"levelo://app?vid=84bc220c-9b9c-49bc-aaa6-1d0bf46eb357"},"vehicle_type_id":"4","last_reported":1729152738,"current_range_meters":21600,"station_id":"ce4bhnp2rcd13ifvqgvg","pricing_plan_id":"cebpf4jnsgd1na2vs0mg"},{"bike_id":"f6c37cde-0469-4a60-a636-b7fab523dcaa","system_id":"levelo_inurba_marseille","lat":43.29531,"lon":5.37507,"is_reserved":false,"is_disabled":false,"rental_uris":{"android":"levelo://app?vid=f6c37cde-0469-4a60-a636-b7fab523dcaa","ios":"levelo://app?vid=f6c37cde-0469-4a60-a636-b7fab523dcaa"},"vehicle_type_id":"4","last_reported":1729152738,"current_range_meters":20000,"station_id":"ce4bgkp2rcd13ifvqbmg","pricing_plan_id":"cebpf4jnsgd1na2vs0mg"},{"bike_id":"67feae24-cb8e-4f7f-843f-bb88b23dff0b","system_id":"levelo_inurba_marseille","lat":43.30532,"lon":5.38431,"is_reserved":false,"is_disabled":false,"rental_uris":{"android":"levelo://app?vid=67feae24-cb8e-4f7f-843f-bb88b23dff0b","ios":"levelo://app?vid=67feae24-cb8e-4f7f-843f-bb88b23dff0b"},"vehicle_type_id":"4","last_reported":1729152738,"current_range_meters":30400,"station_id":"ce4bgg92rcd13ifvqb30","pricing_plan_id":"cebpf4jnsgd1na2vs0mg"},{"bike_id":"87440bd7-4730-412f-b52f-03b263c3d6ba","system_id":"levelo_inurba_marseille","lat":43.23195,"lon":5.35567,"is_reserved":false,"is_disabled":false,"rental_uris":{"android":"levelo://app?vid=87440bd7-4730-412f-b52f-03b263c3d6ba","ios":"levelo://app?vid=87440bd7-4730-412f-b52f-03b263c3d6ba"},"vehicle_type_id":"4","last_reported":1729152738,"current_range_meters":20400,"station_id":"ce4bhu92rcd13ifvqi70","pricing_plan_id":"cebpf4jnsgd1na2vs0mg"},{"bike_id":"8937c157-fc3b-4704-af92-e339d8163a54","system_id":"levelo_inurba_marseille","lat":43.29578,"lon":5.36737,"is_reserved":false,"is_disabled":false,"rental_uris":{"android":"levelo://app?vid=8937c157-fc3b-4704-af92-e339d8163a54","ios":"levelo://app?vid=8937c157-fc3b-4704-af92-e339d8163a54"},"vehicle_type_id":"4","last_reported":1729152738,"current_range_meters":24400,"station_id":"ce4bgph2rcd13ifvqc2g","pricing_plan_id":"cebpf4jnsgd1na2vs0mg"},{"bike_id":"7b5950ae-e9a1-4216-9216-9d24eb28ad46","system_id":"levelo_inurba_marseille","lat":43.29708,"lon":5.37699,"is_reserved":false,"is_disabled":false,"rental_uris":{"android":"levelo://app?vid=7b5950ae-e9a1-4216-9216-9d24eb28ad46","ios":"levelo://app?vid=7b5950ae-e9a1-4216-9216-9d24eb28ad46"},"vehicle_type_id":"4","last_reported":1729152738,"current_range_meters":32400,"station_id":"ce4bgkh2rcd13ifvqbl0","pricing_plan_id":"cebpf4jnsgd1na2vs0mg"},{"bike_id":"d0be02d2-1ab6-43f4-be37-9a5bca71492c","system_id":"levelo_inurba_marseille","lat":43.30144,"lon":5.37414,"is_reserved":false,"is_disabled":false,"rental_uris":{"android":"levelo://app?vid=d0be02d2-1ab6-43f4-be37-9a5bca71492c","ios":"levelo://app?vid=d0be02d2-1ab6-43f4-be37-9a5bca71492c"},"vehicle_type_id":"4","last_reported":1729152738,"current_range_meters":36800,"station_id":"ce4bgs92rcd13ifvqcc0","pricing_plan_id":"cebpf4jnsgd1na2vs0mg"},{"bike_id":"5583bd03-21c2-4e01-821d-16285c029508","system_id":"levelo_inurba_marseille","lat":43.26213,"lon":5.37441,"is_reserved":false,"is_disabled":false,"rental_uris":{"android":"levelo://app?vid=5583bd03-21c2-4e01-821d-16285c029508","ios":"levelo://app?vid=5583bd03-21c2-4e01-821d-16285c029508"},"vehicle_type_id":"4","last_reported":1729152738,"current_range_meters":14800,"station_id":"ce4bhgp2rcd13ifvqfc0","pricing_plan_id":"cebpf4jnsgd1na2vs0mg"},{"bike_id":"7e67b34b-bb95-43ee-b787-9eac5c6d60d0","system_id":"levelo_inurba_marseille","lat":43.30539,"lon":5.36545,"is_reserved":false,"is_disabled":false,"rental_uris":{"android":"levelo://app?vid=7e67b34b-bb95-43ee-b787-9eac5c6d60d0","ios":"levelo://app?vid=7e67b34b-bb95-43ee-b787-9eac5c6d60d0"},"vehicle_type_id":"4","last_reported":1729152738,"current_range_meters":6400,"station_id":"ce4bgs12rcd13ifvqcag","pricing_plan_id":"cebpf4jnsgd1na2vs0mg"},{"bike_id":"4ca96806-40c7-441e-b77e-39452841df29","system_id":"levelo_inurba_marseille","lat":43.26949,"lon":5.38647,"is_reserved":false,"is_disabled":false,"rental_uris":{"android":"levelo://app?vid=4ca96806-40c7-441e-b77e-39452841df29","ios":"levelo://app?vid=4ca96806-40c7-441e-b77e-39452841df29"},"vehicle_type_id":"4","last_reported":1729152738,"current_range_meters":24000,"station_id":"ce4bhh92rcd13ifvqfh0","pricing_plan_id":"cebpf4jnsgd1na2vs0mg"},{"bike_id":"8aa3e657-627a-46c4-9b12-f9209866bf38","system_id":"levelo_inurba_marseille","lat":43.29844,"lon":5.36266,"is_reserved":false,"is_disabled":false,"rental_uris":{"android":"levelo://app?vid=8aa3e657-627a-46c4-9b12-f9209866bf38","ios":"levelo://app?vid=8aa3e657-627a-46c4-9b12-f9209866bf38"},"vehicle_type_id":"4","last_reported":1729152738,"current_range_meters":24400,"station_id":"ce4bgpp2rcd13ifvqc3g","pricing_plan_id":"cebpf4jnsgd1na2vs0mg"},{"bike_id":"a31435e7-422e-46d4-a21c-77fee007075d","system_id":"levelo_inurba_marseille","lat":43.28364,"lon":5.386485,"is_reserved":false,"is_disabled":false,"rental_uris":{"android":"levelo://app?vid=a31435e7-422e-46d4-a21c-77fee007075d","ios":"levelo://app?vid=a31435e7-422e-46d4-a21c-77fee007075d"},"vehicle_type_id":"4","last_reported":1729152738,"current_range_meters":38000,"station_id":"ce4bh492rcd13ifvqdvg","pricing_plan_id":"cebpf4jnsgd1na2vs0mg"},{"bike_id":"49c3db25-f66c-4541-ad54-af787a8b9e0e","system_id":"levelo_inurba_marseille","lat":43.27175,"lon":5.40987,"is_reserved":false,"is_disabled":false,"rental_uris":{"android":"levelo://app?vid=49c3db25-f66c-4541-ad54-af787a8b9e0e","ios":"levelo://app?vid=49c3db25-f66c-4541-ad54-af787a8b9e0e"},"vehicle_type_id":"4","last_reported":1729152738,"current_range_meters":16400,"station_id":"ce4bhl12rcd13ifvqgf0","pricing_plan_id":"cebpf4jnsgd1na2vs0mg"},{"bike_id":"1873aaed-de74-45c2-ad2c-aacd7ba4370d","system_id":"levelo_inurba_marseille","lat":43.24178,"lon":5.39735,"is_reserved":false,"is_disabled":false,"rental_uris":{"android":"levelo://app?vid=1873aaed-de74-45c2-ad2c-aacd7ba4370d","ios":"levelo://app?vid=1873aaed-de74-45c2-ad2c-aacd7ba4370d"},"vehicle_type_id":"4","last_reported":1729152738,"current_range_meters":16400,"station_id":"ce4bhn12rcd13ifvqgpg","pricing_plan_id":"cebpf4jnsgd1na2vs0mg"},{"bike_id":"53f11546-ee0f-4227-921a-a57d93ed79b4","system_id":"levelo_inurba_marseille","lat":43.23156,"lon":5.43708,"is_reserved":false,"is_disabled":false,"rental_uris":{"android":"levelo://app?vid=53f11546-ee0f-4227-921a-a57d93ed79b4","ios":"levelo://app?vid=53f11546-ee0f-4227-921a-a57d93ed79b4"},"vehicle_type_id":"4","last_reported":1729152738,"current_range_meters":24000,"station_id":"ce4bhmp2rcd13ifvqgog","pricing_plan_id":"cebpf4jnsgd1na2vs0mg"},{"bike_id":"648b6b48-311f-4c42-aa8d-803f0a68a464","system_id":"levelo_inurba_marseille","lat":43.33611,"lon":5.41028,"is_reserved":false,"is_disabled":false,"rental_uris":{"android":"levelo://app?vid=648b6b48-311f-4c42-aa8d-803f0a68a464","ios":"levelo://app?vid=648b6b48-311f-4c42-aa8d-803f0a68a464"},"vehicle_type_id":"4","last_reported":1729152738,"current_range_meters":22400,"station_id":"ce4bhqh2rcd13ifvqhmg","pricing_plan_id":"cebpf4jnsgd1na2vs0mg"},{"bike_id":"25f491e5-d0ff-4e5e-94b3-5535a7d3231b","system_id":"levelo_inurba_marseille","lat":43.24545,"lon":5.39522,"is_reserved":false,"is_disabled":false,"rental_uris":{"android":"levelo://app?vid=25f491e5-d0ff-4e5e-94b3-5535a7d3231b","ios":"levelo://app?vid=25f491e5-d0ff-4e5e-94b3-5535a7d3231b"},"vehicle_type_id":"4","last_reported":1729152738,"current_range_meters":37600,"station_id":"ce4bhlp2rcd13ifvqgjg","pricing_plan_id":"cebpf4jnsgd1na2vs0mg"},{"bike_id":"5989016e-b932-4157-a83f-d0dee98f1f7a","system_id":"levelo_inurba_marseille","lat":43.30542,"lon":5.36537,"is_reserved":false,"is_disabled":false,"rental_uris":{"android":"levelo://app?vid=5989016e-b932-4157-a83f-d0dee98f1f7a","ios":"levelo://app?vid=5989016e-b932-4157-a83f-d0dee98f1f7a"},"vehicle_type_id":"4","last_reported":1729152738,"current_range_meters":35200,"station_id":"ce4bgs12rcd13ifvqcag","pricing_plan_id":"cebpf4jnsgd1na2vs0mg"},{"bike_id":"f5975b0a-70fb-4fa4-b844-2543247ddda0","system_id":"levelo_inurba_marseille","lat":43.24545,"lon":5.39533,"is_reserved":false,"is_disabled":false,"rental_uris":{"android":"levelo://app?vid=f5975b0a-70fb-4fa4-b844-2543247ddda0","ios":"levelo://app?vid=f5975b0a-70fb-4fa4-b844-2543247ddda0"},"vehicle_type_id":"4","last_reported":1729152738,"current_range_meters":38800,"station_id":"ce4bhlp2rcd13ifvqgjg","pricing_plan_id":"cebpf4jnsgd1na2vs0mg"},{"bike_id":"06bb7500-aaac-4ac4-af5f-b0d62ba39584","system_id":"levelo_inurba_marseille","lat":43.3091,"lon":5.36856,"is_reserved":false,"is_disabled":false,"rental_uris":{"android":"levelo://app?vid=06bb7500-aaac-4ac4-af5f-b0d62ba39584","ios":"levelo://app?vid=06bb7500-aaac-4ac4-af5f-b0d62ba39584"},"vehicle_type_id":"4","last_reported":1729152738,"current_range_meters":24400,"station_id":"ce4bgn92rcd13ifvqbvg","pricing_plan_id":"cebpf4jnsgd1na2vs0mg"},{"bike_id":"79c1f570-1b26-400d-b995-045bcdfbe785","system_id":"levelo_inurba_marseille","lat":43.2695,"lon":5.38634,"is_reserved":false,"is_disabled":false,"rental_uris":{"android":"levelo://app?vid=79c1f570-1b26-400d-b995-045bcdfbe785","ios":"levelo://app?vid=79c1f570-1b26-400d-b995-045bcdfbe785"},"vehicle_type_id":"4","last_reported":1729152738,"current_range_meters":2800,"station_id":"ce4bhh92rcd13ifvqfh0","pricing_plan_id":"cebpf4jnsgd1na2vs0mg"},{"bike_id":"f66f225b-c5ea-405e-af04-a1d8cc867613","system_id":"levelo_inurba_marseille","lat":43.29584,"lon":5.36732,"is_reserved":false,"is_disabled":false,"rental_uris":{"android":"levelo://app?vid=f66f225b-c5ea-405e-af04-a1d8cc867613","ios":"levelo://app?vid=f66f225b-c5ea-405e-af04-a1d8cc867613"},"vehicle_type_id":"4","last_reported":1729152738,"current_range_meters":17200,"station_id":"ce4bgph2rcd13ifvqc2g","pricing_plan_id":"cebpf4jnsgd1na2vs0mg"},{"bike_id":"5b7d217b-b6a3-48b2-a7c0-1e484eaaea02","system_id":"levelo_inurba_marseille","lat":43.2594,"lon":5.40907,"is_reserved":false,"is_disabled":false,"rental_uris":{"android":"levelo://app?vid=5b7d217b-b6a3-48b2-a7c0-1e484eaaea02","ios":"levelo://app?vid=5b7d217b-b6a3-48b2-a7c0-1e484eaaea02"},"vehicle_type_id":"4","last_reported":1729152738,"current_range_meters":38400,"station_id":"ce4bhm92rcd13ifvqglg","pricing_plan_id":"cebpf4jnsgd1na2vs0mg"},{"bike_id":"292b9425-1372-40d4-bf0a-fe57aa779a41","system_id":"levelo_inurba_marseille","lat":43.23065,"lon":5.35492,"is_reserved":false,"is_disabled":false,"rental_uris":{"android":"levelo://app?vid=292b9425-1372-40d4-bf0a-fe57aa779a41","ios":"levelo://app?vid=292b9425-1372-40d4-bf0a-fe57aa779a41"},"vehicle_type_id":"4","last_reported":1729152738,"current_range_meters":24800,"station_id":"cpo3342slgdg3j2ifvpg","pricing_plan_id":"cebpf4jnsgd1na2vs0mg"},{"bike_id":"c098a9b1-8849-4d74-a1a7-4c2a7d371c1f","system_id":"levelo_inurba_marseille","lat":43.312233,"lon":5.368653,"is_reserved":false,"is_disabled":false,"rental_uris":{"android":"levelo://app?vid=c098a9b1-8849-4d74-a1a7-4c2a7d371c1f","ios":"levelo://app?vid=c098a9b1-8849-4d74-a1a7-4c2a7d371c1f"},"vehicle_type_id":"4","last_reported":1729152738,"current_range_meters":25200,"station_id":"ce4bgl92rcd13ifvqbq0","pricing_plan_id":"cebpf4jnsgd1na2vs0mg"},{"bike_id":"93c72cb3-1395-4e89-9056-1b9eaf8b6302","system_id":"levelo_inurba_marseille","lat":43.24085,"lon":5.37751,"is_reserved":false,"is_disabled":false,"rental_uris":{"android":"levelo://app?vid=93c72cb3-1395-4e89-9056-1b9eaf8b6302","ios":"levelo://app?vid=93c72cb3-1395-4e89-9056-1b9eaf8b6302"},"vehicle_type_id":"4","last_reported":1729152738,"current_range_meters":26000,"station_id":"ce4bhnp2rcd13ifvqgvg","pricing_plan_id":"cebpf4jnsgd1na2vs0mg"},{"bike_id":"97f64c6a-6f11-4fd8-9478-4f99f06bfc40","system_id":"levelo_inurba_marseille","lat":43.24662,"lon":5.38173,"is_reserved":false,"is_disabled":false,"rental_uris":{"android":"levelo://app?vid=97f64c6a-6f11-4fd8-9478-4f99f06bfc40","ios":"levelo://app?vid=97f64c6a-6f11-4fd8-9478-4f99f06bfc40"},"vehicle_type_id":"4","last_reported":1729152738,"current_range_meters":16400,"station_id":"ce4bhih2rcd13ifvqfr0","pricing_plan_id":"cebpf4jnsgd1na2vs0mg"},{"bike_id":"c3cfbe2a-7ae0-4aba-b47a-8aba7ef90a5e","system_id":"levelo_inurba_marseille","lat":43.26685,"lon":5.3827,"is_reserved":false,"is_disabled":false,"rental_uris":{"android":"levelo://app?vid=c3cfbe2a-7ae0-4aba-b47a-8aba7ef90a5e","ios":"levelo://app?vid=c3cfbe2a-7ae0-4aba-b47a-8aba7ef90a5e"},"vehicle_type_id":"4","last_reported":1729152738,"current_range_meters":4000,"station_id":"ce4bhg92rcd13ifvqf90","pricing_plan_id":"cebpf4jnsgd1na2vs0mg"},{"bike_id":"5ab66e45-0165-4216-847f-4e1dfb4defc5","system_id":"levelo_inurba_marseille","lat":43.23156,"lon":5.43707,"is_reserved":false,"is_disabled":false,"rental_uris":{"android":"levelo://app?vid=5ab66e45-0165-4216-847f-4e1dfb4defc5","ios":"levelo://app?vid=5ab66e45-0165-4216-847f-4e1dfb4defc5"},"vehicle_type_id":"4","last_reported":1729152738,"current_range_meters":8400,"station_id":"ce4bhmp2rcd13ifvqgog","pricing_plan_id":"cebpf4jnsgd1na2vs0mg"},{"bike_id":"1f37b7e6-9139-4ccd-a095-e8bad37eaf87","system_id":"levelo_inurba_marseille","lat":43.2594,"lon":5.40906,"is_reserved":false,"is_disabled":false,"rental_uris":{"android":"levelo://app?vid=1f37b7e6-9139-4ccd-a095-e8bad37eaf87","ios":"levelo://app?vid=1f37b7e6-9139-4ccd-a095-e8bad37eaf87"},"vehicle_type_id":"4","last_reported":1729152738,"current_range_meters":16000,"station_id":"ce4bhm92rcd13ifvqglg","pricing_plan_id":"cebpf4jnsgd1na2vs0mg"},{"bike_id":"005117c0-90a3-4ee2-af58-362346745aa6","system_id":"levelo_inurba_marseille","lat":43.27382,"lon":5.36258,"is_reserved":false,"is_disabled":false,"rental_uris":{"android":"levelo://app?vid=005117c0-90a3-4ee2-af58-362346745aa6","ios":"levelo://app?vid=005117c0-90a3-4ee2-af58-362346745aa6"},"vehicle_type_id":"4","last_reported":1729152738,"current_range_meters":3600,"station_id":"ce4bhbh2rcd13ifvqeo0","pricing_plan_id":"cebpf4jnsgd1na2vs0mg"},{"bike_id":"bc1080d4-ad20-42fa-9ed3-27d5678423a1","system_id":"levelo_inurba_marseille","lat":43.30551,"lon":5.3655,"is_reserved":false,"is_disabled":false,"rental_uris":{"android":"levelo://app?vid=bc1080d4-ad20-42fa-9ed3-27d5678423a1","ios":"levelo://app?vid=bc1080d4-ad20-42fa-9ed3-27d5678423a1"},"vehicle_type_id":"4","last_reported":1729152738,"current_range_meters":30400,"station_id":"ce4bgs12rcd13ifvqcag","pricing_plan_id":"cebpf4jnsgd1na2vs0mg"},{"bike_id":"c6481ce9-e732-4807-9490-bfc05f664965","system_id":"levelo_inurba_marseille","lat":43.267883,"lon":5.384251,"is_reserved":false,"is_disabled":false,"rental_uris":{"android":"levelo://app?vid=c6481ce9-e732-4807-9490-bfc05f664965","ios":"levelo://app?vid=c6481ce9-e732-4807-9490-bfc05f664965"},"vehicle_type_id":"4","last_reported":1729152738,"current_range_meters":22800,"station_id":"ce4bhg92rcd13ifvqf90","pricing_plan_id":"cebpf4jnsgd1na2vs0mg"},{"bike_id":"064bc3f1-4c7d-4e67-b0b0-c95b28fcb395","system_id":"levelo_inurba_marseille","lat":43.24076,"lon":5.3774,"is_reserved":false,"is_disabled":false,"rental_uris":{"android":"levelo://app?vid=064bc3f1-4c7d-4e67-b0b0-c95b28fcb395","ios":"levelo://app?vid=064bc3f1-4c7d-4e67-b0b0-c95b28fcb395"},"vehicle_type_id":"4","last_reported":1729152738,"current_range_meters":24800,"station_id":"ce4bhnp2rcd13ifvqgvg","pricing_plan_id":"cebpf4jnsgd1na2vs0mg"},{"bike_id":"e3f7c29c-576b-4c66-9d05-01127c35876a","system_id":"levelo_inurba_marseille","lat":43.3054,"lon":5.36553,"is_reserved":false,"is_disabled":false,"rental_uris":{"android":"levelo://app?vid=e3f7c29c-576b-4c66-9d05-01127c35876a","ios":"levelo://app?vid=e3f7c29c-576b-4c66-9d05-01127c35876a"},"vehicle_type_id":"4","last_reported":1729152738,"current_range_meters":18800,"station_id":"ce4bgs12rcd13ifvqcag","pricing_plan_id":"cebpf4jnsgd1na2vs0mg"},{"bike_id":"29517644-3925-4037-a649-df9870d2ec08","system_id":"levelo_inurba_marseille","lat":43.24651,"lon":5.38892,"is_reserved":false,"is_disabled":false,"rental_uris":{"android":"levelo://app?vid=29517644-3925-4037-a649-df9870d2ec08","ios":"levelo://app?vid=29517644-3925-4037-a649-df9870d2ec08"},"vehicle_type_id":"4","last_reported":1729152738,"current_range_meters":8000,"station_id":"ce4bhg12rcd13ifvqf60","pricing_plan_id":"cebpf4jnsgd1na2vs0mg"},{"bike_id":"5a673800-fe7e-445f-bd0e-ba4725b8a4e8","system_id":"levelo_inurba_marseille","lat":43.2955,"lon":5.42277,"is_reserved":false,"is_disabled":false,"rental_uris":{"android":"levelo://app?vid=5a673800-fe7e-445f-bd0e-ba4725b8a4e8","ios":"levelo://app?vid=5a673800-fe7e-445f-bd0e-ba4725b8a4e8"},"vehicle_type_id":"4","last_reported":1729152738,"current_range_meters":36400,"station_id":"ce4bhph2rcd13ifvqhdg","pricing_plan_id":"cebpf4jnsgd1na2vs0mg"},{"bike_id":"cb18119f-4d0f-49b5-b01f-5ea8d9815b24","system_id":"levelo_inurba_marseille","lat":43.32487,"lon":5.36551,"is_reserved":false,"is_disabled":false,"rental_uris":{"android":"levelo://app?vid=cb18119f-4d0f-49b5-b01f-5ea8d9815b24","ios":"levelo://app?vid=cb18119f-4d0f-49b5-b01f-5ea8d9815b24"},"vehicle_type_id":"4","last_reported":1729152738,"current_range_meters":36800,"station_id":"ce4bhs12rcd13ifvqhvg","pricing_plan_id":"cebpf4jnsgd1na2vs0mg"},{"bike_id":"41781d3d-941e-4140-a86a-14bc69c69dfd","system_id":"levelo_inurba_marseille","lat":43.24083,"lon":5.37748,"is_reserved":false,"is_disabled":false,"rental_uris":{"android":"levelo://app?vid=41781d3d-941e-4140-a86a-14bc69c69dfd","ios":"levelo://app?vid=41781d3d-941e-4140-a86a-14bc69c69dfd"},"vehicle_type_id":"4","last_reported":1729152738,"current_range_meters":14400,"station_id":"ce4bhnp2rcd13ifvqgvg","pricing_plan_id":"cebpf4jnsgd1na2vs0mg"},{"bike_id":"d7208cd9-8c6d-4658-82d6-0ea6c0f39c7f","system_id":"levelo_inurba_marseille","lat":43.30913,"lon":5.36836,"is_reserved":false,"is_disabled":false,"rental_uris":{"android":"levelo://app?vid=d7208cd9-8c6d-4658-82d6-0ea6c0f39c7f","ios":"levelo://app?vid=d7208cd9-8c6d-4658-82d6-0ea6c0f39c7f"},"vehicle_type_id":"4","last_reported":1729152738,"current_range_meters":32800,"station_id":"ce4bgn92rcd13ifvqbvg","pricing_plan_id":"cebpf4jnsgd1na2vs0mg"},{"bike_id":"9782abde-fe3c-4448-b6f1-d6114c0da7b7","system_id":"levelo_inurba_marseille","lat":43.27492,"lon":5.42454,"is_reserved":false,"is_disabled":false,"rental_uris":{"android":"levelo://app?vid=9782abde-fe3c-4448-b6f1-d6114c0da7b7","ios":"levelo://app?vid=9782abde-fe3c-4448-b6f1-d6114c0da7b7"},"vehicle_type_id":"4","last_reported":1729152738,"current_range_meters":11600,"station_id":"ce4bhn92rcd13ifvqgrg","pricing_plan_id":"cebpf4jnsgd1na2vs0mg"},{"bike_id":"a9d80141-cb04-4f88-bcc5-9763572e3517","system_id":"levelo_inurba_marseille","lat":43.23194,"lon":5.35545,"is_reserved":false,"is_disabled":false,"rental_uris":{"android":"levelo://app?vid=a9d80141-cb04-4f88-bcc5-9763572e3517","ios":"levelo://app?vid=a9d80141-cb04-4f88-bcc5-9763572e3517"},"vehicle_type_id":"4","last_reported":1729152738,"current_range_meters":34000,"station_id":"ce4bhu92rcd13ifvqi70","pricing_plan_id":"cebpf4jnsgd1na2vs0mg"},{"bike_id":"e0db5bd3-d427-4f9e-b1f3-02dd007c7e39","system_id":"levelo_inurba_marseille","lat":43.24389,"lon":5.37057,"is_reserved":false,"is_disabled":false,"rental_uris":{"android":"levelo://app?vid=e0db5bd3-d427-4f9e-b1f3-02dd007c7e39","ios":"levelo://app?vid=e0db5bd3-d427-4f9e-b1f3-02dd007c7e39"},"vehicle_type_id":"4","last_reported":1729152738,"current_range_meters":20800,"station_id":"ce4bhhh2rcd13ifvqfk0","pricing_plan_id":"cebpf4jnsgd1na2vs0mg"},{"bike_id":"35a22db4-7e9d-4709-be91-f373b0a75e57","system_id":"levelo_inurba_marseille","lat":43.33791,"lon":5.37494,"is_reserved":false,"is_disabled":false,"rental_uris":{"android":"levelo://app?vid=35a22db4-7e9d-4709-be91-f373b0a75e57","ios":"levelo://app?vid=35a22db4-7e9d-4709-be91-f373b0a75e57"},"vehicle_type_id":"4","last_reported":1729152738,"current_range_meters":33200,"station_id":"","pricing_plan_id":"cebpf4jnsgd1na2vs0mg"},{"bike_id":"d05e5e83-57af-4408-87b7-54a543310884","system_id":"levelo_inurba_marseille","lat":43.24078,"lon":5.37754,"is_reserved":false,"is_disabled":false,"rental_uris":{"android":"levelo://app?vid=d05e5e83-57af-4408-87b7-54a543310884","ios":"levelo://app?vid=d05e5e83-57af-4408-87b7-54a543310884"},"vehicle_type_id":"4","last_reported":1729152738,"current_range_meters":4400,"station_id":"ce4bhnp2rcd13ifvqgvg","pricing_plan_id":"cebpf4jnsgd1na2vs0mg"},{"bike_id":"819fbb41-3fec-4b02-ad34-07ae48cf1dc5","system_id":"levelo_inurba_marseille","lat":43.3047,"lon":5.37901,"is_reserved":false,"is_disabled":false,"rental_uris":{"android":"levelo://app?vid=819fbb41-3fec-4b02-ad34-07ae48cf1dc5","ios":"levelo://app?vid=819fbb41-3fec-4b02-ad34-07ae48cf1dc5"},"vehicle_type_id":"4","last_reported":1729152738,"current_range_meters":39200,"station_id":"ce4bgup2rcd13ifvqcn0","pricing_plan_id":"cebpf4jnsgd1na2vs0mg"},{"bike_id":"9d390ee7-a6b9-4cda-87ae-9e6fd6b700b2","system_id":"levelo_inurba_marseille","lat":43.30534,"lon":5.365377,"is_reserved":false,"is_disabled":false,"rental_uris":{"android":"levelo://app?vid=9d390ee7-a6b9-4cda-87ae-9e6fd6b700b2","ios":"levelo://app?vid=9d390ee7-a6b9-4cda-87ae-9e6fd6b700b2"},"vehicle_type_id":"4","last_reported":1729152738,"current_range_meters":29600,"station_id":"ce4bgs12rcd13ifvqcag","pricing_plan_id":"cebpf4jnsgd1na2vs0mg"},{"bike_id":"92f1447e-70fc-421e-8d75-e0412d586637","system_id":"levelo_inurba_marseille","lat":43.30462,"lon":5.37909,"is_reserved":false,"is_disabled":false,"rental_uris":{"android":"levelo://app?vid=92f1447e-70fc-421e-8d75-e0412d586637","ios":"levelo://app?vid=92f1447e-70fc-421e-8d75-e0412d586637"},"vehicle_type_id":"4","last_reported":1729152738,"current_range_meters":30800,"station_id":"","pricing_plan_id":"cebpf4jnsgd1na2vs0mg"},{"bike_id":"4ce6a8a4-f543-406e-9b3b-bf69a485e2ff","system_id":"levelo_inurba_marseille","lat":43.337444,"lon":5.374475,"is_reserved":false,"is_disabled":false,"rental_uris":{"android":"levelo://app?vid=4ce6a8a4-f543-406e-9b3b-bf69a485e2ff","ios":"levelo://app?vid=4ce6a8a4-f543-406e-9b3b-bf69a485e2ff"},"vehicle_type_id":"4","last_reported":1729152738,"current_range_meters":32000,"station_id":"ce4bhg12rcd13ifvqf60","pricing_plan_id":"cebpf4jnsgd1na2vs0mg"},{"bike_id":"0b3e7fd6-2511-4337-b5d2-b8304124bef5","system_id":"levelo_inurba_marseille","lat":43.25934,"lon":5.40913,"is_reserved":false,"is_disabled":false,"rental_uris":{"android":"levelo://app?vid=0b3e7fd6-2511-4337-b5d2-b8304124bef5","ios":"levelo://app?vid=0b3e7fd6-2511-4337-b5d2-b8304124bef5"},"vehicle_type_id":"4","last_reported":1729152738,"current_range_meters":26000,"station_id":"ce4bhm92rcd13ifvqglg","pricing_plan_id":"cebpf4jnsgd1na2vs0mg"},{"bike_id":"d0fca0cd-a7d1-4aa3-b124-3197a9920e76","system_id":"levelo_inurba_marseille","lat":43.25936,"lon":5.40911,"is_reserved":false,"is_disabled":false,"rental_uris":{"android":"levelo://app?vid=d0fca0cd-a7d1-4aa3-b124-3197a9920e76","ios":"levelo://app?vid=d0fca0cd-a7d1-4aa3-b124-3197a9920e76"},"vehicle_type_id":"4","last_reported":1729152738,"current_range_meters":15200,"station_id":"ce4bhm92rcd13ifvqglg","pricing_plan_id":"cebpf4jnsgd1na2vs0mg"},{"bike_id":"4d28ec3f-5f35-40d0-be6d-4cffab2acfb2","system_id":"levelo_inurba_marseille","lat":43.26059,"lon":5.393982,"is_reserved":false,"is_disabled":false,"rental_uris":{"android":"levelo://app?vid=4d28ec3f-5f35-40d0-be6d-4cffab2acfb2","ios":"levelo://app?vid=4d28ec3f-5f35-40d0-be6d-4cffab2acfb2"},"vehicle_type_id":"4","last_reported":1729152738,"current_range_meters":20400,"station_id":"ce4bhh92rcd13ifvqfj0","pricing_plan_id":"cebpf4jnsgd1na2vs0mg"},{"bike_id":"58d70521-2a33-48cb-a2a2-f9f02d8f2668","system_id":"levelo_inurba_marseille","lat":43.265579,"lon":5.390285,"is_reserved":false,"is_disabled":false,"rental_uris":{"android":"levelo://app?vid=58d70521-2a33-48cb-a2a2-f9f02d8f2668","ios":"levelo://app?vid=58d70521-2a33-48cb-a2a2-f9f02d8f2668"},"vehicle_type_id":"4","last_reported":1729152738,"current_range_meters":18000,"station_id":"ce4bhmp2rcd13ifvqgog","pricing_plan_id":"cebpf4jnsgd1na2vs0mg"},{"bike_id":"d41309ab-1a1f-4395-acaa-455483c3f8e1","system_id":"levelo_inurba_marseille","lat":43.23194,"lon":5.35559,"is_reserved":false,"is_disabled":false,"rental_uris":{"android":"levelo://app?vid=d41309ab-1a1f-4395-acaa-455483c3f8e1","ios":"levelo://app?vid=d41309ab-1a1f-4395-acaa-455483c3f8e1"},"vehicle_type_id":"4","last_reported":1729152738,"current_range_meters":36800,"station_id":"ce4bhu92rcd13ifvqi70","pricing_plan_id":"cebpf4jnsgd1na2vs0mg"},{"bike_id":"ed0c78de-b120-40f0-89a4-9fbc2e0f45fb","system_id":"levelo_inurba_marseille","lat":43.26914,"lon":5.3857,"is_reserved":false,"is_disabled":false,"rental_uris":{"android":"levelo://app?vid=ed0c78de-b120-40f0-89a4-9fbc2e0f45fb","ios":"levelo://app?vid=ed0c78de-b120-40f0-89a4-9fbc2e0f45fb"},"vehicle_type_id":"4","last_reported":1729152738,"current_range_meters":26800,"station_id":"","pricing_plan_id":"cebpf4jnsgd1na2vs0mg"},{"bike_id":"43ab12a3-3951-4cee-a705-9d0568682849","system_id":"levelo_inurba_marseille","lat":43.30539,"lon":5.36708,"is_reserved":false,"is_disabled":false,"rental_uris":{"android":"levelo://app?vid=43ab12a3-3951-4cee-a705-9d0568682849","ios":"levelo://app?vid=43ab12a3-3951-4cee-a705-9d0568682849"},"vehicle_type_id":"4","last_reported":1729152738,"current_range_meters":28000,"station_id":"ce4bgrp2rcd13ifvqc9g","pricing_plan_id":"cebpf4jnsgd1na2vs0mg"},{"bike_id":"2dd21b36-b488-441a-a25c-f8c2af01cc94","system_id":"levelo_inurba_marseille","lat":43.30554,"lon":5.36548,"is_reserved":false,"is_disabled":false,"rental_uris":{"android":"levelo://app?vid=2dd21b36-b488-441a-a25c-f8c2af01cc94","ios":"levelo://app?vid=2dd21b36-b488-441a-a25c-f8c2af01cc94"},"vehicle_type_id":"4","last_reported":1729152738,"current_range_meters":27200,"station_id":"ce4bgs12rcd13ifvqcag","pricing_plan_id":"cebpf4jnsgd1na2vs0mg"},{"bike_id":"539f318a-5ce8-409b-8fa5-e3a2a014621b","system_id":"levelo_inurba_marseille","lat":43.31358,"lon":5.36709,"is_reserved":false,"is_disabled":false,"rental_uris":{"android":"levelo://app?vid=539f318a-5ce8-409b-8fa5-e3a2a014621b","ios":"levelo://app?vid=539f318a-5ce8-409b-8fa5-e3a2a014621b"},"vehicle_type_id":"4","last_reported":1729152738,"current_range_meters":31200,"station_id":"ce4bgr92rcd13ifvqc6g","pricing_plan_id":"cebpf4jnsgd1na2vs0mg"},{"bike_id":"a0c122e3-af93-4618-bbe9-09704639de9c","system_id":"levelo_inurba_marseille","lat":43.25932,"lon":5.40917,"is_reserved":false,"is_disabled":false,"rental_uris":{"android":"levelo://app?vid=a0c122e3-af93-4618-bbe9-09704639de9c","ios":"levelo://app?vid=a0c122e3-af93-4618-bbe9-09704639de9c"},"vehicle_type_id":"4","last_reported":1729152738,"current_range_meters":16800,"station_id":"ce4bhm92rcd13ifvqglg","pricing_plan_id":"cebpf4jnsgd1na2vs0mg"},{"bike_id":"570e8d7e-9e8f-43d9-a2a1-5a84382746ce","system_id":"levelo_inurba_marseille","lat":43.29037,"lon":5.37569,"is_reserved":false,"is_disabled":false,"rental_uris":{"android":"levelo://app?vid=570e8d7e-9e8f-43d9-a2a1-5a84382746ce","ios":"levelo://app?vid=570e8d7e-9e8f-43d9-a2a1-5a84382746ce"},"vehicle_type_id":"4","last_reported":1729152738,"current_range_meters":38000,"station_id":"ce4bh692rcd13ifvqe90","pricing_plan_id":"cebpf4jnsgd1na2vs0mg"},{"bike_id":"c034bb6e-bc71-4d55-bc8f-ba63cd332fe3","system_id":"levelo_inurba_marseille","lat":43.2315,"lon":5.43721,"is_reserved":false,"is_disabled":false,"rental_uris":{"android":"levelo://app?vid=c034bb6e-bc71-4d55-bc8f-ba63cd332fe3","ios":"levelo://app?vid=c034bb6e-bc71-4d55-bc8f-ba63cd332fe3"},"vehicle_type_id":"4","last_reported":1729152738,"current_range_meters":24400,"station_id":"ce4bhmp2rcd13ifvqgog","pricing_plan_id":"cebpf4jnsgd1na2vs0mg"},{"bike_id":"2be1b2e9-b064-468e-b0ab-5c4bdc840ec0","system_id":"levelo_inurba_marseille","lat":43.31361,"lon":5.36711,"is_reserved":false,"is_disabled":false,"rental_uris":{"android":"levelo://app?vid=2be1b2e9-b064-468e-b0ab-5c4bdc840ec0","ios":"levelo://app?vid=2be1b2e9-b064-468e-b0ab-5c4bdc840ec0"},"vehicle_type_id":"4","last_reported":1729152738,"current_range_meters":12400,"station_id":"ce4bgr92rcd13ifvqc6g","pricing_plan_id":"cebpf4jnsgd1na2vs0mg"},{"bike_id":"033a7f68-f273-426e-84a9-8a3b2c56f6f5","system_id":"levelo_inurba_marseille","lat":43.35095,"lon":5.36803,"is_reserved":false,"is_disabled":false,"rental_uris":{"android":"levelo://app?vid=033a7f68-f273-426e-84a9-8a3b2c56f6f5","ios":"levelo://app?vid=033a7f68-f273-426e-84a9-8a3b2c56f6f5"},"vehicle_type_id":"4","last_reported":1729152738,"current_range_meters":11200,"station_id":"","pricing_plan_id":"cebpf4jnsgd1na2vs0mg"},{"bike_id":"280904e7-63d8-4281-8d15-d4f8afd3cb20","system_id":"levelo_inurba_marseille","lat":43.266947,"lon":5.382517,"is_reserved":false,"is_disabled":false,"rental_uris":{"android":"levelo://app?vid=280904e7-63d8-4281-8d15-d4f8afd3cb20","ios":"levelo://app?vid=280904e7-63d8-4281-8d15-d4f8afd3cb20"},"vehicle_type_id":"4","last_reported":1729152738,"current_range_meters":27600,"station_id":"ce4bhg92rcd13ifvqf90","pricing_plan_id":"cebpf4jnsgd1na2vs0mg"},{"bike_id":"0e368b35-d389-4bb6-9714-803631cb31b4","system_id":"levelo_inurba_marseille","lat":43.30906,"lon":5.36849,"is_reserved":false,"is_disabled":false,"rental_uris":{"android":"levelo://app?vid=0e368b35-d389-4bb6-9714-803631cb31b4","ios":"levelo://app?vid=0e368b35-d389-4bb6-9714-803631cb31b4"},"vehicle_type_id":"4","last_reported":1729152738,"current_range_meters":20800,"station_id":"ce4bgn92rcd13ifvqbvg","pricing_plan_id":"cebpf4jnsgd1na2vs0mg"},{"bike_id":"1af2813b-98a0-4b62-aaf8-89652b30f639","system_id":"levelo_inurba_marseille","lat":43.22934,"lon":5.35385,"is_reserved":false,"is_disabled":false,"rental_uris":{"android":"levelo://app?vid=1af2813b-98a0-4b62-aaf8-89652b30f639","ios":"levelo://app?vid=1af2813b-98a0-4b62-aaf8-89652b30f639"},"vehicle_type_id":"4","last_reported":1729152738,"current_range_meters":20000,"station_id":"cpo3532slgdg3j2ikp40","pricing_plan_id":"cebpf4jnsgd1na2vs0mg"},{"bike_id":"e9c7f9fc-b1e5-43b0-8828-fe7f420651b6","system_id":"levelo_inurba_marseille","lat":43.295418,"lon":5.42272,"is_reserved":false,"is_disabled":false,"rental_uris":{"android":"levelo://app?vid=e9c7f9fc-b1e5-43b0-8828-fe7f420651b6","ios":"levelo://app?vid=e9c7f9fc-b1e5-43b0-8828-fe7f420651b6"},"vehicle_type_id":"4","last_reported":1729152738,"current_range_meters":29600,"station_id":"ce4bhph2rcd13ifvqhdg","pricing_plan_id":"cebpf4jnsgd1na2vs0mg"},{"bike_id":"e7e9a469-cbf7-46c4-ad64-4721a8aad91d","system_id":"levelo_inurba_marseille","lat":43.304135,"lon":5.388034,"is_reserved":false,"is_disabled":false,"rental_uris":{"android":"levelo://app?vid=e7e9a469-cbf7-46c4-ad64-4721a8aad91d","ios":"levelo://app?vid=e7e9a469-cbf7-46c4-ad64-4721a8aad91d"},"vehicle_type_id":"4","last_reported":1729152738,"current_range_meters":18000,"station_id":"","pricing_plan_id":"cebpf4jnsgd1na2vs0mg"},{"bike_id":"022d0c8a-c348-401f-bca4-f9a67fda9ec7","system_id":"levelo_inurba_marseille","lat":43.2902,"lon":5.38138,"is_reserved":false,"is_disabled":false,"rental_uris":{"android":"levelo://app?vid=022d0c8a-c348-401f-bca4-f9a67fda9ec7","ios":"levelo://app?vid=022d0c8a-c348-401f-bca4-f9a67fda9ec7"},"vehicle_type_id":"4","last_reported":1729152738,"current_range_meters":31200,"station_id":"ce4bh4p2rcd13ifvqe1g","pricing_plan_id":"cebpf4jnsgd1na2vs0mg"},{"bike_id":"f93454e1-a669-4c63-a4ca-b572042c7971","system_id":"levelo_inurba_marseille","lat":43.23191,"lon":5.35561,"is_reserved":false,"is_disabled":false,"rental_uris":{"android":"levelo://app?vid=f93454e1-a669-4c63-a4ca-b572042c7971","ios":"levelo://app?vid=f93454e1-a669-4c63-a4ca-b572042c7971"},"vehicle_type_id":"4","last_reported":1729152738,"current_range_meters":16000,"station_id":"ce4bhu92rcd13ifvqi70","pricing_plan_id":"cebpf4jnsgd1na2vs0mg"},{"bike_id":"5991a3d2-0cb9-494d-b3ed-321a28cd7251","system_id":"levelo_inurba_marseille","lat":43.22932,"lon":5.3538,"is_reserved":false,"is_disabled":false,"rental_uris":{"android":"levelo://app?vid=5991a3d2-0cb9-494d-b3ed-321a28cd7251","ios":"levelo://app?vid=5991a3d2-0cb9-494d-b3ed-321a28cd7251"},"vehicle_type_id":"4","last_reported":1729152738,"current_range_meters":37600,"station_id":"cpo3532slgdg3j2ikp40","pricing_plan_id":"cebpf4jnsgd1na2vs0mg"},{"bike_id":"c0f67bc5-793d-47a1-8af9-95d1cc3d1bbd","system_id":"levelo_inurba_marseille","lat":43.30465,"lon":5.37903,"is_reserved":false,"is_disabled":false,"rental_uris":{"android":"levelo://app?vid=c0f67bc5-793d-47a1-8af9-95d1cc3d1bbd","ios":"levelo://app?vid=c0f67bc5-793d-47a1-8af9-95d1cc3d1bbd"},"vehicle_type_id":"4","last_reported":1729152738,"current_range_meters":34800,"station_id":"","pricing_plan_id":"cebpf4jnsgd1na2vs0mg"},{"bike_id":"2b438a88-2516-411c-b057-738a837f0c3c","system_id":"levelo_inurba_marseille","lat":43.284485,"lon":5.358973,"is_reserved":false,"is_disabled":false,"rental_uris":{"android":"levelo://app?vid=2b438a88-2516-411c-b057-738a837f0c3c","ios":"levelo://app?vid=2b438a88-2516-411c-b057-738a837f0c3c"},"vehicle_type_id":"4","last_reported":1729152738,"current_range_meters":22800,"station_id":"ce4bhah2rcd13ifvqei0","pricing_plan_id":"cebpf4jnsgd1na2vs0mg"},{"bike_id":"47a34cb3-c9fc-43c3-a1c5-779ae5eee241","system_id":"levelo_inurba_marseille","lat":43.31893,"lon":5.40734,"is_reserved":false,"is_disabled":false,"rental_uris":{"android":"levelo://app?vid=47a34cb3-c9fc-43c3-a1c5-779ae5eee241","ios":"levelo://app?vid=47a34cb3-c9fc-43c3-a1c5-779ae5eee241"},"vehicle_type_id":"4","last_reported":1729152738,"current_range_meters":38000,"station_id":"ce4bhq12rcd13ifvqhig","pricing_plan_id":"cebpf4jnsgd1na2vs0mg"},{"bike_id":"e8b0cef5-a300-4d71-8292-cd5652fa2a25","system_id":"levelo_inurba_marseille","lat":43.29598,"lon":5.381016,"is_reserved":false,"is_disabled":false,"rental_uris":{"android":"levelo://app?vid=e8b0cef5-a300-4d71-8292-cd5652fa2a25","ios":"levelo://app?vid=e8b0cef5-a300-4d71-8292-cd5652fa2a25"},"vehicle_type_id":"4","last_reported":1729152738,"current_range_meters":10800,"station_id":"ce4bgl12rcd13ifvqbo0","pricing_plan_id":"cebpf4jnsgd1na2vs0mg"},{"bike_id":"401d617b-728a-48eb-a46c-64c291dfb0af","system_id":"levelo_inurba_marseille","lat":43.29523,"lon":5.39032,"is_reserved":false,"is_disabled":false,"rental_uris":{"android":"levelo://app?vid=401d617b-728a-48eb-a46c-64c291dfb0af","ios":"levelo://app?vid=401d617b-728a-48eb-a46c-64c291dfb0af"},"vehicle_type_id":"4","last_reported":1729152738,"current_range_meters":37600,"station_id":"ce4bh3p2rcd13ifvqdp0","pricing_plan_id":"cebpf4jnsgd1na2vs0mg"},{"bike_id":"5a5aca9d-8c64-4db1-854f-6ed580e74ea1","system_id":"levelo_inurba_marseille","lat":43.289307,"lon":5.363621,"is_reserved":false,"is_disabled":false,"rental_uris":{"android":"levelo://app?vid=5a5aca9d-8c64-4db1-854f-6ed580e74ea1","ios":"levelo://app?vid=5a5aca9d-8c64-4db1-854f-6ed580e74ea1"},"vehicle_type_id":"4","last_reported":1729152738,"current_range_meters":25200,"station_id":"ce4bgjh2rcd13ifvqbf0","pricing_plan_id":"cebpf4jnsgd1na2vs0mg"},{"bike_id":"282be8d5-5535-4847-86c8-41c23a3305ae","system_id":"levelo_inurba_marseille","lat":43.31368,"lon":5.36705,"is_reserved":false,"is_disabled":false,"rental_uris":{"android":"levelo://app?vid=282be8d5-5535-4847-86c8-41c23a3305ae","ios":"levelo://app?vid=282be8d5-5535-4847-86c8-41c23a3305ae"},"vehicle_type_id":"4","last_reported":1729152738,"current_range_meters":27200,"station_id":"ce4bgr92rcd13ifvqc6g","pricing_plan_id":"cebpf4jnsgd1na2vs0mg"},