{"last_updated":1741943462,"ttl":60,"version":"2.2","data":{"bikes":[{"bike_id":"c657942b-b392-4617-aa45-301763793485","system_id":"levelo_inurba_marseille","lat":43.25937,"lon":5.40899,"is_reserved":false,"is_disabled":false,"rental_uris":{"android":"levelo://app?vid=c657942b-b392-4617-aa45-301763793485","ios":"levelo://app?vid=c657942b-b392-4617-aa45-301763793485"},"vehicle_type_id":"4","last_reported":1741943462,"current_range_meters":2800,"station_id":"ce4bhm92rcd13ifvqglg","pricing_plan_id":"cebpf4jnsgd1na2vs0mg"},{"bike_id":"5d98b8e4-f9d7-499b-adae-019b9939af68","system_id":"levelo_inurba_marseille","lat":43.28348,"lon":5.38115,"is_reserved":false,"is_disabled":false,"rental_uris":{"android":"levelo://app?vid=5d98b8e4-f9d7-499b-adae-019b9939af68","ios":"levelo://app?vid=5d98b8e4-f9d7-499b-adae-019b9939af68"},"vehicle_type_id":"4","last_reported":1741943462,"current_range_meters":2800,"station_id":"ce4bh412rcd13ifvqdr0","pricing_plan_id":"cebpf4jnsgd1na2vs0mg"},{"bike_id":"0e1454f0-c501-449b-b78c-ddfc8f4d9aab","system_id":"levelo_inurba_marseille","lat":43.33768,"lon":5.3749,"is_reserved":false,"is_disabled":false,"rental_uris":{"android":"levelo://app?vid=0e1454f0-c501-449b-b78c-ddfc8f4d9aab","ios":"levelo://app?vid=0e1454f0-c501-449b-b78c-ddfc8f4d9aab"},"vehicle_type_id":"4","last_reported":1741943462,"current_range_meters":2800,"station_id":"","pricing_plan_id":"cebpf4jnsgd1na2vs0mg"},{"bike_id":"30f4febb-a334-4a53-8c70-cf9826d8624a","system_id":"levelo_inurba_marseille","lat":43.31379,"lon":5.36718,"is_reserved":false,"is_disabled":false,"rental_uris":{"android":"levelo://app?vid=30f4febb-a334-4a53-8c70-cf9826d8624a","ios":"levelo://app?vid=30f4febb-a334-4a53-8c70-cf9826d8624a"},"vehicle_type_id":"4","last_reported":1741943462,"current_range_meters":2800,"station_id":"ce4bgr92rcd13ifvqc6g","pricing_plan_id":"cebpf4jnsgd1na2vs0mg"},{"bike_id":"e3433a29-4d63-4030-abbc-447f8c6dd520","system_id":"levelo_inurba_marseille","lat":43.26603,"lon":5.39079,"is_reserved":false,"is_disabled":false,"rental_uris":{"android":"levelo://app?vid=e3433a29-4d63-4030-abbc-447f8c6dd520","ios":"levelo://app?vid=e3433a29-4d63-4030-abbc-447f8c6dd520"},"vehicle_type_id":"4","last_reported":1741943462,"current_range_meters":3200,"station_id":"","pricing_plan_id":"cebpf4jnsgd1na2vs0mg"},{"bike_id":"8e824da1-37b2-4e11-9c99-bb2e507552f6","system_id":"levelo_inurba_marseille","lat":43.2315,"lon":5.43711,"is_reserved":false,"is_disabled":false,"rental_uris":{"android":"levelo://app?vid=8e824da1-37b2-4e11-9c99-bb2e507552f6","ios":"levelo://app?vid=8e824da1-37b2-4e11-9c99-bb2e507552f6"},"vehicle_type_id":"4","last_reported":1741943462,"current_range_meters":3200,"station_id":"ce4bhmp2rcd13ifvqgog","pricing_plan_id":"cebpf4jnsgd1na2vs0mg"},{"bike_id":"362d710b-ed2f-41b2-825a-4f9b62b2a69a","system_id":"levelo_inurba_marseille","lat":43.27807,"lon":5.40705,"is_reserved":false,"is_disabled":false,"rental_uris":{"android":"levelo://app?vid=362d710b-ed2f-41b2-825a-4f9b62b2a69a","ios":"levelo://app?vid=362d710b-ed2f-41b2-825a-4f9b62b2a69a"},"vehicle_type_id":"4","last_reported":1741943462,"current_range_meters":3200,"station_id":"ce4bhnh2rcd13ifvqgtg","pricing_plan_id":"cebpf4jnsgd1na2vs0mg"},{"bike_id":"88d4df4a-f3a5-4d5e-b24a-d6802c72f1bf","system_id":"levelo_inurba_marseille","lat":43.26936,"lon":5.38637,"is_reserved":false,"is_disabled":false,"rental_uris":{"android":"levelo://app?vid=88d4df4a-f3a5-4d5e-b24a-d6802c72f1bf","ios":"levelo://app?vid=88d4df4a-f3a5-4d5e-b24a-d6802c72f1bf"},"vehicle_type_id":"4","last_reported":1741943462,"current_range_meters":3200,"station_id":"ce4bhh92rcd13ifvqfh0","pricing_plan_id":"cebpf4jnsgd1na2vs0mg"},{"bike_id":"deca74f6-484d-4edf-b850-552350252462","system_id":"levelo_inurba_marseille","lat":43.25,"lon":5.3893,"is_reserved":false,"is_disabled":false,"rental_uris":{"android":"levelo://app?vid=deca74f6-484d-4edf-b850-552350252462","ios":"levelo://app?vid=deca74f6-484d-4edf-b850-552350252462"},"vehicle_type_id":"4","last_reported":1741943462,"current_range_meters":3600,"station_id":"ce4bhgp2rcd13ifvqfd0","pricing_plan_id":"cebpf4jnsgd1na2vs0mg"},{"bike_id":"1b093d61-d643-4178-86b7-a4745c739cb9","system_id":"levelo_inurba_marseille","lat":43.27689,"lon":5.38915,"is_reserved":false,"is_disabled":false,"rental_uris":{"android":"levelo://app?vid=1b093d61-d643-4178-86b7-a4745c739cb9","ios":"levelo://app?vid=1b093d61-d643-4178-86b7-a4745c739cb9"},"vehicle_type_id":"4","last_reported":1741943462,"current_range_meters":3600,"station_id":"ce4bhi12rcd13ifvqfo0","pricing_plan_id":"cebpf4jnsgd1na2vs0mg"},{"bike_id":"380d4a53-3264-4aac-8a27-5aa75deef1df","system_id":"levelo_inurba_marseille","lat":43.29236,"lon":5.360548,"is_reserved":false,"is_disabled":false,"rental_uris":{"android":"levelo://app?vid=380d4a53-3264-4aac-8a27-5aa75deef1df","ios":"levelo://app?vid=380d4a53-3264-4aac-8a27-5aa75deef1df"},"vehicle_type_id":"4","last_reported":1741943462,"current_range_meters":3600,"station_id":"ce4bgpp2rcd13ifvqc3g","pricing_plan_id":"cebpf4jnsgd1na2vs0mg"},{"bike_id":"05d8380b-7b3d-4a43-b2a6-b7f1009485fc","system_id":"levelo_inurba_marseille","lat":43.27213,"lon":5.39175,"is_reserved":false,"is_disabled":false,"rental_uris":{"android":"levelo://app?vid=05d8380b-7b3d-4a43-b2a6-b7f1009485fc","ios":"levelo://app?vid=05d8380b-7b3d-4a43-b2a6-b7f1009485fc"},"vehicle_type_id":"4","last_reported":1741943462,"current_range_meters":3600,"station_id":"ce4bhhp2rcd13ifvqfm0","pricing_plan_id":"cebpf4jnsgd1na2vs0mg"},{"bike_id":"d5ae4600-476e-4c8a-b248-76c73ec9f040","system_id":"levelo_inurba_marseille","lat":43.25006,"lon":5.38905,"is_reserved":false,"is_disabled":false,"rental_uris":{"android":"levelo://app?vid=d5ae4600-476e-4c8a-b248-76c73ec9f040","ios":"levelo://app?vid=d5ae4600-476e-4c8a-b248-76c73ec9f040"},"vehicle_type_id":"4","last_reported":1741943462,"current_range_meters":4000,"station_id":"ce4bhgp2rcd13ifvqfd0","pricing_plan_id":"cebpf4jnsgd1na2vs0mg"},{"bike_id":"7e2efce6-2abc-47be-8e98-d015769ebdaa","system_id":"levelo_inurba_marseille","lat":43.27435,"lon":5.41876,"is_reserved":false,"is_disabled":true,"rental_uris":{"android":"levelo://app?vid=7e2efce6-2abc-47be-8e98-d015769ebdaa","ios":"levelo://app?vid=7e2efce6-2abc-47be-8e98-d015769ebdaa"},"vehicle_type_id":"4","last_reported":1741943462,"current_range_meters":4000,"station_id":"","pricing_plan_id":"cebpf4jnsgd1na2vs0mg"},{"bike_id":"a8db261c-59f7-4595-8917-1e4ec344af4f","system_id":"levelo_inurba_marseille","lat":43.26547,"lon":5.39041,"is_reserved":false,"is_disabled":false,"rental_uris":{"android":"levelo://app?vid=a8db261c-59f7-4595-8917-1e4ec344af4f","ios":"levelo://app?vid=a8db261c-59f7-4595-8917-1e4ec344af4f"},"vehicle_type_id":"4","last_reported":1741943462,"current_range_meters":4000,"station_id":"ce4bhe12rcd13ifvqf30","pricing_plan_id":"cebpf4jnsgd1na2vs0mg"},{"bike_id":"2fe54254-5b11-4939-bb74-6fb31c1295ea","system_id":"levelo_inurba_marseille","lat":43.2294,"lon":5.35382,"is_reserved":false,"is_disabled":false,"rental_uris":{"android":"levelo://app?vid=2fe54254-5b11-4939-bb74-6fb31c1295ea","ios":"levelo://app?vid=2fe54254-5b11-4939-bb74-6fb31c1295ea"},"vehicle_type_id":"4","last_reported":1741943462,"current_range_meters":4000,"station_id":"cpo3532slgdg3j2ikp40","pricing_plan_id":"cebpf4jnsgd1na2vs0mg"},{"bike_id":"8e4be1d5-323f-4dba-ae0d-d32e6ec88265","system_id":"levelo_inurba_marseille","lat":43.27482,"lon":5.42461,"is_reserved":false,"is_disabled":false,"rental_uris":{"android":"levelo://app?vid=8e4be1d5-323f-4dba-ae0d-d32e6ec88265","ios":"levelo://app?vid=8e4be1d5-323f-4dba-ae0d-d32e6ec88265"},"vehicle_type_id":"4","last_reported":1741943462,"current_range_meters":4000,"station_id":"ce4bhn92rcd13ifvqgrg","pricing_plan_id":"cebpf4jnsgd1na2vs0mg"},{"bike_id":"8ca720cf-8cc7-4201-a29c-e07b0ffda00a","system_id":"levelo_inurba_marseille","lat":43.23196,"lon":5.3998,"is_reserved":false,"is_disabled":false,"rental_uris":{"android":"levelo://app?vid=8ca720cf-8cc7-4201-a29c-e07b0ffda00a","ios":"levelo://app?vid=8ca720cf-8cc7-4201-a29c-e07b0ffda00a"},"vehicle_type_id":"4","last_reported":1741943462,"current_range_meters":4000,"station_id":"ce4bhn12rcd13ifvqgqg","pricing_plan_id":"cebpf4jnsgd1na2vs0mg"},{"bike_id":"4921cd21-bb02-4c73-b020-cef32f79e567","system_id":"levelo_inurba_marseille","lat":43.3096,"lon":5.39048,"is_reserved":false,"is_disabled":false,"rental_uris":{"android":"levelo://app?vid=4921cd21-bb02-4c73-b020-cef32f79e567","ios":"levelo://app?vid=4921cd21-bb02-4c73-b020-cef32f79e567"},"vehicle_type_id":"4","last_reported":1741943462,"current_range_meters":4000,"station_id":"ce4bgup2rcd13ifvqco0","pricing_plan_id":"cebpf4jnsgd1na2vs0mg"},{"bike_id":"a47f788e-2f36-4999-959a-2f64a56d533e","system_id":"levelo_inurba_marseille","lat":43.24176,"lon":5.39725,"is_reserved":false,"is_disabled":false,"rental_uris":{"android":"levelo://app?vid=a47f788e-2f36-4999-959a-2f64a56d533e","ios":"levelo://app?vid=a47f788e-2f36-4999-959a-2f64a56d533e"},"vehicle_type_id":"4","last_reported":1741943462,"current_range_meters":4400,"station_id":"ce4bhn12rcd13ifvqgpg","pricing_plan_id":"cebpf4jnsgd1na2vs0mg"},{"bike_id":"a9db4657-dbb8-46bb-8b8e-4aa91db6f130","system_id":"levelo_inurba_marseille","lat":43.26943,"lon":5.402433,"is_reserved":false,"is_disabled":false,"rental_uris":{"android":"levelo://app?vid=a9db4657-dbb8-46bb-8b8e-4aa91db6f130","ios":"levelo://app?vid=a9db4657-dbb8-46bb-8b8e-4aa91db6f130"},"vehicle_type_id":"4","last_reported":1741943462,"current_range_meters":4400,"station_id":"ce4bhih2rcd13ifvqfs0","pricing_plan_id":"cebpf4jnsgd1na2vs0mg"},{"bike_id":"9f4183d2-5983-4ddf-80f1-c1fe6db73f77","system_id":"levelo_inurba_marseille","lat":43.29971,"lon":5.38493,"is_reserved":false,"is_disabled":false,"rental_uris":{"android":"levelo://app?vid=9f4183d2-5983-4ddf-80f1-c1fe6db73f77","ios":"levelo://app?vid=9f4183d2-5983-4ddf-80f1-c1fe6db73f77"},"vehicle_type_id":"4","last_reported":1741943462,"current_range_meters":4400,"station_id":"ce4bgj92rcd13ifvqbd0","pricing_plan_id":"cebpf4jnsgd1na2vs0mg"},{"bike_id":"e215d1f6-7508-4e2e-a820-c855d3c5f2c7","system_id":"levelo_inurba_marseille","lat":43.33024,"lon":5.39037,"is_reserved":false,"is_disabled":false,"rental_uris":{"android":"levelo://app?vid=e215d1f6-7508-4e2e-a820-c855d3c5f2c7","ios":"levelo://app?vid=e215d1f6-7508-4e2e-a820-c855d3c5f2c7"},"vehicle_type_id":"4","last_reported":1741943462,"current_range_meters":4400,"station_id":"ce4bhr92rcd13ifvqhrg","pricing_plan_id":"cebpf4jnsgd1na2vs0mg"},{"bike_id":"6ab36640-1c77-4e21-87b9-28fd3f490061","system_id":"levelo_inurba_marseille","lat":43.31189,"lon":5.36845,"is_reserved":false,"is_disabled":false,"rental_uris":{"android":"levelo://app?vid=6ab36640-1c77-4e21-87b9-28fd3f490061","ios":"levelo://app?vid=6ab36640-1c77-4e21-87b9-28fd3f490061"},"vehicle_type_id":"4","last_reported":1741943462,"current_range_meters":4400,"station_id":"ce4bgl92rcd13ifvqbq0","pricing_plan_id":"cebpf4jnsgd1na2vs0mg"},{"bike_id":"aa8f733b-d63e-4ce8-9986-cbfdeac58871","system_id":"levelo_inurba_marseille","lat":43.29911,"lon":5.38139,"is_reserved":false,"is_disabled":false,"rental_uris":{"android":"levelo://app?vid=aa8f733b-d63e-4ce8-9986-cbfdeac58871","ios":"levelo://app?vid=aa8f733b-d63e-4ce8-9986-cbfdeac58871"},"vehicle_type_id":"4","last_reported":1741943462,"current_range_meters":4800,"station_id":"ce4bgj12rcd13ifvqbc0","pricing_plan_id":"cebpf4jnsgd1na2vs0mg"},{"bike_id":"e3ac629b-3f4d-485e-89ba-194785893239","system_id":"levelo_inurba_marseille","lat":43.24073,"lon":5.37761,"is_reserved":false,"is_disabled":false,"rental_uris":{"android":"levelo://app?vid=e3ac629b-3f4d-485e-89ba-194785893239","ios":"levelo://app?vid=e3ac629b-3f4d-485e-89ba-194785893239"},"vehicle_type_id":"4","last_reported":1741943462,"current_range_meters":5600,"station_id":"ce4bhnp2rcd13ifvqgvg","pricing_plan_id":"cebpf4jnsgd1na2vs0mg"},{"bike_id":"a4acc583-7b24-4665-929d-fada161a91f7","system_id":"levelo_inurba_marseille","lat":43.29488,"lon":5.44434,"is_reserved":false,"is_disabled":false,"rental_uris":{"android":"levelo://app?vid=a4acc583-7b24-4665-929d-fada161a91f7","ios":"levelo://app?vid=a4acc583-7b24-4665-929d-fada161a91f7"},"vehicle_type_id":"4","last_reported":1741943462,"current_range_meters":5600,"station_id":"","pricing_plan_id":"cebpf4jnsgd1na2vs0mg"},{"bike_id":"d7cf3da4-03cf-4eae-b183-47670a6b872f","system_id":"levelo_inurba_marseille","lat":43.23195,"lon":5.35555,"is_reserved":false,"is_disabled":false,"rental_uris":{"android":"levelo://app?vid=d7cf3da4-03cf-4eae-b183-47670a6b872f","ios":"levelo://app?vid=d7cf3da4-03cf-4eae-b183-47670a6b872f"},"vehicle_type_id":"4","last_reported":1741943462,"current_range_meters":5600,"station_id":"ce4bhu92rcd13ifvqi70","pricing_plan_id":"cebpf4jnsgd1na2vs0mg"},{"bike_id":"7b35ad81-591c-4cc8-b125-1210315faf0d","system_id":"levelo_inurba_marseille","lat":43.23145,"lon":5.43702,"is_reserved":false,"is_disabled":false,"rental_uris":{"android":"levelo://app?vid=7b35ad81-591c-4cc8-b125-1210315faf0d","ios":"levelo://app?vid=7b35ad81-591c-4cc8-b125-1210315faf0d"},"vehicle_type_id":"4","last_reported":1741943462,"current_range_meters":5600,"station_id":"ce4bhmp2rcd13ifvqgog","pricing_plan_id":"cebpf4jnsgd1na2vs0mg"},{"bike_id":"6236a2e1-b6a6-449f-89d9-a554037a40cf","system_id":"levelo_inurba_marseille","lat":43.303438,"lon":5.3783,"is_reserved":false,"is_disabled":false,"rental_uris":{"android":"levelo://app?vid=6236a2e1-b6a6-449f-89d9-a554037a40cf","ios":"levelo://app?vid=6236a2e1-b6a6-449f-89d9-a554037a40cf"},"vehicle_type_id":"4","last_reported":1741943462,"current_range_meters":5600,"station_id":"","pricing_plan_id":"cebpf4jnsgd1na2vs0mg"},{"bike_id":"931a65f6-98be-4189-b167-a49aeaf4dc43","system_id":"levelo_inurba_marseille","lat":43.25047,"lon":5.38897,"is_reserved":false,"is_disabled":false,"rental_uris":{"android":"levelo://app?vid=931a65f6-98be-4189-b167-a49aeaf4dc43","ios":"levelo://app?vid=931a65f6-98be-4189-b167-a49aeaf4dc43"},"vehicle_type_id":"4","last_reported":1741943462,"current_range_meters":5600,"station_id":"","pricing_plan_id":"cebpf4jnsgd1na2vs0mg"},{"bike_id":"f67cfe71-0570-4b15-84b5-d3d09113ef37","system_id":"levelo_inurba_marseille","lat":43.30952,"lon":5.39029,"is_reserved":false,"is_disabled":false,"rental_uris":{"android":"levelo://app?vid=f67cfe71-0570-4b15-84b5-d3d09113ef37","ios":"levelo://app?vid=f67cfe71-0570-4b15-84b5-d3d09113ef37"},"vehicle_type_id":"4","last_reported":1741943462,"current_range_meters":5600,"station_id":"ce4bgup2rcd13ifvqco0","pricing_plan_id":"cebpf4jnsgd1na2vs0mg"},{"bike_id":"b9376c03-0418-4f06-8e27-79a7fd324fac","system_id":"levelo_inurba_marseille","lat":43.292667,"lon":5.384362,"is_reserved":false,"is_disabled":false,"rental_uris":{"android":"levelo://app?vid=b9376c03-0418-4f06-8e27-79a7fd324fac","ios":"levelo://app?vid=b9376c03-0418-4f06-8e27-79a7fd324fac"},"vehicle_type_id":"4","last_reported":1741943462,"current_range_meters":6000,"station_id":"ce4bhmp2rcd13ifvqgog","pricing_plan_id":"cebpf4jnsgd1na2vs0mg"},{"bike_id":"f55bafc7-af14-42c7-a588-b061f614454e","system_id":"levelo_inurba_marseille","lat":43.28155,"lon":5.42657,"is_reserved":false,"is_disabled":false,"rental_uris":{"android":"levelo://app?vid=f55bafc7-af14-42c7-a588-b061f614454e","ios":"levelo://app?vid=f55bafc7-af14-42c7-a588-b061f614454e"},"vehicle_type_id":"4","last_reported":1741943462,"current_range_meters":6000,"station_id":"ce4bhnh2rcd13ifvqgug","pricing_plan_id":"cebpf4jnsgd1na2vs0mg"},{"bike_id":"db7198b7-4986-487c-848f-b6fa2eea4556","system_id":"levelo_inurba_marseille","lat":43.319961,"lon":5.381415,"is_reserved":false,"is_disabled":false,"rental_uris":{"android":"levelo://app?vid=db7198b7-4986-487c-848f-b6fa2eea4556","ios":"levelo://app?vid=db7198b7-4986-487c-848f-b6fa2eea4556"},"vehicle_type_id":"4","last_reported":1741943462,"current_range_meters":6000,"station_id":"ce4bhr12rcd13ifvqhpg","pricing_plan_id":"cebpf4jnsgd1na2vs0mg"},{"bike_id":"f9d83b46-dea4-41bc-ad92-bc75b2fd9586","system_id":"levelo_inurba_marseille","lat":43.26683,"lon":5.38277,"is_reserved":false,"is_disabled":false,"rental_uris":{"android":"levelo://app?vid=f9d83b46-dea4-41bc-ad92-bc75b2fd9586","ios":"levelo://app?vid=f9d83b46-dea4-41bc-ad92-bc75b2fd9586"},"vehicle_type_id":"4","last_reported":1741943462,"current_range_meters":6000,"station_id":"ce4bhg92rcd13ifvqf90","pricing_plan_id":"cebpf4jnsgd1na2vs0mg"},{"bike_id":"7106f76c-9450-433f-b6ee-8e5c587e83df","system_id":"levelo_inurba_marseille","lat":43.30953,"lon":5.39039,"is_reserved":false,"is_disabled":false,"rental_uris":{"android":"levelo://app?vid=7106f76c-9450-433f-b6ee-8e5c587e83df","ios":"levelo://app?vid=7106f76c-9450-433f-b6ee-8e5c587e83df"},"vehicle_type_id":"4","last_reported":1741943462,"current_range_meters":6000,"station_id":"ce4bgup2rcd13ifvqco0","pricing_plan_id":"cebpf4jnsgd1na2vs0mg"},{"bike_id":"6abe6a67-ac01-4ffe-a9fb-f7b5de19c74d","system_id":"levelo_inurba_marseille","lat":43.32536,"lon":5.41453,"is_reserved":false,"is_disabled":false,"rental_uris":{"android":"levelo://app?vid=6abe6a67-ac01-4ffe-a9fb-f7b5de19c74d","ios":"levelo://app?vid=6abe6a67-ac01-4ffe-a9fb-f7b5de19c74d"},"vehicle_type_id":"4","last_reported":1741943462,"current_range_meters":6400,"station_id":"ce4bhq12rcd13ifvqhhg","pricing_plan_id":"cebpf4jnsgd1na2vs0mg"},{"bike_id":"ba217c55-c3b6-4155-8257-f0b33becfeb3","system_id":"levelo_inurba_marseille","lat":43.2809,"lon":5.37861,"is_reserved":false,"is_disabled":false,"rental_uris":{"android":"levelo://app?vid=ba217c55-c3b6-4155-8257-f0b33becfeb3","ios":"levelo://app?vid=ba217c55-c3b6-4155-8257-f0b33becfeb3"},"vehicle_type_id":"4","last_reported":1741943462,"current_range_meters":6400,"station_id":"ce4bha12rcd13ifvqee0","pricing_plan_id":"cebpf4jnsgd1na2vs0mg"},{"bike_id":"8078b5c0-adff-4cbf-8295-2664d0c525bc","system_id":"levelo_inurba_marseille","lat":43.30155,"lon":5.38084,"is_reserved":false,"is_disabled":false,"rental_uris":{"android":"levelo://app?vid=8078b5c0-adff-4cbf-8295-2664d0c525bc","ios":"levelo://app?vid=8078b5c0-adff-4cbf-8295-2664d0c525bc"},"vehicle_type_id":"4","last_reported":1741943462,"current_range_meters":6400,"station_id":"ce4bgjp2rcd13ifvqbh0","pricing_plan_id":"cebpf4jnsgd1na2vs0mg"},{"bike_id":"cd62f0b0-e712-4ed8-b222-8e7cb2c87e1b","system_id":"levelo_inurba_marseille","lat":43.23589,"lon":5.40338,"is_reserved":false,"is_disabled":false,"rental_uris":{"android":"levelo://app?vid=cd62f0b0-e712-4ed8-b222-8e7cb2c87e1b","ios":"levelo://app?vid=cd62f0b0-e712-4ed8-b222-8e7cb2c87e1b"},"vehicle_type_id":"4","last_reported":1741943462,"current_range_meters":6400,"station_id":"","pricing_plan_id":"cebpf4jnsgd1na2vs0mg"},{"bike_id":"9ff4e757-fe4d-4091-a0e6-d2f3479d6b2b","system_id":"levelo_inurba_marseille","lat":43.30538,"lon":5.36713,"is_reserved":false,"is_disabled":false,"rental_uris":{"android":"levelo://app?vid=9ff4e757-fe4d-4091-a0e6-d2f3479d6b2b","ios":"levelo://app?vid=9ff4e757-fe4d-4091-a0e6-d2f3479d6b2b"},"vehicle_type_id":"4","last_reported":1741943462,"current_range_meters":6400,"station_id":"ce4bgrp2rcd13ifvqc9g","pricing_plan_id":"cebpf4jnsgd1na2vs0mg"},{"bike_id":"e3c19431-8f30-48ae-90d3-53abb0d0acee","system_id":"levelo_inurba_marseille","lat":43.29035,"lon":5.39956,"is_reserved":false,"is_disabled":false,"rental_uris":{"android":"levelo://app?vid=e3c19431-8f30-48ae-90d3-53abb0d0acee","ios":"levelo://app?vid=e3c19431-8f30-48ae-90d3-53abb0d0acee"},"vehicle_type_id":"4","last_reported":1741943462,"current_range_meters":6400,"station_id":"ce4bh392rcd13ifvqdm0","pricing_plan_id":"cebpf4jnsgd1na2vs0mg"},{"bike_id":"fe2dbfad-2b3c-45be-b26a-7ab6c0dcbc97","system_id":"levelo_inurba_marseille","lat":43.301461,"lon":5.376839,"is_reserved":false,"is_disabled":false,"rental_uris":{"android":"levelo://app?vid=fe2dbfad-2b3c-45be-b26a-7ab6c0dcbc97","ios":"levelo://app?vid=fe2dbfad-2b3c-45be-b26a-7ab6c0dcbc97"},"vehicle_type_id":"4","last_reported":1741943462,"current_range_meters":6400,"station_id":"","pricing_plan_id":"cebpf4jnsgd1na2vs0mg"},{"bike_id":"3e052f78-610f-4c3b-8bb7-3204cf1ee4e4","system_id":"levelo_inurba_marseille","lat":43.31383,"lon":5.36677,"is_reserved":false,"is_disabled":false,"rental_uris":{"android":"levelo://app?vid=3e052f78-610f-4c3b-8bb7-3204cf1ee4e4","ios":"levelo://app?vid=3e052f78-610f-4c3b-8bb7-3204cf1ee4e4"},"vehicle_type_id":"4","last_reported":1741943462,"current_range_meters":6400,"station_id":"ce4bgr92rcd13ifvqc6g","pricing_plan_id":"cebpf4jnsgd1na2vs0mg"},{"bike_id":"35a9e4f1-17ac-47cf-84ad-97a570c36f72","system_id":"levelo_inurba_marseille","lat":43.31483,"lon":5.3731,"is_reserved":false,"is_disabled":false,"rental_uris":{"android":"levelo://app?vid=35a9e4f1-17ac-47cf-84ad-97a570c36f72","ios":"levelo://app?vid=35a9e4f1-17ac-47cf-84ad-97a570c36f72"},"vehicle_type_id":"4","last_reported":1741943462,"current_range_meters":6800,"station_id":"ce4bgt12rcd13ifvqcd0","pricing_plan_id":"cebpf4jnsgd1na2vs0mg"},{"bike_id":"67414d52-13ce-4025-b386-e9b3544f5ad5","system_id":"levelo_inurba_marseille","lat":43.26673,"lon":5.38263,"is_reserved":false,"is_disabled":false,"rental_uris":{"android":"levelo://app?vid=67414d52-13ce-4025-b386-e9b3544f5ad5","ios":"levelo://app?vid=67414d52-13ce-4025-b386-e9b3544f5ad5"},"vehicle_type_id":"4","last_reported":1741943462,"current_range_meters":6800,"station_id":"ce4bhg92rcd13ifvqf90","pricing_plan_id":"cebpf4jnsgd1na2vs0mg"},{"bike_id":"b363f8b8-2518-47c4-9880-4e754d1b57c8","system_id":"levelo_inurba_marseille","lat":43.30919,"lon":5.40151,"is_reserved":false,"is_disabled":false,"rental_uris":{"android":"levelo://app?vid=b363f8b8-2518-47c4-9880-4e754d1b57c8","ios":"levelo://app?vid=b363f8b8-2518-47c4-9880-4e754d1b57c8"},"vehicle_type_id":"4","last_reported":1741943462,"current_range_meters":6800,"station_id":"ce4bgvp2rcd13ifvqct0","pricing_plan_id":"cebpf4jnsgd1na2vs0mg"},{"bike_id":"154d0f4a-7cf1-4b4a-8919-807104d462e1","system_id":"levelo_inurba_marseille","lat":43.26664,"lon":5.3863,"is_reserved":false,"is_disabled":false,"rental_uris":{"android":"levelo://app?vid=154d0f4a-7cf1-4b4a-8919-807104d462e1","ios":"levelo://app?vid=154d0f4a-7cf1-4b4a-8919-807104d462e1"},"vehicle_type_id":"4","last_reported":1741943462,"current_range_meters":6800,"station_id":"","pricing_plan_id":"cebpf4jnsgd1na2vs0mg"},{"bike_id":"89127bd3-34dd-4963-8870-41e81663fc3c","system_id":"levelo_inurba_marseille","lat":43.26938,"lon":5.38644,"is_reserved":false,"is_disabled":false,"rental_uris":{"android":"levelo://app?vid=89127bd3-34dd-4963-8870-41e81663fc3c","ios":"levelo://app?vid=89127bd3-34dd-4963-8870-41e81663fc3c"},"vehicle_type_id":"4","last_reported":1741943462,"current_range_meters":6800,"station_id":"ce4bhh92rcd13ifvqfh0","pricing_plan_id":"cebpf4jnsgd1na2vs0mg"},{"bike_id":"2d0dc26f-16c5-4349-9d77-28bcbcf91c1e","system_id":"levelo_inurba_marseille","lat":43.28924,"lon":5.36407,"is_reserved":false,"is_disabled":false,"rental_uris":{"android":"levelo://app?vid=2d0dc26f-16c5-4349-9d77-28bcbcf91c1e","ios":"levelo://app?vid=2d0dc26f-16c5-4349-9d77-28bcbcf91c1e"},"vehicle_type_id":"4","last_reported":1741943462,"current_range_meters":6800,"station_id":"ce4bhc92rcd13ifvqetg","pricing_plan_id":"cebpf4jnsgd1na2vs0mg"},{"bike_id":"e350ce66-a995-469c-b4d1-ba6658fe49e2","system_id":"levelo_inurba_marseille","lat":43.27811,"lon":5.40718,"is_reserved":false,"is_disabled":false,"rental_uris":{"android":"levelo://app?vid=e350ce66-a995-469c-b4d1-ba6658fe49e2","ios":"levelo://app?vid=e350ce66-a995-469c-b4d1-ba6658fe49e2"},"vehicle_type_id":"4","last_reported":1741943462,"current_range_meters":6800,"station_id":"ce4bhnh2rcd13ifvqgtg","pricing_plan_id":"cebpf4jnsgd1na2vs0mg"},{"bike_id":"155c7165-40f9-4638-84a1-91e91cddb9e0","system_id":"levelo_inurba_marseille","lat":43.30813,"lon":5.37358,"is_reserved":false,"is_disabled":false,"rental_uris":{"android":"levelo://app?vid=155c7165-40f9-4638-84a1-91e91cddb9e0","ios":"levelo://app?vid=155c7165-40f9-4638-84a1-91e91cddb9e0"},"vehicle_type_id":"4","last_reported":1741943462,"current_range_meters":7200,"station_id":"","pricing_plan_id":"cebpf4jnsgd1na2vs0mg"},{"bike_id":"9a760242-da69-49dd-853b-1bd41ccfec5d","system_id":"levelo_inurba_marseille","lat":43.31683,"lon":5.40483,"is_reserved":false,"is_disabled":false,"rental_uris":{"android":"levelo://app?vid=9a760242-da69-49dd-853b-1bd41ccfec5d","ios":"levelo://app?vid=9a760242-da69-49dd-853b-1bd41ccfec5d"},"vehicle_type_id":"4","last_reported":1741943462,"current_range_meters":6800,"station_id":"ce4bh012rcd13ifvqd00","pricing_plan_id":"cebpf4jnsgd1na2vs0mg"},{"bike_id":"83aa7ab2-d352-459f-bd36-67e70fb4a7aa","system_id":"levelo_inurba_marseille","lat":43.25935,"lon":5.40915,"is_reserved":false,"is_disabled":false,"rental_uris":{"android":"levelo://app?vid=83aa7ab2-d352-459f-bd36-67e70fb4a7aa","ios":"levelo://app?vid=83aa7ab2-d352-459f-bd36-67e70fb4a7aa"},"vehicle_type_id":"4","last_reported":1741943462,"current_range_meters":7200,"station_id":"ce4bhm92rcd13ifvqglg","pricing_plan_id":"cebpf4jnsgd1na2vs0mg"},{"bike_id":"ab3b3273-086b-4458-b5bf-fb61a149b41e","system_id":"levelo_inurba_marseille","lat":43.26229,"lon":5.40439,"is_reserved":false,"is_disabled":false,"rental_uris":{"android":"levelo://app?vid=ab3b3273-086b-4458-b5bf-fb61a149b41e","ios":"levelo://app?vid=ab3b3273-086b-4458-b5bf-fb61a149b41e"},"vehicle_type_id":"4","last_reported":1741943462,"current_range_meters":7200,"station_id":"ce4bhmh2rcd13ifvqgmg","pricing_plan_id":"cebpf4jnsgd1na2vs0mg"},{"bike_id":"1ab4d6f2-e4da-4707-985c-a25d51be281d","system_id":"levelo_inurba_marseille","lat":43.24092,"lon":5.37737,"is_reserved":false,"is_disabled":true,"rental_uris":{"android":"levelo://app?vid=1ab4d6f2-e4da-4707-985c-a25d51be281d","ios":"levelo://app?vid=1ab4d6f2-e4da-4707-985c-a25d51be281d"},"vehicle_type_id":"4","last_reported":1741943462,"current_range_meters":7200,"station_id":"ce4bhnp2rcd13ifvqgvg","pricing_plan_id":"cebpf4jnsgd1na2vs0mg"},{"bike_id":"1cbeb49c-8d51-46f2-ad03-8af78ea79d9a","system_id":"levelo_inurba_marseille","lat":43.24179,"lon":5.39725,"is_reserved":false,"is_disabled":false,"rental_uris":{"android":"levelo://app?vid=1cbeb49c-8d51-46f2-ad03-8af78ea79d9a","ios":"levelo://app?vid=1cbeb49c-8d51-46f2-ad03-8af78ea79d9a"},"vehicle_type_id":"4","last_reported":1741943462,"current_range_meters":7200,"station_id":"ce4bhn12rcd13ifvqgpg","pricing_plan_id":"cebpf4jnsgd1na2vs0mg"},{"bike_id":"d0be61ee-8c6c-4bf7-99b6-f099a281a656","system_id":"levelo_inurba_marseille","lat":43.24977,"lon":5.3896,"is_reserved":false,"is_disabled":false,"rental_uris":{"android":"levelo://app?vid=d0be61ee-8c6c-4bf7-99b6-f099a281a656","ios":"levelo://app?vid=d0be61ee-8c6c-4bf7-99b6-f099a281a656"},"vehicle_type_id":"4","last_reported":1741943462,"current_range_meters":7200,"station_id":"ce4bhgp2rcd13ifvqfd0","pricing_plan_id":"cebpf4jnsgd1na2vs0mg"},{"bike_id":"45dce5d6-fdd9-43b7-8cb1-c7832923b7a4","system_id":"levelo_inurba_marseille","lat":43.27057,"lon":5.40263,"is_reserved":false,"is_disabled":false,"rental_uris":{"android":"levelo://app?vid=45dce5d6-fdd9-43b7-8cb1-c7832923b7a4","ios":"levelo://app?vid=45dce5d6-fdd9-43b7-8cb1-c7832923b7a4"},"vehicle_type_id":"4","last_reported":1741943462,"current_range_meters":7200,"station_id":"ce4bhk92rcd13ifvqgc0","pricing_plan_id":"cebpf4jnsgd1na2vs0mg"},{"bike_id":"74c86b19-98d8-4a94-939f-5978377ff855","system_id":"levelo_inurba_marseille","lat":43.29037,"lon":5.39975,"is_reserved":false,"is_disabled":false,"rental_uris":{"android":"levelo://app?vid=74c86b19-98d8-4a94-939f-5978377ff855","ios":"levelo://app?vid=74c86b19-98d8-4a94-939f-5978377ff855"},"vehicle_type_id":"4","last_reported":1741943462,"current_range_meters":7200,"station_id":"ce4bh392rcd13ifvqdm0","pricing_plan_id":"cebpf4jnsgd1na2vs0mg"},{"bike_id":"39df283f-35a5-4c44-9f0d-6dd6923a19a4","system_id":"levelo_inurba_marseille","lat":43.32111,"lon":5.3678,"is_reserved":false,"is_disabled":false,"rental_uris":{"android":"levelo://app?vid=39df283f-35a5-4c44-9f0d-6dd6923a19a4","ios":"levelo://app?vid=39df283f-35a5-4c44-9f0d-6dd6923a19a4"},"vehicle_type_id":"4","last_reported":1741943462,"current_range_meters":7200,"station_id":"ce4bhrh2rcd13ifvqhug","pricing_plan_id":"cebpf4jnsgd1na2vs0mg"},{"bike_id":"814c8ec0-7f86-43ef-a1aa-fb2c579e864f","system_id":"levelo_inurba_marseille","lat":43.30464,"lon":5.38208,"is_reserved":false,"is_disabled":false,"rental_uris":{"android":"levelo://app?vid=814c8ec0-7f86-43ef-a1aa-fb2c579e864f","ios":"levelo://app?vid=814c8ec0-7f86-43ef-a1aa-fb2c579e864f"},"vehicle_type_id":"4","last_reported":1741943462,"current_range_meters":8000,"station_id":"","pricing_plan_id":"cebpf4jnsgd1na2vs0mg"},{"bike_id":"27a9a62b-6368-4179-8f2c-f6dd6040539e","system_id":"levelo_inurba_marseille","lat":43.2621,"lon":5.37439,"is_reserved":false,"is_disabled":false,"rental_uris":{"android":"levelo://app?vid=27a9a62b-6368-4179-8f2c-f6dd6040539e","ios":"levelo://app?vid=27a9a62b-6368-4179-8f2c-f6dd6040539e"},"vehicle_type_id":"4","last_reported":1741943462,"current_range_meters":8000,"station_id":"ce4bhgp2rcd13ifvqfc0","pricing_plan_id":"cebpf4jnsgd1na2vs0mg"},{"bike_id":"727a5ed7-6be1-4f23-b6e4-33ba598f6763","system_id":"levelo_inurba_marseille","lat":43.27691,"lon":5.38932,"is_reserved":false,"is_disabled":false,"rental_uris":{"android":"levelo://app?vid=727a5ed7-6be1-4f23-b6e4-33ba598f6763","ios":"levelo://app?vid=727a5ed7-6be1-4f23-b6e4-33ba598f6763"},"vehicle_type_id":"4","last_reported":1741943462,"current_range_meters":8000,"station_id":"ce4bhi12rcd13ifvqfo0","pricing_plan_id":"cebpf4jnsgd1na2vs0mg"},{"bike_id":"af5df027-9916-41a5-8ab7-db2182f63a1a","system_id":"levelo_inurba_marseille","lat":43.29287,"lon":5.37453,"is_reserved":false,"is_disabled":false,"rental_uris":{"android":"levelo://app?vid=af5df027-9916-41a5-8ab7-db2182f63a1a","ios":"levelo://app?vid=af5df027-9916-41a5-8ab7-db2182f63a1a"},"vehicle_type_id":"4","last_reported":1741943462,"current_range_meters":8000,"station_id":"ce4bgi12rcd13ifvqb70","pricing_plan_id":"cebpf4jnsgd1na2vs0mg"},{"bike_id":"b78c10b7-b880-4638-b672-f8fc61bd3c48","system_id":"levelo_inurba_marseille","lat":43.24084,"lon":5.37744,"is_reserved":false,"is_disabled":false,"rental_uris":{"android":"levelo://app?vid=b78c10b7-b880-4638-b672-f8fc61bd3c48","ios":"levelo://app?vid=b78c10b7-b880-4638-b672-f8fc61bd3c48"},"vehicle_type_id":"4","last_reported":1741943462,"current_range_meters":8000,"station_id":"ce4bhnp2rcd13ifvqgvg","pricing_plan_id":"cebpf4jnsgd1na2vs0mg"},{"bike_id":"54bf63aa-0a8b-42b0-93c1-c2256fbfeabf","system_id":"levelo_inurba_marseille","lat":43.2656,"lon":5.39027,"is_reserved":false,"is_disabled":false,"rental_uris":{"android":"levelo://app?vid=54bf63aa-0a8b-42b0-93c1-c2256fbfeabf","ios":"levelo://app?vid=54bf63aa-0a8b-42b0-93c1-c2256fbfeabf"},"vehicle_type_id":"4","last_reported":1741943462,"current_range_meters":8400,"station_id":"ce4bhe12rcd13ifvqf30","pricing_plan_id":"cebpf4jnsgd1na2vs0mg"},{"bike_id":"46bece52-8859-43a4-ad82-813be44fa8ec","system_id":"levelo_inurba_marseille","lat":43.25922,"lon":5.40905,"is_reserved":false,"is_disabled":true,"rental_uris":{"android":"levelo://app?vid=46bece52-8859-43a4-ad82-813be44fa8ec","ios":"levelo://app?vid=46bece52-8859-43a4-ad82-813be44fa8ec"},"vehicle_type_id":"4","last_reported":1741943462,"current_range_meters":8400,"station_id":"ce4bhm92rcd13ifvqglg","pricing_plan_id":"cebpf4jnsgd1na2vs0mg"},{"bike_id":"8939fbba-2fc8-450a-9027-04db4f4e697a","system_id":"levelo_inurba_marseille","lat":43.31406,"lon":5.4047,"is_reserved":false,"is_disabled":false,"rental_uris":{"android":"levelo://app?vid=8939fbba-2fc8-450a-9027-04db4f4e697a","ios":"levelo://app?vid=8939fbba-2fc8-450a-9027-04db4f4e697a"},"vehicle_type_id":"4","last_reported":1741943462,"current_range_meters":8400,"station_id":"","pricing_plan_id":"cebpf4jnsgd1na2vs0mg"},{"bike_id":"6db0a08e-65f7-4507-b567-93fcdf6d09f6","system_id":"levelo_inurba_marseille","lat":43.25588,"lon":5.3823,"is_reserved":false,"is_disabled":false,"rental_uris":{"android":"levelo://app?vid=6db0a08e-65f7-4507-b567-93fcdf6d09f6","ios":"levelo://app?vid=6db0a08e-65f7-4507-b567-93fcdf6d09f6"},"vehicle_type_id":"4","last_reported":1741943462,"current_range_meters":8400,"station_id":"ce4bhih2rcd13ifvqfs0","pricing_plan_id":"cebpf4jnsgd1na2vs0mg"},{"bike_id":"6e9131d6-530f-404e-88ef-490fae00f6c8","system_id":"levelo_inurba_marseille","lat":43.31521,"lon":5.38071,"is_reserved":false,"is_disabled":false,"rental_uris":{"android":"levelo://app?vid=6e9131d6-530f-404e-88ef-490fae00f6c8","ios":"levelo://app?vid=6e9131d6-530f-404e-88ef-490fae00f6c8"},"vehicle_type_id":"4","last_reported":1741943462,"current_range_meters":8400,"station_id":"ce4bhsp2rcd13ifvqi50","pricing_plan_id":"cebpf4jnsgd1na2vs0mg"},{"bike_id":"0bfd9e76-30fe-4bff-8ae0-45f5daf161a1","system_id":"levelo_inurba_marseille","lat":43.30945,"lon":5.39034,"is_reserved":false,"is_disabled":false,"rental_uris":{"android":"levelo://app?vid=0bfd9e76-30fe-4bff-8ae0-45f5daf161a1","ios":"levelo://app?vid=0bfd9e76-30fe-4bff-8ae0-45f5daf161a1"},"vehicle_type_id":"4","last_reported":1741943462,"current_range_meters":8400,"station_id":"ce4bgup2rcd13ifvqco0","pricing_plan_id":"cebpf4jnsgd1na2vs0mg"},{"bike_id":"903f35f7-1a95-417f-9e61-c74e7ad96872","system_id":"levelo_inurba_marseille","lat":43.275,"lon":5.42459,"is_reserved":false,"is_disabled":false,"rental_uris":{"android":"levelo://app?vid=903f35f7-1a95-417f-9e61-c74e7ad96872","ios":"levelo://app?vid=903f35f7-1a95-417f-9e61-c74e7ad96872"},"vehicle_type_id":"4","last_reported":1741943462,"current_range_meters":8000,"station_id":"ce4bhn92rcd13ifvqgrg","pricing_plan_id":"cebpf4jnsgd1na2vs0mg"},{"bike_id":"34ec3c84-64e6-4701-a628-fb29852582e1","system_id":"levelo_inurba_marseille","lat":43.28353,"lon":5.38104,"is_reserved":false,"is_disabled":false,"rental_uris":{"android":"levelo://app?vid=34ec3c84-64e6-4701-a628-fb29852582e1","ios":"levelo://app?vid=34ec3c84-64e6-4701-a628-fb29852582e1"},"vehicle_type_id":"4","last_reported":1741943462,"current_range_meters":8400,"station_id":"ce4bh412rcd13ifvqdr0","pricing_plan_id":"cebpf4jnsgd1na2vs0mg"},{"bike_id":"1179ea35-4831-4438-984a-d67269a5255b","system_id":"levelo_inurba_marseille","lat":43.23197,"lon":5.35549,"is_reserved":false,"is_disabled":false,"rental_uris":{"android":"levelo://app?vid=1179ea35-4831-4438-984a-d67269a5255b","ios":"levelo://app?vid=1179ea35-4831-4438-984a-d67269a5255b"},"vehicle_type_id":"4","last_reported":1741943462,"current_range_meters":8400,"station_id":"ce4bhu92rcd13ifvqi70","pricing_plan_id":"cebpf4jnsgd1na2vs0mg"},{"bike_id":"150b3b69-cce0-417e-b078-1fb5ce62bcdb","system_id":"levelo_inurba_marseille","lat":43.24062,"lon":5.37759,"is_reserved":false,"is_disabled":false,"rental_uris":{"android":"levelo://app?vid=150b3b69-cce0-417e-b078-1fb5ce62bcdb","ios":"levelo://app?vid=150b3b69-cce0-417e-b078-1fb5ce62bcdb"},"vehicle_type_id":"4","last_reported":1741943462,"current_range_meters":8400,"station_id":"ce4bhnp2rcd13ifvqgvg","pricing_plan_id":"cebpf4jnsgd1na2vs0mg"},{"bike_id":"f926aefb-e54c-4c8f-8cea-ce3de9732eba","system_id":"levelo_inurba_marseille","lat":43.33603,"lon":5.41042,"is_reserved":false,"is_disabled":false,"rental_uris":{"android":"levelo://app?vid=f926aefb-e54c-4c8f-8cea-ce3de9732eba","ios":"levelo://app?vid=f926aefb-e54c-4c8f-8cea-ce3de9732eba"},"vehicle_type_id":"4","last_reported":1741943462,"current_range_meters":8400,"station_id":"ce4bhqh2rcd13ifvqhmg","pricing_plan_id":"cebpf4jnsgd1na2vs0mg"},{"bike_id":"b2aa335c-dba9-42ee-a73f-9b72bdc72de8","system_id":"levelo_inurba_marseille","lat":43.2751,"lon":5.42476,"is_reserved":false,"is_disabled":true,"rental_uris":{"android":"levelo://app?vid=b2aa335c-dba9-42ee-a73f-9b72bdc72de8","ios":"levelo://app?vid=b2aa335c-dba9-42ee-a73f-9b72bdc72de8"},"vehicle_type_id":"4","last_reported":1741943462,"current_range_meters":8400,"station_id":"ce4bhn92rcd13ifvqgrg","pricing_plan_id":"cebpf4jnsgd1na2vs0mg"},{"bike_id":"4afd2fd8-efd9-45d9-9c83-99a19870b731","system_id":"levelo_inurba_marseille","lat":43.29585,"lon":5.37515,"is_reserved":false,"is_disabled":false,"rental_uris":{"android":"levelo://app?vid=4afd2fd8-efd9-45d9-9c83-99a19870b731","ios":"levelo://app?vid=4afd2fd8-efd9-45d9-9c83-99a19870b731"},"vehicle_type_id":"4","last_reported":1741943462,"current_range_meters":8400,"station_id":"ce4bgh92rcd13ifvqb50","pricing_plan_id":"cebpf4jnsgd1na2vs0mg"},{"bike_id":"9a3be435-b513-46b3-bceb-7796b6b819f2","system_id":"levelo_inurba_marseille","lat":43.27913,"lon":5.39585,"is_reserved":false,"is_disabled":false,"rental_uris":{"android":"levelo://app?vid=9a3be435-b513-46b3-bceb-7796b6b819f2","ios":"levelo://app?vid=9a3be435-b513-46b3-bceb-7796b6b819f2"},"vehicle_type_id":"4","last_reported":1741943462,"current_range_meters":8400,"station_id":"ce4bhf92rcd13ifvqf40","pricing_plan_id":"cebpf4jnsgd1na2vs0mg"},{"bike_id":"58953ad0-ae88-4a58-9ac6-f797dd69f44e","system_id":"levelo_inurba_marseille","lat":43.25006,"lon":5.38937,"is_reserved":false,"is_disabled":false,"rental_uris":{"android":"levelo://app?vid=58953ad0-ae88-4a58-9ac6-f797dd69f44e","ios":"levelo://app?vid=58953ad0-ae88-4a58-9ac6-f797dd69f44e"},"vehicle_type_id":"4","last_reported":1741943462,"current_range_meters":8800,"station_id":"ce4bhgp2rcd13ifvqfd0","pricing_plan_id":"cebpf4jnsgd1na2vs0mg"},{"bike_id":"6cec560f-8635-4801-8462-637e6f2c72c5","system_id":"levelo_inurba_marseille","lat":43.232034,"lon":5.355492,"is_reserved":false,"is_disabled":false,"rental_uris":{"android":"levelo://app?vid=6cec560f-8635-4801-8462-637e6f2c72c5","ios":"levelo://app?vid=6cec560f-8635-4801-8462-637e6f2c72c5"},"vehicle_type_id":"4","last_reported":1741943462,"current_range_meters":8800,"station_id":"ce4bhu92rcd13ifvqi70","pricing_plan_id":"cebpf4jnsgd1na2vs0mg"},{"bike_id":"9c3e4b46-832b-4289-80ad-c1a013b4a69f","system_id":"levelo_inurba_marseille","lat":43.28718,"lon":5.37939,"is_reserved":false,"is_disabled":false,"rental_uris":{"android":"levelo://app?vid=9c3e4b46-832b-4289-80ad-c1a013b4a69f","ios":"levelo://app?vid=9c3e4b46-832b-4289-80ad-c1a013b4a69f"},"vehicle_type_id":"4","last_reported":1741943462,"current_range_meters":8800,"station_id":"ce4bh9p2rcd13ifvqec0","pricing_plan_id":"cebpf4jnsgd1na2vs0mg"},{"bike_id":"320564be-2867-4ab5-80ba-99ed9100fc63","system_id":"levelo_inurba_marseille","lat":43.25805,"lon":5.39413,"is_reserved":false,"is_disabled":false,"rental_uris":{"android":"levelo://app?vid=320564be-2867-4ab5-80ba-99ed9100fc63","ios":"levelo://app?vid=320564be-2867-4ab5-80ba-99ed9100fc63"},"vehicle_type_id":"4","last_reported":1741943462,"current_range_meters":8800,"station_id":"","pricing_plan_id":"cebpf4jnsgd1na2vs0mg"},{"bike_id":"01e25889-3bfd-4c2b-b309-d66c58f42e18","system_id":"levelo_inurba_marseille","lat":43.31687,"lon":5.40473,"is_reserved":false,"is_disabled":false,"rental_uris":{"android":"levelo://app?vid=01e25889-3bfd-4c2b-b309-d66c58f42e18","ios":"levelo://app?vid=01e25889-3bfd-4c2b-b309-d66c58f42e18"},"vehicle_type_id":"4","last_reported":1741943462,"current_range_meters":8800,"station_id":"ce4bh012rcd13ifvqd00","pricing_plan_id":"cebpf4jnsgd1na2vs0mg"},{"bike_id":"6944bb06-8a8c-4cf4-86a1-ca9561cf4ee4","system_id":"levelo_inurba_marseille","lat":43.23061,"lon":5.35496,"is_reserved":false,"is_disabled":false,"rental_uris":{"android":"levelo://app?vid=6944bb06-8a8c-4cf4-86a1-ca9561cf4ee4","ios":"levelo://app?vid=6944bb06-8a8c-4cf4-86a1-ca9561cf4ee4"},"vehicle_type_id":"4","last_reported":1741943462,"current_range_meters":8800,"station_id":"cpo3342slgdg3j2ifvpg","pricing_plan_id":"cebpf4jnsgd1na2vs0mg"},{"bike_id":"d2c1304d-c6de-4e19-a363-2c0c4bdd9fb1","system_id":"levelo_inurba_marseille","lat":43.24655,"lon":5.38898,"is_reserved":false,"is_disabled":false,"rental_uris":{"android":"levelo://app?vid=d2c1304d-c6de-4e19-a363-2c0c4bdd9fb1","ios":"levelo://app?vid=d2c1304d-c6de-4e19-a363-2c0c4bdd9fb1"},"vehicle_type_id":"4","last_reported":1741943462,"current_range_meters":8800,"station_id":"ce4bhg12rcd13ifvqf60","pricing_plan_id":"cebpf4jnsgd1na2vs0mg"},{"bike_id":"414a87d8-0320-4da5-94cb-1c2e9eb2c2e2","system_id":"levelo_inurba_marseille","lat":43.25822,"lon":5.39435,"is_reserved":false,"is_disabled":false,"rental_uris":{"android":"levelo://app?vid=414a87d8-0320-4da5-94cb-1c2e9eb2c2e2","ios":"levelo://app?vid=414a87d8-0320-4da5-94cb-1c2e9eb2c2e2"},"vehicle_type_id":"4","last_reported":1741943462,"current_range_meters":9200,"station_id":"ce4bhip2rcd13ifvqft0","pricing_plan_id":"cebpf4jnsgd1na2vs0mg"},{"bike_id":"c299586f-0c86-4e20-9604-94546d1a0f59","system_id":"levelo_inurba_marseille","lat":43.3173,"lon":5.42397,"is_reserved":false,"is_disabled":false,"rental_uris":{"android":"levelo://app?vid=c299586f-0c86-4e20-9604-94546d1a0f59","ios":"levelo://app?vid=c299586f-0c86-4e20-9604-94546d1a0f59"},"vehicle_type_id":"4","last_reported":1741943462,"current_range_meters":9200,"station_id":"ce4bhp92rcd13ifvqhbg","pricing_plan_id":"cebpf4jnsgd1na2vs0mg"},{"bike_id":"97a3342f-3ca5-439d-8886-7bbabf5b6c98","system_id":"levelo_inurba_marseille","lat":43.32118,"lon":5.3678,"is_reserved":false,"is_disabled":false,"rental_uris":{"android":"levelo://app?vid=97a3342f-3ca5-439d-8886-7bbabf5b6c98","ios":"levelo://app?vid=97a3342f-3ca5-439d-8886-7bbabf5b6c98"},"vehicle_type_id":"4","last_reported":1741943462,"current_range_meters":9200,"station_id":"ce4bhrh2rcd13ifvqhug","pricing_plan_id":"cebpf4jnsgd1na2vs0mg"},{"bike_id":"8a7d6fbc-9324-4554-9abc-ceeffff483c4","system_id":"levelo_inurba_marseille","lat":43.32361,"lon":5.38889,"is_reserved":false,"is_disabled":false,"rental_uris":{"android":"levelo://app?vid=8a7d6fbc-9324-4554-9abc-ceeffff483c4","ios":"levelo://app?vid=8a7d6fbc-9324-4554-9abc-ceeffff483c4"},"vehicle_type_id":"4","last_reported":1741943462,"current_range_meters":9200,"station_id":"ce4bhqp2rcd13ifvqhog","pricing_plan_id":"cebpf4jnsgd1na2vs0mg"},{"bike_id":"22eef8e9-28d0-4055-9740-16ced5bd43fc","system_id":"levelo_inurba_marseille","lat":43.24646,"lon":5.38168,"is_reserved":false,"is_disabled":false,"rental_uris":{"android":"levelo://app?vid=22eef8e9-28d0-4055-9740-16ced5bd43fc","ios":"levelo://app?vid=22eef8e9-28d0-4055-9740-16ced5bd43fc"},"vehicle_type_id":"4","last_reported":1741943462,"current_range_meters":9200,"station_id":"ce4bhih2rcd13ifvqfr0","pricing_plan_id":"cebpf4jnsgd1na2vs0mg"},{"bike_id":"6c8e51ee-2a45-4efe-a6ea-eb0013dedd61","system_id":"levelo_inurba_marseille","lat":43.2407,"lon":5.37766,"is_reserved":false,"is_disabled":false,"rental_uris":{"android":"levelo://app?vid=6c8e51ee-2a45-4efe-a6ea-eb0013dedd61","ios":"levelo://app?vid=6c8e51ee-2a45-4efe-a6ea-eb0013dedd61"},"vehicle_type_id":"4","last_reported":1741943462,"current_range_meters":9200,"station_id":"ce4bhnp2rcd13ifvqgvg","pricing_plan_id":"cebpf4jnsgd1na2vs0mg"},{"bike_id":"436bf6fd-98f0-4c70-968c-7fcac8f398a5","system_id":"levelo_inurba_marseille","lat":43.25077,"lon":5.41087,"is_reserved":false,"is_disabled":false,"rental_uris":{"android":"levelo://app?vid=436bf6fd-98f0-4c70-968c-7fcac8f398a5","ios":"levelo://app?vid=436bf6fd-98f0-4c70-968c-7fcac8f398a5"},"vehicle_type_id":"4","last_reported":1741943462,"current_range_meters":9600,"station_id":"","pricing_plan_id":"cebpf4jnsgd1na2vs0mg"},{"bike_id":"7121d818-13e2-43ed-b445-7134fefdd64f","system_id":"levelo_inurba_marseille","lat":43.23202,"lon":5.35544,"is_reserved":false,"is_disabled":false,"rental_uris":{"android":"levelo://app?vid=7121d818-13e2-43ed-b445-7134fefdd64f","ios":"levelo://app?vid=7121d818-13e2-43ed-b445-7134fefdd64f"},"vehicle_type_id":"4","last_reported":1741943462,"current_range_meters":9600,"station_id":"ce4bhu92rcd13ifvqi70","pricing_plan_id":"cebpf4jnsgd1na2vs0mg"},{"bike_id":"c118cc19-7f0e-4e54-b921-f1faa9246911","system_id":"levelo_inurba_marseille","lat":43.24068,"lon":5.3775,"is_reserved":false,"is_disabled":false,"rental_uris":{"android":"levelo://app?vid=c118cc19-7f0e-4e54-b921-f1faa9246911","ios":"levelo://app?vid=c118cc19-7f0e-4e54-b921-f1faa9246911"},"vehicle_type_id":"4","last_reported":1741943462,"current_range_meters":9600,"station_id":"ce4bhnp2rcd13ifvqgvg","pricing_plan_id":"cebpf4jnsgd1na2vs0mg"},{"bike_id":"43b8c660-3419-4feb-8980-4686defd6e12","system_id":"levelo_inurba_marseille","lat":43.31484,"lon":5.37306,"is_reserved":false,"is_disabled":false,"rental_uris":{"android":"levelo://app?vid=43b8c660-3419-4feb-8980-4686defd6e12","ios":"levelo://app?vid=43b8c660-3419-4feb-8980-4686defd6e12"},"vehicle_type_id":"4","last_reported":1741943462,"current_range_meters":9600,"station_id":"ce4bgt12rcd13ifvqcd0","pricing_plan_id":"cebpf4jnsgd1na2vs0mg"},{"bike_id":"703a27ab-78c1-4da2-9977-9c24f54834c8","system_id":"levelo_inurba_marseille","lat":43.32475,"lon":5.36563,"is_reserved":false,"is_disabled":false,"rental_uris":{"android":"levelo://app?vid=703a27ab-78c1-4da2-9977-9c24f54834c8","ios":"levelo://app?vid=703a27ab-78c1-4da2-9977-9c24f54834c8"},"vehicle_type_id":"4","last_reported":1741943462,"current_range_meters":9600,"station_id":"ce4bhs12rcd13ifvqhvg","pricing_plan_id":"cebpf4jnsgd1na2vs0mg"},{"bike_id":"b634fcd7-4303-4fed-a2f8-fcd04ed2a4dd","system_id":"levelo_inurba_marseille","lat":43.23055,"lon":5.3549,"is_reserved":false,"is_disabled":false,"rental_uris":{"android":"levelo://app?vid=b634fcd7-4303-4fed-a2f8-fcd04ed2a4dd","ios":"levelo://app?vid=b634fcd7-4303-4fed-a2f8-fcd04ed2a4dd"},"vehicle_type_id":"4","last_reported":1741943462,"current_range_meters":9600,"station_id":"cpo3342slgdg3j2ifvpg","pricing_plan_id":"cebpf4jnsgd1na2vs0mg"},{"bike_id":"3363e5ed-aafd-4c83-9f97-12270e6ffcf4","system_id":"levelo_inurba_marseille","lat":43.24864,"lon":5.40644,"is_reserved":false,"is_disabled":false,"rental_uris":{"android":"levelo://app?vid=3363e5ed-aafd-4c83-9f97-12270e6ffcf4","ios":"levelo://app?vid=3363e5ed-aafd-4c83-9f97-12270e6ffcf4"},"vehicle_type_id":"4","last_reported":1741943462,"current_range_meters":9600,"station_id":"","pricing_plan_id":"cebpf4jnsgd1na2vs0mg"},{"bike_id":"f6975236-1909-4591-9ec1-290c425d99ce","system_id":"levelo_inurba_marseille","lat":43.26543,"lon":5.39043,"is_reserved":false,"is_disabled":false,"rental_uris":{"android":"levelo://app?vid=f6975236-1909-4591-9ec1-290c425d99ce","ios":"levelo://app?vid=f6975236-1909-4591-9ec1-290c425d99ce"},"vehicle_type_id":"4","last_reported":1741943462,"current_range_meters":9600,"station_id":"ce4bhe12rcd13ifvqf30","pricing_plan_id":"cebpf4jnsgd1na2vs0mg"},{"bike_id":"36ec5a15-215b-4367-a3ca-336aadd9a251","system_id":"levelo_inurba_marseille","lat":43.33746,"lon":5.3745,"is_reserved":false,"is_disabled":false,"rental_uris":{"android":"levelo://app?vid=36ec5a15-215b-4367-a3ca-336aadd9a251","ios":"levelo://app?vid=36ec5a15-215b-4367-a3ca-336aadd9a251"},"vehicle_type_id":"4","last_reported":1741943462,"current_range_meters":9600,"station_id":"","pricing_plan_id":"cebpf4jnsgd1na2vs0mg"},{"bike_id":"b645a629-6062-4471-a4c9-b7b97793707e","system_id":"levelo_inurba_marseille","lat":43.31356,"lon":5.36736,"is_reserved":false,"is_disabled":false,"rental_uris":{"android":"levelo://app?vid=b645a629-6062-4471-a4c9-b7b97793707e","ios":"levelo://app?vid=b645a629-6062-4471-a4c9-b7b97793707e"},"vehicle_type_id":"4","last_reported":1741943462,"current_range_meters":10000,"station_id":"ce4bgr92rcd13ifvqc6g","pricing_plan_id":"cebpf4jnsgd1na2vs0mg"},{"bike_id":"6d69bcb3-9f1f-47de-bcf3-40d0e4d7bc71","system_id":"levelo_inurba_marseille","lat":43.27803,"lon":5.40725,"is_reserved":false,"is_disabled":false,"rental_uris":{"android":"levelo://app?vid=6d69bcb3-9f1f-47de-bcf3-40d0e4d7bc71","ios":"levelo://app?vid=6d69bcb3-9f1f-47de-bcf3-40d0e4d7bc71"},"vehicle_type_id":"4","last_reported":1741943462,"current_range_meters":10000,"station_id":"ce4bhnh2rcd13ifvqgtg","pricing_plan_id":"cebpf4jnsgd1na2vs0mg"},{"bike_id":"205861f1-c8e8-437b-8921-43664245ec7b","system_id":"levelo_inurba_marseille","lat":43.30991,"lon":5.3847,"is_reserved":false,"is_disabled":false,"rental_uris":{"android":"levelo://app?vid=205861f1-c8e8-437b-8921-43664245ec7b","ios":"levelo://app?vid=205861f1-c8e8-437b-8921-43664245ec7b"},"vehicle_type_id":"4","last_reported":1741943462,"current_range_meters":10000,"station_id":"","pricing_plan_id":"cebpf4jnsgd1na2vs0mg"},{"bike_id":"3d915018-0dee-4e75-9e7f-5cbc2a1e9639","system_id":"levelo_inurba_marseille","lat":43.33006,"lon":5.39049,"is_reserved":false,"is_disabled":false,"rental_uris":{"android":"levelo://app?vid=3d915018-0dee-4e75-9e7f-5cbc2a1e9639","ios":"levelo://app?vid=3d915018-0dee-4e75-9e7f-5cbc2a1e9639"},"vehicle_type_id":"4","last_reported":1741943462,"current_range_meters":10000,"station_id":"ce4bhr92rcd13ifvqhrg","pricing_plan_id":"cebpf4jnsgd1na2vs0mg"},{"bike_id":"4a3685f3-e2ce-4ad8-8bde-8a0ec2e78324","system_id":"levelo_inurba_marseille","lat":43.301524,"lon":5.381006,"is_reserved":false,"is_disabled":false,"rental_uris":{"android":"levelo://app?vid=4a3685f3-e2ce-4ad8-8bde-8a0ec2e78324","ios":"levelo://app?vid=4a3685f3-e2ce-4ad8-8bde-8a0ec2e78324"},"vehicle_type_id":"4","last_reported":1741943462,"current_range_meters":10000,"station_id":"ce4bgjp2rcd13ifvqbh0","pricing_plan_id":"cebpf4jnsgd1na2vs0mg"},{"bike_id":"594a33ea-5c85-49b0-893b-48b1f5e1011a","system_id":"levelo_inurba_marseille","lat":43.30884,"lon":5.40167,"is_reserved":false,"is_disabled":true,"rental_uris":{"android":"levelo://app?vid=594a33ea-5c85-49b0-893b-48b1f5e1011a","ios":"levelo://app?vid=594a33ea-5c85-49b0-893b-48b1f5e1011a"},"vehicle_type_id":"4","last_reported":1741943462,"current_range_meters":10000,"station_id":"ce4bgvp2rcd13ifvqct0","pricing_plan_id":"cebpf4jnsgd1na2vs0mg"},{"bike_id":"78dce6e6-36eb-4d6b-a861-292dc7c9e479","system_id":"levelo_inurba_marseille","lat":43.24987,"lon":5.38942,"is_reserved":false,"is_disabled":false,"rental_uris":{"android":"levelo://app?vid=78dce6e6-36eb-4d6b-a861-292dc7c9e479","ios":"levelo://app?vid=78dce6e6-36eb-4d6b-a861-292dc7c9e479"},"vehicle_type_id":"4","last_reported":1741943462,"current_range_meters":10800,"station_id":"ce4bhgp2rcd13ifvqfd0","pricing_plan_id":"cebpf4jnsgd1na2vs0mg"},{"bike_id":"a5e71948-735a-4229-b2ca-74d55fc62066","system_id":"levelo_inurba_marseille","lat":43.28052,"lon":5.3693,"is_reserved":false,"is_disabled":false,"rental_uris":{"android":"levelo://app?vid=a5e71948-735a-4229-b2ca-74d55fc62066","ios":"levelo://app?vid=a5e71948-735a-4229-b2ca-74d55fc62066"},"vehicle_type_id":"4","last_reported":1741943462,"current_range_meters":10800,"station_id":"ce4bha12rcd13ifvqef0","pricing_plan_id":"cebpf4jnsgd1na2vs0mg"},{"bike_id":"3b44b82f-cb5a-4ce2-81b2-300fd12d92df","system_id":"levelo_inurba_marseille","lat":43.249942,"lon":5.389341,"is_reserved":false,"is_disabled":false,"rental_uris":{"android":"levelo://app?vid=3b44b82f-cb5a-4ce2-81b2-300fd12d92df","ios":"levelo://app?vid=3b44b82f-cb5a-4ce2-81b2-300fd12d92df"},"vehicle_type_id":"4","last_reported":1741943462,"current_range_meters":10800,"station_id":"ce4bgvp2rcd13ifvqcu0","pricing_plan_id":"cebpf4jnsgd1na2vs0mg"},{"bike_id":"e437dcae-0bd9-42dc-9b94-a9b685757564","system_id":"levelo_inurba_marseille","lat":43.24382,"lon":5.37049,"is_reserved":false,"is_disabled":false,"rental_uris":{"android":"levelo://app?vid=e437dcae-0bd9-42dc-9b94-a9b685757564","ios":"levelo://app?vid=e437dcae-0bd9-42dc-9b94-a9b685757564"},"vehicle_type_id":"4","last_reported":1741943462,"current_range_meters":10800,"station_id":"ce4bhhh2rcd13ifvqfk0","pricing_plan_id":"cebpf4jnsgd1na2vs0mg"},{"bike_id":"28315264-793c-428c-af87-3f7bb0e3d9bd","system_id":"levelo_inurba_marseille","lat":43.29809,"lon":5.38093,"is_reserved":false,"is_disabled":false,"rental_uris":{"android":"levelo://app?vid=28315264-793c-428c-af87-3f7bb0e3d9bd","ios":"levelo://app?vid=28315264-793c-428c-af87-3f7bb0e3d9bd"},"vehicle_type_id":"4","last_reported":1741943462,"current_range_meters":10800,"station_id":"","pricing_plan_id":"cebpf4jnsgd1na2vs0mg"},{"bike_id":"15a2b974-d751-49d5-a666-bbd556eb13fe","system_id":"levelo_inurba_marseille","lat":43.31382,"lon":5.36721,"is_reserved":false,"is_disabled":false,"rental_uris":{"android":"levelo://app?vid=15a2b974-d751-49d5-a666-bbd556eb13fe","ios":"levelo://app?vid=15a2b974-d751-49d5-a666-bbd556eb13fe"},"vehicle_type_id":"4","last_reported":1741943462,"current_range_meters":11200,"station_id":"ce4bgr92rcd13ifvqc6g","pricing_plan_id":"cebpf4jnsgd1na2vs0mg"},{"bike_id":"0d8699b5-8130-432b-9902-cc23c87f0d94","system_id":"levelo_inurba_marseille","lat":43.31076,"lon":5.42425,"is_reserved":false,"is_disabled":false,"rental_uris":{"android":"levelo://app?vid=0d8699b5-8130-432b-9902-cc23c87f0d94","ios":"levelo://app?vid=0d8699b5-8130-432b-9902-cc23c87f0d94"},"vehicle_type_id":"4","last_reported":1741943462,"current_range_meters":17600,"station_id":"ce4bhp92rcd13ifvqhag","pricing_plan_id":"cebpf4jnsgd1na2vs0mg"},{"bike_id":"2ec4952f-4af6-4674-ae80-f3f272175145","system_id":"levelo_inurba_marseille","lat":43.29268,"lon":5.38448,"is_reserved":false,"is_disabled":false,"rental_uris":{"android":"levelo://app?vid=2ec4952f-4af6-4674-ae80-f3f272175145","ios":"levelo://app?vid=2ec4952f-4af6-4674-ae80-f3f272175145"},"vehicle_type_id":"4","last_reported":1741943462,"current_range_meters":11200,"station_id":"ce4bh692rcd13ifvqea0","pricing_plan_id":"cebpf4jnsgd1na2vs0mg"},{"bike_id":"630d007a-ca89-4aa4-8a76-922fb685bd06","system_id":"levelo_inurba_marseille","lat":43.30516,"lon":5.38429,"is_reserved":false,"is_disabled":false,"rental_uris":{"android":"levelo://app?vid=630d007a-ca89-4aa4-8a76-922fb685bd06","ios":"levelo://app?vid=630d007a-ca89-4aa4-8a76-922fb685bd06"},"vehicle_type_id":"4","last_reported":1741943462,"current_range_meters":11200,"station_id":"ce4bgg92rcd13ifvqb30","pricing_plan_id":"cebpf4jnsgd1na2vs0mg"},{"bike_id":"68a34e8f-540a-4fe3-a5ff-deaa13caa845","system_id":"levelo_inurba_marseille","lat":43.29789,"lon":5.44734,"is_reserved":false,"is_disabled":true,"rental_uris":{"android":"levelo://app?vid=68a34e8f-540a-4fe3-a5ff-deaa13caa845","ios":"levelo://app?vid=68a34e8f-540a-4fe3-a5ff-deaa13caa845"},"vehicle_type_id":"4","last_reported":1741943462,"current_range_meters":11200,"station_id":"","pricing_plan_id":"cebpf4jnsgd1na2vs0mg"},{"bike_id":"c043723a-b6ba-4c06-b5f5-f88d3549c59b","system_id":"levelo_inurba_marseille","lat":43.29374,"lon":5.37842,"is_reserved":false,"is_disabled":false,"rental_uris":{"android":"levelo://app?vid=c043723a-b6ba-4c06-b5f5-f88d3549c59b","ios":"levelo://app?vid=c043723a-b6ba-4c06-b5f5-f88d3549c59b"},"vehicle_type_id":"4","last_reported":1741943462,"current_range_meters":10800,"station_id":"ce4bgjh2rcd13ifvqbf0","pricing_plan_id":"cebpf4jnsgd1na2vs0mg"},{"bike_id":"21da45df-b940-4225-a849-d6a56d0fa1da","system_id":"levelo_inurba_marseille","lat":43.29701,"lon":5.37702,"is_reserved":false,"is_disabled":false,"rental_uris":{"android":"levelo://app?vid=21da45df-b940-4225-a849-d6a56d0fa1da","ios":"levelo://app?vid=21da45df-b940-4225-a849-d6a56d0fa1da"},"vehicle_type_id":"4","last_reported":1741943462,"current_range_meters":11600,"station_id":"ce4bgkh2rcd13ifvqbl0","pricing_plan_id":"cebpf4jnsgd1na2vs0mg"},{"bike_id":"f5819f0b-77e5-4c97-a5ac-a105f94fa50d","system_id":"levelo_inurba_marseille","lat":43.28718,"lon":5.3794,"is_reserved":false,"is_disabled":false,"rental_uris":{"android":"levelo://app?vid=f5819f0b-77e5-4c97-a5ac-a105f94fa50d","ios":"levelo://app?vid=f5819f0b-77e5-4c97-a5ac-a105f94fa50d"},"vehicle_type_id":"4","last_reported":1741943462,"current_range_meters":11200,"station_id":"ce4bh9p2rcd13ifvqec0","pricing_plan_id":"cebpf4jnsgd1na2vs0mg"},{"bike_id":"c00de636-fb2c-49b9-8c19-0ce088140454","system_id":"levelo_inurba_marseille","lat":43.25942,"lon":5.40876,"is_reserved":false,"is_disabled":false,"rental_uris":{"android":"levelo://app?vid=c00de636-fb2c-49b9-8c19-0ce088140454","ios":"levelo://app?vid=c00de636-fb2c-49b9-8c19-0ce088140454"},"vehicle_type_id":"4","last_reported":1741943462,"current_range_meters":11600,"station_id":"ce4bhm92rcd13ifvqglg","pricing_plan_id":"cebpf4jnsgd1na2vs0mg"},{"bike_id":"dc2dc920-7061-4611-9ad3-02d4898aaa15","system_id":"levelo_inurba_marseille","lat":43.23194,"lon":5.39987,"is_reserved":false,"is_disabled":false,"rental_uris":{"android":"levelo://app?vid=dc2dc920-7061-4611-9ad3-02d4898aaa15","ios":"levelo://app?vid=dc2dc920-7061-4611-9ad3-02d4898aaa15"},"vehicle_type_id":"4","last_reported":1741943462,"current_range_meters":11600,"station_id":"ce4bhn12rcd13ifvqgqg","pricing_plan_id":"cebpf4jnsgd1na2vs0mg"},{"bike_id":"06fea768-af17-4c84-b29c-92effa7c5e88","system_id":"levelo_inurba_marseille","lat":43.31367,"lon":5.36679,"is_reserved":false,"is_disabled":false,"rental_uris":{"android":"levelo://app?vid=06fea768-af17-4c84-b29c-92effa7c5e88","ios":"levelo://app?vid=06fea768-af17-4c84-b29c-92effa7c5e88"},"vehicle_type_id":"4","last_reported":1741943462,"current_range_meters":11600,"station_id":"ce4bgr92rcd13ifvqc6g","pricing_plan_id":"cebpf4jnsgd1na2vs0mg"},{"bike_id":"5bbbcc9c-c390-411b-9d62-74fb6404d435","system_id":"levelo_inurba_marseille","lat":43.24081,"lon":5.37758,"is_reserved":false,"is_disabled":false,"rental_uris":{"android":"levelo://app?vid=5bbbcc9c-c390-411b-9d62-74fb6404d435","ios":"levelo://app?vid=5bbbcc9c-c390-411b-9d62-74fb6404d435"},"vehicle_type_id":"4","last_reported":1741943462,"current_range_meters":11600,"station_id":"ce4bhnp2rcd13ifvqgvg","pricing_plan_id":"cebpf4jnsgd1na2vs0mg"},{"bike_id":"5ec91e3f-4cba-4841-a178-53327dd5b78d","system_id":"levelo_inurba_marseille","lat":43.31363,"lon":5.36736,"is_reserved":false,"is_disabled":false,"rental_uris":{"android":"levelo://app?vid=5ec91e3f-4cba-4841-a178-53327dd5b78d","ios":"levelo://app?vid=5ec91e3f-4cba-4841-a178-53327dd5b78d"},"vehicle_type_id":"4","last_reported":1741943462,"current_range_meters":11600,"station_id":"ce4bgr92rcd13ifvqc6g","pricing_plan_id":"cebpf4jnsgd1na2vs0mg"},{"bike_id":"d3a72f17-3d87-4118-a476-92222029a616","system_id":"levelo_inurba_marseille","lat":43.30469,"lon":5.37905,"is_reserved":false,"is_disabled":false,"rental_uris":{"android":"levelo://app?vid=d3a72f17-3d87-4118-a476-92222029a616","ios":"levelo://app?vid=d3a72f17-3d87-4118-a476-92222029a616"},"vehicle_type_id":"4","last_reported":1741943462,"current_range_meters":11600,"station_id":"ce4bgup2rcd13ifvqcn0","pricing_plan_id":"cebpf4jnsgd1na2vs0mg"},{"bike_id":"0c559975-f8b2-4209-abba-1128144add8d","system_id":"levelo_inurba_marseille","lat":43.30338,"lon":5.39324,"is_reserved":false,"is_disabled":false,"rental_uris":{"android":"levelo://app?vid=0c559975-f8b2-4209-abba-1128144add8d","ios":"levelo://app?vid=0c559975-f8b2-4209-abba-1128144add8d"},"vehicle_type_id":"4","last_reported":1741943462,"current_range_meters":11600,"station_id":"","pricing_plan_id":"cebpf4jnsgd1na2vs0mg"},{"bike_id":"3959c750-cc5b-4501-a9c1-aa26389cb4a3","system_id":"levelo_inurba_marseille","lat":43.29255,"lon":5.38422,"is_reserved":false,"is_disabled":false,"rental_uris":{"android":"levelo://app?vid=3959c750-cc5b-4501-a9c1-aa26389cb4a3","ios":"levelo://app?vid=3959c750-cc5b-4501-a9c1-aa26389cb4a3"},"vehicle_type_id":"4","last_reported":1741943462,"current_range_meters":12000,"station_id":"ce4bh692rcd13ifvqea0","pricing_plan_id":"cebpf4jnsgd1na2vs0mg"},{"bike_id":"c6f9c2cc-8d82-4ef0-9c96-3fa68372f355","system_id":"levelo_inurba_marseille","lat":43.25011,"lon":5.38933,"is_reserved":false,"is_disabled":false,"rental_uris":{"android":"levelo://app?vid=c6f9c2cc-8d82-4ef0-9c96-3fa68372f355","ios":"levelo://app?vid=c6f9c2cc-8d82-4ef0-9c96-3fa68372f355"},"vehicle_type_id":"4","last_reported":1741943462,"current_range_meters":12000,"station_id":"ce4bhgp2rcd13ifvqfd0","pricing_plan_id":"cebpf4jnsgd1na2vs0mg"},{"bike_id":"48f3a40e-658c-443b-8908-cf181e5627b0","system_id":"levelo_inurba_marseille","lat":43.30159,"lon":5.37371,"is_reserved":false,"is_disabled":false,"rental_uris":{"android":"levelo://app?vid=48f3a40e-658c-443b-8908-cf181e5627b0","ios":"levelo://app?vid=48f3a40e-658c-443b-8908-cf181e5627b0"},"vehicle_type_id":"4","last_reported":1741943462,"current_range_meters":12000,"station_id":"ce4bgs92rcd13ifvqcc0","pricing_plan_id":"cebpf4jnsgd1na2vs0mg"},{"bike_id":"33abc843-d9b9-4d34-bce0-2a8c64e0cfcf","system_id":"levelo_inurba_marseille","lat":43.30548,"lon":5.36541,"is_reserved":false,"is_disabled":false,"rental_uris":{"android":"levelo://app?vid=33abc843-d9b9-4d34-bce0-2a8c64e0cfcf","ios":"levelo://app?vid=33abc843-d9b9-4d34-bce0-2a8c64e0cfcf"},"vehicle_type_id":"4","last_reported":1741943462,"current_range_meters":12400,"station_id":"ce4bgs12rcd13ifvqcag","pricing_plan_id":"cebpf4jnsgd1na2vs0mg"},{"bike_id":"55892c13-2d68-4412-a807-3986b02b98db","system_id":"levelo_inurba_marseille","lat":43.30529,"lon":5.38422,"is_reserved":false,"is_disabled":false,"rental_uris":{"android":"levelo://app?vid=55892c13-2d68-4412-a807-3986b02b98db","ios":"levelo://app?vid=55892c13-2d68-4412-a807-3986b02b98db"},"vehicle_type_id":"4","last_reported":1741943462,"current_range_meters":12400,"station_id":"ce4bgg92rcd13ifvqb30","pricing_plan_id":"cebpf4jnsgd1na2vs0mg"},{"bike_id":"e43c81c0-67a0-4c25-9297-ec248fcfb8d5","system_id":"levelo_inurba_marseille","lat":43.24093,"lon":5.3775,"is_reserved":false,"is_disabled":false,"rental_uris":{"android":"levelo://app?vid=e43c81c0-67a0-4c25-9297-ec248fcfb8d5","ios":"levelo://app?vid=e43c81c0-67a0-4c25-9297-ec248fcfb8d5"},"vehicle_type_id":"4","last_reported":1741943462,"current_range_meters":12400,"station_id":"ce4bhnp2rcd13ifvqgvg","pricing_plan_id":"cebpf4jnsgd1na2vs0mg"},{"bike_id":"771248cc-49fa-49c9-9943-f1819eaa592f","system_id":"levelo_inurba_marseille","lat":43.28421,"lon":5.34995,"is_reserved":false,"is_disabled":false,"rental_uris":{"android":"levelo://app?vid=771248cc-49fa-49c9-9943-f1819eaa592f","ios":"levelo://app?vid=771248cc-49fa-49c9-9943-f1819eaa592f"},"vehicle_type_id":"4","last_reported":1741943462,"current_range_meters":12400,"station_id":"ce4bhbh2rcd13ifvqepg","pricing_plan_id":"cebpf4jnsgd1na2vs0mg"},{"bike_id":"ac9829db-5826-4bcf-b26b-4776553d00ba","system_id":"levelo_inurba_marseille","lat":43.31703,"lon":5.4046,"is_reserved":false,"is_disabled":false,"rental_uris":{"android":"levelo://app?vid=ac9829db-5826-4bcf-b26b-4776553d00ba","ios":"levelo://app?vid=ac9829db-5826-4bcf-b26b-4776553d00ba"},"vehicle_type_id":"4","last_reported":1741943462,"current_range_meters":12400,"station_id":"ce4bh012rcd13ifvqd00","pricing_plan_id":"cebpf4jnsgd1na2vs0mg"},{"bike_id":"e64292cd-eaa7-408f-8925-4d1c6058eb7b","system_id":"levelo_inurba_marseille","lat":43.29969,"lon":5.38484,"is_reserved":false,"is_disabled":false,"rental_uris":{"android":"levelo://app?vid=e64292cd-eaa7-408f-8925-4d1c6058eb7b","ios":"levelo://app?vid=e64292cd-eaa7-408f-8925-4d1c6058eb7b"},"vehicle_type_id":"4","last_reported":1741943462,"current_range_meters":12000,"station_id":"ce4bgj92rcd13ifvqbd0","pricing_plan_id":"cebpf4jnsgd1na2vs0mg"},{"bike_id":"1a202b61-1ab1-4aaf-afe3-61f41a4ddfe6","system_id":"levelo_inurba_marseille","lat":43.29798,"lon":5.38119,"is_reserved":false,"is_disabled":false,"rental_uris":{"android":"levelo://app?vid=1a202b61-1ab1-4aaf-afe3-61f41a4ddfe6","ios":"levelo://app?vid=1a202b61-1ab1-4aaf-afe3-61f41a4ddfe6"},"vehicle_type_id":"4","last_reported":1741943462,"current_range_meters":12400,"station_id":"ce4bgip2rcd13ifvqbb0","pricing_plan_id":"cebpf4jnsgd1na2vs0mg"},{"bike_id":"df72bfbc-6126-496b-ad8c-192fc3c1c12f","system_id":"levelo_inurba_marseille","lat":43.31346,"lon":5.36715,"is_reserved":false,"is_disabled":false,"rental_uris":{"android":"levelo://app?vid=df72bfbc-6126-496b-ad8c-192fc3c1c12f","ios":"levelo://app?vid=df72bfbc-6126-496b-ad8c-192fc3c1c12f"},"vehicle_type_id":"4","last_reported":1741943462,"current_range_meters":12800,"station_id":"ce4bgr92rcd13ifvqc6g","pricing_plan_id":"cebpf4jnsgd1na2vs0mg"},{"bike_id":"8a758a59-97ad-4b11-bd1f-11dad34ca65f","system_id":"levelo_inurba_marseille","lat":43.279757,"lon":5.387464,"is_reserved":false,"is_disabled":false,"rental_uris":{"android":"levelo://app?vid=8a758a59-97ad-4b11-bd1f-11dad34ca65f","ios":"levelo://app?vid=8a758a59-97ad-4b11-bd1f-11dad34ca65f"},"vehicle_type_id":"4","last_reported":1741943462,"current_range_meters":12800,"station_id":"ce4bhi12rcd13ifvqfq0","pricing_plan_id":"cebpf4jnsgd1na2vs0mg"},{"bike_id":"4964d787-8ed6-4547-acc5-166e17a1c793","system_id":"levelo_inurba_marseille","lat":43.31373,"lon":5.36653,"is_reserved":false,"is_disabled":false,"rental_uris":{"android":"levelo://app?vid=4964d787-8ed6-4547-acc5-166e17a1c793","ios":"levelo://app?vid=4964d787-8ed6-4547-acc5-166e17a1c793"},"vehicle_type_id":"4","last_reported":1741943462,"current_range_meters":12800,"station_id":"ce4bgr92rcd13ifvqc6g","pricing_plan_id":"cebpf4jnsgd1na2vs0mg"},{"bike_id":"59822710-2d10-4517-868b-42cfab329759","system_id":"levelo_inurba_marseille","lat":43.23192,"lon":5.35566,"is_reserved":false,"is_disabled":false,"rental_uris":{"android":"levelo://app?vid=59822710-2d10-4517-868b-42cfab329759","ios":"levelo://app?vid=59822710-2d10-4517-868b-42cfab329759"},"vehicle_type_id":"4","last_reported":1741943462,"current_range_meters":12800,"station_id":"ce4bhu92rcd13ifvqi70","pricing_plan_id":"cebpf4jnsgd1na2vs0mg"},{"bike_id":"77b1a68e-aaf2-4fdd-8fc1-2abaae9937b9","system_id":"levelo_inurba_marseille","lat":43.23155,"lon":5.43724,"is_reserved":false,"is_disabled":false,"rental_uris":{"android":"levelo://app?vid=77b1a68e-aaf2-4fdd-8fc1-2abaae9937b9","ios":"levelo://app?vid=77b1a68e-aaf2-4fdd-8fc1-2abaae9937b9"},"vehicle_type_id":"4","last_reported":1741943462,"current_range_meters":12800,"station_id":"ce4bhmp2rcd13ifvqgog","pricing_plan_id":"cebpf4jnsgd1na2vs0mg"},{"bike_id":"d5ca99b0-ccbb-4f42-9ac1-6c4977ddb27a","system_id":"levelo_inurba_marseille","lat":43.25026,"lon":5.38937,"is_reserved":false,"is_disabled":false,"rental_uris":{"android":"levelo://app?vid=d5ca99b0-ccbb-4f42-9ac1-6c4977ddb27a","ios":"levelo://app?vid=d5ca99b0-ccbb-4f42-9ac1-6c4977ddb27a"},"vehicle_type_id":"4","last_reported":1741943462,"current_range_meters":12800,"station_id":"ce4bhgp2rcd13ifvqfd0","pricing_plan_id":"cebpf4jnsgd1na2vs0mg"},{"bike_id":"a1fbfbd8-f4b8-485d-9eb8-0c711df84f78","system_id":"levelo_inurba_marseille","lat":43.29843,"lon":5.36269,"is_reserved":false,"is_disabled":false,"rental_uris":{"android":"levelo://app?vid=a1fbfbd8-f4b8-485d-9eb8-0c711df84f78","ios":"levelo://app?vid=a1fbfbd8-f4b8-485d-9eb8-0c711df84f78"},"vehicle_type_id":"4","last_reported":1741943462,"current_range_meters":12800,"station_id":"ce4bgpp2rcd13ifvqc3g","pricing_plan_id":"cebpf4jnsgd1na2vs0mg"},{"bike_id":"00539eca-3227-4b91-9180-6c0d8b7f3a0c","system_id":"levelo_inurba_marseille","lat":43.30463,"lon":5.37915,"is_reserved":false,"is_disabled":false,"rental_uris":{"android":"levelo://app?vid=00539eca-3227-4b91-9180-6c0d8b7f3a0c","ios":"levelo://app?vid=00539eca-3227-4b91-9180-6c0d8b7f3a0c"},"vehicle_type_id":"4","last_reported":1741943462,"current_range_meters":12800,"station_id":"ce4bgup2rcd13ifvqcn0","pricing_plan_id":"cebpf4jnsgd1na2vs0mg"},{"bike_id":"d98e5f37-4f71-4a36-9b3b-496f87de0d61","system_id":"levelo_inurba_marseille","lat":43.31105,"lon":5.3761,"is_reserved":false,"is_disabled":false,"rental_uris":{"android":"levelo://app?vid=d98e5f37-4f71-4a36-9b3b-496f87de0d61","ios":"levelo://app?vid=d98e5f37-4f71-4a36-9b3b-496f87de0d61"},"vehicle_type_id":"4","last_reported":1741943462,"current_range_meters":12800,"station_id":"","pricing_plan_id":"cebpf4jnsgd1na2vs0mg"},{"bike_id":"eab3845b-fcea-44f0-a476-2990ff17f351","system_id":"levelo_inurba_marseille","lat":43.30207,"lon":5.39462,"is_reserved":false,"is_disabled":false,"rental_uris":{"android":"levelo://app?vid=eab3845b-fcea-44f0-a476-2990ff17f351","ios":"levelo://app?vid=eab3845b-fcea-44f0-a476-2990ff17f351"},"vehicle_type_id":"4","last_reported":1741943462,"current_range_meters":12800,"station_id":"ce4bh0p2rcd13ifvqd70","pricing_plan_id":"cebpf4jnsgd1na2vs0mg"},{"bike_id":"bd7fb638-a561-41df-90ca-f32685780427","system_id":"levelo_inurba_marseille","lat":43.22924,"lon":5.35377,"is_reserved":false,"is_disabled":false,"rental_uris":{"android":"levelo://app?vid=bd7fb638-a561-41df-90ca-f32685780427","ios":"levelo://app?vid=bd7fb638-a561-41df-90ca-f32685780427"},"vehicle_type_id":"4","last_reported":1741943462,"current_range_meters":12800,"station_id":"cpo3532slgdg3j2ikp40","pricing_plan_id":"cebpf4jnsgd1na2vs0mg"},{"bike_id":"92e28a17-86ac-4ed1-ae27-dc40a8b86a75","system_id":"levelo_inurba_marseille","lat":43.29623,"lon":5.37635,"is_reserved":false,"is_disabled":false,"rental_uris":{"android":"levelo://app?vid=92e28a17-86ac-4ed1-ae27-dc40a8b86a75","ios":"levelo://app?vid=92e28a17-86ac-4ed1-ae27-dc40a8b86a75"},"vehicle_type_id":"4","last_reported":1741943462,"current_range_meters":12800,"station_id":"ce4bgnh2rcd13ifvqc0g","pricing_plan_id":"cebpf4jnsgd1na2vs0mg"},{"bike_id":"71e80157-4ef4-4e3e-8058-1f3fbd36ccdb","system_id":"levelo_inurba_marseille","lat":43.28938,"lon":5.39612,"is_reserved":false,"is_disabled":false,"rental_uris":{"android":"levelo://app?vid=71e80157-4ef4-4e3e-8058-1f3fbd36ccdb","ios":"levelo://app?vid=71e80157-4ef4-4e3e-8058-1f3fbd36ccdb"},"vehicle_type_id":"4","last_reported":1741943462,"current_range_meters":12800,"station_id":"ce4bh3h2rcd13ifvqdn0","pricing_plan_id":"cebpf4jnsgd1na2vs0mg"},{"bike_id":"679747b7-bbd6-46be-9dde-bd8bad65aa17","system_id":"levelo_inurba_marseille","lat":43.30467,"lon":5.37896,"is_reserved":false,"is_disabled":false,"rental_uris":{"android":"levelo://app?vid=679747b7-bbd6-46be-9dde-bd8bad65aa17","ios":"levelo://app?vid=679747b7-bbd6-46be-9dde-bd8bad65aa17"},"vehicle_type_id":"4","last_reported":1741943462,"current_range_meters":13600,"station_id":"ce4bgup2rcd13ifvqcn0","pricing_plan_id":"cebpf4jnsgd1na2vs0mg"},{"bike_id":"d51f08d9-0f10-44c0-abaf-051501cf6936","system_id":"levelo_inurba_marseille","lat":43.29799,"lon":5.38122,"is_reserved":false,"is_disabled":false,"rental_uris":{"android":"levelo://app?vid=d51f08d9-0f10-44c0-abaf-051501cf6936","ios":"levelo://app?vid=d51f08d9-0f10-44c0-abaf-051501cf6936"},"vehicle_type_id":"4","last_reported":1741943462,"current_range_meters":12800,"station_id":"ce4bgip2rcd13ifvqbb0","pricing_plan_id":"cebpf4jnsgd1na2vs0mg"},{"bike_id":"e67041a3-a8bf-4682-816d-4ea08389fd2d","system_id":"levelo_inurba_marseille","lat":43.24064,"lon":5.37715,"is_reserved":false,"is_disabled":false,"rental_uris":{"android":"levelo://app?vid=e67041a3-a8bf-4682-816d-4ea08389fd2d","ios":"levelo://app?vid=e67041a3-a8bf-4682-816d-4ea08389fd2d"},"vehicle_type_id":"4","last_reported":1741943462,"current_range_meters":13600,"station_id":"ce4bhnp2rcd13ifvqgvg","pricing_plan_id":"cebpf4jnsgd1na2vs0mg"},{"bike_id":"af474046-e400-4ac9-a0d2-80fc69b95ff7","system_id":"levelo_inurba_marseille","lat":43.3054,"lon":5.36551,"is_reserved":false,"is_disabled":false,"rental_uris":{"android":"levelo://app?vid=af474046-e400-4ac9-a0d2-80fc69b95ff7","ios":"levelo://app?vid=af474046-e400-4ac9-a0d2-80fc69b95ff7"},"vehicle_type_id":"4","last_reported":1741943462,"current_range_meters":13600,"station_id":"ce4bgs12rcd13ifvqcag","pricing_plan_id":"cebpf4jnsgd1na2vs0mg"},{"bike_id":"cb256735-523d-45d3-9c1c-b9c7b6320183","system_id":"levelo_inurba_marseille","lat":43.31577,"lon":5.40403,"is_reserved":false,"is_disabled":false,"rental_uris":{"android":"levelo://app?vid=cb256735-523d-45d3-9c1c-b9c7b6320183","ios":"levelo://app?vid=cb256735-523d-45d3-9c1c-b9c7b6320183"},"vehicle_type_id":"4","last_reported":1741943462,"current_range_meters":13600,"station_id":"","pricing_plan_id":"cebpf4jnsgd1na2vs0mg"},{"bike_id":"145571bb-0005-45f7-bd9a-fb928813afdc","system_id":"levelo_inurba_marseille","lat":43.30514,"lon":5.39718,"is_reserved":false,"is_disabled":false,"rental_uris":{"android":"levelo://app?vid=145571bb-0005-45f7-bd9a-fb928813afdc","ios":"levelo://app?vid=145571bb-0005-45f7-bd9a-fb928813afdc"},"vehicle_type_id":"4","last_reported":1741943462,"current_range_meters":13600,"station_id":"ce4bh092rcd13ifvqd20","pricing_plan_id":"cebpf4jnsgd1na2vs0mg"},{"bike_id":"02fc770c-57a8-4104-9860-301e2ece0fdb","system_id":"levelo_inurba_marseille","lat":43.34144,"lon":5.40908,"is_reserved":false,"is_disabled":false,"rental_uris":{"android":"levelo://app?vid=02fc770c-57a8-4104-9860-301e2ece0fdb","ios":"levelo://app?vid=02fc770c-57a8-4104-9860-301e2ece0fdb"},"vehicle_type_id":"4","last_reported":1741943462,"current_range_meters":13600,"station_id":"ce4bhqh2rcd13ifvqhlg","pricing_plan_id":"cebpf4jnsgd1na2vs0mg"},{"bike_id":"c5ffd01f-a1f8-449f-8ba8-e4ed30e596d8","system_id":"levelo_inurba_marseille","lat":43.29586,"lon":5.37507,"is_reserved":false,"is_disabled":false,"rental_uris":{"android":"levelo://app?vid=c5ffd01f-a1f8-449f-8ba8-e4ed30e596d8","ios":"levelo://app?vid=c5ffd01f-a1f8-449f-8ba8-e4ed30e596d8"},"vehicle_type_id":"4","last_reported":1741943462,"current_range_meters":13600,"station_id":"ce4bgh92rcd13ifvqb50","pricing_plan_id":"cebpf4jnsgd1na2vs0mg"},{"bike_id":"4605c914-15a3-4bb7-8a10-439076a5ac52","system_id":"levelo_inurba_marseille","lat":43.29276,"lon":5.4091,"is_reserved":false,"is_disabled":false,"rental_uris":{"android":"levelo://app?vid=4605c914-15a3-4bb7-8a10-439076a5ac52","ios":"levelo://app?vid=4605c914-15a3-4bb7-8a10-439076a5ac52"},"vehicle_type_id":"4","last_reported":1741943462,"current_range_meters":14000,"station_id":"ce4bh192rcd13ifvqdc0","pricing_plan_id":"cebpf4jnsgd1na2vs0mg"},{"bike_id":"0fd7d866-7255-4d16-9d72-52657ca3633f","system_id":"levelo_inurba_marseille","lat":43.309578,"lon":5.39034,"is_reserved":false,"is_disabled":false,"rental_uris":{"android":"levelo://app?vid=0fd7d866-7255-4d16-9d72-52657ca3633f","ios":"levelo://app?vid=0fd7d866-7255-4d16-9d72-52657ca3633f"},"vehicle_type_id":"4","last_reported":1741943462,"current_range_meters":14000,"station_id":"ce4bgup2rcd13ifvqco0","pricing_plan_id":"cebpf4jnsgd1na2vs0mg"},{"bike_id":"51b71709-66e2-4c83-8ce6-a5ca4256e6ff","system_id":"levelo_inurba_marseille","lat":43.23158,"lon":5.43719,"is_reserved":false,"is_disabled":false,"rental_uris":{"android":"levelo://app?vid=51b71709-66e2-4c83-8ce6-a5ca4256e6ff","ios":"levelo://app?vid=51b71709-66e2-4c83-8ce6-a5ca4256e6ff"},"vehicle_type_id":"4","last_reported":1741943462,"current_range_meters":14000,"station_id":"ce4bhmp2rcd13ifvqgog","pricing_plan_id":"cebpf4jnsgd1na2vs0mg"},{"bike_id":"46d267bb-a517-47e9-8627-fb676160de88","system_id":"levelo_inurba_marseille","lat":43.29804,"lon":5.3813,"is_reserved":false,"is_disabled":false,"rental_uris":{"android":"levelo://app?vid=46d267bb-a517-47e9-8627-fb676160de88","ios":"levelo://app?vid=46d267bb-a517-47e9-8627-fb676160de88"},"vehicle_type_id":"4","last_reported":1741943462,"current_range_meters":14000,"station_id":"ce4bgip2rcd13ifvqbb0","pricing_plan_id":"cebpf4jnsgd1na2vs0mg"},{"bike_id":"7375a7e8-aade-4a4d-8d65-3e50ffeeffe1","system_id":"levelo_inurba_marseille","lat":43.28979,"lon":5.37848,"is_reserved":false,"is_disabled":false,"rental_uris":{"android":"levelo://app?vid=7375a7e8-aade-4a4d-8d65-3e50ffeeffe1","ios":"levelo://app?vid=7375a7e8-aade-4a4d-8d65-3e50ffeeffe1"},"vehicle_type_id":"4","last_reported":1741943462,"current_range_meters":14000,"station_id":"ce4bh9p2rcd13ifvqed0","pricing_plan_id":"cebpf4jnsgd1na2vs0mg"},{"bike_id":"21c6896d-fd57-4f5d-838a-68281a7df567","system_id":"levelo_inurba_marseille","lat":43.27305,"lon":5.39073,"is_reserved":false,"is_disabled":false,"rental_uris":{"android":"levelo://app?vid=21c6896d-fd57-4f5d-838a-68281a7df567","ios":"levelo://app?vid=21c6896d-fd57-4f5d-838a-68281a7df567"},"vehicle_type_id":"4","last_reported":1741943462,"current_range_meters":13600,"station_id":"ce4bhgp2rcd13ifvqfe0","pricing_plan_id":"cebpf4jnsgd1na2vs0mg"},{"bike_id":"f31c7e9f-4848-4e4a-88d2-c26dfa0a32c6","system_id":"levelo_inurba_marseille","lat":43.29285,"lon":5.37447,"is_reserved":false,"is_disabled":false,"rental_uris":{"android":"levelo://app?vid=f31c7e9f-4848-4e4a-88d2-c26dfa0a32c6","ios":"levelo://app?vid=f31c7e9f-4848-4e4a-88d2-c26dfa0a32c6"},"vehicle_type_id":"4","last_reported":1741943462,"current_range_meters":14400,"station_id":"ce4bgi12rcd13ifvqb70","pricing_plan_id":"cebpf4jnsgd1na2vs0mg"},{"bike_id":"8a5bd971-61c1-4475-933b-dffdb284dd01","system_id":"levelo_inurba_marseille","lat":43.25003,"lon":5.38915,"is_reserved":false,"is_disabled":false,"rental_uris":{"android":"levelo://app?vid=8a5bd971-61c1-4475-933b-dffdb284dd01","ios":"levelo://app?vid=8a5bd971-61c1-4475-933b-dffdb284dd01"},"vehicle_type_id":"4","last_reported":1741943462,"current_range_meters":14400,"station_id":"ce4bhgp2rcd13ifvqfd0","pricing_plan_id":"cebpf4jnsgd1na2vs0mg"},{"bike_id":"05579cf8-619e-40fd-9191-b2bb2808e59a","system_id":"levelo_inurba_marseille","lat":43.26062,"lon":5.39396,"is_reserved":false,"is_disabled":false,"rental_uris":{"android":"levelo://app?vid=05579cf8-619e-40fd-9191-b2bb2808e59a","ios":"levelo://app?vid=05579cf8-619e-40fd-9191-b2bb2808e59a"},"vehicle_type_id":"4","last_reported":1741943462,"current_range_meters":14400,"station_id":"ce4bhh92rcd13ifvqfj0","pricing_plan_id":"cebpf4jnsgd1na2vs0mg"},{"bike_id":"5a9264aa-f9b9-4f12-84b9-39826d5b9f32","system_id":"levelo_inurba_marseille","lat":43.28154,"lon":5.42639,"is_reserved":false,"is_disabled":false,"rental_uris":{"android":"levelo://app?vid=5a9264aa-f9b9-4f12-84b9-39826d5b9f32","ios":"levelo://app?vid=5a9264aa-f9b9-4f12-84b9-39826d5b9f32"},"vehicle_type_id":"4","last_reported":1741943462,"current_range_meters":14000,"station_id":"ce4bhnh2rcd13ifvqgug","pricing_plan_id":"cebpf4jnsgd1na2vs0mg"},{"bike_id":"08aba3aa-7a3d-46d0-88b5-d9cd022e8ed7","system_id":"levelo_inurba_marseille","lat":43.29912,"lon":5.38153,"is_reserved":false,"is_disabled":false,"rental_uris":{"android":"levelo://app?vid=08aba3aa-7a3d-46d0-88b5-d9cd022e8ed7","ios":"levelo://app?vid=08aba3aa-7a3d-46d0-88b5-d9cd022e8ed7"},"vehicle_type_id":"4","last_reported":1741943462,"current_range_meters":14400,"station_id":"ce4bgj12rcd13ifvqbc0","pricing_plan_id":"cebpf4jnsgd1na2vs0mg"},{"bike_id":"04f149c6-a120-4218-b435-a952d9eb67d0","system_id":"levelo_inurba_marseille","lat":43.24877,"lon":5.40669,"is_reserved":false,"is_disabled":false,"rental_uris":{"android":"levelo://app?vid=04f149c6-a120-4218-b435-a952d9eb67d0","ios":"levelo://app?vid=04f149c6-a120-4218-b435-a952d9eb67d0"},"vehicle_type_id":"4","last_reported":1741943462,"current_range_meters":14400,"station_id":"","pricing_plan_id":"cebpf4jnsgd1na2vs0mg"},{"bike_id":"853f87d7-f6ef-43fc-9517-58162364c8e1","system_id":"levelo_inurba_marseille","lat":43.265742,"lon":5.390096,"is_reserved":false,"is_disabled":false,"rental_uris":{"android":"levelo://app?vid=853f87d7-f6ef-43fc-9517-58162364c8e1","ios":"levelo://app?vid=853f87d7-f6ef-43fc-9517-58162364c8e1"},"vehicle_type_id":"4","last_reported":1741943462,"current_range_meters":14400,"station_id":"ce4bhe12rcd13ifvqf30","pricing_plan_id":"cebpf4jnsgd1na2vs0mg"},{"bike_id":"8eb1a957-a48f-4ea1-9a87-c9ca711e52f4","system_id":"levelo_inurba_marseille","lat":43.314934,"lon":5.372905,"is_reserved":false,"is_disabled":false,"rental_uris":{"android":"levelo://app?vid=8eb1a957-a48f-4ea1-9a87-c9ca711e52f4","ios":"levelo://app?vid=8eb1a957-a48f-4ea1-9a87-c9ca711e52f4"},"vehicle_type_id":"4","last_reported":1741943462,"current_range_meters":14400,"station_id":"ce4bgt12rcd13ifvqcd0","pricing_plan_id":"cebpf4jnsgd1na2vs0mg"},{"bike_id":"becda54e-4c9f-47d0-a4d3-7b06ca7ac310","system_id":"levelo_inurba_marseille","lat":43.30951,"lon":5.39044,"is_reserved":false,"is_disabled":false,"rental_uris":{"android":"levelo://app?vid=becda54e-4c9f-47d0-a4d3-7b06ca7ac310","ios":"levelo://app?vid=becda54e-4c9f-47d0-a4d3-7b06ca7ac310"},"vehicle_type_id":"4","last_reported":1741943462,"current_range_meters":15200,"station_id":"ce4bgup2rcd13ifvqco0","pricing_plan_id":"cebpf4jnsgd1na2vs0mg"},{"bike_id":"ef0676ee-ec00-49d2-889d-44742eb36379","system_id":"levelo_inurba_marseille","lat":43.27418,"lon":5.39403,"is_reserved":false,"is_disabled":false,"rental_uris":{"android":"levelo://app?vid=ef0676ee-ec00-49d2-889d-44742eb36379","ios":"levelo://app?vid=ef0676ee-ec00-49d2-889d-44742eb36379"},"vehicle_type_id":"4","last_reported":1741943462,"current_range_meters":14400,"station_id":"ce4bhdp2rcd13ifvqf20","pricing_plan_id":"cebpf4jnsgd1na2vs0mg"},{"bike_id":"b0e54cd0-4953-49cd-95d9-9a4cd180171c","system_id":"levelo_inurba_marseille","lat":43.27211,"lon":5.39176,"is_reserved":false,"is_disabled":false,"rental_uris":{"android":"levelo://app?vid=b0e54cd0-4953-49cd-95d9-9a4cd180171c","ios":"levelo://app?vid=b0e54cd0-4953-49cd-95d9-9a4cd180171c"},"vehicle_type_id":"4","last_reported":1741943462,"current_range_meters":14800,"station_id":"ce4bhhp2rcd13ifvqfm0","pricing_plan_id":"cebpf4jnsgd1na2vs0mg"},{"bike_id":"26e54f8c-b0fe-4c64-b699-6905df72ee3e","system_id":"levelo_inurba_marseille","lat":43.30202,"lon":5.39468,"is_reserved":false,"is_disabled":false,"rental_uris":{"android":"levelo://app?vid=26e54f8c-b0fe-4c64-b699-6905df72ee3e","ios":"levelo://app?vid=26e54f8c-b0fe-4c64-b699-6905df72ee3e"},"vehicle_type_id":"4","last_reported":1741943462,"current_range_meters":14800,"station_id":"ce4bh0p2rcd13ifvqd70","pricing_plan_id":"cebpf4jnsgd1na2vs0mg"},{"bike_id":"676e66c6-8e50-404c-b512-5f94c7d6a8fc","system_id":"levelo_inurba_marseille","lat":43.24181,"lon":5.36396,"is_reserved":false,"is_disabled":false,"rental_uris":{"android":"levelo://app?vid=676e66c6-8e50-404c-b512-5f94c7d6a8fc","ios":"levelo://app?vid=676e66c6-8e50-404c-b512-5f94c7d6a8fc"},"vehicle_type_id":"4","last_reported":1741943462,"current_range_meters":15200,"station_id":"cpo36qri1sfpv3e86is0","pricing_plan_id":"cebpf4jnsgd1na2vs0mg"},{"bike_id":"a77e8909-032a-498a-b33b-825f6babf322","system_id":"levelo_inurba_marseille","lat":43.276231,"lon":5.422548,"is_reserved":false,"is_disabled":false,"rental_uris":{"android":"levelo://app?vid=a77e8909-032a-498a-b33b-825f6babf322","ios":"levelo://app?vid=a77e8909-032a-498a-b33b-825f6babf322"},"vehicle_type_id":"4","last_reported":1741943462,"current_range_meters":15200,"station_id":"ce4bhn92rcd13ifvqgrg","pricing_plan_id":"cebpf4jnsgd1na2vs0mg"},{"bike_id":"e0f00ea1-5190-455d-8f01-943045ce62ae","system_id":"levelo_inurba_marseille","lat":43.31172,"lon":5.3775,"is_reserved":false,"is_disabled":false,"rental_uris":{"android":"levelo://app?vid=e0f00ea1-5190-455d-8f01-943045ce62ae","ios":"levelo://app?vid=e0f00ea1-5190-455d-8f01-943045ce62ae"},"vehicle_type_id":"4","last_reported":1741943462,"current_range_meters":15200,"station_id":"","pricing_plan_id":"cebpf4jnsgd1na2vs0mg"},{"bike_id":"c6d4f76d-e0ee-4bb4-8c0f-28735d655542","system_id":"levelo_inurba_marseille","lat":43.34165,"lon":5.40898,"is_reserved":false,"is_disabled":false,"rental_uris":{"android":"levelo://app?vid=c6d4f76d-e0ee-4bb4-8c0f-28735d655542","ios":"levelo://app?vid=c6d4f76d-e0ee-4bb4-8c0f-28735d655542"},"vehicle_type_id":"4","last_reported":1741943462,"current_range_meters":15200,"station_id":"ce4bhqh2rcd13ifvqhlg","pricing_plan_id":"cebpf4jnsgd1na2vs0mg"},{"bike_id":"47bf8666-8072-4f5c-bdfd-6f1a8864ba44","system_id":"levelo_inurba_marseille","lat":43.26685,"lon":5.38275,"is_reserved":false,"is_disabled":false,"rental_uris":{"android":"levelo://app?vid=47bf8666-8072-4f5c-bdfd-6f1a8864ba44","ios":"levelo://app?vid=47bf8666-8072-4f5c-bdfd-6f1a8864ba44"},"vehicle_type_id":"4","last_reported":1741943462,"current_range_meters":16000,"station_id":"ce4bhg92rcd13ifvqf90","pricing_plan_id":"cebpf4jnsgd1na2vs0mg"},{"bike_id":"4a0ff0ad-95f1-4831-8f5d-45ce001dbc8a","system_id":"levelo_inurba_marseille","lat":43.30465,"lon":5.37913,"is_reserved":false,"is_disabled":false,"rental_uris":{"android":"levelo://app?vid=4a0ff0ad-95f1-4831-8f5d-45ce001dbc8a","ios":"levelo://app?vid=4a0ff0ad-95f1-4831-8f5d-45ce001dbc8a"},"vehicle_type_id":"4","last_reported":1741943462,"current_range_meters":15200,"station_id":"ce4bgup2rcd13ifvqcn0","pricing_plan_id":"cebpf4jnsgd1na2vs0mg"},{"bike_id":"d2c932c3-3291-4f1b-b581-cc3164c2738d","system_id":"levelo_inurba_marseille","lat":43.30466,"lon":5.37901,"is_reserved":false,"is_disabled":false,"rental_uris":{"android":"levelo://app?vid=d2c932c3-3291-4f1b-b581-cc3164c2738d","ios":"levelo://app?vid=d2c932c3-3291-4f1b-b581-cc3164c2738d"},"vehicle_type_id":"4","last_reported":1741943462,"current_range_meters":16000,"station_id":"ce4bgup2rcd13ifvqcn0","pricing_plan_id":"cebpf4jnsgd1na2vs0mg"},{"bike_id":"8366cdf6-0b1c-430d-903b-435a06c64917","system_id":"levelo_inurba_marseille","lat":43.2621,"lon":5.3744,"is_reserved":false,"is_disabled":false,"rental_uris":{"android":"levelo://app?vid=8366cdf6-0b1c-430d-903b-435a06c64917","ios":"levelo://app?vid=8366cdf6-0b1c-430d-903b-435a06c64917"},"vehicle_type_id":"4","last_reported":1741943462,"current_range_meters":16000,"station_id":"ce4bhgp2rcd13ifvqfc0","pricing_plan_id":"cebpf4jnsgd1na2vs0mg"},{"bike_id":"7ac836fc-8bfb-4f6d-9ed8-aaa4df0bd855","system_id":"levelo_inurba_marseille","lat":43.323599,"lon":5.388869,"is_reserved":false,"is_disabled":false,"rental_uris":{"android":"levelo://app?vid=7ac836fc-8bfb-4f6d-9ed8-aaa4df0bd855","ios":"levelo://app?vid=7ac836fc-8bfb-4f6d-9ed8-aaa4df0bd855"},"vehicle_type_id":"4","last_reported":1741943462,"current_range_meters":16000,"station_id":"ce4bhqp2rcd13ifvqhog","pricing_plan_id":"cebpf4jnsgd1na2vs0mg"},{"bike_id":"4180b4fe-21df-4fcb-8ea6-aab5cd961e69","system_id":"levelo_inurba_marseille","lat":43.31912,"lon":5.40734,"is_reserved":false,"is_disabled":true,"rental_uris":{"android":"levelo://app?vid=4180b4fe-21df-4fcb-8ea6-aab5cd961e69","ios":"levelo://app?vid=4180b4fe-21df-4fcb-8ea6-aab5cd961e69"},"vehicle_type_id":"4","last_reported":1741943462,"current_range_meters":16000,"station_id":"ce4bhq12rcd13ifvqhig","pricing_plan_id":"cebpf4jnsgd1na2vs0mg"},{"bike_id":"385ae15c-2c3c-4490-a507-5eb20fb883a5","system_id":"levelo_inurba_marseille","lat":43.25938,"lon":5.40906,"is_reserved":false,"is_disabled":false,"rental_uris":{"android":"levelo://app?vid=385ae15c-2c3c-4490-a507-5eb20fb883a5","ios":"levelo://app?vid=385ae15c-2c3c-4490-a507-5eb20fb883a5"},"vehicle_type_id":"4","last_reported":1741943462,"current_range_meters":16000,"station_id":"ce4bhm92rcd13ifvqglg","pricing_plan_id":"cebpf4jnsgd1na2vs0mg"},{"bike_id":"af2b5855-f21f-4585-9d1d-7c002cf2b81c","system_id":"levelo_inurba_marseille","lat":43.278159,"lon":5.407035,"is_reserved":false,"is_disabled":false,"rental_uris":{"android":"levelo://app?vid=af2b5855-f21f-4585-9d1d-7c002cf2b81c","ios":"levelo://app?vid=af2b5855-f21f-4585-9d1d-7c002cf2b81c"},"vehicle_type_id":"4","last_reported":1741943462,"current_range_meters":16000,"station_id":"","pricing_plan_id":"cebpf4jnsgd1na2vs0mg"},{"bike_id":"40ba87ab-b9bf-4314-ba6e-9bc2ce38b306","system_id":"levelo_inurba_marseille","lat":43.27831,"lon":5.39202,"is_reserved":false,"is_disabled":false,"rental_uris":{"android":"levelo://app?vid=40ba87ab-b9bf-4314-ba6e-9bc2ce38b306","ios":"levelo://app?vid=40ba87ab-b9bf-4314-ba6e-9bc2ce38b306"},"vehicle_type_id":"4","last_reported":1741943462,"current_range_meters":16000,"station_id":"ce4bhjp2rcd13ifvqga0","pricing_plan_id":"cebpf4jnsgd1na2vs0mg"},{"bike_id":"6de26fe8-e601-41a4-95fb-a0c7b8125e02","system_id":"levelo_inurba_marseille","lat":43.2408,"lon":5.3776,"is_reserved":false,"is_disabled":false,"rental_uris":{"android":"levelo://app?vid=6de26fe8-e601-41a4-95fb-a0c7b8125e02","ios":"levelo://app?vid=6de26fe8-e601-41a4-95fb-a0c7b8125e02"},"vehicle_type_id":"4","last_reported":1741943462,"current_range_meters":16000,"station_id":"ce4bhnp2rcd13ifvqgvg","pricing_plan_id":"cebpf4jnsgd1na2vs0mg"},{"bike_id":"f4d0537d-d0af-40c6-b54d-0455ed89b459","system_id":"levelo_inurba_marseille","lat":43.30543,"lon":5.38435,"is_reserved":false,"is_disabled":false,"rental_uris":{"android":"levelo://app?vid=f4d0537d-d0af-40c6-b54d-0455ed89b459","ios":"levelo://app?vid=f4d0537d-d0af-40c6-b54d-0455ed89b459"},"vehicle_type_id":"4","last_reported":1741943462,"current_range_meters":16000,"station_id":"ce4bgg92rcd13ifvqb30","pricing_plan_id":"cebpf4jnsgd1na2vs0mg"},{"bike_id":"4f40e8b1-1d2d-4b41-8fb4-f7f4b3a308bc","system_id":"levelo_inurba_marseille","lat":43.23136,"lon":5.43664,"is_reserved":false,"is_disabled":false,"rental_uris":{"android":"levelo://app?vid=4f40e8b1-1d2d-4b41-8fb4-f7f4b3a308bc","ios":"levelo://app?vid=4f40e8b1-1d2d-4b41-8fb4-f7f4b3a308bc"},"vehicle_type_id":"4","last_reported":1741943462,"current_range_meters":16400,"station_id":"ce4bhmp2rcd13ifvqgog","pricing_plan_id":"cebpf4jnsgd1na2vs0mg"},{"bike_id":"cabd3d2d-330e-43b2-8d0b-3e86699f79e1","system_id":"levelo_inurba_marseille","lat":43.241654,"lon":5.364019,"is_reserved":false,"is_disabled":false,"rental_uris":{"android":"levelo://app?vid=cabd3d2d-330e-43b2-8d0b-3e86699f79e1","ios":"levelo://app?vid=cabd3d2d-330e-43b2-8d0b-3e86699f79e1"},"vehicle_type_id":"4","last_reported":1741943462,"current_range_meters":16400,"station_id":"cpo36qri1sfpv3e86is0","pricing_plan_id":"cebpf4jnsgd1na2vs0mg"},{"bike_id":"0b7bfdb8-fd03-4687-9225-8085184f929c","system_id":"levelo_inurba_marseille","lat":43.32335,"lon":5.36715,"is_reserved":false,"is_disabled":false,"rental_uris":{"android":"levelo://app?vid=0b7bfdb8-fd03-4687-9225-8085184f929c","ios":"levelo://app?vid=0b7bfdb8-fd03-4687-9225-8085184f929c"},"vehicle_type_id":"4","last_reported":1741943462,"current_range_meters":16400,"station_id":"ce4bhsh2rcd13ifvqi2g","pricing_plan_id":"cebpf4jnsgd1na2vs0mg"},{"bike_id":"26f57566-8401-47cb-a532-eb0f8aad38bc","system_id":"levelo_inurba_marseille","lat":43.23182,"lon":5.39999,"is_reserved":false,"is_disabled":false,"rental_uris":{"android":"levelo://app?vid=26f57566-8401-47cb-a532-eb0f8aad38bc","ios":"levelo://app?vid=26f57566-8401-47cb-a532-eb0f8aad38bc"},"vehicle_type_id":"4","last_reported":1741943462,"current_range_meters":16400,"station_id":"ce4bhn12rcd13ifvqgqg","pricing_plan_id":"cebpf4jnsgd1na2vs0mg"},{"bike_id":"d9985005-5aa4-4629-b3b6-2c235deb0054","system_id":"levelo_inurba_marseille","lat":43.30594,"lon":5.37233,"is_reserved":false,"is_disabled":false,"rental_uris":{"android":"levelo://app?vid=d9985005-5aa4-4629-b3b6-2c235deb0054","ios":"levelo://app?vid=d9985005-5aa4-4629-b3b6-2c235deb0054"},"vehicle_type_id":"4","last_reported":1741943462,"current_range_meters":16800,"station_id":"ce4bgqh2rcd13ifvqc4g","pricing_plan_id":"cebpf4jnsgd1na2vs0mg"},{"bike_id":"a5754c81-27ee-47e9-be63-a995b35825b5","system_id":"levelo_inurba_marseille","lat":43.29896,"lon":5.38943,"is_reserved":false,"is_disabled":true,"rental_uris":{"android":"levelo://app?vid=a5754c81-27ee-47e9-be63-a995b35825b5","ios":"levelo://app?vid=a5754c81-27ee-47e9-be63-a995b35825b5"},"vehicle_type_id":"4","last_reported":1741943462,"current_range_meters":16800,"station_id":"ce4bh392rcd13ifvqdl0","pricing_plan_id":"cebpf4jnsgd1na2vs0mg"},{"bike_id":"76b5d343-6624-4366-8e6e-f702d50ae492","system_id":"levelo_inurba_marseille","lat":43.231905,"lon":5.355548,"is_reserved":false,"is_disabled":false,"rental_uris":{"android":"levelo://app?vid=76b5d343-6624-4366-8e6e-f702d50ae492","ios":"levelo://app?vid=76b5d343-6624-4366-8e6e-f702d50ae492"},"vehicle_type_id":"4","last_reported":1741943462,"current_range_meters":16800,"station_id":"ce4bhu92rcd13ifvqi70","pricing_plan_id":"cebpf4jnsgd1na2vs0mg"},{"bike_id":"d5510000-bf1f-40b6-9e90-853c10060aee","system_id":"levelo_inurba_marseille","lat":43.29048,"lon":5.40007,"is_reserved":false,"is_disabled":true,"rental_uris":{"android":"levelo://app?vid=d5510000-bf1f-40b6-9e90-853c10060aee","ios":"levelo://app?vid=d5510000-bf1f-40b6-9e90-853c10060aee"},"vehicle_type_id":"4","last_reported":1741943462,"current_range_meters":16800,"station_id":"ce4bh392rcd13ifvqdm0","pricing_plan_id":"cebpf4jnsgd1na2vs0mg"},{"bike_id":"08d7ad39-29b9-4d1d-ab44-5a56dd13dd34","system_id":"levelo_inurba_marseille","lat":43.24072,"lon":5.37729,"is_reserved":false,"is_disabled":false,"rental_uris":{"android":"levelo://app?vid=08d7ad39-29b9-4d1d-ab44-5a56dd13dd34","ios":"levelo://app?vid=08d7ad39-29b9-4d1d-ab44-5a56dd13dd34"},"vehicle_type_id":"4","last_reported":1741943462,"current_range_meters":16800,"station_id":"ce4bhnp2rcd13ifvqgvg","pricing_plan_id":"cebpf4jnsgd1na2vs0mg"},{"bike_id":"59222430-0127-4c56-9dea-cdaec9b93f62","system_id":"levelo_inurba_marseille","lat":43.30901,"lon":5.36828,"is_reserved":false,"is_disabled":false,"rental_uris":{"android":"levelo://app?vid=59222430-0127-4c56-9dea-cdaec9b93f62","ios":"levelo://app?vid=59222430-0127-4c56-9dea-cdaec9b93f62"},"vehicle_type_id":"4","last_reported":1741943462,"current_range_meters":16800,"station_id":"ce4bgn92rcd13ifvqbvg","pricing_plan_id":"cebpf4jnsgd1na2vs0mg"},{"bike_id":"83783ead-721f-4d82-86e9-a8ac641b2edd","system_id":"levelo_inurba_marseille","lat":43.26232,"lon":5.40449,"is_reserved":false,"is_disabled":false,"rental_uris":{"android":"levelo://app?vid=83783ead-721f-4d82-86e9-a8ac641b2edd","ios":"levelo://app?vid=83783ead-721f-4d82-86e9-a8ac641b2edd"},"vehicle_type_id":"4","last_reported":1741943462,"current_range_meters":16800,"station_id":"ce4bhmh2rcd13ifvqgmg","pricing_plan_id":"cebpf4jnsgd1na2vs0mg"},{"bike_id":"70e74811-5755-462b-971a-5a64a80bde0b","system_id":"levelo_inurba_marseille","lat":43.31089,"lon":5.42432,"is_reserved":false,"is_disabled":false,"rental_uris":{"android":"levelo://app?vid=70e74811-5755-462b-971a-5a64a80bde0b","ios":"levelo://app?vid=70e74811-5755-462b-971a-5a64a80bde0b"},"vehicle_type_id":"4","last_reported":1741943462,"current_range_meters":16800,"station_id":"ce4bhp92rcd13ifvqhag","pricing_plan_id":"cebpf4jnsgd1na2vs0mg"},{"bike_id":"64986549-2c9e-4b9f-8464-f74cc2571bf2","system_id":"levelo_inurba_marseille","lat":43.24073,"lon":5.37739,"is_reserved":false,"is_disabled":false,"rental_uris":{"android":"levelo://app?vid=64986549-2c9e-4b9f-8464-f74cc2571bf2","ios":"levelo://app?vid=64986549-2c9e-4b9f-8464-f74cc2571bf2"},"vehicle_type_id":"4","last_reported":1741943462,"current_range_meters":16800,"station_id":"ce4bhnp2rcd13ifvqgvg","pricing_plan_id":"cebpf4jnsgd1na2vs0mg"},{"bike_id":"0824f3af-1839-42e3-b2eb-1bc7ef5d8244","system_id":"levelo_inurba_marseille","lat":43.27805,"lon":5.40728,"is_reserved":false,"is_disabled":false,"rental_uris":{"android":"levelo://app?vid=0824f3af-1839-42e3-b2eb-1bc7ef5d8244","ios":"levelo://app?vid=0824f3af-1839-42e3-b2eb-1bc7ef5d8244"},"vehicle_type_id":"4","last_reported":1741943462,"current_range_meters":16800,"station_id":"ce4bhnh2rcd13ifvqgtg","pricing_plan_id":"cebpf4jnsgd1na2vs0mg"},{"bike_id":"3fbdbed3-81eb-4ebd-99e8-fe7ae5272906","system_id":"levelo_inurba_marseille","lat":43.25836,"lon":5.39442,"is_reserved":false,"is_disabled":false,"rental_uris":{"android":"levelo://app?vid=3fbdbed3-81eb-4ebd-99e8-fe7ae5272906","ios":"levelo://app?vid=3fbdbed3-81eb-4ebd-99e8-fe7ae5272906"},"vehicle_type_id":"4","last_reported":1741943462,"current_range_meters":16800,"station_id":"ce4bhip2rcd13ifvqft0","pricing_plan_id":"cebpf4jnsgd1na2vs0mg"},{"bike_id":"b62f477e-6e44-4bfe-af9d-35b4be45ebdd","system_id":"levelo_inurba_marseille","lat":43.27313,"lon":5.39089,"is_reserved":false,"is_disabled":false,"rental_uris":{"android":"levelo://app?vid=b62f477e-6e44-4bfe-af9d-35b4be45ebdd","ios":"levelo://app?vid=b62f477e-6e44-4bfe-af9d-35b4be45ebdd"},"vehicle_type_id":"4","last_reported":1741943462,"current_range_meters":17200,"station_id":"ce4bhgp2rcd13ifvqfe0","pricing_plan_id":"cebpf4jnsgd1na2vs0mg"},{"bike_id":"7e809cf9-4d16-4e10-88b0-f3e27f97828a","system_id":"levelo_inurba_marseille","lat":43.25024,"lon":5.3894,"is_reserved":false,"is_disabled":false,"rental_uris":{"android":"levelo://app?vid=7e809cf9-4d16-4e10-88b0-f3e27f97828a","ios":"levelo://app?vid=7e809cf9-4d16-4e10-88b0-f3e27f97828a"},"vehicle_type_id":"4","last_reported":1741943462,"current_range_meters":17200,"station_id":"ce4bhgp2rcd13ifvqfd0","pricing_plan_id":"cebpf4jnsgd1na2vs0mg"},{"bike_id":"e52b41b5-52df-4c67-a85c-3cebb3bf7504","system_id":"levelo_inurba_marseille","lat":43.32353,"lon":5.36754,"is_reserved":false,"is_disabled":false,"rental_uris":{"android":"levelo://app?vid=e52b41b5-52df-4c67-a85c-3cebb3bf7504","ios":"levelo://app?vid=e52b41b5-52df-4c67-a85c-3cebb3bf7504"},"vehicle_type_id":"4","last_reported":1741943462,"current_range_meters":17200,"station_id":"ce4bhsh2rcd13ifvqi2g","pricing_plan_id":"cebpf4jnsgd1na2vs0mg"},{"bike_id":"b2f68bf0-c9d7-4f33-bef8-ddc7a2922e07","system_id":"levelo_inurba_marseille","lat":43.31535,"lon":5.40366,"is_reserved":false,"is_disabled":false,"rental_uris":{"android":"levelo://app?vid=b2f68bf0-c9d7-4f33-bef8-ddc7a2922e07","ios":"levelo://app?vid=b2f68bf0-c9d7-4f33-bef8-ddc7a2922e07"},"vehicle_type_id":"4","last_reported":1741943462,"current_range_meters":17200,"station_id":"","pricing_plan_id":"cebpf4jnsgd1na2vs0mg"},{"bike_id":"4e6f0977-db51-4960-82e5-6fcbf9faa4f0","system_id":"levelo_inurba_marseille","lat":43.296314,"lon":5.376889,"is_reserved":false,"is_disabled":false,"rental_uris":{"android":"levelo://app?vid=4e6f0977-db51-4960-82e5-6fcbf9faa4f0","ios":"levelo://app?vid=4e6f0977-db51-4960-82e5-6fcbf9faa4f0"},"vehicle_type_id":"4","last_reported":1741943462,"current_range_meters":17200,"station_id":"ce4bgi92rcd13ifvqb90","pricing_plan_id":"cebpf4jnsgd1na2vs0mg"},{"bike_id":"cfcbfe05-b3db-4492-abd2-14d2ed017510","system_id":"levelo_inurba_marseille","lat":43.27065,"lon":5.42282,"is_reserved":false,"is_disabled":false,"rental_uris":{"android":"levelo://app?vid=cfcbfe05-b3db-4492-abd2-14d2ed017510","ios":"levelo://app?vid=cfcbfe05-b3db-4492-abd2-14d2ed017510"},"vehicle_type_id":"4","last_reported":1741943462,"current_range_meters":17200,"station_id":"ce4bhk92rcd13ifvqgb0","pricing_plan_id":"cebpf4jnsgd1na2vs0mg"},{"bike_id":"7264db2e-f039-40a3-9503-eb4b3a05c824","system_id":"levelo_inurba_marseille","lat":43.316508,"lon":5.389217,"is_reserved":false,"is_disabled":false,"rental_uris":{"android":"levelo://app?vid=7264db2e-f039-40a3-9503-eb4b3a05c824","ios":"levelo://app?vid=7264db2e-f039-40a3-9503-eb4b3a05c824"},"vehicle_type_id":"4","last_reported":1741943462,"current_range_meters":17600,"station_id":"ce4bgt12rcd13ifvqce0","pricing_plan_id":"cebpf4jnsgd1na2vs0mg"},{"bike_id":"744a4668-cf4f-455a-84ca-8a867be4c050","system_id":"levelo_inurba_marseille","lat":43.32453,"lon":5.36545,"is_reserved":false,"is_disabled":false,"rental_uris":{"android":"levelo://app?vid=744a4668-cf4f-455a-84ca-8a867be4c050","ios":"levelo://app?vid=744a4668-cf4f-455a-84ca-8a867be4c050"},"vehicle_type_id":"4","last_reported":1741943462,"current_range_meters":17600,"station_id":"ce4bhs12rcd13ifvqhvg","pricing_plan_id":"cebpf4jnsgd1na2vs0mg"},{"bike_id":"d492b8fd-8f87-4a56-9934-fd6df919abb7","system_id":"levelo_inurba_marseille","lat":43.27819,"lon":5.40727,"is_reserved":false,"is_disabled":false,"rental_uris":{"android":"levelo://app?vid=d492b8fd-8f87-4a56-9934-fd6df919abb7","ios":"levelo://app?vid=d492b8fd-8f87-4a56-9934-fd6df919abb7"},"vehicle_type_id":"4","last_reported":1741943462,"current_range_meters":17600,"station_id":"ce4bhnh2rcd13ifvqgtg","pricing_plan_id":"cebpf4jnsgd1na2vs0mg"},{"bike_id":"567f6cd1-46bd-4693-9e7c-cb66bdfec3cf","system_id":"levelo_inurba_marseille","lat":43.26568,"lon":5.3903,"is_reserved":false,"is_disabled":false,"rental_uris":{"android":"levelo://app?vid=567f6cd1-46bd-4693-9e7c-cb66bdfec3cf","ios":"levelo://app?vid=567f6cd1-46bd-4693-9e7c-cb66bdfec3cf"},"vehicle_type_id":"4","last_reported":1741943462,"current_range_meters":17600,"station_id":"ce4bhe12rcd13ifvqf30","pricing_plan_id":"cebpf4jnsgd1na2vs0mg"},{"bike_id":"d13948ce-2eca-438f-a242-2e61e54403de","system_id":"levelo_inurba_marseille","lat":43.26677,"lon":5.38252,"is_reserved":false,"is_disabled":false,"rental_uris":{"android":"levelo://app?vid=d13948ce-2eca-438f-a242-2e61e54403de","ios":"levelo://app?vid=d13948ce-2eca-438f-a242-2e61e54403de"},"vehicle_type_id":"4","last_reported":1741943462,"current_range_meters":17600,"station_id":"ce4bhg92rcd13ifvqf90","pricing_plan_id":"cebpf4jnsgd1na2vs0mg"},{"bike_id":"25274a25-b64b-423d-8515-597b4f6d1008","system_id":"levelo_inurba_marseille","lat":43.29296,"lon":5.37463,"is_reserved":false,"is_disabled":false,"rental_uris":{"android":"levelo://app?vid=25274a25-b64b-423d-8515-597b4f6d1008","ios":"levelo://app?vid=25274a25-b64b-423d-8515-597b4f6d1008"},"vehicle_type_id":"4","last_reported":1741943462,"current_range_meters":17600,"station_id":"ce4bgi12rcd13ifvqb70","pricing_plan_id":"cebpf4jnsgd1na2vs0mg"},