{"last_updated":1734142650,"ttl":60,"version":"2.2","data":{"bikes":[{"bike_id":"45c22bfb-3859-46ca-bbdd-b43970628095","system_id":"levelo_inurba_marseille","lat":43.23197,"lon":5.39989,"is_reserved":false,"is_disabled":false,"rental_uris":{"android":"levelo://app?vid=45c22bfb-3859-46ca-bbdd-b43970628095","ios":"levelo://app?vid=45c22bfb-3859-46ca-bbdd-b43970628095"},"vehicle_type_id":"4","last_reported":1734142650,"current_range_meters":24800,"station_id":"ce4bhn12rcd13ifvqgqg","pricing_plan_id":"cebpf4jnsgd1na2vs0mg"},{"bike_id":"3e5d99b9-1aaf-48b9-b5fb-fb7a0b5b1ba5","system_id":"levelo_inurba_marseille","lat":43.29064,"lon":5.39281,"is_reserved":false,"is_disabled":true,"rental_uris":{"android":"levelo://app?vid=3e5d99b9-1aaf-48b9-b5fb-fb7a0b5b1ba5","ios":"levelo://app?vid=3e5d99b9-1aaf-48b9-b5fb-fb7a0b5b1ba5"},"vehicle_type_id":"4","last_reported":1734142650,"current_range_meters":0,"station_id":"","pricing_plan_id":"cebpf4jnsgd1na2vs0mg"},{"bike_id":"d6d724d3-b8b3-4c37-86fc-6d7f3ab66367","system_id":"levelo_inurba_marseille","lat":43.29623,"lon":5.40574,"is_reserved":false,"is_disabled":false,"rental_uris":{"android":"levelo://app?vid=d6d724d3-b8b3-4c37-86fc-6d7f3ab66367","ios":"levelo://app?vid=d6d724d3-b8b3-4c37-86fc-6d7f3ab66367"},"vehicle_type_id":"4","last_reported":1734142650,"current_range_meters":28000,"station_id":"ce4bh0h2rcd13ifvqd60","pricing_plan_id":"cebpf4jnsgd1na2vs0mg"},{"bike_id":"e0a9efba-6485-436f-ae65-a273cf25e0ce","system_id":"levelo_inurba_marseille","lat":43.27373,"lon":5.36265,"is_reserved":false,"is_disabled":false,"rental_uris":{"android":"levelo://app?vid=e0a9efba-6485-436f-ae65-a273cf25e0ce","ios":"levelo://app?vid=e0a9efba-6485-436f-ae65-a273cf25e0ce"},"vehicle_type_id":"4","last_reported":1734142650,"current_range_meters":38000,"station_id":"ce4bhbh2rcd13ifvqeo0","pricing_plan_id":"cebpf4jnsgd1na2vs0mg"},{"bike_id":"55c52e02-0cdf-453d-a05b-f0f604647bf3","system_id":"levelo_inurba_marseille","lat":43.27947,"lon":5.4111,"is_reserved":false,"is_disabled":false,"rental_uris":{"android":"levelo://app?vid=55c52e02-0cdf-453d-a05b-f0f604647bf3","ios":"levelo://app?vid=55c52e02-0cdf-453d-a05b-f0f604647bf3"},"vehicle_type_id":"4","last_reported":1734142650,"current_range_meters":16400,"station_id":"ce4bhnp2rcd13ifvqh0g","pricing_plan_id":"cebpf4jnsgd1na2vs0mg"},{"bike_id":"575e7888-c21d-4a6d-9fe4-480369efea9f","system_id":"levelo_inurba_marseille","lat":43.31279,"lon":5.40187,"is_reserved":false,"is_disabled":false,"rental_uris":{"android":"levelo://app?vid=575e7888-c21d-4a6d-9fe4-480369efea9f","ios":"levelo://app?vid=575e7888-c21d-4a6d-9fe4-480369efea9f"},"vehicle_type_id":"4","last_reported":1734142650,"current_range_meters":39200,"station_id":"ce4bh092rcd13ifvqd30","pricing_plan_id":"cebpf4jnsgd1na2vs0mg"},{"bike_id":"19f9e8b0-a2e6-420a-a1af-f99d8fc40ad5","system_id":"levelo_inurba_marseille","lat":43.27561,"lon":5.38438,"is_reserved":false,"is_disabled":false,"rental_uris":{"android":"levelo://app?vid=19f9e8b0-a2e6-420a-a1af-f99d8fc40ad5","ios":"levelo://app?vid=19f9e8b0-a2e6-420a-a1af-f99d8fc40ad5"},"vehicle_type_id":"4","last_reported":1734142650,"current_range_meters":38400,"station_id":"ce4bhh92rcd13ifvqfi0","pricing_plan_id":"cebpf4jnsgd1na2vs0mg"},{"bike_id":"7a9a7a71-506f-4004-8638-7c075d636552","system_id":"levelo_inurba_marseille","lat":43.28565,"lon":5.39498,"is_reserved":false,"is_disabled":false,"rental_uris":{"android":"levelo://app?vid=7a9a7a71-506f-4004-8638-7c075d636552","ios":"levelo://app?vid=7a9a7a71-506f-4004-8638-7c075d636552"},"vehicle_type_id":"4","last_reported":1734142650,"current_range_meters":28400,"station_id":"ce4bh292rcd13ifvqdg0","pricing_plan_id":"cebpf4jnsgd1na2vs0mg"},{"bike_id":"dbe5bea0-cc7a-4044-80dc-6fd3209ffdb4","system_id":"levelo_inurba_marseille","lat":43.23196,"lon":5.399871,"is_reserved":false,"is_disabled":false,"rental_uris":{"android":"levelo://app?vid=dbe5bea0-cc7a-4044-80dc-6fd3209ffdb4","ios":"levelo://app?vid=dbe5bea0-cc7a-4044-80dc-6fd3209ffdb4"},"vehicle_type_id":"4","last_reported":1734142650,"current_range_meters":39200,"station_id":"ce4bhn12rcd13ifvqgqg","pricing_plan_id":"cebpf4jnsgd1na2vs0mg"},{"bike_id":"d0de775e-cad6-4967-a98d-1da6c39ed729","system_id":"levelo_inurba_marseille","lat":43.29938,"lon":5.36537,"is_reserved":false,"is_disabled":false,"rental_uris":{"android":"levelo://app?vid=d0de775e-cad6-4967-a98d-1da6c39ed729","ios":"levelo://app?vid=d0de775e-cad6-4967-a98d-1da6c39ed729"},"vehicle_type_id":"4","last_reported":1734142650,"current_range_meters":38800,"station_id":"ce4bgm92rcd13ifvqbr0","pricing_plan_id":"cebpf4jnsgd1na2vs0mg"},{"bike_id":"c0bf313a-9cfb-4d79-9432-2cef32f81705","system_id":"levelo_inurba_marseille","lat":43.287,"lon":5.39989,"is_reserved":false,"is_disabled":false,"rental_uris":{"android":"levelo://app?vid=c0bf313a-9cfb-4d79-9432-2cef32f81705","ios":"levelo://app?vid=c0bf313a-9cfb-4d79-9432-2cef32f81705"},"vehicle_type_id":"4","last_reported":1734142650,"current_range_meters":10000,"station_id":"ce4bho92rcd13ifvqh3g","pricing_plan_id":"cebpf4jnsgd1na2vs0mg"},{"bike_id":"1ca8b9ab-4a86-402b-a175-2064b6ef5e19","system_id":"levelo_inurba_marseille","lat":43.23959,"lon":5.36628,"is_reserved":false,"is_disabled":true,"rental_uris":{"android":"levelo://app?vid=1ca8b9ab-4a86-402b-a175-2064b6ef5e19","ios":"levelo://app?vid=1ca8b9ab-4a86-402b-a175-2064b6ef5e19"},"vehicle_type_id":"4","last_reported":1734142650,"current_range_meters":28800,"station_id":"ce4bhi12rcd13ifvqfp0","pricing_plan_id":"cebpf4jnsgd1na2vs0mg"},{"bike_id":"f53a51f1-6db0-4716-9c45-7ac4c7fcd208","system_id":"levelo_inurba_marseille","lat":43.3229,"lon":5.3826,"is_reserved":false,"is_disabled":false,"rental_uris":{"android":"levelo://app?vid=f53a51f1-6db0-4716-9c45-7ac4c7fcd208","ios":"levelo://app?vid=f53a51f1-6db0-4716-9c45-7ac4c7fcd208"},"vehicle_type_id":"4","last_reported":1734142650,"current_range_meters":30400,"station_id":"ce4bhr12rcd13ifvqhqg","pricing_plan_id":"cebpf4jnsgd1na2vs0mg"},{"bike_id":"980f96eb-32c9-4906-98f6-c44dbf4c84a1","system_id":"levelo_inurba_marseille","lat":43.27455,"lon":5.40073,"is_reserved":false,"is_disabled":true,"rental_uris":{"android":"levelo://app?vid=980f96eb-32c9-4906-98f6-c44dbf4c84a1","ios":"levelo://app?vid=980f96eb-32c9-4906-98f6-c44dbf4c84a1"},"vehicle_type_id":"4","last_reported":1734142650,"current_range_meters":0,"station_id":"","pricing_plan_id":"cebpf4jnsgd1na2vs0mg"},{"bike_id":"e8ed717d-9f26-45a9-bc82-774d381028bc","system_id":"levelo_inurba_marseille","lat":43.2955,"lon":5.42288,"is_reserved":false,"is_disabled":false,"rental_uris":{"android":"levelo://app?vid=e8ed717d-9f26-45a9-bc82-774d381028bc","ios":"levelo://app?vid=e8ed717d-9f26-45a9-bc82-774d381028bc"},"vehicle_type_id":"4","last_reported":1734142650,"current_range_meters":24000,"station_id":"ce4bhph2rcd13ifvqhdg","pricing_plan_id":"cebpf4jnsgd1na2vs0mg"},{"bike_id":"77f23e86-2969-46ee-a182-eca876676957","system_id":"levelo_inurba_marseille","lat":43.27904,"lon":5.39608,"is_reserved":false,"is_disabled":false,"rental_uris":{"android":"levelo://app?vid=77f23e86-2969-46ee-a182-eca876676957","ios":"levelo://app?vid=77f23e86-2969-46ee-a182-eca876676957"},"vehicle_type_id":"4","last_reported":1734142650,"current_range_meters":17200,"station_id":"ce4bhf92rcd13ifvqf40","pricing_plan_id":"cebpf4jnsgd1na2vs0mg"},{"bike_id":"d64735b9-3201-48f9-b7d1-d8bd9269830f","system_id":"levelo_inurba_marseille","lat":43.31333,"lon":5.39698,"is_reserved":false,"is_disabled":false,"rental_uris":{"android":"levelo://app?vid=d64735b9-3201-48f9-b7d1-d8bd9269830f","ios":"levelo://app?vid=d64735b9-3201-48f9-b7d1-d8bd9269830f"},"vehicle_type_id":"4","last_reported":1734142650,"current_range_meters":34800,"station_id":"ce4bgvp2rcd13ifvqcu0","pricing_plan_id":"cebpf4jnsgd1na2vs0mg"},{"bike_id":"145ad407-7195-4785-a3ae-4255062efe34","system_id":"levelo_inurba_marseille","lat":43.26038,"lon":5.38421,"is_reserved":false,"is_disabled":false,"rental_uris":{"android":"levelo://app?vid=145ad407-7195-4785-a3ae-4255062efe34","ios":"levelo://app?vid=145ad407-7195-4785-a3ae-4255062efe34"},"vehicle_type_id":"4","last_reported":1734142650,"current_range_meters":36000,"station_id":"","pricing_plan_id":"cebpf4jnsgd1na2vs0mg"},{"bike_id":"6c8f0fb1-dda3-46f8-8b7e-d47203e07a27","system_id":"levelo_inurba_marseille","lat":43.25419,"lon":5.38395,"is_reserved":false,"is_disabled":false,"rental_uris":{"android":"levelo://app?vid=6c8f0fb1-dda3-46f8-8b7e-d47203e07a27","ios":"levelo://app?vid=6c8f0fb1-dda3-46f8-8b7e-d47203e07a27"},"vehicle_type_id":"4","last_reported":1734142650,"current_range_meters":4800,"station_id":"","pricing_plan_id":"cebpf4jnsgd1na2vs0mg"},{"bike_id":"5fec8a5d-822b-426f-abba-65b014a1ad71","system_id":"levelo_inurba_marseille","lat":43.30794,"lon":5.37676,"is_reserved":false,"is_disabled":false,"rental_uris":{"android":"levelo://app?vid=5fec8a5d-822b-426f-abba-65b014a1ad71","ios":"levelo://app?vid=5fec8a5d-822b-426f-abba-65b014a1ad71"},"vehicle_type_id":"4","last_reported":1734142650,"current_range_meters":20800,"station_id":"ce4bgv92rcd13ifvqcq0","pricing_plan_id":"cebpf4jnsgd1na2vs0mg"},{"bike_id":"80e5c1e3-8d27-43e3-9451-b00f65b301df","system_id":"levelo_inurba_marseille","lat":43.23206,"lon":5.35565,"is_reserved":false,"is_disabled":false,"rental_uris":{"android":"levelo://app?vid=80e5c1e3-8d27-43e3-9451-b00f65b301df","ios":"levelo://app?vid=80e5c1e3-8d27-43e3-9451-b00f65b301df"},"vehicle_type_id":"4","last_reported":1734142650,"current_range_meters":8400,"station_id":"ce4bhu92rcd13ifvqi70","pricing_plan_id":"cebpf4jnsgd1na2vs0mg"},{"bike_id":"496b9119-850a-49b3-bf98-295bb079ca7c","system_id":"levelo_inurba_marseille","lat":43.28195,"lon":5.44586,"is_reserved":false,"is_disabled":false,"rental_uris":{"android":"levelo://app?vid=496b9119-850a-49b3-bf98-295bb079ca7c","ios":"levelo://app?vid=496b9119-850a-49b3-bf98-295bb079ca7c"},"vehicle_type_id":"4","last_reported":1734142650,"current_range_meters":13600,"station_id":"","pricing_plan_id":"cebpf4jnsgd1na2vs0mg"},{"bike_id":"0d67fd70-e4b1-42fe-abbd-da05c25ce133","system_id":"levelo_inurba_marseille","lat":43.27974,"lon":5.41664,"is_reserved":false,"is_disabled":false,"rental_uris":{"android":"levelo://app?vid=0d67fd70-e4b1-42fe-abbd-da05c25ce133","ios":"levelo://app?vid=0d67fd70-e4b1-42fe-abbd-da05c25ce133"},"vehicle_type_id":"4","last_reported":1734142650,"current_range_meters":38800,"station_id":"ce4bho12rcd13ifvqh1g","pricing_plan_id":"cebpf4jnsgd1na2vs0mg"},{"bike_id":"6ccb1b55-c0a9-46eb-8f0b-906ec7a25595","system_id":"levelo_inurba_marseille","lat":43.28266,"lon":5.3507,"is_reserved":false,"is_disabled":false,"rental_uris":{"android":"levelo://app?vid=6ccb1b55-c0a9-46eb-8f0b-906ec7a25595","ios":"levelo://app?vid=6ccb1b55-c0a9-46eb-8f0b-906ec7a25595"},"vehicle_type_id":"4","last_reported":1734142650,"current_range_meters":22400,"station_id":"ce4bhbp2rcd13ifvqerg","pricing_plan_id":"cebpf4jnsgd1na2vs0mg"},{"bike_id":"88f2033b-7e30-4fec-967e-f2db67085ede","system_id":"levelo_inurba_marseille","lat":43.34148,"lon":5.40915,"is_reserved":false,"is_disabled":false,"rental_uris":{"android":"levelo://app?vid=88f2033b-7e30-4fec-967e-f2db67085ede","ios":"levelo://app?vid=88f2033b-7e30-4fec-967e-f2db67085ede"},"vehicle_type_id":"4","last_reported":1734142650,"current_range_meters":38800,"station_id":"ce4bhqh2rcd13ifvqhlg","pricing_plan_id":"cebpf4jnsgd1na2vs0mg"},{"bike_id":"1a341f13-1fed-4461-850d-e3c63634c2cf","system_id":"levelo_inurba_marseille","lat":43.28266,"lon":5.35072,"is_reserved":false,"is_disabled":false,"rental_uris":{"android":"levelo://app?vid=1a341f13-1fed-4461-850d-e3c63634c2cf","ios":"levelo://app?vid=1a341f13-1fed-4461-850d-e3c63634c2cf"},"vehicle_type_id":"4","last_reported":1734142650,"current_range_meters":38800,"station_id":"ce4bhbp2rcd13ifvqerg","pricing_plan_id":"cebpf4jnsgd1na2vs0mg"},{"bike_id":"fb32aea2-d437-4e9e-95b8-ad6ed33d022d","system_id":"levelo_inurba_marseille","lat":43.28708,"lon":5.37941,"is_reserved":false,"is_disabled":true,"rental_uris":{"android":"levelo://app?vid=fb32aea2-d437-4e9e-95b8-ad6ed33d022d","ios":"levelo://app?vid=fb32aea2-d437-4e9e-95b8-ad6ed33d022d"},"vehicle_type_id":"4","last_reported":1734142650,"current_range_meters":26000,"station_id":"ce4bh9p2rcd13ifvqec0","pricing_plan_id":"cebpf4jnsgd1na2vs0mg"},{"bike_id":"d5c89c1f-3bad-4af2-9449-e04c277a4696","system_id":"levelo_inurba_marseille","lat":43.29929,"lon":5.41276,"is_reserved":false,"is_disabled":true,"rental_uris":{"android":"levelo://app?vid=d5c89c1f-3bad-4af2-9449-e04c277a4696","ios":"levelo://app?vid=d5c89c1f-3bad-4af2-9449-e04c277a4696"},"vehicle_type_id":"4","last_reported":1734142650,"current_range_meters":38800,"station_id":"ce4bhp12rcd13ifvqh9g","pricing_plan_id":"cebpf4jnsgd1na2vs0mg"},{"bike_id":"5cba9f55-9853-4014-82c1-7917379c085c","system_id":"levelo_inurba_marseille","lat":43.28651,"lon":5.36349,"is_reserved":false,"is_disabled":false,"rental_uris":{"android":"levelo://app?vid=5cba9f55-9853-4014-82c1-7917379c085c","ios":"levelo://app?vid=5cba9f55-9853-4014-82c1-7917379c085c"},"vehicle_type_id":"4","last_reported":1734142650,"current_range_meters":36800,"station_id":"ce4bhah2rcd13ifvqej0","pricing_plan_id":"cebpf4jnsgd1na2vs0mg"},{"bike_id":"5dcb142e-3766-4e2c-b1fe-c9ebbc5d3c50","system_id":"levelo_inurba_marseille","lat":43.31987,"lon":5.38134,"is_reserved":false,"is_disabled":false,"rental_uris":{"android":"levelo://app?vid=5dcb142e-3766-4e2c-b1fe-c9ebbc5d3c50","ios":"levelo://app?vid=5dcb142e-3766-4e2c-b1fe-c9ebbc5d3c50"},"vehicle_type_id":"4","last_reported":1734142650,"current_range_meters":6400,"station_id":"ce4bhr12rcd13ifvqhpg","pricing_plan_id":"cebpf4jnsgd1na2vs0mg"},{"bike_id":"8eeaf79c-4584-46fa-895b-e4130ccd2bcf","system_id":"levelo_inurba_marseille","lat":43.28266,"lon":5.35085,"is_reserved":false,"is_disabled":false,"rental_uris":{"android":"levelo://app?vid=8eeaf79c-4584-46fa-895b-e4130ccd2bcf","ios":"levelo://app?vid=8eeaf79c-4584-46fa-895b-e4130ccd2bcf"},"vehicle_type_id":"4","last_reported":1734142650,"current_range_meters":16000,"station_id":"ce4bhbp2rcd13ifvqerg","pricing_plan_id":"cebpf4jnsgd1na2vs0mg"},{"bike_id":"64627605-643a-4730-9663-edd23e6f226d","system_id":"levelo_inurba_marseille","lat":43.28725,"lon":5.36097,"is_reserved":false,"is_disabled":false,"rental_uris":{"android":"levelo://app?vid=64627605-643a-4730-9663-edd23e6f226d","ios":"levelo://app?vid=64627605-643a-4730-9663-edd23e6f226d"},"vehicle_type_id":"4","last_reported":1734142650,"current_range_meters":38000,"station_id":"cki0cbj6b192h4jlfktg","pricing_plan_id":"cebpf4jnsgd1na2vs0mg"},{"bike_id":"3a312272-900a-4c4b-bb5b-4ed6000e4b63","system_id":"levelo_inurba_marseille","lat":43.30168,"lon":5.38086,"is_reserved":false,"is_disabled":true,"rental_uris":{"android":"levelo://app?vid=3a312272-900a-4c4b-bb5b-4ed6000e4b63","ios":"levelo://app?vid=3a312272-900a-4c4b-bb5b-4ed6000e4b63"},"vehicle_type_id":"4","last_reported":1734142650,"current_range_meters":38800,"station_id":"ce4bgjp2rcd13ifvqbh0","pricing_plan_id":"cebpf4jnsgd1na2vs0mg"},{"bike_id":"2c385eaa-1149-4a07-9c30-5f524716fe80","system_id":"levelo_inurba_marseille","lat":43.30266,"lon":5.40062,"is_reserved":false,"is_disabled":false,"rental_uris":{"android":"levelo://app?vid=2c385eaa-1149-4a07-9c30-5f524716fe80","ios":"levelo://app?vid=2c385eaa-1149-4a07-9c30-5f524716fe80"},"vehicle_type_id":"4","last_reported":1734142650,"current_range_meters":38000,"station_id":"ce4bgvh2rcd13ifvqcs0","pricing_plan_id":"cebpf4jnsgd1na2vs0mg"},{"bike_id":"99c777fb-f3e9-457a-b392-4682c4d57bcc","system_id":"levelo_inurba_marseille","lat":43.33031,"lon":5.39039,"is_reserved":false,"is_disabled":false,"rental_uris":{"android":"levelo://app?vid=99c777fb-f3e9-457a-b392-4682c4d57bcc","ios":"levelo://app?vid=99c777fb-f3e9-457a-b392-4682c4d57bcc"},"vehicle_type_id":"4","last_reported":1734142650,"current_range_meters":30000,"station_id":"ce4bhr92rcd13ifvqhrg","pricing_plan_id":"cebpf4jnsgd1na2vs0mg"},{"bike_id":"6de8e652-abcb-49c4-a8fc-20606dfd741b","system_id":"levelo_inurba_marseille","lat":43.28465,"lon":5.35882,"is_reserved":false,"is_disabled":false,"rental_uris":{"android":"levelo://app?vid=6de8e652-abcb-49c4-a8fc-20606dfd741b","ios":"levelo://app?vid=6de8e652-abcb-49c4-a8fc-20606dfd741b"},"vehicle_type_id":"4","last_reported":1734142650,"current_range_meters":16000,"station_id":"ce4bhah2rcd13ifvqei0","pricing_plan_id":"cebpf4jnsgd1na2vs0mg"},{"bike_id":"1246e6b9-1bba-43b9-9075-2687b084a677","system_id":"levelo_inurba_marseille","lat":43.2587,"lon":5.39908,"is_reserved":false,"is_disabled":false,"rental_uris":{"android":"levelo://app?vid=1246e6b9-1bba-43b9-9075-2687b084a677","ios":"levelo://app?vid=1246e6b9-1bba-43b9-9075-2687b084a677"},"vehicle_type_id":"4","last_reported":1734142650,"current_range_meters":38800,"station_id":"ce4bhl92rcd13ifvqghg","pricing_plan_id":"cebpf4jnsgd1na2vs0mg"},{"bike_id":"b3a77dc0-a822-444f-91f4-872b6fc01306","system_id":"levelo_inurba_marseille","lat":43.30586,"lon":5.37232,"is_reserved":false,"is_disabled":false,"rental_uris":{"android":"levelo://app?vid=b3a77dc0-a822-444f-91f4-872b6fc01306","ios":"levelo://app?vid=b3a77dc0-a822-444f-91f4-872b6fc01306"},"vehicle_type_id":"4","last_reported":1734142650,"current_range_meters":32000,"station_id":"ce4bgqh2rcd13ifvqc4g","pricing_plan_id":"cebpf4jnsgd1na2vs0mg"},{"bike_id":"9658b4e0-946e-4511-8e18-b51586108f8c","system_id":"levelo_inurba_marseille","lat":43.33782,"lon":5.37438,"is_reserved":false,"is_disabled":false,"rental_uris":{"android":"levelo://app?vid=9658b4e0-946e-4511-8e18-b51586108f8c","ios":"levelo://app?vid=9658b4e0-946e-4511-8e18-b51586108f8c"},"vehicle_type_id":"4","last_reported":1734142650,"current_range_meters":36400,"station_id":"","pricing_plan_id":"cebpf4jnsgd1na2vs0mg"},{"bike_id":"2f747797-e559-43cf-b56c-5d5684c52fbf","system_id":"levelo_inurba_marseille","lat":43.3152,"lon":5.37294,"is_reserved":false,"is_disabled":true,"rental_uris":{"android":"levelo://app?vid=2f747797-e559-43cf-b56c-5d5684c52fbf","ios":"levelo://app?vid=2f747797-e559-43cf-b56c-5d5684c52fbf"},"vehicle_type_id":"4","last_reported":1734142650,"current_range_meters":0,"station_id":"ce4bgt12rcd13ifvqcd0","pricing_plan_id":"cebpf4jnsgd1na2vs0mg"},{"bike_id":"9bfcebe4-fee2-409c-a8ab-5608ab6f061f","system_id":"levelo_inurba_marseille","lat":43.28155,"lon":5.42746,"is_reserved":false,"is_disabled":true,"rental_uris":{"android":"levelo://app?vid=9bfcebe4-fee2-409c-a8ab-5608ab6f061f","ios":"levelo://app?vid=9bfcebe4-fee2-409c-a8ab-5608ab6f061f"},"vehicle_type_id":"4","last_reported":1734142650,"current_range_meters":36400,"station_id":"","pricing_plan_id":"cebpf4jnsgd1na2vs0mg"},{"bike_id":"21add69f-ef58-4db8-8eb1-1d3892b75566","system_id":"levelo_inurba_marseille","lat":43.30892,"lon":5.39637,"is_reserved":false,"is_disabled":false,"rental_uris":{"android":"levelo://app?vid=21add69f-ef58-4db8-8eb1-1d3892b75566","ios":"levelo://app?vid=21add69f-ef58-4db8-8eb1-1d3892b75566"},"vehicle_type_id":"4","last_reported":1734142650,"current_range_meters":18000,"station_id":"ce4bh012rcd13ifvqcv0","pricing_plan_id":"cebpf4jnsgd1na2vs0mg"},{"bike_id":"0e8a89dc-4e73-48a3-8682-6696627877b1","system_id":"levelo_inurba_marseille","lat":43.31753,"lon":5.39024,"is_reserved":false,"is_disabled":false,"rental_uris":{"android":"levelo://app?vid=0e8a89dc-4e73-48a3-8682-6696627877b1","ios":"levelo://app?vid=0e8a89dc-4e73-48a3-8682-6696627877b1"},"vehicle_type_id":"4","last_reported":1734142650,"current_range_meters":38400,"station_id":"ce4bhqp2rcd13ifvqhng","pricing_plan_id":"cebpf4jnsgd1na2vs0mg"},{"bike_id":"edaea664-24e0-4d6c-aa7a-497f5c5f88f6","system_id":"levelo_inurba_marseille","lat":43.27015,"lon":5.39145,"is_reserved":false,"is_disabled":true,"rental_uris":{"android":"levelo://app?vid=edaea664-24e0-4d6c-aa7a-497f5c5f88f6","ios":"levelo://app?vid=edaea664-24e0-4d6c-aa7a-497f5c5f88f6"},"vehicle_type_id":"4","last_reported":1734142650,"current_range_meters":0,"station_id":"","pricing_plan_id":"cebpf4jnsgd1na2vs0mg"},{"bike_id":"72ad76d7-5a2d-4089-9d42-96862758d84f","system_id":"levelo_inurba_marseille","lat":43.29525,"lon":5.390316,"is_reserved":false,"is_disabled":true,"rental_uris":{"android":"levelo://app?vid=72ad76d7-5a2d-4089-9d42-96862758d84f","ios":"levelo://app?vid=72ad76d7-5a2d-4089-9d42-96862758d84f"},"vehicle_type_id":"4","last_reported":1734142650,"current_range_meters":32800,"station_id":"ce4bh3p2rcd13ifvqdp0","pricing_plan_id":"cebpf4jnsgd1na2vs0mg"},{"bike_id":"4b37b18a-01cf-4748-abde-1d0ac9b07358","system_id":"levelo_inurba_marseille","lat":43.28464,"lon":5.35899,"is_reserved":false,"is_disabled":false,"rental_uris":{"android":"levelo://app?vid=4b37b18a-01cf-4748-abde-1d0ac9b07358","ios":"levelo://app?vid=4b37b18a-01cf-4748-abde-1d0ac9b07358"},"vehicle_type_id":"4","last_reported":1734142650,"current_range_meters":18800,"station_id":"ce4bhah2rcd13ifvqei0","pricing_plan_id":"cebpf4jnsgd1na2vs0mg"},{"bike_id":"c5cadfa9-b770-473b-8685-9ab3787dc527","system_id":"levelo_inurba_marseille","lat":43.28721,"lon":5.39994,"is_reserved":false,"is_disabled":false,"rental_uris":{"android":"levelo://app?vid=c5cadfa9-b770-473b-8685-9ab3787dc527","ios":"levelo://app?vid=c5cadfa9-b770-473b-8685-9ab3787dc527"},"vehicle_type_id":"4","last_reported":1734142650,"current_range_meters":31200,"station_id":"ce4bho92rcd13ifvqh3g","pricing_plan_id":"cebpf4jnsgd1na2vs0mg"},{"bike_id":"0fbaea75-3782-4c9f-aee5-9cab2c47d463","system_id":"levelo_inurba_marseille","lat":43.23959,"lon":5.36639,"is_reserved":false,"is_disabled":false,"rental_uris":{"android":"levelo://app?vid=0fbaea75-3782-4c9f-aee5-9cab2c47d463","ios":"levelo://app?vid=0fbaea75-3782-4c9f-aee5-9cab2c47d463"},"vehicle_type_id":"4","last_reported":1734142650,"current_range_meters":22400,"station_id":"ce4bhi12rcd13ifvqfp0","pricing_plan_id":"cebpf4jnsgd1na2vs0mg"},{"bike_id":"031809f5-fdc4-4687-967d-86d6a0becf47","system_id":"levelo_inurba_marseille","lat":43.2584,"lon":5.39843,"is_reserved":false,"is_disabled":false,"rental_uris":{"android":"levelo://app?vid=031809f5-fdc4-4687-967d-86d6a0becf47","ios":"levelo://app?vid=031809f5-fdc4-4687-967d-86d6a0becf47"},"vehicle_type_id":"4","last_reported":1734142650,"current_range_meters":38800,"station_id":"","pricing_plan_id":"cebpf4jnsgd1na2vs0mg"},{"bike_id":"66331cc1-d263-487f-86ec-bf9d2260ae21","system_id":"levelo_inurba_marseille","lat":43.25854,"lon":5.39926,"is_reserved":false,"is_disabled":false,"rental_uris":{"android":"levelo://app?vid=66331cc1-d263-487f-86ec-bf9d2260ae21","ios":"levelo://app?vid=66331cc1-d263-487f-86ec-bf9d2260ae21"},"vehicle_type_id":"4","last_reported":1734142650,"current_range_meters":38800,"station_id":"ce4bhl92rcd13ifvqghg","pricing_plan_id":"cebpf4jnsgd1na2vs0mg"},{"bike_id":"5f57b631-6bd2-4c7f-8ca2-84262d59805e","system_id":"levelo_inurba_marseille","lat":43.24672,"lon":5.38148,"is_reserved":false,"is_disabled":false,"rental_uris":{"android":"levelo://app?vid=5f57b631-6bd2-4c7f-8ca2-84262d59805e","ios":"levelo://app?vid=5f57b631-6bd2-4c7f-8ca2-84262d59805e"},"vehicle_type_id":"4","last_reported":1734142650,"current_range_meters":20800,"station_id":"ce4bhih2rcd13ifvqfr0","pricing_plan_id":"cebpf4jnsgd1na2vs0mg"},{"bike_id":"9b8de88d-3aac-4c23-948d-9b3427dee27a","system_id":"levelo_inurba_marseille","lat":43.32653,"lon":5.40972,"is_reserved":false,"is_disabled":false,"rental_uris":{"android":"levelo://app?vid=9b8de88d-3aac-4c23-948d-9b3427dee27a","ios":"levelo://app?vid=9b8de88d-3aac-4c23-948d-9b3427dee27a"},"vehicle_type_id":"4","last_reported":1734142650,"current_range_meters":38800,"station_id":"ce4bhpp2rcd13ifvqhgg","pricing_plan_id":"cebpf4jnsgd1na2vs0mg"},{"bike_id":"75d005f1-a104-4287-b501-1002db049ee7","system_id":"levelo_inurba_marseille","lat":43.3372,"lon":5.39181,"is_reserved":false,"is_disabled":false,"rental_uris":{"android":"levelo://app?vid=75d005f1-a104-4287-b501-1002db049ee7","ios":"levelo://app?vid=75d005f1-a104-4287-b501-1002db049ee7"},"vehicle_type_id":"4","last_reported":1734142650,"current_range_meters":38800,"station_id":"ce4bhr92rcd13ifvqhsg","pricing_plan_id":"cebpf4jnsgd1na2vs0mg"},{"bike_id":"9c1ce7b6-f5d4-48dd-b699-4ec030edf6d0","system_id":"levelo_inurba_marseille","lat":43.3302,"lon":5.3906,"is_reserved":false,"is_disabled":false,"rental_uris":{"android":"levelo://app?vid=9c1ce7b6-f5d4-48dd-b699-4ec030edf6d0","ios":"levelo://app?vid=9c1ce7b6-f5d4-48dd-b699-4ec030edf6d0"},"vehicle_type_id":"4","last_reported":1734142650,"current_range_meters":14000,"station_id":"ce4bhr92rcd13ifvqhrg","pricing_plan_id":"cebpf4jnsgd1na2vs0mg"},{"bike_id":"9a88aa52-5330-483f-9cee-487b21bd6332","system_id":"levelo_inurba_marseille","lat":43.31378,"lon":5.36703,"is_reserved":false,"is_disabled":true,"rental_uris":{"android":"levelo://app?vid=9a88aa52-5330-483f-9cee-487b21bd6332","ios":"levelo://app?vid=9a88aa52-5330-483f-9cee-487b21bd6332"},"vehicle_type_id":"4","last_reported":1734142650,"current_range_meters":38000,"station_id":"ce4bgr92rcd13ifvqc6g","pricing_plan_id":"cebpf4jnsgd1na2vs0mg"},{"bike_id":"30b7f7b0-cffb-44e8-9e23-86428fe1183d","system_id":"levelo_inurba_marseille","lat":43.23071,"lon":5.35492,"is_reserved":false,"is_disabled":false,"rental_uris":{"android":"levelo://app?vid=30b7f7b0-cffb-44e8-9e23-86428fe1183d","ios":"levelo://app?vid=30b7f7b0-cffb-44e8-9e23-86428fe1183d"},"vehicle_type_id":"4","last_reported":1734142650,"current_range_meters":37600,"station_id":"cpo3342slgdg3j2ifvpg","pricing_plan_id":"cebpf4jnsgd1na2vs0mg"},{"bike_id":"eaddc4d6-163a-482e-abbb-b79c1524cfdc","system_id":"levelo_inurba_marseille","lat":43.281,"lon":5.37819,"is_reserved":false,"is_disabled":false,"rental_uris":{"android":"levelo://app?vid=eaddc4d6-163a-482e-abbb-b79c1524cfdc","ios":"levelo://app?vid=eaddc4d6-163a-482e-abbb-b79c1524cfdc"},"vehicle_type_id":"4","last_reported":1734142650,"current_range_meters":10000,"station_id":"ce4bha12rcd13ifvqee0","pricing_plan_id":"cebpf4jnsgd1na2vs0mg"},{"bike_id":"4bba0e78-98b0-46f9-97d8-a9c33f64c622","system_id":"levelo_inurba_marseille","lat":43.2836,"lon":5.38102,"is_reserved":false,"is_disabled":false,"rental_uris":{"android":"levelo://app?vid=4bba0e78-98b0-46f9-97d8-a9c33f64c622","ios":"levelo://app?vid=4bba0e78-98b0-46f9-97d8-a9c33f64c622"},"vehicle_type_id":"4","last_reported":1734142650,"current_range_meters":38800,"station_id":"ce4bh412rcd13ifvqdr0","pricing_plan_id":"cebpf4jnsgd1na2vs0mg"},{"bike_id":"c962957d-ec10-4997-96e1-a869343f922e","system_id":"levelo_inurba_marseille","lat":43.32732,"lon":5.36144,"is_reserved":false,"is_disabled":false,"rental_uris":{"android":"levelo://app?vid=c962957d-ec10-4997-96e1-a869343f922e","ios":"levelo://app?vid=c962957d-ec10-4997-96e1-a869343f922e"},"vehicle_type_id":"4","last_reported":1734142650,"current_range_meters":2800,"station_id":"","pricing_plan_id":"cebpf4jnsgd1na2vs0mg"},{"bike_id":"5d8c4147-efc3-46d0-b949-f9ef59336e99","system_id":"levelo_inurba_marseille","lat":43.27941,"lon":5.41024,"is_reserved":false,"is_disabled":false,"rental_uris":{"android":"levelo://app?vid=5d8c4147-efc3-46d0-b949-f9ef59336e99","ios":"levelo://app?vid=5d8c4147-efc3-46d0-b949-f9ef59336e99"},"vehicle_type_id":"4","last_reported":1734142650,"current_range_meters":24800,"station_id":"ce4bhnp2rcd13ifvqh0g","pricing_plan_id":"cebpf4jnsgd1na2vs0mg"},{"bike_id":"bb14f36d-3645-4531-9655-e845e98af035","system_id":"levelo_inurba_marseille","lat":43.32288,"lon":5.38205,"is_reserved":false,"is_disabled":false,"rental_uris":{"android":"levelo://app?vid=bb14f36d-3645-4531-9655-e845e98af035","ios":"levelo://app?vid=bb14f36d-3645-4531-9655-e845e98af035"},"vehicle_type_id":"4","last_reported":1734142650,"current_range_meters":6400,"station_id":"ce4bhr12rcd13ifvqhqg","pricing_plan_id":"cebpf4jnsgd1na2vs0mg"},{"bike_id":"00079b4c-9675-44e4-9062-33f3eb831edc","system_id":"levelo_inurba_marseille","lat":43.30946,"lon":5.39041,"is_reserved":false,"is_disabled":false,"rental_uris":{"android":"levelo://app?vid=00079b4c-9675-44e4-9062-33f3eb831edc","ios":"levelo://app?vid=00079b4c-9675-44e4-9062-33f3eb831edc"},"vehicle_type_id":"4","last_reported":1734142650,"current_range_meters":32800,"station_id":"ce4bgup2rcd13ifvqco0","pricing_plan_id":"cebpf4jnsgd1na2vs0mg"},{"bike_id":"f26d38d8-effb-434b-8745-a8d3bb05577b","system_id":"levelo_inurba_marseille","lat":43.3006,"lon":5.37437,"is_reserved":false,"is_disabled":false,"rental_uris":{"android":"levelo://app?vid=f26d38d8-effb-434b-8745-a8d3bb05577b","ios":"levelo://app?vid=f26d38d8-effb-434b-8745-a8d3bb05577b"},"vehicle_type_id":"4","last_reported":1734142650,"current_range_meters":32800,"station_id":"ce4bgs92rcd13ifvqcc0","pricing_plan_id":"cebpf4jnsgd1na2vs0mg"},{"bike_id":"f24a7910-9e53-4b68-a90d-9e1a3327280e","system_id":"levelo_inurba_marseille","lat":43.27615,"lon":5.36119,"is_reserved":false,"is_disabled":false,"rental_uris":{"android":"levelo://app?vid=f24a7910-9e53-4b68-a90d-9e1a3327280e","ios":"levelo://app?vid=f24a7910-9e53-4b68-a90d-9e1a3327280e"},"vehicle_type_id":"4","last_reported":1734142650,"current_range_meters":38800,"station_id":"ce4bgj92rcd13ifvqbe0","pricing_plan_id":"cebpf4jnsgd1na2vs0mg"},{"bike_id":"01268bf9-1aea-4bff-8f33-666f03518109","system_id":"levelo_inurba_marseille","lat":43.31517,"lon":5.37292,"is_reserved":false,"is_disabled":false,"rental_uris":{"android":"levelo://app?vid=01268bf9-1aea-4bff-8f33-666f03518109","ios":"levelo://app?vid=01268bf9-1aea-4bff-8f33-666f03518109"},"vehicle_type_id":"4","last_reported":1734142650,"current_range_meters":37600,"station_id":"ce4bgt12rcd13ifvqcd0","pricing_plan_id":"cebpf4jnsgd1na2vs0mg"},{"bike_id":"ca620766-cdf5-479d-94ca-d0735cd44994","system_id":"levelo_inurba_marseille","lat":43.3133,"lon":5.39705,"is_reserved":false,"is_disabled":false,"rental_uris":{"android":"levelo://app?vid=ca620766-cdf5-479d-94ca-d0735cd44994","ios":"levelo://app?vid=ca620766-cdf5-479d-94ca-d0735cd44994"},"vehicle_type_id":"4","last_reported":1734142650,"current_range_meters":29600,"station_id":"ce4bgvp2rcd13ifvqcu0","pricing_plan_id":"cebpf4jnsgd1na2vs0mg"},{"bike_id":"bc77552c-f2bc-4368-bc19-7004372d4910","system_id":"levelo_inurba_marseille","lat":43.31324,"lon":5.39695,"is_reserved":false,"is_disabled":false,"rental_uris":{"android":"levelo://app?vid=bc77552c-f2bc-4368-bc19-7004372d4910","ios":"levelo://app?vid=bc77552c-f2bc-4368-bc19-7004372d4910"},"vehicle_type_id":"4","last_reported":1734142650,"current_range_meters":38800,"station_id":"ce4bgvp2rcd13ifvqcu0","pricing_plan_id":"cebpf4jnsgd1na2vs0mg"},{"bike_id":"773210ee-d19a-4226-90f8-e420da4ce6bd","system_id":"levelo_inurba_marseille","lat":43.30237,"lon":5.40053,"is_reserved":false,"is_disabled":true,"rental_uris":{"android":"levelo://app?vid=773210ee-d19a-4226-90f8-e420da4ce6bd","ios":"levelo://app?vid=773210ee-d19a-4226-90f8-e420da4ce6bd"},"vehicle_type_id":"4","last_reported":1734142650,"current_range_meters":4400,"station_id":"ce4bgvh2rcd13ifvqcs0","pricing_plan_id":"cebpf4jnsgd1na2vs0mg"},{"bike_id":"da345435-a4ab-4142-96e2-d4c3515056c7","system_id":"levelo_inurba_marseille","lat":43.30142,"lon":5.38806,"is_reserved":false,"is_disabled":true,"rental_uris":{"android":"levelo://app?vid=da345435-a4ab-4142-96e2-d4c3515056c7","ios":"levelo://app?vid=da345435-a4ab-4142-96e2-d4c3515056c7"},"vehicle_type_id":"4","last_reported":1734142650,"current_range_meters":0,"station_id":"ce4bghh2rcd13ifvqb60","pricing_plan_id":"cebpf4jnsgd1na2vs0mg"},{"bike_id":"1dcb2b19-c38f-4c18-9470-8004942c15c1","system_id":"levelo_inurba_marseille","lat":43.27808,"lon":5.4072,"is_reserved":false,"is_disabled":false,"rental_uris":{"android":"levelo://app?vid=1dcb2b19-c38f-4c18-9470-8004942c15c1","ios":"levelo://app?vid=1dcb2b19-c38f-4c18-9470-8004942c15c1"},"vehicle_type_id":"4","last_reported":1734142650,"current_range_meters":37600,"station_id":"ce4bhnh2rcd13ifvqgtg","pricing_plan_id":"cebpf4jnsgd1na2vs0mg"},{"bike_id":"17753659-7324-41bb-bd31-31c3285ef61d","system_id":"levelo_inurba_marseille","lat":43.24068,"lon":5.37749,"is_reserved":false,"is_disabled":false,"rental_uris":{"android":"levelo://app?vid=17753659-7324-41bb-bd31-31c3285ef61d","ios":"levelo://app?vid=17753659-7324-41bb-bd31-31c3285ef61d"},"vehicle_type_id":"4","last_reported":1734142650,"current_range_meters":20400,"station_id":"ce4bhnp2rcd13ifvqgvg","pricing_plan_id":"cebpf4jnsgd1na2vs0mg"},{"bike_id":"9ad311dd-c450-4f09-933a-ef53d4559dc3","system_id":"levelo_inurba_marseille","lat":43.26979,"lon":5.39862,"is_reserved":false,"is_disabled":false,"rental_uris":{"android":"levelo://app?vid=9ad311dd-c450-4f09-933a-ef53d4559dc3","ios":"levelo://app?vid=9ad311dd-c450-4f09-933a-ef53d4559dc3"},"vehicle_type_id":"4","last_reported":1734142650,"current_range_meters":28000,"station_id":"","pricing_plan_id":"cebpf4jnsgd1na2vs0mg"},{"bike_id":"22b40bf9-1530-41df-9c66-58757ccd112d","system_id":"levelo_inurba_marseille","lat":43.30809,"lon":5.38145,"is_reserved":false,"is_disabled":false,"rental_uris":{"android":"levelo://app?vid=22b40bf9-1530-41df-9c66-58757ccd112d","ios":"levelo://app?vid=22b40bf9-1530-41df-9c66-58757ccd112d"},"vehicle_type_id":"4","last_reported":1734142650,"current_range_meters":32400,"station_id":"ce4bgt12rcd13ifvqce0","pricing_plan_id":"cebpf4jnsgd1na2vs0mg"},{"bike_id":"f499e66a-b101-413e-a818-5a998de5b1e7","system_id":"levelo_inurba_marseille","lat":43.31177,"lon":5.38728,"is_reserved":false,"is_disabled":false,"rental_uris":{"android":"levelo://app?vid=f499e66a-b101-413e-a818-5a998de5b1e7","ios":"levelo://app?vid=f499e66a-b101-413e-a818-5a998de5b1e7"},"vehicle_type_id":"4","last_reported":1734142650,"current_range_meters":38800,"station_id":"ce4bgv12rcd13ifvqcp0","pricing_plan_id":"cebpf4jnsgd1na2vs0mg"},{"bike_id":"dce79262-6094-4d3b-b3ca-313cc390b2bc","system_id":"levelo_inurba_marseille","lat":43.27975,"lon":5.4101,"is_reserved":false,"is_disabled":false,"rental_uris":{"android":"levelo://app?vid=dce79262-6094-4d3b-b3ca-313cc390b2bc","ios":"levelo://app?vid=dce79262-6094-4d3b-b3ca-313cc390b2bc"},"vehicle_type_id":"4","last_reported":1734142650,"current_range_meters":27600,"station_id":"ce4bhnp2rcd13ifvqh0g","pricing_plan_id":"cebpf4jnsgd1na2vs0mg"},{"bike_id":"37c9ec90-6a13-47ef-9566-eed70c4d7582","system_id":"levelo_inurba_marseille","lat":43.23193,"lon":5.39981,"is_reserved":false,"is_disabled":false,"rental_uris":{"android":"levelo://app?vid=37c9ec90-6a13-47ef-9566-eed70c4d7582","ios":"levelo://app?vid=37c9ec90-6a13-47ef-9566-eed70c4d7582"},"vehicle_type_id":"4","last_reported":1734142650,"current_range_meters":28800,"station_id":"ce4bhn12rcd13ifvqgqg","pricing_plan_id":"cebpf4jnsgd1na2vs0mg"},{"bike_id":"af67ac53-ba21-4ff0-8334-95679e9ff2cc","system_id":"levelo_inurba_marseille","lat":43.278805,"lon":5.388003,"is_reserved":false,"is_disabled":true,"rental_uris":{"android":"levelo://app?vid=af67ac53-ba21-4ff0-8334-95679e9ff2cc","ios":"levelo://app?vid=af67ac53-ba21-4ff0-8334-95679e9ff2cc"},"vehicle_type_id":"4","last_reported":1734142650,"current_range_meters":4000,"station_id":"","pricing_plan_id":"cebpf4jnsgd1na2vs0mg"},{"bike_id":"914a856b-fc14-4198-9fce-17c09313265b","system_id":"levelo_inurba_marseille","lat":43.30782,"lon":5.37642,"is_reserved":false,"is_disabled":false,"rental_uris":{"android":"levelo://app?vid=914a856b-fc14-4198-9fce-17c09313265b","ios":"levelo://app?vid=914a856b-fc14-4198-9fce-17c09313265b"},"vehicle_type_id":"4","last_reported":1734142650,"current_range_meters":38800,"station_id":"ce4bgv92rcd13ifvqcq0","pricing_plan_id":"cebpf4jnsgd1na2vs0mg"},{"bike_id":"68583a34-e7e2-4401-9e35-e2a62a82d2eb","system_id":"levelo_inurba_marseille","lat":43.31201,"lon":5.36844,"is_reserved":false,"is_disabled":false,"rental_uris":{"android":"levelo://app?vid=68583a34-e7e2-4401-9e35-e2a62a82d2eb","ios":"levelo://app?vid=68583a34-e7e2-4401-9e35-e2a62a82d2eb"},"vehicle_type_id":"4","last_reported":1734142650,"current_range_meters":28800,"station_id":"ce4bgl92rcd13ifvqbq0","pricing_plan_id":"cebpf4jnsgd1na2vs0mg"},{"bike_id":"0232408d-292c-41d3-b181-663261afd040","system_id":"levelo_inurba_marseille","lat":43.27504,"lon":5.40903,"is_reserved":false,"is_disabled":false,"rental_uris":{"android":"levelo://app?vid=0232408d-292c-41d3-b181-663261afd040","ios":"levelo://app?vid=0232408d-292c-41d3-b181-663261afd040"},"vehicle_type_id":"4","last_reported":1734142650,"current_range_meters":36000,"station_id":"","pricing_plan_id":"cebpf4jnsgd1na2vs0mg"},{"bike_id":"5f3b6269-aa16-4c3d-b3a1-ae7fa8e67e78","system_id":"levelo_inurba_marseille","lat":43.28557,"lon":5.39524,"is_reserved":false,"is_disabled":false,"rental_uris":{"android":"levelo://app?vid=5f3b6269-aa16-4c3d-b3a1-ae7fa8e67e78","ios":"levelo://app?vid=5f3b6269-aa16-4c3d-b3a1-ae7fa8e67e78"},"vehicle_type_id":"4","last_reported":1734142650,"current_range_meters":9200,"station_id":"ce4bh292rcd13ifvqdg0","pricing_plan_id":"cebpf4jnsgd1na2vs0mg"},{"bike_id":"d8d7ffef-ae54-446a-a28c-8265164b47ce","system_id":"levelo_inurba_marseille","lat":43.29158,"lon":5.43947,"is_reserved":false,"is_disabled":true,"rental_uris":{"android":"levelo://app?vid=d8d7ffef-ae54-446a-a28c-8265164b47ce","ios":"levelo://app?vid=d8d7ffef-ae54-446a-a28c-8265164b47ce"},"vehicle_type_id":"4","last_reported":1734142650,"current_range_meters":27200,"station_id":"","pricing_plan_id":"cebpf4jnsgd1na2vs0mg"},{"bike_id":"b7aeeae1-6a09-4e96-b177-2d379498f397","system_id":"levelo_inurba_marseille","lat":43.2794,"lon":5.41043,"is_reserved":false,"is_disabled":false,"rental_uris":{"android":"levelo://app?vid=b7aeeae1-6a09-4e96-b177-2d379498f397","ios":"levelo://app?vid=b7aeeae1-6a09-4e96-b177-2d379498f397"},"vehicle_type_id":"4","last_reported":1734142650,"current_range_meters":24400,"station_id":"ce4bhnp2rcd13ifvqh0g","pricing_plan_id":"cebpf4jnsgd1na2vs0mg"},{"bike_id":"c5768e7e-b244-4dfc-973f-384fac771fcc","system_id":"levelo_inurba_marseille","lat":43.27985,"lon":5.41668,"is_reserved":false,"is_disabled":false,"rental_uris":{"android":"levelo://app?vid=c5768e7e-b244-4dfc-973f-384fac771fcc","ios":"levelo://app?vid=c5768e7e-b244-4dfc-973f-384fac771fcc"},"vehicle_type_id":"4","last_reported":1734142650,"current_range_meters":38000,"station_id":"ce4bho12rcd13ifvqh1g","pricing_plan_id":"cebpf4jnsgd1na2vs0mg"},{"bike_id":"d65fcea9-51ba-41f0-86fd-e798dfdd6f09","system_id":"levelo_inurba_marseille","lat":43.28694,"lon":5.38283,"is_reserved":false,"is_disabled":true,"rental_uris":{"android":"levelo://app?vid=d65fcea9-51ba-41f0-86fd-e798dfdd6f09","ios":"levelo://app?vid=d65fcea9-51ba-41f0-86fd-e798dfdd6f09"},"vehicle_type_id":"4","last_reported":1734142650,"current_range_meters":0,"station_id":"","pricing_plan_id":"cebpf4jnsgd1na2vs0mg"},{"bike_id":"257e7841-ba48-4fb6-ab60-cfed7eeb95dc","system_id":"levelo_inurba_marseille","lat":43.29582,"lon":5.37498,"is_reserved":false,"is_disabled":true,"rental_uris":{"android":"levelo://app?vid=257e7841-ba48-4fb6-ab60-cfed7eeb95dc","ios":"levelo://app?vid=257e7841-ba48-4fb6-ab60-cfed7eeb95dc"},"vehicle_type_id":"4","last_reported":1734142650,"current_range_meters":23200,"station_id":"ce4bgh92rcd13ifvqb50","pricing_plan_id":"cebpf4jnsgd1na2vs0mg"},{"bike_id":"3cffa040-7e8b-4d9e-a1bd-b8a78d782447","system_id":"levelo_inurba_marseille","lat":43.314905,"lon":5.373088,"is_reserved":false,"is_disabled":true,"rental_uris":{"android":"levelo://app?vid=3cffa040-7e8b-4d9e-a1bd-b8a78d782447","ios":"levelo://app?vid=3cffa040-7e8b-4d9e-a1bd-b8a78d782447"},"vehicle_type_id":"4","last_reported":1734142650,"current_range_meters":1200,"station_id":"","pricing_plan_id":"cebpf4jnsgd1na2vs0mg"},{"bike_id":"2faaabaa-71a8-48f1-85b8-7123cafe1655","system_id":"levelo_inurba_marseille","lat":43.25083,"lon":5.39491,"is_reserved":false,"is_disabled":false,"rental_uris":{"android":"levelo://app?vid=2faaabaa-71a8-48f1-85b8-7123cafe1655","ios":"levelo://app?vid=2faaabaa-71a8-48f1-85b8-7123cafe1655"},"vehicle_type_id":"4","last_reported":1734142650,"current_range_meters":16000,"station_id":"ce4bhm12rcd13ifvqgkg","pricing_plan_id":"cebpf4jnsgd1na2vs0mg"},{"bike_id":"73f4bb3e-cb3f-4053-aec8-a4dd16a5364e","system_id":"levelo_inurba_marseille","lat":43.29525,"lon":5.39389,"is_reserved":false,"is_disabled":true,"rental_uris":{"android":"levelo://app?vid=73f4bb3e-cb3f-4053-aec8-a4dd16a5364e","ios":"levelo://app?vid=73f4bb3e-cb3f-4053-aec8-a4dd16a5364e"},"vehicle_type_id":"4","last_reported":1734142650,"current_range_meters":38000,"station_id":"ce4bh292rcd13ifvqdf0","pricing_plan_id":"cebpf4jnsgd1na2vs0mg"},{"bike_id":"e2acdf8b-8ba2-467c-898b-197998254ef5","system_id":"levelo_inurba_marseille","lat":43.26799,"lon":5.40262,"is_reserved":false,"is_disabled":false,"rental_uris":{"android":"levelo://app?vid=e2acdf8b-8ba2-467c-898b-197998254ef5","ios":"levelo://app?vid=e2acdf8b-8ba2-467c-898b-197998254ef5"},"vehicle_type_id":"4","last_reported":1734142650,"current_range_meters":38800,"station_id":"ce501612rcd8frsf0b60","pricing_plan_id":"cebpf4jnsgd1na2vs0mg"},{"bike_id":"e5007d7d-30da-4cfd-a7f0-3df2adfbe187","system_id":"levelo_inurba_marseille","lat":43.29745,"lon":5.38988,"is_reserved":false,"is_disabled":false,"rental_uris":{"android":"levelo://app?vid=e5007d7d-30da-4cfd-a7f0-3df2adfbe187","ios":"levelo://app?vid=e5007d7d-30da-4cfd-a7f0-3df2adfbe187"},"vehicle_type_id":"4","last_reported":1734142650,"current_range_meters":19200,"station_id":"","pricing_plan_id":"cebpf4jnsgd1na2vs0mg"},{"bike_id":"1ea542db-9a43-419f-bd58-69a2e2f0f228","system_id":"levelo_inurba_marseille","lat":43.28461,"lon":5.35884,"is_reserved":false,"is_disabled":false,"rental_uris":{"android":"levelo://app?vid=1ea542db-9a43-419f-bd58-69a2e2f0f228","ios":"levelo://app?vid=1ea542db-9a43-419f-bd58-69a2e2f0f228"},"vehicle_type_id":"4","last_reported":1734142650,"current_range_meters":34800,"station_id":"ce4bhah2rcd13ifvqei0","pricing_plan_id":"cebpf4jnsgd1na2vs0mg"},{"bike_id":"64203de9-e72b-4d66-9a84-7a315c7ed37f","system_id":"levelo_inurba_marseille","lat":43.29438,"lon":5.3743,"is_reserved":false,"is_disabled":true,"rental_uris":{"android":"levelo://app?vid=64203de9-e72b-4d66-9a84-7a315c7ed37f","ios":"levelo://app?vid=64203de9-e72b-4d66-9a84-7a315c7ed37f"},"vehicle_type_id":"4","last_reported":1734142650,"current_range_meters":0,"station_id":"","pricing_plan_id":"cebpf4jnsgd1na2vs0mg"},{"bike_id":"14b01a59-2a1e-4f8a-ad92-4759c5dd06d5","system_id":"levelo_inurba_marseille","lat":43.30887,"lon":5.37203,"is_reserved":false,"is_disabled":false,"rental_uris":{"android":"levelo://app?vid=14b01a59-2a1e-4f8a-ad92-4759c5dd06d5","ios":"levelo://app?vid=14b01a59-2a1e-4f8a-ad92-4759c5dd06d5"},"vehicle_type_id":"4","last_reported":1734142650,"current_range_meters":19200,"station_id":"ce4bguh2rcd13ifvqckg","pricing_plan_id":"cebpf4jnsgd1na2vs0mg"},{"bike_id":"38d0c7e9-8393-4f32-b959-cb8472a4482b","system_id":"levelo_inurba_marseille","lat":43.30801,"lon":5.38165,"is_reserved":false,"is_disabled":false,"rental_uris":{"android":"levelo://app?vid=38d0c7e9-8393-4f32-b959-cb8472a4482b","ios":"levelo://app?vid=38d0c7e9-8393-4f32-b959-cb8472a4482b"},"vehicle_type_id":"4","last_reported":1734142650,"current_range_meters":33600,"station_id":"ce4bgt12rcd13ifvqce0","pricing_plan_id":"cebpf4jnsgd1na2vs0mg"},{"bike_id":"c05fc718-af0d-4f54-af56-2e51dca2e2a1","system_id":"levelo_inurba_marseille","lat":43.25575,"lon":5.38254,"is_reserved":false,"is_disabled":false,"rental_uris":{"android":"levelo://app?vid=c05fc718-af0d-4f54-af56-2e51dca2e2a1","ios":"levelo://app?vid=c05fc718-af0d-4f54-af56-2e51dca2e2a1"},"vehicle_type_id":"4","last_reported":1734142650,"current_range_meters":38800,"station_id":"ce4bhih2rcd13ifvqfs0","pricing_plan_id":"cebpf4jnsgd1na2vs0mg"},{"bike_id":"5868d62f-ceef-4d77-a8f9-938364211808","system_id":"levelo_inurba_marseille","lat":43.31072,"lon":5.38356,"is_reserved":false,"is_disabled":false,"rental_uris":{"android":"levelo://app?vid=5868d62f-ceef-4d77-a8f9-938364211808","ios":"levelo://app?vid=5868d62f-ceef-4d77-a8f9-938364211808"},"vehicle_type_id":"4","last_reported":1734142650,"current_range_meters":28000,"station_id":"ce4bgv92rcd13ifvqcr0","pricing_plan_id":"cebpf4jnsgd1na2vs0mg"},{"bike_id":"90265536-82be-4cbe-a85c-76a46ed64a58","system_id":"levelo_inurba_marseille","lat":43.31751,"lon":5.39004,"is_reserved":false,"is_disabled":false,"rental_uris":{"android":"levelo://app?vid=90265536-82be-4cbe-a85c-76a46ed64a58","ios":"levelo://app?vid=90265536-82be-4cbe-a85c-76a46ed64a58"},"vehicle_type_id":"4","last_reported":1734142650,"current_range_meters":16000,"station_id":"ce4bhqp2rcd13ifvqhng","pricing_plan_id":"cebpf4jnsgd1na2vs0mg"},{"bike_id":"746cfbc4-9e1f-4060-b9c5-468be82fb0a6","system_id":"levelo_inurba_marseille","lat":43.31323,"lon":5.39691,"is_reserved":false,"is_disabled":false,"rental_uris":{"android":"levelo://app?vid=746cfbc4-9e1f-4060-b9c5-468be82fb0a6","ios":"levelo://app?vid=746cfbc4-9e1f-4060-b9c5-468be82fb0a6"},"vehicle_type_id":"4","last_reported":1734142650,"current_range_meters":9600,"station_id":"ce4bgvp2rcd13ifvqcu0","pricing_plan_id":"cebpf4jnsgd1na2vs0mg"},{"bike_id":"5c23befe-e7d4-4dee-ac43-14eb04f945cb","system_id":"levelo_inurba_marseille","lat":43.3086,"lon":5.37792,"is_reserved":false,"is_disabled":false,"rental_uris":{"android":"levelo://app?vid=5c23befe-e7d4-4dee-ac43-14eb04f945cb","ios":"levelo://app?vid=5c23befe-e7d4-4dee-ac43-14eb04f945cb"},"vehicle_type_id":"4","last_reported":1734142650,"current_range_meters":37600,"station_id":"","pricing_plan_id":"cebpf4jnsgd1na2vs0mg"},{"bike_id":"9e537004-7250-4650-9370-76464cbe54e8","system_id":"levelo_inurba_marseille","lat":43.24179,"lon":5.39739,"is_reserved":false,"is_disabled":false,"rental_uris":{"android":"levelo://app?vid=9e537004-7250-4650-9370-76464cbe54e8","ios":"levelo://app?vid=9e537004-7250-4650-9370-76464cbe54e8"},"vehicle_type_id":"4","last_reported":1734142650,"current_range_meters":38400,"station_id":"ce4bhn12rcd13ifvqgpg","pricing_plan_id":"cebpf4jnsgd1na2vs0mg"},{"bike_id":"75b2d15d-b5a1-46ae-9685-4f0470e89a4d","system_id":"levelo_inurba_marseille","lat":43.28615,"lon":5.35104,"is_reserved":false,"is_disabled":false,"rental_uris":{"android":"levelo://app?vid=75b2d15d-b5a1-46ae-9685-4f0470e89a4d","ios":"levelo://app?vid=75b2d15d-b5a1-46ae-9685-4f0470e89a4d"},"vehicle_type_id":"4","last_reported":1734142650,"current_range_meters":16400,"station_id":"ce4bhch2rcd13ifvqeug","pricing_plan_id":"cebpf4jnsgd1na2vs0mg"},{"bike_id":"0c91b241-f80d-461b-8874-bf274de64d9b","system_id":"levelo_inurba_marseille","lat":43.30879,"lon":5.39637,"is_reserved":false,"is_disabled":false,"rental_uris":{"android":"levelo://app?vid=0c91b241-f80d-461b-8874-bf274de64d9b","ios":"levelo://app?vid=0c91b241-f80d-461b-8874-bf274de64d9b"},"vehicle_type_id":"4","last_reported":1734142650,"current_range_meters":16800,"station_id":"ce4bh012rcd13ifvqcv0","pricing_plan_id":"cebpf4jnsgd1na2vs0mg"},{"bike_id":"29b97846-72c5-4f74-8964-d9e974e9c290","system_id":"levelo_inurba_marseille","lat":43.24802,"lon":5.37447,"is_reserved":false,"is_disabled":false,"rental_uris":{"android":"levelo://app?vid=29b97846-72c5-4f74-8964-d9e974e9c290","ios":"levelo://app?vid=29b97846-72c5-4f74-8964-d9e974e9c290"},"vehicle_type_id":"4","last_reported":1734142650,"current_range_meters":4800,"station_id":"ce4bhgh2rcd13ifvqfb0","pricing_plan_id":"cebpf4jnsgd1na2vs0mg"},{"bike_id":"5490374d-b1fe-4cfd-8a84-014e1576cd4c","system_id":"levelo_inurba_marseille","lat":43.31726,"lon":5.42411,"is_reserved":false,"is_disabled":false,"rental_uris":{"android":"levelo://app?vid=5490374d-b1fe-4cfd-8a84-014e1576cd4c","ios":"levelo://app?vid=5490374d-b1fe-4cfd-8a84-014e1576cd4c"},"vehicle_type_id":"4","last_reported":1734142650,"current_range_meters":37600,"station_id":"ce4bhp92rcd13ifvqhbg","pricing_plan_id":"cebpf4jnsgd1na2vs0mg"},{"bike_id":"9229cf32-cb9d-4d85-bfda-99bf70c2b056","system_id":"levelo_inurba_marseille","lat":43.31111,"lon":5.37766,"is_reserved":false,"is_disabled":false,"rental_uris":{"android":"levelo://app?vid=9229cf32-cb9d-4d85-bfda-99bf70c2b056","ios":"levelo://app?vid=9229cf32-cb9d-4d85-bfda-99bf70c2b056"},"vehicle_type_id":"4","last_reported":1734142650,"current_range_meters":28000,"station_id":"ce4bgt92rcd13ifvqcg0","pricing_plan_id":"cebpf4jnsgd1na2vs0mg"},{"bike_id":"b948092c-9ab4-45a3-af33-669f10a0ca1c","system_id":"levelo_inurba_marseille","lat":43.24822,"lon":5.37458,"is_reserved":false,"is_disabled":false,"rental_uris":{"android":"levelo://app?vid=b948092c-9ab4-45a3-af33-669f10a0ca1c","ios":"levelo://app?vid=b948092c-9ab4-45a3-af33-669f10a0ca1c"},"vehicle_type_id":"4","last_reported":1734142650,"current_range_meters":35600,"station_id":"ce4bhgh2rcd13ifvqfb0","pricing_plan_id":"cebpf4jnsgd1na2vs0mg"},{"bike_id":"bb6094dd-51eb-4016-a439-f2743865afe4","system_id":"levelo_inurba_marseille","lat":43.30918,"lon":5.37853,"is_reserved":false,"is_disabled":true,"rental_uris":{"android":"levelo://app?vid=bb6094dd-51eb-4016-a439-f2743865afe4","ios":"levelo://app?vid=bb6094dd-51eb-4016-a439-f2743865afe4"},"vehicle_type_id":"4","last_reported":1734142650,"current_range_meters":24400,"station_id":"","pricing_plan_id":"cebpf4jnsgd1na2vs0mg"},{"bike_id":"e882a8bc-c9e6-436f-96d9-14c2a815df46","system_id":"levelo_inurba_marseille","lat":43.27338,"lon":5.39065,"is_reserved":false,"is_disabled":false,"rental_uris":{"android":"levelo://app?vid=e882a8bc-c9e6-436f-96d9-14c2a815df46","ios":"levelo://app?vid=e882a8bc-c9e6-436f-96d9-14c2a815df46"},"vehicle_type_id":"4","last_reported":1734142650,"current_range_meters":10000,"station_id":"ce4bhgp2rcd13ifvqfe0","pricing_plan_id":"cebpf4jnsgd1na2vs0mg"},{"bike_id":"7353de9c-c8be-493e-9b17-2ba24afaf3a6","system_id":"levelo_inurba_marseille","lat":43.30782,"lon":5.37655,"is_reserved":false,"is_disabled":false,"rental_uris":{"android":"levelo://app?vid=7353de9c-c8be-493e-9b17-2ba24afaf3a6","ios":"levelo://app?vid=7353de9c-c8be-493e-9b17-2ba24afaf3a6"},"vehicle_type_id":"4","last_reported":1734142650,"current_range_meters":30000,"station_id":"ce4bgv92rcd13ifvqcq0","pricing_plan_id":"cebpf4jnsgd1na2vs0mg"},{"bike_id":"e0a31c9a-be2e-435b-b95c-7118ac48c310","system_id":"levelo_inurba_marseille","lat":43.32275,"lon":5.38248,"is_reserved":false,"is_disabled":false,"rental_uris":{"android":"levelo://app?vid=e0a31c9a-be2e-435b-b95c-7118ac48c310","ios":"levelo://app?vid=e0a31c9a-be2e-435b-b95c-7118ac48c310"},"vehicle_type_id":"4","last_reported":1734142650,"current_range_meters":6800,"station_id":"ce4bhr12rcd13ifvqhqg","pricing_plan_id":"cebpf4jnsgd1na2vs0mg"},{"bike_id":"cfe506c2-ad1f-4e9c-8942-ed07095606ef","system_id":"levelo_inurba_marseille","lat":43.23191,"lon":5.39979,"is_reserved":false,"is_disabled":false,"rental_uris":{"android":"levelo://app?vid=cfe506c2-ad1f-4e9c-8942-ed07095606ef","ios":"levelo://app?vid=cfe506c2-ad1f-4e9c-8942-ed07095606ef"},"vehicle_type_id":"4","last_reported":1734142650,"current_range_meters":25600,"station_id":"ce4bhn12rcd13ifvqgqg","pricing_plan_id":"cebpf4jnsgd1na2vs0mg"},{"bike_id":"6216a9f2-d200-450b-b87b-bd7668740b6f","system_id":"levelo_inurba_marseille","lat":43.30888,"lon":5.37193,"is_reserved":false,"is_disabled":false,"rental_uris":{"android":"levelo://app?vid=6216a9f2-d200-450b-b87b-bd7668740b6f","ios":"levelo://app?vid=6216a9f2-d200-450b-b87b-bd7668740b6f"},"vehicle_type_id":"4","last_reported":1734142650,"current_range_meters":38800,"station_id":"ce4bguh2rcd13ifvqckg","pricing_plan_id":"cebpf4jnsgd1na2vs0mg"},{"bike_id":"818ef841-d8c0-4c92-9c0c-4a12654cda95","system_id":"levelo_inurba_marseille","lat":43.3056,"lon":5.37189,"is_reserved":false,"is_disabled":false,"rental_uris":{"android":"levelo://app?vid=818ef841-d8c0-4c92-9c0c-4a12654cda95","ios":"levelo://app?vid=818ef841-d8c0-4c92-9c0c-4a12654cda95"},"vehicle_type_id":"4","last_reported":1734142650,"current_range_meters":27600,"station_id":"","pricing_plan_id":"cebpf4jnsgd1na2vs0mg"},{"bike_id":"18795326-0342-4aca-98ba-9a03d5183efb","system_id":"levelo_inurba_marseille","lat":43.31716,"lon":5.37783,"is_reserved":false,"is_disabled":false,"rental_uris":{"android":"levelo://app?vid=18795326-0342-4aca-98ba-9a03d5183efb","ios":"levelo://app?vid=18795326-0342-4aca-98ba-9a03d5183efb"},"vehicle_type_id":"4","last_reported":1734142650,"current_range_meters":38800,"station_id":"ce4bgth2rcd13ifvqch0","pricing_plan_id":"cebpf4jnsgd1na2vs0mg"},{"bike_id":"3ed89ca5-2cfd-4327-8499-d1edbb77f57c","system_id":"levelo_inurba_marseille","lat":43.24823,"lon":5.37461,"is_reserved":false,"is_disabled":false,"rental_uris":{"android":"levelo://app?vid=3ed89ca5-2cfd-4327-8499-d1edbb77f57c","ios":"levelo://app?vid=3ed89ca5-2cfd-4327-8499-d1edbb77f57c"},"vehicle_type_id":"4","last_reported":1734142650,"current_range_meters":38800,"station_id":"ce4bhgh2rcd13ifvqfb0","pricing_plan_id":"cebpf4jnsgd1na2vs0mg"},{"bike_id":"e7e57c14-d612-4f52-8242-ec8dcb5d1505","system_id":"levelo_inurba_marseille","lat":43.28935,"lon":5.36659,"is_reserved":false,"is_disabled":false,"rental_uris":{"android":"levelo://app?vid=e7e57c14-d612-4f52-8242-ec8dcb5d1505","ios":"levelo://app?vid=e7e57c14-d612-4f52-8242-ec8dcb5d1505"},"vehicle_type_id":"4","last_reported":1734142650,"current_range_meters":36800,"station_id":"ce4bhap2rcd13ifvqek0","pricing_plan_id":"cebpf4jnsgd1na2vs0mg"},{"bike_id":"7a41ed48-e201-4bc9-9392-98c95cf893ec","system_id":"levelo_inurba_marseille","lat":43.3078,"lon":5.38134,"is_reserved":false,"is_disabled":false,"rental_uris":{"android":"levelo://app?vid=7a41ed48-e201-4bc9-9392-98c95cf893ec","ios":"levelo://app?vid=7a41ed48-e201-4bc9-9392-98c95cf893ec"},"vehicle_type_id":"4","last_reported":1734142650,"current_range_meters":38000,"station_id":"ce4bgt12rcd13ifvqce0","pricing_plan_id":"cebpf4jnsgd1na2vs0mg"},{"bike_id":"d2abb3e0-3669-4a9c-8f02-0ae80db96712","system_id":"levelo_inurba_marseille","lat":43.30433,"lon":5.378505,"is_reserved":false,"is_disabled":false,"rental_uris":{"android":"levelo://app?vid=d2abb3e0-3669-4a9c-8f02-0ae80db96712","ios":"levelo://app?vid=d2abb3e0-3669-4a9c-8f02-0ae80db96712"},"vehicle_type_id":"4","last_reported":1734142650,"current_range_meters":14000,"station_id":"","pricing_plan_id":"cebpf4jnsgd1na2vs0mg"},{"bike_id":"915b1324-cf09-4d52-a36f-58bb08e14eca","system_id":"levelo_inurba_marseille","lat":43.31046,"lon":5.38348,"is_reserved":false,"is_disabled":false,"rental_uris":{"android":"levelo://app?vid=915b1324-cf09-4d52-a36f-58bb08e14eca","ios":"levelo://app?vid=915b1324-cf09-4d52-a36f-58bb08e14eca"},"vehicle_type_id":"4","last_reported":1734142650,"current_range_meters":37600,"station_id":"ce4bgv92rcd13ifvqcr0","pricing_plan_id":"cebpf4jnsgd1na2vs0mg"},{"bike_id":"cf1dbfe9-2fcb-42e2-b23a-1f564b284913","system_id":"levelo_inurba_marseille","lat":43.30848,"lon":5.3735,"is_reserved":false,"is_disabled":false,"rental_uris":{"android":"levelo://app?vid=cf1dbfe9-2fcb-42e2-b23a-1f564b284913","ios":"levelo://app?vid=cf1dbfe9-2fcb-42e2-b23a-1f564b284913"},"vehicle_type_id":"4","last_reported":1734142650,"current_range_meters":36000,"station_id":"","pricing_plan_id":"cebpf4jnsgd1na2vs0mg"},{"bike_id":"1e267932-f6c6-4991-9c6b-8abf107c1a22","system_id":"levelo_inurba_marseille","lat":43.32296,"lon":5.38274,"is_reserved":false,"is_disabled":false,"rental_uris":{"android":"levelo://app?vid=1e267932-f6c6-4991-9c6b-8abf107c1a22","ios":"levelo://app?vid=1e267932-f6c6-4991-9c6b-8abf107c1a22"},"vehicle_type_id":"4","last_reported":1734142650,"current_range_meters":39200,"station_id":"ce4bhr12rcd13ifvqhqg","pricing_plan_id":"cebpf4jnsgd1na2vs0mg"},{"bike_id":"f542905e-715c-4729-b164-b417379fe09e","system_id":"levelo_inurba_marseille","lat":43.32648,"lon":5.4096,"is_reserved":false,"is_disabled":false,"rental_uris":{"android":"levelo://app?vid=f542905e-715c-4729-b164-b417379fe09e","ios":"levelo://app?vid=f542905e-715c-4729-b164-b417379fe09e"},"vehicle_type_id":"4","last_reported":1734142650,"current_range_meters":20800,"station_id":"ce4bhpp2rcd13ifvqhgg","pricing_plan_id":"cebpf4jnsgd1na2vs0mg"},{"bike_id":"b581ae17-510b-4f67-90c1-bf69fba53807","system_id":"levelo_inurba_marseille","lat":43.27076,"lon":5.42291,"is_reserved":false,"is_disabled":false,"rental_uris":{"android":"levelo://app?vid=b581ae17-510b-4f67-90c1-bf69fba53807","ios":"levelo://app?vid=b581ae17-510b-4f67-90c1-bf69fba53807"},"vehicle_type_id":"4","last_reported":1734142650,"current_range_meters":38800,"station_id":"ce4bhk92rcd13ifvqgb0","pricing_plan_id":"cebpf4jnsgd1na2vs0mg"},{"bike_id":"1484a08c-55ac-40d8-89a0-22f91086316b","system_id":"levelo_inurba_marseille","lat":43.29065,"lon":5.39987,"is_reserved":false,"is_disabled":true,"rental_uris":{"android":"levelo://app?vid=1484a08c-55ac-40d8-89a0-22f91086316b","ios":"levelo://app?vid=1484a08c-55ac-40d8-89a0-22f91086316b"},"vehicle_type_id":"4","last_reported":1734142650,"current_range_meters":36000,"station_id":"ce4bh392rcd13ifvqdm0","pricing_plan_id":"cebpf4jnsgd1na2vs0mg"},{"bike_id":"21b390a6-5849-4185-8e0b-7994a2957405","system_id":"levelo_inurba_marseille","lat":43.26033,"lon":5.37543,"is_reserved":false,"is_disabled":false,"rental_uris":{"android":"levelo://app?vid=21b390a6-5849-4185-8e0b-7994a2957405","ios":"levelo://app?vid=21b390a6-5849-4185-8e0b-7994a2957405"},"vehicle_type_id":"4","last_reported":1734142650,"current_range_meters":23200,"station_id":"","pricing_plan_id":"cebpf4jnsgd1na2vs0mg"},{"bike_id":"6bc7401a-ad66-4e4d-bfd6-a954bc5b40c0","system_id":"levelo_inurba_marseille","lat":43.337527,"lon":5.37441,"is_reserved":false,"is_disabled":false,"rental_uris":{"android":"levelo://app?vid=6bc7401a-ad66-4e4d-bfd6-a954bc5b40c0","ios":"levelo://app?vid=6bc7401a-ad66-4e4d-bfd6-a954bc5b40c0"},"vehicle_type_id":"4","last_reported":1734142650,"current_range_meters":27600,"station_id":"","pricing_plan_id":"cebpf4jnsgd1na2vs0mg"},{"bike_id":"ace4b922-46fc-4280-876c-f499c5ab2105","system_id":"levelo_inurba_marseille","lat":43.28939,"lon":5.36392,"is_reserved":false,"is_disabled":false,"rental_uris":{"android":"levelo://app?vid=ace4b922-46fc-4280-876c-f499c5ab2105","ios":"levelo://app?vid=ace4b922-46fc-4280-876c-f499c5ab2105"},"vehicle_type_id":"4","last_reported":1734142650,"current_range_meters":38800,"station_id":"ce4bhc92rcd13ifvqetg","pricing_plan_id":"cebpf4jnsgd1na2vs0mg"},{"bike_id":"28fc90b9-3e7b-4c11-b6c2-40d95902dadd","system_id":"levelo_inurba_marseille","lat":43.22966,"lon":5.35395,"is_reserved":false,"is_disabled":false,"rental_uris":{"android":"levelo://app?vid=28fc90b9-3e7b-4c11-b6c2-40d95902dadd","ios":"levelo://app?vid=28fc90b9-3e7b-4c11-b6c2-40d95902dadd"},"vehicle_type_id":"4","last_reported":1734142650,"current_range_meters":38400,"station_id":"cpo3532slgdg3j2ikp40","pricing_plan_id":"cebpf4jnsgd1na2vs0mg"},{"bike_id":"8433f848-247d-4700-9f40-ca5bca59233f","system_id":"levelo_inurba_marseille","lat":43.3171,"lon":5.40466,"is_reserved":false,"is_disabled":false,"rental_uris":{"android":"levelo://app?vid=8433f848-247d-4700-9f40-ca5bca59233f","ios":"levelo://app?vid=8433f848-247d-4700-9f40-ca5bca59233f"},"vehicle_type_id":"4","last_reported":1734142650,"current_range_meters":24800,"station_id":"ce4bh012rcd13ifvqd00","pricing_plan_id":"cebpf4jnsgd1na2vs0mg"},{"bike_id":"98f53582-3913-4c4e-b5fb-adcbea86d1ea","system_id":"levelo_inurba_marseille","lat":43.30672,"lon":5.40078,"is_reserved":false,"is_disabled":false,"rental_uris":{"android":"levelo://app?vid=98f53582-3913-4c4e-b5fb-adcbea86d1ea","ios":"levelo://app?vid=98f53582-3913-4c4e-b5fb-adcbea86d1ea"},"vehicle_type_id":"4","last_reported":1734142650,"current_range_meters":38800,"station_id":"ce4bh112rcd13ifvqda0","pricing_plan_id":"cebpf4jnsgd1na2vs0mg"},{"bike_id":"328be319-f516-4a4a-a1c3-b94ff5850e24","system_id":"levelo_inurba_marseille","lat":43.27944,"lon":5.38699,"is_reserved":false,"is_disabled":false,"rental_uris":{"android":"levelo://app?vid=328be319-f516-4a4a-a1c3-b94ff5850e24","ios":"levelo://app?vid=328be319-f516-4a4a-a1c3-b94ff5850e24"},"vehicle_type_id":"4","last_reported":1734142650,"current_range_meters":38800,"station_id":"ce4bhg12rcd13ifvqf80","pricing_plan_id":"cebpf4jnsgd1na2vs0mg"},{"bike_id":"eb1496f4-67ed-47fd-8660-60023378367f","system_id":"levelo_inurba_marseille","lat":43.294212,"lon":5.374322,"is_reserved":false,"is_disabled":true,"rental_uris":{"android":"levelo://app?vid=eb1496f4-67ed-47fd-8660-60023378367f","ios":"levelo://app?vid=eb1496f4-67ed-47fd-8660-60023378367f"},"vehicle_type_id":"4","last_reported":1734142650,"current_range_meters":0,"station_id":"","pricing_plan_id":"cebpf4jnsgd1na2vs0mg"},{"bike_id":"edd07c02-9936-4457-bd98-063c892656f8","system_id":"levelo_inurba_marseille","lat":43.31031,"lon":5.3748,"is_reserved":false,"is_disabled":false,"rental_uris":{"android":"levelo://app?vid=edd07c02-9936-4457-bd98-063c892656f8","ios":"levelo://app?vid=edd07c02-9936-4457-bd98-063c892656f8"},"vehicle_type_id":"4","last_reported":1734142650,"current_range_meters":10000,"station_id":"","pricing_plan_id":"cebpf4jnsgd1na2vs0mg"},{"bike_id":"8e1ba1fa-6266-456d-83f1-1762b28682d5","system_id":"levelo_inurba_marseille","lat":43.27941,"lon":5.4105,"is_reserved":false,"is_disabled":false,"rental_uris":{"android":"levelo://app?vid=8e1ba1fa-6266-456d-83f1-1762b28682d5","ios":"levelo://app?vid=8e1ba1fa-6266-456d-83f1-1762b28682d5"},"vehicle_type_id":"4","last_reported":1734142650,"current_range_meters":17200,"station_id":"ce4bhnp2rcd13ifvqh0g","pricing_plan_id":"cebpf4jnsgd1na2vs0mg"},{"bike_id":"84fc38ef-60e1-4bcf-b650-5f1d69611426","system_id":"levelo_inurba_marseille","lat":43.30152,"lon":5.38087,"is_reserved":false,"is_disabled":false,"rental_uris":{"android":"levelo://app?vid=84fc38ef-60e1-4bcf-b650-5f1d69611426","ios":"levelo://app?vid=84fc38ef-60e1-4bcf-b650-5f1d69611426"},"vehicle_type_id":"4","last_reported":1734142650,"current_range_meters":38800,"station_id":"ce4bgjp2rcd13ifvqbh0","pricing_plan_id":"cebpf4jnsgd1na2vs0mg"},{"bike_id":"a2e3bf37-f1e5-4b35-adeb-0da3e0fe69d3","system_id":"levelo_inurba_marseille","lat":43.28652,"lon":5.38611,"is_reserved":false,"is_disabled":true,"rental_uris":{"android":"levelo://app?vid=a2e3bf37-f1e5-4b35-adeb-0da3e0fe69d3","ios":"levelo://app?vid=a2e3bf37-f1e5-4b35-adeb-0da3e0fe69d3"},"vehicle_type_id":"4","last_reported":1734142650,"current_range_meters":0,"station_id":"","pricing_plan_id":"cebpf4jnsgd1na2vs0mg"},{"bike_id":"ffac0b01-9e03-4f17-9374-154ed82d2c00","system_id":"levelo_inurba_marseille","lat":43.29463,"lon":5.3975,"is_reserved":false,"is_disabled":false,"rental_uris":{"android":"levelo://app?vid=ffac0b01-9e03-4f17-9374-154ed82d2c00","ios":"levelo://app?vid=ffac0b01-9e03-4f17-9374-154ed82d2c00"},"vehicle_type_id":"4","last_reported":1734142650,"current_range_meters":38800,"station_id":"ce4bh3h2rcd13ifvqdo0","pricing_plan_id":"cebpf4jnsgd1na2vs0mg"},{"bike_id":"87cf07ff-a8a5-4025-be06-a1d26efad380","system_id":"levelo_inurba_marseille","lat":43.26489,"lon":5.39555,"is_reserved":false,"is_disabled":false,"rental_uris":{"android":"levelo://app?vid=87cf07ff-a8a5-4025-be06-a1d26efad380","ios":"levelo://app?vid=87cf07ff-a8a5-4025-be06-a1d26efad380"},"vehicle_type_id":"4","last_reported":1734142650,"current_range_meters":38400,"station_id":"ce4bhi12rcd13ifvqfq0","pricing_plan_id":"cebpf4jnsgd1na2vs0mg"},{"bike_id":"f8d5f8ee-05d6-4c15-8156-9843ec1d288b","system_id":"levelo_inurba_marseille","lat":43.30153,"lon":5.39889,"is_reserved":false,"is_disabled":false,"rental_uris":{"android":"levelo://app?vid=f8d5f8ee-05d6-4c15-8156-9843ec1d288b","ios":"levelo://app?vid=f8d5f8ee-05d6-4c15-8156-9843ec1d288b"},"vehicle_type_id":"4","last_reported":1734142650,"current_range_meters":26800,"station_id":"ce4bh0h2rcd13ifvqd40","pricing_plan_id":"cebpf4jnsgd1na2vs0mg"},{"bike_id":"65457678-d3fc-4f55-93a8-5c6c4dd8f581","system_id":"levelo_inurba_marseille","lat":43.26932,"lon":5.4028,"is_reserved":false,"is_disabled":false,"rental_uris":{"android":"levelo://app?vid=65457678-d3fc-4f55-93a8-5c6c4dd8f581","ios":"levelo://app?vid=65457678-d3fc-4f55-93a8-5c6c4dd8f581"},"vehicle_type_id":"4","last_reported":1734142650,"current_range_meters":38000,"station_id":"cjm6bp8fraef2m0cb0m0","pricing_plan_id":"cebpf4jnsgd1na2vs0mg"},{"bike_id":"bdbbe775-4e15-4ea8-acd5-8b142dd9da55","system_id":"levelo_inurba_marseille","lat":43.30492,"lon":5.37903,"is_reserved":false,"is_disabled":false,"rental_uris":{"android":"levelo://app?vid=bdbbe775-4e15-4ea8-acd5-8b142dd9da55","ios":"levelo://app?vid=bdbbe775-4e15-4ea8-acd5-8b142dd9da55"},"vehicle_type_id":"4","last_reported":1734142650,"current_range_meters":34800,"station_id":"ce4bgup2rcd13ifvqcn0","pricing_plan_id":"cebpf4jnsgd1na2vs0mg"},{"bike_id":"ec927667-9164-479a-b446-395f55c955bb","system_id":"levelo_inurba_marseille","lat":43.22924,"lon":5.35383,"is_reserved":false,"is_disabled":false,"rental_uris":{"android":"levelo://app?vid=ec927667-9164-479a-b446-395f55c955bb","ios":"levelo://app?vid=ec927667-9164-479a-b446-395f55c955bb"},"vehicle_type_id":"4","last_reported":1734142650,"current_range_meters":38800,"station_id":"cpo3532slgdg3j2ikp40","pricing_plan_id":"cebpf4jnsgd1na2vs0mg"},{"bike_id":"183d5e76-1c22-45db-9f48-275014084044","system_id":"levelo_inurba_marseille","lat":43.31762,"lon":5.39009,"is_reserved":false,"is_disabled":false,"rental_uris":{"android":"levelo://app?vid=183d5e76-1c22-45db-9f48-275014084044","ios":"levelo://app?vid=183d5e76-1c22-45db-9f48-275014084044"},"vehicle_type_id":"4","last_reported":1734142650,"current_range_meters":16000,"station_id":"ce4bhqp2rcd13ifvqhng","pricing_plan_id":"cebpf4jnsgd1na2vs0mg"},{"bike_id":"711239b6-d6f1-4487-b62a-be8b37fd5728","system_id":"levelo_inurba_marseille","lat":43.30244,"lon":5.40064,"is_reserved":false,"is_disabled":false,"rental_uris":{"android":"levelo://app?vid=711239b6-d6f1-4487-b62a-be8b37fd5728","ios":"levelo://app?vid=711239b6-d6f1-4487-b62a-be8b37fd5728"},"vehicle_type_id":"4","last_reported":1734142650,"current_range_meters":38000,"station_id":"ce4bgvh2rcd13ifvqcs0","pricing_plan_id":"cebpf4jnsgd1na2vs0mg"},{"bike_id":"e171553a-d499-40c6-b158-4c1c9a0d09dc","system_id":"levelo_inurba_marseille","lat":43.27179,"lon":5.41019,"is_reserved":false,"is_disabled":false,"rental_uris":{"android":"levelo://app?vid=e171553a-d499-40c6-b158-4c1c9a0d09dc","ios":"levelo://app?vid=e171553a-d499-40c6-b158-4c1c9a0d09dc"},"vehicle_type_id":"4","last_reported":1734142650,"current_range_meters":38800,"station_id":"ce4bhl12rcd13ifvqgf0","pricing_plan_id":"cebpf4jnsgd1na2vs0mg"},{"bike_id":"298ee74d-f9b7-43a3-926b-cde85d4aaa14","system_id":"levelo_inurba_marseille","lat":43.28938,"lon":5.36622,"is_reserved":false,"is_disabled":false,"rental_uris":{"android":"levelo://app?vid=298ee74d-f9b7-43a3-926b-cde85d4aaa14","ios":"levelo://app?vid=298ee74d-f9b7-43a3-926b-cde85d4aaa14"},"vehicle_type_id":"4","last_reported":1734142650,"current_range_meters":38800,"station_id":"ce4bhap2rcd13ifvqek0","pricing_plan_id":"cebpf4jnsgd1na2vs0mg"},{"bike_id":"bbb05d93-49f6-43b2-acee-4027bcfb1d8c","system_id":"levelo_inurba_marseille","lat":43.2763,"lon":5.36063,"is_reserved":false,"is_disabled":false,"rental_uris":{"android":"levelo://app?vid=bbb05d93-49f6-43b2-acee-4027bcfb1d8c","ios":"levelo://app?vid=bbb05d93-49f6-43b2-acee-4027bcfb1d8c"},"vehicle_type_id":"4","last_reported":1734142650,"current_range_meters":38000,"station_id":"ce4bgj92rcd13ifvqbe0","pricing_plan_id":"cebpf4jnsgd1na2vs0mg"},{"bike_id":"a02bce7c-288c-46c0-a9fd-8aa8e0178c35","system_id":"levelo_inurba_marseille","lat":43.23188,"lon":5.35548,"is_reserved":false,"is_disabled":false,"rental_uris":{"android":"levelo://app?vid=a02bce7c-288c-46c0-a9fd-8aa8e0178c35","ios":"levelo://app?vid=a02bce7c-288c-46c0-a9fd-8aa8e0178c35"},"vehicle_type_id":"4","last_reported":1734142650,"current_range_meters":26800,"station_id":"ce4bhu92rcd13ifvqi70","pricing_plan_id":"cebpf4jnsgd1na2vs0mg"},{"bike_id":"ce8430f4-be86-489d-a643-99b5599a2288","system_id":"levelo_inurba_marseille","lat":43.28096,"lon":5.37831,"is_reserved":false,"is_disabled":false,"rental_uris":{"android":"levelo://app?vid=ce8430f4-be86-489d-a643-99b5599a2288","ios":"levelo://app?vid=ce8430f4-be86-489d-a643-99b5599a2288"},"vehicle_type_id":"4","last_reported":1734142650,"current_range_meters":17200,"station_id":"ce4bha12rcd13ifvqee0","pricing_plan_id":"cebpf4jnsgd1na2vs0mg"},{"bike_id":"e193ef0e-e328-415a-a8ad-7b8f709bf396","system_id":"levelo_inurba_marseille","lat":43.28491,"lon":5.37904,"is_reserved":false,"is_disabled":true,"rental_uris":{"android":"levelo://app?vid=e193ef0e-e328-415a-a8ad-7b8f709bf396","ios":"levelo://app?vid=e193ef0e-e328-415a-a8ad-7b8f709bf396"},"vehicle_type_id":"4","last_reported":1734142650,"current_range_meters":22000,"station_id":"","pricing_plan_id":"cebpf4jnsgd1na2vs0mg"},{"bike_id":"9a6269d5-83ea-4140-ab37-1fa12f16bd71","system_id":"levelo_inurba_marseille","lat":43.31761,"lon":5.39005,"is_reserved":false,"is_disabled":false,"rental_uris":{"android":"levelo://app?vid=9a6269d5-83ea-4140-ab37-1fa12f16bd71","ios":"levelo://app?vid=9a6269d5-83ea-4140-ab37-1fa12f16bd71"},"vehicle_type_id":"4","last_reported":1734142650,"current_range_meters":33600,"station_id":"ce4bhqp2rcd13ifvqhng","pricing_plan_id":"cebpf4jnsgd1na2vs0mg"},{"bike_id":"016e1712-3ed0-4538-ac7a-0670ad343bff","system_id":"levelo_inurba_marseille","lat":43.31063,"lon":5.38366,"is_reserved":false,"is_disabled":false,"rental_uris":{"android":"levelo://app?vid=016e1712-3ed0-4538-ac7a-0670ad343bff","ios":"levelo://app?vid=016e1712-3ed0-4538-ac7a-0670ad343bff"},"vehicle_type_id":"4","last_reported":1734142650,"current_range_meters":38800,"station_id":"ce4bgv92rcd13ifvqcr0","pricing_plan_id":"cebpf4jnsgd1na2vs0mg"},{"bike_id":"8f25433d-e9fb-4884-9a40-5c43118b7272","system_id":"levelo_inurba_marseille","lat":43.30321,"lon":5.40461,"is_reserved":false,"is_disabled":false,"rental_uris":{"android":"levelo://app?vid=8f25433d-e9fb-4884-9a40-5c43118b7272","ios":"levelo://app?vid=8f25433d-e9fb-4884-9a40-5c43118b7272"},"vehicle_type_id":"4","last_reported":1734142650,"current_range_meters":38800,"station_id":"ce4bh012rcd13ifvqd10","pricing_plan_id":"cebpf4jnsgd1na2vs0mg"},{"bike_id":"3ed63c3e-20cc-4a09-914b-509e7a4c0362","system_id":"levelo_inurba_marseille","lat":43.24069,"lon":5.37743,"is_reserved":false,"is_disabled":false,"rental_uris":{"android":"levelo://app?vid=3ed63c3e-20cc-4a09-914b-509e7a4c0362","ios":"levelo://app?vid=3ed63c3e-20cc-4a09-914b-509e7a4c0362"},"vehicle_type_id":"4","last_reported":1734142650,"current_range_meters":36800,"station_id":"ce4bhnp2rcd13ifvqgvg","pricing_plan_id":"cebpf4jnsgd1na2vs0mg"},{"bike_id":"bf233dce-cf2d-43b5-86cb-caa6fabff80e","system_id":"levelo_inurba_marseille","lat":43.28007,"lon":5.41666,"is_reserved":false,"is_disabled":false,"rental_uris":{"android":"levelo://app?vid=bf233dce-cf2d-43b5-86cb-caa6fabff80e","ios":"levelo://app?vid=bf233dce-cf2d-43b5-86cb-caa6fabff80e"},"vehicle_type_id":"4","last_reported":1734142650,"current_range_meters":27200,"station_id":"ce4bho12rcd13ifvqh1g","pricing_plan_id":"cebpf4jnsgd1na2vs0mg"},{"bike_id":"ccaa107e-ba65-49e7-b3cf-4b79a27037e5","system_id":"levelo_inurba_marseille","lat":43.31707,"lon":5.40469,"is_reserved":false,"is_disabled":false,"rental_uris":{"android":"levelo://app?vid=ccaa107e-ba65-49e7-b3cf-4b79a27037e5","ios":"levelo://app?vid=ccaa107e-ba65-49e7-b3cf-4b79a27037e5"},"vehicle_type_id":"4","last_reported":1734142650,"current_range_meters":38800,"station_id":"ce4bh012rcd13ifvqd00","pricing_plan_id":"cebpf4jnsgd1na2vs0mg"},{"bike_id":"fa90612f-7cb7-4169-894f-6478ec30bfe6","system_id":"levelo_inurba_marseille","lat":43.29547,"lon":5.42288,"is_reserved":false,"is_disabled":false,"rental_uris":{"android":"levelo://app?vid=fa90612f-7cb7-4169-894f-6478ec30bfe6","ios":"levelo://app?vid=fa90612f-7cb7-4169-894f-6478ec30bfe6"},"vehicle_type_id":"4","last_reported":1734142650,"current_range_meters":8800,"station_id":"ce4bhph2rcd13ifvqhdg","pricing_plan_id":"cebpf4jnsgd1na2vs0mg"},{"bike_id":"f7a0e736-20bb-4864-aa76-f11c3bf7da64","system_id":"levelo_inurba_marseille","lat":43.31096,"lon":5.37768,"is_reserved":false,"is_disabled":false,"rental_uris":{"android":"levelo://app?vid=f7a0e736-20bb-4864-aa76-f11c3bf7da64","ios":"levelo://app?vid=f7a0e736-20bb-4864-aa76-f11c3bf7da64"},"vehicle_type_id":"4","last_reported":1734142650,"current_range_meters":38400,"station_id":"ce4bgt92rcd13ifvqcg0","pricing_plan_id":"cebpf4jnsgd1na2vs0mg"},{"bike_id":"ef0324a9-1f55-46f0-9ee2-93d4dc1c96b4","system_id":"levelo_inurba_marseille","lat":43.28716,"lon":5.39981,"is_reserved":false,"is_disabled":false,"rental_uris":{"android":"levelo://app?vid=ef0324a9-1f55-46f0-9ee2-93d4dc1c96b4","ios":"levelo://app?vid=ef0324a9-1f55-46f0-9ee2-93d4dc1c96b4"},"vehicle_type_id":"4","last_reported":1734142650,"current_range_meters":24000,"station_id":"ce4bho92rcd13ifvqh3g","pricing_plan_id":"cebpf4jnsgd1na2vs0mg"},{"bike_id":"09a762d5-956c-4aef-a2c6-acbff8b4e799","system_id":"levelo_inurba_marseille","lat":43.27936,"lon":5.41042,"is_reserved":false,"is_disabled":false,"rental_uris":{"android":"levelo://app?vid=09a762d5-956c-4aef-a2c6-acbff8b4e799","ios":"levelo://app?vid=09a762d5-956c-4aef-a2c6-acbff8b4e799"},"vehicle_type_id":"4","last_reported":1734142650,"current_range_meters":10800,"station_id":"ce4bhnp2rcd13ifvqh0g","pricing_plan_id":"cebpf4jnsgd1na2vs0mg"},{"bike_id":"2ded2c60-00dd-42f2-8c27-fa639f378fda","system_id":"levelo_inurba_marseille","lat":43.25518,"lon":5.37664,"is_reserved":false,"is_disabled":false,"rental_uris":{"android":"levelo://app?vid=2ded2c60-00dd-42f2-8c27-fa639f378fda","ios":"levelo://app?vid=2ded2c60-00dd-42f2-8c27-fa639f378fda"},"vehicle_type_id":"4","last_reported":1734142650,"current_range_meters":39200,"station_id":"ce4bhh12rcd13ifvqff0","pricing_plan_id":"cebpf4jnsgd1na2vs0mg"},{"bike_id":"05a249ad-f648-4f1b-9b97-1216cf1ff5b1","system_id":"levelo_inurba_marseille","lat":43.3047,"lon":5.40175,"is_reserved":false,"is_disabled":false,"rental_uris":{"android":"levelo://app?vid=05a249ad-f648-4f1b-9b97-1216cf1ff5b1","ios":"levelo://app?vid=05a249ad-f648-4f1b-9b97-1216cf1ff5b1"},"vehicle_type_id":"4","last_reported":1734142650,"current_range_meters":14000,"station_id":"","pricing_plan_id":"cebpf4jnsgd1na2vs0mg"},{"bike_id":"abe250a1-3d26-47a1-bae8-73bf3354b17a","system_id":"levelo_inurba_marseille","lat":43.27199,"lon":5.4099,"is_reserved":false,"is_disabled":false,"rental_uris":{"android":"levelo://app?vid=abe250a1-3d26-47a1-bae8-73bf3354b17a","ios":"levelo://app?vid=abe250a1-3d26-47a1-bae8-73bf3354b17a"},"vehicle_type_id":"4","last_reported":1734142650,"current_range_meters":12400,"station_id":"ce4bhl12rcd13ifvqgf0","pricing_plan_id":"cebpf4jnsgd1na2vs0mg"},{"bike_id":"5584f6c4-cd15-45bb-976a-51430232b179","system_id":"levelo_inurba_marseille","lat":43.31706,"lon":5.40446,"is_reserved":false,"is_disabled":false,"rental_uris":{"android":"levelo://app?vid=5584f6c4-cd15-45bb-976a-51430232b179","ios":"levelo://app?vid=5584f6c4-cd15-45bb-976a-51430232b179"},"vehicle_type_id":"4","last_reported":1734142650,"current_range_meters":38400,"station_id":"ce4bh012rcd13ifvqd00","pricing_plan_id":"cebpf4jnsgd1na2vs0mg"},{"bike_id":"152a3b4b-c3a1-4c9b-82b6-5687b221d7ed","system_id":"levelo_inurba_marseille","lat":43.31288,"lon":5.40167,"is_reserved":false,"is_disabled":false,"rental_uris":{"android":"levelo://app?vid=152a3b4b-c3a1-4c9b-82b6-5687b221d7ed","ios":"levelo://app?vid=152a3b4b-c3a1-4c9b-82b6-5687b221d7ed"},"vehicle_type_id":"4","last_reported":1734142650,"current_range_meters":38400,"station_id":"ce4bh092rcd13ifvqd30","pricing_plan_id":"cebpf4jnsgd1na2vs0mg"},{"bike_id":"bad09c18-7711-41ee-bbb5-b5fd34fb1d4d","system_id":"levelo_inurba_marseille","lat":43.27173,"lon":5.40994,"is_reserved":false,"is_disabled":false,"rental_uris":{"android":"levelo://app?vid=bad09c18-7711-41ee-bbb5-b5fd34fb1d4d","ios":"levelo://app?vid=bad09c18-7711-41ee-bbb5-b5fd34fb1d4d"},"vehicle_type_id":"4","last_reported":1734142650,"current_range_meters":19600,"station_id":"ce4bhl12rcd13ifvqgf0","pricing_plan_id":"cebpf4jnsgd1na2vs0mg"},{"bike_id":"d2a0b895-cddb-4c91-8025-52871ff8256e","system_id":"levelo_inurba_marseille","lat":43.32236,"lon":5.38949,"is_reserved":false,"is_disabled":false,"rental_uris":{"android":"levelo://app?vid=d2a0b895-cddb-4c91-8025-52871ff8256e","ios":"levelo://app?vid=d2a0b895-cddb-4c91-8025-52871ff8256e"},"vehicle_type_id":"4","last_reported":1734142650,"current_range_meters":11600,"station_id":"","pricing_plan_id":"cebpf4jnsgd1na2vs0mg"},{"bike_id":"cd89c30f-0e26-417f-8a33-4c56a2e036f7","system_id":"levelo_inurba_marseille","lat":43.28107,"lon":5.37864,"is_reserved":false,"is_disabled":false,"rental_uris":{"android":"levelo://app?vid=cd89c30f-0e26-417f-8a33-4c56a2e036f7","ios":"levelo://app?vid=cd89c30f-0e26-417f-8a33-4c56a2e036f7"},"vehicle_type_id":"4","last_reported":1734142650,"current_range_meters":34800,"station_id":"ce4bha12rcd13ifvqee0","pricing_plan_id":"cebpf4jnsgd1na2vs0mg"},{"bike_id":"002069da-d74c-4e41-ae54-1da711c0eed6","system_id":"levelo_inurba_marseille","lat":43.285965,"lon":5.412995,"is_reserved":false,"is_disabled":true,"rental_uris":{"android":"levelo://app?vid=002069da-d74c-4e41-ae54-1da711c0eed6","ios":"levelo://app?vid=002069da-d74c-4e41-ae54-1da711c0eed6"},"vehicle_type_id":"4","last_reported":1734142650,"current_range_meters":0,"station_id":"","pricing_plan_id":"cebpf4jnsgd1na2vs0mg"},{"bike_id":"75506391-a12b-4ce2-997a-eff08551addc","system_id":"levelo_inurba_marseille","lat":43.23045,"lon":5.35508,"is_reserved":false,"is_disabled":false,"rental_uris":{"android":"levelo://app?vid=75506391-a12b-4ce2-997a-eff08551addc","ios":"levelo://app?vid=75506391-a12b-4ce2-997a-eff08551addc"},"vehicle_type_id":"4","last_reported":1734142650,"current_range_meters":38800,"station_id":"cpo3342slgdg3j2ifvpg","pricing_plan_id":"cebpf4jnsgd1na2vs0mg"},{"bike_id":"c9386dd6-8f0b-425f-ba06-4c88cbc1f623","system_id":"levelo_inurba_marseille","lat":43.25506,"lon":5.37659,"is_reserved":false,"is_disabled":false,"rental_uris":{"android":"levelo://app?vid=c9386dd6-8f0b-425f-ba06-4c88cbc1f623","ios":"levelo://app?vid=c9386dd6-8f0b-425f-ba06-4c88cbc1f623"},"vehicle_type_id":"4","last_reported":1734142650,"current_range_meters":38800,"station_id":"ce4bhh12rcd13ifvqff0","pricing_plan_id":"cebpf4jnsgd1na2vs0mg"},{"bike_id":"7c858096-757d-4275-9af6-d1ffd08a731e","system_id":"levelo_inurba_marseille","lat":43.31886,"lon":5.40752,"is_reserved":false,"is_disabled":false,"rental_uris":{"android":"levelo://app?vid=7c858096-757d-4275-9af6-d1ffd08a731e","ios":"levelo://app?vid=7c858096-757d-4275-9af6-d1ffd08a731e"},"vehicle_type_id":"4","last_reported":1734142650,"current_range_meters":38800,"station_id":"ce4bhq12rcd13ifvqhig","pricing_plan_id":"cebpf4jnsgd1na2vs0mg"},{"bike_id":"0dc53ed0-703c-41c7-a7ba-e5fe121ea6cc","system_id":"levelo_inurba_marseille","lat":43.28946,"lon":5.37891,"is_reserved":false,"is_disabled":false,"rental_uris":{"android":"levelo://app?vid=0dc53ed0-703c-41c7-a7ba-e5fe121ea6cc","ios":"levelo://app?vid=0dc53ed0-703c-41c7-a7ba-e5fe121ea6cc"},"vehicle_type_id":"4","last_reported":1734142650,"current_range_meters":31200,"station_id":"","pricing_plan_id":"cebpf4jnsgd1na2vs0mg"},{"bike_id":"07d5195f-8ba8-4bcc-8a95-b9a773e049a5","system_id":"levelo_inurba_marseille","lat":43.31168,"lon":5.38718,"is_reserved":false,"is_disabled":false,"rental_uris":{"android":"levelo://app?vid=07d5195f-8ba8-4bcc-8a95-b9a773e049a5","ios":"levelo://app?vid=07d5195f-8ba8-4bcc-8a95-b9a773e049a5"},"vehicle_type_id":"4","last_reported":1734142650,"current_range_meters":38400,"station_id":"ce4bgv12rcd13ifvqcp0","pricing_plan_id":"cebpf4jnsgd1na2vs0mg"},{"bike_id":"1e09aea1-6592-4606-838e-01c5295332d1","system_id":"levelo_inurba_marseille","lat":43.3265,"lon":5.40974,"is_reserved":false,"is_disabled":true,"rental_uris":{"android":"levelo://app?vid=1e09aea1-6592-4606-838e-01c5295332d1","ios":"levelo://app?vid=1e09aea1-6592-4606-838e-01c5295332d1"},"vehicle_type_id":"4","last_reported":1734142650,"current_range_meters":30800,"station_id":"ce4bhpp2rcd13ifvqhgg","pricing_plan_id":"cebpf4jnsgd1na2vs0mg"},{"bike_id":"f0688521-339d-4b11-98b4-8b413dfcdc75","system_id":"levelo_inurba_marseille","lat":43.3024,"lon":5.40075,"is_reserved":false,"is_disabled":true,"rental_uris":{"android":"levelo://app?vid=f0688521-339d-4b11-98b4-8b413dfcdc75","ios":"levelo://app?vid=f0688521-339d-4b11-98b4-8b413dfcdc75"},"vehicle_type_id":"4","last_reported":1734142650,"current_range_meters":23200,"station_id":"ce4bgvh2rcd13ifvqcs0","pricing_plan_id":"cebpf4jnsgd1na2vs0mg"},{"bike_id":"c75bddd8-53e9-48da-b5b5-42395c8f7395","system_id":"levelo_inurba_marseille","lat":43.33745,"lon":5.39186,"is_reserved":false,"is_disabled":false,"rental_uris":{"android":"levelo://app?vid=c75bddd8-53e9-48da-b5b5-42395c8f7395","ios":"levelo://app?vid=c75bddd8-53e9-48da-b5b5-42395c8f7395"},"vehicle_type_id":"4","last_reported":1734142650,"current_range_meters":37600,"station_id":"ce4bhr92rcd13ifvqhsg","pricing_plan_id":"cebpf4jnsgd1na2vs0mg"},{"bike_id":"be3d60a6-6fb6-4cc8-81d6-6fe96ff5ee23","system_id":"levelo_inurba_marseille","lat":43.2307,"lon":5.35508,"is_reserved":false,"is_disabled":false,"rental_uris":{"android":"levelo://app?vid=be3d60a6-6fb6-4cc8-81d6-6fe96ff5ee23","ios":"levelo://app?vid=be3d60a6-6fb6-4cc8-81d6-6fe96ff5ee23"},"vehicle_type_id":"4","last_reported":1734142650,"current_range_meters":36800,"station_id":"cpo3342slgdg3j2ifvpg","pricing_plan_id":"cebpf4jnsgd1na2vs0mg"},{"bike_id":"1fe4a372-4453-497e-b3ef-f69a4428e7d4","system_id":"levelo_inurba_marseille","lat":43.23199,"lon":5.39998,"is_reserved":false,"is_disabled":false,"rental_uris":{"android":"levelo://app?vid=1fe4a372-4453-497e-b3ef-f69a4428e7d4","ios":"levelo://app?vid=1fe4a372-4453-497e-b3ef-f69a4428e7d4"},"vehicle_type_id":"4","last_reported":1734142650,"current_range_meters":38800,"station_id":"ce4bhn12rcd13ifvqgqg","pricing_plan_id":"cebpf4jnsgd1na2vs0mg"},{"bike_id":"bbdfe00e-8834-42ad-9e76-a4419818da4d","system_id":"levelo_inurba_marseille","lat":43.24681,"lon":5.38158,"is_reserved":false,"is_disabled":false,"rental_uris":{"android":"levelo://app?vid=bbdfe00e-8834-42ad-9e76-a4419818da4d","ios":"levelo://app?vid=bbdfe00e-8834-42ad-9e76-a4419818da4d"},"vehicle_type_id":"4","last_reported":1734142650,"current_range_meters":28800,"station_id":"ce4bhih2rcd13ifvqfr0","pricing_plan_id":"cebpf4jnsgd1na2vs0mg"},{"bike_id":"f2dbe875-44dc-45d4-8f6f-ea44ad8555bb","system_id":"levelo_inurba_marseille","lat":43.23197,"lon":5.39994,"is_reserved":false,"is_disabled":false,"rental_uris":{"android":"levelo://app?vid=f2dbe875-44dc-45d4-8f6f-ea44ad8555bb","ios":"levelo://app?vid=f2dbe875-44dc-45d4-8f6f-ea44ad8555bb"},"vehicle_type_id":"4","last_reported":1734142650,"current_range_meters":35200,"station_id":"ce4bhn12rcd13ifvqgqg","pricing_plan_id":"cebpf4jnsgd1na2vs0mg"},{"bike_id":"16184e8e-74c8-4ae6-bfaf-3c4e43bd2386","system_id":"levelo_inurba_marseille","lat":43.29417,"lon":5.38626,"is_reserved":false,"is_disabled":true,"rental_uris":{"android":"levelo://app?vid=16184e8e-74c8-4ae6-bfaf-3c4e43bd2386","ios":"levelo://app?vid=16184e8e-74c8-4ae6-bfaf-3c4e43bd2386"},"vehicle_type_id":"4","last_reported":1734142650,"current_range_meters":0,"station_id":"ce4bh2h2rcd13ifvqdh0","pricing_plan_id":"cebpf4jnsgd1na2vs0mg"},{"bike_id":"fbd0f6fe-ff0b-4bad-aff9-ede9c49c0564","system_id":"levelo_inurba_marseille","lat":43.26067,"lon":5.39407,"is_reserved":false,"is_disabled":false,"rental_uris":{"android":"levelo://app?vid=fbd0f6fe-ff0b-4bad-aff9-ede9c49c0564","ios":"levelo://app?vid=fbd0f6fe-ff0b-4bad-aff9-ede9c49c0564"},"vehicle_type_id":"4","last_reported":1734142650,"current_range_meters":22800,"station_id":"ce4bhh92rcd13ifvqfj0","pricing_plan_id":"cebpf4jnsgd1na2vs0mg"},{"bike_id":"b377a437-ba59-4356-810f-8a4d1c613335","system_id":"levelo_inurba_marseille","lat":43.27986,"lon":5.41688,"is_reserved":false,"is_disabled":false,"rental_uris":{"android":"levelo://app?vid=b377a437-ba59-4356-810f-8a4d1c613335","ios":"levelo://app?vid=b377a437-ba59-4356-810f-8a4d1c613335"},"vehicle_type_id":"4","last_reported":1734142650,"current_range_meters":6400,"station_id":"ce4bho12rcd13ifvqh1g","pricing_plan_id":"cebpf4jnsgd1na2vs0mg"},{"bike_id":"d5735634-c369-470e-ae90-d9cb2c2ac3a4","system_id":"levelo_inurba_marseille","lat":43.29104,"lon":5.39998,"is_reserved":false,"is_disabled":false,"rental_uris":{"android":"levelo://app?vid=d5735634-c369-470e-ae90-d9cb2c2ac3a4","ios":"levelo://app?vid=d5735634-c369-470e-ae90-d9cb2c2ac3a4"},"vehicle_type_id":"4","last_reported":1734142650,"current_range_meters":27200,"station_id":"","pricing_plan_id":"cebpf4jnsgd1na2vs0mg"},{"bike_id":"be9a95eb-ef82-4d28-b6da-b3b7fb8c3e41","system_id":"levelo_inurba_marseille","lat":43.31067,"lon":5.38368,"is_reserved":false,"is_disabled":false,"rental_uris":{"android":"levelo://app?vid=be9a95eb-ef82-4d28-b6da-b3b7fb8c3e41","ios":"levelo://app?vid=be9a95eb-ef82-4d28-b6da-b3b7fb8c3e41"},"vehicle_type_id":"4","last_reported":1734142650,"current_range_meters":10800,"station_id":"ce4bgv92rcd13ifvqcr0","pricing_plan_id":"cebpf4jnsgd1na2vs0mg"},{"bike_id":"9332f19c-96e3-47ac-8807-c5c2384614c0","system_id":"levelo_inurba_marseille","lat":43.23058,"lon":5.35546,"is_reserved":false,"is_disabled":false,"rental_uris":{"android":"levelo://app?vid=9332f19c-96e3-47ac-8807-c5c2384614c0","ios":"levelo://app?vid=9332f19c-96e3-47ac-8807-c5c2384614c0"},"vehicle_type_id":"4","last_reported":1734142650,"current_range_meters":38400,"station_id":"cpo3342slgdg3j2ifvpg","pricing_plan_id":"cebpf4jnsgd1na2vs0mg"},{"bike_id":"380c9a62-9355-46ea-aba6-5d39cd47ad4b","system_id":"levelo_inurba_marseille","lat":43.31372,"lon":5.40613,"is_reserved":false,"is_disabled":true,"rental_uris":{"android":"levelo://app?vid=380c9a62-9355-46ea-aba6-5d39cd47ad4b","ios":"levelo://app?vid=380c9a62-9355-46ea-aba6-5d39cd47ad4b"},"vehicle_type_id":"4","last_reported":1734142650,"current_range_meters":800,"station_id":"","pricing_plan_id":"cebpf4jnsgd1na2vs0mg"},{"bike_id":"a2d75767-d7e1-4705-bc89-8fa2e3944c09","system_id":"levelo_inurba_marseille","lat":43.28696,"lon":5.39994,"is_reserved":false,"is_disabled":false,"rental_uris":{"android":"levelo://app?vid=a2d75767-d7e1-4705-bc89-8fa2e3944c09","ios":"levelo://app?vid=a2d75767-d7e1-4705-bc89-8fa2e3944c09"},"vehicle_type_id":"4","last_reported":1734142650,"current_range_meters":38400,"station_id":"ce4bho92rcd13ifvqh3g","pricing_plan_id":"cebpf4jnsgd1na2vs0mg"},{"bike_id":"55860ea6-0a52-4c86-a17e-5414f5a2a062","system_id":"levelo_inurba_marseille","lat":43.31324,"lon":5.39689,"is_reserved":false,"is_disabled":false,"rental_uris":{"android":"levelo://app?vid=55860ea6-0a52-4c86-a17e-5414f5a2a062","ios":"levelo://app?vid=55860ea6-0a52-4c86-a17e-5414f5a2a062"},"vehicle_type_id":"4","last_reported":1734142650,"current_range_meters":34800,"station_id":"ce4bgvp2rcd13ifvqcu0","pricing_plan_id":"cebpf4jnsgd1na2vs0mg"},{"bike_id":"7f79df14-9dc4-4bf2-a830-e473657900df","system_id":"levelo_inurba_marseille","lat":43.29918,"lon":5.38173,"is_reserved":false,"is_disabled":true,"rental_uris":{"android":"levelo://app?vid=7f79df14-9dc4-4bf2-a830-e473657900df","ios":"levelo://app?vid=7f79df14-9dc4-4bf2-a830-e473657900df"},"vehicle_type_id":"4","last_reported":1734142650,"current_range_meters":19200,"station_id":"ce4bgj12rcd13ifvqbc0","pricing_plan_id":"cebpf4jnsgd1na2vs0mg"},{"bike_id":"a8942e43-f3d6-46fd-8576-2cc6b2787f3e","system_id":"levelo_inurba_marseille","lat":43.33026,"lon":5.3904,"is_reserved":false,"is_disabled":false,"rental_uris":{"android":"levelo://app?vid=a8942e43-f3d6-46fd-8576-2cc6b2787f3e","ios":"levelo://app?vid=a8942e43-f3d6-46fd-8576-2cc6b2787f3e"},"vehicle_type_id":"4","last_reported":1734142650,"current_range_meters":16800,"station_id":"ce4bhr92rcd13ifvqhrg","pricing_plan_id":"cebpf4jnsgd1na2vs0mg"},{"bike_id":"2e79fd04-87cf-41ff-8400-62b5fd09ffe6","system_id":"levelo_inurba_marseille","lat":43.27977,"lon":5.4166,"is_reserved":false,"is_disabled":false,"rental_uris":{"android":"levelo://app?vid=2e79fd04-87cf-41ff-8400-62b5fd09ffe6","ios":"levelo://app?vid=2e79fd04-87cf-41ff-8400-62b5fd09ffe6"},"vehicle_type_id":"4","last_reported":1734142650,"current_range_meters":16400,"station_id":"ce4bho12rcd13ifvqh1g","pricing_plan_id":"cebpf4jnsgd1na2vs0mg"},{"bike_id":"e429d4c1-8b31-4a48-bc92-05b43db2b8f8","system_id":"levelo_inurba_marseille","lat":43.28107,"lon":5.37846,"is_reserved":false,"is_disabled":false,"rental_uris":{"android":"levelo://app?vid=e429d4c1-8b31-4a48-bc92-05b43db2b8f8","ios":"levelo://app?vid=e429d4c1-8b31-4a48-bc92-05b43db2b8f8"},"vehicle_type_id":"4","last_reported":1734142650,"current_range_meters":36800,"station_id":"ce4bha12rcd13ifvqee0","pricing_plan_id":"cebpf4jnsgd1na2vs0mg"},{"bike_id":"5b6beda0-f5eb-492e-aecf-bb4a52ea635a","system_id":"levelo_inurba_marseille","lat":43.25858,"lon":5.39867,"is_reserved":false,"is_disabled":false,"rental_uris":{"android":"levelo://app?vid=5b6beda0-f5eb-492e-aecf-bb4a52ea635a","ios":"levelo://app?vid=5b6beda0-f5eb-492e-aecf-bb4a52ea635a"},"vehicle_type_id":"4","last_reported":1734142650,"current_range_meters":35200,"station_id":"ce4bhl92rcd13ifvqghg","pricing_plan_id":"cebpf4jnsgd1na2vs0mg"},{"bike_id":"81e6f514-2861-481f-8954-5ee20fb7fff6","system_id":"levelo_inurba_marseille","lat":43.28103,"lon":5.37834,"is_reserved":false,"is_disabled":false,"rental_uris":{"android":"levelo://app?vid=81e6f514-2861-481f-8954-5ee20fb7fff6","ios":"levelo://app?vid=81e6f514-2861-481f-8954-5ee20fb7fff6"},"vehicle_type_id":"4","last_reported":1734142650,"current_range_meters":32000,"station_id":"ce4bha12rcd13ifvqee0","pricing_plan_id":"cebpf4jnsgd1na2vs0mg"},{"bike_id":"eae36976-5a94-43c2-8852-6eccc6f04642","system_id":"levelo_inurba_marseille","lat":43.31284,"lon":5.40166,"is_reserved":false,"is_disabled":false,"rental_uris":{"android":"levelo://app?vid=eae36976-5a94-43c2-8852-6eccc6f04642","ios":"levelo://app?vid=eae36976-5a94-43c2-8852-6eccc6f04642"},"vehicle_type_id":"4","last_reported":1734142650,"current_range_meters":24800,"station_id":"ce4bh092rcd13ifvqd30","pricing_plan_id":"cebpf4jnsgd1na2vs0mg"},{"bike_id":"047ae0e2-efdd-42fe-9ef9-2525b5d879ab","system_id":"levelo_inurba_marseille","lat":43.31704,"lon":5.37774,"is_reserved":false,"is_disabled":false,"rental_uris":{"android":"levelo://app?vid=047ae0e2-efdd-42fe-9ef9-2525b5d879ab","ios":"levelo://app?vid=047ae0e2-efdd-42fe-9ef9-2525b5d879ab"},"vehicle_type_id":"4","last_reported":1734142650,"current_range_meters":38400,"station_id":"ce4bgth2rcd13ifvqch0","pricing_plan_id":"cebpf4jnsgd1na2vs0mg"},{"bike_id":"73ce6c11-114b-4393-ae0a-bfc03ae59980","system_id":"levelo_inurba_marseille","lat":43.30317,"lon":5.40418,"is_reserved":false,"is_disabled":true,"rental_uris":{"android":"levelo://app?vid=73ce6c11-114b-4393-ae0a-bfc03ae59980","ios":"levelo://app?vid=73ce6c11-114b-4393-ae0a-bfc03ae59980"},"vehicle_type_id":"4","last_reported":1734142650,"current_range_meters":0,"station_id":"ce4bh012rcd13ifvqd10","pricing_plan_id":"cebpf4jnsgd1na2vs0mg"},{"bike_id":"bec1c8a5-6741-46fe-9703-44e73f23d797","system_id":"levelo_inurba_marseille","lat":43.26698,"lon":5.39518,"is_reserved":false,"is_disabled":false,"rental_uris":{"android":"levelo://app?vid=bec1c8a5-6741-46fe-9703-44e73f23d797","ios":"levelo://app?vid=bec1c8a5-6741-46fe-9703-44e73f23d797"},"vehicle_type_id":"4","last_reported":1734142650,"current_range_meters":24800,"station_id":"","pricing_plan_id":"cebpf4jnsgd1na2vs0mg"},{"bike_id":"4aeedd68-d649-45b8-b89c-044acb7b2814","system_id":"levelo_inurba_marseille","lat":43.28105,"lon":5.3784,"is_reserved":false,"is_disabled":false,"rental_uris":{"android":"levelo://app?vid=4aeedd68-d649-45b8-b89c-044acb7b2814","ios":"levelo://app?vid=4aeedd68-d649-45b8-b89c-044acb7b2814"},"vehicle_type_id":"4","last_reported":1734142650,"current_range_meters":32800,"station_id":"ce4bha12rcd13ifvqee0","pricing_plan_id":"cebpf4jnsgd1na2vs0mg"},{"bike_id":"ae0c67fc-7da2-42ae-8aad-e7fb17a2e63a","system_id":"levelo_inurba_marseille","lat":43.31291,"lon":5.40137,"is_reserved":false,"is_disabled":false,"rental_uris":{"android":"levelo://app?vid=ae0c67fc-7da2-42ae-8aad-e7fb17a2e63a","ios":"levelo://app?vid=ae0c67fc-7da2-42ae-8aad-e7fb17a2e63a"},"vehicle_type_id":"4","last_reported":1734142650,"current_range_meters":8400,"station_id":"ce4bh092rcd13ifvqd30","pricing_plan_id":"cebpf4jnsgd1na2vs0mg"},{"bike_id":"9c8e3ff9-e9b5-4904-8823-ff98f250e4b4","system_id":"levelo_inurba_marseille","lat":43.26561,"lon":5.37294,"is_reserved":false,"is_disabled":false,"rental_uris":{"android":"levelo://app?vid=9c8e3ff9-e9b5-4904-8823-ff98f250e4b4","ios":"levelo://app?vid=9c8e3ff9-e9b5-4904-8823-ff98f250e4b4"},"vehicle_type_id":"4","last_reported":1734142650,"current_range_meters":32000,"station_id":"ce4bhg12rcd13ifvqf70","pricing_plan_id":"cebpf4jnsgd1na2vs0mg"},{"bike_id":"b93a677c-d87d-4f1c-bf10-396cd1dfe109","system_id":"levelo_inurba_marseille","lat":43.25819,"lon":5.39423,"is_reserved":false,"is_disabled":false,"rental_uris":{"android":"levelo://app?vid=b93a677c-d87d-4f1c-bf10-396cd1dfe109","ios":"levelo://app?vid=b93a677c-d87d-4f1c-bf10-396cd1dfe109"},"vehicle_type_id":"4","last_reported":1734142650,"current_range_meters":33600,"station_id":"ce4bhip2rcd13ifvqft0","pricing_plan_id":"cebpf4jnsgd1na2vs0mg"},{"bike_id":"c6234abb-f24f-4e51-8203-a434dd5a5cf7","system_id":"levelo_inurba_marseille","lat":43.27187,"lon":5.40991,"is_reserved":false,"is_disabled":false,"rental_uris":{"android":"levelo://app?vid=c6234abb-f24f-4e51-8203-a434dd5a5cf7","ios":"levelo://app?vid=c6234abb-f24f-4e51-8203-a434dd5a5cf7"},"vehicle_type_id":"4","last_reported":1734142650,"current_range_meters":10800,"station_id":"ce4bhl12rcd13ifvqgf0","pricing_plan_id":"cebpf4jnsgd1na2vs0mg"},{"bike_id":"6e6a004b-462d-4b03-aeaa-2611256f0d89","system_id":"levelo_inurba_marseille","lat":43.28117,"lon":5.38932,"is_reserved":false,"is_disabled":true,"rental_uris":{"android":"levelo://app?vid=6e6a004b-462d-4b03-aeaa-2611256f0d89","ios":"levelo://app?vid=6e6a004b-462d-4b03-aeaa-2611256f0d89"},"vehicle_type_id":"4","last_reported":1734142650,"current_range_meters":0,"station_id":"","pricing_plan_id":"cebpf4jnsgd1na2vs0mg"},{"bike_id":"ae5b5c4d-0d6a-46ca-9b0e-35cfd75d74bc","system_id":"levelo_inurba_marseille","lat":43.2865,"lon":5.3514,"is_reserved":false,"is_disabled":false,"rental_uris":{"android":"levelo://app?vid=ae5b5c4d-0d6a-46ca-9b0e-35cfd75d74bc","ios":"levelo://app?vid=ae5b5c4d-0d6a-46ca-9b0e-35cfd75d74bc"},"vehicle_type_id":"4","last_reported":1734142650,"current_range_meters":24400,"station_id":"ce4bhch2rcd13ifvqeug","pricing_plan_id":"cebpf4jnsgd1na2vs0mg"},{"bike_id":"0afc1f43-2366-41f4-8c0c-efd220e07635","system_id":"levelo_inurba_marseille","lat":43.29714,"lon":5.36605,"is_reserved":false,"is_disabled":false,"rental_uris":{"android":"levelo://app?vid=0afc1f43-2366-41f4-8c0c-efd220e07635","ios":"levelo://app?vid=0afc1f43-2366-41f4-8c0c-efd220e07635"},"vehicle_type_id":"4","last_reported":1734142650,"current_range_meters":33600,"station_id":"ce4bgn12rcd13ifvqbt0","pricing_plan_id":"cebpf4jnsgd1na2vs0mg"},{"bike_id":"e0f92e07-30d2-4512-82d8-ee315d9094fc","system_id":"levelo_inurba_marseille","lat":43.29561,"lon":5.39968,"is_reserved":false,"is_disabled":false,"rental_uris":{"android":"levelo://app?vid=e0f92e07-30d2-4512-82d8-ee315d9094fc","ios":"levelo://app?vid=e0f92e07-30d2-4512-82d8-ee315d9094fc"},"vehicle_type_id":"4","last_reported":1734142650,"current_range_meters":30400,"station_id":"ce4bh312rcd13ifvqdj0","pricing_plan_id":"cebpf4jnsgd1na2vs0mg"},{"bike_id":"f399afe2-c5f5-4ab0-b750-57e7d2b0288a","system_id":"levelo_inurba_marseille","lat":43.30425,"lon":5.39762,"is_reserved":false,"is_disabled":false,"rental_uris":{"android":"levelo://app?vid=f399afe2-c5f5-4ab0-b750-57e7d2b0288a","ios":"levelo://app?vid=f399afe2-c5f5-4ab0-b750-57e7d2b0288a"},"vehicle_type_id":"4","last_reported":1734142650,"current_range_meters":35600,"station_id":"ce4bh092rcd13ifvqd20","pricing_plan_id":"cebpf4jnsgd1na2vs0mg"},{"bike_id":"024ce9aa-f82a-4269-8394-fd26692fffa7","system_id":"levelo_inurba_marseille","lat":43.2844,"lon":5.39188,"is_reserved":false,"is_disabled":false,"rental_uris":{"android":"levelo://app?vid=024ce9aa-f82a-4269-8394-fd26692fffa7","ios":"levelo://app?vid=024ce9aa-f82a-4269-8394-fd26692fffa7"},"vehicle_type_id":"4","last_reported":1734142650,"current_range_meters":38800,"station_id":"ce4bhoh2rcd13ifvqh5g","pricing_plan_id":"cebpf4jnsgd1na2vs0mg"},{"bike_id":"4c6152e4-6a40-4d4e-8488-bf096ab936a4","system_id":"levelo_inurba_marseille","lat":43.31382,"lon":5.38506,"is_reserved":false,"is_disabled":false,"rental_uris":{"android":"levelo://app?vid=4c6152e4-6a40-4d4e-8488-bf096ab936a4","ios":"levelo://app?vid=4c6152e4-6a40-4d4e-8488-bf096ab936a4"},"vehicle_type_id":"4","last_reported":1734142650,"current_range_meters":38400,"station_id":"ce4bgt92rcd13ifvqcf0","pricing_plan_id":"cebpf4jnsgd1na2vs0mg"},{"bike_id":"1536d859-8531-4d78-87ee-c9b02f5fc438","system_id":"levelo_inurba_marseille","lat":43.23065,"lon":5.35496,"is_reserved":false,"is_disabled":false,"rental_uris":{"android":"levelo://app?vid=1536d859-8531-4d78-87ee-c9b02f5fc438","ios":"levelo://app?vid=1536d859-8531-4d78-87ee-c9b02f5fc438"},"vehicle_type_id":"4","last_reported":1734142650,"current_range_meters":19200,"station_id":"cpo3342slgdg3j2ifvpg","pricing_plan_id":"cebpf4jnsgd1na2vs0mg"},{"bike_id":"702fe746-2950-4d83-96ad-da74f787e42f","system_id":"levelo_inurba_marseille","lat":43.25871,"lon":5.39914,"is_reserved":false,"is_disabled":false,"rental_uris":{"android":"levelo://app?vid=702fe746-2950-4d83-96ad-da74f787e42f","ios":"levelo://app?vid=702fe746-2950-4d83-96ad-da74f787e42f"},"vehicle_type_id":"4","last_reported":1734142650,"current_range_meters":38000,"station_id":"ce4bhl92rcd13ifvqghg","pricing_plan_id":"cebpf4jnsgd1na2vs0mg"},{"bike_id":"581365a8-6401-4621-9f21-b5b2a7b01d55","system_id":"levelo_inurba_marseille","lat":43.28659,"lon":5.36337,"is_reserved":false,"is_disabled":false,"rental_uris":{"android":"levelo://app?vid=581365a8-6401-4621-9f21-b5b2a7b01d55","ios":"levelo://app?vid=581365a8-6401-4621-9f21-b5b2a7b01d55"},"vehicle_type_id":"4","last_reported":1734142650,"current_range_meters":38400,"station_id":"ce4bhah2rcd13ifvqej0","pricing_plan_id":"cebpf4jnsgd1na2vs0mg"},{"bike_id":"7965bd8b-65b9-4460-9e65-36f253ebc53b","system_id":"levelo_inurba_marseille","lat":43.32052,"lon":5.41518,"is_reserved":false,"is_disabled":false,"rental_uris":{"android":"levelo://app?vid=7965bd8b-65b9-4460-9e65-36f253ebc53b","ios":"levelo://app?vid=7965bd8b-65b9-4460-9e65-36f253ebc53b"},"vehicle_type_id":"4","last_reported":1734142650,"current_range_meters":21600,"station_id":"ce4bhq92rcd13ifvqhkg","pricing_plan_id":"cebpf4jnsgd1na2vs0mg"},{"bike_id":"baf2a051-8c83-4545-8cb9-f2d0770a50f8","system_id":"levelo_inurba_marseille","lat":43.31019,"lon":5.38038,"is_reserved":false,"is_disabled":false,"rental_uris":{"android":"levelo://app?vid=baf2a051-8c83-4545-8cb9-f2d0770a50f8","ios":"levelo://app?vid=baf2a051-8c83-4545-8cb9-f2d0770a50f8"},"vehicle_type_id":"4","last_reported":1734142650,"current_range_meters":12800,"station_id":"","pricing_plan_id":"cebpf4jnsgd1na2vs0mg"},{"bike_id":"437e81ef-844c-4169-859f-c42ab6d4610f","system_id":"levelo_inurba_marseille","lat":43.2837,"lon":5.38637,"is_reserved":false,"is_disabled":false,"rental_uris":{"android":"levelo://app?vid=437e81ef-844c-4169-859f-c42ab6d4610f","ios":"levelo://app?vid=437e81ef-844c-4169-859f-c42ab6d4610f"},"vehicle_type_id":"4","last_reported":1734142650,"current_range_meters":37600,"station_id":"ce4bh492rcd13ifvqdvg","pricing_plan_id":"cebpf4jnsgd1na2vs0mg"},{"bike_id":"e5192aff-1008-4e7e-b82a-23b5df79d920","system_id":"levelo_inurba_marseille","lat":43.2955,"lon":5.42227,"is_reserved":false,"is_disabled":false,"rental_uris":{"android":"levelo://app?vid=e5192aff-1008-4e7e-b82a-23b5df79d920","ios":"levelo://app?vid=e5192aff-1008-4e7e-b82a-23b5df79d920"},"vehicle_type_id":"4","last_reported":1734142650,"current_range_meters":38800,"station_id":"","pricing_plan_id":"cebpf4jnsgd1na2vs0mg"},{"bike_id":"f4cc9e46-80b9-447f-b3b3-a558dbc304cd","system_id":"levelo_inurba_marseille","lat":43.28715,"lon":5.3998,"is_reserved":false,"is_disabled":false,"rental_uris":{"android":"levelo://app?vid=f4cc9e46-80b9-447f-b3b3-a558dbc304cd","ios":"levelo://app?vid=f4cc9e46-80b9-447f-b3b3-a558dbc304cd"},