{"last_updated":1727676857,"ttl":60,"version":"2.2","data":{"bikes":[{"bike_id":"fc63f147-84a5-415c-bb98-25ba16874896","system_id":"levelo_inurba_marseille","lat":43.23192,"lon":5.35559,"is_reserved":false,"is_disabled":false,"rental_uris":{"android":"levelo://app?vid=fc63f147-84a5-415c-bb98-25ba16874896","ios":"levelo://app?vid=fc63f147-84a5-415c-bb98-25ba16874896"},"vehicle_type_id":"4","last_reported":1727676857,"current_range_meters":37600,"station_id":"ce4bhu92rcd13ifvqi70","pricing_plan_id":"cebpf4jnsgd1na2vs0mg"},{"bike_id":"a78ef135-8636-4c7f-8ea0-04e46d0f96bc","system_id":"levelo_inurba_marseille","lat":43.2754,"lon":5.38448,"is_reserved":false,"is_disabled":false,"rental_uris":{"android":"levelo://app?vid=a78ef135-8636-4c7f-8ea0-04e46d0f96bc","ios":"levelo://app?vid=a78ef135-8636-4c7f-8ea0-04e46d0f96bc"},"vehicle_type_id":"4","last_reported":1727676857,"current_range_meters":29600,"station_id":"ce4bhh92rcd13ifvqfi0","pricing_plan_id":"cebpf4jnsgd1na2vs0mg"},{"bike_id":"8d241f24-cad0-4f95-b47b-2defcd01127b","system_id":"levelo_inurba_marseille","lat":43.29797,"lon":5.40404,"is_reserved":false,"is_disabled":false,"rental_uris":{"android":"levelo://app?vid=8d241f24-cad0-4f95-b47b-2defcd01127b","ios":"levelo://app?vid=8d241f24-cad0-4f95-b47b-2defcd01127b"},"vehicle_type_id":"4","last_reported":1727676857,"current_range_meters":26800,"station_id":"ce4bh112rcd13ifvqd90","pricing_plan_id":"cebpf4jnsgd1na2vs0mg"},{"bike_id":"2ebb4aa3-cb0e-4ec3-978b-12b974bcbf90","system_id":"levelo_inurba_marseille","lat":43.30604,"lon":5.39343,"is_reserved":false,"is_disabled":false,"rental_uris":{"android":"levelo://app?vid=2ebb4aa3-cb0e-4ec3-978b-12b974bcbf90","ios":"levelo://app?vid=2ebb4aa3-cb0e-4ec3-978b-12b974bcbf90"},"vehicle_type_id":"4","last_reported":1727676857,"current_range_meters":33200,"station_id":"ce4bh0p2rcd13ifvqd80","pricing_plan_id":"cebpf4jnsgd1na2vs0mg"},{"bike_id":"851623aa-a5ab-48ff-9ad4-d53f2098701a","system_id":"levelo_inurba_marseille","lat":43.30547,"lon":5.36562,"is_reserved":false,"is_disabled":false,"rental_uris":{"android":"levelo://app?vid=851623aa-a5ab-48ff-9ad4-d53f2098701a","ios":"levelo://app?vid=851623aa-a5ab-48ff-9ad4-d53f2098701a"},"vehicle_type_id":"4","last_reported":1727676857,"current_range_meters":24400,"station_id":"ce4bgs12rcd13ifvqcag","pricing_plan_id":"cebpf4jnsgd1na2vs0mg"},{"bike_id":"87ff90c8-0484-40bf-ad1b-8a3b005ef37c","system_id":"levelo_inurba_marseille","lat":43.29119,"lon":5.42606,"is_reserved":false,"is_disabled":false,"rental_uris":{"android":"levelo://app?vid=87ff90c8-0484-40bf-ad1b-8a3b005ef37c","ios":"levelo://app?vid=87ff90c8-0484-40bf-ad1b-8a3b005ef37c"},"vehicle_type_id":"4","last_reported":1727676857,"current_range_meters":6400,"station_id":"","pricing_plan_id":"cebpf4jnsgd1na2vs0mg"},{"bike_id":"fa4abf17-6682-49c9-a508-1300440dc793","system_id":"levelo_inurba_marseille","lat":43.27374,"lon":5.36267,"is_reserved":false,"is_disabled":false,"rental_uris":{"android":"levelo://app?vid=fa4abf17-6682-49c9-a508-1300440dc793","ios":"levelo://app?vid=fa4abf17-6682-49c9-a508-1300440dc793"},"vehicle_type_id":"4","last_reported":1727676857,"current_range_meters":30000,"station_id":"ce4bhbh2rcd13ifvqeo0","pricing_plan_id":"cebpf4jnsgd1na2vs0mg"},{"bike_id":"58d52f37-b970-4ba6-aa5d-699e3faa0cf2","system_id":"levelo_inurba_marseille","lat":43.28722,"lon":5.37934,"is_reserved":false,"is_disabled":false,"rental_uris":{"android":"levelo://app?vid=58d52f37-b970-4ba6-aa5d-699e3faa0cf2","ios":"levelo://app?vid=58d52f37-b970-4ba6-aa5d-699e3faa0cf2"},"vehicle_type_id":"4","last_reported":1727676857,"current_range_meters":28800,"station_id":"ce4bh9p2rcd13ifvqec0","pricing_plan_id":"cebpf4jnsgd1na2vs0mg"},{"bike_id":"0ea9e4c4-cc08-41d9-862d-a80f7d54740c","system_id":"levelo_inurba_marseille","lat":43.3268,"lon":5.37494,"is_reserved":false,"is_disabled":false,"rental_uris":{"android":"levelo://app?vid=0ea9e4c4-cc08-41d9-862d-a80f7d54740c","ios":"levelo://app?vid=0ea9e4c4-cc08-41d9-862d-a80f7d54740c"},"vehicle_type_id":"4","last_reported":1727676857,"current_range_meters":33600,"station_id":"","pricing_plan_id":"cebpf4jnsgd1na2vs0mg"},{"bike_id":"183ec326-d17f-4e51-8756-bfcac619870a","system_id":"levelo_inurba_marseille","lat":43.29843,"lon":5.36265,"is_reserved":false,"is_disabled":false,"rental_uris":{"android":"levelo://app?vid=183ec326-d17f-4e51-8756-bfcac619870a","ios":"levelo://app?vid=183ec326-d17f-4e51-8756-bfcac619870a"},"vehicle_type_id":"4","last_reported":1727676857,"current_range_meters":6400,"station_id":"ce4bgpp2rcd13ifvqc3g","pricing_plan_id":"cebpf4jnsgd1na2vs0mg"},{"bike_id":"5a94cba9-2892-4bbd-bf2f-7e30f0d92b8d","system_id":"levelo_inurba_marseille","lat":43.31889,"lon":5.40739,"is_reserved":false,"is_disabled":false,"rental_uris":{"android":"levelo://app?vid=5a94cba9-2892-4bbd-bf2f-7e30f0d92b8d","ios":"levelo://app?vid=5a94cba9-2892-4bbd-bf2f-7e30f0d92b8d"},"vehicle_type_id":"4","last_reported":1727676857,"current_range_meters":28400,"station_id":"ce4bhq12rcd13ifvqhig","pricing_plan_id":"cebpf4jnsgd1na2vs0mg"},{"bike_id":"431acd76-2fda-479a-af23-895917a7252a","system_id":"levelo_inurba_marseille","lat":43.3221,"lon":5.38739,"is_reserved":false,"is_disabled":false,"rental_uris":{"android":"levelo://app?vid=431acd76-2fda-479a-af23-895917a7252a","ios":"levelo://app?vid=431acd76-2fda-479a-af23-895917a7252a"},"vehicle_type_id":"4","last_reported":1727676857,"current_range_meters":22400,"station_id":"","pricing_plan_id":"cebpf4jnsgd1na2vs0mg"},{"bike_id":"5816cec8-8917-4734-9ca3-2441e17f7ba1","system_id":"levelo_inurba_marseille","lat":43.241709,"lon":5.364048,"is_reserved":false,"is_disabled":false,"rental_uris":{"android":"levelo://app?vid=5816cec8-8917-4734-9ca3-2441e17f7ba1","ios":"levelo://app?vid=5816cec8-8917-4734-9ca3-2441e17f7ba1"},"vehicle_type_id":"4","last_reported":1727676857,"current_range_meters":22400,"station_id":"cpo36qri1sfpv3e86is0","pricing_plan_id":"cebpf4jnsgd1na2vs0mg"},{"bike_id":"d4c74265-2442-4454-aa29-65e3cce400cc","system_id":"levelo_inurba_marseille","lat":43.31849,"lon":5.38777,"is_reserved":false,"is_disabled":false,"rental_uris":{"android":"levelo://app?vid=d4c74265-2442-4454-aa29-65e3cce400cc","ios":"levelo://app?vid=d4c74265-2442-4454-aa29-65e3cce400cc"},"vehicle_type_id":"4","last_reported":1727676857,"current_range_meters":36800,"station_id":"","pricing_plan_id":"cebpf4jnsgd1na2vs0mg"},{"bike_id":"6ff4fbb9-efe8-4c67-a474-31015bcc9bf2","system_id":"levelo_inurba_marseille","lat":43.28713,"lon":5.37928,"is_reserved":false,"is_disabled":false,"rental_uris":{"android":"levelo://app?vid=6ff4fbb9-efe8-4c67-a474-31015bcc9bf2","ios":"levelo://app?vid=6ff4fbb9-efe8-4c67-a474-31015bcc9bf2"},"vehicle_type_id":"4","last_reported":1727676857,"current_range_meters":31200,"station_id":"ce4bh9p2rcd13ifvqec0","pricing_plan_id":"cebpf4jnsgd1na2vs0mg"},{"bike_id":"af6ac25d-d36b-4e61-82a0-7e16798e6711","system_id":"levelo_inurba_marseille","lat":43.26563,"lon":5.38999,"is_reserved":false,"is_disabled":false,"rental_uris":{"android":"levelo://app?vid=af6ac25d-d36b-4e61-82a0-7e16798e6711","ios":"levelo://app?vid=af6ac25d-d36b-4e61-82a0-7e16798e6711"},"vehicle_type_id":"4","last_reported":1727676857,"current_range_meters":38400,"station_id":"ce4bhe12rcd13ifvqf30","pricing_plan_id":"cebpf4jnsgd1na2vs0mg"},{"bike_id":"be0e4c5b-8079-4c61-b218-6f9e92849133","system_id":"levelo_inurba_marseille","lat":43.23155,"lon":5.43694,"is_reserved":false,"is_disabled":false,"rental_uris":{"android":"levelo://app?vid=be0e4c5b-8079-4c61-b218-6f9e92849133","ios":"levelo://app?vid=be0e4c5b-8079-4c61-b218-6f9e92849133"},"vehicle_type_id":"4","last_reported":1727676857,"current_range_meters":22000,"station_id":"ce4bhmp2rcd13ifvqgog","pricing_plan_id":"cebpf4jnsgd1na2vs0mg"},{"bike_id":"6cb921ce-c137-4478-b2a6-400fbf2b8050","system_id":"levelo_inurba_marseille","lat":43.31335,"lon":5.3672,"is_reserved":false,"is_disabled":false,"rental_uris":{"android":"levelo://app?vid=6cb921ce-c137-4478-b2a6-400fbf2b8050","ios":"levelo://app?vid=6cb921ce-c137-4478-b2a6-400fbf2b8050"},"vehicle_type_id":"4","last_reported":1727676857,"current_range_meters":32000,"station_id":"ce4bgr92rcd13ifvqc6g","pricing_plan_id":"cebpf4jnsgd1na2vs0mg"},{"bike_id":"ce0aaa8a-c9fd-45a4-baa7-833213abde39","system_id":"levelo_inurba_marseille","lat":43.30912,"lon":5.36835,"is_reserved":false,"is_disabled":false,"rental_uris":{"android":"levelo://app?vid=ce0aaa8a-c9fd-45a4-baa7-833213abde39","ios":"levelo://app?vid=ce0aaa8a-c9fd-45a4-baa7-833213abde39"},"vehicle_type_id":"4","last_reported":1727676857,"current_range_meters":38800,"station_id":"ce4bgn92rcd13ifvqbvg","pricing_plan_id":"cebpf4jnsgd1na2vs0mg"},{"bike_id":"c214aba5-3e3e-4081-beed-33a0027b5ac8","system_id":"levelo_inurba_marseille","lat":43.28852,"lon":5.3783,"is_reserved":false,"is_disabled":false,"rental_uris":{"android":"levelo://app?vid=c214aba5-3e3e-4081-beed-33a0027b5ac8","ios":"levelo://app?vid=c214aba5-3e3e-4081-beed-33a0027b5ac8"},"vehicle_type_id":"4","last_reported":1727676857,"current_range_meters":36000,"station_id":"ce4bh412rcd13ifvqdr0","pricing_plan_id":"cebpf4jnsgd1na2vs0mg"},{"bike_id":"d8affc53-3fba-4160-b1e0-eac9a7fabed2","system_id":"levelo_inurba_marseille","lat":43.28617,"lon":5.35099,"is_reserved":false,"is_disabled":false,"rental_uris":{"android":"levelo://app?vid=d8affc53-3fba-4160-b1e0-eac9a7fabed2","ios":"levelo://app?vid=d8affc53-3fba-4160-b1e0-eac9a7fabed2"},"vehicle_type_id":"4","last_reported":1727676857,"current_range_meters":37600,"station_id":"ce4bhch2rcd13ifvqeug","pricing_plan_id":"cebpf4jnsgd1na2vs0mg"},{"bike_id":"eaa55962-d479-4060-b936-206669ce00cd","system_id":"levelo_inurba_marseille","lat":43.28487,"lon":5.38546,"is_reserved":false,"is_disabled":false,"rental_uris":{"android":"levelo://app?vid=eaa55962-d479-4060-b936-206669ce00cd","ios":"levelo://app?vid=eaa55962-d479-4060-b936-206669ce00cd"},"vehicle_type_id":"4","last_reported":1727676857,"current_range_meters":33200,"station_id":"ce4bh8p2rcd13ifvqeb0","pricing_plan_id":"cebpf4jnsgd1na2vs0mg"},{"bike_id":"e3e14dad-567d-4dd0-97a2-394078a6587d","system_id":"levelo_inurba_marseille","lat":43.29841,"lon":5.36265,"is_reserved":false,"is_disabled":false,"rental_uris":{"android":"levelo://app?vid=e3e14dad-567d-4dd0-97a2-394078a6587d","ios":"levelo://app?vid=e3e14dad-567d-4dd0-97a2-394078a6587d"},"vehicle_type_id":"4","last_reported":1727676857,"current_range_meters":3600,"station_id":"ce4bgpp2rcd13ifvqc3g","pricing_plan_id":"cebpf4jnsgd1na2vs0mg"},{"bike_id":"ad39acce-a3c1-44d4-971b-ebc578fc76ab","system_id":"levelo_inurba_marseille","lat":43.28158,"lon":5.42639,"is_reserved":false,"is_disabled":false,"rental_uris":{"android":"levelo://app?vid=ad39acce-a3c1-44d4-971b-ebc578fc76ab","ios":"levelo://app?vid=ad39acce-a3c1-44d4-971b-ebc578fc76ab"},"vehicle_type_id":"4","last_reported":1727676857,"current_range_meters":30000,"station_id":"ce4bhnh2rcd13ifvqgug","pricing_plan_id":"cebpf4jnsgd1na2vs0mg"},{"bike_id":"2d2c08a5-9497-4cd5-9bb5-18482d13e2c1","system_id":"levelo_inurba_marseille","lat":43.30463,"lon":5.37905,"is_reserved":false,"is_disabled":false,"rental_uris":{"android":"levelo://app?vid=2d2c08a5-9497-4cd5-9bb5-18482d13e2c1","ios":"levelo://app?vid=2d2c08a5-9497-4cd5-9bb5-18482d13e2c1"},"vehicle_type_id":"4","last_reported":1727676857,"current_range_meters":28000,"station_id":"ce4bgup2rcd13ifvqcn0","pricing_plan_id":"cebpf4jnsgd1na2vs0mg"},{"bike_id":"07e2661f-ae71-4164-93c8-d9da7c3de42a","system_id":"levelo_inurba_marseille","lat":43.30155,"lon":5.38084,"is_reserved":false,"is_disabled":false,"rental_uris":{"android":"levelo://app?vid=07e2661f-ae71-4164-93c8-d9da7c3de42a","ios":"levelo://app?vid=07e2661f-ae71-4164-93c8-d9da7c3de42a"},"vehicle_type_id":"4","last_reported":1727676857,"current_range_meters":30800,"station_id":"ce4bgjp2rcd13ifvqbh0","pricing_plan_id":"cebpf4jnsgd1na2vs0mg"},{"bike_id":"0521cc37-3a0f-4bc8-964a-96f026706e98","system_id":"levelo_inurba_marseille","lat":43.28023,"lon":5.36078,"is_reserved":false,"is_disabled":false,"rental_uris":{"android":"levelo://app?vid=0521cc37-3a0f-4bc8-964a-96f026706e98","ios":"levelo://app?vid=0521cc37-3a0f-4bc8-964a-96f026706e98"},"vehicle_type_id":"4","last_reported":1727676857,"current_range_meters":20000,"station_id":"","pricing_plan_id":"cebpf4jnsgd1na2vs0mg"},{"bike_id":"b7e783cf-2e99-47af-aa70-59c0709d4797","system_id":"levelo_inurba_marseille","lat":43.317,"lon":5.37758,"is_reserved":false,"is_disabled":false,"rental_uris":{"android":"levelo://app?vid=b7e783cf-2e99-47af-aa70-59c0709d4797","ios":"levelo://app?vid=b7e783cf-2e99-47af-aa70-59c0709d4797"},"vehicle_type_id":"4","last_reported":1727676857,"current_range_meters":38800,"station_id":"ce4bgth2rcd13ifvqch0","pricing_plan_id":"cebpf4jnsgd1na2vs0mg"},{"bike_id":"85e14133-988d-4b21-9098-bd3c14cace39","system_id":"levelo_inurba_marseille","lat":43.27499,"lon":5.42459,"is_reserved":false,"is_disabled":false,"rental_uris":{"android":"levelo://app?vid=85e14133-988d-4b21-9098-bd3c14cace39","ios":"levelo://app?vid=85e14133-988d-4b21-9098-bd3c14cace39"},"vehicle_type_id":"4","last_reported":1727676857,"current_range_meters":33600,"station_id":"ce4bhn92rcd13ifvqgrg","pricing_plan_id":"cebpf4jnsgd1na2vs0mg"},{"bike_id":"3a2ba1c6-0034-408d-bbc8-754ee52df5a0","system_id":"levelo_inurba_marseille","lat":43.27496,"lon":5.42453,"is_reserved":false,"is_disabled":false,"rental_uris":{"android":"levelo://app?vid=3a2ba1c6-0034-408d-bbc8-754ee52df5a0","ios":"levelo://app?vid=3a2ba1c6-0034-408d-bbc8-754ee52df5a0"},"vehicle_type_id":"4","last_reported":1727676857,"current_range_meters":17600,"station_id":"ce4bhn92rcd13ifvqgrg","pricing_plan_id":"cebpf4jnsgd1na2vs0mg"},{"bike_id":"00ec7c2f-d5eb-4b68-8325-159a97d856e6","system_id":"levelo_inurba_marseille","lat":43.25716,"lon":5.41109,"is_reserved":false,"is_disabled":false,"rental_uris":{"android":"levelo://app?vid=00ec7c2f-d5eb-4b68-8325-159a97d856e6","ios":"levelo://app?vid=00ec7c2f-d5eb-4b68-8325-159a97d856e6"},"vehicle_type_id":"4","last_reported":1727676857,"current_range_meters":36400,"station_id":"ce4bhkp2rcd13ifvqgd0","pricing_plan_id":"cebpf4jnsgd1na2vs0mg"},{"bike_id":"f7210e5b-b531-4ad6-b177-98af7a45308d","system_id":"levelo_inurba_marseille","lat":43.29603,"lon":5.38106,"is_reserved":false,"is_disabled":false,"rental_uris":{"android":"levelo://app?vid=f7210e5b-b531-4ad6-b177-98af7a45308d","ios":"levelo://app?vid=f7210e5b-b531-4ad6-b177-98af7a45308d"},"vehicle_type_id":"4","last_reported":1727676857,"current_range_meters":36800,"station_id":"ce4bgl12rcd13ifvqbo0","pricing_plan_id":"cebpf4jnsgd1na2vs0mg"},{"bike_id":"2ec78b01-d2c8-4577-ace2-fa6a643f8218","system_id":"levelo_inurba_marseille","lat":43.31362,"lon":5.38493,"is_reserved":false,"is_disabled":false,"rental_uris":{"android":"levelo://app?vid=2ec78b01-d2c8-4577-ace2-fa6a643f8218","ios":"levelo://app?vid=2ec78b01-d2c8-4577-ace2-fa6a643f8218"},"vehicle_type_id":"4","last_reported":1727676857,"current_range_meters":19600,"station_id":"ce4bgt92rcd13ifvqcf0","pricing_plan_id":"cebpf4jnsgd1na2vs0mg"},{"bike_id":"2cfbebee-2e3d-4295-841d-f91ce0d6dc6f","system_id":"levelo_inurba_marseille","lat":43.33605,"lon":5.41023,"is_reserved":false,"is_disabled":false,"rental_uris":{"android":"levelo://app?vid=2cfbebee-2e3d-4295-841d-f91ce0d6dc6f","ios":"levelo://app?vid=2cfbebee-2e3d-4295-841d-f91ce0d6dc6f"},"vehicle_type_id":"4","last_reported":1727676857,"current_range_meters":38800,"station_id":"ce4bhqh2rcd13ifvqhmg","pricing_plan_id":"cebpf4jnsgd1na2vs0mg"},{"bike_id":"1ce7c25b-6bd2-4b64-b4ae-543ea784fc5d","system_id":"levelo_inurba_marseille","lat":43.337444,"lon":5.374475,"is_reserved":false,"is_disabled":false,"rental_uris":{"android":"levelo://app?vid=1ce7c25b-6bd2-4b64-b4ae-543ea784fc5d","ios":"levelo://app?vid=1ce7c25b-6bd2-4b64-b4ae-543ea784fc5d"},"vehicle_type_id":"4","last_reported":1727676857,"current_range_meters":29600,"station_id":"","pricing_plan_id":"cebpf4jnsgd1na2vs0mg"},{"bike_id":"8e923b95-9920-4db3-95cf-4c32fcd41a80","system_id":"levelo_inurba_marseille","lat":43.317212,"lon":5.436378,"is_reserved":false,"is_disabled":false,"rental_uris":{"android":"levelo://app?vid=8e923b95-9920-4db3-95cf-4c32fcd41a80","ios":"levelo://app?vid=8e923b95-9920-4db3-95cf-4c32fcd41a80"},"vehicle_type_id":"4","last_reported":1727676857,"current_range_meters":14400,"station_id":"","pricing_plan_id":"cebpf4jnsgd1na2vs0mg"},{"bike_id":"944448a2-f788-4397-8bf9-9e18b0b6b5d1","system_id":"levelo_inurba_marseille","lat":43.275,"lon":5.42497,"is_reserved":false,"is_disabled":false,"rental_uris":{"android":"levelo://app?vid=944448a2-f788-4397-8bf9-9e18b0b6b5d1","ios":"levelo://app?vid=944448a2-f788-4397-8bf9-9e18b0b6b5d1"},"vehicle_type_id":"4","last_reported":1727676857,"current_range_meters":8800,"station_id":"ce4bhn92rcd13ifvqgrg","pricing_plan_id":"cebpf4jnsgd1na2vs0mg"},{"bike_id":"eeb4b54b-284a-4a51-af38-bfe005d55c3e","system_id":"levelo_inurba_marseille","lat":43.24811,"lon":5.37463,"is_reserved":false,"is_disabled":false,"rental_uris":{"android":"levelo://app?vid=eeb4b54b-284a-4a51-af38-bfe005d55c3e","ios":"levelo://app?vid=eeb4b54b-284a-4a51-af38-bfe005d55c3e"},"vehicle_type_id":"4","last_reported":1727676857,"current_range_meters":36800,"station_id":"ce4bhgh2rcd13ifvqfb0","pricing_plan_id":"cebpf4jnsgd1na2vs0mg"},{"bike_id":"a95db7d0-1eca-423e-882c-cf4394abb530","system_id":"levelo_inurba_marseille","lat":43.30596,"lon":5.39349,"is_reserved":false,"is_disabled":false,"rental_uris":{"android":"levelo://app?vid=a95db7d0-1eca-423e-882c-cf4394abb530","ios":"levelo://app?vid=a95db7d0-1eca-423e-882c-cf4394abb530"},"vehicle_type_id":"4","last_reported":1727676857,"current_range_meters":36400,"station_id":"ce4bh0p2rcd13ifvqd80","pricing_plan_id":"cebpf4jnsgd1na2vs0mg"},{"bike_id":"53136fc7-9956-43fe-a16a-3a69b28b125c","system_id":"levelo_inurba_marseille","lat":43.2796,"lon":5.38753,"is_reserved":false,"is_disabled":false,"rental_uris":{"android":"levelo://app?vid=53136fc7-9956-43fe-a16a-3a69b28b125c","ios":"levelo://app?vid=53136fc7-9956-43fe-a16a-3a69b28b125c"},"vehicle_type_id":"4","last_reported":1727676857,"current_range_meters":30000,"station_id":"ce4bhg12rcd13ifvqf80","pricing_plan_id":"cebpf4jnsgd1na2vs0mg"},{"bike_id":"0c6a3edd-0259-43fd-a8d1-3d4bb6023605","system_id":"levelo_inurba_marseille","lat":43.24392,"lon":5.37053,"is_reserved":false,"is_disabled":false,"rental_uris":{"android":"levelo://app?vid=0c6a3edd-0259-43fd-a8d1-3d4bb6023605","ios":"levelo://app?vid=0c6a3edd-0259-43fd-a8d1-3d4bb6023605"},"vehicle_type_id":"4","last_reported":1727676857,"current_range_meters":38400,"station_id":"ce4bhhh2rcd13ifvqfk0","pricing_plan_id":"cebpf4jnsgd1na2vs0mg"},{"bike_id":"bfecf3b7-ad5e-43f9-a1e4-8f183d80274a","system_id":"levelo_inurba_marseille","lat":43.29901,"lon":5.38511,"is_reserved":false,"is_disabled":false,"rental_uris":{"android":"levelo://app?vid=bfecf3b7-ad5e-43f9-a1e4-8f183d80274a","ios":"levelo://app?vid=bfecf3b7-ad5e-43f9-a1e4-8f183d80274a"},"vehicle_type_id":"4","last_reported":1727676857,"current_range_meters":28800,"station_id":"","pricing_plan_id":"cebpf4jnsgd1na2vs0mg"},{"bike_id":"753deb70-125e-4587-8f1d-232860216fe4","system_id":"levelo_inurba_marseille","lat":43.28671,"lon":5.35151,"is_reserved":false,"is_disabled":false,"rental_uris":{"android":"levelo://app?vid=753deb70-125e-4587-8f1d-232860216fe4","ios":"levelo://app?vid=753deb70-125e-4587-8f1d-232860216fe4"},"vehicle_type_id":"4","last_reported":1727676857,"current_range_meters":35200,"station_id":"","pricing_plan_id":"cebpf4jnsgd1na2vs0mg"},{"bike_id":"3caf8422-b986-423e-a514-c2ac38b96a96","system_id":"levelo_inurba_marseille","lat":43.30605,"lon":5.37238,"is_reserved":false,"is_disabled":false,"rental_uris":{"android":"levelo://app?vid=3caf8422-b986-423e-a514-c2ac38b96a96","ios":"levelo://app?vid=3caf8422-b986-423e-a514-c2ac38b96a96"},"vehicle_type_id":"4","last_reported":1727676857,"current_range_meters":38400,"station_id":"ce4bgqh2rcd13ifvqc4g","pricing_plan_id":"cebpf4jnsgd1na2vs0mg"},{"bike_id":"74d8bb14-e1fb-4fc4-b361-d2fdafd0d268","system_id":"levelo_inurba_marseille","lat":43.28348,"lon":5.38103,"is_reserved":false,"is_disabled":false,"rental_uris":{"android":"levelo://app?vid=74d8bb14-e1fb-4fc4-b361-d2fdafd0d268","ios":"levelo://app?vid=74d8bb14-e1fb-4fc4-b361-d2fdafd0d268"},"vehicle_type_id":"4","last_reported":1727676857,"current_range_meters":17200,"station_id":"ce4bh412rcd13ifvqdr0","pricing_plan_id":"cebpf4jnsgd1na2vs0mg"},{"bike_id":"c2e4e91c-22c9-44ca-af85-4b0d4deb4a68","system_id":"levelo_inurba_marseille","lat":43.23192,"lon":5.39972,"is_reserved":false,"is_disabled":false,"rental_uris":{"android":"levelo://app?vid=c2e4e91c-22c9-44ca-af85-4b0d4deb4a68","ios":"levelo://app?vid=c2e4e91c-22c9-44ca-af85-4b0d4deb4a68"},"vehicle_type_id":"4","last_reported":1727676857,"current_range_meters":38800,"station_id":"ce4bhn12rcd13ifvqgqg","pricing_plan_id":"cebpf4jnsgd1na2vs0mg"},{"bike_id":"594467aa-d042-46e6-a521-511a3034de0d","system_id":"levelo_inurba_marseille","lat":43.3022,"lon":5.38369,"is_reserved":false,"is_disabled":false,"rental_uris":{"android":"levelo://app?vid=594467aa-d042-46e6-a521-511a3034de0d","ios":"levelo://app?vid=594467aa-d042-46e6-a521-511a3034de0d"},"vehicle_type_id":"4","last_reported":1727676857,"current_range_meters":22800,"station_id":"","pricing_plan_id":"cebpf4jnsgd1na2vs0mg"},{"bike_id":"855cc9d5-5f4c-4a0b-b9bd-6fd5142a08b8","system_id":"levelo_inurba_marseille","lat":43.24085,"lon":5.37751,"is_reserved":false,"is_disabled":false,"rental_uris":{"android":"levelo://app?vid=855cc9d5-5f4c-4a0b-b9bd-6fd5142a08b8","ios":"levelo://app?vid=855cc9d5-5f4c-4a0b-b9bd-6fd5142a08b8"},"vehicle_type_id":"4","last_reported":1727676857,"current_range_meters":24400,"station_id":"ce4bhnp2rcd13ifvqgvg","pricing_plan_id":"cebpf4jnsgd1na2vs0mg"},{"bike_id":"662377ca-a910-4716-ace2-86901b6a8e67","system_id":"levelo_inurba_marseille","lat":43.30162,"lon":5.38092,"is_reserved":false,"is_disabled":false,"rental_uris":{"android":"levelo://app?vid=662377ca-a910-4716-ace2-86901b6a8e67","ios":"levelo://app?vid=662377ca-a910-4716-ace2-86901b6a8e67"},"vehicle_type_id":"4","last_reported":1727676857,"current_range_meters":8800,"station_id":"ce4bgjp2rcd13ifvqbh0","pricing_plan_id":"cebpf4jnsgd1na2vs0mg"},{"bike_id":"a7699da9-a62f-4d9e-a63b-1d32daa4307f","system_id":"levelo_inurba_marseille","lat":43.27495,"lon":5.42454,"is_reserved":false,"is_disabled":false,"rental_uris":{"android":"levelo://app?vid=a7699da9-a62f-4d9e-a63b-1d32daa4307f","ios":"levelo://app?vid=a7699da9-a62f-4d9e-a63b-1d32daa4307f"},"vehicle_type_id":"4","last_reported":1727676857,"current_range_meters":32400,"station_id":"ce4bhn92rcd13ifvqgrg","pricing_plan_id":"cebpf4jnsgd1na2vs0mg"},{"bike_id":"d44939cd-0aed-4575-9cd6-0d087f0bad31","system_id":"levelo_inurba_marseille","lat":43.31347,"lon":5.36713,"is_reserved":false,"is_disabled":false,"rental_uris":{"android":"levelo://app?vid=d44939cd-0aed-4575-9cd6-0d087f0bad31","ios":"levelo://app?vid=d44939cd-0aed-4575-9cd6-0d087f0bad31"},"vehicle_type_id":"4","last_reported":1727676857,"current_range_meters":29600,"station_id":"ce4bgr92rcd13ifvqc6g","pricing_plan_id":"cebpf4jnsgd1na2vs0mg"},{"bike_id":"9cab4b77-e73b-485b-9196-05681379298d","system_id":"levelo_inurba_marseille","lat":43.32312,"lon":5.38295,"is_reserved":false,"is_disabled":false,"rental_uris":{"android":"levelo://app?vid=9cab4b77-e73b-485b-9196-05681379298d","ios":"levelo://app?vid=9cab4b77-e73b-485b-9196-05681379298d"},"vehicle_type_id":"4","last_reported":1727676857,"current_range_meters":34800,"station_id":"ce4bhr12rcd13ifvqhqg","pricing_plan_id":"cebpf4jnsgd1na2vs0mg"},{"bike_id":"fafd72ba-ab4a-4dc6-a2b0-72aaedec6afb","system_id":"levelo_inurba_marseille","lat":43.27212,"lon":5.39178,"is_reserved":false,"is_disabled":false,"rental_uris":{"android":"levelo://app?vid=fafd72ba-ab4a-4dc6-a2b0-72aaedec6afb","ios":"levelo://app?vid=fafd72ba-ab4a-4dc6-a2b0-72aaedec6afb"},"vehicle_type_id":"4","last_reported":1727676857,"current_range_meters":34000,"station_id":"ce4bhhp2rcd13ifvqfm0","pricing_plan_id":"cebpf4jnsgd1na2vs0mg"},{"bike_id":"691cc2ed-9094-472f-8b35-466f1924ad13","system_id":"levelo_inurba_marseille","lat":43.31372,"lon":5.38487,"is_reserved":false,"is_disabled":false,"rental_uris":{"android":"levelo://app?vid=691cc2ed-9094-472f-8b35-466f1924ad13","ios":"levelo://app?vid=691cc2ed-9094-472f-8b35-466f1924ad13"},"vehicle_type_id":"4","last_reported":1727676857,"current_range_meters":23200,"station_id":"ce4bgt92rcd13ifvqcf0","pricing_plan_id":"cebpf4jnsgd1na2vs0mg"},{"bike_id":"be9da5be-7fb9-4808-84e4-3e1fbf8d7bcc","system_id":"levelo_inurba_marseille","lat":43.33469,"lon":5.41032,"is_reserved":false,"is_disabled":false,"rental_uris":{"android":"levelo://app?vid=be9da5be-7fb9-4808-84e4-3e1fbf8d7bcc","ios":"levelo://app?vid=be9da5be-7fb9-4808-84e4-3e1fbf8d7bcc"},"vehicle_type_id":"4","last_reported":1727676857,"current_range_meters":15200,"station_id":"","pricing_plan_id":"cebpf4jnsgd1na2vs0mg"},{"bike_id":"d984451a-0c81-44ca-b107-4baa10c6c731","system_id":"levelo_inurba_marseille","lat":43.32162,"lon":5.41096,"is_reserved":false,"is_disabled":false,"rental_uris":{"android":"levelo://app?vid=d984451a-0c81-44ca-b107-4baa10c6c731","ios":"levelo://app?vid=d984451a-0c81-44ca-b107-4baa10c6c731"},"vehicle_type_id":"4","last_reported":1727676857,"current_range_meters":35200,"station_id":"","pricing_plan_id":"cebpf4jnsgd1na2vs0mg"},{"bike_id":"14b16226-72d1-4b1f-b853-d2b23cfd6f6e","system_id":"levelo_inurba_marseille","lat":43.30463,"lon":5.37905,"is_reserved":false,"is_disabled":false,"rental_uris":{"android":"levelo://app?vid=14b16226-72d1-4b1f-b853-d2b23cfd6f6e","ios":"levelo://app?vid=14b16226-72d1-4b1f-b853-d2b23cfd6f6e"},"vehicle_type_id":"4","last_reported":1727676857,"current_range_meters":22400,"station_id":"ce4bgup2rcd13ifvqcn0","pricing_plan_id":"cebpf4jnsgd1na2vs0mg"},{"bike_id":"5b4a633f-0b63-474b-abd4-9003a7b86eed","system_id":"levelo_inurba_marseille","lat":43.32339,"lon":5.40616,"is_reserved":false,"is_disabled":false,"rental_uris":{"android":"levelo://app?vid=5b4a633f-0b63-474b-abd4-9003a7b86eed","ios":"levelo://app?vid=5b4a633f-0b63-474b-abd4-9003a7b86eed"},"vehicle_type_id":"4","last_reported":1727676857,"current_range_meters":38800,"station_id":"ce4bhq92rcd13ifvqhjg","pricing_plan_id":"cebpf4jnsgd1na2vs0mg"},{"bike_id":"48d7348c-df42-47e0-8369-56451f129cc4","system_id":"levelo_inurba_marseille","lat":43.28974,"lon":5.37818,"is_reserved":false,"is_disabled":false,"rental_uris":{"android":"levelo://app?vid=48d7348c-df42-47e0-8369-56451f129cc4","ios":"levelo://app?vid=48d7348c-df42-47e0-8369-56451f129cc4"},"vehicle_type_id":"4","last_reported":1727676857,"current_range_meters":26000,"station_id":"ce4bh9p2rcd13ifvqed0","pricing_plan_id":"cebpf4jnsgd1na2vs0mg"},{"bike_id":"e150718b-3b11-4746-aaf5-ed9fe54bd243","system_id":"levelo_inurba_marseille","lat":43.24077,"lon":5.37746,"is_reserved":false,"is_disabled":false,"rental_uris":{"android":"levelo://app?vid=e150718b-3b11-4746-aaf5-ed9fe54bd243","ios":"levelo://app?vid=e150718b-3b11-4746-aaf5-ed9fe54bd243"},"vehicle_type_id":"4","last_reported":1727676857,"current_range_meters":12400,"station_id":"ce4bhnp2rcd13ifvqgvg","pricing_plan_id":"cebpf4jnsgd1na2vs0mg"},{"bike_id":"f675718c-9af4-4902-b658-fc903325dca7","system_id":"levelo_inurba_marseille","lat":43.274872,"lon":5.424566,"is_reserved":false,"is_disabled":false,"rental_uris":{"android":"levelo://app?vid=f675718c-9af4-4902-b658-fc903325dca7","ios":"levelo://app?vid=f675718c-9af4-4902-b658-fc903325dca7"},"vehicle_type_id":"4","last_reported":1727676857,"current_range_meters":28800,"station_id":"ce4bhn92rcd13ifvqgrg","pricing_plan_id":"cebpf4jnsgd1na2vs0mg"},{"bike_id":"73bc85b9-959b-4487-b86b-75e0a4fe28a2","system_id":"levelo_inurba_marseille","lat":43.27068,"lon":5.42272,"is_reserved":false,"is_disabled":false,"rental_uris":{"android":"levelo://app?vid=73bc85b9-959b-4487-b86b-75e0a4fe28a2","ios":"levelo://app?vid=73bc85b9-959b-4487-b86b-75e0a4fe28a2"},"vehicle_type_id":"4","last_reported":1727676857,"current_range_meters":18800,"station_id":"ce4bhk92rcd13ifvqgb0","pricing_plan_id":"cebpf4jnsgd1na2vs0mg"},{"bike_id":"883dbd06-c2fc-4488-9b5e-ef4f05339f9b","system_id":"levelo_inurba_marseille","lat":43.30215,"lon":5.36605,"is_reserved":false,"is_disabled":false,"rental_uris":{"android":"levelo://app?vid=883dbd06-c2fc-4488-9b5e-ef4f05339f9b","ios":"levelo://app?vid=883dbd06-c2fc-4488-9b5e-ef4f05339f9b"},"vehicle_type_id":"4","last_reported":1727676857,"current_range_meters":26800,"station_id":"ce4bgrh2rcd13ifvqc8g","pricing_plan_id":"cebpf4jnsgd1na2vs0mg"},{"bike_id":"6c8b138c-21e2-45bf-a989-ce45493ac988","system_id":"levelo_inurba_marseille","lat":43.232,"lon":5.35544,"is_reserved":false,"is_disabled":false,"rental_uris":{"android":"levelo://app?vid=6c8b138c-21e2-45bf-a989-ce45493ac988","ios":"levelo://app?vid=6c8b138c-21e2-45bf-a989-ce45493ac988"},"vehicle_type_id":"4","last_reported":1727676857,"current_range_meters":37600,"station_id":"ce4bhu92rcd13ifvqi70","pricing_plan_id":"cebpf4jnsgd1na2vs0mg"},{"bike_id":"61b80206-8211-4df0-b90b-eee6dba44a64","system_id":"levelo_inurba_marseille","lat":43.27563,"lon":5.38453,"is_reserved":false,"is_disabled":false,"rental_uris":{"android":"levelo://app?vid=61b80206-8211-4df0-b90b-eee6dba44a64","ios":"levelo://app?vid=61b80206-8211-4df0-b90b-eee6dba44a64"},"vehicle_type_id":"4","last_reported":1727676857,"current_range_meters":20000,"station_id":"ce4bhh92rcd13ifvqfi0","pricing_plan_id":"cebpf4jnsgd1na2vs0mg"},{"bike_id":"cf2a99f0-171d-46e2-b5f9-b8e518581e33","system_id":"levelo_inurba_marseille","lat":43.23964,"lon":5.36615,"is_reserved":false,"is_disabled":false,"rental_uris":{"android":"levelo://app?vid=cf2a99f0-171d-46e2-b5f9-b8e518581e33","ios":"levelo://app?vid=cf2a99f0-171d-46e2-b5f9-b8e518581e33"},"vehicle_type_id":"4","last_reported":1727676857,"current_range_meters":28800,"station_id":"ce4bhi12rcd13ifvqfp0","pricing_plan_id":"cebpf4jnsgd1na2vs0mg"},{"bike_id":"ab341b60-52b3-4026-8612-f52adaca6501","system_id":"levelo_inurba_marseille","lat":43.29603,"lon":5.38097,"is_reserved":false,"is_disabled":false,"rental_uris":{"android":"levelo://app?vid=ab341b60-52b3-4026-8612-f52adaca6501","ios":"levelo://app?vid=ab341b60-52b3-4026-8612-f52adaca6501"},"vehicle_type_id":"4","last_reported":1727676857,"current_range_meters":32800,"station_id":"ce4bgl12rcd13ifvqbo0","pricing_plan_id":"cebpf4jnsgd1na2vs0mg"},{"bike_id":"d235e8a6-2a08-4d1f-8743-d8168eaa2270","system_id":"levelo_inurba_marseille","lat":43.2894,"lon":5.36637,"is_reserved":false,"is_disabled":false,"rental_uris":{"android":"levelo://app?vid=d235e8a6-2a08-4d1f-8743-d8168eaa2270","ios":"levelo://app?vid=d235e8a6-2a08-4d1f-8743-d8168eaa2270"},"vehicle_type_id":"4","last_reported":1727676857,"current_range_meters":12800,"station_id":"ce4bhap2rcd13ifvqek0","pricing_plan_id":"cebpf4jnsgd1na2vs0mg"},{"bike_id":"8ae58959-8570-4b10-8fc5-ffd7681bb4b1","system_id":"levelo_inurba_marseille","lat":43.30599,"lon":5.39352,"is_reserved":false,"is_disabled":false,"rental_uris":{"android":"levelo://app?vid=8ae58959-8570-4b10-8fc5-ffd7681bb4b1","ios":"levelo://app?vid=8ae58959-8570-4b10-8fc5-ffd7681bb4b1"},"vehicle_type_id":"4","last_reported":1727676857,"current_range_meters":22000,"station_id":"ce4bh0p2rcd13ifvqd80","pricing_plan_id":"cebpf4jnsgd1na2vs0mg"},{"bike_id":"4c59b6a6-13a5-4f15-8ea7-e82f231118a7","system_id":"levelo_inurba_marseille","lat":43.29895,"lon":5.4366,"is_reserved":false,"is_disabled":false,"rental_uris":{"android":"levelo://app?vid=4c59b6a6-13a5-4f15-8ea7-e82f231118a7","ios":"levelo://app?vid=4c59b6a6-13a5-4f15-8ea7-e82f231118a7"},"vehicle_type_id":"4","last_reported":1727676857,"current_range_meters":38000,"station_id":"ce4bhpp2rcd13ifvqhfg","pricing_plan_id":"cebpf4jnsgd1na2vs0mg"},{"bike_id":"b95e2321-2a34-4beb-9753-9c2836826d6e","system_id":"levelo_inurba_marseille","lat":43.28703,"lon":5.37908,"is_reserved":false,"is_disabled":false,"rental_uris":{"android":"levelo://app?vid=b95e2321-2a34-4beb-9753-9c2836826d6e","ios":"levelo://app?vid=b95e2321-2a34-4beb-9753-9c2836826d6e"},"vehicle_type_id":"4","last_reported":1727676857,"current_range_meters":28400,"station_id":"ce4bh9p2rcd13ifvqec0","pricing_plan_id":"cebpf4jnsgd1na2vs0mg"},{"bike_id":"303311aa-a295-44c4-99b1-1b8e45a41364","system_id":"levelo_inurba_marseille","lat":43.29605,"lon":5.38101,"is_reserved":false,"is_disabled":false,"rental_uris":{"android":"levelo://app?vid=303311aa-a295-44c4-99b1-1b8e45a41364","ios":"levelo://app?vid=303311aa-a295-44c4-99b1-1b8e45a41364"},"vehicle_type_id":"4","last_reported":1727676857,"current_range_meters":27600,"station_id":"ce4bgl12rcd13ifvqbo0","pricing_plan_id":"cebpf4jnsgd1na2vs0mg"},{"bike_id":"53c246f5-626c-488e-b20a-fd17bfa9ce76","system_id":"levelo_inurba_marseille","lat":43.33719,"lon":5.39188,"is_reserved":false,"is_disabled":false,"rental_uris":{"android":"levelo://app?vid=53c246f5-626c-488e-b20a-fd17bfa9ce76","ios":"levelo://app?vid=53c246f5-626c-488e-b20a-fd17bfa9ce76"},"vehicle_type_id":"4","last_reported":1727676857,"current_range_meters":24800,"station_id":"ce4bhr92rcd13ifvqhsg","pricing_plan_id":"cebpf4jnsgd1na2vs0mg"},{"bike_id":"b5d31c5b-ccdc-44c6-93f1-76c109218604","system_id":"levelo_inurba_marseille","lat":43.25726,"lon":5.41106,"is_reserved":false,"is_disabled":false,"rental_uris":{"android":"levelo://app?vid=b5d31c5b-ccdc-44c6-93f1-76c109218604","ios":"levelo://app?vid=b5d31c5b-ccdc-44c6-93f1-76c109218604"},"vehicle_type_id":"4","last_reported":1727676857,"current_range_meters":37600,"station_id":"ce4bhkp2rcd13ifvqgd0","pricing_plan_id":"cebpf4jnsgd1na2vs0mg"},{"bike_id":"1a00221f-aae4-4ab0-a6df-b37bd531256d","system_id":"levelo_inurba_marseille","lat":43.27495,"lon":5.4245,"is_reserved":false,"is_disabled":false,"rental_uris":{"android":"levelo://app?vid=1a00221f-aae4-4ab0-a6df-b37bd531256d","ios":"levelo://app?vid=1a00221f-aae4-4ab0-a6df-b37bd531256d"},"vehicle_type_id":"4","last_reported":1727676857,"current_range_meters":34000,"station_id":"ce4bhn92rcd13ifvqgrg","pricing_plan_id":"cebpf4jnsgd1na2vs0mg"},{"bike_id":"5a7a5932-1d4f-483c-9d03-b9328489a502","system_id":"levelo_inurba_marseille","lat":43.27941,"lon":5.41051,"is_reserved":false,"is_disabled":false,"rental_uris":{"android":"levelo://app?vid=5a7a5932-1d4f-483c-9d03-b9328489a502","ios":"levelo://app?vid=5a7a5932-1d4f-483c-9d03-b9328489a502"},"vehicle_type_id":"4","last_reported":1727676857,"current_range_meters":24400,"station_id":"ce4bhnp2rcd13ifvqh0g","pricing_plan_id":"cebpf4jnsgd1na2vs0mg"},{"bike_id":"e9c9a824-77dd-4a8d-b5f7-16a11637475b","system_id":"levelo_inurba_marseille","lat":43.32548,"lon":5.41438,"is_reserved":false,"is_disabled":false,"rental_uris":{"android":"levelo://app?vid=e9c9a824-77dd-4a8d-b5f7-16a11637475b","ios":"levelo://app?vid=e9c9a824-77dd-4a8d-b5f7-16a11637475b"},"vehicle_type_id":"4","last_reported":1727676857,"current_range_meters":39200,"station_id":"ce4bhq12rcd13ifvqhhg","pricing_plan_id":"cebpf4jnsgd1na2vs0mg"},{"bike_id":"a2cebfe8-17a6-4c8a-9675-79b8388fe63f","system_id":"levelo_inurba_marseille","lat":43.30146,"lon":5.38083,"is_reserved":false,"is_disabled":false,"rental_uris":{"android":"levelo://app?vid=a2cebfe8-17a6-4c8a-9675-79b8388fe63f","ios":"levelo://app?vid=a2cebfe8-17a6-4c8a-9675-79b8388fe63f"},"vehicle_type_id":"4","last_reported":1727676857,"current_range_meters":38000,"station_id":"ce4bgjp2rcd13ifvqbh0","pricing_plan_id":"cebpf4jnsgd1na2vs0mg"},{"bike_id":"53922870-e7aa-4e36-a183-ae9cdb53ed16","system_id":"levelo_inurba_marseille","lat":43.28489,"lon":5.38554,"is_reserved":false,"is_disabled":false,"rental_uris":{"android":"levelo://app?vid=53922870-e7aa-4e36-a183-ae9cdb53ed16","ios":"levelo://app?vid=53922870-e7aa-4e36-a183-ae9cdb53ed16"},"vehicle_type_id":"4","last_reported":1727676857,"current_range_meters":38800,"station_id":"ce4bh8p2rcd13ifvqeb0","pricing_plan_id":"cebpf4jnsgd1na2vs0mg"},{"bike_id":"d87af6af-7ad4-4bce-96ae-080c876cc48c","system_id":"levelo_inurba_marseille","lat":43.24391,"lon":5.3706,"is_reserved":false,"is_disabled":false,"rental_uris":{"android":"levelo://app?vid=d87af6af-7ad4-4bce-96ae-080c876cc48c","ios":"levelo://app?vid=d87af6af-7ad4-4bce-96ae-080c876cc48c"},"vehicle_type_id":"4","last_reported":1727676857,"current_range_meters":38800,"station_id":"ce4bhhh2rcd13ifvqfk0","pricing_plan_id":"cebpf4jnsgd1na2vs0mg"},{"bike_id":"124cc49e-bc3f-4ee2-96b6-78f4c29aba27","system_id":"levelo_inurba_marseille","lat":43.25005,"lon":5.38918,"is_reserved":false,"is_disabled":false,"rental_uris":{"android":"levelo://app?vid=124cc49e-bc3f-4ee2-96b6-78f4c29aba27","ios":"levelo://app?vid=124cc49e-bc3f-4ee2-96b6-78f4c29aba27"},"vehicle_type_id":"4","last_reported":1727676857,"current_range_meters":19200,"station_id":"ce4bhgp2rcd13ifvqfd0","pricing_plan_id":"cebpf4jnsgd1na2vs0mg"},{"bike_id":"fd14ba81-3f44-4ac1-b066-8941269a20c6","system_id":"levelo_inurba_marseille","lat":43.29243,"lon":5.42675,"is_reserved":false,"is_disabled":false,"rental_uris":{"android":"levelo://app?vid=fd14ba81-3f44-4ac1-b066-8941269a20c6","ios":"levelo://app?vid=fd14ba81-3f44-4ac1-b066-8941269a20c6"},"vehicle_type_id":"4","last_reported":1727676857,"current_range_meters":14400,"station_id":"ce4bhnh2rcd13ifvqgug","pricing_plan_id":"cebpf4jnsgd1na2vs0mg"},{"bike_id":"c1a1b9e4-f961-4823-b111-afdf24cf4ace","system_id":"levelo_inurba_marseille","lat":43.29917,"lon":5.37461,"is_reserved":false,"is_disabled":false,"rental_uris":{"android":"levelo://app?vid=c1a1b9e4-f961-4823-b111-afdf24cf4ace","ios":"levelo://app?vid=c1a1b9e4-f961-4823-b111-afdf24cf4ace"},"vehicle_type_id":"4","last_reported":1727676857,"current_range_meters":34000,"station_id":"ce4bgjh2rcd13ifvqbg0","pricing_plan_id":"cebpf4jnsgd1na2vs0mg"},{"bike_id":"eff82514-85e2-4e15-b93d-2e20ed29c1dd","system_id":"levelo_inurba_marseille","lat":43.3031,"lon":5.39199,"is_reserved":false,"is_disabled":false,"rental_uris":{"android":"levelo://app?vid=eff82514-85e2-4e15-b93d-2e20ed29c1dd","ios":"levelo://app?vid=eff82514-85e2-4e15-b93d-2e20ed29c1dd"},"vehicle_type_id":"4","last_reported":1727676857,"current_range_meters":32400,"station_id":"ce4bgkh2rcd13ifvqbk0","pricing_plan_id":"cebpf4jnsgd1na2vs0mg"},{"bike_id":"aec528ef-c7aa-4d7c-b7ab-fa444d62a907","system_id":"levelo_inurba_marseille","lat":43.28158,"lon":5.4264,"is_reserved":false,"is_disabled":false,"rental_uris":{"android":"levelo://app?vid=aec528ef-c7aa-4d7c-b7ab-fa444d62a907","ios":"levelo://app?vid=aec528ef-c7aa-4d7c-b7ab-fa444d62a907"},"vehicle_type_id":"4","last_reported":1727676857,"current_range_meters":37600,"station_id":"ce4bhnh2rcd13ifvqgug","pricing_plan_id":"cebpf4jnsgd1na2vs0mg"},{"bike_id":"405b5f1d-b9eb-4659-95d5-5c2ff06d8e1a","system_id":"levelo_inurba_marseille","lat":43.27501,"lon":5.42446,"is_reserved":false,"is_disabled":false,"rental_uris":{"android":"levelo://app?vid=405b5f1d-b9eb-4659-95d5-5c2ff06d8e1a","ios":"levelo://app?vid=405b5f1d-b9eb-4659-95d5-5c2ff06d8e1a"},"vehicle_type_id":"4","last_reported":1727676857,"current_range_meters":18800,"station_id":"ce4bhn92rcd13ifvqgrg","pricing_plan_id":"cebpf4jnsgd1na2vs0mg"},{"bike_id":"85a7ce6d-c78a-4356-8d69-4e768e529bde","system_id":"levelo_inurba_marseille","lat":43.32263,"lon":5.40649,"is_reserved":false,"is_disabled":false,"rental_uris":{"android":"levelo://app?vid=85a7ce6d-c78a-4356-8d69-4e768e529bde","ios":"levelo://app?vid=85a7ce6d-c78a-4356-8d69-4e768e529bde"},"vehicle_type_id":"4","last_reported":1727676857,"current_range_meters":27200,"station_id":"","pricing_plan_id":"cebpf4jnsgd1na2vs0mg"},{"bike_id":"18b188e6-aa6a-4bd7-ad05-6ca16854b93f","system_id":"levelo_inurba_marseille","lat":43.27066,"lon":5.42274,"is_reserved":false,"is_disabled":false,"rental_uris":{"android":"levelo://app?vid=18b188e6-aa6a-4bd7-ad05-6ca16854b93f","ios":"levelo://app?vid=18b188e6-aa6a-4bd7-ad05-6ca16854b93f"},"vehicle_type_id":"4","last_reported":1727676857,"current_range_meters":30400,"station_id":"ce4bhk92rcd13ifvqgb0","pricing_plan_id":"cebpf4jnsgd1na2vs0mg"},{"bike_id":"408d9401-5194-45b1-948e-a2c15040c41f","system_id":"levelo_inurba_marseille","lat":43.23199,"lon":5.35542,"is_reserved":false,"is_disabled":false,"rental_uris":{"android":"levelo://app?vid=408d9401-5194-45b1-948e-a2c15040c41f","ios":"levelo://app?vid=408d9401-5194-45b1-948e-a2c15040c41f"},"vehicle_type_id":"4","last_reported":1727676857,"current_range_meters":11600,"station_id":"ce4bhu92rcd13ifvqi70","pricing_plan_id":"cebpf4jnsgd1na2vs0mg"},{"bike_id":"94fdfe10-8c09-41e0-b800-38c859b3f321","system_id":"levelo_inurba_marseille","lat":43.329156,"lon":5.390685,"is_reserved":false,"is_disabled":false,"rental_uris":{"android":"levelo://app?vid=94fdfe10-8c09-41e0-b800-38c859b3f321","ios":"levelo://app?vid=94fdfe10-8c09-41e0-b800-38c859b3f321"},"vehicle_type_id":"4","last_reported":1727676857,"current_range_meters":34800,"station_id":"","pricing_plan_id":"cebpf4jnsgd1na2vs0mg"},{"bike_id":"b8f7edaf-ab4b-4656-a5a6-f73fabed2083","system_id":"levelo_inurba_marseille","lat":43.2988,"lon":5.38904,"is_reserved":false,"is_disabled":false,"rental_uris":{"android":"levelo://app?vid=b8f7edaf-ab4b-4656-a5a6-f73fabed2083","ios":"levelo://app?vid=b8f7edaf-ab4b-4656-a5a6-f73fabed2083"},"vehicle_type_id":"4","last_reported":1727676857,"current_range_meters":37600,"station_id":"ce4bh392rcd13ifvqdl0","pricing_plan_id":"cebpf4jnsgd1na2vs0mg"},{"bike_id":"8dc50db5-124c-4633-a931-fd48cea9c94b","system_id":"levelo_inurba_marseille","lat":43.23153,"lon":5.43716,"is_reserved":false,"is_disabled":false,"rental_uris":{"android":"levelo://app?vid=8dc50db5-124c-4633-a931-fd48cea9c94b","ios":"levelo://app?vid=8dc50db5-124c-4633-a931-fd48cea9c94b"},"vehicle_type_id":"4","last_reported":1727676857,"current_range_meters":26800,"station_id":"ce4bhmp2rcd13ifvqgog","pricing_plan_id":"cebpf4jnsgd1na2vs0mg"},{"bike_id":"24f66ba0-9728-4d6c-96ef-74d761c96131","system_id":"levelo_inurba_marseille","lat":43.3047,"lon":5.37905,"is_reserved":false,"is_disabled":false,"rental_uris":{"android":"levelo://app?vid=24f66ba0-9728-4d6c-96ef-74d761c96131","ios":"levelo://app?vid=24f66ba0-9728-4d6c-96ef-74d761c96131"},"vehicle_type_id":"4","last_reported":1727676857,"current_range_meters":32400,"station_id":"ce4bgup2rcd13ifvqcn0","pricing_plan_id":"cebpf4jnsgd1na2vs0mg"},{"bike_id":"40af7eb4-6cd7-462c-b9fb-34273e78aa71","system_id":"levelo_inurba_marseille","lat":43.2407,"lon":5.37755,"is_reserved":false,"is_disabled":false,"rental_uris":{"android":"levelo://app?vid=40af7eb4-6cd7-462c-b9fb-34273e78aa71","ios":"levelo://app?vid=40af7eb4-6cd7-462c-b9fb-34273e78aa71"},"vehicle_type_id":"4","last_reported":1727676857,"current_range_meters":8000,"station_id":"ce4bhnp2rcd13ifvqgvg","pricing_plan_id":"cebpf4jnsgd1na2vs0mg"},{"bike_id":"a63d4449-4f5a-4f1c-9a3c-27c8d74bd2a3","system_id":"levelo_inurba_marseille","lat":43.24392,"lon":5.37061,"is_reserved":false,"is_disabled":false,"rental_uris":{"android":"levelo://app?vid=a63d4449-4f5a-4f1c-9a3c-27c8d74bd2a3","ios":"levelo://app?vid=a63d4449-4f5a-4f1c-9a3c-27c8d74bd2a3"},"vehicle_type_id":"4","last_reported":1727676857,"current_range_meters":7200,"station_id":"ce4bhhh2rcd13ifvqfk0","pricing_plan_id":"cebpf4jnsgd1na2vs0mg"},{"bike_id":"b187d656-363f-4d58-ae4c-249a3172d21b","system_id":"levelo_inurba_marseille","lat":43.27069,"lon":5.42278,"is_reserved":false,"is_disabled":false,"rental_uris":{"android":"levelo://app?vid=b187d656-363f-4d58-ae4c-249a3172d21b","ios":"levelo://app?vid=b187d656-363f-4d58-ae4c-249a3172d21b"},"vehicle_type_id":"4","last_reported":1727676857,"current_range_meters":33200,"station_id":"ce4bhk92rcd13ifvqgb0","pricing_plan_id":"cebpf4jnsgd1na2vs0mg"},{"bike_id":"f0d756a4-9211-4b22-83eb-7505e550378a","system_id":"levelo_inurba_marseille","lat":43.28427,"lon":5.34985,"is_reserved":false,"is_disabled":false,"rental_uris":{"android":"levelo://app?vid=f0d756a4-9211-4b22-83eb-7505e550378a","ios":"levelo://app?vid=f0d756a4-9211-4b22-83eb-7505e550378a"},"vehicle_type_id":"4","last_reported":1727676857,"current_range_meters":30800,"station_id":"ce4bhbh2rcd13ifvqepg","pricing_plan_id":"cebpf4jnsgd1na2vs0mg"},{"bike_id":"81a3242c-03a9-4973-8513-f9f3502e650e","system_id":"levelo_inurba_marseille","lat":43.23151,"lon":5.43716,"is_reserved":false,"is_disabled":false,"rental_uris":{"android":"levelo://app?vid=81a3242c-03a9-4973-8513-f9f3502e650e","ios":"levelo://app?vid=81a3242c-03a9-4973-8513-f9f3502e650e"},"vehicle_type_id":"4","last_reported":1727676857,"current_range_meters":30800,"station_id":"ce4bhmp2rcd13ifvqgog","pricing_plan_id":"cebpf4jnsgd1na2vs0mg"},{"bike_id":"7eda30fe-d024-4258-b0e3-cac7d23be01b","system_id":"levelo_inurba_marseille","lat":43.24813,"lon":5.37456,"is_reserved":false,"is_disabled":false,"rental_uris":{"android":"levelo://app?vid=7eda30fe-d024-4258-b0e3-cac7d23be01b","ios":"levelo://app?vid=7eda30fe-d024-4258-b0e3-cac7d23be01b"},"vehicle_type_id":"4","last_reported":1727676857,"current_range_meters":19600,"station_id":"ce4bhgh2rcd13ifvqfb0","pricing_plan_id":"cebpf4jnsgd1na2vs0mg"},{"bike_id":"cd4ce21f-42e9-4fc0-aed4-f067c3cecd8a","system_id":"levelo_inurba_marseille","lat":43.30542,"lon":5.36725,"is_reserved":false,"is_disabled":false,"rental_uris":{"android":"levelo://app?vid=cd4ce21f-42e9-4fc0-aed4-f067c3cecd8a","ios":"levelo://app?vid=cd4ce21f-42e9-4fc0-aed4-f067c3cecd8a"},"vehicle_type_id":"4","last_reported":1727676857,"current_range_meters":16400,"station_id":"ce4bgrp2rcd13ifvqc9g","pricing_plan_id":"cebpf4jnsgd1na2vs0mg"},{"bike_id":"6296c2c0-6eac-46b7-baed-37b6d0660607","system_id":"levelo_inurba_marseille","lat":43.30895,"lon":5.37188,"is_reserved":false,"is_disabled":false,"rental_uris":{"android":"levelo://app?vid=6296c2c0-6eac-46b7-baed-37b6d0660607","ios":"levelo://app?vid=6296c2c0-6eac-46b7-baed-37b6d0660607"},"vehicle_type_id":"4","last_reported":1727676857,"current_range_meters":7200,"station_id":"ce4bguh2rcd13ifvqckg","pricing_plan_id":"cebpf4jnsgd1na2vs0mg"},{"bike_id":"ea4bb48d-16df-4c51-b46d-fc4ce8c78841","system_id":"levelo_inurba_marseille","lat":43.30481,"lon":5.37912,"is_reserved":false,"is_disabled":false,"rental_uris":{"android":"levelo://app?vid=ea4bb48d-16df-4c51-b46d-fc4ce8c78841","ios":"levelo://app?vid=ea4bb48d-16df-4c51-b46d-fc4ce8c78841"},"vehicle_type_id":"4","last_reported":1727676857,"current_range_meters":6000,"station_id":"ce4bgup2rcd13ifvqcn0","pricing_plan_id":"cebpf4jnsgd1na2vs0mg"},{"bike_id":"9b57cd59-f3ad-4ba8-a110-ae88b65a3e74","system_id":"levelo_inurba_marseille","lat":43.29283,"lon":5.40119,"is_reserved":false,"is_disabled":false,"rental_uris":{"android":"levelo://app?vid=9b57cd59-f3ad-4ba8-a110-ae88b65a3e74","ios":"levelo://app?vid=9b57cd59-f3ad-4ba8-a110-ae88b65a3e74"},"vehicle_type_id":"4","last_reported":1727676857,"current_range_meters":30400,"station_id":"ce4bh312rcd13ifvqdk0","pricing_plan_id":"cebpf4jnsgd1na2vs0mg"},{"bike_id":"ba47ffe7-15d8-4e06-b01c-f5ac015d6724","system_id":"levelo_inurba_marseille","lat":43.28477,"lon":5.38407,"is_reserved":false,"is_disabled":false,"rental_uris":{"android":"levelo://app?vid=ba47ffe7-15d8-4e06-b01c-f5ac015d6724","ios":"levelo://app?vid=ba47ffe7-15d8-4e06-b01c-f5ac015d6724"},"vehicle_type_id":"4","last_reported":1727676857,"current_range_meters":27200,"station_id":"ce4bh512rcd13ifvqe3g","pricing_plan_id":"cebpf4jnsgd1na2vs0mg"},{"bike_id":"b2dfaa66-0562-4ed1-b307-76c5b622af8b","system_id":"levelo_inurba_marseille","lat":43.28341,"lon":5.38192,"is_reserved":false,"is_disabled":false,"rental_uris":{"android":"levelo://app?vid=b2dfaa66-0562-4ed1-b307-76c5b622af8b","ios":"levelo://app?vid=b2dfaa66-0562-4ed1-b307-76c5b622af8b"},"vehicle_type_id":"4","last_reported":1727676857,"current_range_meters":32800,"station_id":"","pricing_plan_id":"cebpf4jnsgd1na2vs0mg"},{"bike_id":"23f1a8ad-c84d-4189-af53-44e7534f25f7","system_id":"levelo_inurba_marseille","lat":43.23154,"lon":5.43709,"is_reserved":false,"is_disabled":false,"rental_uris":{"android":"levelo://app?vid=23f1a8ad-c84d-4189-af53-44e7534f25f7","ios":"levelo://app?vid=23f1a8ad-c84d-4189-af53-44e7534f25f7"},"vehicle_type_id":"4","last_reported":1727676857,"current_range_meters":28000,"station_id":"ce4bhmp2rcd13ifvqgog","pricing_plan_id":"cebpf4jnsgd1na2vs0mg"},{"bike_id":"263086d4-fe32-42d3-9223-82a79c2f5238","system_id":"levelo_inurba_marseille","lat":43.3047,"lon":5.3791,"is_reserved":false,"is_disabled":false,"rental_uris":{"android":"levelo://app?vid=263086d4-fe32-42d3-9223-82a79c2f5238","ios":"levelo://app?vid=263086d4-fe32-42d3-9223-82a79c2f5238"},"vehicle_type_id":"4","last_reported":1727676857,"current_range_meters":17200,"station_id":"ce4bgup2rcd13ifvqcn0","pricing_plan_id":"cebpf4jnsgd1na2vs0mg"},{"bike_id":"bb95ca68-7139-4cd1-9c20-3ac229a34ec8","system_id":"levelo_inurba_marseille","lat":43.24072,"lon":5.37756,"is_reserved":false,"is_disabled":false,"rental_uris":{"android":"levelo://app?vid=bb95ca68-7139-4cd1-9c20-3ac229a34ec8","ios":"levelo://app?vid=bb95ca68-7139-4cd1-9c20-3ac229a34ec8"},"vehicle_type_id":"4","last_reported":1727676857,"current_range_meters":22800,"station_id":"ce4bhnp2rcd13ifvqgvg","pricing_plan_id":"cebpf4jnsgd1na2vs0mg"},{"bike_id":"6a7657cb-5fea-4589-847d-72ae50d95f15","system_id":"levelo_inurba_marseille","lat":43.30129,"lon":5.39835,"is_reserved":false,"is_disabled":false,"rental_uris":{"android":"levelo://app?vid=6a7657cb-5fea-4589-847d-72ae50d95f15","ios":"levelo://app?vid=6a7657cb-5fea-4589-847d-72ae50d95f15"},"vehicle_type_id":"4","last_reported":1727676857,"current_range_meters":35600,"station_id":"ce4bh0h2rcd13ifvqd40","pricing_plan_id":"cebpf4jnsgd1na2vs0mg"},{"bike_id":"a03e5656-5b58-4316-ab31-efa2960e129f","system_id":"levelo_inurba_marseille","lat":43.25118,"lon":5.40334,"is_reserved":false,"is_disabled":false,"rental_uris":{"android":"levelo://app?vid=a03e5656-5b58-4316-ab31-efa2960e129f","ios":"levelo://app?vid=a03e5656-5b58-4316-ab31-efa2960e129f"},"vehicle_type_id":"4","last_reported":1727676857,"current_range_meters":16400,"station_id":"ce4bhlh2rcd13ifvqgig","pricing_plan_id":"cebpf4jnsgd1na2vs0mg"},{"bike_id":"abc0e555-a3ff-460a-a085-3d17868a5aae","system_id":"levelo_inurba_marseille","lat":43.27078,"lon":5.3921,"is_reserved":false,"is_disabled":false,"rental_uris":{"android":"levelo://app?vid=abc0e555-a3ff-460a-a085-3d17868a5aae","ios":"levelo://app?vid=abc0e555-a3ff-460a-a085-3d17868a5aae"},"vehicle_type_id":"4","last_reported":1727676857,"current_range_meters":36000,"station_id":"ce4bhh92rcd13ifvqfj0","pricing_plan_id":"cebpf4jnsgd1na2vs0mg"},{"bike_id":"953bd029-fd51-44a6-95c9-35a39526fc46","system_id":"levelo_inurba_marseille","lat":43.26063,"lon":5.39393,"is_reserved":false,"is_disabled":false,"rental_uris":{"android":"levelo://app?vid=953bd029-fd51-44a6-95c9-35a39526fc46","ios":"levelo://app?vid=953bd029-fd51-44a6-95c9-35a39526fc46"},"vehicle_type_id":"4","last_reported":1727676857,"current_range_meters":36800,"station_id":"ce4bhh92rcd13ifvqfj0","pricing_plan_id":"cebpf4jnsgd1na2vs0mg"},{"bike_id":"25635df4-b4b4-43ba-8781-2341d93fc2e1","system_id":"levelo_inurba_marseille","lat":43.30592,"lon":5.39349,"is_reserved":false,"is_disabled":false,"rental_uris":{"android":"levelo://app?vid=25635df4-b4b4-43ba-8781-2341d93fc2e1","ios":"levelo://app?vid=25635df4-b4b4-43ba-8781-2341d93fc2e1"},"vehicle_type_id":"4","last_reported":1727676857,"current_range_meters":31200,"station_id":"ce4bh0p2rcd13ifvqd80","pricing_plan_id":"cebpf4jnsgd1na2vs0mg"},{"bike_id":"a479afc6-e4b0-4b7d-925a-663cafaecb0e","system_id":"levelo_inurba_marseille","lat":43.24075,"lon":5.37759,"is_reserved":false,"is_disabled":false,"rental_uris":{"android":"levelo://app?vid=a479afc6-e4b0-4b7d-925a-663cafaecb0e","ios":"levelo://app?vid=a479afc6-e4b0-4b7d-925a-663cafaecb0e"},"vehicle_type_id":"4","last_reported":1727676857,"current_range_meters":25200,"station_id":"ce4bhnp2rcd13ifvqgvg","pricing_plan_id":"cebpf4jnsgd1na2vs0mg"},{"bike_id":"7497ada0-4e52-442c-9aa1-86afe522b93f","system_id":"levelo_inurba_marseille","lat":43.29902,"lon":5.43662,"is_reserved":false,"is_disabled":false,"rental_uris":{"android":"levelo://app?vid=7497ada0-4e52-442c-9aa1-86afe522b93f","ios":"levelo://app?vid=7497ada0-4e52-442c-9aa1-86afe522b93f"},"vehicle_type_id":"4","last_reported":1727676857,"current_range_meters":20800,"station_id":"ce4bhpp2rcd13ifvqhfg","pricing_plan_id":"cebpf4jnsgd1na2vs0mg"},{"bike_id":"d93a5d29-a09a-426c-a2f2-26f88912312a","system_id":"levelo_inurba_marseille","lat":43.31366,"lon":5.38494,"is_reserved":false,"is_disabled":false,"rental_uris":{"android":"levelo://app?vid=d93a5d29-a09a-426c-a2f2-26f88912312a","ios":"levelo://app?vid=d93a5d29-a09a-426c-a2f2-26f88912312a"},"vehicle_type_id":"4","last_reported":1727676857,"current_range_meters":16400,"station_id":"ce4bgt92rcd13ifvqcf0","pricing_plan_id":"cebpf4jnsgd1na2vs0mg"},{"bike_id":"315880d6-2164-456e-b31d-c53f62b4acb8","system_id":"levelo_inurba_marseille","lat":43.30156,"lon":5.38081,"is_reserved":false,"is_disabled":false,"rental_uris":{"android":"levelo://app?vid=315880d6-2164-456e-b31d-c53f62b4acb8","ios":"levelo://app?vid=315880d6-2164-456e-b31d-c53f62b4acb8"},"vehicle_type_id":"4","last_reported":1727676857,"current_range_meters":32400,"station_id":"ce4bgjp2rcd13ifvqbh0","pricing_plan_id":"cebpf4jnsgd1na2vs0mg"},{"bike_id":"31ac80dd-5b55-4d44-8ef4-f2f6e8f27de9","system_id":"levelo_inurba_marseille","lat":43.27561,"lon":5.38429,"is_reserved":false,"is_disabled":false,"rental_uris":{"android":"levelo://app?vid=31ac80dd-5b55-4d44-8ef4-f2f6e8f27de9","ios":"levelo://app?vid=31ac80dd-5b55-4d44-8ef4-f2f6e8f27de9"},"vehicle_type_id":"4","last_reported":1727676857,"current_range_meters":36000,"station_id":"ce4bhh92rcd13ifvqfi0","pricing_plan_id":"cebpf4jnsgd1na2vs0mg"},{"bike_id":"530ebee0-3821-4918-8f9b-3c2003125331","system_id":"levelo_inurba_marseille","lat":43.24082,"lon":5.37744,"is_reserved":false,"is_disabled":false,"rental_uris":{"android":"levelo://app?vid=530ebee0-3821-4918-8f9b-3c2003125331","ios":"levelo://app?vid=530ebee0-3821-4918-8f9b-3c2003125331"},"vehicle_type_id":"4","last_reported":1727676857,"current_range_meters":8800,"station_id":"ce4bhnp2rcd13ifvqgvg","pricing_plan_id":"cebpf4jnsgd1na2vs0mg"},{"bike_id":"7a51f335-7b51-4cda-99d6-a4f3d46e298a","system_id":"levelo_inurba_marseille","lat":43.30696,"lon":5.40402,"is_reserved":false,"is_disabled":false,"rental_uris":{"android":"levelo://app?vid=7a51f335-7b51-4cda-99d6-a4f3d46e298a","ios":"levelo://app?vid=7a51f335-7b51-4cda-99d6-a4f3d46e298a"},"vehicle_type_id":"4","last_reported":1727676857,"current_range_meters":20400,"station_id":"","pricing_plan_id":"cebpf4jnsgd1na2vs0mg"},{"bike_id":"900bb84c-0c4a-43e7-93e4-7b917e9de5e5","system_id":"levelo_inurba_marseille","lat":43.23194,"lon":5.39982,"is_reserved":false,"is_disabled":false,"rental_uris":{"android":"levelo://app?vid=900bb84c-0c4a-43e7-93e4-7b917e9de5e5","ios":"levelo://app?vid=900bb84c-0c4a-43e7-93e4-7b917e9de5e5"},"vehicle_type_id":"4","last_reported":1727676857,"current_range_meters":20400,"station_id":"ce4bhn12rcd13ifvqgqg","pricing_plan_id":"cebpf4jnsgd1na2vs0mg"},{"bike_id":"9f05bc58-98dc-4d91-89c9-625701f10a87","system_id":"levelo_inurba_marseille","lat":43.25106,"lon":5.40327,"is_reserved":false,"is_disabled":false,"rental_uris":{"android":"levelo://app?vid=9f05bc58-98dc-4d91-89c9-625701f10a87","ios":"levelo://app?vid=9f05bc58-98dc-4d91-89c9-625701f10a87"},"vehicle_type_id":"4","last_reported":1727676857,"current_range_meters":23200,"station_id":"ce4bhlh2rcd13ifvqgig","pricing_plan_id":"cebpf4jnsgd1na2vs0mg"},{"bike_id":"62085ecf-98a9-44a9-925f-5b9cd8355e82","system_id":"levelo_inurba_marseille","lat":43.26949,"lon":5.38639,"is_reserved":false,"is_disabled":false,"rental_uris":{"android":"levelo://app?vid=62085ecf-98a9-44a9-925f-5b9cd8355e82","ios":"levelo://app?vid=62085ecf-98a9-44a9-925f-5b9cd8355e82"},"vehicle_type_id":"4","last_reported":1727676857,"current_range_meters":30800,"station_id":"ce4bhh92rcd13ifvqfh0","pricing_plan_id":"cebpf4jnsgd1na2vs0mg"},{"bike_id":"be65cb47-d5bc-46c9-aa6a-406aa1aa300a","system_id":"levelo_inurba_marseille","lat":43.3248,"lon":5.36551,"is_reserved":false,"is_disabled":false,"rental_uris":{"android":"levelo://app?vid=be65cb47-d5bc-46c9-aa6a-406aa1aa300a","ios":"levelo://app?vid=be65cb47-d5bc-46c9-aa6a-406aa1aa300a"},"vehicle_type_id":"4","last_reported":1727676857,"current_range_meters":28800,"station_id":"ce4bhs12rcd13ifvqhvg","pricing_plan_id":"cebpf4jnsgd1na2vs0mg"},{"bike_id":"203dcc46-9837-45b8-8099-f49bb5b01b12","system_id":"levelo_inurba_marseille","lat":43.30957,"lon":5.390159,"is_reserved":false,"is_disabled":false,"rental_uris":{"android":"levelo://app?vid=203dcc46-9837-45b8-8099-f49bb5b01b12","ios":"levelo://app?vid=203dcc46-9837-45b8-8099-f49bb5b01b12"},"vehicle_type_id":"4","last_reported":1727676857,"current_range_meters":9200,"station_id":"ce4bguh2rcd13ifvqckg","pricing_plan_id":"cebpf4jnsgd1na2vs0mg"},{"bike_id":"83115145-dad2-4ef0-984d-db9d4390c153","system_id":"levelo_inurba_marseille","lat":43.24083,"lon":5.37749,"is_reserved":false,"is_disabled":false,"rental_uris":{"android":"levelo://app?vid=83115145-dad2-4ef0-984d-db9d4390c153","ios":"levelo://app?vid=83115145-dad2-4ef0-984d-db9d4390c153"},"vehicle_type_id":"4","last_reported":1727676857,"current_range_meters":6800,"station_id":"ce4bhnp2rcd13ifvqgvg","pricing_plan_id":"cebpf4jnsgd1na2vs0mg"},{"bike_id":"154dc810-d3b9-444b-89bf-3a4ea21c3ed8","system_id":"levelo_inurba_marseille","lat":43.28377,"lon":5.38629,"is_reserved":false,"is_disabled":false,"rental_uris":{"android":"levelo://app?vid=154dc810-d3b9-444b-89bf-3a4ea21c3ed8","ios":"levelo://app?vid=154dc810-d3b9-444b-89bf-3a4ea21c3ed8"},"vehicle_type_id":"4","last_reported":1727676857,"current_range_meters":30000,"station_id":"ce4bh492rcd13ifvqdvg","pricing_plan_id":"cebpf4jnsgd1na2vs0mg"},{"bike_id":"bafaa90f-cf22-4218-b25b-e7c5f4b34302","system_id":"levelo_inurba_marseille","lat":43.30154,"lon":5.38072,"is_reserved":false,"is_disabled":false,"rental_uris":{"android":"levelo://app?vid=bafaa90f-cf22-4218-b25b-e7c5f4b34302","ios":"levelo://app?vid=bafaa90f-cf22-4218-b25b-e7c5f4b34302"},"vehicle_type_id":"4","last_reported":1727676857,"current_range_meters":32800,"station_id":"ce4bgjp2rcd13ifvqbh0","pricing_plan_id":"cebpf4jnsgd1na2vs0mg"},{"bike_id":"4bf17278-821c-44d9-9e1b-8440f028916f","system_id":"levelo_inurba_marseille","lat":43.24806,"lon":5.37457,"is_reserved":false,"is_disabled":false,"rental_uris":{"android":"levelo://app?vid=4bf17278-821c-44d9-9e1b-8440f028916f","ios":"levelo://app?vid=4bf17278-821c-44d9-9e1b-8440f028916f"},"vehicle_type_id":"4","last_reported":1727676857,"current_range_meters":8400,"station_id":"ce4bhgh2rcd13ifvqfb0","pricing_plan_id":"cebpf4jnsgd1na2vs0mg"},{"bike_id":"9867d4fd-ff3e-4548-bfcd-bb42d6314c2a","system_id":"levelo_inurba_marseille","lat":43.304325,"lon":5.38887,"is_reserved":false,"is_disabled":false,"rental_uris":{"android":"levelo://app?vid=9867d4fd-ff3e-4548-bfcd-bb42d6314c2a","ios":"levelo://app?vid=9867d4fd-ff3e-4548-bfcd-bb42d6314c2a"},"vehicle_type_id":"4","last_reported":1727676857,"current_range_meters":33600,"station_id":"ce4bgt12rcd13ifvqcd0","pricing_plan_id":"cebpf4jnsgd1na2vs0mg"},{"bike_id":"efdb6d89-2d54-42e1-85c1-ccc9e19e3a19","system_id":"levelo_inurba_marseille","lat":43.231535,"lon":5.437152,"is_reserved":false,"is_disabled":false,"rental_uris":{"android":"levelo://app?vid=efdb6d89-2d54-42e1-85c1-ccc9e19e3a19","ios":"levelo://app?vid=efdb6d89-2d54-42e1-85c1-ccc9e19e3a19"},"vehicle_type_id":"4","last_reported":1727676857,"current_range_meters":25600,"station_id":"ce4bhmp2rcd13ifvqgog","pricing_plan_id":"cebpf4jnsgd1na2vs0mg"},{"bike_id":"80052677-a184-47b6-b7ba-4401badcd8a9","system_id":"levelo_inurba_marseille","lat":43.3229,"lon":5.38256,"is_reserved":false,"is_disabled":false,"rental_uris":{"android":"levelo://app?vid=80052677-a184-47b6-b7ba-4401badcd8a9","ios":"levelo://app?vid=80052677-a184-47b6-b7ba-4401badcd8a9"},"vehicle_type_id":"4","last_reported":1727676857,"current_range_meters":38800,"station_id":"ce4bhr12rcd13ifvqhqg","pricing_plan_id":"cebpf4jnsgd1na2vs0mg"},{"bike_id":"105e42e4-8068-41c8-85a4-c23266291b6f","system_id":"levelo_inurba_marseille","lat":43.30152,"lon":5.38087,"is_reserved":false,"is_disabled":false,"rental_uris":{"android":"levelo://app?vid=105e42e4-8068-41c8-85a4-c23266291b6f","ios":"levelo://app?vid=105e42e4-8068-41c8-85a4-c23266291b6f"},"vehicle_type_id":"4","last_reported":1727676857,"current_range_meters":27600,"station_id":"ce4bgjp2rcd13ifvqbh0","pricing_plan_id":"cebpf4jnsgd1na2vs0mg"},{"bike_id":"058e9cd7-c8c0-4b19-b947-ea021825101d","system_id":"levelo_inurba_marseille","lat":43.30508,"lon":5.37897,"is_reserved":false,"is_disabled":false,"rental_uris":{"android":"levelo://app?vid=058e9cd7-c8c0-4b19-b947-ea021825101d","ios":"levelo://app?vid=058e9cd7-c8c0-4b19-b947-ea021825101d"},"vehicle_type_id":"4","last_reported":1727676857,"current_range_meters":5600,"station_id":"ce4bgup2rcd13ifvqcn0","pricing_plan_id":"cebpf4jnsgd1na2vs0mg"},{"bike_id":"cdd11bcd-ca68-467b-a1c0-051749f5ce5b","system_id":"levelo_inurba_marseille","lat":43.29713,"lon":5.37699,"is_reserved":false,"is_disabled":false,"rental_uris":{"android":"levelo://app?vid=cdd11bcd-ca68-467b-a1c0-051749f5ce5b","ios":"levelo://app?vid=cdd11bcd-ca68-467b-a1c0-051749f5ce5b"},"vehicle_type_id":"4","last_reported":1727676857,"current_range_meters":24400,"station_id":"ce4bgkh2rcd13ifvqbl0","pricing_plan_id":"cebpf4jnsgd1na2vs0mg"},{"bike_id":"c429f741-e09b-4c0e-8c65-ff71e1baa928","system_id":"levelo_inurba_marseille","lat":43.30143,"lon":5.40458,"is_reserved":false,"is_disabled":false,"rental_uris":{"android":"levelo://app?vid=c429f741-e09b-4c0e-8c65-ff71e1baa928","ios":"levelo://app?vid=c429f741-e09b-4c0e-8c65-ff71e1baa928"},"vehicle_type_id":"4","last_reported":1727676857,"current_range_meters":16000,"station_id":"","pricing_plan_id":"cebpf4jnsgd1na2vs0mg"},{"bike_id":"0fd73f05-8e43-492f-90cc-fb7f2fe4e440","system_id":"levelo_inurba_marseille","lat":43.24073,"lon":5.37763,"is_reserved":false,"is_disabled":false,"rental_uris":{"android":"levelo://app?vid=0fd73f05-8e43-492f-90cc-fb7f2fe4e440","ios":"levelo://app?vid=0fd73f05-8e43-492f-90cc-fb7f2fe4e440"},"vehicle_type_id":"4","last_reported":1727676857,"current_range_meters":34800,"station_id":"ce4bhnp2rcd13ifvqgvg","pricing_plan_id":"cebpf4jnsgd1na2vs0mg"},{"bike_id":"fdb7b412-e3ae-48be-a060-bf3aea3f7fbd","system_id":"levelo_inurba_marseille","lat":43.3043,"lon":5.38892,"is_reserved":false,"is_disabled":false,"rental_uris":{"android":"levelo://app?vid=fdb7b412-e3ae-48be-a060-bf3aea3f7fbd","ios":"levelo://app?vid=fdb7b412-e3ae-48be-a060-bf3aea3f7fbd"},"vehicle_type_id":"4","last_reported":1727676857,"current_range_meters":21600,"station_id":"ce4bgk12rcd13ifvqbi0","pricing_plan_id":"cebpf4jnsgd1na2vs0mg"},{"bike_id":"a974d009-942e-477b-b4db-19f84bd48313","system_id":"levelo_inurba_marseille","lat":43.31871,"lon":5.387,"is_reserved":false,"is_disabled":false,"rental_uris":{"android":"levelo://app?vid=a974d009-942e-477b-b4db-19f84bd48313","ios":"levelo://app?vid=a974d009-942e-477b-b4db-19f84bd48313"},"vehicle_type_id":"4","last_reported":1727676857,"current_range_meters":38400,"station_id":"","pricing_plan_id":"cebpf4jnsgd1na2vs0mg"},{"bike_id":"625d6a88-eabd-4781-bcf3-17f173c69536","system_id":"levelo_inurba_marseille","lat":43.28154,"lon":5.42643,"is_reserved":false,"is_disabled":false,"rental_uris":{"android":"levelo://app?vid=625d6a88-eabd-4781-bcf3-17f173c69536","ios":"levelo://app?vid=625d6a88-eabd-4781-bcf3-17f173c69536"},"vehicle_type_id":"4","last_reported":1727676857,"current_range_meters":30000,"station_id":"ce4bhnh2rcd13ifvqgug","pricing_plan_id":"cebpf4jnsgd1na2vs0mg"},{"bike_id":"475a848a-696a-49a2-9b1d-739446db1489","system_id":"levelo_inurba_marseille","lat":43.26955,"lon":5.38629,"is_reserved":false,"is_disabled":false,"rental_uris":{"android":"levelo://app?vid=475a848a-696a-49a2-9b1d-739446db1489","ios":"levelo://app?vid=475a848a-696a-49a2-9b1d-739446db1489"},"vehicle_type_id":"4","last_reported":1727676857,"current_range_meters":39200,"station_id":"ce4bhh92rcd13ifvqfh0","pricing_plan_id":"cebpf4jnsgd1na2vs0mg"},{"bike_id":"bf96b371-b0ef-4ef4-b764-d46e90771c04","system_id":"levelo_inurba_marseille","lat":43.26569,"lon":5.39014,"is_reserved":false,"is_disabled":false,"rental_uris":{"android":"levelo://app?vid=bf96b371-b0ef-4ef4-b764-d46e90771c04","ios":"levelo://app?vid=bf96b371-b0ef-4ef4-b764-d46e90771c04"},"vehicle_type_id":"4","last_reported":1727676857,"current_range_meters":12400,"station_id":"ce4bhe12rcd13ifvqf30","pricing_plan_id":"cebpf4jnsgd1na2vs0mg"},{"bike_id":"66a0b25a-1ed7-42ed-bfa7-b8e1abd6d2f4","system_id":"levelo_inurba_marseille","lat":43.30936,"lon":5.40149,"is_reserved":false,"is_disabled":false,"rental_uris":{"android":"levelo://app?vid=66a0b25a-1ed7-42ed-bfa7-b8e1abd6d2f4","ios":"levelo://app?vid=66a0b25a-1ed7-42ed-bfa7-b8e1abd6d2f4"},"vehicle_type_id":"4","last_reported":1727676857,"current_range_meters":24000,"station_id":"ce4bgvp2rcd13ifvqct0","pricing_plan_id":"cebpf4jnsgd1na2vs0mg"},{"bike_id":"3ae16357-9b43-46d1-bbc8-483fcc70804b","system_id":"levelo_inurba_marseille","lat":43.25723,"lon":5.41107,"is_reserved":false,"is_disabled":false,"rental_uris":{"android":"levelo://app?vid=3ae16357-9b43-46d1-bbc8-483fcc70804b","ios":"levelo://app?vid=3ae16357-9b43-46d1-bbc8-483fcc70804b"},"vehicle_type_id":"4","last_reported":1727676857,"current_range_meters":25200,"station_id":"ce4bhkp2rcd13ifvqgd0","pricing_plan_id":"cebpf4jnsgd1na2vs0mg"},{"bike_id":"3dbdbddb-724c-406a-8e59-35b7df88feb6","system_id":"levelo_inurba_marseille","lat":43.31224,"lon":5.36863,"is_reserved":false,"is_disabled":false,"rental_uris":{"android":"levelo://app?vid=3dbdbddb-724c-406a-8e59-35b7df88feb6","ios":"levelo://app?vid=3dbdbddb-724c-406a-8e59-35b7df88feb6"},"vehicle_type_id":"4","last_reported":1727676857,"current_range_meters":36800,"station_id":"ce4bgl92rcd13ifvqbq0","pricing_plan_id":"cebpf4jnsgd1na2vs0mg"},{"bike_id":"15e6c52c-2e8e-4646-b211-8568e363d640","system_id":"levelo_inurba_marseille","lat":43.34142,"lon":5.40906,"is_reserved":false,"is_disabled":false,"rental_uris":{"android":"levelo://app?vid=15e6c52c-2e8e-4646-b211-8568e363d640","ios":"levelo://app?vid=15e6c52c-2e8e-4646-b211-8568e363d640"},"vehicle_type_id":"4","last_reported":1727676857,"current_range_meters":20000,"station_id":"ce4bhqh2rcd13ifvqhlg","pricing_plan_id":"cebpf4jnsgd1na2vs0mg"},{"bike_id":"0701cf2a-674c-4c9d-af1e-6650acbaaf74","system_id":"levelo_inurba_marseille","lat":43.28377,"lon":5.37293,"is_reserved":false,"is_disabled":false,"rental_uris":{"android":"levelo://app?vid=0701cf2a-674c-4c9d-af1e-6650acbaaf74","ios":"levelo://app?vid=0701cf2a-674c-4c9d-af1e-6650acbaaf74"},"vehicle_type_id":"4","last_reported":1727676857,"current_range_meters":6800,"station_id":"","pricing_plan_id":"cebpf4jnsgd1na2vs0mg"},{"bike_id":"54ce340b-8244-4276-b90d-16ea1884eb65","system_id":"levelo_inurba_marseille","lat":43.27667,"lon":5.38879,"is_reserved":false,"is_disabled":false,"rental_uris":{"android":"levelo://app?vid=54ce340b-8244-4276-b90d-16ea1884eb65","ios":"levelo://app?vid=54ce340b-8244-4276-b90d-16ea1884eb65"},"vehicle_type_id":"4","last_reported":1727676857,"current_range_meters":24800,"station_id":"ce4bhi12rcd13ifvqfo0","pricing_plan_id":"cebpf4jnsgd1na2vs0mg"},{"bike_id":"9ac81b74-3de3-4ab4-8446-a71aba996ae3","system_id":"levelo_inurba_marseille","lat":43.301483,"lon":5.380799,"is_reserved":false,"is_disabled":false,"rental_uris":{"android":"levelo://app?vid=9ac81b74-3de3-4ab4-8446-a71aba996ae3","ios":"levelo://app?vid=9ac81b74-3de3-4ab4-8446-a71aba996ae3"},"vehicle_type_id":"4","last_reported":1727676857,"current_range_meters":21600,"station_id":"ce4bgjp2rcd13ifvqbh0","pricing_plan_id":"cebpf4jnsgd1na2vs0mg"},{"bike_id":"6fed74f2-1353-48f3-9825-479d416e26f0","system_id":"levelo_inurba_marseille","lat":43.3047,"lon":5.379,"is_reserved":false,"is_disabled":false,"rental_uris":{"android":"levelo://app?vid=6fed74f2-1353-48f3-9825-479d416e26f0","ios":"levelo://app?vid=6fed74f2-1353-48f3-9825-479d416e26f0"},"vehicle_type_id":"4","last_reported":1727676857,"current_range_meters":31200,"station_id":"ce4bgup2rcd13ifvqcn0","pricing_plan_id":"cebpf4jnsgd1na2vs0mg"},{"bike_id":"e1a7b86c-512d-4b1b-9356-39f4453838ae","system_id":"levelo_inurba_marseille","lat":43.295031,"lon":5.377514,"is_reserved":false,"is_disabled":false,"rental_uris":{"android":"levelo://app?vid=e1a7b86c-512d-4b1b-9356-39f4453838ae","ios":"levelo://app?vid=e1a7b86c-512d-4b1b-9356-39f4453838ae"},"vehicle_type_id":"4","last_reported":1727676857,"current_range_meters":38800,"station_id":"ce4bgjh2rcd13ifvqbf0","pricing_plan_id":"cebpf4jnsgd1na2vs0mg"},{"bike_id":"80a479a7-6b52-4502-9fa1-1e3c9c081d64","system_id":"levelo_inurba_marseille","lat":43.2849,"lon":5.38528,"is_reserved":false,"is_disabled":false,"rental_uris":{"android":"levelo://app?vid=80a479a7-6b52-4502-9fa1-1e3c9c081d64","ios":"levelo://app?vid=80a479a7-6b52-4502-9fa1-1e3c9c081d64"},"vehicle_type_id":"4","last_reported":1727676857,"current_range_meters":14800,"station_id":"ce4bh8p2rcd13ifvqeb0","pricing_plan_id":"cebpf4jnsgd1na2vs0mg"},{"bike_id":"7199a17f-8505-4d54-b9b6-2ec943c49cf2","system_id":"levelo_inurba_marseille","lat":43.33026,"lon":5.3938,"is_reserved":false,"is_disabled":false,"rental_uris":{"android":"levelo://app?vid=7199a17f-8505-4d54-b9b6-2ec943c49cf2","ios":"levelo://app?vid=7199a17f-8505-4d54-b9b6-2ec943c49cf2"},"vehicle_type_id":"4","last_reported":1727676857,"current_range_meters":36800,"station_id":"","pricing_plan_id":"cebpf4jnsgd1na2vs0mg"},{"bike_id":"9f4b8806-0737-4c36-bde4-6bc8c0d0630a","system_id":"levelo_inurba_marseille","lat":43.23958,"lon":5.366226,"is_reserved":false,"is_disabled":false,"rental_uris":{"android":"levelo://app?vid=9f4b8806-0737-4c36-bde4-6bc8c0d0630a","ios":"levelo://app?vid=9f4b8806-0737-4c36-bde4-6bc8c0d0630a"},"vehicle_type_id":"4","last_reported":1727676857,"current_range_meters":38000,"station_id":"ce4bhi12rcd13ifvqfp0","pricing_plan_id":"cebpf4jnsgd1na2vs0mg"},{"bike_id":"4d706b30-b324-49e3-84d2-6545a9f5eedc","system_id":"levelo_inurba_marseille","lat":43.29045,"lon":5.39953,"is_reserved":false,"is_disabled":false,"rental_uris":{"android":"levelo://app?vid=4d706b30-b324-49e3-84d2-6545a9f5eedc","ios":"levelo://app?vid=4d706b30-b324-49e3-84d2-6545a9f5eedc"},"vehicle_type_id":"4","last_reported":1727676857,"current_range_meters":38800,"station_id":"ce4bh392rcd13ifvqdm0","pricing_plan_id":"cebpf4jnsgd1na2vs0mg"},{"bike_id":"c89039fe-3b7f-4d0f-81d3-7a380e2b76b7","system_id":"levelo_inurba_marseille","lat":43.2465,"lon":5.38169,"is_reserved":false,"is_disabled":false,"rental_uris":{"android":"levelo://app?vid=c89039fe-3b7f-4d0f-81d3-7a380e2b76b7","ios":"levelo://app?vid=c89039fe-3b7f-4d0f-81d3-7a380e2b76b7"},"vehicle_type_id":"4","last_reported":1727676857,"current_range_meters":35600,"station_id":"ce4bhih2rcd13ifvqfr0","pricing_plan_id":"cebpf4jnsgd1na2vs0mg"},{"bike_id":"78323160-a684-4351-8108-f7ebcc0842b2","system_id":"levelo_inurba_marseille","lat":43.23153,"lon":5.43711,"is_reserved":false,"is_disabled":false,"rental_uris":{"android":"levelo://app?vid=78323160-a684-4351-8108-f7ebcc0842b2","ios":"levelo://app?vid=78323160-a684-4351-8108-f7ebcc0842b2"},"vehicle_type_id":"4","last_reported":1727676857,"current_range_meters":16400,"station_id":"ce4bhmp2rcd13ifvqgog","pricing_plan_id":"cebpf4jnsgd1na2vs0mg"},{"bike_id":"4436d55b-e795-4d58-ab5a-ef4a66174a16","system_id":"levelo_inurba_marseille","lat":43.29621,"lon":5.37152,"is_reserved":false,"is_disabled":false,"rental_uris":{"android":"levelo://app?vid=4436d55b-e795-4d58-ab5a-ef4a66174a16","ios":"levelo://app?vid=4436d55b-e795-4d58-ab5a-ef4a66174a16"},"vehicle_type_id":"4","last_reported":1727676857,"current_range_meters":38000,"station_id":"ce4bgnh2rcd13ifvqc0g","pricing_plan_id":"cebpf4jnsgd1na2vs0mg"},{"bike_id":"dc5bd806-323b-42d6-b1a8-3724386d132c","system_id":"levelo_inurba_marseille","lat":43.305935,"lon":5.39314,"is_reserved":false,"is_disabled":false,"rental_uris":{"android":"levelo://app?vid=dc5bd806-323b-42d6-b1a8-3724386d132c","ios":"levelo://app?vid=dc5bd806-323b-42d6-b1a8-3724386d132c"},"vehicle_type_id":"4","last_reported":1727676857,"current_range_meters":7200,"station_id":"ce4bh0p2rcd13ifvqd80","pricing_plan_id":"cebpf4jnsgd1na2vs0mg"},{"bike_id":"87bcb155-2c64-48cf-a45a-91afda2f95f7","system_id":"levelo_inurba_marseille","lat":43.27997,"lon":5.40012,"is_reserved":false,"is_disabled":false,"rental_uris":{"android":"levelo://app?vid=87bcb155-2c64-48cf-a45a-91afda2f95f7","ios":"levelo://app?vid=87bcb155-2c64-48cf-a45a-91afda2f95f7"},"vehicle_type_id":"4","last_reported":1727676857,"current_range_meters":38800,"station_id":"ce4bho92rcd13ifvqh4g","pricing_plan_id":"cebpf4jnsgd1na2vs0mg"},{"bike_id":"40844c04-10a3-4b72-a8ef-7a099f37b384","system_id":"levelo_inurba_marseille","lat":43.271828,"lon":5.409952,"is_reserved":false,"is_disabled":false,"rental_uris":{"android":"levelo://app?vid=40844c04-10a3-4b72-a8ef-7a099f37b384","ios":"levelo://app?vid=40844c04-10a3-4b72-a8ef-7a099f37b384"},"vehicle_type_id":"4","last_reported":1727676857,"current_range_meters":35200,"station_id":"ce4bhl12rcd13ifvqgf0","pricing_plan_id":"cebpf4jnsgd1na2vs0mg"},{"bike_id":"ae538d09-af37-487c-9881-89340c72aa62","system_id":"levelo_inurba_marseille","lat":43.28352,"lon":5.381,"is_reserved":false,"is_disabled":false,"rental_uris":{"android":"levelo://app?vid=ae538d09-af37-487c-9881-89340c72aa62","ios":"levelo://app?vid=ae538d09-af37-487c-9881-89340c72aa62"},"vehicle_type_id":"4","last_reported":1727676857,"current_range_meters":30400,"station_id":"ce4bh412rcd13ifvqdr0","pricing_plan_id":"cebpf4jnsgd1na2vs0mg"},{"bike_id":"aa99c733-199e-4bce-bc45-35e6f858324d","system_id":"levelo_inurba_marseille","lat":43.28947,"lon":5.36384,"is_reserved":false,"is_disabled":false,"rental_uris":{"android":"levelo://app?vid=aa99c733-199e-4bce-bc45-35e6f858324d","ios":"levelo://app?vid=aa99c733-199e-4bce-bc45-35e6f858324d"},"vehicle_type_id":"4","last_reported":1727676857,"current_range_meters":25600,"station_id":"ce4bhc92rcd13ifvqetg","pricing_plan_id":"cebpf4jnsgd1na2vs0mg"},{"bike_id":"b90e47d3-eb17-47a7-bb12-a33cc6a8d663","system_id":"levelo_inurba_marseille","lat":43.282532,"lon":5.350729,"is_reserved":false,"is_disabled":false,"rental_uris":{"android":"levelo://app?vid=b90e47d3-eb17-47a7-bb12-a33cc6a8d663","ios":"levelo://app?vid=b90e47d3-eb17-47a7-bb12-a33cc6a8d663"},"vehicle_type_id":"4","last_reported":1727676857,"current_range_meters":31200,"station_id":"","pricing_plan_id":"cebpf4jnsgd1na2vs0mg"},{"bike_id":"aa69ea77-4a91-4601-9261-d3cacee7eb3d","system_id":"levelo_inurba_marseille","lat":43.30914,"lon":5.36852,"is_reserved":false,"is_disabled":false,"rental_uris":{"android":"levelo://app?vid=aa69ea77-4a91-4601-9261-d3cacee7eb3d","ios":"levelo://app?vid=aa69ea77-4a91-4601-9261-d3cacee7eb3d"},"vehicle_type_id":"4","last_reported":1727676857,"current_range_meters":30000,"station_id":"ce4bgn92rcd13ifvqbvg","pricing_plan_id":"cebpf4jnsgd1na2vs0mg"},{"bike_id":"c7bd2519-2094-49e9-9d5a-56c00b1a2b1c","system_id":"levelo_inurba_marseille","lat":43.26566,"lon":5.38999,"is_reserved":false,"is_disabled":false,"rental_uris":{"android":"levelo://app?vid=c7bd2519-2094-49e9-9d5a-56c00b1a2b1c","ios":"levelo://app?vid=c7bd2519-2094-49e9-9d5a-56c00b1a2b1c"},"vehicle_type_id":"4","last_reported":1727676857,"current_range_meters":38800,"station_id":"ce4bhe12rcd13ifvqf30","pricing_plan_id":"cebpf4jnsgd1na2vs0mg"},{"bike_id":"c72fcfd7-89d2-4ce5-a19e-0042f163a19d","system_id":"levelo_inurba_marseille","lat":43.312256,"lon":5.402444,"is_reserved":false,"is_disabled":false,"rental_uris":{"android":"levelo://app?vid=c72fcfd7-89d2-4ce5-a19e-0042f163a19d","ios":"levelo://app?vid=c72fcfd7-89d2-4ce5-a19e-0042f163a19d"},"vehicle_type_id":"4","last_reported":1727676857,"current_range_meters":30000,"station_id":"ce4bh092rcd13ifvqd30","pricing_plan_id":"cebpf4jnsgd1na2vs0mg"},{"bike_id":"6a73a29b-a8cf-447a-b3c9-2b0e30545c36","system_id":"levelo_inurba_marseille","lat":43.23193,"lon":5.3555,"is_reserved":false,"is_disabled":false,"rental_uris":{"android":"levelo://app?vid=6a73a29b-a8cf-447a-b3c9-2b0e30545c36","ios":"levelo://app?vid=6a73a29b-a8cf-447a-b3c9-2b0e30545c36"},"vehicle_type_id":"4","last_reported":1727676857,"current_range_meters":17600,"station_id":"ce4bhu92rcd13ifvqi70","pricing_plan_id":"cebpf4jnsgd1na2vs0mg"},{"bike_id":"2ab05bf8-eca7-437d-b897-4c5c531ec1af","system_id":"levelo_inurba_marseille","lat":43.316986,"lon":5.377446,"is_reserved":false,"is_disabled":false,"rental_uris":{"android":"levelo://app?vid=2ab05bf8-eca7-437d-b897-4c5c531ec1af","ios":"levelo://app?vid=2ab05bf8-eca7-437d-b897-4c5c531ec1af"},"vehicle_type_id":"4","last_reported":1727676857,"current_range_meters":5600,"station_id":"ce4bgth2rcd13ifvqch0","pricing_plan_id":"cebpf4jnsgd1na2vs0mg"},{"bike_id":"ece9fc5e-e0ee-4ca0-8f59-27887a2142cd","system_id":"levelo_inurba_marseille","lat":43.30537,"lon":5.3654,"is_reserved":false,"is_disabled":false,"rental_uris":{"android":"levelo://app?vid=ece9fc5e-e0ee-4ca0-8f59-27887a2142cd","ios":"levelo://app?vid=ece9fc5e-e0ee-4ca0-8f59-27887a2142cd"},"vehicle_type_id":"4","last_reported":1727676857,"current_range_meters":38800,"station_id":"ce4bgs12rcd13ifvqcag","pricing_plan_id":"cebpf4jnsgd1na2vs0mg"},{"bike_id":"35244a1b-2c1f-4daa-9cf5-d8d00a5cfb57","system_id":"levelo_inurba_marseille","lat":43.292771,"lon":5.368454,"is_reserved":false,"is_disabled":false,"rental_uris":{"android":"levelo://app?vid=35244a1b-2c1f-4daa-9cf5-d8d00a5cfb57","ios":"levelo://app?vid=35244a1b-2c1f-4daa-9cf5-d8d00a5cfb57"},"vehicle_type_id":"4","last_reported":1727676857,"current_range_meters":16400,"station_id":"ce4bhbp2rcd13ifvqesg","pricing_plan_id":"cebpf4jnsgd1na2vs0mg"},{"bike_id":"593d4694-b30f-4bb6-9159-8d4ed8d9b09e","system_id":"levelo_inurba_marseille","lat":43.34143,"lon":5.40902,"is_reserved":false,"is_disabled":false,"rental_uris":{"android":"levelo://app?vid=593d4694-b30f-4bb6-9159-8d4ed8d9b09e","ios":"levelo://app?vid=593d4694-b30f-4bb6-9159-8d4ed8d9b09e"},"vehicle_type_id":"4","last_reported":1727676857,"current_range_meters":27200,"station_id":"ce4bhqh2rcd13ifvqhlg","pricing_plan_id":"cebpf4jnsgd1na2vs0mg"},{"bike_id":"460e8724-4b15-4c44-839a-ac4ef70178ea","system_id":"levelo_inurba_marseille","lat":43.27665,"lon":5.38863,"is_reserved":false,"is_disabled":false,"rental_uris":{"android":"levelo://app?vid=460e8724-4b15-4c44-839a-ac4ef70178ea","ios":"levelo://app?vid=460e8724-4b15-4c44-839a-ac4ef70178ea"},"vehicle_type_id":"4","last_reported":1727676857,"current_range_meters":34800,"station_id":"ce4bhi12rcd13ifvqfo0","pricing_plan_id":"cebpf4jnsgd1na2vs0mg"},{"bike_id":"16aef7bc-6e34-4da1-be38-669be00420e2","system_id":"levelo_inurba_marseille","lat":43.299,"lon":5.43677,"is_reserved":false,"is_disabled":false,"rental_uris":{"android":"levelo://app?vid=16aef7bc-6e34-4da1-be38-669be00420e2","ios":"levelo://app?vid=16aef7bc-6e34-4da1-be38-669be00420e2"},"vehicle_type_id":"4","last_reported":1727676857,"current_range_meters":24800,"station_id":"ce4bhpp2rcd13ifvqhfg","pricing_plan_id":"cebpf4jnsgd1na2vs0mg"},{"bike_id":"53f1b2f7-4012-4f91-9de8-ccd7a852925e","system_id":"levelo_inurba_marseille","lat":43.27498,"lon":5.42446,"is_reserved":false,"is_disabled":false,"rental_uris":{"android":"levelo://app?vid=53f1b2f7-4012-4f91-9de8-ccd7a852925e","ios":"levelo://app?vid=53f1b2f7-4012-4f91-9de8-ccd7a852925e"},"vehicle_type_id":"4","last_reported":1727676857,"current_range_meters":24400,"station_id":"ce4bhn92rcd13ifvqgrg","pricing_plan_id":"cebpf4jnsgd1na2vs0mg"},{"bike_id":"de6a9ca1-3625-4e92-b6fc-cd71be0895d9","system_id":"levelo_inurba_marseille","lat":43.275,"lon":5.42447,"is_reserved":false,"is_disabled":false,"rental_uris":{"android":"levelo://app?vid=de6a9ca1-3625-4e92-b6fc-cd71be0895d9","ios":"levelo://app?vid=de6a9ca1-3625-4e92-b6fc-cd71be0895d9"},"vehicle_type_id":"4","last_reported":1727676857,"current_range_meters":30000,"station_id":"ce4bhn92rcd13ifvqgrg","pricing_plan_id":"cebpf4jnsgd1na2vs0mg"},{"bike_id":"f3eb5318-be75-4013-92e8-342d3c54666e","system_id":"levelo_inurba_marseille","lat":43.32544,"lon":5.41434,"is_reserved":false,"is_disabled":false,"rental_uris":{"android":"levelo://app?vid=f3eb5318-be75-4013-92e8-342d3c54666e","ios":"levelo://app?vid=f3eb5318-be75-4013-92e8-342d3c54666e"},"vehicle_type_id":"4","last_reported":1727676857,"current_range_meters":39200,"station_id":"ce4bhq12rcd13ifvqhhg","pricing_plan_id":"cebpf4jnsgd1na2vs0mg"},{"bike_id":"275b0a25-1a9f-498c-9202-be550b06c3de","system_id":"levelo_inurba_marseille","lat":43.32295,"lon":5.38275,"is_reserved":false,"is_disabled":false,"rental_uris":{"android":"levelo://app?vid=275b0a25-1a9f-498c-9202-be550b06c3de","ios":"levelo://app?vid=275b0a25-1a9f-498c-9202-be550b06c3de"},"vehicle_type_id":"4","last_reported":1727676857,"current_range_meters":38800,"station_id":"ce4bhr12rcd13ifvqhqg","pricing_plan_id":"cebpf4jnsgd1na2vs0mg"},{"bike_id":"cace9a80-3018-4935-8380-842e8d7b8e89","system_id":"levelo_inurba_marseille","lat":43.28679,"lon":5.3866,"is_reserved":false,"is_disabled":false,"rental_uris":{"android":"levelo://app?vid=cace9a80-3018-4935-8380-842e8d7b8e89","ios":"levelo://app?vid=cace9a80-3018-4935-8380-842e8d7b8e89"},"vehicle_type_id":"4","last_reported":1727676857,"current_range_meters":38800,"station_id":"ce4bh492rcd13ifvqdug","pricing_plan_id":"cebpf4jnsgd1na2vs0mg"},{"bike_id":"8c956352-d2d0-4aa4-96c2-745d08667ca9","system_id":"levelo_inurba_marseille","lat":43.31533,"lon":5.40362,"is_reserved":false,"is_disabled":false,"rental_uris":{"android":"levelo://app?vid=8c956352-d2d0-4aa4-96c2-745d08667ca9","ios":"levelo://app?vid=8c956352-d2d0-4aa4-96c2-745d08667ca9"},"vehicle_type_id":"4","last_reported":1727676857,"current_range_meters":18000,"station_id":"","pricing_plan_id":"cebpf4jnsgd1na2vs0mg"},{"bike_id":"743aaec9-5f87-4532-a234-302310d7174f","system_id":"levelo_inurba_marseille","lat":43.23153,"lon":5.43711,"is_reserved":false,"is_disabled":false,"rental_uris":{"android":"levelo://app?vid=743aaec9-5f87-4532-a234-302310d7174f","ios":"levelo://app?vid=743aaec9-5f87-4532-a234-302310d7174f"},"vehicle_type_id":"4","last_reported":1727676857,"current_range_meters":18800,"station_id":"ce4bhmp2rcd13ifvqgog","pricing_plan_id":"cebpf4jnsgd1na2vs0mg"},{"bike_id":"cdce5ed8-1437-41e2-b4e5-ad6337242012","system_id":"levelo_inurba_marseille","lat":43.31121,"lon":5.37762,"is_reserved":false,"is_disabled":false,"rental_uris":{"android":"levelo://app?vid=cdce5ed8-1437-41e2-b4e5-ad6337242012","ios":"levelo://app?vid=cdce5ed8-1437-41e2-b4e5-ad6337242012"},"vehicle_type_id":"4","last_reported":1727676857,"current_range_meters":38800,"station_id":"ce4bgt92rcd13ifvqcg0","pricing_plan_id":"cebpf4jnsgd1na2vs0mg"},{"bike_id":"0c3f0369-7cdf-4cba-a0db-09435ab8c8da","system_id":"levelo_inurba_marseille","lat":43.23189,"lon":5.39993,"is_reserved":false,"is_disabled":false,"rental_uris":{"android":"levelo://app?vid=0c3f0369-7cdf-4cba-a0db-09435ab8c8da","ios":"levelo://app?vid=0c3f0369-7cdf-4cba-a0db-09435ab8c8da"},"vehicle_type_id":"4","last_reported":1727676857,"current_range_meters":22400,"station_id":"ce4bhn12rcd13ifvqgqg","pricing_plan_id":"cebpf4jnsgd1na2vs0mg"},{"bike_id":"dc748fa8-95d7-4fe4-b208-64bc033645a1","system_id":"levelo_inurba_marseille","lat":43.30124,"lon":5.39175,"is_reserved":false,"is_disabled":false,"rental_uris":{"android":"levelo://app?vid=dc748fa8-95d7-4fe4-b208-64bc033645a1","ios":"levelo://app?vid=dc748fa8-95d7-4fe4-b208-64bc033645a1"},"vehicle_type_id":"4","last_reported":1727676857,"current_range_meters":32400,"station_id":"ce4bh512rcd13ifvqe3g","pricing_plan_id":"cebpf4jnsgd1na2vs0mg"},{"bike_id":"c4797f9f-bef0-4f03-932a-9f2b11599736","system_id":"levelo_inurba_marseille","lat":43.2924,"lon":5.40138,"is_reserved":false,"is_disabled":false,"rental_uris":{"android":"levelo://app?vid=c4797f9f-bef0-4f03-932a-9f2b11599736","ios":"levelo://app?vid=c4797f9f-bef0-4f03-932a-9f2b11599736"},"vehicle_type_id":"4","last_reported":1727676857,"current_range_meters":34000,"station_id":"ce4bh312rcd13ifvqdk0","pricing_plan_id":"cebpf4jnsgd1na2vs0mg"},{"bike_id":"baece57d-9d3f-4b61-b2d4-649f23faf065","system_id":"levelo_inurba_marseille","lat":43.270081,"lon":5.365059,"is_reserved":false,"is_disabled":false,"rental_uris":{"android":"levelo://app?vid=baece57d-9d3f-4b61-b2d4-649f23faf065","ios":"levelo://app?vid=baece57d-9d3f-4b61-b2d4-649f23faf065"},"vehicle_type_id":"4","last_reported":1727676857,"current_range_meters":30000,"station_id":"","pricing_plan_id":"cebpf4jnsgd1na2vs0mg"},{"bike_id":"c3840656-d50f-4e0e-8444-9f4d33172a37","system_id":"levelo_inurba_marseille","lat":43.27497,"lon":5.42449,"is_reserved":false,"is_disabled":false,"rental_uris":{"android":"levelo://app?vid=c3840656-d50f-4e0e-8444-9f4d33172a37","ios":"levelo://app?vid=c3840656-d50f-4e0e-8444-9f4d33172a37"},"vehicle_type_id":"4","last_reported":1727676857,"current_range_meters":31200,"station_id":"ce4bhn92rcd13ifvqgrg","pricing_plan_id":"cebpf4jnsgd1na2vs0mg"},{"bike_id":"20cb3451-c87b-4134-b73b-5aa2b7adc4a8","system_id":"levelo_inurba_marseille","lat":43.299211,"lon":5.374869,"is_reserved":false,"is_disabled":false,"rental_uris":{"android":"levelo://app?vid=20cb3451-c87b-4134-b73b-5aa2b7adc4a8","ios":"levelo://app?vid=20cb3451-c87b-4134-b73b-5aa2b7adc4a8"},"vehicle_type_id":"4","last_reported":1727676857,"current_range_meters":12400,"station_id":"ce4bgn92rcd13ifvqbvg","pricing_plan_id":"cebpf4jnsgd1na2vs0mg"},{"bike_id":"03127d5b-4d21-4c1c-8753-af36215e309d","system_id":"levelo_inurba_marseille","lat":43.23155,"lon":5.43711,"is_reserved":false,"is_disabled":false,"rental_uris":{"android":"levelo://app?vid=03127d5b-4d21-4c1c-8753-af36215e309d","ios":"levelo://app?vid=03127d5b-4d21-4c1c-8753-af36215e309d"},"vehicle_type_id":"4","last_reported":1727676857,"current_range_meters":35200,"station_id":"ce4bhmp2rcd13ifvqgog","pricing_plan_id":"cebpf4jnsgd1na2vs0mg"},{"bike_id":"e7de440b-45ed-46a8-99b6-cf20a42fade8","system_id":"levelo_inurba_marseille","lat":43.3229,"lon":5.38266,"is_reserved":false,"is_disabled":false,"rental_uris":{"android":"levelo://app?vid=e7de440b-45ed-46a8-99b6-cf20a42fade8","ios":"levelo://app?vid=e7de440b-45ed-46a8-99b6-cf20a42fade8"},"vehicle_type_id":"4","last_reported":1727676857,"current_range_meters":30400,"station_id":"ce4bhr12rcd13ifvqhqg","pricing_plan_id":"cebpf4jnsgd1na2vs0mg"},{"bike_id":"e4361fa2-90d9-45ff-9d8a-e7b112f4e011","system_id":"levelo_inurba_marseille","lat":43.28502,"lon":5.39114,"is_reserved":false,"is_disabled":false,"rental_uris":{"android":"levelo://app?vid=e4361fa2-90d9-45ff-9d8a-e7b112f4e011","ios":"levelo://app?vid=e4361fa2-90d9-45ff-9d8a-e7b112f4e011"},"vehicle_type_id":"4","last_reported":1727676857,"current_range_meters":24800,"station_id":"ce4bh3p2rcd13ifvqdp0","pricing_plan_id":"cebpf4jnsgd1na2vs0mg"},{"bike_id":"d355dc7a-1809-46f1-951e-68e4c01e60bd","system_id":"levelo_inurba_marseille","lat":43.297882,"lon":5.393302,"is_reserved":false,"is_disabled":false,"rental_uris":{"android":"levelo://app?vid=d355dc7a-1809-46f1-951e-68e4c01e60bd","ios":"levelo://app?vid=d355dc7a-1809-46f1-951e-68e4c01e60bd"},"vehicle_type_id":"4","last_reported":1727676857,"current_range_meters":24400,"station_id":"ce4bh0p2rcd13ifvqd80","pricing_plan_id":"cebpf4jnsgd1na2vs0mg"},{"bike_id":"7f474001-0582-4f51-8af7-40139386af4b","system_id":"levelo_inurba_marseille","lat":43.28702,"lon":5.37375,"is_reserved":false,"is_disabled":false,"rental_uris":{"android":"levelo://app?vid=7f474001-0582-4f51-8af7-40139386af4b","ios":"levelo://app?vid=7f474001-0582-4f51-8af7-40139386af4b"},"vehicle_type_id":"4","last_reported":1727676857,"current_range_meters":39200,"station_id":"ce4bh3p2rcd13ifvqdq0","pricing_plan_id":"cebpf4jnsgd1na2vs0mg"},{"bike_id":"36edd441-7676-4b1d-aba4-6f962d219e24","system_id":"levelo_inurba_marseille","lat":43.31393,"lon":5.37407,"is_reserved":false,"is_disabled":false,"rental_uris":{"android":"levelo://app?vid=36edd441-7676-4b1d-aba4-6f962d219e24","ios":"levelo://app?vid=36edd441-7676-4b1d-aba4-6f962d219e24"},"vehicle_type_id":"4","last_reported":1727676857,"current_range_meters":33600,"station_id":"ce4bgup2rcd13ifvqcn0","pricing_plan_id":"cebpf4jnsgd1na2vs0mg"},{"bike_id":"6eff8d2d-61fa-4715-9388-b30a052d3e98","system_id":"levelo_inurba_marseille","lat":43.337444,"lon":5.374475,"is_reserved":false,"is_disabled":false,"rental_uris":{"android":"levelo://app?vid=6eff8d2d-61fa-4715-9388-b30a052d3e98","ios":"levelo://app?vid=6eff8d2d-61fa-4715-9388-b30a052d3e98"},"vehicle_type_id":"4","last_reported":1727676857,"current_range_meters":24800,"station_id":"","pricing_plan_id":"cebpf4jnsgd1na2vs0mg"},{"bike_id":"5561ba97-cc61-4a9c-bb93-36a893b9716f","system_id":"levelo_inurba_marseille","lat":43.28919,"lon":5.4243,"is_reserved":false,"is_disabled":false,"rental_uris":{"android":"levelo://app?vid=5561ba97-cc61-4a9c-bb93-36a893b9716f","ios":"levelo://app?vid=5561ba97-cc61-4a9c-bb93-36a893b9716f"},"vehicle_type_id":"4","last_reported":1727676857,"current_range_meters":32400,"station_id":"","pricing_plan_id":"cebpf4jnsgd1na2vs0mg"},{"bike_id":"134f9003-160a-459b-bf1f-5a145ddf7eb2","system_id":"levelo_inurba_marseille","lat":43.31365,"lon":5.38488,"is_reserved":false,"is_disabled":false,"rental_uris":{"android":"levelo://app?vid=134f9003-160a-459b-bf1f-5a145ddf7eb2","ios":"levelo://app?vid=134f9003-160a-459b-bf1f-5a145ddf7eb2"},"vehicle_type_id":"4","last_reported":1727676857,"current_range_meters":12800,"station_id":"ce4bgt92rcd13ifvqcf0","pricing_plan_id":"cebpf4jnsgd1na2vs0mg"},{"bike_id":"8513c244-5dce-407d-9ac0-b3127525d896","system_id":"levelo_inurba_marseille","lat":43.323438,"lon":5.406236,"is_reserved":false,"is_disabled":false,"rental_uris":{"android":"levelo://app?vid=8513c244-5dce-407d-9ac0-b3127525d896","ios":"levelo://app?vid=8513c244-5dce-407d-9ac0-b3127525d896"},"vehicle_type_id":"4","last_reported":1727676857,"current_range_meters":37600,"station_id":"ce4bhq92rcd13ifvqhjg","pricing_plan_id":"cebpf4jnsgd1na2vs0mg"},{"bike_id":"49103c36-092f-43a6-a665-96ac4218adb8","system_id":"levelo_inurba_marseille","lat":43.32289,"lon":5.38272,"is_reserved":false,"is_disabled":false,"rental_uris":{"android":"levelo://app?vid=49103c36-092f-43a6-a665-96ac4218adb8","ios":"levelo://app?vid=49103c36-092f-43a6-a665-96ac4218adb8"},"vehicle_type_id":"4","last_reported":1727676857,"current_range_meters":38800,"station_id":"ce4bhr12rcd13ifvqhqg","pricing_plan_id":"cebpf4jnsgd1na2vs0mg"},{"bike_id":"5d83cc9c-c8de-434b-ac29-2e1409b15e1b","system_id":"levelo_inurba_marseille","lat":43.30603,"lon":5.393708,"is_reserved":false,"is_disabled":false,"rental_uris":{"android":"levelo://app?vid=5d83cc9c-c8de-434b-ac29-2e1409b15e1b","ios":"levelo://app?vid=5d83cc9c-c8de-434b-ac29-2e1409b15e1b"},"vehicle_type_id":"4","last_reported":1727676857,"current_range_meters":21600,"station_id":"ce4bgi12rcd13ifvqb70","pricing_plan_id":"cebpf4jnsgd1na2vs0mg"},{"bike_id":"acbda63c-dbd1-4c18-8049-4209d813bc5e","system_id":"levelo_inurba_marseille","lat":43.27494,"lon":5.42451,"is_reserved":false,"is_disabled":false,"rental_uris":{"android":"levelo://app?vid=acbda63c-dbd1-4c18-8049-4209d813bc5e","ios":"levelo://app?vid=acbda63c-dbd1-4c18-8049-4209d813bc5e"},"vehicle_type_id":"4","last_reported":1727676857,"current_range_meters":26000,"station_id":"ce4bhn92rcd13ifvqgrg","pricing_plan_id":"cebpf4jnsgd1na2vs0mg"},{"bike_id":"6f0f9c32-de70-4574-9b89-cca29ab0554e","system_id":"levelo_inurba_marseille","lat":43.337444,"lon":5.374475,"is_reserved":false,"is_disabled":false,"rental_uris":{"android":"levelo://app?vid=6f0f9c32-de70-4574-9b89-cca29ab0554e","ios":"levelo://app?vid=6f0f9c32-de70-4574-9b89-cca29ab0554e"},"vehicle_type_id":"4","last_reported":1727676857,"current_range_meters":22800,"station_id":"","pricing_plan_id":"cebpf4jnsgd1na2vs0mg"},{"bike_id":"51e0bc77-0e0c-4436-ba3f-76fe46dcc899","system_id":"levelo_inurba_marseille","lat":43.30888,"lon":5.37188,"is_reserved":false,"is_disabled":false,"rental_uris":{"android":"levelo://app?vid=51e0bc77-0e0c-4436-ba3f-76fe46dcc899","ios":"levelo://app?vid=51e0bc77-0e0c-4436-ba3f-76fe46dcc899"},"vehicle_type_id":"4","last_reported":1727676857,"current_range_meters":37600,"station_id":"ce4bguh2rcd13ifvqckg","pricing_plan_id":"cebpf4jnsgd1na2vs0mg"},{"bike_id":"44ebb7f9-81e7-4737-8a9e-afd85c147f3d","system_id":"levelo_inurba_marseille","lat":43.31231,"lon":5.36854,"is_reserved":false,"is_disabled":false,"rental_uris":{"android":"levelo://app?vid=44ebb7f9-81e7-4737-8a9e-afd85c147f3d","ios":"levelo://app?vid=44ebb7f9-81e7-4737-8a9e-afd85c147f3d"},"vehicle_type_id":"4","last_reported":1727676857,"current_range_meters":35600,"station_id":"ce4bgl92rcd13ifvqbq0","pricing_plan_id":"cebpf4jnsgd1na2vs0mg"},{"bike_id":"b9897cf6-b27e-4987-8a36-ce737823aa7b","system_id":"levelo_inurba_marseille","lat":43.3231,"lon":5.383,"is_reserved":false,"is_disabled":false,"rental_uris":{"android":"levelo://app?vid=b9897cf6-b27e-4987-8a36-ce737823aa7b","ios":"levelo://app?vid=b9897cf6-b27e-4987-8a36-ce737823aa7b"},"vehicle_type_id":"4","last_reported":1727676857,"current_range_meters":37600,"station_id":"ce4bhr12rcd13ifvqhqg","pricing_plan_id":"cebpf4jnsgd1na2vs0mg"},{"bike_id":"0687a646-be72-47a3-8907-22e0afb02a46","system_id":"levelo_inurba_marseille","lat":43.2396,"lon":5.36635,"is_reserved":false,"is_disabled":false,"rental_uris":{"android":"levelo://app?vid=0687a646-be72-47a3-8907-22e0afb02a46","ios":"levelo://app?vid=0687a646-be72-47a3-8907-22e0afb02a46"},"vehicle_type_id":"4","last_reported":1727676857,"current_range_meters":25600,"station_id":"ce4bhi12rcd13ifvqfp0","pricing_plan_id":"cebpf4jnsgd1na2vs0mg"},{"bike_id":"c5b2cbcc-f9a8-45cd-a86a-42bb728e037e","system_id":"levelo_inurba_marseille","lat":43.34494,"lon":5.41632,"is_reserved":false,"is_disabled":false,"rental_uris":{"android":"levelo://app?vid=c5b2cbcc-f9a8-45cd-a86a-42bb728e037e","ios":"levelo://app?vid=c5b2cbcc-f9a8-45cd-a86a-42bb728e037e"},"vehicle_type_id":"4","last_reported":1727676857,"current_range_meters":34000,"station_id":"","pricing_plan_id":"cebpf4jnsgd1na2vs0mg"},{"bike_id":"591df501-a73f-43d2-bbfb-9426ba66c201","system_id":"levelo_inurba_marseille","lat":43.3056,"lon":5.36715,"is_reserved":false,"is_disabled":false,"rental_uris":{"android":"levelo://app?vid=591df501-a73f-43d2-bbfb-9426ba66c201","ios":"levelo://app?vid=591df501-a73f-43d2-bbfb-9426ba66c201"},"vehicle_type_id":"4","last_reported":1727676857,"current_range_meters":26000,"station_id":"ce4bgrp2rcd13ifvqc9g","pricing_plan_id":"cebpf4jnsgd1na2vs0mg"},{"bike_id":"42fd3cd1-306b-4016-a450-887036fe9efa","system_id":"levelo_inurba_marseille","lat":43.28347,"lon":5.38098,"is_reserved":false,"is_disabled":false,"rental_uris":{"android":"levelo://app?vid=42fd3cd1-306b-4016-a450-887036fe9efa","ios":"levelo://app?vid=42fd3cd1-306b-4016-a450-887036fe9efa"},"vehicle_type_id":"4","last_reported":1727676857,"current_range_meters":39200,"station_id":"ce4bh412rcd13ifvqdr0","pricing_plan_id":"cebpf4jnsgd1na2vs0mg"},{"bike_id":"f6c06000-75fa-4a88-9da5-127a70070878","system_id":"levelo_inurba_marseille","lat":43.28156,"lon":5.42638,"is_reserved":false,"is_disabled":false,"rental_uris":{"android":"levelo://app?vid=f6c06000-75fa-4a88-9da5-127a70070878","ios":"levelo://app?vid=f6c06000-75fa-4a88-9da5-127a70070878"},"vehicle_type_id":"4","last_reported":1727676857,"current_range_meters":35200,"station_id":"ce4bhnh2rcd13ifvqgug","pricing_plan_id":"cebpf4jnsgd1na2vs0mg"},{"bike_id":"90c05d40-f5db-4a12-95b3-f8d41ae2e51b","system_id":"levelo_inurba_marseille","lat":43.32377,"lon":5.3892,"is_reserved":false,"is_disabled":false,"rental_uris":{"android":"levelo://app?vid=90c05d40-f5db-4a12-95b3-f8d41ae2e51b","ios":"levelo://app?vid=90c05d40-f5db-4a12-95b3-f8d41ae2e51b"},"vehicle_type_id":"4","last_reported":1727676857,"current_range_meters":26800,"station_id":"ce4bhqp2rcd13ifvqhog","pricing_plan_id":"cebpf4jnsgd1na2vs0mg"},{"bike_id":"194b6dd2-e47f-490c-b9c2-68ff69b8e936","system_id":"levelo_inurba_marseille","lat":43.31494,"lon":5.37295,"is_reserved":false,"is_disabled":false,"rental_uris":{"android":"levelo://app?vid=194b6dd2-e47f-490c-b9c2-68ff69b8e936","ios":"levelo://app?vid=194b6dd2-e47f-490c-b9c2-68ff69b8e936"},"vehicle_type_id":"4","last_reported":1727676857,"current_range_meters":8400,"station_id":"ce4bgt12rcd13ifvqcd0","pricing_plan_id":"cebpf4jnsgd1na2vs0mg"},{"bike_id":"b18fb3e3-4ebe-4164-ba10-8087d6fcc0f0","system_id":"levelo_inurba_marseille","lat":43.24808,"lon":5.37457,"is_reserved":false,"is_disabled":false,"rental_uris":{"android":"levelo://app?vid=b18fb3e3-4ebe-4164-ba10-8087d6fcc0f0","ios":"levelo://app?vid=b18fb3e3-4ebe-4164-ba10-8087d6fcc0f0"},"vehicle_type_id":"4","last_reported":1727676857,"current_range_meters":38400,"station_id":"ce4bhgh2rcd13ifvqfb0","pricing_plan_id":"cebpf4jnsgd1na2vs0mg"},{"bike_id":"cd4ff822-ce55-45a9-91c0-864ced1a19b4","system_id":"levelo_inurba_marseille","lat":43.30887,"lon":5.3963,"is_reserved":false,"is_disabled":false,"rental_uris":{"android":"levelo://app?vid=cd4ff822-ce55-45a9-91c0-864ced1a19b4","ios":"levelo://app?vid=cd4ff822-ce55-45a9-91c0-864ced1a19b4"},"vehicle_type_id":"4","last_reported":1727676857,"current_range_meters":36400,"station_id":"ce4bh012rcd13ifvqcv0","pricing_plan_id":"cebpf4jnsgd1na2vs0mg"},{"bike_id":"180e83f5-3953-469a-841e-1a10d0408401","system_id":"levelo_inurba_marseille","lat":43.286601,"lon":5.38667,"is_reserved":false,"is_disabled":false,"rental_uris":{"android":"levelo://app?vid=180e83f5-3953-469a-841e-1a10d0408401","ios":"levelo://app?vid=180e83f5-3953-469a-841e-1a10d0408401"},"vehicle_type_id":"4","last_reported":1727676857,"current_range_meters":37600,"station_id":"ce4bh492rcd13ifvqdug","pricing_plan_id":"cebpf4jnsgd1na2vs0mg"},{"bike_id":"0fa8b223-8090-4672-8b04-b57125694314","system_id":"levelo_inurba_marseille","lat":43.2896,"lon":5.36826,"is_reserved":false,"is_disabled":false,"rental_uris":{"android":"levelo://app?vid=0fa8b223-8090-4672-8b04-b57125694314","ios":"levelo://app?vid=0fa8b223-8090-4672-8b04-b57125694314"},"vehicle_type_id":"4","last_reported":1727676857,"current_range_meters":30800,"station_id":"","pricing_plan_id":"cebpf4jnsgd1na2vs0mg"},{"bike_id":"eb1ff93e-b12d-4f83-ba72-f5849bfcfa79","system_id":"levelo_inurba_marseille","lat":43.28614,"lon":5.37065,"is_reserved":false,"is_disabled":false,"rental_uris":{"android":"levelo://app?vid=eb1ff93e-b12d-4f83-ba72-f5849bfcfa79","ios":"levelo://app?vid=eb1ff93e-b12d-4f83-ba72-f5849bfcfa79"},"vehicle_type_id":"4","last_reported":1727676857,"current_range_meters":38800,"station_id":"ce4bht12rcd13ifvqi60","pricing_plan_id":"cebpf4jnsgd1na2vs0mg"},{"bike_id":"d69b4612-9ed8-4f8d-ac58-13c54e5b6f5f","system_id":"levelo_inurba_marseille","lat":43.30472,"lon":5.37912,"is_reserved":false,"is_disabled":false,"rental_uris":{"android":"levelo://app?vid=d69b4612-9ed8-4f8d-ac58-13c54e5b6f5f","ios":"levelo://app?vid=d69b4612-9ed8-4f8d-ac58-13c54e5b6f5f"},"vehicle_type_id":"4","last_reported":1727676857,"current_range_meters":24000,"station_id":"ce4bgup2rcd13ifvqcn0","pricing_plan_id":"cebpf4jnsgd1na2vs0mg"},{"bike_id":"333a8300-cf5b-41e2-aeac-28fbc801795d","system_id":"levelo_inurba_marseille","lat":43.27812,"lon":5.40705,"is_reserved":false,"is_disabled":false,"rental_uris":{"android":"levelo://app?vid=333a8300-cf5b-41e2-aeac-28fbc801795d","ios":"levelo://app?vid=333a8300-cf5b-41e2-aeac-28fbc801795d"},"vehicle_type_id":"4","last_reported":1727676857,"current_range_meters":35600,"station_id":"ce4bhnh2rcd13ifvqgtg","pricing_plan_id":"cebpf4jnsgd1na2vs0mg"},{"bike_id":"e0b37501-bb10-4b9a-8d74-2ff1cae36dcc","system_id":"levelo_inurba_marseille","lat":43.28474,"lon":5.39198,"is_reserved":false,"is_disabled":false,"rental_uris":{"android":"levelo://app?vid=e0b37501-bb10-4b9a-8d74-2ff1cae36dcc","ios":"levelo://app?vid=e0b37501-bb10-4b9a-8d74-2ff1cae36dcc"},