{"last_updated":1730790546,"ttl":60,"version":"2.2","data":{"bikes":[{"bike_id":"27c3248b-c595-4ca3-8d16-fd1fce0083ca","system_id":"levelo_inurba_marseille","lat":43.34136,"lon":5.40904,"is_reserved":false,"is_disabled":false,"rental_uris":{"android":"levelo://app?vid=27c3248b-c595-4ca3-8d16-fd1fce0083ca","ios":"levelo://app?vid=27c3248b-c595-4ca3-8d16-fd1fce0083ca"},"vehicle_type_id":"4","last_reported":1730790546,"current_range_meters":23200,"station_id":"ce4bhqh2rcd13ifvqhlg","pricing_plan_id":"cebpf4jnsgd1na2vs0mg"},{"bike_id":"c4ca81f1-0770-4982-88af-728d13e28981","system_id":"levelo_inurba_marseille","lat":43.26202,"lon":5.37437,"is_reserved":false,"is_disabled":false,"rental_uris":{"android":"levelo://app?vid=c4ca81f1-0770-4982-88af-728d13e28981","ios":"levelo://app?vid=c4ca81f1-0770-4982-88af-728d13e28981"},"vehicle_type_id":"4","last_reported":1730790546,"current_range_meters":37600,"station_id":"ce4bhgp2rcd13ifvqfc0","pricing_plan_id":"cebpf4jnsgd1na2vs0mg"},{"bike_id":"c8c610dc-8f86-4a88-b9ea-48040790213b","system_id":"levelo_inurba_marseille","lat":43.30227,"lon":5.40059,"is_reserved":false,"is_disabled":false,"rental_uris":{"android":"levelo://app?vid=c8c610dc-8f86-4a88-b9ea-48040790213b","ios":"levelo://app?vid=c8c610dc-8f86-4a88-b9ea-48040790213b"},"vehicle_type_id":"4","last_reported":1730790546,"current_range_meters":36000,"station_id":"ce4bgvh2rcd13ifvqcs0","pricing_plan_id":"cebpf4jnsgd1na2vs0mg"},{"bike_id":"c24fb9a5-b454-4ee1-a0d9-7727e66a5e9b","system_id":"levelo_inurba_marseille","lat":43.29088,"lon":5.38143,"is_reserved":false,"is_disabled":false,"rental_uris":{"android":"levelo://app?vid=c24fb9a5-b454-4ee1-a0d9-7727e66a5e9b","ios":"levelo://app?vid=c24fb9a5-b454-4ee1-a0d9-7727e66a5e9b"},"vehicle_type_id":"4","last_reported":1730790546,"current_range_meters":36000,"station_id":"ce4bh512rcd13ifvqe2g","pricing_plan_id":"cebpf4jnsgd1na2vs0mg"},{"bike_id":"3675d184-4550-4970-9661-d3d7f50009e5","system_id":"levelo_inurba_marseille","lat":43.31336,"lon":5.36696,"is_reserved":false,"is_disabled":false,"rental_uris":{"android":"levelo://app?vid=3675d184-4550-4970-9661-d3d7f50009e5","ios":"levelo://app?vid=3675d184-4550-4970-9661-d3d7f50009e5"},"vehicle_type_id":"4","last_reported":1730790546,"current_range_meters":21600,"station_id":"ce4bgr92rcd13ifvqc6g","pricing_plan_id":"cebpf4jnsgd1na2vs0mg"},{"bike_id":"764f7689-09c9-4f98-9b1b-421b3e576a15","system_id":"levelo_inurba_marseille","lat":43.31329,"lon":5.39691,"is_reserved":false,"is_disabled":false,"rental_uris":{"android":"levelo://app?vid=764f7689-09c9-4f98-9b1b-421b3e576a15","ios":"levelo://app?vid=764f7689-09c9-4f98-9b1b-421b3e576a15"},"vehicle_type_id":"4","last_reported":1730790546,"current_range_meters":35600,"station_id":"ce4bgvp2rcd13ifvqcu0","pricing_plan_id":"cebpf4jnsgd1na2vs0mg"},{"bike_id":"e52c644d-5fb8-4e3f-815c-be0685689da8","system_id":"levelo_inurba_marseille","lat":43.30147,"lon":5.38083,"is_reserved":false,"is_disabled":false,"rental_uris":{"android":"levelo://app?vid=e52c644d-5fb8-4e3f-815c-be0685689da8","ios":"levelo://app?vid=e52c644d-5fb8-4e3f-815c-be0685689da8"},"vehicle_type_id":"4","last_reported":1730790546,"current_range_meters":36800,"station_id":"ce4bgjp2rcd13ifvqbh0","pricing_plan_id":"cebpf4jnsgd1na2vs0mg"},{"bike_id":"e6345642-f1c0-4278-bcc3-912308316a57","system_id":"levelo_inurba_marseille","lat":43.29877,"lon":5.3891,"is_reserved":false,"is_disabled":false,"rental_uris":{"android":"levelo://app?vid=e6345642-f1c0-4278-bcc3-912308316a57","ios":"levelo://app?vid=e6345642-f1c0-4278-bcc3-912308316a57"},"vehicle_type_id":"4","last_reported":1730790546,"current_range_meters":11200,"station_id":"ce4bh392rcd13ifvqdl0","pricing_plan_id":"cebpf4jnsgd1na2vs0mg"},{"bike_id":"da226466-a912-4baa-9aae-e1bd828a7023","system_id":"levelo_inurba_marseille","lat":43.27621,"lon":5.36106,"is_reserved":false,"is_disabled":false,"rental_uris":{"android":"levelo://app?vid=da226466-a912-4baa-9aae-e1bd828a7023","ios":"levelo://app?vid=da226466-a912-4baa-9aae-e1bd828a7023"},"vehicle_type_id":"4","last_reported":1730790546,"current_range_meters":26000,"station_id":"ce4bgj92rcd13ifvqbe0","pricing_plan_id":"cebpf4jnsgd1na2vs0mg"},{"bike_id":"7a4d3e9a-b526-4534-a3c7-76be0f861ea5","system_id":"levelo_inurba_marseille","lat":43.27495,"lon":5.42454,"is_reserved":false,"is_disabled":false,"rental_uris":{"android":"levelo://app?vid=7a4d3e9a-b526-4534-a3c7-76be0f861ea5","ios":"levelo://app?vid=7a4d3e9a-b526-4534-a3c7-76be0f861ea5"},"vehicle_type_id":"4","last_reported":1730790546,"current_range_meters":30800,"station_id":"ce4bhn92rcd13ifvqgrg","pricing_plan_id":"cebpf4jnsgd1na2vs0mg"},{"bike_id":"669e6395-54cf-45ff-8702-3663b36b6355","system_id":"levelo_inurba_marseille","lat":43.26488,"lon":5.39532,"is_reserved":false,"is_disabled":false,"rental_uris":{"android":"levelo://app?vid=669e6395-54cf-45ff-8702-3663b36b6355","ios":"levelo://app?vid=669e6395-54cf-45ff-8702-3663b36b6355"},"vehicle_type_id":"4","last_reported":1730790546,"current_range_meters":36400,"station_id":"ce4bhi12rcd13ifvqfq0","pricing_plan_id":"cebpf4jnsgd1na2vs0mg"},{"bike_id":"bef6e360-e6a9-4673-8e18-0a89fd02a098","system_id":"levelo_inurba_marseille","lat":43.30086,"lon":5.39085,"is_reserved":false,"is_disabled":false,"rental_uris":{"android":"levelo://app?vid=bef6e360-e6a9-4673-8e18-0a89fd02a098","ios":"levelo://app?vid=bef6e360-e6a9-4673-8e18-0a89fd02a098"},"vehicle_type_id":"4","last_reported":1730790546,"current_range_meters":14800,"station_id":"ce4bh192rcd13ifvqdb0","pricing_plan_id":"cebpf4jnsgd1na2vs0mg"},{"bike_id":"32c68064-9544-4a11-b700-e66c2c6cdab2","system_id":"levelo_inurba_marseille","lat":43.292236,"lon":5.361304,"is_reserved":false,"is_disabled":false,"rental_uris":{"android":"levelo://app?vid=32c68064-9544-4a11-b700-e66c2c6cdab2","ios":"levelo://app?vid=32c68064-9544-4a11-b700-e66c2c6cdab2"},"vehicle_type_id":"4","last_reported":1730790546,"current_range_meters":32400,"station_id":"ce4bh4p2rcd13ifvqe1g","pricing_plan_id":"cebpf4jnsgd1na2vs0mg"},{"bike_id":"c8f262a3-98a3-44e0-b364-e1404596ad44","system_id":"levelo_inurba_marseille","lat":43.27493,"lon":5.42451,"is_reserved":false,"is_disabled":false,"rental_uris":{"android":"levelo://app?vid=c8f262a3-98a3-44e0-b364-e1404596ad44","ios":"levelo://app?vid=c8f262a3-98a3-44e0-b364-e1404596ad44"},"vehicle_type_id":"4","last_reported":1730790546,"current_range_meters":8800,"station_id":"ce4bhn92rcd13ifvqgrg","pricing_plan_id":"cebpf4jnsgd1na2vs0mg"},{"bike_id":"99b1c731-d11f-47af-b837-9b3a4c13e227","system_id":"levelo_inurba_marseille","lat":43.27366,"lon":5.3625,"is_reserved":false,"is_disabled":false,"rental_uris":{"android":"levelo://app?vid=99b1c731-d11f-47af-b837-9b3a4c13e227","ios":"levelo://app?vid=99b1c731-d11f-47af-b837-9b3a4c13e227"},"vehicle_type_id":"4","last_reported":1730790546,"current_range_meters":37600,"station_id":"ce4bhbh2rcd13ifvqeo0","pricing_plan_id":"cebpf4jnsgd1na2vs0mg"},{"bike_id":"590de1cb-eae9-4a79-b020-0e8321b145ef","system_id":"levelo_inurba_marseille","lat":43.23184,"lon":5.35546,"is_reserved":false,"is_disabled":false,"rental_uris":{"android":"levelo://app?vid=590de1cb-eae9-4a79-b020-0e8321b145ef","ios":"levelo://app?vid=590de1cb-eae9-4a79-b020-0e8321b145ef"},"vehicle_type_id":"4","last_reported":1730790546,"current_range_meters":21600,"station_id":"ce4bhu92rcd13ifvqi70","pricing_plan_id":"cebpf4jnsgd1na2vs0mg"},{"bike_id":"4147bbfb-4b14-4aca-b782-8ec6c0473609","system_id":"levelo_inurba_marseille","lat":43.23594,"lon":5.40346,"is_reserved":false,"is_disabled":false,"rental_uris":{"android":"levelo://app?vid=4147bbfb-4b14-4aca-b782-8ec6c0473609","ios":"levelo://app?vid=4147bbfb-4b14-4aca-b782-8ec6c0473609"},"vehicle_type_id":"4","last_reported":1730790546,"current_range_meters":9200,"station_id":"","pricing_plan_id":"cebpf4jnsgd1na2vs0mg"},{"bike_id":"fa66adb8-19da-4b56-aeb9-ccf1206b3e1e","system_id":"levelo_inurba_marseille","lat":43.32365,"lon":5.36757,"is_reserved":false,"is_disabled":false,"rental_uris":{"android":"levelo://app?vid=fa66adb8-19da-4b56-aeb9-ccf1206b3e1e","ios":"levelo://app?vid=fa66adb8-19da-4b56-aeb9-ccf1206b3e1e"},"vehicle_type_id":"4","last_reported":1730790546,"current_range_meters":36000,"station_id":"ce4bhsh2rcd13ifvqi2g","pricing_plan_id":"cebpf4jnsgd1na2vs0mg"},{"bike_id":"26524832-8824-4bc7-95ef-aedb1815c904","system_id":"levelo_inurba_marseille","lat":43.29847,"lon":5.36285,"is_reserved":false,"is_disabled":false,"rental_uris":{"android":"levelo://app?vid=26524832-8824-4bc7-95ef-aedb1815c904","ios":"levelo://app?vid=26524832-8824-4bc7-95ef-aedb1815c904"},"vehicle_type_id":"4","last_reported":1730790546,"current_range_meters":19600,"station_id":"ce4bgpp2rcd13ifvqc3g","pricing_plan_id":"cebpf4jnsgd1na2vs0mg"},{"bike_id":"9dd4c1b5-f2ec-496b-8f02-a2c3d2c60a9c","system_id":"levelo_inurba_marseille","lat":43.24771,"lon":5.41842,"is_reserved":false,"is_disabled":false,"rental_uris":{"android":"levelo://app?vid=9dd4c1b5-f2ec-496b-8f02-a2c3d2c60a9c","ios":"levelo://app?vid=9dd4c1b5-f2ec-496b-8f02-a2c3d2c60a9c"},"vehicle_type_id":"4","last_reported":1730790546,"current_range_meters":28400,"station_id":"ce4bhkp2rcd13ifvqgd0","pricing_plan_id":"cebpf4jnsgd1na2vs0mg"},{"bike_id":"47662166-db17-4d16-a97b-519c42566d41","system_id":"levelo_inurba_marseille","lat":43.27807,"lon":5.40712,"is_reserved":false,"is_disabled":false,"rental_uris":{"android":"levelo://app?vid=47662166-db17-4d16-a97b-519c42566d41","ios":"levelo://app?vid=47662166-db17-4d16-a97b-519c42566d41"},"vehicle_type_id":"4","last_reported":1730790546,"current_range_meters":4400,"station_id":"ce4bhnh2rcd13ifvqgtg","pricing_plan_id":"cebpf4jnsgd1na2vs0mg"},{"bike_id":"5c436aeb-c481-41ab-8300-c50f6fd2318a","system_id":"levelo_inurba_marseille","lat":43.30593,"lon":5.39354,"is_reserved":false,"is_disabled":false,"rental_uris":{"android":"levelo://app?vid=5c436aeb-c481-41ab-8300-c50f6fd2318a","ios":"levelo://app?vid=5c436aeb-c481-41ab-8300-c50f6fd2318a"},"vehicle_type_id":"4","last_reported":1730790546,"current_range_meters":30400,"station_id":"ce4bh0p2rcd13ifvqd80","pricing_plan_id":"cebpf4jnsgd1na2vs0mg"},{"bike_id":"0a949cd6-8176-452e-ad03-d07bdb8d68eb","system_id":"levelo_inurba_marseille","lat":43.33604,"lon":5.4103,"is_reserved":false,"is_disabled":false,"rental_uris":{"android":"levelo://app?vid=0a949cd6-8176-452e-ad03-d07bdb8d68eb","ios":"levelo://app?vid=0a949cd6-8176-452e-ad03-d07bdb8d68eb"},"vehicle_type_id":"4","last_reported":1730790546,"current_range_meters":8000,"station_id":"ce4bhqh2rcd13ifvqhmg","pricing_plan_id":"cebpf4jnsgd1na2vs0mg"},{"bike_id":"35d46972-faca-4525-a2d2-3f928f24f16c","system_id":"levelo_inurba_marseille","lat":43.24167,"lon":5.36402,"is_reserved":false,"is_disabled":false,"rental_uris":{"android":"levelo://app?vid=35d46972-faca-4525-a2d2-3f928f24f16c","ios":"levelo://app?vid=35d46972-faca-4525-a2d2-3f928f24f16c"},"vehicle_type_id":"4","last_reported":1730790546,"current_range_meters":38000,"station_id":"cpo36qri1sfpv3e86is0","pricing_plan_id":"cebpf4jnsgd1na2vs0mg"},{"bike_id":"d302d503-3c8c-4b61-8ae5-e5ff26031190","system_id":"levelo_inurba_marseille","lat":43.30533,"lon":5.38431,"is_reserved":false,"is_disabled":false,"rental_uris":{"android":"levelo://app?vid=d302d503-3c8c-4b61-8ae5-e5ff26031190","ios":"levelo://app?vid=d302d503-3c8c-4b61-8ae5-e5ff26031190"},"vehicle_type_id":"4","last_reported":1730790546,"current_range_meters":38800,"station_id":"ce4bgg92rcd13ifvqb30","pricing_plan_id":"cebpf4jnsgd1na2vs0mg"},{"bike_id":"f7b02530-438b-4535-927c-07793d571ea5","system_id":"levelo_inurba_marseille","lat":43.29634,"lon":5.40597,"is_reserved":false,"is_disabled":false,"rental_uris":{"android":"levelo://app?vid=f7b02530-438b-4535-927c-07793d571ea5","ios":"levelo://app?vid=f7b02530-438b-4535-927c-07793d571ea5"},"vehicle_type_id":"4","last_reported":1730790546,"current_range_meters":38800,"station_id":"ce4bh0h2rcd13ifvqd60","pricing_plan_id":"cebpf4jnsgd1na2vs0mg"},{"bike_id":"2378f453-72a7-4eb2-ab3b-946285d406fd","system_id":"levelo_inurba_marseille","lat":43.29214,"lon":5.37715,"is_reserved":false,"is_disabled":false,"rental_uris":{"android":"levelo://app?vid=2378f453-72a7-4eb2-ab3b-946285d406fd","ios":"levelo://app?vid=2378f453-72a7-4eb2-ab3b-946285d406fd"},"vehicle_type_id":"4","last_reported":1730790546,"current_range_meters":4400,"station_id":"","pricing_plan_id":"cebpf4jnsgd1na2vs0mg"},{"bike_id":"3da4622c-c31c-40d3-8aab-c802043c4fb2","system_id":"levelo_inurba_marseille","lat":43.24083,"lon":5.37736,"is_reserved":false,"is_disabled":false,"rental_uris":{"android":"levelo://app?vid=3da4622c-c31c-40d3-8aab-c802043c4fb2","ios":"levelo://app?vid=3da4622c-c31c-40d3-8aab-c802043c4fb2"},"vehicle_type_id":"4","last_reported":1730790546,"current_range_meters":32400,"station_id":"ce4bhnp2rcd13ifvqgvg","pricing_plan_id":"cebpf4jnsgd1na2vs0mg"},{"bike_id":"5622b9b9-6fcf-45c3-b4a5-a8f71f65eca1","system_id":"levelo_inurba_marseille","lat":43.28929,"lon":5.39623,"is_reserved":false,"is_disabled":false,"rental_uris":{"android":"levelo://app?vid=5622b9b9-6fcf-45c3-b4a5-a8f71f65eca1","ios":"levelo://app?vid=5622b9b9-6fcf-45c3-b4a5-a8f71f65eca1"},"vehicle_type_id":"4","last_reported":1730790546,"current_range_meters":24800,"station_id":"ce4bh3h2rcd13ifvqdn0","pricing_plan_id":"cebpf4jnsgd1na2vs0mg"},{"bike_id":"24aab011-a468-46b0-adfa-fed24195aa9a","system_id":"levelo_inurba_marseille","lat":43.28359,"lon":5.38105,"is_reserved":false,"is_disabled":false,"rental_uris":{"android":"levelo://app?vid=24aab011-a468-46b0-adfa-fed24195aa9a","ios":"levelo://app?vid=24aab011-a468-46b0-adfa-fed24195aa9a"},"vehicle_type_id":"4","last_reported":1730790546,"current_range_meters":14000,"station_id":"ce4bh412rcd13ifvqdr0","pricing_plan_id":"cebpf4jnsgd1na2vs0mg"},{"bike_id":"6c4d5070-2a12-4ffc-96b3-fdca1275cee6","system_id":"levelo_inurba_marseille","lat":43.28482,"lon":5.38418,"is_reserved":false,"is_disabled":false,"rental_uris":{"android":"levelo://app?vid=6c4d5070-2a12-4ffc-96b3-fdca1275cee6","ios":"levelo://app?vid=6c4d5070-2a12-4ffc-96b3-fdca1275cee6"},"vehicle_type_id":"4","last_reported":1730790546,"current_range_meters":37600,"station_id":"ce4bh512rcd13ifvqe3g","pricing_plan_id":"cebpf4jnsgd1na2vs0mg"},{"bike_id":"4dd5a623-f296-4b9b-abf8-8cf04c8d806e","system_id":"levelo_inurba_marseille","lat":43.28846,"lon":5.39303,"is_reserved":false,"is_disabled":false,"rental_uris":{"android":"levelo://app?vid=4dd5a623-f296-4b9b-abf8-8cf04c8d806e","ios":"levelo://app?vid=4dd5a623-f296-4b9b-abf8-8cf04c8d806e"},"vehicle_type_id":"4","last_reported":1730790546,"current_range_meters":38800,"station_id":"ce4bh2p2rcd13ifvqdi0","pricing_plan_id":"cebpf4jnsgd1na2vs0mg"},{"bike_id":"d0618a3d-c0f1-4f6d-a7e1-0bfc8ea1deaf","system_id":"levelo_inurba_marseille","lat":43.28719,"lon":5.37945,"is_reserved":false,"is_disabled":false,"rental_uris":{"android":"levelo://app?vid=d0618a3d-c0f1-4f6d-a7e1-0bfc8ea1deaf","ios":"levelo://app?vid=d0618a3d-c0f1-4f6d-a7e1-0bfc8ea1deaf"},"vehicle_type_id":"4","last_reported":1730790546,"current_range_meters":20400,"station_id":"ce4bh9p2rcd13ifvqec0","pricing_plan_id":"cebpf4jnsgd1na2vs0mg"},{"bike_id":"47328a46-9d9d-446f-982c-ea70c8b328b4","system_id":"levelo_inurba_marseille","lat":43.28725,"lon":5.37937,"is_reserved":false,"is_disabled":false,"rental_uris":{"android":"levelo://app?vid=47328a46-9d9d-446f-982c-ea70c8b328b4","ios":"levelo://app?vid=47328a46-9d9d-446f-982c-ea70c8b328b4"},"vehicle_type_id":"4","last_reported":1730790546,"current_range_meters":38800,"station_id":"ce4bh9p2rcd13ifvqec0","pricing_plan_id":"cebpf4jnsgd1na2vs0mg"},{"bike_id":"450d28c8-7262-44a8-99d6-ad435143d341","system_id":"levelo_inurba_marseille","lat":43.283545,"lon":5.381075,"is_reserved":false,"is_disabled":false,"rental_uris":{"android":"levelo://app?vid=450d28c8-7262-44a8-99d6-ad435143d341","ios":"levelo://app?vid=450d28c8-7262-44a8-99d6-ad435143d341"},"vehicle_type_id":"4","last_reported":1730790546,"current_range_meters":23200,"station_id":"ce4bh412rcd13ifvqdr0","pricing_plan_id":"cebpf4jnsgd1na2vs0mg"},{"bike_id":"1ed8cd58-b59f-420d-9864-026ef8a58772","system_id":"levelo_inurba_marseille","lat":43.24624,"lon":5.39471,"is_reserved":false,"is_disabled":false,"rental_uris":{"android":"levelo://app?vid=1ed8cd58-b59f-420d-9864-026ef8a58772","ios":"levelo://app?vid=1ed8cd58-b59f-420d-9864-026ef8a58772"},"vehicle_type_id":"4","last_reported":1730790546,"current_range_meters":3200,"station_id":"","pricing_plan_id":"cebpf4jnsgd1na2vs0mg"},{"bike_id":"551ac0ac-232d-4450-b3d3-1dea3064e4dc","system_id":"levelo_inurba_marseille","lat":43.26955,"lon":5.38633,"is_reserved":false,"is_disabled":false,"rental_uris":{"android":"levelo://app?vid=551ac0ac-232d-4450-b3d3-1dea3064e4dc","ios":"levelo://app?vid=551ac0ac-232d-4450-b3d3-1dea3064e4dc"},"vehicle_type_id":"4","last_reported":1730790546,"current_range_meters":15200,"station_id":"ce4bhh92rcd13ifvqfh0","pricing_plan_id":"cebpf4jnsgd1na2vs0mg"},{"bike_id":"ddfa70a9-9d32-48ef-99b7-f4cb9b41791d","system_id":"levelo_inurba_marseille","lat":43.2407,"lon":5.3776,"is_reserved":false,"is_disabled":false,"rental_uris":{"android":"levelo://app?vid=ddfa70a9-9d32-48ef-99b7-f4cb9b41791d","ios":"levelo://app?vid=ddfa70a9-9d32-48ef-99b7-f4cb9b41791d"},"vehicle_type_id":"4","last_reported":1730790546,"current_range_meters":10800,"station_id":"ce4bhnp2rcd13ifvqgvg","pricing_plan_id":"cebpf4jnsgd1na2vs0mg"},{"bike_id":"c6a26cb3-e469-4dcd-b0d9-f2a2f8beee3b","system_id":"levelo_inurba_marseille","lat":43.30299,"lon":5.36895,"is_reserved":false,"is_disabled":false,"rental_uris":{"android":"levelo://app?vid=c6a26cb3-e469-4dcd-b0d9-f2a2f8beee3b","ios":"levelo://app?vid=c6a26cb3-e469-4dcd-b0d9-f2a2f8beee3b"},"vehicle_type_id":"4","last_reported":1730790546,"current_range_meters":38800,"station_id":"ce4bgqh2rcd13ifvqc5g","pricing_plan_id":"cebpf4jnsgd1na2vs0mg"},{"bike_id":"fbe1344d-a732-4551-86e4-3b4d6dad7b24","system_id":"levelo_inurba_marseille","lat":43.292512,"lon":5.409122,"is_reserved":false,"is_disabled":false,"rental_uris":{"android":"levelo://app?vid=fbe1344d-a732-4551-86e4-3b4d6dad7b24","ios":"levelo://app?vid=fbe1344d-a732-4551-86e4-3b4d6dad7b24"},"vehicle_type_id":"4","last_reported":1730790546,"current_range_meters":38800,"station_id":"ce4bh192rcd13ifvqdc0","pricing_plan_id":"cebpf4jnsgd1na2vs0mg"},{"bike_id":"b4681e4e-5f30-478f-ba1d-da580c8af293","system_id":"levelo_inurba_marseille","lat":43.24073,"lon":5.37759,"is_reserved":false,"is_disabled":false,"rental_uris":{"android":"levelo://app?vid=b4681e4e-5f30-478f-ba1d-da580c8af293","ios":"levelo://app?vid=b4681e4e-5f30-478f-ba1d-da580c8af293"},"vehicle_type_id":"4","last_reported":1730790546,"current_range_meters":35200,"station_id":"ce4bhnp2rcd13ifvqgvg","pricing_plan_id":"cebpf4jnsgd1na2vs0mg"},{"bike_id":"07f8f1bf-d68f-4b58-92a7-b1443614c858","system_id":"levelo_inurba_marseille","lat":43.30954,"lon":5.39041,"is_reserved":false,"is_disabled":false,"rental_uris":{"android":"levelo://app?vid=07f8f1bf-d68f-4b58-92a7-b1443614c858","ios":"levelo://app?vid=07f8f1bf-d68f-4b58-92a7-b1443614c858"},"vehicle_type_id":"4","last_reported":1730790546,"current_range_meters":38800,"station_id":"ce4bgup2rcd13ifvqco0","pricing_plan_id":"cebpf4jnsgd1na2vs0mg"},{"bike_id":"c644397c-9f05-4578-a04b-d15f3f9130e5","system_id":"levelo_inurba_marseille","lat":43.26262,"lon":5.39666,"is_reserved":false,"is_disabled":false,"rental_uris":{"android":"levelo://app?vid=c644397c-9f05-4578-a04b-d15f3f9130e5","ios":"levelo://app?vid=c644397c-9f05-4578-a04b-d15f3f9130e5"},"vehicle_type_id":"4","last_reported":1730790546,"current_range_meters":38000,"station_id":"","pricing_plan_id":"cebpf4jnsgd1na2vs0mg"},{"bike_id":"9197e8b5-69d6-44c7-9210-c32cf6927886","system_id":"levelo_inurba_marseille","lat":43.28976,"lon":5.37825,"is_reserved":false,"is_disabled":false,"rental_uris":{"android":"levelo://app?vid=9197e8b5-69d6-44c7-9210-c32cf6927886","ios":"levelo://app?vid=9197e8b5-69d6-44c7-9210-c32cf6927886"},"vehicle_type_id":"4","last_reported":1730790546,"current_range_meters":36000,"station_id":"ce4bh9p2rcd13ifvqed0","pricing_plan_id":"cebpf4jnsgd1na2vs0mg"},{"bike_id":"b5f5f289-9584-4e43-979b-86f74ad6203a","system_id":"levelo_inurba_marseille","lat":43.25575,"lon":5.38237,"is_reserved":false,"is_disabled":false,"rental_uris":{"android":"levelo://app?vid=b5f5f289-9584-4e43-979b-86f74ad6203a","ios":"levelo://app?vid=b5f5f289-9584-4e43-979b-86f74ad6203a"},"vehicle_type_id":"4","last_reported":1730790546,"current_range_meters":30800,"station_id":"ce4bhih2rcd13ifvqfs0","pricing_plan_id":"cebpf4jnsgd1na2vs0mg"},{"bike_id":"aece4ec5-691d-46df-a142-b0ac6b37b89e","system_id":"levelo_inurba_marseille","lat":43.302765,"lon":5.384449,"is_reserved":false,"is_disabled":false,"rental_uris":{"android":"levelo://app?vid=aece4ec5-691d-46df-a142-b0ac6b37b89e","ios":"levelo://app?vid=aece4ec5-691d-46df-a142-b0ac6b37b89e"},"vehicle_type_id":"4","last_reported":1730790546,"current_range_meters":28000,"station_id":"ce4bghh2rcd13ifvqb60","pricing_plan_id":"cebpf4jnsgd1na2vs0mg"},{"bike_id":"44db718a-0a23-4e36-beb2-edc8f037b021","system_id":"levelo_inurba_marseille","lat":43.29605,"lon":5.38105,"is_reserved":false,"is_disabled":false,"rental_uris":{"android":"levelo://app?vid=44db718a-0a23-4e36-beb2-edc8f037b021","ios":"levelo://app?vid=44db718a-0a23-4e36-beb2-edc8f037b021"},"vehicle_type_id":"4","last_reported":1730790546,"current_range_meters":35600,"station_id":"ce4bgl12rcd13ifvqbo0","pricing_plan_id":"cebpf4jnsgd1na2vs0mg"},{"bike_id":"99d78f6e-5bfc-4e99-baa1-b9137a41c134","system_id":"levelo_inurba_marseille","lat":43.28156,"lon":5.42638,"is_reserved":false,"is_disabled":false,"rental_uris":{"android":"levelo://app?vid=99d78f6e-5bfc-4e99-baa1-b9137a41c134","ios":"levelo://app?vid=99d78f6e-5bfc-4e99-baa1-b9137a41c134"},"vehicle_type_id":"4","last_reported":1730790546,"current_range_meters":37600,"station_id":"ce4bhnh2rcd13ifvqgug","pricing_plan_id":"cebpf4jnsgd1na2vs0mg"},{"bike_id":"0fb9819f-f5ed-4bc1-9006-4b1ad7d9b36e","system_id":"levelo_inurba_marseille","lat":43.32478,"lon":5.36556,"is_reserved":false,"is_disabled":false,"rental_uris":{"android":"levelo://app?vid=0fb9819f-f5ed-4bc1-9006-4b1ad7d9b36e","ios":"levelo://app?vid=0fb9819f-f5ed-4bc1-9006-4b1ad7d9b36e"},"vehicle_type_id":"4","last_reported":1730790546,"current_range_meters":14800,"station_id":"ce4bhs12rcd13ifvqhvg","pricing_plan_id":"cebpf4jnsgd1na2vs0mg"},{"bike_id":"02cc000a-ff02-41b2-b6ba-62b889de1182","system_id":"levelo_inurba_marseille","lat":43.30181,"lon":5.36624,"is_reserved":false,"is_disabled":false,"rental_uris":{"android":"levelo://app?vid=02cc000a-ff02-41b2-b6ba-62b889de1182","ios":"levelo://app?vid=02cc000a-ff02-41b2-b6ba-62b889de1182"},"vehicle_type_id":"4","last_reported":1730790546,"current_range_meters":26000,"station_id":"ce4bgrh2rcd13ifvqc8g","pricing_plan_id":"cebpf4jnsgd1na2vs0mg"},{"bike_id":"b81b327c-6ee0-4dea-afcd-07e703007d04","system_id":"levelo_inurba_marseille","lat":43.30592,"lon":5.39349,"is_reserved":false,"is_disabled":false,"rental_uris":{"android":"levelo://app?vid=b81b327c-6ee0-4dea-afcd-07e703007d04","ios":"levelo://app?vid=b81b327c-6ee0-4dea-afcd-07e703007d04"},"vehicle_type_id":"4","last_reported":1730790546,"current_range_meters":36400,"station_id":"ce4bh0p2rcd13ifvqd80","pricing_plan_id":"cebpf4jnsgd1na2vs0mg"},{"bike_id":"037eaf0f-9112-47d3-aa8d-7a0ef0d58625","system_id":"levelo_inurba_marseille","lat":43.24167,"lon":5.36395,"is_reserved":false,"is_disabled":false,"rental_uris":{"android":"levelo://app?vid=037eaf0f-9112-47d3-aa8d-7a0ef0d58625","ios":"levelo://app?vid=037eaf0f-9112-47d3-aa8d-7a0ef0d58625"},"vehicle_type_id":"4","last_reported":1730790546,"current_range_meters":38800,"station_id":"cpo36qri1sfpv3e86is0","pricing_plan_id":"cebpf4jnsgd1na2vs0mg"},{"bike_id":"5a8952b3-413d-4af0-8d20-ce04061f4e65","system_id":"levelo_inurba_marseille","lat":43.27171,"lon":5.40993,"is_reserved":false,"is_disabled":false,"rental_uris":{"android":"levelo://app?vid=5a8952b3-413d-4af0-8d20-ce04061f4e65","ios":"levelo://app?vid=5a8952b3-413d-4af0-8d20-ce04061f4e65"},"vehicle_type_id":"4","last_reported":1730790546,"current_range_meters":38800,"station_id":"ce4bhl12rcd13ifvqgf0","pricing_plan_id":"cebpf4jnsgd1na2vs0mg"},{"bike_id":"d21c28b2-c174-4e9f-ad7f-35fb94eae1cd","system_id":"levelo_inurba_marseille","lat":43.30529,"lon":5.36721,"is_reserved":false,"is_disabled":false,"rental_uris":{"android":"levelo://app?vid=d21c28b2-c174-4e9f-ad7f-35fb94eae1cd","ios":"levelo://app?vid=d21c28b2-c174-4e9f-ad7f-35fb94eae1cd"},"vehicle_type_id":"4","last_reported":1730790546,"current_range_meters":34800,"station_id":"ce4bgrp2rcd13ifvqc9g","pricing_plan_id":"cebpf4jnsgd1na2vs0mg"},{"bike_id":"d5b4a74e-b2e3-421e-8744-3b105871edf4","system_id":"levelo_inurba_marseille","lat":43.24997,"lon":5.38929,"is_reserved":false,"is_disabled":false,"rental_uris":{"android":"levelo://app?vid=d5b4a74e-b2e3-421e-8744-3b105871edf4","ios":"levelo://app?vid=d5b4a74e-b2e3-421e-8744-3b105871edf4"},"vehicle_type_id":"4","last_reported":1730790546,"current_range_meters":37600,"station_id":"ce4bhgp2rcd13ifvqfd0","pricing_plan_id":"cebpf4jnsgd1na2vs0mg"},{"bike_id":"d80dcc85-adff-430d-be95-5fe6606b1e9d","system_id":"levelo_inurba_marseille","lat":43.30193,"lon":5.36632,"is_reserved":false,"is_disabled":false,"rental_uris":{"android":"levelo://app?vid=d80dcc85-adff-430d-be95-5fe6606b1e9d","ios":"levelo://app?vid=d80dcc85-adff-430d-be95-5fe6606b1e9d"},"vehicle_type_id":"4","last_reported":1730790546,"current_range_meters":7200,"station_id":"ce4bgrh2rcd13ifvqc8g","pricing_plan_id":"cebpf4jnsgd1na2vs0mg"},{"bike_id":"acdea68a-7783-4908-bf21-09a59a510c29","system_id":"levelo_inurba_marseille","lat":43.31345,"lon":5.36714,"is_reserved":false,"is_disabled":false,"rental_uris":{"android":"levelo://app?vid=acdea68a-7783-4908-bf21-09a59a510c29","ios":"levelo://app?vid=acdea68a-7783-4908-bf21-09a59a510c29"},"vehicle_type_id":"4","last_reported":1730790546,"current_range_meters":24400,"station_id":"ce4bgr92rcd13ifvqc6g","pricing_plan_id":"cebpf4jnsgd1na2vs0mg"},{"bike_id":"3e79c2aa-fdd3-4faa-b82f-208bc9f24284","system_id":"levelo_inurba_marseille","lat":43.30426,"lon":5.38885,"is_reserved":false,"is_disabled":false,"rental_uris":{"android":"levelo://app?vid=3e79c2aa-fdd3-4faa-b82f-208bc9f24284","ios":"levelo://app?vid=3e79c2aa-fdd3-4faa-b82f-208bc9f24284"},"vehicle_type_id":"4","last_reported":1730790546,"current_range_meters":29600,"station_id":"ce4bgt12rcd13ifvqcd0","pricing_plan_id":"cebpf4jnsgd1na2vs0mg"},{"bike_id":"266bf1d3-a394-4561-89c0-b7887d92fd8c","system_id":"levelo_inurba_marseille","lat":43.30151,"lon":5.38077,"is_reserved":false,"is_disabled":false,"rental_uris":{"android":"levelo://app?vid=266bf1d3-a394-4561-89c0-b7887d92fd8c","ios":"levelo://app?vid=266bf1d3-a394-4561-89c0-b7887d92fd8c"},"vehicle_type_id":"4","last_reported":1730790546,"current_range_meters":36400,"station_id":"ce4bgjp2rcd13ifvqbh0","pricing_plan_id":"cebpf4jnsgd1na2vs0mg"},{"bike_id":"f2b92d8c-3227-448f-8678-9820255ccff4","system_id":"levelo_inurba_marseille","lat":43.30467,"lon":5.37902,"is_reserved":false,"is_disabled":false,"rental_uris":{"android":"levelo://app?vid=f2b92d8c-3227-448f-8678-9820255ccff4","ios":"levelo://app?vid=f2b92d8c-3227-448f-8678-9820255ccff4"},"vehicle_type_id":"4","last_reported":1730790546,"current_range_meters":36400,"station_id":"ce4bgup2rcd13ifvqcn0","pricing_plan_id":"cebpf4jnsgd1na2vs0mg"},{"bike_id":"8d5faf28-e526-4d5b-93d3-399bd2cb1046","system_id":"levelo_inurba_marseille","lat":43.3175,"lon":5.39016,"is_reserved":false,"is_disabled":false,"rental_uris":{"android":"levelo://app?vid=8d5faf28-e526-4d5b-93d3-399bd2cb1046","ios":"levelo://app?vid=8d5faf28-e526-4d5b-93d3-399bd2cb1046"},"vehicle_type_id":"4","last_reported":1730790546,"current_range_meters":10000,"station_id":"ce4bhqp2rcd13ifvqhng","pricing_plan_id":"cebpf4jnsgd1na2vs0mg"},{"bike_id":"e40617b6-14fb-477c-9c14-1672c170fcb3","system_id":"levelo_inurba_marseille","lat":43.29701,"lon":5.37684,"is_reserved":false,"is_disabled":false,"rental_uris":{"android":"levelo://app?vid=e40617b6-14fb-477c-9c14-1672c170fcb3","ios":"levelo://app?vid=e40617b6-14fb-477c-9c14-1672c170fcb3"},"vehicle_type_id":"4","last_reported":1730790546,"current_range_meters":20400,"station_id":"ce4bgkh2rcd13ifvqbl0","pricing_plan_id":"cebpf4jnsgd1na2vs0mg"},{"bike_id":"4efe1719-2091-49a9-b407-f0f4961cf2b0","system_id":"levelo_inurba_marseille","lat":43.27493,"lon":5.4245,"is_reserved":false,"is_disabled":false,"rental_uris":{"android":"levelo://app?vid=4efe1719-2091-49a9-b407-f0f4961cf2b0","ios":"levelo://app?vid=4efe1719-2091-49a9-b407-f0f4961cf2b0"},"vehicle_type_id":"4","last_reported":1730790546,"current_range_meters":22400,"station_id":"ce4bhn92rcd13ifvqgrg","pricing_plan_id":"cebpf4jnsgd1na2vs0mg"},{"bike_id":"4d39a779-31fa-49e8-8dd7-1884b4a4ae25","system_id":"levelo_inurba_marseille","lat":43.26192,"lon":5.37447,"is_reserved":false,"is_disabled":false,"rental_uris":{"android":"levelo://app?vid=4d39a779-31fa-49e8-8dd7-1884b4a4ae25","ios":"levelo://app?vid=4d39a779-31fa-49e8-8dd7-1884b4a4ae25"},"vehicle_type_id":"4","last_reported":1730790546,"current_range_meters":4000,"station_id":"ce4bhgp2rcd13ifvqfc0","pricing_plan_id":"cebpf4jnsgd1na2vs0mg"},{"bike_id":"ebdf670e-00e3-4e88-862c-2434a0bd2020","system_id":"levelo_inurba_marseille","lat":43.26495,"lon":5.39538,"is_reserved":false,"is_disabled":false,"rental_uris":{"android":"levelo://app?vid=ebdf670e-00e3-4e88-862c-2434a0bd2020","ios":"levelo://app?vid=ebdf670e-00e3-4e88-862c-2434a0bd2020"},"vehicle_type_id":"4","last_reported":1730790546,"current_range_meters":37600,"station_id":"ce4bhi12rcd13ifvqfq0","pricing_plan_id":"cebpf4jnsgd1na2vs0mg"},{"bike_id":"023b1222-eae3-43b3-b738-e196ee54e0af","system_id":"levelo_inurba_marseille","lat":43.28613,"lon":5.35104,"is_reserved":false,"is_disabled":false,"rental_uris":{"android":"levelo://app?vid=023b1222-eae3-43b3-b738-e196ee54e0af","ios":"levelo://app?vid=023b1222-eae3-43b3-b738-e196ee54e0af"},"vehicle_type_id":"4","last_reported":1730790546,"current_range_meters":28000,"station_id":"ce4bhch2rcd13ifvqeug","pricing_plan_id":"cebpf4jnsgd1na2vs0mg"},{"bike_id":"787cbbf1-8a16-4036-a887-f9fe8b339162","system_id":"levelo_inurba_marseille","lat":43.27495,"lon":5.42445,"is_reserved":false,"is_disabled":false,"rental_uris":{"android":"levelo://app?vid=787cbbf1-8a16-4036-a887-f9fe8b339162","ios":"levelo://app?vid=787cbbf1-8a16-4036-a887-f9fe8b339162"},"vehicle_type_id":"4","last_reported":1730790546,"current_range_meters":32800,"station_id":"ce4bhn92rcd13ifvqgrg","pricing_plan_id":"cebpf4jnsgd1na2vs0mg"},{"bike_id":"35658ac9-dd9b-4153-90ed-59b2879f5e19","system_id":"levelo_inurba_marseille","lat":43.30596,"lon":5.39364,"is_reserved":false,"is_disabled":false,"rental_uris":{"android":"levelo://app?vid=35658ac9-dd9b-4153-90ed-59b2879f5e19","ios":"levelo://app?vid=35658ac9-dd9b-4153-90ed-59b2879f5e19"},"vehicle_type_id":"4","last_reported":1730790546,"current_range_meters":38000,"station_id":"ce4bh0p2rcd13ifvqd80","pricing_plan_id":"cebpf4jnsgd1na2vs0mg"},{"bike_id":"f2c092a2-0134-4ce9-b755-7ee8d58ab87c","system_id":"levelo_inurba_marseille","lat":43.27103,"lon":5.38179,"is_reserved":false,"is_disabled":false,"rental_uris":{"android":"levelo://app?vid=f2c092a2-0134-4ce9-b755-7ee8d58ab87c","ios":"levelo://app?vid=f2c092a2-0134-4ce9-b755-7ee8d58ab87c"},"vehicle_type_id":"4","last_reported":1730790546,"current_range_meters":23200,"station_id":"","pricing_plan_id":"cebpf4jnsgd1na2vs0mg"},{"bike_id":"f38b74f1-091f-4a53-be86-f11ff6a2b03b","system_id":"levelo_inurba_marseille","lat":43.24072,"lon":5.37757,"is_reserved":false,"is_disabled":false,"rental_uris":{"android":"levelo://app?vid=f38b74f1-091f-4a53-be86-f11ff6a2b03b","ios":"levelo://app?vid=f38b74f1-091f-4a53-be86-f11ff6a2b03b"},"vehicle_type_id":"4","last_reported":1730790546,"current_range_meters":37600,"station_id":"ce4bhnp2rcd13ifvqgvg","pricing_plan_id":"cebpf4jnsgd1na2vs0mg"},{"bike_id":"576c5343-e842-4ace-8ef5-4494705c6e20","system_id":"levelo_inurba_marseille","lat":43.27511,"lon":5.42419,"is_reserved":false,"is_disabled":false,"rental_uris":{"android":"levelo://app?vid=576c5343-e842-4ace-8ef5-4494705c6e20","ios":"levelo://app?vid=576c5343-e842-4ace-8ef5-4494705c6e20"},"vehicle_type_id":"4","last_reported":1730790546,"current_range_meters":24000,"station_id":"ce4bhn92rcd13ifvqgrg","pricing_plan_id":"cebpf4jnsgd1na2vs0mg"},{"bike_id":"b498b98d-e880-4ac2-b168-2cbbc804a79b","system_id":"levelo_inurba_marseille","lat":43.26683,"lon":5.38268,"is_reserved":false,"is_disabled":false,"rental_uris":{"android":"levelo://app?vid=b498b98d-e880-4ac2-b168-2cbbc804a79b","ios":"levelo://app?vid=b498b98d-e880-4ac2-b168-2cbbc804a79b"},"vehicle_type_id":"4","last_reported":1730790546,"current_range_meters":26800,"station_id":"ce4bhg92rcd13ifvqf90","pricing_plan_id":"cebpf4jnsgd1na2vs0mg"},{"bike_id":"cf6cfa68-3379-435c-87aa-74e681188118","system_id":"levelo_inurba_marseille","lat":43.28343,"lon":5.38114,"is_reserved":false,"is_disabled":false,"rental_uris":{"android":"levelo://app?vid=cf6cfa68-3379-435c-87aa-74e681188118","ios":"levelo://app?vid=cf6cfa68-3379-435c-87aa-74e681188118"},"vehicle_type_id":"4","last_reported":1730790546,"current_range_meters":6800,"station_id":"ce4bh412rcd13ifvqdr0","pricing_plan_id":"cebpf4jnsgd1na2vs0mg"},{"bike_id":"5eeefd11-649c-499f-9856-2a20cd33e6cb","system_id":"levelo_inurba_marseille","lat":43.30539,"lon":5.36715,"is_reserved":false,"is_disabled":false,"rental_uris":{"android":"levelo://app?vid=5eeefd11-649c-499f-9856-2a20cd33e6cb","ios":"levelo://app?vid=5eeefd11-649c-499f-9856-2a20cd33e6cb"},"vehicle_type_id":"4","last_reported":1730790546,"current_range_meters":12000,"station_id":"ce4bgrp2rcd13ifvqc9g","pricing_plan_id":"cebpf4jnsgd1na2vs0mg"},{"bike_id":"9e5648ee-3136-4473-b193-c15e3c8e6053","system_id":"levelo_inurba_marseille","lat":43.3063,"lon":5.39397,"is_reserved":false,"is_disabled":false,"rental_uris":{"android":"levelo://app?vid=9e5648ee-3136-4473-b193-c15e3c8e6053","ios":"levelo://app?vid=9e5648ee-3136-4473-b193-c15e3c8e6053"},"vehicle_type_id":"4","last_reported":1730790546,"current_range_meters":32000,"station_id":"ce4bh0p2rcd13ifvqd80","pricing_plan_id":"cebpf4jnsgd1na2vs0mg"},{"bike_id":"c6f2d6b8-e6ec-4021-897e-e15083965435","system_id":"levelo_inurba_marseille","lat":43.29809,"lon":5.38096,"is_reserved":false,"is_disabled":false,"rental_uris":{"android":"levelo://app?vid=c6f2d6b8-e6ec-4021-897e-e15083965435","ios":"levelo://app?vid=c6f2d6b8-e6ec-4021-897e-e15083965435"},"vehicle_type_id":"4","last_reported":1730790546,"current_range_meters":37600,"station_id":"ce4bgip2rcd13ifvqbb0","pricing_plan_id":"cebpf4jnsgd1na2vs0mg"},{"bike_id":"f86c9574-8ca7-44b4-bc15-515286b172c4","system_id":"levelo_inurba_marseille","lat":43.29422,"lon":5.38608,"is_reserved":false,"is_disabled":false,"rental_uris":{"android":"levelo://app?vid=f86c9574-8ca7-44b4-bc15-515286b172c4","ios":"levelo://app?vid=f86c9574-8ca7-44b4-bc15-515286b172c4"},"vehicle_type_id":"4","last_reported":1730790546,"current_range_meters":18000,"station_id":"ce4bh2h2rcd13ifvqdh0","pricing_plan_id":"cebpf4jnsgd1na2vs0mg"},{"bike_id":"1a262795-7407-49d2-b8b5-844e6a51667f","system_id":"levelo_inurba_marseille","lat":43.29247,"lon":5.36111,"is_reserved":false,"is_disabled":false,"rental_uris":{"android":"levelo://app?vid=1a262795-7407-49d2-b8b5-844e6a51667f","ios":"levelo://app?vid=1a262795-7407-49d2-b8b5-844e6a51667f"},"vehicle_type_id":"4","last_reported":1730790546,"current_range_meters":24000,"station_id":"ce4bhbh2rcd13ifvqeqg","pricing_plan_id":"cebpf4jnsgd1na2vs0mg"},{"bike_id":"d4472d20-9c4b-4c70-ad00-3a005519a429","system_id":"levelo_inurba_marseille","lat":43.35344,"lon":5.35738,"is_reserved":false,"is_disabled":false,"rental_uris":{"android":"levelo://app?vid=d4472d20-9c4b-4c70-ad00-3a005519a429","ios":"levelo://app?vid=d4472d20-9c4b-4c70-ad00-3a005519a429"},"vehicle_type_id":"4","last_reported":1730790546,"current_range_meters":6400,"station_id":"","pricing_plan_id":"cebpf4jnsgd1na2vs0mg"},{"bike_id":"d112ef64-8345-40dc-a437-a0aa8c5bd57d","system_id":"levelo_inurba_marseille","lat":43.30537,"lon":5.36706,"is_reserved":false,"is_disabled":false,"rental_uris":{"android":"levelo://app?vid=d112ef64-8345-40dc-a437-a0aa8c5bd57d","ios":"levelo://app?vid=d112ef64-8345-40dc-a437-a0aa8c5bd57d"},"vehicle_type_id":"4","last_reported":1730790546,"current_range_meters":39200,"station_id":"ce4bgrp2rcd13ifvqc9g","pricing_plan_id":"cebpf4jnsgd1na2vs0mg"},{"bike_id":"646f23ea-6f5b-46cb-938a-23147df2edeb","system_id":"levelo_inurba_marseille","lat":43.26562,"lon":5.39008,"is_reserved":false,"is_disabled":false,"rental_uris":{"android":"levelo://app?vid=646f23ea-6f5b-46cb-938a-23147df2edeb","ios":"levelo://app?vid=646f23ea-6f5b-46cb-938a-23147df2edeb"},"vehicle_type_id":"4","last_reported":1730790546,"current_range_meters":35200,"station_id":"ce4bhe12rcd13ifvqf30","pricing_plan_id":"cebpf4jnsgd1na2vs0mg"},{"bike_id":"9f2f07ca-ed72-45fd-8cb1-ade9ac1ceae0","system_id":"levelo_inurba_marseille","lat":43.30582,"lon":5.39346,"is_reserved":false,"is_disabled":false,"rental_uris":{"android":"levelo://app?vid=9f2f07ca-ed72-45fd-8cb1-ade9ac1ceae0","ios":"levelo://app?vid=9f2f07ca-ed72-45fd-8cb1-ade9ac1ceae0"},"vehicle_type_id":"4","last_reported":1730790546,"current_range_meters":20400,"station_id":"ce4bh0p2rcd13ifvqd80","pricing_plan_id":"cebpf4jnsgd1na2vs0mg"},{"bike_id":"81a22c70-72e4-4626-bce3-8831f93a880b","system_id":"levelo_inurba_marseille","lat":43.29023,"lon":5.38639,"is_reserved":false,"is_disabled":false,"rental_uris":{"android":"levelo://app?vid=81a22c70-72e4-4626-bce3-8831f93a880b","ios":"levelo://app?vid=81a22c70-72e4-4626-bce3-8831f93a880b"},"vehicle_type_id":"4","last_reported":1730790546,"current_range_meters":33200,"station_id":"ce4bh4p2rcd13ifvqe0g","pricing_plan_id":"cebpf4jnsgd1na2vs0mg"},{"bike_id":"adf94568-f560-4501-938c-780d1b506fa8","system_id":"levelo_inurba_marseille","lat":43.3055,"lon":5.36551,"is_reserved":false,"is_disabled":false,"rental_uris":{"android":"levelo://app?vid=adf94568-f560-4501-938c-780d1b506fa8","ios":"levelo://app?vid=adf94568-f560-4501-938c-780d1b506fa8"},"vehicle_type_id":"4","last_reported":1730790546,"current_range_meters":30400,"station_id":"ce4bgr92rcd13ifvqc6g","pricing_plan_id":"cebpf4jnsgd1na2vs0mg"},{"bike_id":"fb9211ad-f882-4d24-b224-878b8c9de3db","system_id":"levelo_inurba_marseille","lat":43.23964,"lon":5.36633,"is_reserved":false,"is_disabled":false,"rental_uris":{"android":"levelo://app?vid=fb9211ad-f882-4d24-b224-878b8c9de3db","ios":"levelo://app?vid=fb9211ad-f882-4d24-b224-878b8c9de3db"},"vehicle_type_id":"4","last_reported":1730790546,"current_range_meters":36000,"station_id":"ce4bhi12rcd13ifvqfp0","pricing_plan_id":"cebpf4jnsgd1na2vs0mg"},{"bike_id":"03af2921-f916-4168-bf52-39c98ef585d1","system_id":"levelo_inurba_marseille","lat":43.2747,"lon":5.39725,"is_reserved":false,"is_disabled":false,"rental_uris":{"android":"levelo://app?vid=03af2921-f916-4168-bf52-39c98ef585d1","ios":"levelo://app?vid=03af2921-f916-4168-bf52-39c98ef585d1"},"vehicle_type_id":"4","last_reported":1730790546,"current_range_meters":4400,"station_id":"","pricing_plan_id":"cebpf4jnsgd1na2vs0mg"},{"bike_id":"1188b6aa-11b7-4349-89c8-b72ebc2cdf8c","system_id":"levelo_inurba_marseille","lat":43.32542,"lon":5.41428,"is_reserved":false,"is_disabled":false,"rental_uris":{"android":"levelo://app?vid=1188b6aa-11b7-4349-89c8-b72ebc2cdf8c","ios":"levelo://app?vid=1188b6aa-11b7-4349-89c8-b72ebc2cdf8c"},"vehicle_type_id":"4","last_reported":1730790546,"current_range_meters":36400,"station_id":"ce4bhq12rcd13ifvqhhg","pricing_plan_id":"cebpf4jnsgd1na2vs0mg"},{"bike_id":"270381d7-813e-4fd2-8243-d2548c2487cb","system_id":"levelo_inurba_marseille","lat":43.30458,"lon":5.37913,"is_reserved":false,"is_disabled":false,"rental_uris":{"android":"levelo://app?vid=270381d7-813e-4fd2-8243-d2548c2487cb","ios":"levelo://app?vid=270381d7-813e-4fd2-8243-d2548c2487cb"},"vehicle_type_id":"4","last_reported":1730790546,"current_range_meters":24400,"station_id":"ce4bgup2rcd13ifvqcn0","pricing_plan_id":"cebpf4jnsgd1na2vs0mg"},{"bike_id":"a71e1385-bf87-447c-a725-6949010614d8","system_id":"levelo_inurba_marseille","lat":43.30593,"lon":5.39353,"is_reserved":false,"is_disabled":false,"rental_uris":{"android":"levelo://app?vid=a71e1385-bf87-447c-a725-6949010614d8","ios":"levelo://app?vid=a71e1385-bf87-447c-a725-6949010614d8"},"vehicle_type_id":"4","last_reported":1730790546,"current_range_meters":36000,"station_id":"ce4bh0p2rcd13ifvqd80","pricing_plan_id":"cebpf4jnsgd1na2vs0mg"},{"bike_id":"86fdcbc5-63fa-42b4-8cca-12cbfde2fb08","system_id":"levelo_inurba_marseille","lat":43.28834,"lon":5.39302,"is_reserved":false,"is_disabled":false,"rental_uris":{"android":"levelo://app?vid=86fdcbc5-63fa-42b4-8cca-12cbfde2fb08","ios":"levelo://app?vid=86fdcbc5-63fa-42b4-8cca-12cbfde2fb08"},"vehicle_type_id":"4","last_reported":1730790546,"current_range_meters":21600,"station_id":"ce4bh2p2rcd13ifvqdi0","pricing_plan_id":"cebpf4jnsgd1na2vs0mg"},{"bike_id":"15038621-f50b-4d83-b76d-65a0390ac4ac","system_id":"levelo_inurba_marseille","lat":43.27489,"lon":5.42454,"is_reserved":false,"is_disabled":false,"rental_uris":{"android":"levelo://app?vid=15038621-f50b-4d83-b76d-65a0390ac4ac","ios":"levelo://app?vid=15038621-f50b-4d83-b76d-65a0390ac4ac"},"vehicle_type_id":"4","last_reported":1730790546,"current_range_meters":32800,"station_id":"ce4bhn92rcd13ifvqgrg","pricing_plan_id":"cebpf4jnsgd1na2vs0mg"},{"bike_id":"89ed3898-5787-41f0-8b05-9f68f5efd265","system_id":"levelo_inurba_marseille","lat":43.30146,"lon":5.38086,"is_reserved":false,"is_disabled":false,"rental_uris":{"android":"levelo://app?vid=89ed3898-5787-41f0-8b05-9f68f5efd265","ios":"levelo://app?vid=89ed3898-5787-41f0-8b05-9f68f5efd265"},"vehicle_type_id":"4","last_reported":1730790546,"current_range_meters":30400,"station_id":"ce4bgjp2rcd13ifvqbh0","pricing_plan_id":"cebpf4jnsgd1na2vs0mg"},{"bike_id":"2dd40e8a-347a-4069-9f04-901c41b0a3c7","system_id":"levelo_inurba_marseille","lat":43.320991,"lon":5.36776,"is_reserved":false,"is_disabled":false,"rental_uris":{"android":"levelo://app?vid=2dd40e8a-347a-4069-9f04-901c41b0a3c7","ios":"levelo://app?vid=2dd40e8a-347a-4069-9f04-901c41b0a3c7"},"vehicle_type_id":"4","last_reported":1730790546,"current_range_meters":37600,"station_id":"ce4bhrh2rcd13ifvqhug","pricing_plan_id":"cebpf4jnsgd1na2vs0mg"},{"bike_id":"15cd3dd1-f670-47aa-98e2-85d97dd3b37e","system_id":"levelo_inurba_marseille","lat":43.29955,"lon":5.41316,"is_reserved":false,"is_disabled":false,"rental_uris":{"android":"levelo://app?vid=15cd3dd1-f670-47aa-98e2-85d97dd3b37e","ios":"levelo://app?vid=15cd3dd1-f670-47aa-98e2-85d97dd3b37e"},"vehicle_type_id":"4","last_reported":1730790546,"current_range_meters":38800,"station_id":"ce4bhp12rcd13ifvqh9g","pricing_plan_id":"cebpf4jnsgd1na2vs0mg"},{"bike_id":"b5cfe011-2e93-4a45-9f61-446166c87e34","system_id":"levelo_inurba_marseille","lat":43.28352,"lon":5.38108,"is_reserved":false,"is_disabled":false,"rental_uris":{"android":"levelo://app?vid=b5cfe011-2e93-4a45-9f61-446166c87e34","ios":"levelo://app?vid=b5cfe011-2e93-4a45-9f61-446166c87e34"},"vehicle_type_id":"4","last_reported":1730790546,"current_range_meters":33600,"station_id":"ce4bh412rcd13ifvqdr0","pricing_plan_id":"cebpf4jnsgd1na2vs0mg"},{"bike_id":"dfda8b1c-5739-4d46-bcee-9938ea212ccb","system_id":"levelo_inurba_marseille","lat":43.28093,"lon":5.40668,"is_reserved":false,"is_disabled":false,"rental_uris":{"android":"levelo://app?vid=dfda8b1c-5739-4d46-bcee-9938ea212ccb","ios":"levelo://app?vid=dfda8b1c-5739-4d46-bcee-9938ea212ccb"},"vehicle_type_id":"4","last_reported":1730790546,"current_range_meters":25200,"station_id":"","pricing_plan_id":"cebpf4jnsgd1na2vs0mg"},{"bike_id":"b1bdefc7-c158-401e-984b-6f3e55eab50a","system_id":"levelo_inurba_marseille","lat":43.28945,"lon":5.36396,"is_reserved":false,"is_disabled":false,"rental_uris":{"android":"levelo://app?vid=b1bdefc7-c158-401e-984b-6f3e55eab50a","ios":"levelo://app?vid=b1bdefc7-c158-401e-984b-6f3e55eab50a"},"vehicle_type_id":"4","last_reported":1730790546,"current_range_meters":12400,"station_id":"ce4bhc92rcd13ifvqetg","pricing_plan_id":"cebpf4jnsgd1na2vs0mg"},{"bike_id":"c8a2d708-abe4-4e54-aedc-a081f8a474e1","system_id":"levelo_inurba_marseille","lat":43.24081,"lon":5.37754,"is_reserved":false,"is_disabled":false,"rental_uris":{"android":"levelo://app?vid=c8a2d708-abe4-4e54-aedc-a081f8a474e1","ios":"levelo://app?vid=c8a2d708-abe4-4e54-aedc-a081f8a474e1"},"vehicle_type_id":"4","last_reported":1730790546,"current_range_meters":18800,"station_id":"ce4bhnp2rcd13ifvqgvg","pricing_plan_id":"cebpf4jnsgd1na2vs0mg"},{"bike_id":"7f07a7c6-bc6e-466a-b5b9-678e9e65525e","system_id":"levelo_inurba_marseille","lat":43.30531,"lon":5.36713,"is_reserved":false,"is_disabled":false,"rental_uris":{"android":"levelo://app?vid=7f07a7c6-bc6e-466a-b5b9-678e9e65525e","ios":"levelo://app?vid=7f07a7c6-bc6e-466a-b5b9-678e9e65525e"},"vehicle_type_id":"4","last_reported":1730790546,"current_range_meters":33600,"station_id":"ce4bgrp2rcd13ifvqc9g","pricing_plan_id":"cebpf4jnsgd1na2vs0mg"},{"bike_id":"7ddf4dd9-e8f9-4545-aaa1-ba04aaba824c","system_id":"levelo_inurba_marseille","lat":43.31075,"lon":5.38345,"is_reserved":false,"is_disabled":false,"rental_uris":{"android":"levelo://app?vid=7ddf4dd9-e8f9-4545-aaa1-ba04aaba824c","ios":"levelo://app?vid=7ddf4dd9-e8f9-4545-aaa1-ba04aaba824c"},"vehicle_type_id":"4","last_reported":1730790546,"current_range_meters":38800,"station_id":"ce4bgv92rcd13ifvqcr0","pricing_plan_id":"cebpf4jnsgd1na2vs0mg"},{"bike_id":"b0a0a404-93a0-4dc9-b1e0-d43f17c83d6c","system_id":"levelo_inurba_marseille","lat":43.30137,"lon":5.38083,"is_reserved":false,"is_disabled":false,"rental_uris":{"android":"levelo://app?vid=b0a0a404-93a0-4dc9-b1e0-d43f17c83d6c","ios":"levelo://app?vid=b0a0a404-93a0-4dc9-b1e0-d43f17c83d6c"},"vehicle_type_id":"4","last_reported":1730790546,"current_range_meters":36800,"station_id":"ce4bgjp2rcd13ifvqbh0","pricing_plan_id":"cebpf4jnsgd1na2vs0mg"},{"bike_id":"530203fa-76c5-4969-8d10-d258b8821747","system_id":"levelo_inurba_marseille","lat":43.31346,"lon":5.36715,"is_reserved":false,"is_disabled":false,"rental_uris":{"android":"levelo://app?vid=530203fa-76c5-4969-8d10-d258b8821747","ios":"levelo://app?vid=530203fa-76c5-4969-8d10-d258b8821747"},"vehicle_type_id":"4","last_reported":1730790546,"current_range_meters":38400,"station_id":"ce4bgr92rcd13ifvqc6g","pricing_plan_id":"cebpf4jnsgd1na2vs0mg"},{"bike_id":"476b1032-3456-4e75-9225-7aec38b7121d","system_id":"levelo_inurba_marseille","lat":43.27813,"lon":5.40713,"is_reserved":false,"is_disabled":false,"rental_uris":{"android":"levelo://app?vid=476b1032-3456-4e75-9225-7aec38b7121d","ios":"levelo://app?vid=476b1032-3456-4e75-9225-7aec38b7121d"},"vehicle_type_id":"4","last_reported":1730790546,"current_range_meters":24000,"station_id":"ce4bhnh2rcd13ifvqgtg","pricing_plan_id":"cebpf4jnsgd1na2vs0mg"},{"bike_id":"bdde6b7b-ba8c-4d13-b147-d10426e579cd","system_id":"levelo_inurba_marseille","lat":43.31078,"lon":5.38342,"is_reserved":false,"is_disabled":false,"rental_uris":{"android":"levelo://app?vid=bdde6b7b-ba8c-4d13-b147-d10426e579cd","ios":"levelo://app?vid=bdde6b7b-ba8c-4d13-b147-d10426e579cd"},"vehicle_type_id":"4","last_reported":1730790546,"current_range_meters":38800,"station_id":"ce4bgv92rcd13ifvqcr0","pricing_plan_id":"cebpf4jnsgd1na2vs0mg"},{"bike_id":"4c5f3fbb-e665-4d3a-af8f-239bf9239d07","system_id":"levelo_inurba_marseille","lat":43.26774,"lon":5.39418,"is_reserved":false,"is_disabled":false,"rental_uris":{"android":"levelo://app?vid=4c5f3fbb-e665-4d3a-af8f-239bf9239d07","ios":"levelo://app?vid=4c5f3fbb-e665-4d3a-af8f-239bf9239d07"},"vehicle_type_id":"4","last_reported":1730790546,"current_range_meters":32400,"station_id":"ce4bhh12rcd13ifvqfg0","pricing_plan_id":"cebpf4jnsgd1na2vs0mg"},{"bike_id":"98ecf52e-74c6-45bc-a5b2-06c6ca5d158c","system_id":"levelo_inurba_marseille","lat":43.30908,"lon":5.36851,"is_reserved":false,"is_disabled":false,"rental_uris":{"android":"levelo://app?vid=98ecf52e-74c6-45bc-a5b2-06c6ca5d158c","ios":"levelo://app?vid=98ecf52e-74c6-45bc-a5b2-06c6ca5d158c"},"vehicle_type_id":"4","last_reported":1730790546,"current_range_meters":38000,"station_id":"ce4bgn92rcd13ifvqbvg","pricing_plan_id":"cebpf4jnsgd1na2vs0mg"},{"bike_id":"0d6389f7-bab8-4ebf-ad74-7e0fecb405b9","system_id":"levelo_inurba_marseille","lat":43.31363,"lon":5.36691,"is_reserved":false,"is_disabled":false,"rental_uris":{"android":"levelo://app?vid=0d6389f7-bab8-4ebf-ad74-7e0fecb405b9","ios":"levelo://app?vid=0d6389f7-bab8-4ebf-ad74-7e0fecb405b9"},"vehicle_type_id":"4","last_reported":1730790546,"current_range_meters":35200,"station_id":"ce4bgr92rcd13ifvqc6g","pricing_plan_id":"cebpf4jnsgd1na2vs0mg"},{"bike_id":"3ef99431-3adb-46de-97da-821b1b9d3028","system_id":"levelo_inurba_marseille","lat":43.269482,"lon":5.402404,"is_reserved":false,"is_disabled":false,"rental_uris":{"android":"levelo://app?vid=3ef99431-3adb-46de-97da-821b1b9d3028","ios":"levelo://app?vid=3ef99431-3adb-46de-97da-821b1b9d3028"},"vehicle_type_id":"4","last_reported":1730790546,"current_range_meters":38000,"station_id":"cjm6bp8fraef2m0cb0m0","pricing_plan_id":"cebpf4jnsgd1na2vs0mg"},{"bike_id":"05b4e8e2-503b-4b13-84df-43b0d01fb6c8","system_id":"levelo_inurba_marseille","lat":43.31063,"lon":5.3835,"is_reserved":false,"is_disabled":false,"rental_uris":{"android":"levelo://app?vid=05b4e8e2-503b-4b13-84df-43b0d01fb6c8","ios":"levelo://app?vid=05b4e8e2-503b-4b13-84df-43b0d01fb6c8"},"vehicle_type_id":"4","last_reported":1730790546,"current_range_meters":18000,"station_id":"ce4bgv92rcd13ifvqcr0","pricing_plan_id":"cebpf4jnsgd1na2vs0mg"},{"bike_id":"033f334e-6f83-4820-bc5c-a56f642ac0d6","system_id":"levelo_inurba_marseille","lat":43.307526,"lon":5.401219,"is_reserved":false,"is_disabled":false,"rental_uris":{"android":"levelo://app?vid=033f334e-6f83-4820-bc5c-a56f642ac0d6","ios":"levelo://app?vid=033f334e-6f83-4820-bc5c-a56f642ac0d6"},"vehicle_type_id":"4","last_reported":1730790546,"current_range_meters":38400,"station_id":"","pricing_plan_id":"cebpf4jnsgd1na2vs0mg"},{"bike_id":"babee0bf-1471-45ce-9bf3-8c965686e735","system_id":"levelo_inurba_marseille","lat":43.30144,"lon":5.37411,"is_reserved":false,"is_disabled":false,"rental_uris":{"android":"levelo://app?vid=babee0bf-1471-45ce-9bf3-8c965686e735","ios":"levelo://app?vid=babee0bf-1471-45ce-9bf3-8c965686e735"},"vehicle_type_id":"4","last_reported":1730790546,"current_range_meters":38400,"station_id":"ce4bgs92rcd13ifvqcc0","pricing_plan_id":"cebpf4jnsgd1na2vs0mg"},{"bike_id":"ba8f5d9a-4861-4465-b828-23e2245ef053","system_id":"levelo_inurba_marseille","lat":43.23175,"lon":5.39978,"is_reserved":false,"is_disabled":false,"rental_uris":{"android":"levelo://app?vid=ba8f5d9a-4861-4465-b828-23e2245ef053","ios":"levelo://app?vid=ba8f5d9a-4861-4465-b828-23e2245ef053"},"vehicle_type_id":"4","last_reported":1730790546,"current_range_meters":39200,"station_id":"ce4bhn12rcd13ifvqgqg","pricing_plan_id":"cebpf4jnsgd1na2vs0mg"},{"bike_id":"41c7ebb4-dfef-4f40-97df-f9ead2472eea","system_id":"levelo_inurba_marseille","lat":43.30463,"lon":5.37896,"is_reserved":false,"is_disabled":false,"rental_uris":{"android":"levelo://app?vid=41c7ebb4-dfef-4f40-97df-f9ead2472eea","ios":"levelo://app?vid=41c7ebb4-dfef-4f40-97df-f9ead2472eea"},"vehicle_type_id":"4","last_reported":1730790546,"current_range_meters":37600,"station_id":"ce4bgup2rcd13ifvqcn0","pricing_plan_id":"cebpf4jnsgd1na2vs0mg"},{"bike_id":"5b8f46d2-0726-4a5f-a9c0-70430fa0502c","system_id":"levelo_inurba_marseille","lat":43.25819,"lon":5.39437,"is_reserved":false,"is_disabled":false,"rental_uris":{"android":"levelo://app?vid=5b8f46d2-0726-4a5f-a9c0-70430fa0502c","ios":"levelo://app?vid=5b8f46d2-0726-4a5f-a9c0-70430fa0502c"},"vehicle_type_id":"4","last_reported":1730790546,"current_range_meters":25600,"station_id":"ce4bhip2rcd13ifvqft0","pricing_plan_id":"cebpf4jnsgd1na2vs0mg"},{"bike_id":"e9c24325-948c-40a0-9716-20b40a7d3bc5","system_id":"levelo_inurba_marseille","lat":43.26682,"lon":5.38274,"is_reserved":false,"is_disabled":false,"rental_uris":{"android":"levelo://app?vid=e9c24325-948c-40a0-9716-20b40a7d3bc5","ios":"levelo://app?vid=e9c24325-948c-40a0-9716-20b40a7d3bc5"},"vehicle_type_id":"4","last_reported":1730790546,"current_range_meters":36000,"station_id":"ce4bhg92rcd13ifvqf90","pricing_plan_id":"cebpf4jnsgd1na2vs0mg"},{"bike_id":"2e2e2f98-ae8a-4777-ab16-64544d13ca4b","system_id":"levelo_inurba_marseille","lat":43.28941,"lon":5.36637,"is_reserved":false,"is_disabled":false,"rental_uris":{"android":"levelo://app?vid=2e2e2f98-ae8a-4777-ab16-64544d13ca4b","ios":"levelo://app?vid=2e2e2f98-ae8a-4777-ab16-64544d13ca4b"},"vehicle_type_id":"4","last_reported":1730790546,"current_range_meters":9200,"station_id":"ce4bhap2rcd13ifvqek0","pricing_plan_id":"cebpf4jnsgd1na2vs0mg"},{"bike_id":"15de2ca6-28c5-4f21-a946-3c35db8b327d","system_id":"levelo_inurba_marseille","lat":43.24073,"lon":5.37751,"is_reserved":false,"is_disabled":false,"rental_uris":{"android":"levelo://app?vid=15de2ca6-28c5-4f21-a946-3c35db8b327d","ios":"levelo://app?vid=15de2ca6-28c5-4f21-a946-3c35db8b327d"},"vehicle_type_id":"4","last_reported":1730790546,"current_range_meters":39200,"station_id":"ce4bhnp2rcd13ifvqgvg","pricing_plan_id":"cebpf4jnsgd1na2vs0mg"},{"bike_id":"89613f0f-5b27-46f7-8ae5-dc5ac8fe7e35","system_id":"levelo_inurba_marseille","lat":43.25937,"lon":5.409,"is_reserved":false,"is_disabled":false,"rental_uris":{"android":"levelo://app?vid=89613f0f-5b27-46f7-8ae5-dc5ac8fe7e35","ios":"levelo://app?vid=89613f0f-5b27-46f7-8ae5-dc5ac8fe7e35"},"vehicle_type_id":"4","last_reported":1730790546,"current_range_meters":20800,"station_id":"ce4bhm92rcd13ifvqglg","pricing_plan_id":"cebpf4jnsgd1na2vs0mg"},{"bike_id":"7b4fe856-4dc7-41f6-b07c-6194ffb9d50b","system_id":"levelo_inurba_marseille","lat":43.25095,"lon":5.39523,"is_reserved":false,"is_disabled":false,"rental_uris":{"android":"levelo://app?vid=7b4fe856-4dc7-41f6-b07c-6194ffb9d50b","ios":"levelo://app?vid=7b4fe856-4dc7-41f6-b07c-6194ffb9d50b"},"vehicle_type_id":"4","last_reported":1730790546,"current_range_meters":36800,"station_id":"ce4bhm12rcd13ifvqgkg","pricing_plan_id":"cebpf4jnsgd1na2vs0mg"},{"bike_id":"aa2395f8-9d30-4a27-9bdc-78c2fe515d0c","system_id":"levelo_inurba_marseille","lat":43.31082,"lon":5.42428,"is_reserved":false,"is_disabled":false,"rental_uris":{"android":"levelo://app?vid=aa2395f8-9d30-4a27-9bdc-78c2fe515d0c","ios":"levelo://app?vid=aa2395f8-9d30-4a27-9bdc-78c2fe515d0c"},"vehicle_type_id":"4","last_reported":1730790546,"current_range_meters":25200,"station_id":"ce4bhp92rcd13ifvqhag","pricing_plan_id":"cebpf4jnsgd1na2vs0mg"},{"bike_id":"5d1708ee-ea56-470e-a759-d68052530c0f","system_id":"levelo_inurba_marseille","lat":43.30645,"lon":5.40078,"is_reserved":false,"is_disabled":false,"rental_uris":{"android":"levelo://app?vid=5d1708ee-ea56-470e-a759-d68052530c0f","ios":"levelo://app?vid=5d1708ee-ea56-470e-a759-d68052530c0f"},"vehicle_type_id":"4","last_reported":1730790546,"current_range_meters":37600,"station_id":"ce4bh112rcd13ifvqda0","pricing_plan_id":"cebpf4jnsgd1na2vs0mg"},{"bike_id":"beeef4e4-0d45-4dfa-9ccc-aedb2ce31115","system_id":"levelo_inurba_marseille","lat":43.32108,"lon":5.36777,"is_reserved":false,"is_disabled":false,"rental_uris":{"android":"levelo://app?vid=beeef4e4-0d45-4dfa-9ccc-aedb2ce31115","ios":"levelo://app?vid=beeef4e4-0d45-4dfa-9ccc-aedb2ce31115"},"vehicle_type_id":"4","last_reported":1730790546,"current_range_meters":27200,"station_id":"ce4bhrh2rcd13ifvqhug","pricing_plan_id":"cebpf4jnsgd1na2vs0mg"},{"bike_id":"d7eba0bc-553a-47d4-8bc6-a467f428147a","system_id":"levelo_inurba_marseille","lat":43.3135,"lon":5.36712,"is_reserved":false,"is_disabled":false,"rental_uris":{"android":"levelo://app?vid=d7eba0bc-553a-47d4-8bc6-a467f428147a","ios":"levelo://app?vid=d7eba0bc-553a-47d4-8bc6-a467f428147a"},"vehicle_type_id":"4","last_reported":1730790546,"current_range_meters":30400,"station_id":"ce4bgr92rcd13ifvqc6g","pricing_plan_id":"cebpf4jnsgd1na2vs0mg"},{"bike_id":"872d7432-0b84-48ff-bdba-08c29ea10c3b","system_id":"levelo_inurba_marseille","lat":43.29042,"lon":5.39961,"is_reserved":false,"is_disabled":false,"rental_uris":{"android":"levelo://app?vid=872d7432-0b84-48ff-bdba-08c29ea10c3b","ios":"levelo://app?vid=872d7432-0b84-48ff-bdba-08c29ea10c3b"},"vehicle_type_id":"4","last_reported":1730790546,"current_range_meters":4400,"station_id":"ce4bh392rcd13ifvqdm0","pricing_plan_id":"cebpf4jnsgd1na2vs0mg"},{"bike_id":"176ff4e6-f708-4c06-812b-5b1de7ea63cb","system_id":"levelo_inurba_marseille","lat":43.2925,"lon":5.40911,"is_reserved":false,"is_disabled":false,"rental_uris":{"android":"levelo://app?vid=176ff4e6-f708-4c06-812b-5b1de7ea63cb","ios":"levelo://app?vid=176ff4e6-f708-4c06-812b-5b1de7ea63cb"},"vehicle_type_id":"4","last_reported":1730790546,"current_range_meters":38400,"station_id":"ce4bh192rcd13ifvqdc0","pricing_plan_id":"cebpf4jnsgd1na2vs0mg"},{"bike_id":"71721fe2-35d7-41f2-9225-983e1943836f","system_id":"levelo_inurba_marseille","lat":43.33757,"lon":5.37461,"is_reserved":false,"is_disabled":false,"rental_uris":{"android":"levelo://app?vid=71721fe2-35d7-41f2-9225-983e1943836f","ios":"levelo://app?vid=71721fe2-35d7-41f2-9225-983e1943836f"},"vehicle_type_id":"4","last_reported":1730790546,"current_range_meters":38800,"station_id":"","pricing_plan_id":"cebpf4jnsgd1na2vs0mg"},{"bike_id":"3efb82fc-c92d-4ec5-a741-2428a9896075","system_id":"levelo_inurba_marseille","lat":43.30151,"lon":5.38076,"is_reserved":false,"is_disabled":false,"rental_uris":{"android":"levelo://app?vid=3efb82fc-c92d-4ec5-a741-2428a9896075","ios":"levelo://app?vid=3efb82fc-c92d-4ec5-a741-2428a9896075"},"vehicle_type_id":"4","last_reported":1730790546,"current_range_meters":35200,"station_id":"ce4bgjp2rcd13ifvqbh0","pricing_plan_id":"cebpf4jnsgd1na2vs0mg"},{"bike_id":"ffc3019b-6abc-4fee-b343-83b38a27b9cf","system_id":"levelo_inurba_marseille","lat":43.28154,"lon":5.42645,"is_reserved":false,"is_disabled":false,"rental_uris":{"android":"levelo://app?vid=ffc3019b-6abc-4fee-b343-83b38a27b9cf","ios":"levelo://app?vid=ffc3019b-6abc-4fee-b343-83b38a27b9cf"},"vehicle_type_id":"4","last_reported":1730790546,"current_range_meters":30800,"station_id":"ce4bhnh2rcd13ifvqgug","pricing_plan_id":"cebpf4jnsgd1na2vs0mg"},{"bike_id":"6292b7f5-e28f-401c-8237-52cebdb139cf","system_id":"levelo_inurba_marseille","lat":43.25823,"lon":5.39439,"is_reserved":false,"is_disabled":false,"rental_uris":{"android":"levelo://app?vid=6292b7f5-e28f-401c-8237-52cebdb139cf","ios":"levelo://app?vid=6292b7f5-e28f-401c-8237-52cebdb139cf"},"vehicle_type_id":"4","last_reported":1730790546,"current_range_meters":22800,"station_id":"ce4bhip2rcd13ifvqft0","pricing_plan_id":"cebpf4jnsgd1na2vs0mg"},{"bike_id":"697dd118-268c-406e-bad8-371dfe74ed47","system_id":"levelo_inurba_marseille","lat":43.317612,"lon":5.390069,"is_reserved":false,"is_disabled":false,"rental_uris":{"android":"levelo://app?vid=697dd118-268c-406e-bad8-371dfe74ed47","ios":"levelo://app?vid=697dd118-268c-406e-bad8-371dfe74ed47"},"vehicle_type_id":"4","last_reported":1730790546,"current_range_meters":35600,"station_id":"ce4bhqp2rcd13ifvqhng","pricing_plan_id":"cebpf4jnsgd1na2vs0mg"},{"bike_id":"2fc55c03-c366-494d-8fbd-38e5ed427fb4","system_id":"levelo_inurba_marseille","lat":43.27485,"lon":5.42454,"is_reserved":false,"is_disabled":false,"rental_uris":{"android":"levelo://app?vid=2fc55c03-c366-494d-8fbd-38e5ed427fb4","ios":"levelo://app?vid=2fc55c03-c366-494d-8fbd-38e5ed427fb4"},"vehicle_type_id":"4","last_reported":1730790546,"current_range_meters":37600,"station_id":"ce4bhn92rcd13ifvqgrg","pricing_plan_id":"cebpf4jnsgd1na2vs0mg"},{"bike_id":"cd6beada-9f09-4aef-8902-9ca2dfbf130c","system_id":"levelo_inurba_marseille","lat":43.326619,"lon":5.409865,"is_reserved":false,"is_disabled":false,"rental_uris":{"android":"levelo://app?vid=cd6beada-9f09-4aef-8902-9ca2dfbf130c","ios":"levelo://app?vid=cd6beada-9f09-4aef-8902-9ca2dfbf130c"},"vehicle_type_id":"4","last_reported":1730790546,"current_range_meters":38800,"station_id":"ce4bhpp2rcd13ifvqhgg","pricing_plan_id":"cebpf4jnsgd1na2vs0mg"},{"bike_id":"8d827c78-0176-46cb-8846-26b3afd0eebe","system_id":"levelo_inurba_marseille","lat":43.2847,"lon":5.38418,"is_reserved":false,"is_disabled":false,"rental_uris":{"android":"levelo://app?vid=8d827c78-0176-46cb-8846-26b3afd0eebe","ios":"levelo://app?vid=8d827c78-0176-46cb-8846-26b3afd0eebe"},"vehicle_type_id":"4","last_reported":1730790546,"current_range_meters":39200,"station_id":"ce4bh512rcd13ifvqe3g","pricing_plan_id":"cebpf4jnsgd1na2vs0mg"},{"bike_id":"3a4daf16-adfd-4e7e-964d-e1ce255aeee3","system_id":"levelo_inurba_marseille","lat":43.3254,"lon":5.41432,"is_reserved":false,"is_disabled":false,"rental_uris":{"android":"levelo://app?vid=3a4daf16-adfd-4e7e-964d-e1ce255aeee3","ios":"levelo://app?vid=3a4daf16-adfd-4e7e-964d-e1ce255aeee3"},"vehicle_type_id":"4","last_reported":1730790546,"current_range_meters":12400,"station_id":"ce4bhq12rcd13ifvqhhg","pricing_plan_id":"cebpf4jnsgd1na2vs0mg"},{"bike_id":"c76fc251-a418-400e-9280-0eacf2c8248d","system_id":"levelo_inurba_marseille","lat":43.28348,"lon":5.38105,"is_reserved":false,"is_disabled":false,"rental_uris":{"android":"levelo://app?vid=c76fc251-a418-400e-9280-0eacf2c8248d","ios":"levelo://app?vid=c76fc251-a418-400e-9280-0eacf2c8248d"},"vehicle_type_id":"4","last_reported":1730790546,"current_range_meters":34000,"station_id":"ce4bh412rcd13ifvqdr0","pricing_plan_id":"cebpf4jnsgd1na2vs0mg"},{"bike_id":"2f3fb672-e693-4cd7-8835-965da134d65f","system_id":"levelo_inurba_marseille","lat":43.27652,"lon":5.38909,"is_reserved":false,"is_disabled":false,"rental_uris":{"android":"levelo://app?vid=2f3fb672-e693-4cd7-8835-965da134d65f","ios":"levelo://app?vid=2f3fb672-e693-4cd7-8835-965da134d65f"},"vehicle_type_id":"4","last_reported":1730790546,"current_range_meters":37600,"station_id":"ce4bhi12rcd13ifvqfo0","pricing_plan_id":"cebpf4jnsgd1na2vs0mg"},{"bike_id":"1bb4c606-4f21-4509-8a70-c2bfc2dd06c0","system_id":"levelo_inurba_marseille","lat":43.278123,"lon":5.407049,"is_reserved":false,"is_disabled":false,"rental_uris":{"android":"levelo://app?vid=1bb4c606-4f21-4509-8a70-c2bfc2dd06c0","ios":"levelo://app?vid=1bb4c606-4f21-4509-8a70-c2bfc2dd06c0"},"vehicle_type_id":"4","last_reported":1730790546,"current_range_meters":20000,"station_id":"ce4bhnh2rcd13ifvqgtg","pricing_plan_id":"cebpf4jnsgd1na2vs0mg"},{"bike_id":"0daa0c32-4788-48e0-88ae-e7916fc2b426","system_id":"levelo_inurba_marseille","lat":43.28366,"lon":5.38626,"is_reserved":false,"is_disabled":false,"rental_uris":{"android":"levelo://app?vid=0daa0c32-4788-48e0-88ae-e7916fc2b426","ios":"levelo://app?vid=0daa0c32-4788-48e0-88ae-e7916fc2b426"},"vehicle_type_id":"4","last_reported":1730790546,"current_range_meters":38800,"station_id":"ce4bh492rcd13ifvqdvg","pricing_plan_id":"cebpf4jnsgd1na2vs0mg"},{"bike_id":"e48220be-459e-42cc-a298-5804e04cd244","system_id":"levelo_inurba_marseille","lat":43.28935,"lon":5.36639,"is_reserved":false,"is_disabled":false,"rental_uris":{"android":"levelo://app?vid=e48220be-459e-42cc-a298-5804e04cd244","ios":"levelo://app?vid=e48220be-459e-42cc-a298-5804e04cd244"},"vehicle_type_id":"4","last_reported":1730790546,"current_range_meters":4800,"station_id":"ce4bhap2rcd13ifvqek0","pricing_plan_id":"cebpf4jnsgd1na2vs0mg"},{"bike_id":"38bd90de-5b74-4bdf-9636-f0ae56dfdfe5","system_id":"levelo_inurba_marseille","lat":43.30453,"lon":5.3791,"is_reserved":false,"is_disabled":false,"rental_uris":{"android":"levelo://app?vid=38bd90de-5b74-4bdf-9636-f0ae56dfdfe5","ios":"levelo://app?vid=38bd90de-5b74-4bdf-9636-f0ae56dfdfe5"},"vehicle_type_id":"4","last_reported":1730790546,"current_range_meters":36400,"station_id":"ce4bgup2rcd13ifvqcn0","pricing_plan_id":"cebpf4jnsgd1na2vs0mg"},{"bike_id":"ba04515b-2530-4f99-bfe4-78243134c10b","system_id":"levelo_inurba_marseille","lat":43.280579,"lon":5.409851,"is_reserved":false,"is_disabled":false,"rental_uris":{"android":"levelo://app?vid=ba04515b-2530-4f99-bfe4-78243134c10b","ios":"levelo://app?vid=ba04515b-2530-4f99-bfe4-78243134c10b"},"vehicle_type_id":"4","last_reported":1730790546,"current_range_meters":33200,"station_id":"","pricing_plan_id":"cebpf4jnsgd1na2vs0mg"},{"bike_id":"6760f73e-ff6c-4f63-98ca-4e228a3a933a","system_id":"levelo_inurba_marseille","lat":43.29273,"lon":5.40115,"is_reserved":false,"is_disabled":false,"rental_uris":{"android":"levelo://app?vid=6760f73e-ff6c-4f63-98ca-4e228a3a933a","ios":"levelo://app?vid=6760f73e-ff6c-4f63-98ca-4e228a3a933a"},"vehicle_type_id":"4","last_reported":1730790546,"current_range_meters":22400,"station_id":"ce4bh312rcd13ifvqdk0","pricing_plan_id":"cebpf4jnsgd1na2vs0mg"},{"bike_id":"f6fac252-bcfe-4359-8cd8-84ee90eebb7d","system_id":"levelo_inurba_marseille","lat":43.30531,"lon":5.36546,"is_reserved":false,"is_disabled":false,"rental_uris":{"android":"levelo://app?vid=f6fac252-bcfe-4359-8cd8-84ee90eebb7d","ios":"levelo://app?vid=f6fac252-bcfe-4359-8cd8-84ee90eebb7d"},"vehicle_type_id":"4","last_reported":1730790546,"current_range_meters":38800,"station_id":"ce4bgs12rcd13ifvqcag","pricing_plan_id":"cebpf4jnsgd1na2vs0mg"},{"bike_id":"c5fb3547-aacc-4f93-9f77-b7c4e10a8857","system_id":"levelo_inurba_marseille","lat":43.25866,"lon":5.39896,"is_reserved":false,"is_disabled":false,"rental_uris":{"android":"levelo://app?vid=c5fb3547-aacc-4f93-9f77-b7c4e10a8857","ios":"levelo://app?vid=c5fb3547-aacc-4f93-9f77-b7c4e10a8857"},"vehicle_type_id":"4","last_reported":1730790546,"current_range_meters":5600,"station_id":"ce4bhl92rcd13ifvqghg","pricing_plan_id":"cebpf4jnsgd1na2vs0mg"},{"bike_id":"660f9ab5-0ee6-45bd-9ba0-20f4579b8e99","system_id":"levelo_inurba_marseille","lat":43.33601,"lon":5.41015,"is_reserved":false,"is_disabled":false,"rental_uris":{"android":"levelo://app?vid=660f9ab5-0ee6-45bd-9ba0-20f4579b8e99","ios":"levelo://app?vid=660f9ab5-0ee6-45bd-9ba0-20f4579b8e99"},"vehicle_type_id":"4","last_reported":1730790546,"current_range_meters":39200,"station_id":"ce4bhqh2rcd13ifvqhmg","pricing_plan_id":"cebpf4jnsgd1na2vs0mg"},{"bike_id":"cd4252f8-a922-44cd-858c-7ca572a7f00d","system_id":"levelo_inurba_marseille","lat":43.29577,"lon":5.37517,"is_reserved":false,"is_disabled":false,"rental_uris":{"android":"levelo://app?vid=cd4252f8-a922-44cd-858c-7ca572a7f00d","ios":"levelo://app?vid=cd4252f8-a922-44cd-858c-7ca572a7f00d"},"vehicle_type_id":"4","last_reported":1730790546,"current_range_meters":26800,"station_id":"ce4bgh92rcd13ifvqb50","pricing_plan_id":"cebpf4jnsgd1na2vs0mg"},{"bike_id":"ae041007-e592-4090-bb3e-17b320956fec","system_id":"levelo_inurba_marseille","lat":43.24072,"lon":5.37762,"is_reserved":false,"is_disabled":false,"rental_uris":{"android":"levelo://app?vid=ae041007-e592-4090-bb3e-17b320956fec","ios":"levelo://app?vid=ae041007-e592-4090-bb3e-17b320956fec"},"vehicle_type_id":"4","last_reported":1730790546,"current_range_meters":27200,"station_id":"ce4bhnp2rcd13ifvqgvg","pricing_plan_id":"cebpf4jnsgd1na2vs0mg"},{"bike_id":"32920a41-7391-4fe0-8909-574511ef3b4d","system_id":"levelo_inurba_marseille","lat":43.3009,"lon":5.37381,"is_reserved":false,"is_disabled":false,"rental_uris":{"android":"levelo://app?vid=32920a41-7391-4fe0-8909-574511ef3b4d","ios":"levelo://app?vid=32920a41-7391-4fe0-8909-574511ef3b4d"},"vehicle_type_id":"4","last_reported":1730790546,"current_range_meters":29600,"station_id":"ce4bgs92rcd13ifvqcc0","pricing_plan_id":"cebpf4jnsgd1na2vs0mg"},{"bike_id":"296734d8-2f60-4962-8ade-8ede9e8e46b0","system_id":"levelo_inurba_marseille","lat":43.30459,"lon":5.37901,"is_reserved":false,"is_disabled":false,"rental_uris":{"android":"levelo://app?vid=296734d8-2f60-4962-8ade-8ede9e8e46b0","ios":"levelo://app?vid=296734d8-2f60-4962-8ade-8ede9e8e46b0"},"vehicle_type_id":"4","last_reported":1730790546,"current_range_meters":38800,"station_id":"ce4bgup2rcd13ifvqcn0","pricing_plan_id":"cebpf4jnsgd1na2vs0mg"},{"bike_id":"002d5201-0f26-4ab6-a4ff-010eec64e7e5","system_id":"levelo_inurba_marseille","lat":43.28481,"lon":5.38416,"is_reserved":false,"is_disabled":false,"rental_uris":{"android":"levelo://app?vid=002d5201-0f26-4ab6-a4ff-010eec64e7e5","ios":"levelo://app?vid=002d5201-0f26-4ab6-a4ff-010eec64e7e5"},"vehicle_type_id":"4","last_reported":1730790546,"current_range_meters":16000,"station_id":"ce4bh512rcd13ifvqe3g","pricing_plan_id":"cebpf4jnsgd1na2vs0mg"},{"bike_id":"d2bdd4e8-0cb8-43b1-8ef5-1dc968289c6f","system_id":"levelo_inurba_marseille","lat":43.33606,"lon":5.41031,"is_reserved":false,"is_disabled":false,"rental_uris":{"android":"levelo://app?vid=d2bdd4e8-0cb8-43b1-8ef5-1dc968289c6f","ios":"levelo://app?vid=d2bdd4e8-0cb8-43b1-8ef5-1dc968289c6f"},"vehicle_type_id":"4","last_reported":1730790546,"current_range_meters":6000,"station_id":"ce4bhqh2rcd13ifvqhmg","pricing_plan_id":"cebpf4jnsgd1na2vs0mg"},{"bike_id":"823967de-5ba0-4689-8bf8-641b466fd8b1","system_id":"levelo_inurba_marseille","lat":43.23196,"lon":5.35553,"is_reserved":false,"is_disabled":false,"rental_uris":{"android":"levelo://app?vid=823967de-5ba0-4689-8bf8-641b466fd8b1","ios":"levelo://app?vid=823967de-5ba0-4689-8bf8-641b466fd8b1"},"vehicle_type_id":"4","last_reported":1730790546,"current_range_meters":38800,"station_id":"ce4bhu92rcd13ifvqi70","pricing_plan_id":"cebpf4jnsgd1na2vs0mg"},{"bike_id":"df2000e4-7ce1-46ba-980f-a90a63f2d7a2","system_id":"levelo_inurba_marseille","lat":43.29848,"lon":5.36283,"is_reserved":false,"is_disabled":false,"rental_uris":{"android":"levelo://app?vid=df2000e4-7ce1-46ba-980f-a90a63f2d7a2","ios":"levelo://app?vid=df2000e4-7ce1-46ba-980f-a90a63f2d7a2"},"vehicle_type_id":"4","last_reported":1730790546,"current_range_meters":38000,"station_id":"ce4bgpp2rcd13ifvqc3g","pricing_plan_id":"cebpf4jnsgd1na2vs0mg"},{"bike_id":"78f9e492-90d7-4f2e-b433-8a4d32d8b368","system_id":"levelo_inurba_marseille","lat":43.34139,"lon":5.40909,"is_reserved":false,"is_disabled":false,"rental_uris":{"android":"levelo://app?vid=78f9e492-90d7-4f2e-b433-8a4d32d8b368","ios":"levelo://app?vid=78f9e492-90d7-4f2e-b433-8a4d32d8b368"},"vehicle_type_id":"4","last_reported":1730790546,"current_range_meters":32400,"station_id":"ce4bhqh2rcd13ifvqhlg","pricing_plan_id":"cebpf4jnsgd1na2vs0mg"},{"bike_id":"2c29b18f-3677-4a83-b171-dbbf63e17849","system_id":"levelo_inurba_marseille","lat":43.270691,"lon":5.422826,"is_reserved":false,"is_disabled":false,"rental_uris":{"android":"levelo://app?vid=2c29b18f-3677-4a83-b171-dbbf63e17849","ios":"levelo://app?vid=2c29b18f-3677-4a83-b171-dbbf63e17849"},"vehicle_type_id":"4","last_reported":1730790546,"current_range_meters":32800,"station_id":"ce4bhk92rcd13ifvqgb0","pricing_plan_id":"cebpf4jnsgd1na2vs0mg"},{"bike_id":"619ae8fc-3fe3-4f9a-a703-c63208738cf2","system_id":"levelo_inurba_marseille","lat":43.28738,"lon":5.3793,"is_reserved":false,"is_disabled":false,"rental_uris":{"android":"levelo://app?vid=619ae8fc-3fe3-4f9a-a703-c63208738cf2","ios":"levelo://app?vid=619ae8fc-3fe3-4f9a-a703-c63208738cf2"},"vehicle_type_id":"4","last_reported":1730790546,"current_range_meters":20000,"station_id":"ce4bh9p2rcd13ifvqec0","pricing_plan_id":"cebpf4jnsgd1na2vs0mg"},{"bike_id":"371ed9b9-117f-4304-a294-be3251d3642c","system_id":"levelo_inurba_marseille","lat":43.31756,"lon":5.39019,"is_reserved":false,"is_disabled":false,"rental_uris":{"android":"levelo://app?vid=371ed9b9-117f-4304-a294-be3251d3642c","ios":"levelo://app?vid=371ed9b9-117f-4304-a294-be3251d3642c"},"vehicle_type_id":"4","last_reported":1730790546,"current_range_meters":27600,"station_id":"ce4bhqp2rcd13ifvqhng","pricing_plan_id":"cebpf4jnsgd1na2vs0mg"},{"bike_id":"ecc1794a-9cc4-47b8-bccd-f32a8e39134d","system_id":"levelo_inurba_marseille","lat":43.28153,"lon":5.42645,"is_reserved":false,"is_disabled":false,"rental_uris":{"android":"levelo://app?vid=ecc1794a-9cc4-47b8-bccd-f32a8e39134d","ios":"levelo://app?vid=ecc1794a-9cc4-47b8-bccd-f32a8e39134d"},"vehicle_type_id":"4","last_reported":1730790546,"current_range_meters":38000,"station_id":"ce4bhnh2rcd13ifvqgug","pricing_plan_id":"cebpf4jnsgd1na2vs0mg"},{"bike_id":"f580aef9-6050-4c3b-b781-b606992aa2c9","system_id":"levelo_inurba_marseille","lat":43.28731,"lon":5.37936,"is_reserved":false,"is_disabled":false,"rental_uris":{"android":"levelo://app?vid=f580aef9-6050-4c3b-b781-b606992aa2c9","ios":"levelo://app?vid=f580aef9-6050-4c3b-b781-b606992aa2c9"},"vehicle_type_id":"4","last_reported":1730790546,"current_range_meters":28800,"station_id":"ce4bh9p2rcd13ifvqec0","pricing_plan_id":"cebpf4jnsgd1na2vs0mg"},{"bike_id":"b8740583-661f-48fd-814c-4488530b0a28","system_id":"levelo_inurba_marseille","lat":43.317103,"lon":5.37741,"is_reserved":false,"is_disabled":false,"rental_uris":{"android":"levelo://app?vid=b8740583-661f-48fd-814c-4488530b0a28","ios":"levelo://app?vid=b8740583-661f-48fd-814c-4488530b0a28"},"vehicle_type_id":"4","last_reported":1730790546,"current_range_meters":31200,"station_id":"ce4bgt12rcd13ifvqce0","pricing_plan_id":"cebpf4jnsgd1na2vs0mg"},{"bike_id":"322dc9ee-251d-4ee1-a5e5-be080a98a377","system_id":"levelo_inurba_marseille","lat":43.26573,"lon":5.39005,"is_reserved":false,"is_disabled":false,"rental_uris":{"android":"levelo://app?vid=322dc9ee-251d-4ee1-a5e5-be080a98a377","ios":"levelo://app?vid=322dc9ee-251d-4ee1-a5e5-be080a98a377"},"vehicle_type_id":"4","last_reported":1730790546,"current_range_meters":34800,"station_id":"ce4bhe12rcd13ifvqf30","pricing_plan_id":"cebpf4jnsgd1na2vs0mg"},{"bike_id":"d3d5bf97-ee4e-462c-9692-ff991a12530c","system_id":"levelo_inurba_marseille","lat":43.33603,"lon":5.41034,"is_reserved":false,"is_disabled":false,"rental_uris":{"android":"levelo://app?vid=d3d5bf97-ee4e-462c-9692-ff991a12530c","ios":"levelo://app?vid=d3d5bf97-ee4e-462c-9692-ff991a12530c"},"vehicle_type_id":"4","last_reported":1730790546,"current_range_meters":38800,"station_id":"ce4bhqh2rcd13ifvqhmg","pricing_plan_id":"cebpf4jnsgd1na2vs0mg"},{"bike_id":"a83e4360-e798-47c4-aaa7-2b99f627fa11","system_id":"levelo_inurba_marseille","lat":43.27967,"lon":5.38746,"is_reserved":false,"is_disabled":false,"rental_uris":{"android":"levelo://app?vid=a83e4360-e798-47c4-aaa7-2b99f627fa11","ios":"levelo://app?vid=a83e4360-e798-47c4-aaa7-2b99f627fa11"},"vehicle_type_id":"4","last_reported":1730790546,"current_range_meters":10000,"station_id":"ce4bhg12rcd13ifvqf80","pricing_plan_id":"cebpf4jnsgd1na2vs0mg"},{"bike_id":"a6b470c9-d823-44bc-baa3-d9eb5e2efbd3","system_id":"levelo_inurba_marseille","lat":43.28154,"lon":5.42637,"is_reserved":false,"is_disabled":false,"rental_uris":{"android":"levelo://app?vid=a6b470c9-d823-44bc-baa3-d9eb5e2efbd3","ios":"levelo://app?vid=a6b470c9-d823-44bc-baa3-d9eb5e2efbd3"},"vehicle_type_id":"4","last_reported":1730790546,"current_range_meters":7200,"station_id":"ce4bhnh2rcd13ifvqgug","pricing_plan_id":"cebpf4jnsgd1na2vs0mg"},{"bike_id":"029ff5ee-3e43-4656-bd0f-80559eb25bab","system_id":"levelo_inurba_marseille","lat":43.30453,"lon":5.379,"is_reserved":false,"is_disabled":false,"rental_uris":{"android":"levelo://app?vid=029ff5ee-3e43-4656-bd0f-80559eb25bab","ios":"levelo://app?vid=029ff5ee-3e43-4656-bd0f-80559eb25bab"},"vehicle_type_id":"4","last_reported":1730790546,"current_range_meters":32800,"station_id":"ce4bgup2rcd13ifvqcn0","pricing_plan_id":"cebpf4jnsgd1na2vs0mg"},{"bike_id":"7a58136c-3165-4313-8fac-2c364b399752","system_id":"levelo_inurba_marseille","lat":43.33717,"lon":5.39186,"is_reserved":false,"is_disabled":false,"rental_uris":{"android":"levelo://app?vid=7a58136c-3165-4313-8fac-2c364b399752","ios":"levelo://app?vid=7a58136c-3165-4313-8fac-2c364b399752"},"vehicle_type_id":"4","last_reported":1730790546,"current_range_meters":24800,"station_id":"ce4bhr92rcd13ifvqhsg","pricing_plan_id":"cebpf4jnsgd1na2vs0mg"},{"bike_id":"84e7d589-d73d-4f95-9a10-28dc45cf1b76","system_id":"levelo_inurba_marseille","lat":43.28973,"lon":5.37838,"is_reserved":false,"is_disabled":false,"rental_uris":{"android":"levelo://app?vid=84e7d589-d73d-4f95-9a10-28dc45cf1b76","ios":"levelo://app?vid=84e7d589-d73d-4f95-9a10-28dc45cf1b76"},"vehicle_type_id":"4","last_reported":1730790546,"current_range_meters":12800,"station_id":"ce4bh9p2rcd13ifvqed0","pricing_plan_id":"cebpf4jnsgd1na2vs0mg"},{"bike_id":"a422d3ad-87b5-492e-ad8f-69176f6bde58","system_id":"levelo_inurba_marseille","lat":43.304259,"lon":5.388851,"is_reserved":false,"is_disabled":false,"rental_uris":{"android":"levelo://app?vid=a422d3ad-87b5-492e-ad8f-69176f6bde58","ios":"levelo://app?vid=a422d3ad-87b5-492e-ad8f-69176f6bde58"},"vehicle_type_id":"4","last_reported":1730790546,"current_range_meters":9200,"station_id":"ce4bgk12rcd13ifvqbi0","pricing_plan_id":"cebpf4jnsgd1na2vs0mg"},{"bike_id":"c864c025-b3b0-4077-aaf8-410eaac1ccba","system_id":"levelo_inurba_marseille","lat":43.29853,"lon":5.36275,"is_reserved":false,"is_disabled":false,"rental_uris":{"android":"levelo://app?vid=c864c025-b3b0-4077-aaf8-410eaac1ccba","ios":"levelo://app?vid=c864c025-b3b0-4077-aaf8-410eaac1ccba"},"vehicle_type_id":"4","last_reported":1730790546,"current_range_meters":16400,"station_id":"ce4bgpp2rcd13ifvqc3g","pricing_plan_id":"cebpf4jnsgd1na2vs0mg"},{"bike_id":"a2a787c5-a224-4461-96b9-8e6831d9dced","system_id":"levelo_inurba_marseille","lat":43.2952,"lon":5.394,"is_reserved":false,"is_disabled":false,"rental_uris":{"android":"levelo://app?vid=a2a787c5-a224-4461-96b9-8e6831d9dced","ios":"levelo://app?vid=a2a787c5-a224-4461-96b9-8e6831d9dced"},"vehicle_type_id":"4","last_reported":1730790546,"current_range_meters":22000,"station_id":"ce4bh292rcd13ifvqdf0","pricing_plan_id":"cebpf4jnsgd1na2vs0mg"},{"bike_id":"d53b57e5-6868-433d-b990-24fcbe41bcf1","system_id":"levelo_inurba_marseille","lat":43.27555,"lon":5.38417,"is_reserved":false,"is_disabled":false,"rental_uris":{"android":"levelo://app?vid=d53b57e5-6868-433d-b990-24fcbe41bcf1","ios":"levelo://app?vid=d53b57e5-6868-433d-b990-24fcbe41bcf1"},"vehicle_type_id":"4","last_reported":1730790546,"current_range_meters":39200,"station_id":"ce4bhh92rcd13ifvqfi0","pricing_plan_id":"cebpf4jnsgd1na2vs0mg"},{"bike_id":"0a3a5c05-ca94-4423-bfea-a67474fe094c","system_id":"levelo_inurba_marseille","lat":43.32477,"lon":5.36552,"is_reserved":false,"is_disabled":false,"rental_uris":{"android":"levelo://app?vid=0a3a5c05-ca94-4423-bfea-a67474fe094c","ios":"levelo://app?vid=0a3a5c05-ca94-4423-bfea-a67474fe094c"},"vehicle_type_id":"4","last_reported":1730790546,"current_range_meters":24400,"station_id":"ce4bhs12rcd13ifvqhvg","pricing_plan_id":"cebpf4jnsgd1na2vs0mg"},{"bike_id":"d3934863-c047-4a19-ab63-74520fa03ac8","system_id":"levelo_inurba_marseille","lat":43.3045,"lon":5.37908,"is_reserved":false,"is_disabled":false,"rental_uris":{"android":"levelo://app?vid=d3934863-c047-4a19-ab63-74520fa03ac8","ios":"levelo://app?vid=d3934863-c047-4a19-ab63-74520fa03ac8"},"vehicle_type_id":"4","last_reported":1730790546,"current_range_meters":32400,"station_id":"ce4bgup2rcd13ifvqcn0","pricing_plan_id":"cebpf4jnsgd1na2vs0mg"},{"bike_id":"b592aa30-9f80-4f5b-a0ff-da2be38dcc1f","system_id":"levelo_inurba_marseille","lat":43.32108,"lon":5.36774,"is_reserved":false,"is_disabled":false,"rental_uris":{"android":"levelo://app?vid=b592aa30-9f80-4f5b-a0ff-da2be38dcc1f","ios":"levelo://app?vid=b592aa30-9f80-4f5b-a0ff-da2be38dcc1f"},"vehicle_type_id":"4","last_reported":1730790546,"current_range_meters":38800,"station_id":"ce4bhrh2rcd13ifvqhug","pricing_plan_id":"cebpf4jnsgd1na2vs0mg"},{"bike_id":"47cc15c7-290c-452f-9b34-25e3332d28c3","system_id":"levelo_inurba_marseille","lat":43.30146,"lon":5.38083,"is_reserved":false,"is_disabled":false,"rental_uris":{"android":"levelo://app?vid=47cc15c7-290c-452f-9b34-25e3332d28c3","ios":"levelo://app?vid=47cc15c7-290c-452f-9b34-25e3332d28c3"},"vehicle_type_id":"4","last_reported":1730790546,"current_range_meters":12800,"station_id":"ce4bgjp2rcd13ifvqbh0","pricing_plan_id":"cebpf4jnsgd1na2vs0mg"},{"bike_id":"acb1947f-1975-4b05-93f4-877300482a70","system_id":"levelo_inurba_marseille","lat":43.30954,"lon":5.40626,"is_reserved":false,"is_disabled":false,"rental_uris":{"android":"levelo://app?vid=acb1947f-1975-4b05-93f4-877300482a70","ios":"levelo://app?vid=acb1947f-1975-4b05-93f4-877300482a70"},"vehicle_type_id":"4","last_reported":1730790546,"current_range_meters":32800,"station_id":"","pricing_plan_id":"cebpf4jnsgd1na2vs0mg"},{"bike_id":"eab47ed5-f83a-4939-80d1-ff052743bdd1","system_id":"levelo_inurba_marseille","lat":43.3211,"lon":5.36774,"is_reserved":false,"is_disabled":false,"rental_uris":{"android":"levelo://app?vid=eab47ed5-f83a-4939-80d1-ff052743bdd1","ios":"levelo://app?vid=eab47ed5-f83a-4939-80d1-ff052743bdd1"},"vehicle_type_id":"4","last_reported":1730790546,"current_range_meters":32000,"station_id":"ce4bhrh2rcd13ifvqhug","pricing_plan_id":"cebpf4jnsgd1na2vs0mg"},{"bike_id":"adb3e634-3a73-4a03-8630-f8b036f4f91a","system_id":"levelo_inurba_marseille","lat":43.27494,"lon":5.42446,"is_reserved":false,"is_disabled":false,"rental_uris":{"android":"levelo://app?vid=adb3e634-3a73-4a03-8630-f8b036f4f91a","ios":"levelo://app?vid=adb3e634-3a73-4a03-8630-f8b036f4f91a"},"vehicle_type_id":"4","last_reported":1730790546,"current_range_meters":34000,"station_id":"ce4bhn92rcd13ifvqgrg","pricing_plan_id":"cebpf4jnsgd1na2vs0mg"},{"bike_id":"a0be6000-a8f5-4b39-a1ab-df18f1dd4304","system_id":"levelo_inurba_marseille","lat":43.28347,"lon":5.38098,"is_reserved":false,"is_disabled":false,"rental_uris":{"android":"levelo://app?vid=a0be6000-a8f5-4b39-a1ab-df18f1dd4304","ios":"levelo://app?vid=a0be6000-a8f5-4b39-a1ab-df18f1dd4304"},"vehicle_type_id":"4","last_reported":1730790546,"current_range_meters":38800,"station_id":"ce4bh412rcd13ifvqdr0","pricing_plan_id":"cebpf4jnsgd1na2vs0mg"},{"bike_id":"39a4fcb5-2eb5-4175-89b9-3dd5baae137a","system_id":"levelo_inurba_marseille","lat":43.29583,"lon":5.38109,"is_reserved":false,"is_disabled":false,"rental_uris":{"android":"levelo://app?vid=39a4fcb5-2eb5-4175-89b9-3dd5baae137a","ios":"levelo://app?vid=39a4fcb5-2eb5-4175-89b9-3dd5baae137a"},"vehicle_type_id":"4","last_reported":1730790546,"current_range_meters":24800,"station_id":"ce4bgl12rcd13ifvqbo0","pricing_plan_id":"cebpf4jnsgd1na2vs0mg"},{"bike_id":"97e5936c-17cb-43fa-be90-55830ac8bc88","system_id":"levelo_inurba_marseille","lat":43.30416,"lon":5.39748,"is_reserved":false,"is_disabled":false,"rental_uris":{"android":"levelo://app?vid=97e5936c-17cb-43fa-be90-55830ac8bc88","ios":"levelo://app?vid=97e5936c-17cb-43fa-be90-55830ac8bc88"},"vehicle_type_id":"4","last_reported":1730790546,"current_range_meters":38000,"station_id":"ce4bh092rcd13ifvqd20","pricing_plan_id":"cebpf4jnsgd1na2vs0mg"},{"bike_id":"02dbcd6c-8390-4265-bdef-38c0c6b3b526","system_id":"levelo_inurba_marseille","lat":43.26061,"lon":5.39399,"is_reserved":false,"is_disabled":false,"rental_uris":{"android":"levelo://app?vid=02dbcd6c-8390-4265-bdef-38c0c6b3b526","ios":"levelo://app?vid=02dbcd6c-8390-4265-bdef-38c0c6b3b526"},"vehicle_type_id":"4","last_reported":1730790546,"current_range_meters":38800,"station_id":"ce4bhh92rcd13ifvqfj0","pricing_plan_id":"cebpf4jnsgd1na2vs0mg"},{"bike_id":"d7798a4a-7e24-4f13-abf6-c911fb931448","system_id":"levelo_inurba_marseille","lat":43.3414,"lon":5.40907,"is_reserved":false,"is_disabled":false,"rental_uris":{"android":"levelo://app?vid=d7798a4a-7e24-4f13-abf6-c911fb931448","ios":"levelo://app?vid=d7798a4a-7e24-4f13-abf6-c911fb931448"},"vehicle_type_id":"4","last_reported":1730790546,"current_range_meters":30000,"station_id":"ce4bhqh2rcd13ifvqhlg","pricing_plan_id":"cebpf4jnsgd1na2vs0mg"},{"bike_id":"9b3d9d15-fefa-43f7-9d77-d2f964f7c759","system_id":"levelo_inurba_marseille","lat":43.27995,"lon":5.40018,"is_reserved":false,"is_disabled":false,"rental_uris":{"android":"levelo://app?vid=9b3d9d15-fefa-43f7-9d77-d2f964f7c759","ios":"levelo://app?vid=9b3d9d15-fefa-43f7-9d77-d2f964f7c759"},"vehicle_type_id":"4","last_reported":1730790546,"current_range_meters":37600,"station_id":"ce4bho92rcd13ifvqh4g","pricing_plan_id":"cebpf4jnsgd1na2vs0mg"},{"bike_id":"724a2bc6-3c37-4507-952b-c6dc41890cd9","system_id":"levelo_inurba_marseille","lat":43.27493,"lon":5.42453,"is_reserved":false,"is_disabled":false,"rental_uris":{"android":"levelo://app?vid=724a2bc6-3c37-4507-952b-c6dc41890cd9","ios":"levelo://app?vid=724a2bc6-3c37-4507-952b-c6dc41890cd9"},"vehicle_type_id":"4","last_reported":1730790546,"current_range_meters":19200,"station_id":"ce4bhn92rcd13ifvqgrg","pricing_plan_id":"cebpf4jnsgd1na2vs0mg"},{"bike_id":"0618c6bd-eb18-4a83-b479-76225d48ec8d","system_id":"levelo_inurba_marseille","lat":43.25118,"lon":5.4032,"is_reserved":false,"is_disabled":false,"rental_uris":{"android":"levelo://app?vid=0618c6bd-eb18-4a83-b479-76225d48ec8d","ios":"levelo://app?vid=0618c6bd-eb18-4a83-b479-76225d48ec8d"},"vehicle_type_id":"4","last_reported":1730790546,"current_range_meters":16400,"station_id":"ce4bhlh2rcd13ifvqgig","pricing_plan_id":"cebpf4jnsgd1na2vs0mg"},{"bike_id":"841f0c53-01d1-4b3a-891b-cae6e0586c8b","system_id":"levelo_inurba_marseille","lat":43.26492,"lon":5.3954,"is_reserved":false,"is_disabled":false,"rental_uris":{"android":"levelo://app?vid=841f0c53-01d1-4b3a-891b-cae6e0586c8b","ios":"levelo://app?vid=841f0c53-01d1-4b3a-891b-cae6e0586c8b"},"vehicle_type_id":"4","last_reported":1730790546,"current_range_meters":25200,"station_id":"ce4bhi12rcd13ifvqfq0","pricing_plan_id":"cebpf4jnsgd1na2vs0mg"},{"bike_id":"1d242641-c60a-4175-99fb-60167df43008","system_id":"levelo_inurba_marseille","lat":43.258362,"lon":5.394387,"is_reserved":false,"is_disabled":false,"rental_uris":{"android":"levelo://app?vid=1d242641-c60a-4175-99fb-60167df43008","ios":"levelo://app?vid=1d242641-c60a-4175-99fb-60167df43008"},"vehicle_type_id":"4","last_reported":1730790546,"current_range_meters":23200,"station_id":"ce4bhip2rcd13ifvqft0","pricing_plan_id":"cebpf4jnsgd1na2vs0mg"},{"bike_id":"260fa75a-01a4-4465-ba93-2899bc76795b","system_id":"levelo_inurba_marseille","lat":43.27066,"lon":5.4227,"is_reserved":false,"is_disabled":false,"rental_uris":{"android":"levelo://app?vid=260fa75a-01a4-4465-ba93-2899bc76795b","ios":"levelo://app?vid=260fa75a-01a4-4465-ba93-2899bc76795b"},"vehicle_type_id":"4","last_reported":1730790546,"current_range_meters":17600,"station_id":"ce4bhk92rcd13ifvqgb0","pricing_plan_id":"cebpf4jnsgd1na2vs0mg"},{"bike_id":"3560c5ce-d02f-4630-8b3a-5ae2ad7fb9b3","system_id":"levelo_inurba_marseille","lat":43.24073,"lon":5.37761,"is_reserved":false,"is_disabled":false,"rental_uris":{"android":"levelo://app?vid=3560c5ce-d02f-4630-8b3a-5ae2ad7fb9b3","ios":"levelo://app?vid=3560c5ce-d02f-4630-8b3a-5ae2ad7fb9b3"},"vehicle_type_id":"4","last_reported":1730790546,"current_range_meters":29600,"station_id":"ce4bhnp2rcd13ifvqgvg","pricing_plan_id":"cebpf4jnsgd1na2vs0mg"},{"bike_id":"f0e379a8-9fe9-476b-aaf8-00b6314e56b6","system_id":"levelo_inurba_marseille","lat":43.3046,"lon":5.3791,"is_reserved":false,"is_disabled":false,"rental_uris":{"android":"levelo://app?vid=f0e379a8-9fe9-476b-aaf8-00b6314e56b6","ios":"levelo://app?vid=f0e379a8-9fe9-476b-aaf8-00b6314e56b6"},"vehicle_type_id":"4","last_reported":1730790546,"current_range_meters":10800,"station_id":"ce4bgup2rcd13ifvqcn0","pricing_plan_id":"cebpf4jnsgd1na2vs0mg"},{"bike_id":"2b7c7838-0b38-48ff-a34b-04cd5d917cba","system_id":"levelo_inurba_marseille","lat":43.30461,"lon":5.37912,"is_reserved":false,"is_disabled":false,"rental_uris":{"android":"levelo://app?vid=2b7c7838-0b38-48ff-a34b-04cd5d917cba","ios":"levelo://app?vid=2b7c7838-0b38-48ff-a34b-04cd5d917cba"},"vehicle_type_id":"4","last_reported":1730790546,"current_range_meters":20400,"station_id":"ce4bgup2rcd13ifvqcn0","pricing_plan_id":"cebpf4jnsgd1na2vs0mg"},{"bike_id":"6604b03a-b39e-4120-b7e2-d7b04fa96757","system_id":"levelo_inurba_marseille","lat":43.29512,"lon":5.375,"is_reserved":false,"is_disabled":false,"rental_uris":{"android":"levelo://app?vid=6604b03a-b39e-4120-b7e2-d7b04fa96757","ios":"levelo://app?vid=6604b03a-b39e-4120-b7e2-d7b04fa96757"},"vehicle_type_id":"4","last_reported":1730790546,"current_range_meters":9200,"station_id":"ce4bgkp2rcd13ifvqbmg","pricing_plan_id":"cebpf4jnsgd1na2vs0mg"},{"bike_id":"f605cfa1-16bb-45b0-9f38-3b83d0d5059b","system_id":"levelo_inurba_marseille","lat":43.2749,"lon":5.42452,"is_reserved":false,"is_disabled":false,"rental_uris":{"android":"levelo://app?vid=f605cfa1-16bb-45b0-9f38-3b83d0d5059b","ios":"levelo://app?vid=f605cfa1-16bb-45b0-9f38-3b83d0d5059b"},"vehicle_type_id":"4","last_reported":1730790546,"current_range_meters":37600,"station_id":"ce4bhn92rcd13ifvqgrg","pricing_plan_id":"cebpf4jnsgd1na2vs0mg"},{"bike_id":"6b203e94-dbf2-4a85-aba6-861192269bba","system_id":"levelo_inurba_marseille","lat":43.23955,"lon":5.36624,"is_reserved":false,"is_disabled":false,"rental_uris":{"android":"levelo://app?vid=6b203e94-dbf2-4a85-aba6-861192269bba","ios":"levelo://app?vid=6b203e94-dbf2-4a85-aba6-861192269bba"},"vehicle_type_id":"4","last_reported":1730790546,"current_range_meters":10800,"station_id":"ce4bhi12rcd13ifvqfp0","pricing_plan_id":"cebpf4jnsgd1na2vs0mg"},{"bike_id":"a1e05a26-e783-41c8-ab26-c84bed91150b","system_id":"levelo_inurba_marseille","lat":43.301458,"lon":5.380905,"is_reserved":false,"is_disabled":false,"rental_uris":{"android":"levelo://app?vid=a1e05a26-e783-41c8-ab26-c84bed91150b","ios":"levelo://app?vid=a1e05a26-e783-41c8-ab26-c84bed91150b"},"vehicle_type_id":"4","last_reported":1730790546,"current_range_meters":32000,"station_id":"ce4bho92rcd13ifvqh4g","pricing_plan_id":"cebpf4jnsgd1na2vs0mg"},{"bike_id":"cb67bb56-cc54-409f-bfb4-1716c4daf1af","system_id":"levelo_inurba_marseille","lat":43.31068,"lon":5.38349,"is_reserved":false,"is_disabled":false,"rental_uris":{"android":"levelo://app?vid=cb67bb56-cc54-409f-bfb4-1716c4daf1af","ios":"levelo://app?vid=cb67bb56-cc54-409f-bfb4-1716c4daf1af"},"vehicle_type_id":"4","last_reported":1730790546,"current_range_meters":37600,"station_id":"ce4bgv92rcd13ifvqcr0","pricing_plan_id":"cebpf4jnsgd1na2vs0mg"},{"bike_id":"db31db70-cc20-4b5f-acb8-538f14a09b27","system_id":"levelo_inurba_marseille","lat":43.23191,"lon":5.39983,"is_reserved":false,"is_disabled":false,"rental_uris":{"android":"levelo://app?vid=db31db70-cc20-4b5f-acb8-538f14a09b27","ios":"levelo://app?vid=db31db70-cc20-4b5f-acb8-538f14a09b27"},"vehicle_type_id":"4","last_reported":1730790546,"current_range_meters":36400,"station_id":"ce4bhn12rcd13ifvqgqg","pricing_plan_id":"cebpf4jnsgd1na2vs0mg"},{"bike_id":"0f860fc7-b706-4493-80b4-8eba8bc10dff","system_id":"levelo_inurba_marseille","lat":43.29794,"lon":5.38101,"is_reserved":false,"is_disabled":false,"rental_uris":{"android":"levelo://app?vid=0f860fc7-b706-4493-80b4-8eba8bc10dff","ios":"levelo://app?vid=0f860fc7-b706-4493-80b4-8eba8bc10dff"},"vehicle_type_id":"4","last_reported":1730790546,"current_range_meters":36400,"station_id":"ce4bgip2rcd13ifvqbb0","pricing_plan_id":"cebpf4jnsgd1na2vs0mg"},{"bike_id":"2710baea-39f4-4586-99c9-a0433aba464e","system_id":"levelo_inurba_marseille","lat":43.30552,"lon":5.3841,"is_reserved":false,"is_disabled":false,"rental_uris":{"android":"levelo://app?vid=2710baea-39f4-4586-99c9-a0433aba464e","ios":"levelo://app?vid=2710baea-39f4-4586-99c9-a0433aba464e"},"vehicle_type_id":"4","last_reported":1730790546,"current_range_meters":33200,"station_id":"ce4bgg92rcd13ifvqb30","pricing_plan_id":"cebpf4jnsgd1na2vs0mg"},{"bike_id":"7c079cc1-f1ef-4907-86d9-31401e8a2561","system_id":"levelo_inurba_marseille","lat":43.30457,"lon":5.37904,"is_reserved":false,"is_disabled":false,"rental_uris":{"android":"levelo://app?vid=7c079cc1-f1ef-4907-86d9-31401e8a2561","ios":"levelo://app?vid=7c079cc1-f1ef-4907-86d9-31401e8a2561"},"vehicle_type_id":"4","last_reported":1730790546,"current_range_meters":8000,"station_id":"ce4bgup2rcd13ifvqcn0","pricing_plan_id":"cebpf4jnsgd1na2vs0mg"},{"bike_id":"be09b6c0-44b3-4026-bdc4-898fb04be535","system_id":"levelo_inurba_marseille","lat":43.33764,"lon":5.37453,"is_reserved":false,"is_disabled":false,"rental_uris":{"android":"levelo://app?vid=be09b6c0-44b3-4026-bdc4-898fb04be535","ios":"levelo://app?vid=be09b6c0-44b3-4026-bdc4-898fb04be535"},"vehicle_type_id":"4","last_reported":1730790546,"current_range_meters":38800,"station_id":"","pricing_plan_id":"cebpf4jnsgd1na2vs0mg"},{"bike_id":"d4f0984a-50a9-4a13-bcb7-a0220c9c9042","system_id":"levelo_inurba_marseille","lat":43.33607,"lon":5.41016,"is_reserved":false,"is_disabled":false,"rental_uris":{"android":"levelo://app?vid=d4f0984a-50a9-4a13-bcb7-a0220c9c9042","ios":"levelo://app?vid=d4f0984a-50a9-4a13-bcb7-a0220c9c9042"},"vehicle_type_id":"4","last_reported":1730790546,"current_range_meters":20800,"station_id":"ce4bhqh2rcd13ifvqhmg","pricing_plan_id":"cebpf4jnsgd1na2vs0mg"},{"bike_id":"d0c8dc68-c81e-4754-95ea-1197799c8609","system_id":"levelo_inurba_marseille","lat":43.33605,"lon":5.41025,"is_reserved":false,"is_disabled":false,"rental_uris":{"android":"levelo://app?vid=d0c8dc68-c81e-4754-95ea-1197799c8609","ios":"levelo://app?vid=d0c8dc68-c81e-4754-95ea-1197799c8609"},"vehicle_type_id":"4","last_reported":1730790546,"current_range_meters":5600,"station_id":"ce4bhqh2rcd13ifvqhmg","pricing_plan_id":"cebpf4jnsgd1na2vs0mg"},{"bike_id":"5d056037-4a63-411d-8f45-e73b20cb04ae","system_id":"levelo_inurba_marseille","lat":43.30146,"lon":5.38077,"is_reserved":false,"is_disabled":false,"rental_uris":{"android":"levelo://app?vid=5d056037-4a63-411d-8f45-e73b20cb04ae","ios":"levelo://app?vid=5d056037-4a63-411d-8f45-e73b20cb04ae"},"vehicle_type_id":"4","last_reported":1730790546,"current_range_meters":30800,"station_id":"ce4bgjp2rcd13ifvqbh0","pricing_plan_id":"cebpf4jnsgd1na2vs0mg"},{"bike_id":"f0ff0446-c19e-4cec-8ad0-5518111f2f04","system_id":"levelo_inurba_marseille","lat":43.29814,"lon":5.38098,"is_reserved":false,"is_disabled":false,"rental_uris":{"android":"levelo://app?vid=f0ff0446-c19e-4cec-8ad0-5518111f2f04","ios":"levelo://app?vid=f0ff0446-c19e-4cec-8ad0-5518111f2f04"},"vehicle_type_id":"4","last_reported":1730790546,"current_range_meters":35200,"station_id":"ce4bgip2rcd13ifvqbb0","pricing_plan_id":"cebpf4jnsgd1na2vs0mg"},{"bike_id":"7cac0984-7e4f-4477-9503-2e9e287cb275","system_id":"levelo_inurba_marseille","lat":43.28935,"lon":5.3962,"is_reserved":false,"is_disabled":false,"rental_uris":{"android":"levelo://app?vid=7cac0984-7e4f-4477-9503-2e9e287cb275","ios":"levelo://app?vid=7cac0984-7e4f-4477-9503-2e9e287cb275"},"vehicle_type_id":"4","last_reported":1730790546,"current_range_meters":39200,"station_id":"ce4bh3h2rcd13ifvqdn0","pricing_plan_id":"cebpf4jnsgd1na2vs0mg"},{"bike_id":"7ce7a829-f1f3-4727-95ac-b5abb289263a","system_id":"levelo_inurba_marseille","lat":43.26773,"lon":5.39432,"is_reserved":false,"is_disabled":false,"rental_uris":{"android":"levelo://app?vid=7ce7a829-f1f3-4727-95ac-b5abb289263a","ios":"levelo://app?vid=7ce7a829-f1f3-4727-95ac-b5abb289263a"},"vehicle_type_id":"4","last_reported":1730790546,"current_range_meters":35600,"station_id":"ce4bhh12rcd13ifvqfg0","pricing_plan_id":"cebpf4jnsgd1na2vs0mg"},{"bike_id":"a7fed5cd-10a8-4c47-84fe-4fb3118959ee","system_id":"levelo_inurba_marseille","lat":43.29622,"lon":5.40597,"is_reserved":false,"is_disabled":false,"rental_uris":{"android":"levelo://app?vid=a7fed5cd-10a8-4c47-84fe-4fb3118959ee","ios":"levelo://app?vid=a7fed5cd-10a8-4c47-84fe-4fb3118959ee"},"vehicle_type_id":"4","last_reported":1730790546,"current_range_meters":33200,"station_id":"ce4bh0h2rcd13ifvqd60","pricing_plan_id":"cebpf4jnsgd1na2vs0mg"},{"bike_id":"142a935e-1ca6-422e-91ca-8091c62b9a87","system_id":"levelo_inurba_marseille","lat":43.29794,"lon":5.38087,"is_reserved":false,"is_disabled":false,"rental_uris":{"android":"levelo://app?vid=142a935e-1ca6-422e-91ca-8091c62b9a87","ios":"levelo://app?vid=142a935e-1ca6-422e-91ca-8091c62b9a87"},"vehicle_type_id":"4","last_reported":1730790546,"current_range_meters":23200,"station_id":"ce4bgip2rcd13ifvqbb0","pricing_plan_id":"cebpf4jnsgd1na2vs0mg"},{"bike_id":"144bcf26-0ebe-4b6b-903c-e7f3d422be35","system_id":"levelo_inurba_marseille","lat":43.23183,"lon":5.39977,"is_reserved":false,"is_disabled":false,"rental_uris":{"android":"levelo://app?vid=144bcf26-0ebe-4b6b-903c-e7f3d422be35","ios":"levelo://app?vid=144bcf26-0ebe-4b6b-903c-e7f3d422be35"},"vehicle_type_id":"4","last_reported":1730790546,"current_range_meters":37600,"station_id":"ce4bhn12rcd13ifvqgqg","pricing_plan_id":"cebpf4jnsgd1na2vs0mg"},{"bike_id":"9ec276ae-d80d-415a-bf60-0358ad54dffc","system_id":"levelo_inurba_marseille","lat":43.29898,"lon":5.43661,"is_reserved":false,"is_disabled":false,"rental_uris":{"android":"levelo://app?vid=9ec276ae-d80d-415a-bf60-0358ad54dffc","ios":"levelo://app?vid=9ec276ae-d80d-415a-bf60-0358ad54dffc"},"vehicle_type_id":"4","last_reported":1730790546,"current_range_meters":9200,"station_id":"ce4bhpp2rcd13ifvqhfg","pricing_plan_id":"cebpf4jnsgd1na2vs0mg"},{"bike_id":"360d18de-ef42-4933-b6bd-7fba0f4aceda","system_id":"levelo_inurba_marseille","lat":43.29033,"lon":5.39961,"is_reserved":false,"is_disabled":false,"rental_uris":{"android":"levelo://app?vid=360d18de-ef42-4933-b6bd-7fba0f4aceda","ios":"levelo://app?vid=360d18de-ef42-4933-b6bd-7fba0f4aceda"},"vehicle_type_id":"4","last_reported":1730790546,"current_range_meters":19200,"station_id":"ce4bh392rcd13ifvqdm0","pricing_plan_id":"cebpf4jnsgd1na2vs0mg"},{"bike_id":"8f5a6978-56c1-4d37-8466-a1364106c0b3","system_id":"levelo_inurba_marseille","lat":43.26952,"lon":5.38641,"is_reserved":false,"is_disabled":false,"rental_uris":{"android":"levelo://app?vid=8f5a6978-56c1-4d37-8466-a1364106c0b3","ios":"levelo://app?vid=8f5a6978-56c1-4d37-8466-a1364106c0b3"},"vehicle_type_id":"4","last_reported":1730790546,"current_range_meters":39200,"station_id":"ce4bhh92rcd13ifvqfh0","pricing_plan_id":"cebpf4jnsgd1na2vs0mg"},{"bike_id":"cc164c79-47b7-41a2-8ddf-f6e1442291cb","system_id":"levelo_inurba_marseille","lat":43.27819,"lon":5.40712,"is_reserved":false,"is_disabled":false,"rental_uris":{"android":"levelo://app?vid=cc164c79-47b7-41a2-8ddf-f6e1442291cb","ios":"levelo://app?vid=cc164c79-47b7-41a2-8ddf-f6e1442291cb"},"vehicle_type_id":"4","last_reported":1730790546,"current_range_meters":24800,"station_id":"ce4bhnh2rcd13ifvqgtg","pricing_plan_id":"cebpf4jnsgd1na2vs0mg"},{"bike_id":"2e5b4eda-1e00-4de7-bf32-df40f4d56ed2","system_id":"levelo_inurba_marseille","lat":43.32482,"lon":5.36549,"is_reserved":false,"is_disabled":false,"rental_uris":{"android":"levelo://app?vid=2e5b4eda-1e00-4de7-bf32-df40f4d56ed2","ios":"levelo://app?vid=2e5b4eda-1e00-4de7-bf32-df40f4d56ed2"},"vehicle_type_id":"4","last_reported":1730790546,"current_range_meters":10800,"station_id":"ce4bhs12rcd13ifvqhvg","pricing_plan_id":"cebpf4jnsgd1na2vs0mg"},{"bike_id":"9b115750-1c96-48a2-87cf-b13b6bdc2d6b","system_id":"levelo_inurba_marseille","lat":43.33761,"lon":5.37481,"is_reserved":false,"is_disabled":false,"rental_uris":{"android":"levelo://app?vid=9b115750-1c96-48a2-87cf-b13b6bdc2d6b","ios":"levelo://app?vid=9b115750-1c96-48a2-87cf-b13b6bdc2d6b"},"vehicle_type_id":"4","last_reported":1730790546,"current_range_meters":38400,"station_id":"","pricing_plan_id":"cebpf4jnsgd1na2vs0mg"},{"bike_id":"d3a2b3cf-e6c9-421f-a643-6a9f1736792e","system_id":"levelo_inurba_marseille","lat":43.30922,"lon":5.40139,"is_reserved":false,"is_disabled":false,"rental_uris":{"android":"levelo://app?vid=d3a2b3cf-e6c9-421f-a643-6a9f1736792e","ios":"levelo://app?vid=d3a2b3cf-e6c9-421f-a643-6a9f1736792e"},"vehicle_type_id":"4","last_reported":1730790546,"current_range_meters":26000,"station_id":"ce4bgvp2rcd13ifvqct0","pricing_plan_id":"cebpf4jnsgd1na2vs0mg"},{"bike_id":"64d63e69-f4b1-4a2a-809c-5c120be50f55","system_id":"levelo_inurba_marseille","lat":43.26562,"lon":5.39018,"is_reserved":false,"is_disabled":false,"rental_uris":{"android":"levelo://app?vid=64d63e69-f4b1-4a2a-809c-5c120be50f55","ios":"levelo://app?vid=64d63e69-f4b1-4a2a-809c-5c120be50f55"},"vehicle_type_id":"4","last_reported":1730790546,"current_range_meters":38000,"station_id":"ce4bhe12rcd13ifvqf30","pricing_plan_id":"cebpf4jnsgd1na2vs0mg"},