{"last_updated":1753654233,"ttl":60,"version":"2.2","data":{"bikes":[{"bike_id":"078febbd-6d49-4abf-8b46-d33f87f8da46","system_id":"levelo_inurba_marseille","lat":43.25452,"lon":5.38007,"is_reserved":false,"is_disabled":true,"rental_uris":{"android":"levelo://app?vid=078febbd-6d49-4abf-8b46-d33f87f8da46","ios":"levelo://app?vid=078febbd-6d49-4abf-8b46-d33f87f8da46"},"vehicle_type_id":"4","last_reported":1753654233,"current_range_meters":2800,"station_id":"","pricing_plan_id":"cebpf4jnsgd1na2vs0mg"},{"bike_id":"f123af25-f5e1-4535-bf9a-e453fb7322cc","system_id":"levelo_inurba_marseille","lat":43.27537,"lon":5.40932,"is_reserved":false,"is_disabled":true,"rental_uris":{"android":"levelo://app?vid=f123af25-f5e1-4535-bf9a-e453fb7322cc","ios":"levelo://app?vid=f123af25-f5e1-4535-bf9a-e453fb7322cc"},"vehicle_type_id":"4","last_reported":1753654233,"current_range_meters":3200,"station_id":"","pricing_plan_id":"cebpf4jnsgd1na2vs0mg"},{"bike_id":"acdc15f3-f881-4795-bd43-7b1b297ebaa4","system_id":"levelo_inurba_marseille","lat":43.27127,"lon":5.42248,"is_reserved":false,"is_disabled":true,"rental_uris":{"android":"levelo://app?vid=acdc15f3-f881-4795-bd43-7b1b297ebaa4","ios":"levelo://app?vid=acdc15f3-f881-4795-bd43-7b1b297ebaa4"},"vehicle_type_id":"4","last_reported":1753654233,"current_range_meters":3200,"station_id":"","pricing_plan_id":"cebpf4jnsgd1na2vs0mg"},{"bike_id":"0726de29-0f42-4a54-88e8-5e4c94778705","system_id":"levelo_inurba_marseille","lat":43.26512,"lon":5.39536,"is_reserved":false,"is_disabled":false,"rental_uris":{"android":"levelo://app?vid=0726de29-0f42-4a54-88e8-5e4c94778705","ios":"levelo://app?vid=0726de29-0f42-4a54-88e8-5e4c94778705"},"vehicle_type_id":"4","last_reported":1753654233,"current_range_meters":3600,"station_id":"ce4bhi12rcd13ifvqfq0","pricing_plan_id":"cebpf4jnsgd1na2vs0mg"},{"bike_id":"ac9f84a1-13bc-491d-a290-ad7ae19ef882","system_id":"levelo_inurba_marseille","lat":43.2249,"lon":5.34807,"is_reserved":false,"is_disabled":false,"rental_uris":{"android":"levelo://app?vid=ac9f84a1-13bc-491d-a290-ad7ae19ef882","ios":"levelo://app?vid=ac9f84a1-13bc-491d-a290-ad7ae19ef882"},"vehicle_type_id":"4","last_reported":1753654233,"current_range_meters":4000,"station_id":"st_cvj5dfep6f1abm77gieg","pricing_plan_id":"cebpf4jnsgd1na2vs0mg"},{"bike_id":"9f6ef48e-4075-4500-a853-89b32167731f","system_id":"levelo_inurba_marseille","lat":43.28939,"lon":5.3664,"is_reserved":false,"is_disabled":false,"rental_uris":{"android":"levelo://app?vid=9f6ef48e-4075-4500-a853-89b32167731f","ios":"levelo://app?vid=9f6ef48e-4075-4500-a853-89b32167731f"},"vehicle_type_id":"4","last_reported":1753654233,"current_range_meters":4000,"station_id":"ce4bhap2rcd13ifvqek0","pricing_plan_id":"cebpf4jnsgd1na2vs0mg"},{"bike_id":"0bf2ee5a-d38e-435d-83e7-b363cb32d77e","system_id":"levelo_inurba_marseille","lat":43.3199,"lon":5.3814,"is_reserved":false,"is_disabled":false,"rental_uris":{"android":"levelo://app?vid=0bf2ee5a-d38e-435d-83e7-b363cb32d77e","ios":"levelo://app?vid=0bf2ee5a-d38e-435d-83e7-b363cb32d77e"},"vehicle_type_id":"4","last_reported":1753654233,"current_range_meters":4000,"station_id":"ce4bhr12rcd13ifvqhpg","pricing_plan_id":"cebpf4jnsgd1na2vs0mg"},{"bike_id":"727f4493-ad90-4503-954c-097f57acb8ee","system_id":"levelo_inurba_marseille","lat":43.292633,"lon":5.376371,"is_reserved":false,"is_disabled":false,"rental_uris":{"android":"levelo://app?vid=727f4493-ad90-4503-954c-097f57acb8ee","ios":"levelo://app?vid=727f4493-ad90-4503-954c-097f57acb8ee"},"vehicle_type_id":"4","last_reported":1753654233,"current_range_meters":4000,"station_id":"","pricing_plan_id":"cebpf4jnsgd1na2vs0mg"},{"bike_id":"8414c65a-e2b6-4cab-b8f8-536a15b6717a","system_id":"levelo_inurba_marseille","lat":43.27616,"lon":5.3613,"is_reserved":false,"is_disabled":true,"rental_uris":{"android":"levelo://app?vid=8414c65a-e2b6-4cab-b8f8-536a15b6717a","ios":"levelo://app?vid=8414c65a-e2b6-4cab-b8f8-536a15b6717a"},"vehicle_type_id":"4","last_reported":1753654233,"current_range_meters":4000,"station_id":"ce4bgj92rcd13ifvqbe0","pricing_plan_id":"cebpf4jnsgd1na2vs0mg"},{"bike_id":"01a8e307-f9de-4eb5-a307-55559ca42c36","system_id":"levelo_inurba_marseille","lat":43.22509,"lon":5.3477,"is_reserved":false,"is_disabled":false,"rental_uris":{"android":"levelo://app?vid=01a8e307-f9de-4eb5-a307-55559ca42c36","ios":"levelo://app?vid=01a8e307-f9de-4eb5-a307-55559ca42c36"},"vehicle_type_id":"4","last_reported":1753654233,"current_range_meters":4000,"station_id":"st_cvj5dfep6f1abm77gieg","pricing_plan_id":"cebpf4jnsgd1na2vs0mg"},{"bike_id":"83a67c65-7f9b-4a81-a80c-c007cd448d24","system_id":"levelo_inurba_marseille","lat":43.292531,"lon":5.384314,"is_reserved":false,"is_disabled":false,"rental_uris":{"android":"levelo://app?vid=83a67c65-7f9b-4a81-a80c-c007cd448d24","ios":"levelo://app?vid=83a67c65-7f9b-4a81-a80c-c007cd448d24"},"vehicle_type_id":"4","last_reported":1753654233,"current_range_meters":4400,"station_id":"","pricing_plan_id":"cebpf4jnsgd1na2vs0mg"},{"bike_id":"c4742b74-a3c6-4eb5-aced-7f97925a7906","system_id":"levelo_inurba_marseille","lat":43.2953,"lon":5.3855,"is_reserved":false,"is_disabled":false,"rental_uris":{"android":"levelo://app?vid=c4742b74-a3c6-4eb5-aced-7f97925a7906","ios":"levelo://app?vid=c4742b74-a3c6-4eb5-aced-7f97925a7906"},"vehicle_type_id":"4","last_reported":1753654233,"current_range_meters":4000,"station_id":"ce4bgih2rcd13ifvqba0","pricing_plan_id":"cebpf4jnsgd1na2vs0mg"},{"bike_id":"8f660781-693a-425c-933e-3e97ffe52f0a","system_id":"levelo_inurba_marseille","lat":43.28153,"lon":5.42643,"is_reserved":false,"is_disabled":false,"rental_uris":{"android":"levelo://app?vid=8f660781-693a-425c-933e-3e97ffe52f0a","ios":"levelo://app?vid=8f660781-693a-425c-933e-3e97ffe52f0a"},"vehicle_type_id":"4","last_reported":1753654233,"current_range_meters":4800,"station_id":"ce4bhnh2rcd13ifvqgug","pricing_plan_id":"cebpf4jnsgd1na2vs0mg"},{"bike_id":"b12dbb31-5c75-4551-bc03-29f3c4082217","system_id":"levelo_inurba_marseille","lat":43.21208,"lon":5.35084,"is_reserved":false,"is_disabled":false,"rental_uris":{"android":"levelo://app?vid=b12dbb31-5c75-4551-bc03-29f3c4082217","ios":"levelo://app?vid=b12dbb31-5c75-4551-bc03-29f3c4082217"},"vehicle_type_id":"4","last_reported":1753654233,"current_range_meters":4800,"station_id":"st_cvj6sg6p6f1abm77japg","pricing_plan_id":"cebpf4jnsgd1na2vs0mg"},{"bike_id":"3c907c85-8250-4758-b11d-34417c7b24c7","system_id":"levelo_inurba_marseille","lat":43.26953,"lon":5.3863,"is_reserved":false,"is_disabled":false,"rental_uris":{"android":"levelo://app?vid=3c907c85-8250-4758-b11d-34417c7b24c7","ios":"levelo://app?vid=3c907c85-8250-4758-b11d-34417c7b24c7"},"vehicle_type_id":"4","last_reported":1753654233,"current_range_meters":4400,"station_id":"ce4bhh92rcd13ifvqfh0","pricing_plan_id":"cebpf4jnsgd1na2vs0mg"},{"bike_id":"22dca147-1260-44d8-822d-d9d1d50cce31","system_id":"levelo_inurba_marseille","lat":43.27465,"lon":5.39578,"is_reserved":false,"is_disabled":true,"rental_uris":{"android":"levelo://app?vid=22dca147-1260-44d8-822d-d9d1d50cce31","ios":"levelo://app?vid=22dca147-1260-44d8-822d-d9d1d50cce31"},"vehicle_type_id":"4","last_reported":1753654233,"current_range_meters":5600,"station_id":"","pricing_plan_id":"cebpf4jnsgd1na2vs0mg"},{"bike_id":"990eb3e5-15e9-44a1-85d5-1f979e53a5bd","system_id":"levelo_inurba_marseille","lat":43.23964,"lon":5.36629,"is_reserved":false,"is_disabled":true,"rental_uris":{"android":"levelo://app?vid=990eb3e5-15e9-44a1-85d5-1f979e53a5bd","ios":"levelo://app?vid=990eb3e5-15e9-44a1-85d5-1f979e53a5bd"},"vehicle_type_id":"4","last_reported":1753654233,"current_range_meters":5600,"station_id":"ce4bhi12rcd13ifvqfp0","pricing_plan_id":"cebpf4jnsgd1na2vs0mg"},{"bike_id":"7a70bfb7-375d-4b4d-81de-8e894d8133b9","system_id":"levelo_inurba_marseille","lat":43.28405,"lon":5.37518,"is_reserved":false,"is_disabled":false,"rental_uris":{"android":"levelo://app?vid=7a70bfb7-375d-4b4d-81de-8e894d8133b9","ios":"levelo://app?vid=7a70bfb7-375d-4b4d-81de-8e894d8133b9"},"vehicle_type_id":"4","last_reported":1753654233,"current_range_meters":5600,"station_id":"ce4bh412rcd13ifvqds0","pricing_plan_id":"cebpf4jnsgd1na2vs0mg"},{"bike_id":"0ed53f46-29e9-4af6-be43-1bb7fa322a9b","system_id":"levelo_inurba_marseille","lat":43.3092,"lon":5.40159,"is_reserved":false,"is_disabled":true,"rental_uris":{"android":"levelo://app?vid=0ed53f46-29e9-4af6-be43-1bb7fa322a9b","ios":"levelo://app?vid=0ed53f46-29e9-4af6-be43-1bb7fa322a9b"},"vehicle_type_id":"4","last_reported":1753654233,"current_range_meters":5600,"station_id":"ce4bgvp2rcd13ifvqct0","pricing_plan_id":"cebpf4jnsgd1na2vs0mg"},{"bike_id":"a3fe9995-2e3e-423b-9540-429a92fa997e","system_id":"levelo_inurba_marseille","lat":43.30206,"lon":5.37157,"is_reserved":false,"is_disabled":false,"rental_uris":{"android":"levelo://app?vid=a3fe9995-2e3e-423b-9540-429a92fa997e","ios":"levelo://app?vid=a3fe9995-2e3e-423b-9540-429a92fa997e"},"vehicle_type_id":"4","last_reported":1753654233,"current_range_meters":6000,"station_id":"","pricing_plan_id":"cebpf4jnsgd1na2vs0mg"},{"bike_id":"de99b14c-9afd-4bdd-bc56-50354c110c3d","system_id":"levelo_inurba_marseille","lat":43.25467,"lon":5.37687,"is_reserved":false,"is_disabled":false,"rental_uris":{"android":"levelo://app?vid=de99b14c-9afd-4bdd-bc56-50354c110c3d","ios":"levelo://app?vid=de99b14c-9afd-4bdd-bc56-50354c110c3d"},"vehicle_type_id":"4","last_reported":1753654233,"current_range_meters":6000,"station_id":"","pricing_plan_id":"cebpf4jnsgd1na2vs0mg"},{"bike_id":"212af42c-7589-49d1-a448-1de5a6a8dbce","system_id":"levelo_inurba_marseille","lat":43.292703,"lon":5.401205,"is_reserved":false,"is_disabled":true,"rental_uris":{"android":"levelo://app?vid=212af42c-7589-49d1-a448-1de5a6a8dbce","ios":"levelo://app?vid=212af42c-7589-49d1-a448-1de5a6a8dbce"},"vehicle_type_id":"4","last_reported":1753654233,"current_range_meters":6000,"station_id":"ce4bh312rcd13ifvqdk0","pricing_plan_id":"cebpf4jnsgd1na2vs0mg"},{"bike_id":"2d640db3-9861-4714-8531-24053b9a6f05","system_id":"levelo_inurba_marseille","lat":43.29268,"lon":5.38439,"is_reserved":false,"is_disabled":false,"rental_uris":{"android":"levelo://app?vid=2d640db3-9861-4714-8531-24053b9a6f05","ios":"levelo://app?vid=2d640db3-9861-4714-8531-24053b9a6f05"},"vehicle_type_id":"4","last_reported":1753654233,"current_range_meters":6000,"station_id":"ce4bh692rcd13ifvqea0","pricing_plan_id":"cebpf4jnsgd1na2vs0mg"},{"bike_id":"c4979c65-2910-41bc-8559-12c986ba156b","system_id":"levelo_inurba_marseille","lat":43.29077,"lon":5.37179,"is_reserved":false,"is_disabled":false,"rental_uris":{"android":"levelo://app?vid=c4979c65-2910-41bc-8559-12c986ba156b","ios":"levelo://app?vid=c4979c65-2910-41bc-8559-12c986ba156b"},"vehicle_type_id":"4","last_reported":1753654233,"current_range_meters":6000,"station_id":"ce4bh5p2rcd13ifvqe4g","pricing_plan_id":"cebpf4jnsgd1na2vs0mg"},{"bike_id":"8e878e8f-5d80-490d-b86c-324c23d42717","system_id":"levelo_inurba_marseille","lat":43.29189,"lon":5.4074,"is_reserved":false,"is_disabled":false,"rental_uris":{"android":"levelo://app?vid=8e878e8f-5d80-490d-b86c-324c23d42717","ios":"levelo://app?vid=8e878e8f-5d80-490d-b86c-324c23d42717"},"vehicle_type_id":"4","last_reported":1753654233,"current_range_meters":6400,"station_id":"","pricing_plan_id":"cebpf4jnsgd1na2vs0mg"},{"bike_id":"d74b5b76-136a-4e87-a5ff-764533682ecc","system_id":"levelo_inurba_marseille","lat":43.278593,"lon":5.424447,"is_reserved":false,"is_disabled":false,"rental_uris":{"android":"levelo://app?vid=d74b5b76-136a-4e87-a5ff-764533682ecc","ios":"levelo://app?vid=d74b5b76-136a-4e87-a5ff-764533682ecc"},"vehicle_type_id":"4","last_reported":1753654233,"current_range_meters":6400,"station_id":"","pricing_plan_id":"cebpf4jnsgd1na2vs0mg"},{"bike_id":"57755280-973c-4ff3-9c25-8f15e2c5b510","system_id":"levelo_inurba_marseille","lat":43.31872,"lon":5.37373,"is_reserved":false,"is_disabled":true,"rental_uris":{"android":"levelo://app?vid=57755280-973c-4ff3-9c25-8f15e2c5b510","ios":"levelo://app?vid=57755280-973c-4ff3-9c25-8f15e2c5b510"},"vehicle_type_id":"4","last_reported":1753654233,"current_range_meters":6400,"station_id":"","pricing_plan_id":"cebpf4jnsgd1na2vs0mg"},{"bike_id":"c6aff815-eaf1-4205-aeca-a61ce624e3bb","system_id":"levelo_inurba_marseille","lat":43.28937,"lon":5.39631,"is_reserved":false,"is_disabled":false,"rental_uris":{"android":"levelo://app?vid=c6aff815-eaf1-4205-aeca-a61ce624e3bb","ios":"levelo://app?vid=c6aff815-eaf1-4205-aeca-a61ce624e3bb"},"vehicle_type_id":"4","last_reported":1753654233,"current_range_meters":6800,"station_id":"ce4bh3h2rcd13ifvqdn0","pricing_plan_id":"cebpf4jnsgd1na2vs0mg"},{"bike_id":"d620d18f-b5a0-4d29-bbb7-9d0134391b23","system_id":"levelo_inurba_marseille","lat":43.28697,"lon":5.37382,"is_reserved":false,"is_disabled":false,"rental_uris":{"android":"levelo://app?vid=d620d18f-b5a0-4d29-bbb7-9d0134391b23","ios":"levelo://app?vid=d620d18f-b5a0-4d29-bbb7-9d0134391b23"},"vehicle_type_id":"4","last_reported":1753654233,"current_range_meters":6800,"station_id":"ce4bh3p2rcd13ifvqdq0","pricing_plan_id":"cebpf4jnsgd1na2vs0mg"},{"bike_id":"495ce505-fe21-484e-b250-32794578b32c","system_id":"levelo_inurba_marseille","lat":43.30649,"lon":5.3851,"is_reserved":false,"is_disabled":false,"rental_uris":{"android":"levelo://app?vid=495ce505-fe21-484e-b250-32794578b32c","ios":"levelo://app?vid=495ce505-fe21-484e-b250-32794578b32c"},"vehicle_type_id":"4","last_reported":1753654233,"current_range_meters":6800,"station_id":"","pricing_plan_id":"cebpf4jnsgd1na2vs0mg"},{"bike_id":"1e555c6b-044c-4bd1-a690-5b7bdd1ff5ab","system_id":"levelo_inurba_marseille","lat":43.30966,"lon":5.39056,"is_reserved":false,"is_disabled":true,"rental_uris":{"android":"levelo://app?vid=1e555c6b-044c-4bd1-a690-5b7bdd1ff5ab","ios":"levelo://app?vid=1e555c6b-044c-4bd1-a690-5b7bdd1ff5ab"},"vehicle_type_id":"4","last_reported":1753654233,"current_range_meters":7200,"station_id":"ce4bgup2rcd13ifvqco0","pricing_plan_id":"cebpf4jnsgd1na2vs0mg"},{"bike_id":"b1cb800f-1267-4b0c-b3fb-be1d297205ee","system_id":"levelo_inurba_marseille","lat":43.28349,"lon":5.3811,"is_reserved":false,"is_disabled":false,"rental_uris":{"android":"levelo://app?vid=b1cb800f-1267-4b0c-b3fb-be1d297205ee","ios":"levelo://app?vid=b1cb800f-1267-4b0c-b3fb-be1d297205ee"},"vehicle_type_id":"4","last_reported":1753654233,"current_range_meters":7200,"station_id":"ce4bh412rcd13ifvqdr0","pricing_plan_id":"cebpf4jnsgd1na2vs0mg"},{"bike_id":"0b6e37e1-db39-4d64-9941-7e484c9ea038","system_id":"levelo_inurba_marseille","lat":43.30156,"lon":5.38095,"is_reserved":false,"is_disabled":true,"rental_uris":{"android":"levelo://app?vid=0b6e37e1-db39-4d64-9941-7e484c9ea038","ios":"levelo://app?vid=0b6e37e1-db39-4d64-9941-7e484c9ea038"},"vehicle_type_id":"4","last_reported":1753654233,"current_range_meters":7200,"station_id":"","pricing_plan_id":"cebpf4jnsgd1na2vs0mg"},{"bike_id":"f2c0d178-a474-46a0-b002-379a7a30c411","system_id":"levelo_inurba_marseille","lat":43.294196,"lon":5.375951,"is_reserved":false,"is_disabled":false,"rental_uris":{"android":"levelo://app?vid=f2c0d178-a474-46a0-b002-379a7a30c411","ios":"levelo://app?vid=f2c0d178-a474-46a0-b002-379a7a30c411"},"vehicle_type_id":"4","last_reported":1753654233,"current_range_meters":8000,"station_id":"","pricing_plan_id":"cebpf4jnsgd1na2vs0mg"},{"bike_id":"4a4bbfcd-1aae-4463-9aff-1f76d43cb171","system_id":"levelo_inurba_marseille","lat":43.28571,"lon":5.39511,"is_reserved":false,"is_disabled":false,"rental_uris":{"android":"levelo://app?vid=4a4bbfcd-1aae-4463-9aff-1f76d43cb171","ios":"levelo://app?vid=4a4bbfcd-1aae-4463-9aff-1f76d43cb171"},"vehicle_type_id":"4","last_reported":1753654233,"current_range_meters":8000,"station_id":"ce4bh292rcd13ifvqdg0","pricing_plan_id":"cebpf4jnsgd1na2vs0mg"},{"bike_id":"4a36826a-0863-4fa9-ab43-1c68e92dda71","system_id":"levelo_inurba_marseille","lat":43.28715,"lon":5.37964,"is_reserved":false,"is_disabled":false,"rental_uris":{"android":"levelo://app?vid=4a36826a-0863-4fa9-ab43-1c68e92dda71","ios":"levelo://app?vid=4a36826a-0863-4fa9-ab43-1c68e92dda71"},"vehicle_type_id":"4","last_reported":1753654233,"current_range_meters":8000,"station_id":"ce4bh9p2rcd13ifvqec0","pricing_plan_id":"cebpf4jnsgd1na2vs0mg"},{"bike_id":"215616a7-77d1-4279-8116-886291901f8a","system_id":"levelo_inurba_marseille","lat":43.304574,"lon":5.415123,"is_reserved":false,"is_disabled":false,"rental_uris":{"android":"levelo://app?vid=215616a7-77d1-4279-8116-886291901f8a","ios":"levelo://app?vid=215616a7-77d1-4279-8116-886291901f8a"},"vehicle_type_id":"4","last_reported":1753654233,"current_range_meters":8000,"station_id":"ce4bhp92rcd13ifvqhag","pricing_plan_id":"cebpf4jnsgd1na2vs0mg"},{"bike_id":"ae63ae48-1755-434e-97d6-877f81ad1700","system_id":"levelo_inurba_marseille","lat":43.29716,"lon":5.37706,"is_reserved":false,"is_disabled":true,"rental_uris":{"android":"levelo://app?vid=ae63ae48-1755-434e-97d6-877f81ad1700","ios":"levelo://app?vid=ae63ae48-1755-434e-97d6-877f81ad1700"},"vehicle_type_id":"4","last_reported":1753654233,"current_range_meters":8000,"station_id":"ce4bgkh2rcd13ifvqbl0","pricing_plan_id":"cebpf4jnsgd1na2vs0mg"},{"bike_id":"02cab979-ccb2-40ce-bd89-cd624415fc04","system_id":"levelo_inurba_marseille","lat":43.27785,"lon":5.39919,"is_reserved":false,"is_disabled":false,"rental_uris":{"android":"levelo://app?vid=02cab979-ccb2-40ce-bd89-cd624415fc04","ios":"levelo://app?vid=02cab979-ccb2-40ce-bd89-cd624415fc04"},"vehicle_type_id":"4","last_reported":1753654233,"current_range_meters":8400,"station_id":"","pricing_plan_id":"cebpf4jnsgd1na2vs0mg"},{"bike_id":"9188366a-c6a3-4354-b558-553177316347","system_id":"levelo_inurba_marseille","lat":43.26239,"lon":5.37433,"is_reserved":false,"is_disabled":true,"rental_uris":{"android":"levelo://app?vid=9188366a-c6a3-4354-b558-553177316347","ios":"levelo://app?vid=9188366a-c6a3-4354-b558-553177316347"},"vehicle_type_id":"4","last_reported":1753654233,"current_range_meters":8000,"station_id":"","pricing_plan_id":"cebpf4jnsgd1na2vs0mg"},{"bike_id":"cd0d4afa-9de1-4afb-923d-b45a4942c9a1","system_id":"levelo_inurba_marseille","lat":43.22496,"lon":5.34783,"is_reserved":false,"is_disabled":false,"rental_uris":{"android":"levelo://app?vid=cd0d4afa-9de1-4afb-923d-b45a4942c9a1","ios":"levelo://app?vid=cd0d4afa-9de1-4afb-923d-b45a4942c9a1"},"vehicle_type_id":"4","last_reported":1753654233,"current_range_meters":8000,"station_id":"st_cvj5dfep6f1abm77gieg","pricing_plan_id":"cebpf4jnsgd1na2vs0mg"},{"bike_id":"eb61ee0d-3863-41f7-9478-740bbaeb7b8c","system_id":"levelo_inurba_marseille","lat":43.30656,"lon":5.40108,"is_reserved":false,"is_disabled":true,"rental_uris":{"android":"levelo://app?vid=eb61ee0d-3863-41f7-9478-740bbaeb7b8c","ios":"levelo://app?vid=eb61ee0d-3863-41f7-9478-740bbaeb7b8c"},"vehicle_type_id":"4","last_reported":1753654233,"current_range_meters":8400,"station_id":"ce4bh112rcd13ifvqda0","pricing_plan_id":"cebpf4jnsgd1na2vs0mg"},{"bike_id":"cdbcf578-fe52-4220-83e0-6dc710a7bb11","system_id":"levelo_inurba_marseille","lat":43.28416,"lon":5.34981,"is_reserved":false,"is_disabled":false,"rental_uris":{"android":"levelo://app?vid=cdbcf578-fe52-4220-83e0-6dc710a7bb11","ios":"levelo://app?vid=cdbcf578-fe52-4220-83e0-6dc710a7bb11"},"vehicle_type_id":"4","last_reported":1753654233,"current_range_meters":8400,"station_id":"ce4bhbh2rcd13ifvqepg","pricing_plan_id":"cebpf4jnsgd1na2vs0mg"},{"bike_id":"c3c2652b-f2d7-4ed4-89ec-9559feb01451","system_id":"levelo_inurba_marseille","lat":43.29226,"lon":5.360481,"is_reserved":false,"is_disabled":true,"rental_uris":{"android":"levelo://app?vid=c3c2652b-f2d7-4ed4-89ec-9559feb01451","ios":"levelo://app?vid=c3c2652b-f2d7-4ed4-89ec-9559feb01451"},"vehicle_type_id":"4","last_reported":1753654233,"current_range_meters":8400,"station_id":"ce4bhbh2rcd13ifvqeqg","pricing_plan_id":"cebpf4jnsgd1na2vs0mg"},{"bike_id":"3b54f77c-e143-4160-ae47-21bb11c26a88","system_id":"levelo_inurba_marseille","lat":43.29246,"lon":5.36872,"is_reserved":false,"is_disabled":false,"rental_uris":{"android":"levelo://app?vid=3b54f77c-e143-4160-ae47-21bb11c26a88","ios":"levelo://app?vid=3b54f77c-e143-4160-ae47-21bb11c26a88"},"vehicle_type_id":"4","last_reported":1753654233,"current_range_meters":8400,"station_id":"ce4bhbp2rcd13ifvqesg","pricing_plan_id":"cebpf4jnsgd1na2vs0mg"},{"bike_id":"8ec703b6-49cf-412b-ae69-a4487e5a6bac","system_id":"levelo_inurba_marseille","lat":43.31133,"lon":5.37761,"is_reserved":false,"is_disabled":false,"rental_uris":{"android":"levelo://app?vid=8ec703b6-49cf-412b-ae69-a4487e5a6bac","ios":"levelo://app?vid=8ec703b6-49cf-412b-ae69-a4487e5a6bac"},"vehicle_type_id":"4","last_reported":1753654233,"current_range_meters":8400,"station_id":"ce4bgt92rcd13ifvqcg0","pricing_plan_id":"cebpf4jnsgd1na2vs0mg"},{"bike_id":"fa259dd0-b6b7-4f5c-87a2-71ba2f30b1a1","system_id":"levelo_inurba_marseille","lat":43.27669,"lon":5.38875,"is_reserved":false,"is_disabled":false,"rental_uris":{"android":"levelo://app?vid=fa259dd0-b6b7-4f5c-87a2-71ba2f30b1a1","ios":"levelo://app?vid=fa259dd0-b6b7-4f5c-87a2-71ba2f30b1a1"},"vehicle_type_id":"4","last_reported":1753654233,"current_range_meters":8000,"station_id":"ce4bhi12rcd13ifvqfo0","pricing_plan_id":"cebpf4jnsgd1na2vs0mg"},{"bike_id":"042a8476-d3c4-476b-9557-f32c03e9d625","system_id":"levelo_inurba_marseille","lat":43.33936,"lon":5.356991,"is_reserved":false,"is_disabled":false,"rental_uris":{"android":"levelo://app?vid=042a8476-d3c4-476b-9557-f32c03e9d625","ios":"levelo://app?vid=042a8476-d3c4-476b-9557-f32c03e9d625"},"vehicle_type_id":"4","last_reported":1753654233,"current_range_meters":8400,"station_id":"","pricing_plan_id":"cebpf4jnsgd1na2vs0mg"},{"bike_id":"9f168d3e-d4a5-4911-a614-587c31e36878","system_id":"levelo_inurba_marseille","lat":43.28617,"lon":5.35105,"is_reserved":false,"is_disabled":false,"rental_uris":{"android":"levelo://app?vid=9f168d3e-d4a5-4911-a614-587c31e36878","ios":"levelo://app?vid=9f168d3e-d4a5-4911-a614-587c31e36878"},"vehicle_type_id":"4","last_reported":1753654233,"current_range_meters":8800,"station_id":"ce4bhch2rcd13ifvqeug","pricing_plan_id":"cebpf4jnsgd1na2vs0mg"},{"bike_id":"9377d52d-7c04-4205-81e5-05265b3eabff","system_id":"levelo_inurba_marseille","lat":43.287,"lon":5.37966,"is_reserved":false,"is_disabled":true,"rental_uris":{"android":"levelo://app?vid=9377d52d-7c04-4205-81e5-05265b3eabff","ios":"levelo://app?vid=9377d52d-7c04-4205-81e5-05265b3eabff"},"vehicle_type_id":"4","last_reported":1753654233,"current_range_meters":8800,"station_id":"ce4bh9p2rcd13ifvqec0","pricing_plan_id":"cebpf4jnsgd1na2vs0mg"},{"bike_id":"5af114db-3b20-4aab-840b-3240a5403d94","system_id":"levelo_inurba_marseille","lat":43.22933,"lon":5.35379,"is_reserved":false,"is_disabled":false,"rental_uris":{"android":"levelo://app?vid=5af114db-3b20-4aab-840b-3240a5403d94","ios":"levelo://app?vid=5af114db-3b20-4aab-840b-3240a5403d94"},"vehicle_type_id":"4","last_reported":1753654233,"current_range_meters":8800,"station_id":"cpo3532slgdg3j2ikp40","pricing_plan_id":"cebpf4jnsgd1na2vs0mg"},{"bike_id":"d5a63dee-a415-40f6-88a8-f1d25d6ddaa1","system_id":"levelo_inurba_marseille","lat":43.290311,"lon":5.399895,"is_reserved":false,"is_disabled":true,"rental_uris":{"android":"levelo://app?vid=d5a63dee-a415-40f6-88a8-f1d25d6ddaa1","ios":"levelo://app?vid=d5a63dee-a415-40f6-88a8-f1d25d6ddaa1"},"vehicle_type_id":"4","last_reported":1753654233,"current_range_meters":8800,"station_id":"ce4bh392rcd13ifvqdm0","pricing_plan_id":"cebpf4jnsgd1na2vs0mg"},{"bike_id":"96e8f9e2-5ed4-4a64-abed-b574666ba88d","system_id":"levelo_inurba_marseille","lat":43.21228,"lon":5.35062,"is_reserved":false,"is_disabled":false,"rental_uris":{"android":"levelo://app?vid=96e8f9e2-5ed4-4a64-abed-b574666ba88d","ios":"levelo://app?vid=96e8f9e2-5ed4-4a64-abed-b574666ba88d"},"vehicle_type_id":"4","last_reported":1753654233,"current_range_meters":8800,"station_id":"","pricing_plan_id":"cebpf4jnsgd1na2vs0mg"},{"bike_id":"1426a5df-42ce-4d0d-b0ba-54e41151ee1f","system_id":"levelo_inurba_marseille","lat":43.29529,"lon":5.37458,"is_reserved":false,"is_disabled":false,"rental_uris":{"android":"levelo://app?vid=1426a5df-42ce-4d0d-b0ba-54e41151ee1f","ios":"levelo://app?vid=1426a5df-42ce-4d0d-b0ba-54e41151ee1f"},"vehicle_type_id":"4","last_reported":1753654233,"current_range_meters":8800,"station_id":"ce4bgkp2rcd13ifvqbmg","pricing_plan_id":"cebpf4jnsgd1na2vs0mg"},{"bike_id":"7e65c5ea-0429-45f5-a396-bd32e67f0744","system_id":"levelo_inurba_marseille","lat":43.33479,"lon":5.40056,"is_reserved":false,"is_disabled":false,"rental_uris":{"android":"levelo://app?vid=7e65c5ea-0429-45f5-a396-bd32e67f0744","ios":"levelo://app?vid=7e65c5ea-0429-45f5-a396-bd32e67f0744"},"vehicle_type_id":"4","last_reported":1753654233,"current_range_meters":8800,"station_id":"","pricing_plan_id":"cebpf4jnsgd1na2vs0mg"},{"bike_id":"f2876902-0402-4dca-8fa2-0ffba379c9ac","system_id":"levelo_inurba_marseille","lat":43.29075,"lon":5.37551,"is_reserved":false,"is_disabled":false,"rental_uris":{"android":"levelo://app?vid=f2876902-0402-4dca-8fa2-0ffba379c9ac","ios":"levelo://app?vid=f2876902-0402-4dca-8fa2-0ffba379c9ac"},"vehicle_type_id":"4","last_reported":1753654233,"current_range_meters":9200,"station_id":"","pricing_plan_id":"cebpf4jnsgd1na2vs0mg"},{"bike_id":"ff6db71b-a463-4685-b650-05756d79427c","system_id":"levelo_inurba_marseille","lat":43.28605,"lon":5.37066,"is_reserved":false,"is_disabled":false,"rental_uris":{"android":"levelo://app?vid=ff6db71b-a463-4685-b650-05756d79427c","ios":"levelo://app?vid=ff6db71b-a463-4685-b650-05756d79427c"},"vehicle_type_id":"4","last_reported":1753654233,"current_range_meters":9600,"station_id":"ce4bht12rcd13ifvqi60","pricing_plan_id":"cebpf4jnsgd1na2vs0mg"},{"bike_id":"c684c4d3-4bb9-4abf-90ca-8037fb7fbdde","system_id":"levelo_inurba_marseille","lat":43.29866,"lon":5.39741,"is_reserved":false,"is_disabled":false,"rental_uris":{"android":"levelo://app?vid=c684c4d3-4bb9-4abf-90ca-8037fb7fbdde","ios":"levelo://app?vid=c684c4d3-4bb9-4abf-90ca-8037fb7fbdde"},"vehicle_type_id":"4","last_reported":1753654233,"current_range_meters":9600,"station_id":"ce4bh0h2rcd13ifvqd50","pricing_plan_id":"cebpf4jnsgd1na2vs0mg"},{"bike_id":"898d1f8e-e261-4f25-9386-a6825028d102","system_id":"levelo_inurba_marseille","lat":43.29067,"lon":5.47353,"is_reserved":false,"is_disabled":false,"rental_uris":{"android":"levelo://app?vid=898d1f8e-e261-4f25-9386-a6825028d102","ios":"levelo://app?vid=898d1f8e-e261-4f25-9386-a6825028d102"},"vehicle_type_id":"4","last_reported":1753654233,"current_range_meters":9600,"station_id":"","pricing_plan_id":"cebpf4jnsgd1na2vs0mg"},{"bike_id":"9dfdeb8a-ee13-4931-94b4-ad2b5f23aa4b","system_id":"levelo_inurba_marseille","lat":43.23191,"lon":5.39995,"is_reserved":false,"is_disabled":true,"rental_uris":{"android":"levelo://app?vid=9dfdeb8a-ee13-4931-94b4-ad2b5f23aa4b","ios":"levelo://app?vid=9dfdeb8a-ee13-4931-94b4-ad2b5f23aa4b"},"vehicle_type_id":"4","last_reported":1753654233,"current_range_meters":9600,"station_id":"ce4bhn12rcd13ifvqgqg","pricing_plan_id":"cebpf4jnsgd1na2vs0mg"},{"bike_id":"a05343f6-5345-451e-92c9-8d14b4ec04eb","system_id":"levelo_inurba_marseille","lat":43.314919,"lon":5.373082,"is_reserved":false,"is_disabled":true,"rental_uris":{"android":"levelo://app?vid=a05343f6-5345-451e-92c9-8d14b4ec04eb","ios":"levelo://app?vid=a05343f6-5345-451e-92c9-8d14b4ec04eb"},"vehicle_type_id":"4","last_reported":1753654233,"current_range_meters":9600,"station_id":"","pricing_plan_id":"cebpf4jnsgd1na2vs0mg"},{"bike_id":"c36d7638-28d9-4bc5-955c-64c676f5497e","system_id":"levelo_inurba_marseille","lat":43.319952,"lon":5.381578,"is_reserved":false,"is_disabled":false,"rental_uris":{"android":"levelo://app?vid=c36d7638-28d9-4bc5-955c-64c676f5497e","ios":"levelo://app?vid=c36d7638-28d9-4bc5-955c-64c676f5497e"},"vehicle_type_id":"4","last_reported":1753654233,"current_range_meters":9200,"station_id":"ce4bhr12rcd13ifvqhpg","pricing_plan_id":"cebpf4jnsgd1na2vs0mg"},{"bike_id":"156e744b-94c9-4be0-9dfd-d007398890ce","system_id":"levelo_inurba_marseille","lat":43.32361,"lon":5.36775,"is_reserved":false,"is_disabled":false,"rental_uris":{"android":"levelo://app?vid=156e744b-94c9-4be0-9dfd-d007398890ce","ios":"levelo://app?vid=156e744b-94c9-4be0-9dfd-d007398890ce"},"vehicle_type_id":"4","last_reported":1753654233,"current_range_meters":9600,"station_id":"ce4bhsh2rcd13ifvqi2g","pricing_plan_id":"cebpf4jnsgd1na2vs0mg"},{"bike_id":"7fe8107c-aa92-49b9-a3d4-b0180595b13e","system_id":"levelo_inurba_marseille","lat":43.298235,"lon":5.376573,"is_reserved":false,"is_disabled":false,"rental_uris":{"android":"levelo://app?vid=7fe8107c-aa92-49b9-a3d4-b0180595b13e","ios":"levelo://app?vid=7fe8107c-aa92-49b9-a3d4-b0180595b13e"},"vehicle_type_id":"4","last_reported":1753654233,"current_range_meters":9600,"station_id":"","pricing_plan_id":"cebpf4jnsgd1na2vs0mg"},{"bike_id":"9102cabb-989f-4379-b74a-7ec7bf2a44b3","system_id":"levelo_inurba_marseille","lat":43.21749,"lon":5.34599,"is_reserved":false,"is_disabled":true,"rental_uris":{"android":"levelo://app?vid=9102cabb-989f-4379-b74a-7ec7bf2a44b3","ios":"levelo://app?vid=9102cabb-989f-4379-b74a-7ec7bf2a44b3"},"vehicle_type_id":"4","last_reported":1753654233,"current_range_meters":10000,"station_id":"","pricing_plan_id":"cebpf4jnsgd1na2vs0mg"},{"bike_id":"dc04e206-05d2-4c8a-be28-5f738cdafedd","system_id":"levelo_inurba_marseille","lat":43.29115,"lon":5.35581,"is_reserved":false,"is_disabled":false,"rental_uris":{"android":"levelo://app?vid=dc04e206-05d2-4c8a-be28-5f738cdafedd","ios":"levelo://app?vid=dc04e206-05d2-4c8a-be28-5f738cdafedd"},"vehicle_type_id":"4","last_reported":1753654233,"current_range_meters":10000,"station_id":"","pricing_plan_id":"cebpf4jnsgd1na2vs0mg"},{"bike_id":"6a38ad86-92b8-4aed-98d7-3569ef9cc105","system_id":"levelo_inurba_marseille","lat":43.2176,"lon":5.34613,"is_reserved":false,"is_disabled":true,"rental_uris":{"android":"levelo://app?vid=6a38ad86-92b8-4aed-98d7-3569ef9cc105","ios":"levelo://app?vid=6a38ad86-92b8-4aed-98d7-3569ef9cc105"},"vehicle_type_id":"4","last_reported":1753654233,"current_range_meters":10000,"station_id":"st_cvj6r9ubvosntc0bgbag","pricing_plan_id":"cebpf4jnsgd1na2vs0mg"},{"bike_id":"43dbc09e-d0e4-4ddb-bafe-4f55874d23a9","system_id":"levelo_inurba_marseille","lat":43.30222,"lon":5.38235,"is_reserved":false,"is_disabled":false,"rental_uris":{"android":"levelo://app?vid=43dbc09e-d0e4-4ddb-bafe-4f55874d23a9","ios":"levelo://app?vid=43dbc09e-d0e4-4ddb-bafe-4f55874d23a9"},"vehicle_type_id":"4","last_reported":1753654233,"current_range_meters":10000,"station_id":"","pricing_plan_id":"cebpf4jnsgd1na2vs0mg"},{"bike_id":"98b57ac4-75b1-431f-9349-66ba7f2cfc67","system_id":"levelo_inurba_marseille","lat":43.28934,"lon":5.36634,"is_reserved":false,"is_disabled":false,"rental_uris":{"android":"levelo://app?vid=98b57ac4-75b1-431f-9349-66ba7f2cfc67","ios":"levelo://app?vid=98b57ac4-75b1-431f-9349-66ba7f2cfc67"},"vehicle_type_id":"4","last_reported":1753654233,"current_range_meters":10000,"station_id":"ce4bhap2rcd13ifvqek0","pricing_plan_id":"cebpf4jnsgd1na2vs0mg"},{"bike_id":"cc824405-3e19-444e-b89f-36e9bb46bda9","system_id":"levelo_inurba_marseille","lat":43.28935,"lon":5.36637,"is_reserved":false,"is_disabled":false,"rental_uris":{"android":"levelo://app?vid=cc824405-3e19-444e-b89f-36e9bb46bda9","ios":"levelo://app?vid=cc824405-3e19-444e-b89f-36e9bb46bda9"},"vehicle_type_id":"4","last_reported":1753654233,"current_range_meters":10800,"station_id":"ce4bhap2rcd13ifvqek0","pricing_plan_id":"cebpf4jnsgd1na2vs0mg"},{"bike_id":"0bda9d2f-bd94-449e-9573-d95ecc586ccb","system_id":"levelo_inurba_marseille","lat":43.287,"lon":5.39983,"is_reserved":false,"is_disabled":false,"rental_uris":{"android":"levelo://app?vid=0bda9d2f-bd94-449e-9573-d95ecc586ccb","ios":"levelo://app?vid=0bda9d2f-bd94-449e-9573-d95ecc586ccb"},"vehicle_type_id":"4","last_reported":1753654233,"current_range_meters":10800,"station_id":"ce4bho92rcd13ifvqh3g","pricing_plan_id":"cebpf4jnsgd1na2vs0mg"},{"bike_id":"05701c82-841e-4494-aae1-8a9ef5131767","system_id":"levelo_inurba_marseille","lat":43.28962,"lon":5.39632,"is_reserved":false,"is_disabled":false,"rental_uris":{"android":"levelo://app?vid=05701c82-841e-4494-aae1-8a9ef5131767","ios":"levelo://app?vid=05701c82-841e-4494-aae1-8a9ef5131767"},"vehicle_type_id":"4","last_reported":1753654233,"current_range_meters":10800,"station_id":"ce4bh3h2rcd13ifvqdn0","pricing_plan_id":"cebpf4jnsgd1na2vs0mg"},{"bike_id":"c09f4c93-95bf-484a-b205-e175cc6f4643","system_id":"levelo_inurba_marseille","lat":43.27841,"lon":5.39392,"is_reserved":false,"is_disabled":false,"rental_uris":{"android":"levelo://app?vid=c09f4c93-95bf-484a-b205-e175cc6f4643","ios":"levelo://app?vid=c09f4c93-95bf-484a-b205-e175cc6f4643"},"vehicle_type_id":"4","last_reported":1753654233,"current_range_meters":10800,"station_id":"","pricing_plan_id":"cebpf4jnsgd1na2vs0mg"},{"bike_id":"d25570e3-87c9-4356-ba9f-96a9aa944e99","system_id":"levelo_inurba_marseille","lat":43.28353,"lon":5.38128,"is_reserved":false,"is_disabled":false,"rental_uris":{"android":"levelo://app?vid=d25570e3-87c9-4356-ba9f-96a9aa944e99","ios":"levelo://app?vid=d25570e3-87c9-4356-ba9f-96a9aa944e99"},"vehicle_type_id":"4","last_reported":1753654233,"current_range_meters":10800,"station_id":"ce4bh412rcd13ifvqdr0","pricing_plan_id":"cebpf4jnsgd1na2vs0mg"},{"bike_id":"198a8a48-9082-408a-ac7c-20dca32fbf4e","system_id":"levelo_inurba_marseille","lat":43.32083,"lon":5.40898,"is_reserved":false,"is_disabled":false,"rental_uris":{"android":"levelo://app?vid=198a8a48-9082-408a-ac7c-20dca32fbf4e","ios":"levelo://app?vid=198a8a48-9082-408a-ac7c-20dca32fbf4e"},"vehicle_type_id":"4","last_reported":1753654233,"current_range_meters":10800,"station_id":"","pricing_plan_id":"cebpf4jnsgd1na2vs0mg"},{"bike_id":"24a23750-30eb-468d-8701-18af823b3894","system_id":"levelo_inurba_marseille","lat":43.292,"lon":5.39314,"is_reserved":false,"is_disabled":false,"rental_uris":{"android":"levelo://app?vid=24a23750-30eb-468d-8701-18af823b3894","ios":"levelo://app?vid=24a23750-30eb-468d-8701-18af823b3894"},"vehicle_type_id":"4","last_reported":1753654233,"current_range_meters":10800,"station_id":"ce4bh192rcd13ifvqdd0","pricing_plan_id":"cebpf4jnsgd1na2vs0mg"},{"bike_id":"416acd6b-072a-494f-b869-b2b61f9cc9d7","system_id":"levelo_inurba_marseille","lat":43.22517,"lon":5.34779,"is_reserved":false,"is_disabled":false,"rental_uris":{"android":"levelo://app?vid=416acd6b-072a-494f-b869-b2b61f9cc9d7","ios":"levelo://app?vid=416acd6b-072a-494f-b869-b2b61f9cc9d7"},"vehicle_type_id":"4","last_reported":1753654233,"current_range_meters":10800,"station_id":"st_cvj5dfep6f1abm77gieg","pricing_plan_id":"cebpf4jnsgd1na2vs0mg"},{"bike_id":"9a8f2d3a-f694-4ba9-aea0-78ee5ece652c","system_id":"levelo_inurba_marseille","lat":43.29678,"lon":5.37708,"is_reserved":false,"is_disabled":false,"rental_uris":{"android":"levelo://app?vid=9a8f2d3a-f694-4ba9-aea0-78ee5ece652c","ios":"levelo://app?vid=9a8f2d3a-f694-4ba9-aea0-78ee5ece652c"},"vehicle_type_id":"4","last_reported":1753654233,"current_range_meters":11200,"station_id":"ce4bgkh2rcd13ifvqbl0","pricing_plan_id":"cebpf4jnsgd1na2vs0mg"},{"bike_id":"34a3ef36-57a6-4810-8d1d-7363087f9243","system_id":"levelo_inurba_marseille","lat":43.307007,"lon":5.400541,"is_reserved":false,"is_disabled":false,"rental_uris":{"android":"levelo://app?vid=34a3ef36-57a6-4810-8d1d-7363087f9243","ios":"levelo://app?vid=34a3ef36-57a6-4810-8d1d-7363087f9243"},"vehicle_type_id":"4","last_reported":1753654233,"current_range_meters":11200,"station_id":"ce4bgvp2rcd13ifvqct0","pricing_plan_id":"cebpf4jnsgd1na2vs0mg"},{"bike_id":"0497443b-585d-4be4-bcef-f139183c03a7","system_id":"levelo_inurba_marseille","lat":43.27813,"lon":5.40724,"is_reserved":false,"is_disabled":false,"rental_uris":{"android":"levelo://app?vid=0497443b-585d-4be4-bcef-f139183c03a7","ios":"levelo://app?vid=0497443b-585d-4be4-bcef-f139183c03a7"},"vehicle_type_id":"4","last_reported":1753654233,"current_range_meters":11200,"station_id":"ce4bhnh2rcd13ifvqgtg","pricing_plan_id":"cebpf4jnsgd1na2vs0mg"},{"bike_id":"9d9cf603-e9f2-4cd8-96c8-1c6ec949cc1a","system_id":"levelo_inurba_marseille","lat":43.286933,"lon":5.399845,"is_reserved":false,"is_disabled":false,"rental_uris":{"android":"levelo://app?vid=9d9cf603-e9f2-4cd8-96c8-1c6ec949cc1a","ios":"levelo://app?vid=9d9cf603-e9f2-4cd8-96c8-1c6ec949cc1a"},"vehicle_type_id":"4","last_reported":1753654233,"current_range_meters":11200,"station_id":"ce4bho92rcd13ifvqh3g","pricing_plan_id":"cebpf4jnsgd1na2vs0mg"},{"bike_id":"da0dea9a-07a2-4249-aa7c-2489e28d40de","system_id":"levelo_inurba_marseille","lat":43.29642,"lon":5.36255,"is_reserved":false,"is_disabled":false,"rental_uris":{"android":"levelo://app?vid=da0dea9a-07a2-4249-aa7c-2489e28d40de","ios":"levelo://app?vid=da0dea9a-07a2-4249-aa7c-2489e28d40de"},"vehicle_type_id":"4","last_reported":1753654233,"current_range_meters":11600,"station_id":"","pricing_plan_id":"cebpf4jnsgd1na2vs0mg"},{"bike_id":"e5f45e86-a25f-4bde-9c89-4e7b0afd2dbd","system_id":"levelo_inurba_marseille","lat":43.28405,"lon":5.37517,"is_reserved":false,"is_disabled":false,"rental_uris":{"android":"levelo://app?vid=e5f45e86-a25f-4bde-9c89-4e7b0afd2dbd","ios":"levelo://app?vid=e5f45e86-a25f-4bde-9c89-4e7b0afd2dbd"},"vehicle_type_id":"4","last_reported":1753654233,"current_range_meters":11600,"station_id":"ce4bh412rcd13ifvqds0","pricing_plan_id":"cebpf4jnsgd1na2vs0mg"},{"bike_id":"905576ef-66ce-426e-9600-566828c3b671","system_id":"levelo_inurba_marseille","lat":43.2172,"lon":5.34632,"is_reserved":false,"is_disabled":true,"rental_uris":{"android":"levelo://app?vid=905576ef-66ce-426e-9600-566828c3b671","ios":"levelo://app?vid=905576ef-66ce-426e-9600-566828c3b671"},"vehicle_type_id":"4","last_reported":1753654233,"current_range_meters":11600,"station_id":"","pricing_plan_id":"cebpf4jnsgd1na2vs0mg"},{"bike_id":"357b84d7-23e7-4ae3-be7a-dff7cb92c88a","system_id":"levelo_inurba_marseille","lat":43.251129,"lon":5.40315,"is_reserved":false,"is_disabled":false,"rental_uris":{"android":"levelo://app?vid=357b84d7-23e7-4ae3-be7a-dff7cb92c88a","ios":"levelo://app?vid=357b84d7-23e7-4ae3-be7a-dff7cb92c88a"},"vehicle_type_id":"4","last_reported":1753654233,"current_range_meters":11600,"station_id":"ce4bhlh2rcd13ifvqgig","pricing_plan_id":"cebpf4jnsgd1na2vs0mg"},{"bike_id":"f0beafc6-4f1d-406d-9b81-bf9ae37556b7","system_id":"levelo_inurba_marseille","lat":43.22938,"lon":5.35384,"is_reserved":false,"is_disabled":false,"rental_uris":{"android":"levelo://app?vid=f0beafc6-4f1d-406d-9b81-bf9ae37556b7","ios":"levelo://app?vid=f0beafc6-4f1d-406d-9b81-bf9ae37556b7"},"vehicle_type_id":"4","last_reported":1753654233,"current_range_meters":12000,"station_id":"cpo3532slgdg3j2ikp40","pricing_plan_id":"cebpf4jnsgd1na2vs0mg"},{"bike_id":"8b091c87-00a4-4e64-a058-ca35b401f679","system_id":"levelo_inurba_marseille","lat":43.25125,"lon":5.3742,"is_reserved":false,"is_disabled":true,"rental_uris":{"android":"levelo://app?vid=8b091c87-00a4-4e64-a058-ca35b401f679","ios":"levelo://app?vid=8b091c87-00a4-4e64-a058-ca35b401f679"},"vehicle_type_id":"4","last_reported":1753654233,"current_range_meters":12000,"station_id":"","pricing_plan_id":"cebpf4jnsgd1na2vs0mg"},{"bike_id":"463e03fe-b9b0-4212-a764-9bd6d78e3c2e","system_id":"levelo_inurba_marseille","lat":43.31014,"lon":5.38137,"is_reserved":false,"is_disabled":false,"rental_uris":{"android":"levelo://app?vid=463e03fe-b9b0-4212-a764-9bd6d78e3c2e","ios":"levelo://app?vid=463e03fe-b9b0-4212-a764-9bd6d78e3c2e"},"vehicle_type_id":"4","last_reported":1753654233,"current_range_meters":12000,"station_id":"","pricing_plan_id":"cebpf4jnsgd1na2vs0mg"},{"bike_id":"a7d81092-3314-4a3a-ab97-971087babd14","system_id":"levelo_inurba_marseille","lat":43.29599,"lon":5.38097,"is_reserved":false,"is_disabled":false,"rental_uris":{"android":"levelo://app?vid=a7d81092-3314-4a3a-ab97-971087babd14","ios":"levelo://app?vid=a7d81092-3314-4a3a-ab97-971087babd14"},"vehicle_type_id":"4","last_reported":1753654233,"current_range_meters":12000,"station_id":"ce4bgl12rcd13ifvqbo0","pricing_plan_id":"cebpf4jnsgd1na2vs0mg"},{"bike_id":"8512b265-75e1-49d7-bb7d-bd988c357d7c","system_id":"levelo_inurba_marseille","lat":43.287038,"lon":5.399765,"is_reserved":false,"is_disabled":true,"rental_uris":{"android":"levelo://app?vid=8512b265-75e1-49d7-bb7d-bd988c357d7c","ios":"levelo://app?vid=8512b265-75e1-49d7-bb7d-bd988c357d7c"},"vehicle_type_id":"4","last_reported":1753654233,"current_range_meters":12000,"station_id":"ce4bho92rcd13ifvqh3g","pricing_plan_id":"cebpf4jnsgd1na2vs0mg"},{"bike_id":"7409aad9-9927-4a5b-8f6e-bcbb510087f0","system_id":"levelo_inurba_marseille","lat":43.295305,"lon":5.385348,"is_reserved":false,"is_disabled":false,"rental_uris":{"android":"levelo://app?vid=7409aad9-9927-4a5b-8f6e-bcbb510087f0","ios":"levelo://app?vid=7409aad9-9927-4a5b-8f6e-bcbb510087f0"},"vehicle_type_id":"4","last_reported":1753654233,"current_range_meters":12400,"station_id":"ce4bgih2rcd13ifvqba0","pricing_plan_id":"cebpf4jnsgd1na2vs0mg"},{"bike_id":"35d0df44-2d4a-4ef0-9998-ab67d2135e01","system_id":"levelo_inurba_marseille","lat":43.308412,"lon":5.395755,"is_reserved":false,"is_disabled":false,"rental_uris":{"android":"levelo://app?vid=35d0df44-2d4a-4ef0-9998-ab67d2135e01","ios":"levelo://app?vid=35d0df44-2d4a-4ef0-9998-ab67d2135e01"},"vehicle_type_id":"4","last_reported":1753654233,"current_range_meters":12000,"station_id":"ce4bh012rcd13ifvqcv0","pricing_plan_id":"cebpf4jnsgd1na2vs0mg"},{"bike_id":"fc17dd07-1a4a-4aa7-beb0-db0d740f1929","system_id":"levelo_inurba_marseille","lat":43.22921,"lon":5.35474,"is_reserved":false,"is_disabled":false,"rental_uris":{"android":"levelo://app?vid=fc17dd07-1a4a-4aa7-beb0-db0d740f1929","ios":"levelo://app?vid=fc17dd07-1a4a-4aa7-beb0-db0d740f1929"},"vehicle_type_id":"4","last_reported":1753654233,"current_range_meters":12400,"station_id":"","pricing_plan_id":"cebpf4jnsgd1na2vs0mg"},{"bike_id":"10cd8877-5144-4861-b171-cc4a80092159","system_id":"levelo_inurba_marseille","lat":43.27946,"lon":5.41042,"is_reserved":false,"is_disabled":false,"rental_uris":{"android":"levelo://app?vid=10cd8877-5144-4861-b171-cc4a80092159","ios":"levelo://app?vid=10cd8877-5144-4861-b171-cc4a80092159"},"vehicle_type_id":"4","last_reported":1753654233,"current_range_meters":12400,"station_id":"ce4bhnp2rcd13ifvqh0g","pricing_plan_id":"cebpf4jnsgd1na2vs0mg"},{"bike_id":"0d3453f1-7a09-485b-af72-f245b0b449fd","system_id":"levelo_inurba_marseille","lat":43.30531,"lon":5.38426,"is_reserved":false,"is_disabled":false,"rental_uris":{"android":"levelo://app?vid=0d3453f1-7a09-485b-af72-f245b0b449fd","ios":"levelo://app?vid=0d3453f1-7a09-485b-af72-f245b0b449fd"},"vehicle_type_id":"4","last_reported":1753654233,"current_range_meters":12000,"station_id":"ce4bgg92rcd13ifvqb30","pricing_plan_id":"cebpf4jnsgd1na2vs0mg"},{"bike_id":"00ed14a9-7d08-4cc9-9b42-41f67139c4ac","system_id":"levelo_inurba_marseille","lat":43.2693,"lon":5.38663,"is_reserved":false,"is_disabled":true,"rental_uris":{"android":"levelo://app?vid=00ed14a9-7d08-4cc9-9b42-41f67139c4ac","ios":"levelo://app?vid=00ed14a9-7d08-4cc9-9b42-41f67139c4ac"},"vehicle_type_id":"4","last_reported":1753654233,"current_range_meters":12400,"station_id":"ce4bhh92rcd13ifvqfh0","pricing_plan_id":"cebpf4jnsgd1na2vs0mg"},{"bike_id":"d1ee7493-1c8a-469d-8c3c-eed7b0a6afe5","system_id":"levelo_inurba_marseille","lat":43.299683,"lon":5.386239,"is_reserved":false,"is_disabled":false,"rental_uris":{"android":"levelo://app?vid=d1ee7493-1c8a-469d-8c3c-eed7b0a6afe5","ios":"levelo://app?vid=d1ee7493-1c8a-469d-8c3c-eed7b0a6afe5"},"vehicle_type_id":"4","last_reported":1753654233,"current_range_meters":12800,"station_id":"","pricing_plan_id":"cebpf4jnsgd1na2vs0mg"},{"bike_id":"8b47b4a7-e42a-4a96-b426-50a31fcb3de3","system_id":"levelo_inurba_marseille","lat":43.32106,"lon":5.36765,"is_reserved":false,"is_disabled":false,"rental_uris":{"android":"levelo://app?vid=8b47b4a7-e42a-4a96-b426-50a31fcb3de3","ios":"levelo://app?vid=8b47b4a7-e42a-4a96-b426-50a31fcb3de3"},"vehicle_type_id":"4","last_reported":1753654233,"current_range_meters":12800,"station_id":"ce4bhrh2rcd13ifvqhug","pricing_plan_id":"cebpf4jnsgd1na2vs0mg"},{"bike_id":"8f785e69-82ae-4e1d-82c1-f85cc3f67788","system_id":"levelo_inurba_marseille","lat":43.29098,"lon":5.38147,"is_reserved":false,"is_disabled":true,"rental_uris":{"android":"levelo://app?vid=8f785e69-82ae-4e1d-82c1-f85cc3f67788","ios":"levelo://app?vid=8f785e69-82ae-4e1d-82c1-f85cc3f67788"},"vehicle_type_id":"4","last_reported":1753654233,"current_range_meters":12800,"station_id":"ce4bh512rcd13ifvqe2g","pricing_plan_id":"cebpf4jnsgd1na2vs0mg"},{"bike_id":"66ebd405-679e-40b5-bc37-34ba4daaa711","system_id":"levelo_inurba_marseille","lat":43.29036,"lon":5.39963,"is_reserved":false,"is_disabled":false,"rental_uris":{"android":"levelo://app?vid=66ebd405-679e-40b5-bc37-34ba4daaa711","ios":"levelo://app?vid=66ebd405-679e-40b5-bc37-34ba4daaa711"},"vehicle_type_id":"4","last_reported":1753654233,"current_range_meters":12800,"station_id":"ce4bh392rcd13ifvqdm0","pricing_plan_id":"cebpf4jnsgd1na2vs0mg"},{"bike_id":"3dac6e7a-6727-4547-a162-4acf06c4c2f5","system_id":"levelo_inurba_marseille","lat":43.24636,"lon":5.38918,"is_reserved":false,"is_disabled":false,"rental_uris":{"android":"levelo://app?vid=3dac6e7a-6727-4547-a162-4acf06c4c2f5","ios":"levelo://app?vid=3dac6e7a-6727-4547-a162-4acf06c4c2f5"},"vehicle_type_id":"4","last_reported":1753654233,"current_range_meters":12800,"station_id":"ce4bhg12rcd13ifvqf60","pricing_plan_id":"cebpf4jnsgd1na2vs0mg"},{"bike_id":"710e528c-f5e2-4f10-8f2c-efcdc4d27379","system_id":"levelo_inurba_marseille","lat":43.2799,"lon":5.40019,"is_reserved":false,"is_disabled":true,"rental_uris":{"android":"levelo://app?vid=710e528c-f5e2-4f10-8f2c-efcdc4d27379","ios":"levelo://app?vid=710e528c-f5e2-4f10-8f2c-efcdc4d27379"},"vehicle_type_id":"4","last_reported":1753654233,"current_range_meters":12800,"station_id":"ce4bho92rcd13ifvqh4g","pricing_plan_id":"cebpf4jnsgd1na2vs0mg"},{"bike_id":"bf3b53b2-3e96-407b-b4d4-d797204ff8bd","system_id":"levelo_inurba_marseille","lat":43.29901,"lon":5.39768,"is_reserved":false,"is_disabled":true,"rental_uris":{"android":"levelo://app?vid=bf3b53b2-3e96-407b-b4d4-d797204ff8bd","ios":"levelo://app?vid=bf3b53b2-3e96-407b-b4d4-d797204ff8bd"},"vehicle_type_id":"4","last_reported":1753654233,"current_range_meters":12800,"station_id":"","pricing_plan_id":"cebpf4jnsgd1na2vs0mg"},{"bike_id":"9306cb98-ff63-47ed-9064-9c9a8b611a79","system_id":"levelo_inurba_marseille","lat":43.296217,"lon":5.373246,"is_reserved":false,"is_disabled":false,"rental_uris":{"android":"levelo://app?vid=9306cb98-ff63-47ed-9064-9c9a8b611a79","ios":"levelo://app?vid=9306cb98-ff63-47ed-9064-9c9a8b611a79"},"vehicle_type_id":"4","last_reported":1753654233,"current_range_meters":12800,"station_id":"","pricing_plan_id":"cebpf4jnsgd1na2vs0mg"},{"bike_id":"388bc238-fad7-406c-9d22-fb5bb71926c0","system_id":"levelo_inurba_marseille","lat":43.28412,"lon":5.3752,"is_reserved":false,"is_disabled":false,"rental_uris":{"android":"levelo://app?vid=388bc238-fad7-406c-9d22-fb5bb71926c0","ios":"levelo://app?vid=388bc238-fad7-406c-9d22-fb5bb71926c0"},"vehicle_type_id":"4","last_reported":1753654233,"current_range_meters":12800,"station_id":"ce4bh412rcd13ifvqds0","pricing_plan_id":"cebpf4jnsgd1na2vs0mg"},{"bike_id":"1c162ee1-85f7-4dfa-9be3-85ee44250ac6","system_id":"levelo_inurba_marseille","lat":43.29581,"lon":5.38119,"is_reserved":false,"is_disabled":false,"rental_uris":{"android":"levelo://app?vid=1c162ee1-85f7-4dfa-9be3-85ee44250ac6","ios":"levelo://app?vid=1c162ee1-85f7-4dfa-9be3-85ee44250ac6"},"vehicle_type_id":"4","last_reported":1753654233,"current_range_meters":12800,"station_id":"ce4bgl12rcd13ifvqbo0","pricing_plan_id":"cebpf4jnsgd1na2vs0mg"},{"bike_id":"e39c7e6a-ab73-4ff6-af03-5fb9a405473f","system_id":"levelo_inurba_marseille","lat":43.30431,"lon":5.38893,"is_reserved":false,"is_disabled":false,"rental_uris":{"android":"levelo://app?vid=e39c7e6a-ab73-4ff6-af03-5fb9a405473f","ios":"levelo://app?vid=e39c7e6a-ab73-4ff6-af03-5fb9a405473f"},"vehicle_type_id":"4","last_reported":1753654233,"current_range_meters":12400,"station_id":"ce4bgk12rcd13ifvqbi0","pricing_plan_id":"cebpf4jnsgd1na2vs0mg"},{"bike_id":"a41baa72-1391-4d84-a2d6-75498447c2b3","system_id":"levelo_inurba_marseille","lat":43.28151,"lon":5.42642,"is_reserved":false,"is_disabled":false,"rental_uris":{"android":"levelo://app?vid=a41baa72-1391-4d84-a2d6-75498447c2b3","ios":"levelo://app?vid=a41baa72-1391-4d84-a2d6-75498447c2b3"},"vehicle_type_id":"4","last_reported":1753654233,"current_range_meters":13600,"station_id":"ce4bhnh2rcd13ifvqgug","pricing_plan_id":"cebpf4jnsgd1na2vs0mg"},{"bike_id":"31dd8732-6772-4494-9245-541c930aed04","system_id":"levelo_inurba_marseille","lat":43.24163,"lon":5.36397,"is_reserved":false,"is_disabled":false,"rental_uris":{"android":"levelo://app?vid=31dd8732-6772-4494-9245-541c930aed04","ios":"levelo://app?vid=31dd8732-6772-4494-9245-541c930aed04"},"vehicle_type_id":"4","last_reported":1753654233,"current_range_meters":13600,"station_id":"cpo36qri1sfpv3e86is0","pricing_plan_id":"cebpf4jnsgd1na2vs0mg"},{"bike_id":"56ec8761-dee0-49c1-aba7-a69ac65d386f","system_id":"levelo_inurba_marseille","lat":43.22923,"lon":5.35393,"is_reserved":false,"is_disabled":false,"rental_uris":{"android":"levelo://app?vid=56ec8761-dee0-49c1-aba7-a69ac65d386f","ios":"levelo://app?vid=56ec8761-dee0-49c1-aba7-a69ac65d386f"},"vehicle_type_id":"4","last_reported":1753654233,"current_range_meters":13600,"station_id":"cpo3532slgdg3j2ikp40","pricing_plan_id":"cebpf4jnsgd1na2vs0mg"},{"bike_id":"264fbea3-2c7f-4636-bd2b-32e60faed0d5","system_id":"levelo_inurba_marseille","lat":43.22494,"lon":5.347778,"is_reserved":false,"is_disabled":false,"rental_uris":{"android":"levelo://app?vid=264fbea3-2c7f-4636-bd2b-32e60faed0d5","ios":"levelo://app?vid=264fbea3-2c7f-4636-bd2b-32e60faed0d5"},"vehicle_type_id":"4","last_reported":1753654233,"current_range_meters":13600,"station_id":"st_cvj5dfep6f1abm77gieg","pricing_plan_id":"cebpf4jnsgd1na2vs0mg"},{"bike_id":"24e5b65e-c89c-47ff-afe7-b8903942f2ec","system_id":"levelo_inurba_marseille","lat":43.24807,"lon":5.37461,"is_reserved":false,"is_disabled":false,"rental_uris":{"android":"levelo://app?vid=24e5b65e-c89c-47ff-afe7-b8903942f2ec","ios":"levelo://app?vid=24e5b65e-c89c-47ff-afe7-b8903942f2ec"},"vehicle_type_id":"4","last_reported":1753654233,"current_range_meters":13600,"station_id":"ce4bhgh2rcd13ifvqfb0","pricing_plan_id":"cebpf4jnsgd1na2vs0mg"},{"bike_id":"903a25fb-6b02-4f64-bcae-08947e87361e","system_id":"levelo_inurba_marseille","lat":43.29521,"lon":5.38543,"is_reserved":false,"is_disabled":false,"rental_uris":{"android":"levelo://app?vid=903a25fb-6b02-4f64-bcae-08947e87361e","ios":"levelo://app?vid=903a25fb-6b02-4f64-bcae-08947e87361e"},"vehicle_type_id":"4","last_reported":1753654233,"current_range_meters":13600,"station_id":"ce4bgih2rcd13ifvqba0","pricing_plan_id":"cebpf4jnsgd1na2vs0mg"},{"bike_id":"a591545e-2b41-4298-a6a7-8e4c88bde821","system_id":"levelo_inurba_marseille","lat":43.286018,"lon":5.37063,"is_reserved":false,"is_disabled":false,"rental_uris":{"android":"levelo://app?vid=a591545e-2b41-4298-a6a7-8e4c88bde821","ios":"levelo://app?vid=a591545e-2b41-4298-a6a7-8e4c88bde821"},"vehicle_type_id":"4","last_reported":1753654233,"current_range_meters":14000,"station_id":"ce4bht12rcd13ifvqi60","pricing_plan_id":"cebpf4jnsgd1na2vs0mg"},{"bike_id":"d8cd6055-23c8-4622-a5bf-68f9b9ebfe53","system_id":"levelo_inurba_marseille","lat":43.270725,"lon":5.422808,"is_reserved":false,"is_disabled":true,"rental_uris":{"android":"levelo://app?vid=d8cd6055-23c8-4622-a5bf-68f9b9ebfe53","ios":"levelo://app?vid=d8cd6055-23c8-4622-a5bf-68f9b9ebfe53"},"vehicle_type_id":"4","last_reported":1753654233,"current_range_meters":14000,"station_id":"ce4bhk92rcd13ifvqgb0","pricing_plan_id":"cebpf4jnsgd1na2vs0mg"},{"bike_id":"688a04e1-05b6-4fc7-b03c-b784b8613797","system_id":"levelo_inurba_marseille","lat":43.29187,"lon":5.39315,"is_reserved":false,"is_disabled":false,"rental_uris":{"android":"levelo://app?vid=688a04e1-05b6-4fc7-b03c-b784b8613797","ios":"levelo://app?vid=688a04e1-05b6-4fc7-b03c-b784b8613797"},"vehicle_type_id":"4","last_reported":1753654233,"current_range_meters":14000,"station_id":"ce4bh192rcd13ifvqdd0","pricing_plan_id":"cebpf4jnsgd1na2vs0mg"},{"bike_id":"dd4a8cf1-7437-4a18-9dd0-bb792bdb998a","system_id":"levelo_inurba_marseille","lat":43.28547,"lon":5.3735,"is_reserved":false,"is_disabled":false,"rental_uris":{"android":"levelo://app?vid=dd4a8cf1-7437-4a18-9dd0-bb792bdb998a","ios":"levelo://app?vid=dd4a8cf1-7437-4a18-9dd0-bb792bdb998a"},"vehicle_type_id":"4","last_reported":1753654233,"current_range_meters":14000,"station_id":"","pricing_plan_id":"cebpf4jnsgd1na2vs0mg"},{"bike_id":"556bc6c2-3a75-4570-aa98-a4a399644d79","system_id":"levelo_inurba_marseille","lat":43.28718,"lon":5.39994,"is_reserved":false,"is_disabled":false,"rental_uris":{"android":"levelo://app?vid=556bc6c2-3a75-4570-aa98-a4a399644d79","ios":"levelo://app?vid=556bc6c2-3a75-4570-aa98-a4a399644d79"},"vehicle_type_id":"4","last_reported":1753654233,"current_range_meters":14000,"station_id":"ce4bho92rcd13ifvqh3g","pricing_plan_id":"cebpf4jnsgd1na2vs0mg"},{"bike_id":"2675420e-931f-4f28-b71c-8d75405675a7","system_id":"levelo_inurba_marseille","lat":43.31378,"lon":5.38506,"is_reserved":false,"is_disabled":false,"rental_uris":{"android":"levelo://app?vid=2675420e-931f-4f28-b71c-8d75405675a7","ios":"levelo://app?vid=2675420e-931f-4f28-b71c-8d75405675a7"},"vehicle_type_id":"4","last_reported":1753654233,"current_range_meters":14000,"station_id":"ce4bgt92rcd13ifvqcf0","pricing_plan_id":"cebpf4jnsgd1na2vs0mg"},{"bike_id":"8d801f83-3686-49fa-a7fd-3701c57be20d","system_id":"levelo_inurba_marseille","lat":43.24067,"lon":5.37767,"is_reserved":false,"is_disabled":false,"rental_uris":{"android":"levelo://app?vid=8d801f83-3686-49fa-a7fd-3701c57be20d","ios":"levelo://app?vid=8d801f83-3686-49fa-a7fd-3701c57be20d"},"vehicle_type_id":"4","last_reported":1753654233,"current_range_meters":14000,"station_id":"ce4bhnp2rcd13ifvqgvg","pricing_plan_id":"cebpf4jnsgd1na2vs0mg"},{"bike_id":"3152576e-d602-4c3f-980e-717f41aed773","system_id":"levelo_inurba_marseille","lat":43.33737,"lon":5.37465,"is_reserved":false,"is_disabled":false,"rental_uris":{"android":"levelo://app?vid=3152576e-d602-4c3f-980e-717f41aed773","ios":"levelo://app?vid=3152576e-d602-4c3f-980e-717f41aed773"},"vehicle_type_id":"4","last_reported":1753654233,"current_range_meters":14000,"station_id":"","pricing_plan_id":"cebpf4jnsgd1na2vs0mg"},{"bike_id":"78a8a8f6-1cbe-48a7-afd7-d8db96ba8c71","system_id":"levelo_inurba_marseille","lat":43.30313,"lon":5.37052,"is_reserved":false,"is_disabled":true,"rental_uris":{"android":"levelo://app?vid=78a8a8f6-1cbe-48a7-afd7-d8db96ba8c71","ios":"levelo://app?vid=78a8a8f6-1cbe-48a7-afd7-d8db96ba8c71"},"vehicle_type_id":"4","last_reported":1753654233,"current_range_meters":14400,"station_id":"ce4bgqh2rcd13ifvqc5g","pricing_plan_id":"cebpf4jnsgd1na2vs0mg"},{"bike_id":"c6764efe-41ea-4d68-8cc1-e1041ef9de89","system_id":"levelo_inurba_marseille","lat":43.30316,"lon":5.39205,"is_reserved":false,"is_disabled":false,"rental_uris":{"android":"levelo://app?vid=c6764efe-41ea-4d68-8cc1-e1041ef9de89","ios":"levelo://app?vid=c6764efe-41ea-4d68-8cc1-e1041ef9de89"},"vehicle_type_id":"4","last_reported":1753654233,"current_range_meters":14000,"station_id":"ce4bgkh2rcd13ifvqbk0","pricing_plan_id":"cebpf4jnsgd1na2vs0mg"},{"bike_id":"f610ef8f-018f-4acf-b0d6-a63af8186de6","system_id":"levelo_inurba_marseille","lat":43.30304,"lon":5.39211,"is_reserved":false,"is_disabled":false,"rental_uris":{"android":"levelo://app?vid=f610ef8f-018f-4acf-b0d6-a63af8186de6","ios":"levelo://app?vid=f610ef8f-018f-4acf-b0d6-a63af8186de6"},"vehicle_type_id":"4","last_reported":1753654233,"current_range_meters":14400,"station_id":"ce4bgkh2rcd13ifvqbk0","pricing_plan_id":"cebpf4jnsgd1na2vs0mg"},{"bike_id":"6a03989f-edd8-4ed6-bb3a-2f44052db42e","system_id":"levelo_inurba_marseille","lat":43.30593,"lon":5.39368,"is_reserved":false,"is_disabled":false,"rental_uris":{"android":"levelo://app?vid=6a03989f-edd8-4ed6-bb3a-2f44052db42e","ios":"levelo://app?vid=6a03989f-edd8-4ed6-bb3a-2f44052db42e"},"vehicle_type_id":"4","last_reported":1753654233,"current_range_meters":14800,"station_id":"ce4bh0p2rcd13ifvqd80","pricing_plan_id":"cebpf4jnsgd1na2vs0mg"},{"bike_id":"87a4d710-c859-4883-a056-db27db09862e","system_id":"levelo_inurba_marseille","lat":43.277585,"lon":5.355971,"is_reserved":false,"is_disabled":false,"rental_uris":{"android":"levelo://app?vid=87a4d710-c859-4883-a056-db27db09862e","ios":"levelo://app?vid=87a4d710-c859-4883-a056-db27db09862e"},"vehicle_type_id":"4","last_reported":1753654233,"current_range_meters":14800,"station_id":"","pricing_plan_id":"cebpf4jnsgd1na2vs0mg"},{"bike_id":"24ed2a21-cf33-4410-adea-fd8f04d66266","system_id":"levelo_inurba_marseille","lat":43.29026,"lon":5.38651,"is_reserved":false,"is_disabled":false,"rental_uris":{"android":"levelo://app?vid=24ed2a21-cf33-4410-adea-fd8f04d66266","ios":"levelo://app?vid=24ed2a21-cf33-4410-adea-fd8f04d66266"},"vehicle_type_id":"4","last_reported":1753654233,"current_range_meters":14800,"station_id":"ce4bh4p2rcd13ifvqe0g","pricing_plan_id":"cebpf4jnsgd1na2vs0mg"},{"bike_id":"79f6ea4b-2bac-44a5-9218-b91dfaab399b","system_id":"levelo_inurba_marseille","lat":43.295353,"lon":5.385451,"is_reserved":false,"is_disabled":false,"rental_uris":{"android":"levelo://app?vid=79f6ea4b-2bac-44a5-9218-b91dfaab399b","ios":"levelo://app?vid=79f6ea4b-2bac-44a5-9218-b91dfaab399b"},"vehicle_type_id":"4","last_reported":1753654233,"current_range_meters":14800,"station_id":"ce4bgih2rcd13ifvqba0","pricing_plan_id":"cebpf4jnsgd1na2vs0mg"},{"bike_id":"b30d2e1a-5293-443b-8819-90074cbc1e40","system_id":"levelo_inurba_marseille","lat":43.32359,"lon":5.36762,"is_reserved":false,"is_disabled":false,"rental_uris":{"android":"levelo://app?vid=b30d2e1a-5293-443b-8819-90074cbc1e40","ios":"levelo://app?vid=b30d2e1a-5293-443b-8819-90074cbc1e40"},"vehicle_type_id":"4","last_reported":1753654233,"current_range_meters":14800,"station_id":"ce4bhsh2rcd13ifvqi2g","pricing_plan_id":"cebpf4jnsgd1na2vs0mg"},{"bike_id":"feb40379-0815-4a68-aadb-305942f11d04","system_id":"levelo_inurba_marseille","lat":43.249504,"lon":5.389972,"is_reserved":false,"is_disabled":false,"rental_uris":{"android":"levelo://app?vid=feb40379-0815-4a68-aadb-305942f11d04","ios":"levelo://app?vid=feb40379-0815-4a68-aadb-305942f11d04"},"vehicle_type_id":"4","last_reported":1753654233,"current_range_meters":14800,"station_id":"","pricing_plan_id":"cebpf4jnsgd1na2vs0mg"},{"bike_id":"2edf8151-cb92-46cc-9321-24e397aeed28","system_id":"levelo_inurba_marseille","lat":43.23011,"lon":5.35588,"is_reserved":false,"is_disabled":false,"rental_uris":{"android":"levelo://app?vid=2edf8151-cb92-46cc-9321-24e397aeed28","ios":"levelo://app?vid=2edf8151-cb92-46cc-9321-24e397aeed28"},"vehicle_type_id":"4","last_reported":1753654233,"current_range_meters":15200,"station_id":"","pricing_plan_id":"cebpf4jnsgd1na2vs0mg"},{"bike_id":"208a4568-6991-49b2-a39f-490461664549","system_id":"levelo_inurba_marseille","lat":43.258633,"lon":5.398981,"is_reserved":false,"is_disabled":false,"rental_uris":{"android":"levelo://app?vid=208a4568-6991-49b2-a39f-490461664549","ios":"levelo://app?vid=208a4568-6991-49b2-a39f-490461664549"},"vehicle_type_id":"4","last_reported":1753654233,"current_range_meters":14800,"station_id":"ce4bhl92rcd13ifvqghg","pricing_plan_id":"cebpf4jnsgd1na2vs0mg"},{"bike_id":"86fb346c-e01e-4bb2-b048-7f87b1f4aa9e","system_id":"levelo_inurba_marseille","lat":43.2972,"lon":5.37695,"is_reserved":false,"is_disabled":true,"rental_uris":{"android":"levelo://app?vid=86fb346c-e01e-4bb2-b048-7f87b1f4aa9e","ios":"levelo://app?vid=86fb346c-e01e-4bb2-b048-7f87b1f4aa9e"},"vehicle_type_id":"4","last_reported":1753654233,"current_range_meters":15200,"station_id":"ce4bgkh2rcd13ifvqbl0","pricing_plan_id":"cebpf4jnsgd1na2vs0mg"},{"bike_id":"4e61d064-6e15-43f2-8629-f4e39d9240ed","system_id":"levelo_inurba_marseille","lat":43.30772,"lon":5.38157,"is_reserved":false,"is_disabled":false,"rental_uris":{"android":"levelo://app?vid=4e61d064-6e15-43f2-8629-f4e39d9240ed","ios":"levelo://app?vid=4e61d064-6e15-43f2-8629-f4e39d9240ed"},"vehicle_type_id":"4","last_reported":1753654233,"current_range_meters":15200,"station_id":"ce4bgt12rcd13ifvqce0","pricing_plan_id":"cebpf4jnsgd1na2vs0mg"},{"bike_id":"cbd36821-2115-41ee-ab6f-d319337f8b3e","system_id":"levelo_inurba_marseille","lat":43.30794,"lon":5.38165,"is_reserved":false,"is_disabled":false,"rental_uris":{"android":"levelo://app?vid=cbd36821-2115-41ee-ab6f-d319337f8b3e","ios":"levelo://app?vid=cbd36821-2115-41ee-ab6f-d319337f8b3e"},"vehicle_type_id":"4","last_reported":1753654233,"current_range_meters":15200,"station_id":"ce4bgt12rcd13ifvqce0","pricing_plan_id":"cebpf4jnsgd1na2vs0mg"},{"bike_id":"5f3b4fd1-eae6-41fc-8eb7-bc8b29b63214","system_id":"levelo_inurba_marseille","lat":43.32371,"lon":5.36633,"is_reserved":false,"is_disabled":false,"rental_uris":{"android":"levelo://app?vid=5f3b4fd1-eae6-41fc-8eb7-bc8b29b63214","ios":"levelo://app?vid=5f3b4fd1-eae6-41fc-8eb7-bc8b29b63214"},"vehicle_type_id":"4","last_reported":1753654233,"current_range_meters":15200,"station_id":"ce4bhsh2rcd13ifvqi2g","pricing_plan_id":"cebpf4jnsgd1na2vs0mg"},{"bike_id":"21119b74-9092-450b-a780-dc3f5e5aa101","system_id":"levelo_inurba_marseille","lat":43.24066,"lon":5.37784,"is_reserved":false,"is_disabled":false,"rental_uris":{"android":"levelo://app?vid=21119b74-9092-450b-a780-dc3f5e5aa101","ios":"levelo://app?vid=21119b74-9092-450b-a780-dc3f5e5aa101"},"vehicle_type_id":"4","last_reported":1753654233,"current_range_meters":15200,"station_id":"ce4bhnp2rcd13ifvqgvg","pricing_plan_id":"cebpf4jnsgd1na2vs0mg"},{"bike_id":"5137e5c8-fae9-4531-85b9-df7423feb303","system_id":"levelo_inurba_marseille","lat":43.33152,"lon":5.38919,"is_reserved":false,"is_disabled":false,"rental_uris":{"android":"levelo://app?vid=5137e5c8-fae9-4531-85b9-df7423feb303","ios":"levelo://app?vid=5137e5c8-fae9-4531-85b9-df7423feb303"},"vehicle_type_id":"4","last_reported":1753654233,"current_range_meters":15200,"station_id":"","pricing_plan_id":"cebpf4jnsgd1na2vs0mg"},{"bike_id":"329681ee-4b7c-4b42-a093-9c4985b10282","system_id":"levelo_inurba_marseille","lat":43.28426,"lon":5.34991,"is_reserved":false,"is_disabled":true,"rental_uris":{"android":"levelo://app?vid=329681ee-4b7c-4b42-a093-9c4985b10282","ios":"levelo://app?vid=329681ee-4b7c-4b42-a093-9c4985b10282"},"vehicle_type_id":"4","last_reported":1753654233,"current_range_meters":15200,"station_id":"ce4bhbh2rcd13ifvqepg","pricing_plan_id":"cebpf4jnsgd1na2vs0mg"},{"bike_id":"1ad2ca06-702b-4478-a319-158d2afb46be","system_id":"levelo_inurba_marseille","lat":43.27999,"lon":5.4167,"is_reserved":false,"is_disabled":false,"rental_uris":{"android":"levelo://app?vid=1ad2ca06-702b-4478-a319-158d2afb46be","ios":"levelo://app?vid=1ad2ca06-702b-4478-a319-158d2afb46be"},"vehicle_type_id":"4","last_reported":1753654233,"current_range_meters":16000,"station_id":"ce4bho12rcd13ifvqh1g","pricing_plan_id":"cebpf4jnsgd1na2vs0mg"},{"bike_id":"d752fae9-04df-4ecc-a5ce-390776b30417","system_id":"levelo_inurba_marseille","lat":43.336,"lon":5.41029,"is_reserved":false,"is_disabled":false,"rental_uris":{"android":"levelo://app?vid=d752fae9-04df-4ecc-a5ce-390776b30417","ios":"levelo://app?vid=d752fae9-04df-4ecc-a5ce-390776b30417"},"vehicle_type_id":"4","last_reported":1753654233,"current_range_meters":16000,"station_id":"ce4bhqh2rcd13ifvqhmg","pricing_plan_id":"cebpf4jnsgd1na2vs0mg"},{"bike_id":"b72b594c-e0d6-40cd-a5df-7f8f1f9ff13a","system_id":"levelo_inurba_marseille","lat":43.29533,"lon":5.38557,"is_reserved":false,"is_disabled":false,"rental_uris":{"android":"levelo://app?vid=b72b594c-e0d6-40cd-a5df-7f8f1f9ff13a","ios":"levelo://app?vid=b72b594c-e0d6-40cd-a5df-7f8f1f9ff13a"},"vehicle_type_id":"4","last_reported":1753654233,"current_range_meters":16000,"station_id":"ce4bgih2rcd13ifvqba0","pricing_plan_id":"cebpf4jnsgd1na2vs0mg"},{"bike_id":"910d5158-b889-437d-9461-df38d13b01a9","system_id":"levelo_inurba_marseille","lat":43.27827,"lon":5.40693,"is_reserved":false,"is_disabled":false,"rental_uris":{"android":"levelo://app?vid=910d5158-b889-437d-9461-df38d13b01a9","ios":"levelo://app?vid=910d5158-b889-437d-9461-df38d13b01a9"},"vehicle_type_id":"4","last_reported":1753654233,"current_range_meters":16000,"station_id":"ce4bhnh2rcd13ifvqgtg","pricing_plan_id":"cebpf4jnsgd1na2vs0mg"},{"bike_id":"6e90fd24-b1d6-42c2-bd66-304b64552988","system_id":"levelo_inurba_marseille","lat":43.30517,"lon":5.36718,"is_reserved":false,"is_disabled":false,"rental_uris":{"android":"levelo://app?vid=6e90fd24-b1d6-42c2-bd66-304b64552988","ios":"levelo://app?vid=6e90fd24-b1d6-42c2-bd66-304b64552988"},"vehicle_type_id":"4","last_reported":1753654233,"current_range_meters":16000,"station_id":"ce4bgrp2rcd13ifvqc9g","pricing_plan_id":"cebpf4jnsgd1na2vs0mg"},{"bike_id":"c7cf243a-7c39-4dde-b215-d7ee8c6b7e48","system_id":"levelo_inurba_marseille","lat":43.31697,"lon":5.40503,"is_reserved":false,"is_disabled":false,"rental_uris":{"android":"levelo://app?vid=c7cf243a-7c39-4dde-b215-d7ee8c6b7e48","ios":"levelo://app?vid=c7cf243a-7c39-4dde-b215-d7ee8c6b7e48"},"vehicle_type_id":"4","last_reported":1753654233,"current_range_meters":16000,"station_id":"ce4bh012rcd13ifvqd00","pricing_plan_id":"cebpf4jnsgd1na2vs0mg"},{"bike_id":"e8a16d5a-9273-4195-bda1-e68ec44683c5","system_id":"levelo_inurba_marseille","lat":43.28855,"lon":5.39309,"is_reserved":false,"is_disabled":false,"rental_uris":{"android":"levelo://app?vid=e8a16d5a-9273-4195-bda1-e68ec44683c5","ios":"levelo://app?vid=e8a16d5a-9273-4195-bda1-e68ec44683c5"},"vehicle_type_id":"4","last_reported":1753654233,"current_range_meters":16000,"station_id":"ce4bh2p2rcd13ifvqdi0","pricing_plan_id":"cebpf4jnsgd1na2vs0mg"},{"bike_id":"5219ab57-9b3b-4070-aceb-35e4501ee602","system_id":"levelo_inurba_marseille","lat":43.28464,"lon":5.35881,"is_reserved":false,"is_disabled":false,"rental_uris":{"android":"levelo://app?vid=5219ab57-9b3b-4070-aceb-35e4501ee602","ios":"levelo://app?vid=5219ab57-9b3b-4070-aceb-35e4501ee602"},"vehicle_type_id":"4","last_reported":1753654233,"current_range_meters":16000,"station_id":"ce4bhah2rcd13ifvqei0","pricing_plan_id":"cebpf4jnsgd1na2vs0mg"},{"bike_id":"363860ed-6d0c-40e8-91e3-2c5053026ca7","system_id":"levelo_inurba_marseille","lat":43.22929,"lon":5.35378,"is_reserved":false,"is_disabled":false,"rental_uris":{"android":"levelo://app?vid=363860ed-6d0c-40e8-91e3-2c5053026ca7","ios":"levelo://app?vid=363860ed-6d0c-40e8-91e3-2c5053026ca7"},"vehicle_type_id":"4","last_reported":1753654233,"current_range_meters":16000,"station_id":"cpo3532slgdg3j2ikp40","pricing_plan_id":"cebpf4jnsgd1na2vs0mg"},{"bike_id":"ba41eee1-a748-43b4-ad1d-d0f24d6a783d","system_id":"levelo_inurba_marseille","lat":43.27522,"lon":5.40918,"is_reserved":false,"is_disabled":false,"rental_uris":{"android":"levelo://app?vid=ba41eee1-a748-43b4-ad1d-d0f24d6a783d","ios":"levelo://app?vid=ba41eee1-a748-43b4-ad1d-d0f24d6a783d"},"vehicle_type_id":"4","last_reported":1753654233,"current_range_meters":16000,"station_id":"","pricing_plan_id":"cebpf4jnsgd1na2vs0mg"},{"bike_id":"0be0b886-3d66-47cb-8bf8-6ef33ac10ebe","system_id":"levelo_inurba_marseille","lat":43.23184,"lon":5.39997,"is_reserved":false,"is_disabled":false,"rental_uris":{"android":"levelo://app?vid=0be0b886-3d66-47cb-8bf8-6ef33ac10ebe","ios":"levelo://app?vid=0be0b886-3d66-47cb-8bf8-6ef33ac10ebe"},"vehicle_type_id":"4","last_reported":1753654233,"current_range_meters":16000,"station_id":"ce4bhn12rcd13ifvqgqg","pricing_plan_id":"cebpf4jnsgd1na2vs0mg"},{"bike_id":"b1ce726d-f66e-4a21-9e58-bcc99e079d39","system_id":"levelo_inurba_marseille","lat":43.27597,"lon":5.36127,"is_reserved":false,"is_disabled":false,"rental_uris":{"android":"levelo://app?vid=b1ce726d-f66e-4a21-9e58-bcc99e079d39","ios":"levelo://app?vid=b1ce726d-f66e-4a21-9e58-bcc99e079d39"},"vehicle_type_id":"4","last_reported":1753654233,"current_range_meters":16000,"station_id":"ce4bgj92rcd13ifvqbe0","pricing_plan_id":"cebpf4jnsgd1na2vs0mg"},{"bike_id":"098b018e-2607-4af2-bc10-8758893e88ea","system_id":"levelo_inurba_marseille","lat":43.2408,"lon":5.37761,"is_reserved":false,"is_disabled":false,"rental_uris":{"android":"levelo://app?vid=098b018e-2607-4af2-bc10-8758893e88ea","ios":"levelo://app?vid=098b018e-2607-4af2-bc10-8758893e88ea"},"vehicle_type_id":"4","last_reported":1753654233,"current_range_meters":16000,"station_id":"ce4bhnp2rcd13ifvqgvg","pricing_plan_id":"cebpf4jnsgd1na2vs0mg"},{"bike_id":"d8adee83-dc1e-4ff1-879f-3a202b2325f9","system_id":"levelo_inurba_marseille","lat":43.29029,"lon":5.38653,"is_reserved":false,"is_disabled":false,"rental_uris":{"android":"levelo://app?vid=d8adee83-dc1e-4ff1-879f-3a202b2325f9","ios":"levelo://app?vid=d8adee83-dc1e-4ff1-879f-3a202b2325f9"},"vehicle_type_id":"4","last_reported":1753654233,"current_range_meters":16000,"station_id":"ce4bh4p2rcd13ifvqe0g","pricing_plan_id":"cebpf4jnsgd1na2vs0mg"},{"bike_id":"947cf9dd-0905-42a3-aafb-8e1c05b7ea7a","system_id":"levelo_inurba_marseille","lat":43.30822,"lon":5.38214,"is_reserved":false,"is_disabled":false,"rental_uris":{"android":"levelo://app?vid=947cf9dd-0905-42a3-aafb-8e1c05b7ea7a","ios":"levelo://app?vid=947cf9dd-0905-42a3-aafb-8e1c05b7ea7a"},"vehicle_type_id":"4","last_reported":1753654233,"current_range_meters":16000,"station_id":"","pricing_plan_id":"cebpf4jnsgd1na2vs0mg"},{"bike_id":"209c73e6-1f69-4d13-9fed-77cb46eecd05","system_id":"levelo_inurba_marseille","lat":43.34681,"lon":5.38065,"is_reserved":false,"is_disabled":false,"rental_uris":{"android":"levelo://app?vid=209c73e6-1f69-4d13-9fed-77cb46eecd05","ios":"levelo://app?vid=209c73e6-1f69-4d13-9fed-77cb46eecd05"},"vehicle_type_id":"4","last_reported":1753654233,"current_range_meters":16000,"station_id":"","pricing_plan_id":"cebpf4jnsgd1na2vs0mg"},{"bike_id":"092667e3-7f3f-444b-b973-76e638184959","system_id":"levelo_inurba_marseille","lat":43.29922,"lon":5.37459,"is_reserved":false,"is_disabled":false,"rental_uris":{"android":"levelo://app?vid=092667e3-7f3f-444b-b973-76e638184959","ios":"levelo://app?vid=092667e3-7f3f-444b-b973-76e638184959"},"vehicle_type_id":"4","last_reported":1753654233,"current_range_meters":16000,"station_id":"ce4bgjh2rcd13ifvqbg0","pricing_plan_id":"cebpf4jnsgd1na2vs0mg"},{"bike_id":"95a8c5d0-a5d9-4e58-b9b1-5d89fabc4cea","system_id":"levelo_inurba_marseille","lat":43.28935,"lon":5.3664,"is_reserved":false,"is_disabled":false,"rental_uris":{"android":"levelo://app?vid=95a8c5d0-a5d9-4e58-b9b1-5d89fabc4cea","ios":"levelo://app?vid=95a8c5d0-a5d9-4e58-b9b1-5d89fabc4cea"},"vehicle_type_id":"4","last_reported":1753654233,"current_range_meters":16000,"station_id":"ce4bhap2rcd13ifvqek0","pricing_plan_id":"cebpf4jnsgd1na2vs0mg"},{"bike_id":"3e02d1f0-0222-4858-946c-ee2ac9060ae6","system_id":"levelo_inurba_marseille","lat":43.28178,"lon":5.4265,"is_reserved":false,"is_disabled":false,"rental_uris":{"android":"levelo://app?vid=3e02d1f0-0222-4858-946c-ee2ac9060ae6","ios":"levelo://app?vid=3e02d1f0-0222-4858-946c-ee2ac9060ae6"},"vehicle_type_id":"4","last_reported":1753654233,"current_range_meters":16400,"station_id":"ce4bhnh2rcd13ifvqgug","pricing_plan_id":"cebpf4jnsgd1na2vs0mg"},{"bike_id":"da049fac-3e24-435e-a3f7-f4b220c2f063","system_id":"levelo_inurba_marseille","lat":43.289262,"lon":5.366318,"is_reserved":false,"is_disabled":false,"rental_uris":{"android":"levelo://app?vid=da049fac-3e24-435e-a3f7-f4b220c2f063","ios":"levelo://app?vid=da049fac-3e24-435e-a3f7-f4b220c2f063"},"vehicle_type_id":"4","last_reported":1753654233,"current_range_meters":16400,"station_id":"ce4bhap2rcd13ifvqek0","pricing_plan_id":"cebpf4jnsgd1na2vs0mg"},{"bike_id":"1652318a-3959-4d6f-8a3d-399d805d828d","system_id":"levelo_inurba_marseille","lat":43.29252,"lon":5.40915,"is_reserved":false,"is_disabled":false,"rental_uris":{"android":"levelo://app?vid=1652318a-3959-4d6f-8a3d-399d805d828d","ios":"levelo://app?vid=1652318a-3959-4d6f-8a3d-399d805d828d"},"vehicle_type_id":"4","last_reported":1753654233,"current_range_meters":16400,"station_id":"ce4bh192rcd13ifvqdc0","pricing_plan_id":"cebpf4jnsgd1na2vs0mg"},{"bike_id":"95dd70e4-879c-49e7-b318-a6c71b22a43e","system_id":"levelo_inurba_marseille","lat":43.2703,"lon":5.39295,"is_reserved":false,"is_disabled":false,"rental_uris":{"android":"levelo://app?vid=95dd70e4-879c-49e7-b318-a6c71b22a43e","ios":"levelo://app?vid=95dd70e4-879c-49e7-b318-a6c71b22a43e"},"vehicle_type_id":"4","last_reported":1753654233,"current_range_meters":16400,"station_id":"","pricing_plan_id":"cebpf4jnsgd1na2vs0mg"},{"bike_id":"b302b3cc-ce2b-4e90-ac40-28215d977d2d","system_id":"levelo_inurba_marseille","lat":43.29184,"lon":5.39317,"is_reserved":false,"is_disabled":false,"rental_uris":{"android":"levelo://app?vid=b302b3cc-ce2b-4e90-ac40-28215d977d2d","ios":"levelo://app?vid=b302b3cc-ce2b-4e90-ac40-28215d977d2d"},"vehicle_type_id":"4","last_reported":1753654233,"current_range_meters":16400,"station_id":"ce4bh192rcd13ifvqdd0","pricing_plan_id":"cebpf4jnsgd1na2vs0mg"},{"bike_id":"baa049fa-c3e2-4c1a-8082-0c6c10cd9a92","system_id":"levelo_inurba_marseille","lat":43.23059,"lon":5.3551,"is_reserved":false,"is_disabled":false,"rental_uris":{"android":"levelo://app?vid=baa049fa-c3e2-4c1a-8082-0c6c10cd9a92","ios":"levelo://app?vid=baa049fa-c3e2-4c1a-8082-0c6c10cd9a92"},"vehicle_type_id":"4","last_reported":1753654233,"current_range_meters":16400,"station_id":"cpo3342slgdg3j2ifvpg","pricing_plan_id":"cebpf4jnsgd1na2vs0mg"},{"bike_id":"65e3db07-f188-422b-b687-3d06cfe2bcf8","system_id":"levelo_inurba_marseille","lat":43.28034,"lon":5.35015,"is_reserved":false,"is_disabled":false,"rental_uris":{"android":"levelo://app?vid=65e3db07-f188-422b-b687-3d06cfe2bcf8","ios":"levelo://app?vid=65e3db07-f188-422b-b687-3d06cfe2bcf8"},"vehicle_type_id":"4","last_reported":1753654233,"current_range_meters":16400,"station_id":"","pricing_plan_id":"cebpf4jnsgd1na2vs0mg"},{"bike_id":"536dd0a6-7f1b-40ed-af5a-c920c69aac4b","system_id":"levelo_inurba_marseille","lat":43.27632,"lon":5.36074,"is_reserved":false,"is_disabled":false,"rental_uris":{"android":"levelo://app?vid=536dd0a6-7f1b-40ed-af5a-c920c69aac4b","ios":"levelo://app?vid=536dd0a6-7f1b-40ed-af5a-c920c69aac4b"},"vehicle_type_id":"4","last_reported":1753654233,"current_range_meters":16400,"station_id":"ce4bgj92rcd13ifvqbe0","pricing_plan_id":"cebpf4jnsgd1na2vs0mg"},{"bike_id":"bdb17359-958b-4d5d-9883-9b4abe991f0f","system_id":"levelo_inurba_marseille","lat":43.291921,"lon":5.359039,"is_reserved":false,"is_disabled":false,"rental_uris":{"android":"levelo://app?vid=bdb17359-958b-4d5d-9883-9b4abe991f0f","ios":"levelo://app?vid=bdb17359-958b-4d5d-9883-9b4abe991f0f"},"vehicle_type_id":"4","last_reported":1753654233,"current_range_meters":16400,"station_id":"ce4bha92rcd13ifvqeg0","pricing_plan_id":"cebpf4jnsgd1na2vs0mg"},{"bike_id":"149fbe11-3bce-47a0-b584-c7c7bd6bb12f","system_id":"levelo_inurba_marseille","lat":43.21619,"lon":5.34449,"is_reserved":false,"is_disabled":false,"rental_uris":{"android":"levelo://app?vid=149fbe11-3bce-47a0-b584-c7c7bd6bb12f","ios":"levelo://app?vid=149fbe11-3bce-47a0-b584-c7c7bd6bb12f"},"vehicle_type_id":"4","last_reported":1753654233,"current_range_meters":16400,"station_id":"","pricing_plan_id":"cebpf4jnsgd1na2vs0mg"},{"bike_id":"9d6f4d9f-a761-4ae2-9e4b-00f8fda461c4","system_id":"levelo_inurba_marseille","lat":43.28558,"lon":5.39503,"is_reserved":false,"is_disabled":true,"rental_uris":{"android":"levelo://app?vid=9d6f4d9f-a761-4ae2-9e4b-00f8fda461c4","ios":"levelo://app?vid=9d6f4d9f-a761-4ae2-9e4b-00f8fda461c4"},"vehicle_type_id":"4","last_reported":1753654233,"current_range_meters":16800,"station_id":"ce4bh292rcd13ifvqdg0","pricing_plan_id":"cebpf4jnsgd1na2vs0mg"},{"bike_id":"6238abb3-baac-4bb2-91fc-857b53675b1d","system_id":"levelo_inurba_marseille","lat":43.29372,"lon":5.37879,"is_reserved":false,"is_disabled":true,"rental_uris":{"android":"levelo://app?vid=6238abb3-baac-4bb2-91fc-857b53675b1d","ios":"levelo://app?vid=6238abb3-baac-4bb2-91fc-857b53675b1d"},"vehicle_type_id":"4","last_reported":1753654233,"current_range_meters":16400,"station_id":"ce4bgjh2rcd13ifvqbf0","pricing_plan_id":"cebpf4jnsgd1na2vs0mg"},{"bike_id":"981daffd-2447-4cf4-9e7a-1de0d0f0dd08","system_id":"levelo_inurba_marseille","lat":43.24054,"lon":5.37739,"is_reserved":false,"is_disabled":false,"rental_uris":{"android":"levelo://app?vid=981daffd-2447-4cf4-9e7a-1de0d0f0dd08","ios":"levelo://app?vid=981daffd-2447-4cf4-9e7a-1de0d0f0dd08"},"vehicle_type_id":"4","last_reported":1753654233,"current_range_meters":16400,"station_id":"ce4bhnp2rcd13ifvqgvg","pricing_plan_id":"cebpf4jnsgd1na2vs0mg"},{"bike_id":"8142408b-84ea-4577-9728-f52c3a5f16f1","system_id":"levelo_inurba_marseille","lat":43.2416,"lon":5.36423,"is_reserved":false,"is_disabled":true,"rental_uris":{"android":"levelo://app?vid=8142408b-84ea-4577-9728-f52c3a5f16f1","ios":"levelo://app?vid=8142408b-84ea-4577-9728-f52c3a5f16f1"},"vehicle_type_id":"4","last_reported":1753654233,"current_range_meters":16800,"station_id":"cpo36qri1sfpv3e86is0","pricing_plan_id":"cebpf4jnsgd1na2vs0mg"},{"bike_id":"e1b8cacf-7f67-4490-93b1-ee4795d08ba9","system_id":"levelo_inurba_marseille","lat":43.28426,"lon":5.37515,"is_reserved":false,"is_disabled":false,"rental_uris":{"android":"levelo://app?vid=e1b8cacf-7f67-4490-93b1-ee4795d08ba9","ios":"levelo://app?vid=e1b8cacf-7f67-4490-93b1-ee4795d08ba9"},"vehicle_type_id":"4","last_reported":1753654233,"current_range_meters":16800,"station_id":"ce4bh412rcd13ifvqds0","pricing_plan_id":"cebpf4jnsgd1na2vs0mg"},{"bike_id":"f9a3e182-b5f9-46f2-8bc5-abda817da7ed","system_id":"levelo_inurba_marseille","lat":43.29441,"lon":5.39748,"is_reserved":false,"is_disabled":false,"rental_uris":{"android":"levelo://app?vid=f9a3e182-b5f9-46f2-8bc5-abda817da7ed","ios":"levelo://app?vid=f9a3e182-b5f9-46f2-8bc5-abda817da7ed"},"vehicle_type_id":"4","last_reported":1753654233,"current_range_meters":16800,"station_id":"ce4bh3h2rcd13ifvqdo0","pricing_plan_id":"cebpf4jnsgd1na2vs0mg"},{"bike_id":"5bf3ed1a-1969-409f-8d81-292c7d10a407","system_id":"levelo_inurba_marseille","lat":43.32093,"lon":5.36786,"is_reserved":false,"is_disabled":false,"rental_uris":{"android":"levelo://app?vid=5bf3ed1a-1969-409f-8d81-292c7d10a407","ios":"levelo://app?vid=5bf3ed1a-1969-409f-8d81-292c7d10a407"},"vehicle_type_id":"4","last_reported":1753654233,"current_range_meters":16800,"station_id":"ce4bhrh2rcd13ifvqhug","pricing_plan_id":"cebpf4jnsgd1na2vs0mg"},{"bike_id":"f0b9ae88-2c8c-49d1-a054-7f8fd132667c","system_id":"levelo_inurba_marseille","lat":43.29195,"lon":5.35805,"is_reserved":false,"is_disabled":true,"rental_uris":{"android":"levelo://app?vid=f0b9ae88-2c8c-49d1-a054-7f8fd132667c","ios":"levelo://app?vid=f0b9ae88-2c8c-49d1-a054-7f8fd132667c"},"vehicle_type_id":"4","last_reported":1753654233,"current_range_meters":16800,"station_id":"ce4bhb12rcd13ifvqel0","pricing_plan_id":"cebpf4jnsgd1na2vs0mg"},{"bike_id":"8e95600c-1ab4-4ac1-84d3-75724112828c","system_id":"levelo_inurba_marseille","lat":43.23185,"lon":5.39998,"is_reserved":false,"is_disabled":false,"rental_uris":{"android":"levelo://app?vid=8e95600c-1ab4-4ac1-84d3-75724112828c","ios":"levelo://app?vid=8e95600c-1ab4-4ac1-84d3-75724112828c"},"vehicle_type_id":"4","last_reported":1753654233,"current_range_meters":16800,"station_id":"ce4bhn12rcd13ifvqgqg","pricing_plan_id":"cebpf4jnsgd1na2vs0mg"},{"bike_id":"a9dbcdad-ddd9-4750-a80c-9a9f3635ef6f","system_id":"levelo_inurba_marseille","lat":43.30138,"lon":5.3987,"is_reserved":false,"is_disabled":false,"rental_uris":{"android":"levelo://app?vid=a9dbcdad-ddd9-4750-a80c-9a9f3635ef6f","ios":"levelo://app?vid=a9dbcdad-ddd9-4750-a80c-9a9f3635ef6f"},"vehicle_type_id":"4","last_reported":1753654233,"current_range_meters":16800,"station_id":"ce4bh0h2rcd13ifvqd40","pricing_plan_id":"cebpf4jnsgd1na2vs0mg"},{"bike_id":"1848e763-c1e7-437f-8ea0-328c3886bf28","system_id":"levelo_inurba_marseille","lat":43.22922,"lon":5.35393,"is_reserved":false,"is_disabled":false,"rental_uris":{"android":"levelo://app?vid=1848e763-c1e7-437f-8ea0-328c3886bf28","ios":"levelo://app?vid=1848e763-c1e7-437f-8ea0-328c3886bf28"},"vehicle_type_id":"4","last_reported":1753654233,"current_range_meters":16800,"station_id":"cpo3532slgdg3j2ikp40","pricing_plan_id":"cebpf4jnsgd1na2vs0mg"},{"bike_id":"f4afedff-75ab-4001-885d-7c630646385c","system_id":"levelo_inurba_marseille","lat":43.2873,"lon":5.36084,"is_reserved":false,"is_disabled":false,"rental_uris":{"android":"levelo://app?vid=f4afedff-75ab-4001-885d-7c630646385c","ios":"levelo://app?vid=f4afedff-75ab-4001-885d-7c630646385c"},"vehicle_type_id":"4","last_reported":1753654233,"current_range_meters":16800,"station_id":"cki0cbj6b192h4jlfktg","pricing_plan_id":"cebpf4jnsgd1na2vs0mg"},{"bike_id":"2b6cf374-ab08-41b5-a0ab-81c6d4da50a4","system_id":"levelo_inurba_marseille","lat":43.2841,"lon":5.37531,"is_reserved":false,"is_disabled":false,"rental_uris":{"android":"levelo://app?vid=2b6cf374-ab08-41b5-a0ab-81c6d4da50a4","ios":"levelo://app?vid=2b6cf374-ab08-41b5-a0ab-81c6d4da50a4"},"vehicle_type_id":"4","last_reported":1753654233,"current_range_meters":16800,"station_id":"ce4bh412rcd13ifvqds0","pricing_plan_id":"cebpf4jnsgd1na2vs0mg"},{"bike_id":"1b6515e4-58c3-497b-bc79-545448f0e412","system_id":"levelo_inurba_marseille","lat":43.29199,"lon":5.3931,"is_reserved":false,"is_disabled":false,"rental_uris":{"android":"levelo://app?vid=1b6515e4-58c3-497b-bc79-545448f0e412","ios":"levelo://app?vid=1b6515e4-58c3-497b-bc79-545448f0e412"},"vehicle_type_id":"4","last_reported":1753654233,"current_range_meters":16400,"station_id":"ce4bh192rcd13ifvqdd0","pricing_plan_id":"cebpf4jnsgd1na2vs0mg"},{"bike_id":"da8a121b-dd93-4a31-8254-38a795a66238","system_id":"levelo_inurba_marseille","lat":43.2407,"lon":5.37755,"is_reserved":false,"is_disabled":false,"rental_uris":{"android":"levelo://app?vid=da8a121b-dd93-4a31-8254-38a795a66238","ios":"levelo://app?vid=da8a121b-dd93-4a31-8254-38a795a66238"},"vehicle_type_id":"4","last_reported":1753654233,"current_range_meters":16800,"station_id":"ce4bhnp2rcd13ifvqgvg","pricing_plan_id":"cebpf4jnsgd1na2vs0mg"},{"bike_id":"8ba8dc19-9480-44b0-8314-f750d170710c","system_id":"levelo_inurba_marseille","lat":43.24065,"lon":5.37774,"is_reserved":false,"is_disabled":false,"rental_uris":{"android":"levelo://app?vid=8ba8dc19-9480-44b0-8314-f750d170710c","ios":"levelo://app?vid=8ba8dc19-9480-44b0-8314-f750d170710c"},"vehicle_type_id":"4","last_reported":1753654233,"current_range_meters":16800,"station_id":"ce4bhnp2rcd13ifvqgvg","pricing_plan_id":"cebpf4jnsgd1na2vs0mg"},{"bike_id":"181169c9-db39-4940-ad52-867921332b7e","system_id":"levelo_inurba_marseille","lat":43.2254,"lon":5.34755,"is_reserved":false,"is_disabled":false,"rental_uris":{"android":"levelo://app?vid=181169c9-db39-4940-ad52-867921332b7e","ios":"levelo://app?vid=181169c9-db39-4940-ad52-867921332b7e"},"vehicle_type_id":"4","last_reported":1753654233,"current_range_meters":16800,"station_id":"","pricing_plan_id":"cebpf4jnsgd1na2vs0mg"},{"bike_id":"b9ed238d-73ad-496d-aa17-6e89ee652f9c","system_id":"levelo_inurba_marseille","lat":43.30105,"lon":5.39865,"is_reserved":false,"is_disabled":false,"rental_uris":{"android":"levelo://app?vid=b9ed238d-73ad-496d-aa17-6e89ee652f9c","ios":"levelo://app?vid=b9ed238d-73ad-496d-aa17-6e89ee652f9c"},"vehicle_type_id":"4","last_reported":1753654233,"current_range_meters":16800,"station_id":"ce4bh0h2rcd13ifvqd40","pricing_plan_id":"cebpf4jnsgd1na2vs0mg"},{"bike_id":"26d69215-edb4-4917-b3fc-22f62f7da34a","system_id":"levelo_inurba_marseille","lat":43.22487,"lon":5.348,"is_reserved":false,"is_disabled":false,"rental_uris":{"android":"levelo://app?vid=26d69215-edb4-4917-b3fc-22f62f7da34a","ios":"levelo://app?vid=26d69215-edb4-4917-b3fc-22f62f7da34a"},"vehicle_type_id":"4","last_reported":1753654233,"current_range_meters":16800,"station_id":"st_cvj5dfep6f1abm77gieg","pricing_plan_id":"cebpf4jnsgd1na2vs0mg"},{"bike_id":"f5bf1b7b-5f0b-4bb1-8ad7-91fc9aef9e77","system_id":"levelo_inurba_marseille","lat":43.31533,"lon":5.38027,"is_reserved":false,"is_disabled":false,"rental_uris":{"android":"levelo://app?vid=f5bf1b7b-5f0b-4bb1-8ad7-91fc9aef9e77","ios":"levelo://app?vid=f5bf1b7b-5f0b-4bb1-8ad7-91fc9aef9e77"},"vehicle_type_id":"4","last_reported":1753654233,"current_range_meters":17200,"station_id":"ce4bhsp2rcd13ifvqi50","pricing_plan_id":"cebpf4jnsgd1na2vs0mg"},{"bike_id":"f104e79e-8727-4ccc-8a35-a020cc2fb0ec","system_id":"levelo_inurba_marseille","lat":43.29232,"lon":5.35751,"is_reserved":false,"is_disabled":true,"rental_uris":{"android":"levelo://app?vid=f104e79e-8727-4ccc-8a35-a020cc2fb0ec","ios":"levelo://app?vid=f104e79e-8727-4ccc-8a35-a020cc2fb0ec"},"vehicle_type_id":"4","last_reported":1753654233,"current_range_meters":17200,"station_id":"ce4bhb12rcd13ifvqel0","pricing_plan_id":"cebpf4jnsgd1na2vs0mg"},{"bike_id":"a9df78d2-277c-4ca0-ba02-79b14cf1c87f","system_id":"levelo_inurba_marseille","lat":43.30922,"lon":5.40143,"is_reserved":false,"is_disabled":true,"rental_uris":{"android":"levelo://app?vid=a9df78d2-277c-4ca0-ba02-79b14cf1c87f","ios":"levelo://app?vid=a9df78d2-277c-4ca0-ba02-79b14cf1c87f"},"vehicle_type_id":"4","last_reported":1753654233,"current_range_meters":17200,"station_id":"ce4bgvp2rcd13ifvqct0","pricing_plan_id":"cebpf4jnsgd1na2vs0mg"},{"bike_id":"47eb4bcd-34cb-4441-8fc0-2fa8b9a9f4b2","system_id":"levelo_inurba_marseille","lat":43.24549,"lon":5.40231,"is_reserved":false,"is_disabled":false,"rental_uris":{"android":"levelo://app?vid=47eb4bcd-34cb-4441-8fc0-2fa8b9a9f4b2","ios":"levelo://app?vid=47eb4bcd-34cb-4441-8fc0-2fa8b9a9f4b2"},"vehicle_type_id":"4","last_reported":1753654233,"current_range_meters":17200,"station_id":"","pricing_plan_id":"cebpf4jnsgd1na2vs0mg"},{"bike_id":"59e4a1dd-eb83-41af-95ea-284aacfc5f76","system_id":"levelo_inurba_marseille","lat":43.30584,"lon":5.3728,"is_reserved":false,"is_disabled":false,"rental_uris":{"android":"levelo://app?vid=59e4a1dd-eb83-41af-95ea-284aacfc5f76","ios":"levelo://app?vid=59e4a1dd-eb83-41af-95ea-284aacfc5f76"},"vehicle_type_id":"4","last_reported":1753654233,"current_range_meters":17200,"station_id":"ce4bgqh2rcd13ifvqc4g","pricing_plan_id":"cebpf4jnsgd1na2vs0mg"},{"bike_id":"fcf9ae50-a27d-44f9-b88e-4240b9eaae7c","system_id":"levelo_inurba_marseille","lat":43.26557,"lon":5.39015,"is_reserved":false,"is_disabled":false,"rental_uris":{"android":"levelo://app?vid=fcf9ae50-a27d-44f9-b88e-4240b9eaae7c","ios":"levelo://app?vid=fcf9ae50-a27d-44f9-b88e-4240b9eaae7c"},"vehicle_type_id":"4","last_reported":1753654233,"current_range_meters":17200,"station_id":"ce4bhe12rcd13ifvqf30","pricing_plan_id":"cebpf4jnsgd1na2vs0mg"},{"bike_id":"1dc982be-82ed-494a-b762-c833dd93762d","system_id":"levelo_inurba_marseille","lat":43.31726,"lon":5.42393,"is_reserved":false,"is_disabled":false,"rental_uris":{"android":"levelo://app?vid=1dc982be-82ed-494a-b762-c833dd93762d","ios":"levelo://app?vid=1dc982be-82ed-494a-b762-c833dd93762d"},"vehicle_type_id":"4","last_reported":1753654233,"current_range_meters":17200,"station_id":"ce4bhp92rcd13ifvqhbg","pricing_plan_id":"cebpf4jnsgd1na2vs0mg"},{"bike_id":"5e7f3241-4f20-490d-91d6-9772c70eded9","system_id":"levelo_inurba_marseille","lat":43.28923,"lon":5.3665,"is_reserved":false,"is_disabled":false,"rental_uris":{"android":"levelo://app?vid=5e7f3241-4f20-490d-91d6-9772c70eded9","ios":"levelo://app?vid=5e7f3241-4f20-490d-91d6-9772c70eded9"},"vehicle_type_id":"4","last_reported":1753654233,"current_range_meters":17200,"station_id":"ce4bhap2rcd13ifvqek0","pricing_plan_id":"cebpf4jnsgd1na2vs0mg"},{"bike_id":"2807d12a-8c8a-4209-a9c0-8d1cf55dce5e","system_id":"levelo_inurba_marseille","lat":43.25195,"lon":5.38243,"is_reserved":false,"is_disabled":true,"rental_uris":{"android":"levelo://app?vid=2807d12a-8c8a-4209-a9c0-8d1cf55dce5e","ios":"levelo://app?vid=2807d12a-8c8a-4209-a9c0-8d1cf55dce5e"},"vehicle_type_id":"4","last_reported":1753654233,"current_range_meters":17200,"station_id":"","pricing_plan_id":"cebpf4jnsgd1na2vs0mg"},{"bike_id":"07eb427f-275a-4480-989e-bc71fc6025ec","system_id":"levelo_inurba_marseille","lat":43.29886,"lon":5.39756,"is_reserved":false,"is_disabled":false,"rental_uris":{"android":"levelo://app?vid=07eb427f-275a-4480-989e-bc71fc6025ec","ios":"levelo://app?vid=07eb427f-275a-4480-989e-bc71fc6025ec"},"vehicle_type_id":"4","last_reported":1753654233,"current_range_meters":17200,"station_id":"ce4bh0h2rcd13ifvqd50","pricing_plan_id":"cebpf4jnsgd1na2vs0mg"},{"bike_id":"a6a6c8ec-bb06-4ea6-919f-19bca833666c","system_id":"levelo_inurba_marseille","lat":43.30873,"lon":5.39655,"is_reserved":false,"is_disabled":false,"rental_uris":{"android":"levelo://app?vid=a6a6c8ec-bb06-4ea6-919f-19bca833666c","ios":"levelo://app?vid=a6a6c8ec-bb06-4ea6-919f-19bca833666c"},"vehicle_type_id":"4","last_reported":1753654233,"current_range_meters":17200,"station_id":"ce4bh012rcd13ifvqcv0","pricing_plan_id":"cebpf4jnsgd1na2vs0mg"},{"bike_id":"c38609b3-259e-4860-a0b7-40eb025d032a","system_id":"levelo_inurba_marseille","lat":43.28713,"lon":5.40005,"is_reserved":false,"is_disabled":false,"rental_uris":{"android":"levelo://app?vid=c38609b3-259e-4860-a0b7-40eb025d032a","ios":"levelo://app?vid=c38609b3-259e-4860-a0b7-40eb025d032a"},"vehicle_type_id":"4","last_reported":1753654233,"current_range_meters":17600,"station_id":"ce4bho92rcd13ifvqh3g","pricing_plan_id":"cebpf4jnsgd1na2vs0mg"},{"bike_id":"a5cd7449-8148-401a-9d7b-35477527f40c","system_id":"levelo_inurba_marseille","lat":43.29526,"lon":5.38531,"is_reserved":false,"is_disabled":false,"rental_uris":{"android":"levelo://app?vid=a5cd7449-8148-401a-9d7b-35477527f40c","ios":"levelo://app?vid=a5cd7449-8148-401a-9d7b-35477527f40c"},"vehicle_type_id":"4","last_reported":1753654233,"current_range_meters":17600,"station_id":"ce4bgih2rcd13ifvqba0","pricing_plan_id":"cebpf4jnsgd1na2vs0mg"},{"bike_id":"72e9581e-243c-489b-ac72-946b1381353f","system_id":"levelo_inurba_marseille","lat":43.30638,"lon":5.37562,"is_reserved":false,"is_disabled":false,"rental_uris":{"android":"levelo://app?vid=72e9581e-243c-489b-ac72-946b1381353f","ios":"levelo://app?vid=72e9581e-243c-489b-ac72-946b1381353f"},"vehicle_type_id":"4","last_reported":1753654233,"current_range_meters":17600,"station_id":"","pricing_plan_id":"cebpf4jnsgd1na2vs0mg"},{"bike_id":"71f6d478-2cc3-4b15-a6d2-228ae1738f49","system_id":"levelo_inurba_marseille","lat":43.25124,"lon":5.40316,"is_reserved":false,"is_disabled":false,"rental_uris":{"android":"levelo://app?vid=71f6d478-2cc3-4b15-a6d2-228ae1738f49","ios":"levelo://app?vid=71f6d478-2cc3-4b15-a6d2-228ae1738f49"},"vehicle_type_id":"4","last_reported":1753654233,"current_range_meters":17600,"station_id":"ce4bhlh2rcd13ifvqgig","pricing_plan_id":"cebpf4jnsgd1na2vs0mg"},{"bike_id":"634f5033-552b-4748-8220-84f93ddfcab9","system_id":"levelo_inurba_marseille","lat":43.27421,"lon":5.39421,"is_reserved":false,"is_disabled":false,"rental_uris":{"android":"levelo://app?vid=634f5033-552b-4748-8220-84f93ddfcab9","ios":"levelo://app?vid=634f5033-552b-4748-8220-84f93ddfcab9"},"vehicle_type_id":"4","last_reported":1753654233,"current_range_meters":17200,"station_id":"ce4bhdp2rcd13ifvqf20","pricing_plan_id":"cebpf4jnsgd1na2vs0mg"},{"bike_id":"ecc29889-8402-4af1-a5b8-e2a36bb3b801","system_id":"levelo_inurba_marseille","lat":43.27562,"lon":5.38439,"is_reserved":false,"is_disabled":false,"rental_uris":{"android":"levelo://app?vid=ecc29889-8402-4af1-a5b8-e2a36bb3b801","ios":"levelo://app?vid=ecc29889-8402-4af1-a5b8-e2a36bb3b801"},"vehicle_type_id":"4","last_reported":1753654233,"current_range_meters":17200,"station_id":"ce4bhh92rcd13ifvqfi0","pricing_plan_id":"cebpf4jnsgd1na2vs0mg"},{"bike_id":"d70613a2-027e-4ce6-8023-62349a7a4277","system_id":"levelo_inurba_marseille","lat":43.224991,"lon":5.347803,"is_reserved":false,"is_disabled":false,"rental_uris":{"android":"levelo://app?vid=d70613a2-027e-4ce6-8023-62349a7a4277","ios":"levelo://app?vid=d70613a2-027e-4ce6-8023-62349a7a4277"},"vehicle_type_id":"4","last_reported":1753654233,"current_range_meters":17600,"station_id":"st_cvj5dfep6f1abm77gieg","pricing_plan_id":"cebpf4jnsgd1na2vs0mg"},{"bike_id":"0af40d01-ca13-400e-a419-4baaa6fa3a6a","system_id":"levelo_inurba_marseille","lat":43.25003,"lon":5.38934,"is_reserved":false,"is_disabled":false,"rental_uris":{"android":"levelo://app?vid=0af40d01-ca13-400e-a419-4baaa6fa3a6a","ios":"levelo://app?vid=0af40d01-ca13-400e-a419-4baaa6fa3a6a"},"vehicle_type_id":"4","last_reported":1753654233,"current_range_meters":17600,"station_id":"ce4bhgp2rcd13ifvqfd0","pricing_plan_id":"cebpf4jnsgd1na2vs0mg"},{"bike_id":"891941f3-9c9b-424a-a1ac-ac892e701b6f","system_id":"levelo_inurba_marseille","lat":43.30137,"lon":5.39848,"is_reserved":false,"is_disabled":false,"rental_uris":{"android":"levelo://app?vid=891941f3-9c9b-424a-a1ac-ac892e701b6f","ios":"levelo://app?vid=891941f3-9c9b-424a-a1ac-ac892e701b6f"},"vehicle_type_id":"4","last_reported":1753654233,"current_range_meters":17200,"station_id":"ce4bh0h2rcd13ifvqd40","pricing_plan_id":"cebpf4jnsgd1na2vs0mg"},{"bike_id":"3ba5331d-6d43-4b29-9bc9-e73ae170d72c","system_id":"levelo_inurba_marseille","lat":43.2857,"lon":5.39505,"is_reserved":false,"is_disabled":false,"rental_uris":{"android":"levelo://app?vid=3ba5331d-6d43-4b29-9bc9-e73ae170d72c","ios":"levelo://app?vid=3ba5331d-6d43-4b29-9bc9-e73ae170d72c"},"vehicle_type_id":"4","last_reported":1753654233,"current_range_meters":17200,"station_id":"ce4bh292rcd13ifvqdg0","pricing_plan_id":"cebpf4jnsgd1na2vs0mg"},{"bike_id":"3dd2b2f9-64bc-4f1c-ad06-386f2ab19894","system_id":"levelo_inurba_marseille","lat":43.297605,"lon":5.364405,"is_reserved":false,"is_disabled":true,"rental_uris":{"android":"levelo://app?vid=3dd2b2f9-64bc-4f1c-ad06-386f2ab19894","ios":"levelo://app?vid=3dd2b2f9-64bc-4f1c-ad06-386f2ab19894"},"vehicle_type_id":"4","last_reported":1753654233,"current_range_meters":17600,"station_id":"","pricing_plan_id":"cebpf4jnsgd1na2vs0mg"},{"bike_id":"8156ba1c-79d1-400d-96a0-33669bb7caeb","system_id":"levelo_inurba_marseille","lat":43.326017,"lon":5.411422,"is_reserved":false,"is_disabled":false,"rental_uris":{"android":"levelo://app?vid=8156ba1c-79d1-400d-96a0-33669bb7caeb","ios":"levelo://app?vid=8156ba1c-79d1-400d-96a0-33669bb7caeb"},"vehicle_type_id":"4","last_reported":1753654233,"current_range_meters":17600,"station_id":"","pricing_plan_id":"cebpf4jnsgd1na2vs0mg"},{"bike_id":"c5d6c16c-667e-4c61-9e09-b5efae6e86bc","system_id":"levelo_inurba_marseille","lat":43.29895,"lon":5.43675,"is_reserved":false,"is_disabled":false,"rental_uris":{"android":"levelo://app?vid=c5d6c16c-667e-4c61-9e09-b5efae6e86bc","ios":"levelo://app?vid=c5d6c16c-667e-4c61-9e09-b5efae6e86bc"},"vehicle_type_id":"4","last_reported":1753654233,"current_range_meters":17600,"station_id":"ce4bhpp2rcd13ifvqhfg","pricing_plan_id":"cebpf4jnsgd1na2vs0mg"},{"bike_id":"8078f45a-25b7-42fe-9f2f-63a22e3d5bec","system_id":"levelo_inurba_marseille","lat":43.31988,"lon":5.38161,"is_reserved":false,"is_disabled":false,"rental_uris":{"android":"levelo://app?vid=8078f45a-25b7-42fe-9f2f-63a22e3d5bec","ios":"levelo://app?vid=8078f45a-25b7-42fe-9f2f-63a22e3d5bec"},"vehicle_type_id":"4","last_reported":1753654233,"current_range_meters":17600,"station_id":"ce4bhr12rcd13ifvqhpg","pricing_plan_id":"cebpf4jnsgd1na2vs0mg"},{"bike_id":"3cc35ae4-9f14-400a-9331-a058fb7c5443","system_id":"levelo_inurba_marseille","lat":43.317657,"lon":5.390084,"is_reserved":false,"is_disabled":true,"rental_uris":{"android":"levelo://app?vid=3cc35ae4-9f14-400a-9331-a058fb7c5443","ios":"levelo://app?vid=3cc35ae4-9f14-400a-9331-a058fb7c5443"},"vehicle_type_id":"4","last_reported":1753654233,"current_range_meters":17600,"station_id":"ce4bhqp2rcd13ifvqhng","pricing_plan_id":"cebpf4jnsgd1na2vs0mg"},{"bike_id":"6849e7a8-4db8-4fbb-8a3c-72709768876b","system_id":"levelo_inurba_marseille","lat":43.29535,"lon":5.38538,"is_reserved":false,"is_disabled":false,"rental_uris":{"android":"levelo://app?vid=6849e7a8-4db8-4fbb-8a3c-72709768876b","ios":"levelo://app?vid=6849e7a8-4db8-4fbb-8a3c-72709768876b"},"vehicle_type_id":"4","last_reported":1753654233,"current_range_meters":17600,"station_id":"ce4bgih2rcd13ifvqba0","pricing_plan_id":"cebpf4jnsgd1na2vs0mg"},{"bike_id":"57022eeb-7331-4900-8017-9c5ab17f74b3","system_id":"levelo_inurba_marseille","lat":43.26956,"lon":5.3864,"is_reserved":false,"is_disabled":false,"rental_uris":{"android":"levelo://app?vid=57022eeb-7331-4900-8017-9c5ab17f74b3","ios":"levelo://app?vid=57022eeb-7331-4900-8017-9c5ab17f74b3"},"vehicle_type_id":"4","last_reported":1753654233,"current_range_meters":17600,"station_id":"ce4bhh92rcd13ifvqfh0","pricing_plan_id":"cebpf4jnsgd1na2vs0mg"},{"bike_id":"409383b4-bce9-449e-819e-ef06d7f90f93","system_id":"levelo_inurba_marseille","lat":43.28467,"lon":5.35908,"is_reserved":false,"is_disabled":false,"rental_uris":{"android":"levelo://app?vid=409383b4-bce9-449e-819e-ef06d7f90f93","ios":"levelo://app?vid=409383b4-bce9-449e-819e-ef06d7f90f93"},"vehicle_type_id":"4","last_reported":1753654233,"current_range_meters":17600,"station_id":"ce4bhah2rcd13ifvqei0","pricing_plan_id":"cebpf4jnsgd1na2vs0mg"},{"bike_id":"d03ebcd2-83e7-4ffd-bb1d-18fbff069a76","system_id":"levelo_inurba_marseille","lat":43.32559,"lon":5.41425,"is_reserved":false,"is_disabled":false,"rental_uris":{"android":"levelo://app?vid=d03ebcd2-83e7-4ffd-bb1d-18fbff069a76","ios":"levelo://app?vid=d03ebcd2-83e7-4ffd-bb1d-18fbff069a76"},"vehicle_type_id":"4","last_reported":1753654233,"current_range_meters":18000,"station_id":"ce4bhq12rcd13ifvqhhg","pricing_plan_id":"cebpf4jnsgd1na2vs0mg"},{"bike_id":"f297ecb0-f504-4ce2-a698-235b8f25b26b","system_id":"levelo_inurba_marseille","lat":43.24161,"lon":5.36404,"is_reserved":false,"is_disabled":true,"rental_uris":{"android":"levelo://app?vid=f297ecb0-f504-4ce2-a698-235b8f25b26b","ios":"levelo://app?vid=f297ecb0-f504-4ce2-a698-235b8f25b26b"},"vehicle_type_id":"4","last_reported":1753654233,"current_range_meters":18000,"station_id":"cpo36qri1sfpv3e86is0","pricing_plan_id":"cebpf4jnsgd1na2vs0mg"},{"bike_id":"d917bd68-be2e-43ff-96c0-7fb698f8b9ab","system_id":"levelo_inurba_marseille","lat":43.2761,"lon":5.36125,"is_reserved":false,"is_disabled":false,"rental_uris":{"android":"levelo://app?vid=d917bd68-be2e-43ff-96c0-7fb698f8b9ab","ios":"levelo://app?vid=d917bd68-be2e-43ff-96c0-7fb698f8b9ab"},"vehicle_type_id":"4","last_reported":1753654233,"current_range_meters":18000,"station_id":"ce4bgj92rcd13ifvqbe0","pricing_plan_id":"cebpf4jnsgd1na2vs0mg"},{"bike_id":"ae43b4ec-64bc-4eb6-ae20-a2f81ea93017","system_id":"levelo_inurba_marseille","lat":43.23185,"lon":5.35576,"is_reserved":false,"is_disabled":false,"rental_uris":{"android":"levelo://app?vid=ae43b4ec-64bc-4eb6-ae20-a2f81ea93017","ios":"levelo://app?vid=ae43b4ec-64bc-4eb6-ae20-a2f81ea93017"},"vehicle_type_id":"4","last_reported":1753654233,"current_range_meters":18000,"station_id":"ce4bhu92rcd13ifvqi70","pricing_plan_id":"cebpf4jnsgd1na2vs0mg"},{"bike_id":"2a3a9f20-00d1-4c95-a093-ba8e28724bc0","system_id":"levelo_inurba_marseille","lat":43.30641,"lon":5.37558,"is_reserved":false,"is_disabled":false,"rental_uris":{"android":"levelo://app?vid=2a3a9f20-00d1-4c95-a093-ba8e28724bc0","ios":"levelo://app?vid=2a3a9f20-00d1-4c95-a093-ba8e28724bc0"},"vehicle_type_id":"4","last_reported":1753654233,"current_range_meters":18000,"station_id":"","pricing_plan_id":"cebpf4jnsgd1na2vs0mg"},{"bike_id":"74086b04-0dd6-46a7-9d00-59be29e56777","system_id":"levelo_inurba_marseille","lat":43.298775,"lon":5.397284,"is_reserved":false,"is_disabled":false,"rental_uris":{"android":"levelo://app?vid=74086b04-0dd6-46a7-9d00-59be29e56777","ios":"levelo://app?vid=74086b04-0dd6-46a7-9d00-59be29e56777"},"vehicle_type_id":"4","last_reported":1753654233,"current_range_meters":18800,"station_id":"ce4bh0h2rcd13ifvqd50","pricing_plan_id":"cebpf4jnsgd1na2vs0mg"},