{"last_updated":1732180233,"ttl":60,"version":"2.2","data":{"bikes":[{"bike_id":"ceca9f50-f8ba-42d3-903e-34338252ecfe","system_id":"levelo_inurba_marseille","lat":43.29419,"lon":5.38608,"is_reserved":false,"is_disabled":true,"rental_uris":{"android":"levelo://app?vid=ceca9f50-f8ba-42d3-903e-34338252ecfe","ios":"levelo://app?vid=ceca9f50-f8ba-42d3-903e-34338252ecfe"},"vehicle_type_id":"4","last_reported":1732180233,"current_range_meters":7200,"station_id":"ce4bh2h2rcd13ifvqdh0","pricing_plan_id":"cebpf4jnsgd1na2vs0mg"},{"bike_id":"f24bd403-f38e-4563-b0ad-29bb9a8db697","system_id":"levelo_inurba_marseille","lat":43.259409,"lon":5.409046,"is_reserved":false,"is_disabled":false,"rental_uris":{"android":"levelo://app?vid=f24bd403-f38e-4563-b0ad-29bb9a8db697","ios":"levelo://app?vid=f24bd403-f38e-4563-b0ad-29bb9a8db697"},"vehicle_type_id":"4","last_reported":1732180233,"current_range_meters":9600,"station_id":"ce4bhip2rcd13ifvqft0","pricing_plan_id":"cebpf4jnsgd1na2vs0mg"},{"bike_id":"156320ae-cdf1-448d-a5dd-5f82d48b8bf7","system_id":"levelo_inurba_marseille","lat":43.28622,"lon":5.35102,"is_reserved":false,"is_disabled":false,"rental_uris":{"android":"levelo://app?vid=156320ae-cdf1-448d-a5dd-5f82d48b8bf7","ios":"levelo://app?vid=156320ae-cdf1-448d-a5dd-5f82d48b8bf7"},"vehicle_type_id":"4","last_reported":1732180233,"current_range_meters":36400,"station_id":"ce4bhch2rcd13ifvqeug","pricing_plan_id":"cebpf4jnsgd1na2vs0mg"},{"bike_id":"f7fcb0a2-aed8-4c01-8a51-9435e5f75255","system_id":"levelo_inurba_marseille","lat":43.26942,"lon":5.38632,"is_reserved":false,"is_disabled":false,"rental_uris":{"android":"levelo://app?vid=f7fcb0a2-aed8-4c01-8a51-9435e5f75255","ios":"levelo://app?vid=f7fcb0a2-aed8-4c01-8a51-9435e5f75255"},"vehicle_type_id":"4","last_reported":1732180233,"current_range_meters":38800,"station_id":"ce4bhh92rcd13ifvqfh0","pricing_plan_id":"cebpf4jnsgd1na2vs0mg"},{"bike_id":"fa3b4529-ac0b-456b-acfc-4e5f8fd0d89d","system_id":"levelo_inurba_marseille","lat":43.26681,"lon":5.38272,"is_reserved":false,"is_disabled":false,"rental_uris":{"android":"levelo://app?vid=fa3b4529-ac0b-456b-acfc-4e5f8fd0d89d","ios":"levelo://app?vid=fa3b4529-ac0b-456b-acfc-4e5f8fd0d89d"},"vehicle_type_id":"4","last_reported":1732180233,"current_range_meters":39200,"station_id":"ce4bhg92rcd13ifvqf90","pricing_plan_id":"cebpf4jnsgd1na2vs0mg"},{"bike_id":"3d4f4541-0ce5-44c4-b89f-9a920af4dfeb","system_id":"levelo_inurba_marseille","lat":43.27324,"lon":5.39096,"is_reserved":false,"is_disabled":true,"rental_uris":{"android":"levelo://app?vid=3d4f4541-0ce5-44c4-b89f-9a920af4dfeb","ios":"levelo://app?vid=3d4f4541-0ce5-44c4-b89f-9a920af4dfeb"},"vehicle_type_id":"4","last_reported":1732180233,"current_range_meters":26800,"station_id":"ce4bhgp2rcd13ifvqfe0","pricing_plan_id":"cebpf4jnsgd1na2vs0mg"},{"bike_id":"d2581040-8772-4d35-a569-af5f240334a7","system_id":"levelo_inurba_marseille","lat":43.26943,"lon":5.40242,"is_reserved":false,"is_disabled":true,"rental_uris":{"android":"levelo://app?vid=d2581040-8772-4d35-a569-af5f240334a7","ios":"levelo://app?vid=d2581040-8772-4d35-a569-af5f240334a7"},"vehicle_type_id":"4","last_reported":1732180233,"current_range_meters":10800,"station_id":"cjm6bp8fraef2m0cb0m0","pricing_plan_id":"cebpf4jnsgd1na2vs0mg"},{"bike_id":"7ced6b3f-d1e7-4e9e-b0a2-0d21e9e94c16","system_id":"levelo_inurba_marseille","lat":43.31714,"lon":5.37756,"is_reserved":false,"is_disabled":false,"rental_uris":{"android":"levelo://app?vid=7ced6b3f-d1e7-4e9e-b0a2-0d21e9e94c16","ios":"levelo://app?vid=7ced6b3f-d1e7-4e9e-b0a2-0d21e9e94c16"},"vehicle_type_id":"4","last_reported":1732180233,"current_range_meters":24000,"station_id":"ce4bgth2rcd13ifvqch0","pricing_plan_id":"cebpf4jnsgd1na2vs0mg"},{"bike_id":"be97b7ff-a776-4abb-98b4-c9cc68de032d","system_id":"levelo_inurba_marseille","lat":43.28157,"lon":5.42646,"is_reserved":false,"is_disabled":false,"rental_uris":{"android":"levelo://app?vid=be97b7ff-a776-4abb-98b4-c9cc68de032d","ios":"levelo://app?vid=be97b7ff-a776-4abb-98b4-c9cc68de032d"},"vehicle_type_id":"4","last_reported":1732180233,"current_range_meters":30800,"station_id":"ce4bhnh2rcd13ifvqgug","pricing_plan_id":"cebpf4jnsgd1na2vs0mg"},{"bike_id":"8e6a3078-d201-4b7f-83a6-596972387b0b","system_id":"levelo_inurba_marseille","lat":43.26957,"lon":5.38635,"is_reserved":false,"is_disabled":false,"rental_uris":{"android":"levelo://app?vid=8e6a3078-d201-4b7f-83a6-596972387b0b","ios":"levelo://app?vid=8e6a3078-d201-4b7f-83a6-596972387b0b"},"vehicle_type_id":"4","last_reported":1732180233,"current_range_meters":38800,"station_id":"ce4bhh92rcd13ifvqfh0","pricing_plan_id":"cebpf4jnsgd1na2vs0mg"},{"bike_id":"b02238e2-caeb-4f4d-93b5-47227a985c6e","system_id":"levelo_inurba_marseille","lat":43.31344,"lon":5.36707,"is_reserved":false,"is_disabled":false,"rental_uris":{"android":"levelo://app?vid=b02238e2-caeb-4f4d-93b5-47227a985c6e","ios":"levelo://app?vid=b02238e2-caeb-4f4d-93b5-47227a985c6e"},"vehicle_type_id":"4","last_reported":1732180233,"current_range_meters":22800,"station_id":"ce4bgr92rcd13ifvqc6g","pricing_plan_id":"cebpf4jnsgd1na2vs0mg"},{"bike_id":"1f203897-1164-43c5-8a36-2a35df13aaf6","system_id":"levelo_inurba_marseille","lat":43.2315,"lon":5.43709,"is_reserved":false,"is_disabled":true,"rental_uris":{"android":"levelo://app?vid=1f203897-1164-43c5-8a36-2a35df13aaf6","ios":"levelo://app?vid=1f203897-1164-43c5-8a36-2a35df13aaf6"},"vehicle_type_id":"4","last_reported":1732180233,"current_range_meters":36800,"station_id":"ce4bhmp2rcd13ifvqgog","pricing_plan_id":"cebpf4jnsgd1na2vs0mg"},{"bike_id":"4be3997b-0298-4a92-a78f-ce2230a4e3ad","system_id":"levelo_inurba_marseille","lat":43.29907,"lon":5.38132,"is_reserved":false,"is_disabled":true,"rental_uris":{"android":"levelo://app?vid=4be3997b-0298-4a92-a78f-ce2230a4e3ad","ios":"levelo://app?vid=4be3997b-0298-4a92-a78f-ce2230a4e3ad"},"vehicle_type_id":"4","last_reported":1732180233,"current_range_meters":33600,"station_id":"ce4bgj12rcd13ifvqbc0","pricing_plan_id":"cebpf4jnsgd1na2vs0mg"},{"bike_id":"4633b1c2-ce30-49c6-98e5-95d4bb70140f","system_id":"levelo_inurba_marseille","lat":43.31348,"lon":5.36714,"is_reserved":false,"is_disabled":false,"rental_uris":{"android":"levelo://app?vid=4633b1c2-ce30-49c6-98e5-95d4bb70140f","ios":"levelo://app?vid=4633b1c2-ce30-49c6-98e5-95d4bb70140f"},"vehicle_type_id":"4","last_reported":1732180233,"current_range_meters":26800,"station_id":"ce4bgr92rcd13ifvqc6g","pricing_plan_id":"cebpf4jnsgd1na2vs0mg"},{"bike_id":"730321d2-de66-475f-920a-cd577dc02cf8","system_id":"levelo_inurba_marseille","lat":43.31756,"lon":5.39027,"is_reserved":false,"is_disabled":false,"rental_uris":{"android":"levelo://app?vid=730321d2-de66-475f-920a-cd577dc02cf8","ios":"levelo://app?vid=730321d2-de66-475f-920a-cd577dc02cf8"},"vehicle_type_id":"4","last_reported":1732180233,"current_range_meters":27600,"station_id":"ce4bhqp2rcd13ifvqhng","pricing_plan_id":"cebpf4jnsgd1na2vs0mg"},{"bike_id":"5996db57-59a4-4fac-a07b-fe6f610f8f44","system_id":"levelo_inurba_marseille","lat":43.30136,"lon":5.38766,"is_reserved":false,"is_disabled":true,"rental_uris":{"android":"levelo://app?vid=5996db57-59a4-4fac-a07b-fe6f610f8f44","ios":"levelo://app?vid=5996db57-59a4-4fac-a07b-fe6f610f8f44"},"vehicle_type_id":"4","last_reported":1732180233,"current_range_meters":35200,"station_id":"ce4bghh2rcd13ifvqb60","pricing_plan_id":"cebpf4jnsgd1na2vs0mg"},{"bike_id":"c18bcacb-fc06-4dec-ae65-11ce14ea77b9","system_id":"levelo_inurba_marseille","lat":43.30903,"lon":5.36841,"is_reserved":false,"is_disabled":false,"rental_uris":{"android":"levelo://app?vid=c18bcacb-fc06-4dec-ae65-11ce14ea77b9","ios":"levelo://app?vid=c18bcacb-fc06-4dec-ae65-11ce14ea77b9"},"vehicle_type_id":"4","last_reported":1732180233,"current_range_meters":26800,"station_id":"ce4bgn92rcd13ifvqbvg","pricing_plan_id":"cebpf4jnsgd1na2vs0mg"},{"bike_id":"72350134-21e5-4b08-be2b-0c0122d0684f","system_id":"levelo_inurba_marseille","lat":43.29971,"lon":5.37173,"is_reserved":false,"is_disabled":false,"rental_uris":{"android":"levelo://app?vid=72350134-21e5-4b08-be2b-0c0122d0684f","ios":"levelo://app?vid=72350134-21e5-4b08-be2b-0c0122d0684f"},"vehicle_type_id":"4","last_reported":1732180233,"current_range_meters":36400,"station_id":"ce4bgr92rcd13ifvqc7g","pricing_plan_id":"cebpf4jnsgd1na2vs0mg"},{"bike_id":"aaa68104-60d6-454b-9438-4e38b46ffb6c","system_id":"levelo_inurba_marseille","lat":43.308178,"lon":5.370633,"is_reserved":false,"is_disabled":false,"rental_uris":{"android":"levelo://app?vid=aaa68104-60d6-454b-9438-4e38b46ffb6c","ios":"levelo://app?vid=aaa68104-60d6-454b-9438-4e38b46ffb6c"},"vehicle_type_id":"4","last_reported":1732180233,"current_range_meters":17600,"station_id":"","pricing_plan_id":"cebpf4jnsgd1na2vs0mg"},{"bike_id":"2c070821-fd04-486b-a540-35248bc7e7e9","system_id":"levelo_inurba_marseille","lat":43.3047,"lon":5.37915,"is_reserved":false,"is_disabled":false,"rental_uris":{"android":"levelo://app?vid=2c070821-fd04-486b-a540-35248bc7e7e9","ios":"levelo://app?vid=2c070821-fd04-486b-a540-35248bc7e7e9"},"vehicle_type_id":"4","last_reported":1732180233,"current_range_meters":32400,"station_id":"ce4bgup2rcd13ifvqcn0","pricing_plan_id":"cebpf4jnsgd1na2vs0mg"},{"bike_id":"fb41b160-17ce-44f9-b789-9d3cb5c31c11","system_id":"levelo_inurba_marseille","lat":43.30926,"lon":5.36848,"is_reserved":false,"is_disabled":false,"rental_uris":{"android":"levelo://app?vid=fb41b160-17ce-44f9-b789-9d3cb5c31c11","ios":"levelo://app?vid=fb41b160-17ce-44f9-b789-9d3cb5c31c11"},"vehicle_type_id":"4","last_reported":1732180233,"current_range_meters":38800,"station_id":"ce4bgn92rcd13ifvqbvg","pricing_plan_id":"cebpf4jnsgd1na2vs0mg"},{"bike_id":"d2321b4c-ae3a-4b43-8bcd-12cb7984481d","system_id":"levelo_inurba_marseille","lat":43.30753,"lon":5.37013,"is_reserved":false,"is_disabled":true,"rental_uris":{"android":"levelo://app?vid=d2321b4c-ae3a-4b43-8bcd-12cb7984481d","ios":"levelo://app?vid=d2321b4c-ae3a-4b43-8bcd-12cb7984481d"},"vehicle_type_id":"4","last_reported":1732180233,"current_range_meters":24400,"station_id":"","pricing_plan_id":"cebpf4jnsgd1na2vs0mg"},{"bike_id":"3e5537ef-4855-46e9-9f2b-209fa5863cc4","system_id":"levelo_inurba_marseille","lat":43.30187,"lon":5.36632,"is_reserved":false,"is_disabled":false,"rental_uris":{"android":"levelo://app?vid=3e5537ef-4855-46e9-9f2b-209fa5863cc4","ios":"levelo://app?vid=3e5537ef-4855-46e9-9f2b-209fa5863cc4"},"vehicle_type_id":"4","last_reported":1732180233,"current_range_meters":22400,"station_id":"ce4bgrh2rcd13ifvqc8g","pricing_plan_id":"cebpf4jnsgd1na2vs0mg"},{"bike_id":"ff096b2b-2949-453d-974b-e7c91d9e83b6","system_id":"levelo_inurba_marseille","lat":43.293187,"lon":5.3718,"is_reserved":false,"is_disabled":false,"rental_uris":{"android":"levelo://app?vid=ff096b2b-2949-453d-974b-e7c91d9e83b6","ios":"levelo://app?vid=ff096b2b-2949-453d-974b-e7c91d9e83b6"},"vehicle_type_id":"4","last_reported":1732180233,"current_range_meters":38800,"station_id":"ce4bgh92rcd13ifvqb40","pricing_plan_id":"cebpf4jnsgd1na2vs0mg"},{"bike_id":"5c3000a0-a190-4007-a723-aa2707fd1ce3","system_id":"levelo_inurba_marseille","lat":43.22928,"lon":5.3537,"is_reserved":false,"is_disabled":false,"rental_uris":{"android":"levelo://app?vid=5c3000a0-a190-4007-a723-aa2707fd1ce3","ios":"levelo://app?vid=5c3000a0-a190-4007-a723-aa2707fd1ce3"},"vehicle_type_id":"4","last_reported":1732180233,"current_range_meters":38800,"station_id":"cpo3532slgdg3j2ikp40","pricing_plan_id":"cebpf4jnsgd1na2vs0mg"},{"bike_id":"749dcff2-f3db-46db-bd3a-aabc18114a16","system_id":"levelo_inurba_marseille","lat":43.31226,"lon":5.36853,"is_reserved":false,"is_disabled":false,"rental_uris":{"android":"levelo://app?vid=749dcff2-f3db-46db-bd3a-aabc18114a16","ios":"levelo://app?vid=749dcff2-f3db-46db-bd3a-aabc18114a16"},"vehicle_type_id":"4","last_reported":1732180233,"current_range_meters":36400,"station_id":"ce4bgl92rcd13ifvqbq0","pricing_plan_id":"cebpf4jnsgd1na2vs0mg"},{"bike_id":"1b224445-ff25-4c0e-9797-9749af970ee1","system_id":"levelo_inurba_marseille","lat":43.29575,"lon":5.37512,"is_reserved":false,"is_disabled":false,"rental_uris":{"android":"levelo://app?vid=1b224445-ff25-4c0e-9797-9749af970ee1","ios":"levelo://app?vid=1b224445-ff25-4c0e-9797-9749af970ee1"},"vehicle_type_id":"4","last_reported":1732180233,"current_range_meters":12800,"station_id":"ce4bgh92rcd13ifvqb50","pricing_plan_id":"cebpf4jnsgd1na2vs0mg"},{"bike_id":"87c97a4c-6681-4bda-bede-ddb33d07fffc","system_id":"levelo_inurba_marseille","lat":43.30193,"lon":5.36624,"is_reserved":false,"is_disabled":false,"rental_uris":{"android":"levelo://app?vid=87c97a4c-6681-4bda-bede-ddb33d07fffc","ios":"levelo://app?vid=87c97a4c-6681-4bda-bede-ddb33d07fffc"},"vehicle_type_id":"4","last_reported":1732180233,"current_range_meters":35200,"station_id":"ce4bgrh2rcd13ifvqc8g","pricing_plan_id":"cebpf4jnsgd1na2vs0mg"},{"bike_id":"afdf667c-67f0-4981-add8-24e05848a1f1","system_id":"levelo_inurba_marseille","lat":43.30138,"lon":5.37425,"is_reserved":false,"is_disabled":false,"rental_uris":{"android":"levelo://app?vid=afdf667c-67f0-4981-add8-24e05848a1f1","ios":"levelo://app?vid=afdf667c-67f0-4981-add8-24e05848a1f1"},"vehicle_type_id":"4","last_reported":1732180233,"current_range_meters":9200,"station_id":"ce4bgs92rcd13ifvqcc0","pricing_plan_id":"cebpf4jnsgd1na2vs0mg"},{"bike_id":"771a590e-af65-48d4-813a-c5e1d4911c8c","system_id":"levelo_inurba_marseille","lat":43.2408,"lon":5.37746,"is_reserved":false,"is_disabled":false,"rental_uris":{"android":"levelo://app?vid=771a590e-af65-48d4-813a-c5e1d4911c8c","ios":"levelo://app?vid=771a590e-af65-48d4-813a-c5e1d4911c8c"},"vehicle_type_id":"4","last_reported":1732180233,"current_range_meters":17200,"station_id":"ce4bhnp2rcd13ifvqgvg","pricing_plan_id":"cebpf4jnsgd1na2vs0mg"},{"bike_id":"62d0ee86-5b1c-494d-b80a-0c29643d8236","system_id":"levelo_inurba_marseille","lat":43.29845,"lon":5.36268,"is_reserved":false,"is_disabled":false,"rental_uris":{"android":"levelo://app?vid=62d0ee86-5b1c-494d-b80a-0c29643d8236","ios":"levelo://app?vid=62d0ee86-5b1c-494d-b80a-0c29643d8236"},"vehicle_type_id":"4","last_reported":1732180233,"current_range_meters":11200,"station_id":"ce4bgpp2rcd13ifvqc3g","pricing_plan_id":"cebpf4jnsgd1na2vs0mg"},{"bike_id":"0537b288-f6d5-4a4a-b5a0-fbb6f073f2c1","system_id":"levelo_inurba_marseille","lat":43.30529,"lon":5.36542,"is_reserved":false,"is_disabled":false,"rental_uris":{"android":"levelo://app?vid=0537b288-f6d5-4a4a-b5a0-fbb6f073f2c1","ios":"levelo://app?vid=0537b288-f6d5-4a4a-b5a0-fbb6f073f2c1"},"vehicle_type_id":"4","last_reported":1732180233,"current_range_meters":38800,"station_id":"ce4bgs12rcd13ifvqcag","pricing_plan_id":"cebpf4jnsgd1na2vs0mg"},{"bike_id":"f1a5529f-d308-4bb7-8ccd-2d79295e5b55","system_id":"levelo_inurba_marseille","lat":43.25574,"lon":5.38232,"is_reserved":false,"is_disabled":false,"rental_uris":{"android":"levelo://app?vid=f1a5529f-d308-4bb7-8ccd-2d79295e5b55","ios":"levelo://app?vid=f1a5529f-d308-4bb7-8ccd-2d79295e5b55"},"vehicle_type_id":"4","last_reported":1732180233,"current_range_meters":37600,"station_id":"ce4bhih2rcd13ifvqfs0","pricing_plan_id":"cebpf4jnsgd1na2vs0mg"},{"bike_id":"7f0f36e2-426d-4fba-8081-17d7112c077d","system_id":"levelo_inurba_marseille","lat":43.29604,"lon":5.3811,"is_reserved":false,"is_disabled":false,"rental_uris":{"android":"levelo://app?vid=7f0f36e2-426d-4fba-8081-17d7112c077d","ios":"levelo://app?vid=7f0f36e2-426d-4fba-8081-17d7112c077d"},"vehicle_type_id":"4","last_reported":1732180233,"current_range_meters":7200,"station_id":"ce4bgl12rcd13ifvqbo0","pricing_plan_id":"cebpf4jnsgd1na2vs0mg"},{"bike_id":"1cd0daee-d68a-4e66-9883-fbe67fd8260f","system_id":"levelo_inurba_marseille","lat":43.30584,"lon":5.37117,"is_reserved":false,"is_disabled":true,"rental_uris":{"android":"levelo://app?vid=1cd0daee-d68a-4e66-9883-fbe67fd8260f","ios":"levelo://app?vid=1cd0daee-d68a-4e66-9883-fbe67fd8260f"},"vehicle_type_id":"4","last_reported":1732180233,"current_range_meters":0,"station_id":"","pricing_plan_id":"cebpf4jnsgd1na2vs0mg"},{"bike_id":"29706612-9234-4875-a9c8-78672d89ff5e","system_id":"levelo_inurba_marseille","lat":43.28619,"lon":5.351,"is_reserved":false,"is_disabled":false,"rental_uris":{"android":"levelo://app?vid=29706612-9234-4875-a9c8-78672d89ff5e","ios":"levelo://app?vid=29706612-9234-4875-a9c8-78672d89ff5e"},"vehicle_type_id":"4","last_reported":1732180233,"current_range_meters":32000,"station_id":"ce4bhch2rcd13ifvqeug","pricing_plan_id":"cebpf4jnsgd1na2vs0mg"},{"bike_id":"a127105f-c61f-44d0-b11b-d4db50097da3","system_id":"levelo_inurba_marseille","lat":43.29313,"lon":5.37176,"is_reserved":false,"is_disabled":false,"rental_uris":{"android":"levelo://app?vid=a127105f-c61f-44d0-b11b-d4db50097da3","ios":"levelo://app?vid=a127105f-c61f-44d0-b11b-d4db50097da3"},"vehicle_type_id":"4","last_reported":1732180233,"current_range_meters":28800,"station_id":"ce4bgh92rcd13ifvqb40","pricing_plan_id":"cebpf4jnsgd1na2vs0mg"},{"bike_id":"772ce743-8958-4198-b3ba-b6e0d96fa296","system_id":"levelo_inurba_marseille","lat":43.24168,"lon":5.36402,"is_reserved":false,"is_disabled":false,"rental_uris":{"android":"levelo://app?vid=772ce743-8958-4198-b3ba-b6e0d96fa296","ios":"levelo://app?vid=772ce743-8958-4198-b3ba-b6e0d96fa296"},"vehicle_type_id":"4","last_reported":1732180233,"current_range_meters":7200,"station_id":"cpo36qri1sfpv3e86is0","pricing_plan_id":"cebpf4jnsgd1na2vs0mg"},{"bike_id":"6ac813fd-2f8a-4e96-83c3-26fdfb134841","system_id":"levelo_inurba_marseille","lat":43.28931,"lon":5.36419,"is_reserved":false,"is_disabled":false,"rental_uris":{"android":"levelo://app?vid=6ac813fd-2f8a-4e96-83c3-26fdfb134841","ios":"levelo://app?vid=6ac813fd-2f8a-4e96-83c3-26fdfb134841"},"vehicle_type_id":"4","last_reported":1732180233,"current_range_meters":10800,"station_id":"ce4bhc92rcd13ifvqetg","pricing_plan_id":"cebpf4jnsgd1na2vs0mg"},{"bike_id":"a91d19d3-8057-4b70-88f1-be828ea306bd","system_id":"levelo_inurba_marseille","lat":43.26691,"lon":5.38277,"is_reserved":false,"is_disabled":false,"rental_uris":{"android":"levelo://app?vid=a91d19d3-8057-4b70-88f1-be828ea306bd","ios":"levelo://app?vid=a91d19d3-8057-4b70-88f1-be828ea306bd"},"vehicle_type_id":"4","last_reported":1732180233,"current_range_meters":23200,"station_id":"ce4bhg92rcd13ifvqf90","pricing_plan_id":"cebpf4jnsgd1na2vs0mg"},{"bike_id":"65037f4b-f5b0-47d3-99a9-1e6f34142111","system_id":"levelo_inurba_marseille","lat":43.32371,"lon":5.38884,"is_reserved":false,"is_disabled":false,"rental_uris":{"android":"levelo://app?vid=65037f4b-f5b0-47d3-99a9-1e6f34142111","ios":"levelo://app?vid=65037f4b-f5b0-47d3-99a9-1e6f34142111"},"vehicle_type_id":"4","last_reported":1732180233,"current_range_meters":8400,"station_id":"ce4bhqp2rcd13ifvqhog","pricing_plan_id":"cebpf4jnsgd1na2vs0mg"},{"bike_id":"c24c6952-fe14-441b-9d17-b784793a4630","system_id":"levelo_inurba_marseille","lat":43.2956,"lon":5.42294,"is_reserved":false,"is_disabled":false,"rental_uris":{"android":"levelo://app?vid=c24c6952-fe14-441b-9d17-b784793a4630","ios":"levelo://app?vid=c24c6952-fe14-441b-9d17-b784793a4630"},"vehicle_type_id":"4","last_reported":1732180233,"current_range_meters":25600,"station_id":"ce4bhph2rcd13ifvqhdg","pricing_plan_id":"cebpf4jnsgd1na2vs0mg"},{"bike_id":"54c59925-6e05-4055-b292-031902ff1d27","system_id":"levelo_inurba_marseille","lat":43.24075,"lon":5.37755,"is_reserved":false,"is_disabled":false,"rental_uris":{"android":"levelo://app?vid=54c59925-6e05-4055-b292-031902ff1d27","ios":"levelo://app?vid=54c59925-6e05-4055-b292-031902ff1d27"},"vehicle_type_id":"4","last_reported":1732180233,"current_range_meters":22400,"station_id":"ce4bhnp2rcd13ifvqgvg","pricing_plan_id":"cebpf4jnsgd1na2vs0mg"},{"bike_id":"ae958384-6f3e-4561-b6b7-baae6636a958","system_id":"levelo_inurba_marseille","lat":43.24181,"lon":5.39722,"is_reserved":false,"is_disabled":false,"rental_uris":{"android":"levelo://app?vid=ae958384-6f3e-4561-b6b7-baae6636a958","ios":"levelo://app?vid=ae958384-6f3e-4561-b6b7-baae6636a958"},"vehicle_type_id":"4","last_reported":1732180233,"current_range_meters":28400,"station_id":"ce4bhn12rcd13ifvqgpg","pricing_plan_id":"cebpf4jnsgd1na2vs0mg"},{"bike_id":"a7fce1eb-2f2a-4561-bd8b-f77092da043b","system_id":"levelo_inurba_marseille","lat":43.27061,"lon":5.42278,"is_reserved":false,"is_disabled":true,"rental_uris":{"android":"levelo://app?vid=a7fce1eb-2f2a-4561-bd8b-f77092da043b","ios":"levelo://app?vid=a7fce1eb-2f2a-4561-bd8b-f77092da043b"},"vehicle_type_id":"4","last_reported":1732180233,"current_range_meters":34800,"station_id":"ce4bhk92rcd13ifvqgb0","pricing_plan_id":"cebpf4jnsgd1na2vs0mg"},{"bike_id":"72e3a816-4edb-4252-bda9-ca36a95f2496","system_id":"levelo_inurba_marseille","lat":43.29606,"lon":5.38109,"is_reserved":false,"is_disabled":false,"rental_uris":{"android":"levelo://app?vid=72e3a816-4edb-4252-bda9-ca36a95f2496","ios":"levelo://app?vid=72e3a816-4edb-4252-bda9-ca36a95f2496"},"vehicle_type_id":"4","last_reported":1732180233,"current_range_meters":23200,"station_id":"ce4bgl12rcd13ifvqbo0","pricing_plan_id":"cebpf4jnsgd1na2vs0mg"},{"bike_id":"9e54fce7-1ef2-4c44-8a73-2860248f931b","system_id":"levelo_inurba_marseille","lat":43.29037,"lon":5.37557,"is_reserved":false,"is_disabled":false,"rental_uris":{"android":"levelo://app?vid=9e54fce7-1ef2-4c44-8a73-2860248f931b","ios":"levelo://app?vid=9e54fce7-1ef2-4c44-8a73-2860248f931b"},"vehicle_type_id":"4","last_reported":1732180233,"current_range_meters":39200,"station_id":"ce4bh692rcd13ifvqe90","pricing_plan_id":"cebpf4jnsgd1na2vs0mg"},{"bike_id":"3fd5bebc-428a-4b96-b754-ca818ccd1f16","system_id":"levelo_inurba_marseille","lat":43.25929,"lon":5.40911,"is_reserved":false,"is_disabled":true,"rental_uris":{"android":"levelo://app?vid=3fd5bebc-428a-4b96-b754-ca818ccd1f16","ios":"levelo://app?vid=3fd5bebc-428a-4b96-b754-ca818ccd1f16"},"vehicle_type_id":"4","last_reported":1732180233,"current_range_meters":37600,"station_id":"ce4bhm92rcd13ifvqglg","pricing_plan_id":"cebpf4jnsgd1na2vs0mg"},{"bike_id":"a764c778-c8a8-4fae-886e-64f3d5668825","system_id":"levelo_inurba_marseille","lat":43.28174,"lon":5.42619,"is_reserved":false,"is_disabled":true,"rental_uris":{"android":"levelo://app?vid=a764c778-c8a8-4fae-886e-64f3d5668825","ios":"levelo://app?vid=a764c778-c8a8-4fae-886e-64f3d5668825"},"vehicle_type_id":"4","last_reported":1732180233,"current_range_meters":38800,"station_id":"ce4bhnh2rcd13ifvqgug","pricing_plan_id":"cebpf4jnsgd1na2vs0mg"},{"bike_id":"c135e75e-8f72-424b-a248-3608ebd51264","system_id":"levelo_inurba_marseille","lat":43.24079,"lon":5.37758,"is_reserved":false,"is_disabled":false,"rental_uris":{"android":"levelo://app?vid=c135e75e-8f72-424b-a248-3608ebd51264","ios":"levelo://app?vid=c135e75e-8f72-424b-a248-3608ebd51264"},"vehicle_type_id":"4","last_reported":1732180233,"current_range_meters":32400,"station_id":"ce4bhnp2rcd13ifvqgvg","pricing_plan_id":"cebpf4jnsgd1na2vs0mg"},{"bike_id":"988ba3e5-bc25-4348-840a-0f9857417963","system_id":"levelo_inurba_marseille","lat":43.27945,"lon":5.41043,"is_reserved":false,"is_disabled":false,"rental_uris":{"android":"levelo://app?vid=988ba3e5-bc25-4348-840a-0f9857417963","ios":"levelo://app?vid=988ba3e5-bc25-4348-840a-0f9857417963"},"vehicle_type_id":"4","last_reported":1732180233,"current_range_meters":27600,"station_id":"ce4bhnp2rcd13ifvqh0g","pricing_plan_id":"cebpf4jnsgd1na2vs0mg"},{"bike_id":"5dd4afbb-16bd-43bd-b0db-67e7146c68d0","system_id":"levelo_inurba_marseille","lat":43.30525,"lon":5.36704,"is_reserved":false,"is_disabled":false,"rental_uris":{"android":"levelo://app?vid=5dd4afbb-16bd-43bd-b0db-67e7146c68d0","ios":"levelo://app?vid=5dd4afbb-16bd-43bd-b0db-67e7146c68d0"},"vehicle_type_id":"4","last_reported":1732180233,"current_range_meters":32800,"station_id":"ce4bgrp2rcd13ifvqc9g","pricing_plan_id":"cebpf4jnsgd1na2vs0mg"},{"bike_id":"9790cc89-bdc7-460f-a5e1-3788478b2232","system_id":"levelo_inurba_marseille","lat":43.28657,"lon":5.36352,"is_reserved":false,"is_disabled":true,"rental_uris":{"android":"levelo://app?vid=9790cc89-bdc7-460f-a5e1-3788478b2232","ios":"levelo://app?vid=9790cc89-bdc7-460f-a5e1-3788478b2232"},"vehicle_type_id":"4","last_reported":1732180233,"current_range_meters":37600,"station_id":"ce4bhah2rcd13ifvqej0","pricing_plan_id":"cebpf4jnsgd1na2vs0mg"},{"bike_id":"571825fc-1c1f-4e61-ba4d-fc13912fcda9","system_id":"levelo_inurba_marseille","lat":43.32486,"lon":5.36561,"is_reserved":false,"is_disabled":false,"rental_uris":{"android":"levelo://app?vid=571825fc-1c1f-4e61-ba4d-fc13912fcda9","ios":"levelo://app?vid=571825fc-1c1f-4e61-ba4d-fc13912fcda9"},"vehicle_type_id":"4","last_reported":1732180233,"current_range_meters":38800,"station_id":"ce4bhs12rcd13ifvqhvg","pricing_plan_id":"cebpf4jnsgd1na2vs0mg"},{"bike_id":"ccc13f20-e135-4427-8207-c9fa00d28a91","system_id":"levelo_inurba_marseille","lat":43.29272,"lon":5.40112,"is_reserved":false,"is_disabled":true,"rental_uris":{"android":"levelo://app?vid=ccc13f20-e135-4427-8207-c9fa00d28a91","ios":"levelo://app?vid=ccc13f20-e135-4427-8207-c9fa00d28a91"},"vehicle_type_id":"4","last_reported":1732180233,"current_range_meters":4000,"station_id":"ce4bh312rcd13ifvqdk0","pricing_plan_id":"cebpf4jnsgd1na2vs0mg"},{"bike_id":"6d8d4026-73c3-4703-a895-b6045425d457","system_id":"levelo_inurba_marseille","lat":43.30538,"lon":5.36704,"is_reserved":false,"is_disabled":false,"rental_uris":{"android":"levelo://app?vid=6d8d4026-73c3-4703-a895-b6045425d457","ios":"levelo://app?vid=6d8d4026-73c3-4703-a895-b6045425d457"},"vehicle_type_id":"4","last_reported":1732180233,"current_range_meters":37600,"station_id":"ce4bgrp2rcd13ifvqc9g","pricing_plan_id":"cebpf4jnsgd1na2vs0mg"},{"bike_id":"4cb5a1b6-092e-4c41-8f39-9f1364c4d195","system_id":"levelo_inurba_marseille","lat":43.29782,"lon":5.39339,"is_reserved":false,"is_disabled":false,"rental_uris":{"android":"levelo://app?vid=4cb5a1b6-092e-4c41-8f39-9f1364c4d195","ios":"levelo://app?vid=4cb5a1b6-092e-4c41-8f39-9f1364c4d195"},"vehicle_type_id":"4","last_reported":1732180233,"current_range_meters":8800,"station_id":"chh1huq6cuj3fo74tm60","pricing_plan_id":"cebpf4jnsgd1na2vs0mg"},{"bike_id":"4e0ae9d0-4853-4c4a-8966-a6752727c462","system_id":"levelo_inurba_marseille","lat":43.28945,"lon":5.39631,"is_reserved":false,"is_disabled":true,"rental_uris":{"android":"levelo://app?vid=4e0ae9d0-4853-4c4a-8966-a6752727c462","ios":"levelo://app?vid=4e0ae9d0-4853-4c4a-8966-a6752727c462"},"vehicle_type_id":"4","last_reported":1732180233,"current_range_meters":0,"station_id":"ce4bh3h2rcd13ifvqdn0","pricing_plan_id":"cebpf4jnsgd1na2vs0mg"},{"bike_id":"2c0955bc-33f9-4117-8954-1c23cfa79778","system_id":"levelo_inurba_marseille","lat":43.26688,"lon":5.38275,"is_reserved":false,"is_disabled":false,"rental_uris":{"android":"levelo://app?vid=2c0955bc-33f9-4117-8954-1c23cfa79778","ios":"levelo://app?vid=2c0955bc-33f9-4117-8954-1c23cfa79778"},"vehicle_type_id":"4","last_reported":1732180233,"current_range_meters":33200,"station_id":"ce4bhg92rcd13ifvqf90","pricing_plan_id":"cebpf4jnsgd1na2vs0mg"},{"bike_id":"be9ae0a8-c549-4adb-a0f6-54609edbc62f","system_id":"levelo_inurba_marseille","lat":43.29851,"lon":5.36285,"is_reserved":false,"is_disabled":false,"rental_uris":{"android":"levelo://app?vid=be9ae0a8-c549-4adb-a0f6-54609edbc62f","ios":"levelo://app?vid=be9ae0a8-c549-4adb-a0f6-54609edbc62f"},"vehicle_type_id":"4","last_reported":1732180233,"current_range_meters":38800,"station_id":"ce4bgpp2rcd13ifvqc3g","pricing_plan_id":"cebpf4jnsgd1na2vs0mg"},{"bike_id":"8758a1bd-33e4-4e0c-92a8-bbac0cc38c27","system_id":"levelo_inurba_marseille","lat":43.28935,"lon":5.39648,"is_reserved":false,"is_disabled":true,"rental_uris":{"android":"levelo://app?vid=8758a1bd-33e4-4e0c-92a8-bbac0cc38c27","ios":"levelo://app?vid=8758a1bd-33e4-4e0c-92a8-bbac0cc38c27"},"vehicle_type_id":"4","last_reported":1732180233,"current_range_meters":1200,"station_id":"ce4bh3h2rcd13ifvqdn0","pricing_plan_id":"cebpf4jnsgd1na2vs0mg"},{"bike_id":"f0fa4e60-0a2b-48c7-9942-83170358dd4a","system_id":"levelo_inurba_marseille","lat":43.32295,"lon":5.38265,"is_reserved":false,"is_disabled":false,"rental_uris":{"android":"levelo://app?vid=f0fa4e60-0a2b-48c7-9942-83170358dd4a","ios":"levelo://app?vid=f0fa4e60-0a2b-48c7-9942-83170358dd4a"},"vehicle_type_id":"4","last_reported":1732180233,"current_range_meters":38800,"station_id":"ce4bhr12rcd13ifvqhqg","pricing_plan_id":"cebpf4jnsgd1na2vs0mg"},{"bike_id":"550f0269-af81-4f74-bed5-fe17c4459dfd","system_id":"levelo_inurba_marseille","lat":43.25936,"lon":5.40907,"is_reserved":false,"is_disabled":false,"rental_uris":{"android":"levelo://app?vid=550f0269-af81-4f74-bed5-fe17c4459dfd","ios":"levelo://app?vid=550f0269-af81-4f74-bed5-fe17c4459dfd"},"vehicle_type_id":"4","last_reported":1732180233,"current_range_meters":28400,"station_id":"ce4bhm92rcd13ifvqglg","pricing_plan_id":"cebpf4jnsgd1na2vs0mg"},{"bike_id":"21da46cb-bd99-484e-9a3b-6d78dc7cbca5","system_id":"levelo_inurba_marseille","lat":43.2408,"lon":5.37752,"is_reserved":false,"is_disabled":false,"rental_uris":{"android":"levelo://app?vid=21da46cb-bd99-484e-9a3b-6d78dc7cbca5","ios":"levelo://app?vid=21da46cb-bd99-484e-9a3b-6d78dc7cbca5"},"vehicle_type_id":"4","last_reported":1732180233,"current_range_meters":32400,"station_id":"ce4bhnp2rcd13ifvqgvg","pricing_plan_id":"cebpf4jnsgd1na2vs0mg"},{"bike_id":"1d044a0d-972e-4b67-af1d-58efd269330b","system_id":"levelo_inurba_marseille","lat":43.27816,"lon":5.40714,"is_reserved":false,"is_disabled":false,"rental_uris":{"android":"levelo://app?vid=1d044a0d-972e-4b67-af1d-58efd269330b","ios":"levelo://app?vid=1d044a0d-972e-4b67-af1d-58efd269330b"},"vehicle_type_id":"4","last_reported":1732180233,"current_range_meters":36400,"station_id":"ce4bhnh2rcd13ifvqgtg","pricing_plan_id":"cebpf4jnsgd1na2vs0mg"},{"bike_id":"f5cf085e-8694-4c6f-ba9c-aa6e0d3c58c6","system_id":"levelo_inurba_marseille","lat":43.33643,"lon":5.35553,"is_reserved":false,"is_disabled":true,"rental_uris":{"android":"levelo://app?vid=f5cf085e-8694-4c6f-ba9c-aa6e0d3c58c6","ios":"levelo://app?vid=f5cf085e-8694-4c6f-ba9c-aa6e0d3c58c6"},"vehicle_type_id":"4","last_reported":1732180233,"current_range_meters":8000,"station_id":"","pricing_plan_id":"cebpf4jnsgd1na2vs0mg"},{"bike_id":"3585d018-4b66-4cf5-bca5-17fcec2fef21","system_id":"levelo_inurba_marseille","lat":43.23197,"lon":5.35553,"is_reserved":false,"is_disabled":false,"rental_uris":{"android":"levelo://app?vid=3585d018-4b66-4cf5-bca5-17fcec2fef21","ios":"levelo://app?vid=3585d018-4b66-4cf5-bca5-17fcec2fef21"},"vehicle_type_id":"4","last_reported":1732180233,"current_range_meters":33600,"station_id":"ce4bhu92rcd13ifvqi70","pricing_plan_id":"cebpf4jnsgd1na2vs0mg"},{"bike_id":"f06a6666-bb09-40f0-92b2-dfbcc0472d57","system_id":"levelo_inurba_marseille","lat":43.30315,"lon":5.40443,"is_reserved":false,"is_disabled":true,"rental_uris":{"android":"levelo://app?vid=f06a6666-bb09-40f0-92b2-dfbcc0472d57","ios":"levelo://app?vid=f06a6666-bb09-40f0-92b2-dfbcc0472d57"},"vehicle_type_id":"4","last_reported":1732180233,"current_range_meters":37600,"station_id":"ce4bh012rcd13ifvqd10","pricing_plan_id":"cebpf4jnsgd1na2vs0mg"},{"bike_id":"a1529ae5-93e5-4314-98be-8be4cef599cf","system_id":"levelo_inurba_marseille","lat":43.28947,"lon":5.36632,"is_reserved":false,"is_disabled":false,"rental_uris":{"android":"levelo://app?vid=a1529ae5-93e5-4314-98be-8be4cef599cf","ios":"levelo://app?vid=a1529ae5-93e5-4314-98be-8be4cef599cf"},"vehicle_type_id":"4","last_reported":1732180233,"current_range_meters":14000,"station_id":"ce4bhap2rcd13ifvqek0","pricing_plan_id":"cebpf4jnsgd1na2vs0mg"},{"bike_id":"cde15ef1-9a0b-4bd5-bc01-3e5433a0219d","system_id":"levelo_inurba_marseille","lat":43.30154,"lon":5.3808,"is_reserved":false,"is_disabled":true,"rental_uris":{"android":"levelo://app?vid=cde15ef1-9a0b-4bd5-bc01-3e5433a0219d","ios":"levelo://app?vid=cde15ef1-9a0b-4bd5-bc01-3e5433a0219d"},"vehicle_type_id":"4","last_reported":1732180233,"current_range_meters":36400,"station_id":"ce4bgjp2rcd13ifvqbh0","pricing_plan_id":"cebpf4jnsgd1na2vs0mg"},{"bike_id":"8ce30017-c5d2-4661-a27a-2fb8a9a5d48d","system_id":"levelo_inurba_marseille","lat":43.30958,"lon":5.39035,"is_reserved":false,"is_disabled":false,"rental_uris":{"android":"levelo://app?vid=8ce30017-c5d2-4661-a27a-2fb8a9a5d48d","ios":"levelo://app?vid=8ce30017-c5d2-4661-a27a-2fb8a9a5d48d"},"vehicle_type_id":"4","last_reported":1732180233,"current_range_meters":17600,"station_id":"ce4bgup2rcd13ifvqco0","pricing_plan_id":"cebpf4jnsgd1na2vs0mg"},{"bike_id":"e57590cc-a844-462b-b95c-023047b497c3","system_id":"levelo_inurba_marseille","lat":43.26027,"lon":5.3755,"is_reserved":false,"is_disabled":false,"rental_uris":{"android":"levelo://app?vid=e57590cc-a844-462b-b95c-023047b497c3","ios":"levelo://app?vid=e57590cc-a844-462b-b95c-023047b497c3"},"vehicle_type_id":"4","last_reported":1732180233,"current_range_meters":38400,"station_id":"ce4bhgh2rcd13ifvqfa0","pricing_plan_id":"cebpf4jnsgd1na2vs0mg"},{"bike_id":"02548de1-a79f-4bc6-8c03-f2b86f8bd8f9","system_id":"levelo_inurba_marseille","lat":43.3236,"lon":5.38878,"is_reserved":false,"is_disabled":false,"rental_uris":{"android":"levelo://app?vid=02548de1-a79f-4bc6-8c03-f2b86f8bd8f9","ios":"levelo://app?vid=02548de1-a79f-4bc6-8c03-f2b86f8bd8f9"},"vehicle_type_id":"4","last_reported":1732180233,"current_range_meters":8800,"station_id":"ce4bhqp2rcd13ifvqhog","pricing_plan_id":"cebpf4jnsgd1na2vs0mg"},{"bike_id":"f308f7e2-1428-4e59-857d-f03b11a90d39","system_id":"levelo_inurba_marseille","lat":43.26935,"lon":5.38909,"is_reserved":false,"is_disabled":false,"rental_uris":{"android":"levelo://app?vid=f308f7e2-1428-4e59-857d-f03b11a90d39","ios":"levelo://app?vid=f308f7e2-1428-4e59-857d-f03b11a90d39"},"vehicle_type_id":"4","last_reported":1732180233,"current_range_meters":39200,"station_id":"ce4bhhh2rcd13ifvqfl0","pricing_plan_id":"cebpf4jnsgd1na2vs0mg"},{"bike_id":"e187c636-9a84-4bd2-849a-f98e98c73911","system_id":"levelo_inurba_marseille","lat":43.23155,"lon":5.43713,"is_reserved":false,"is_disabled":false,"rental_uris":{"android":"levelo://app?vid=e187c636-9a84-4bd2-849a-f98e98c73911","ios":"levelo://app?vid=e187c636-9a84-4bd2-849a-f98e98c73911"},"vehicle_type_id":"4","last_reported":1732180233,"current_range_meters":28000,"station_id":"ce4bhmp2rcd13ifvqgog","pricing_plan_id":"cebpf4jnsgd1na2vs0mg"},{"bike_id":"7ef9a5ef-b3b2-4ff2-82cc-f161ced30464","system_id":"levelo_inurba_marseille","lat":43.29419,"lon":5.38612,"is_reserved":false,"is_disabled":true,"rental_uris":{"android":"levelo://app?vid=7ef9a5ef-b3b2-4ff2-82cc-f161ced30464","ios":"levelo://app?vid=7ef9a5ef-b3b2-4ff2-82cc-f161ced30464"},"vehicle_type_id":"4","last_reported":1732180233,"current_range_meters":36000,"station_id":"ce4bh2h2rcd13ifvqdh0","pricing_plan_id":"cebpf4jnsgd1na2vs0mg"},{"bike_id":"ccd208dd-3d0b-41e2-93a6-fda6e537f6b8","system_id":"levelo_inurba_marseille","lat":43.31348,"lon":5.36693,"is_reserved":false,"is_disabled":false,"rental_uris":{"android":"levelo://app?vid=ccd208dd-3d0b-41e2-93a6-fda6e537f6b8","ios":"levelo://app?vid=ccd208dd-3d0b-41e2-93a6-fda6e537f6b8"},"vehicle_type_id":"4","last_reported":1732180233,"current_range_meters":8800,"station_id":"ce4bgr92rcd13ifvqc6g","pricing_plan_id":"cebpf4jnsgd1na2vs0mg"},{"bike_id":"c2e76d43-4bf0-4af7-b7b8-bf0d742c1928","system_id":"levelo_inurba_marseille","lat":43.304718,"lon":5.367157,"is_reserved":false,"is_disabled":false,"rental_uris":{"android":"levelo://app?vid=c2e76d43-4bf0-4af7-b7b8-bf0d742c1928","ios":"levelo://app?vid=c2e76d43-4bf0-4af7-b7b8-bf0d742c1928"},"vehicle_type_id":"4","last_reported":1732180233,"current_range_meters":24800,"station_id":"ce4bgrp2rcd13ifvqc9g","pricing_plan_id":"cebpf4jnsgd1na2vs0mg"},{"bike_id":"da053476-58a9-45cf-8e51-75a0b1fdc6fa","system_id":"levelo_inurba_marseille","lat":43.31349,"lon":5.36702,"is_reserved":false,"is_disabled":false,"rental_uris":{"android":"levelo://app?vid=da053476-58a9-45cf-8e51-75a0b1fdc6fa","ios":"levelo://app?vid=da053476-58a9-45cf-8e51-75a0b1fdc6fa"},"vehicle_type_id":"4","last_reported":1732180233,"current_range_meters":8000,"station_id":"ce4bgr92rcd13ifvqc6g","pricing_plan_id":"cebpf4jnsgd1na2vs0mg"},{"bike_id":"8d5e8e54-f87c-49b3-8720-7e21078f8fcd","system_id":"levelo_inurba_marseille","lat":43.26488,"lon":5.3955,"is_reserved":false,"is_disabled":false,"rental_uris":{"android":"levelo://app?vid=8d5e8e54-f87c-49b3-8720-7e21078f8fcd","ios":"levelo://app?vid=8d5e8e54-f87c-49b3-8720-7e21078f8fcd"},"vehicle_type_id":"4","last_reported":1732180233,"current_range_meters":37600,"station_id":"ce4bhi12rcd13ifvqfq0","pricing_plan_id":"cebpf4jnsgd1na2vs0mg"},{"bike_id":"844cb461-f780-45f5-88b2-3951b51e6462","system_id":"levelo_inurba_marseille","lat":43.30119,"lon":5.37826,"is_reserved":false,"is_disabled":true,"rental_uris":{"android":"levelo://app?vid=844cb461-f780-45f5-88b2-3951b51e6462","ios":"levelo://app?vid=844cb461-f780-45f5-88b2-3951b51e6462"},"vehicle_type_id":"4","last_reported":1732180233,"current_range_meters":0,"station_id":"","pricing_plan_id":"cebpf4jnsgd1na2vs0mg"},{"bike_id":"996fb4ce-aa12-4592-b2df-cd3716958cb1","system_id":"levelo_inurba_marseille","lat":43.25933,"lon":5.40896,"is_reserved":false,"is_disabled":false,"rental_uris":{"android":"levelo://app?vid=996fb4ce-aa12-4592-b2df-cd3716958cb1","ios":"levelo://app?vid=996fb4ce-aa12-4592-b2df-cd3716958cb1"},"vehicle_type_id":"4","last_reported":1732180233,"current_range_meters":10000,"station_id":"ce4bhm92rcd13ifvqglg","pricing_plan_id":"cebpf4jnsgd1na2vs0mg"},{"bike_id":"484efa0b-84f8-4eb4-8bff-ae1e3e3f9091","system_id":"levelo_inurba_marseille","lat":43.30462,"lon":5.37905,"is_reserved":false,"is_disabled":false,"rental_uris":{"android":"levelo://app?vid=484efa0b-84f8-4eb4-8bff-ae1e3e3f9091","ios":"levelo://app?vid=484efa0b-84f8-4eb4-8bff-ae1e3e3f9091"},"vehicle_type_id":"4","last_reported":1732180233,"current_range_meters":39200,"station_id":"ce4bgup2rcd13ifvqcn0","pricing_plan_id":"cebpf4jnsgd1na2vs0mg"},{"bike_id":"43c3047e-490b-4fd4-8ae0-bb663ebc7f7f","system_id":"levelo_inurba_marseille","lat":43.29371,"lon":5.3782,"is_reserved":false,"is_disabled":false,"rental_uris":{"android":"levelo://app?vid=43c3047e-490b-4fd4-8ae0-bb663ebc7f7f","ios":"levelo://app?vid=43c3047e-490b-4fd4-8ae0-bb663ebc7f7f"},"vehicle_type_id":"4","last_reported":1732180233,"current_range_meters":30000,"station_id":"ce4bgjh2rcd13ifvqbf0","pricing_plan_id":"cebpf4jnsgd1na2vs0mg"},{"bike_id":"d5fad729-dcc6-46f0-b4be-9f69354c8b21","system_id":"levelo_inurba_marseille","lat":43.337444,"lon":5.374475,"is_reserved":false,"is_disabled":false,"rental_uris":{"android":"levelo://app?vid=d5fad729-dcc6-46f0-b4be-9f69354c8b21","ios":"levelo://app?vid=d5fad729-dcc6-46f0-b4be-9f69354c8b21"},"vehicle_type_id":"4","last_reported":1732180233,"current_range_meters":17600,"station_id":"","pricing_plan_id":"cebpf4jnsgd1na2vs0mg"},{"bike_id":"90ba3834-02d2-42a5-92f2-d6d6e5e9a478","system_id":"levelo_inurba_marseille","lat":43.24082,"lon":5.37749,"is_reserved":false,"is_disabled":false,"rental_uris":{"android":"levelo://app?vid=90ba3834-02d2-42a5-92f2-d6d6e5e9a478","ios":"levelo://app?vid=90ba3834-02d2-42a5-92f2-d6d6e5e9a478"},"vehicle_type_id":"4","last_reported":1732180233,"current_range_meters":7200,"station_id":"ce4bhnp2rcd13ifvqgvg","pricing_plan_id":"cebpf4jnsgd1na2vs0mg"},{"bike_id":"bbf93218-68ad-4601-9ca1-23dbf504d3d0","system_id":"levelo_inurba_marseille","lat":43.28726,"lon":5.36084,"is_reserved":false,"is_disabled":true,"rental_uris":{"android":"levelo://app?vid=bbf93218-68ad-4601-9ca1-23dbf504d3d0","ios":"levelo://app?vid=bbf93218-68ad-4601-9ca1-23dbf504d3d0"},"vehicle_type_id":"4","last_reported":1732180233,"current_range_meters":0,"station_id":"cki0cbj6b192h4jlfktg","pricing_plan_id":"cebpf4jnsgd1na2vs0mg"},{"bike_id":"7e647cfe-54cf-490a-bb7e-01f10acdb5a0","system_id":"levelo_inurba_marseille","lat":43.28367,"lon":5.38637,"is_reserved":false,"is_disabled":true,"rental_uris":{"android":"levelo://app?vid=7e647cfe-54cf-490a-bb7e-01f10acdb5a0","ios":"levelo://app?vid=7e647cfe-54cf-490a-bb7e-01f10acdb5a0"},"vehicle_type_id":"4","last_reported":1732180233,"current_range_meters":38800,"station_id":"ce4bh492rcd13ifvqdvg","pricing_plan_id":"cebpf4jnsgd1na2vs0mg"},{"bike_id":"cdaafd2d-0da1-4fac-9881-15c66a7cd7c0","system_id":"levelo_inurba_marseille","lat":43.23151,"lon":5.43707,"is_reserved":false,"is_disabled":false,"rental_uris":{"android":"levelo://app?vid=cdaafd2d-0da1-4fac-9881-15c66a7cd7c0","ios":"levelo://app?vid=cdaafd2d-0da1-4fac-9881-15c66a7cd7c0"},"vehicle_type_id":"4","last_reported":1732180233,"current_range_meters":38800,"station_id":"ce4bhmp2rcd13ifvqgog","pricing_plan_id":"cebpf4jnsgd1na2vs0mg"},{"bike_id":"4614d75e-f019-45c6-ba9e-78d75d402087","system_id":"levelo_inurba_marseille","lat":43.34142,"lon":5.40903,"is_reserved":false,"is_disabled":false,"rental_uris":{"android":"levelo://app?vid=4614d75e-f019-45c6-ba9e-78d75d402087","ios":"levelo://app?vid=4614d75e-f019-45c6-ba9e-78d75d402087"},"vehicle_type_id":"4","last_reported":1732180233,"current_range_meters":38400,"station_id":"ce4bhqh2rcd13ifvqhlg","pricing_plan_id":"cebpf4jnsgd1na2vs0mg"},{"bike_id":"1d606ca2-d831-4cab-8cc3-213a7446614a","system_id":"levelo_inurba_marseille","lat":43.31486,"lon":5.37306,"is_reserved":false,"is_disabled":false,"rental_uris":{"android":"levelo://app?vid=1d606ca2-d831-4cab-8cc3-213a7446614a","ios":"levelo://app?vid=1d606ca2-d831-4cab-8cc3-213a7446614a"},"vehicle_type_id":"4","last_reported":1732180233,"current_range_meters":26800,"station_id":"ce4bgt12rcd13ifvqcd0","pricing_plan_id":"cebpf4jnsgd1na2vs0mg"},{"bike_id":"8d5ad0a8-268e-4afd-be61-7919f93826c7","system_id":"levelo_inurba_marseille","lat":43.29919,"lon":5.37469,"is_reserved":false,"is_disabled":true,"rental_uris":{"android":"levelo://app?vid=8d5ad0a8-268e-4afd-be61-7919f93826c7","ios":"levelo://app?vid=8d5ad0a8-268e-4afd-be61-7919f93826c7"},"vehicle_type_id":"4","last_reported":1732180233,"current_range_meters":34000,"station_id":"ce4bgjh2rcd13ifvqbg0","pricing_plan_id":"cebpf4jnsgd1na2vs0mg"},{"bike_id":"7bc52ef8-b780-4f98-8fa2-b2125397c84e","system_id":"levelo_inurba_marseille","lat":43.32374,"lon":5.38882,"is_reserved":false,"is_disabled":false,"rental_uris":{"android":"levelo://app?vid=7bc52ef8-b780-4f98-8fa2-b2125397c84e","ios":"levelo://app?vid=7bc52ef8-b780-4f98-8fa2-b2125397c84e"},"vehicle_type_id":"4","last_reported":1732180233,"current_range_meters":32400,"station_id":"ce4bhqp2rcd13ifvqhog","pricing_plan_id":"cebpf4jnsgd1na2vs0mg"},{"bike_id":"82411b46-4dc3-49af-9695-4c7f6cfbc607","system_id":"levelo_inurba_marseille","lat":43.2397,"lon":5.36628,"is_reserved":false,"is_disabled":false,"rental_uris":{"android":"levelo://app?vid=82411b46-4dc3-49af-9695-4c7f6cfbc607","ios":"levelo://app?vid=82411b46-4dc3-49af-9695-4c7f6cfbc607"},"vehicle_type_id":"4","last_reported":1732180233,"current_range_meters":38400,"station_id":"ce4bhi12rcd13ifvqfp0","pricing_plan_id":"cebpf4jnsgd1na2vs0mg"},{"bike_id":"21e611ca-1d52-46b2-9962-730ca3426b93","system_id":"levelo_inurba_marseille","lat":43.3149,"lon":5.37305,"is_reserved":false,"is_disabled":false,"rental_uris":{"android":"levelo://app?vid=21e611ca-1d52-46b2-9962-730ca3426b93","ios":"levelo://app?vid=21e611ca-1d52-46b2-9962-730ca3426b93"},"vehicle_type_id":"4","last_reported":1732180233,"current_range_meters":17600,"station_id":"ce4bgt12rcd13ifvqcd0","pricing_plan_id":"cebpf4jnsgd1na2vs0mg"},{"bike_id":"62e4a358-c2a0-48ac-be94-b0cfc53ce058","system_id":"levelo_inurba_marseille","lat":43.30296,"lon":5.37701,"is_reserved":false,"is_disabled":false,"rental_uris":{"android":"levelo://app?vid=62e4a358-c2a0-48ac-be94-b0cfc53ce058","ios":"levelo://app?vid=62e4a358-c2a0-48ac-be94-b0cfc53ce058"},"vehicle_type_id":"4","last_reported":1732180233,"current_range_meters":24800,"station_id":"ce4bguh2rcd13ifvqcj0","pricing_plan_id":"cebpf4jnsgd1na2vs0mg"},{"bike_id":"8b09ebd1-a82c-4c50-a6f1-82290ab766c7","system_id":"levelo_inurba_marseille","lat":43.27065,"lon":5.42277,"is_reserved":false,"is_disabled":false,"rental_uris":{"android":"levelo://app?vid=8b09ebd1-a82c-4c50-a6f1-82290ab766c7","ios":"levelo://app?vid=8b09ebd1-a82c-4c50-a6f1-82290ab766c7"},"vehicle_type_id":"4","last_reported":1732180233,"current_range_meters":39200,"station_id":"ce4bhk92rcd13ifvqgb0","pricing_plan_id":"cebpf4jnsgd1na2vs0mg"},{"bike_id":"e41e2b51-c116-404e-9858-995a8625acfc","system_id":"levelo_inurba_marseille","lat":43.30536,"lon":5.36703,"is_reserved":false,"is_disabled":false,"rental_uris":{"android":"levelo://app?vid=e41e2b51-c116-404e-9858-995a8625acfc","ios":"levelo://app?vid=e41e2b51-c116-404e-9858-995a8625acfc"},"vehicle_type_id":"4","last_reported":1732180233,"current_range_meters":39200,"station_id":"ce4bgrp2rcd13ifvqc9g","pricing_plan_id":"cebpf4jnsgd1na2vs0mg"},{"bike_id":"79062315-c396-425e-b0f2-e3729387cfe9","system_id":"levelo_inurba_marseille","lat":43.30533,"lon":5.38434,"is_reserved":false,"is_disabled":false,"rental_uris":{"android":"levelo://app?vid=79062315-c396-425e-b0f2-e3729387cfe9","ios":"levelo://app?vid=79062315-c396-425e-b0f2-e3729387cfe9"},"vehicle_type_id":"4","last_reported":1732180233,"current_range_meters":38800,"station_id":"ce4bgg92rcd13ifvqb30","pricing_plan_id":"cebpf4jnsgd1na2vs0mg"},{"bike_id":"f3d1de11-ea0c-4809-8e9c-3957146035eb","system_id":"levelo_inurba_marseille","lat":43.26025,"lon":5.37553,"is_reserved":false,"is_disabled":false,"rental_uris":{"android":"levelo://app?vid=f3d1de11-ea0c-4809-8e9c-3957146035eb","ios":"levelo://app?vid=f3d1de11-ea0c-4809-8e9c-3957146035eb"},"vehicle_type_id":"4","last_reported":1732180233,"current_range_meters":33200,"station_id":"ce4bhgh2rcd13ifvqfa0","pricing_plan_id":"cebpf4jnsgd1na2vs0mg"},{"bike_id":"319639f6-c364-407e-9612-56f449d4d076","system_id":"levelo_inurba_marseille","lat":43.28079,"lon":5.39649,"is_reserved":false,"is_disabled":true,"rental_uris":{"android":"levelo://app?vid=319639f6-c364-407e-9612-56f449d4d076","ios":"levelo://app?vid=319639f6-c364-407e-9612-56f449d4d076"},"vehicle_type_id":"4","last_reported":1732180233,"current_range_meters":0,"station_id":"ce4bho12rcd13ifvqh2g","pricing_plan_id":"cebpf4jnsgd1na2vs0mg"},{"bike_id":"880a77f6-57c5-46b9-84bd-a094e82691de","system_id":"levelo_inurba_marseille","lat":43.29025,"lon":5.3814,"is_reserved":false,"is_disabled":false,"rental_uris":{"android":"levelo://app?vid=880a77f6-57c5-46b9-84bd-a094e82691de","ios":"levelo://app?vid=880a77f6-57c5-46b9-84bd-a094e82691de"},"vehicle_type_id":"4","last_reported":1732180233,"current_range_meters":38400,"station_id":"ce4bh4p2rcd13ifvqe1g","pricing_plan_id":"cebpf4jnsgd1na2vs0mg"},{"bike_id":"fa963a95-0632-4f91-b467-0be52096212d","system_id":"levelo_inurba_marseille","lat":43.2979,"lon":5.3811,"is_reserved":false,"is_disabled":false,"rental_uris":{"android":"levelo://app?vid=fa963a95-0632-4f91-b467-0be52096212d","ios":"levelo://app?vid=fa963a95-0632-4f91-b467-0be52096212d"},"vehicle_type_id":"4","last_reported":1732180233,"current_range_meters":27200,"station_id":"ce4bgip2rcd13ifvqbb0","pricing_plan_id":"cebpf4jnsgd1na2vs0mg"},{"bike_id":"eee4f3c1-8991-48be-8118-58219d02235f","system_id":"levelo_inurba_marseille","lat":43.30537,"lon":5.36534,"is_reserved":false,"is_disabled":false,"rental_uris":{"android":"levelo://app?vid=eee4f3c1-8991-48be-8118-58219d02235f","ios":"levelo://app?vid=eee4f3c1-8991-48be-8118-58219d02235f"},"vehicle_type_id":"4","last_reported":1732180233,"current_range_meters":38800,"station_id":"ce4bgs12rcd13ifvqcag","pricing_plan_id":"cebpf4jnsgd1na2vs0mg"},{"bike_id":"401ba890-da26-4a3a-814c-dae1af1c581b","system_id":"levelo_inurba_marseille","lat":43.26959,"lon":5.38623,"is_reserved":false,"is_disabled":false,"rental_uris":{"android":"levelo://app?vid=401ba890-da26-4a3a-814c-dae1af1c581b","ios":"levelo://app?vid=401ba890-da26-4a3a-814c-dae1af1c581b"},"vehicle_type_id":"4","last_reported":1732180233,"current_range_meters":8400,"station_id":"ce4bhh92rcd13ifvqfh0","pricing_plan_id":"cebpf4jnsgd1na2vs0mg"},{"bike_id":"1951da77-c259-424b-b12e-3b8bb4eeaeca","system_id":"levelo_inurba_marseille","lat":43.29065,"lon":5.3716,"is_reserved":false,"is_disabled":false,"rental_uris":{"android":"levelo://app?vid=1951da77-c259-424b-b12e-3b8bb4eeaeca","ios":"levelo://app?vid=1951da77-c259-424b-b12e-3b8bb4eeaeca"},"vehicle_type_id":"4","last_reported":1732180233,"current_range_meters":38800,"station_id":"ce4bh5p2rcd13ifvqe4g","pricing_plan_id":"cebpf4jnsgd1na2vs0mg"},{"bike_id":"403d1fe9-5696-465c-8a76-0fc328542722","system_id":"levelo_inurba_marseille","lat":43.29784,"lon":5.40411,"is_reserved":false,"is_disabled":false,"rental_uris":{"android":"levelo://app?vid=403d1fe9-5696-465c-8a76-0fc328542722","ios":"levelo://app?vid=403d1fe9-5696-465c-8a76-0fc328542722"},"vehicle_type_id":"4","last_reported":1732180233,"current_range_meters":8400,"station_id":"ce4bh112rcd13ifvqd90","pricing_plan_id":"cebpf4jnsgd1na2vs0mg"},{"bike_id":"53bbdfc0-4d63-4cc4-86e6-4ec910061123","system_id":"levelo_inurba_marseille","lat":43.30917,"lon":5.36709,"is_reserved":false,"is_disabled":true,"rental_uris":{"android":"levelo://app?vid=53bbdfc0-4d63-4cc4-86e6-4ec910061123","ios":"levelo://app?vid=53bbdfc0-4d63-4cc4-86e6-4ec910061123"},"vehicle_type_id":"4","last_reported":1732180233,"current_range_meters":0,"station_id":"","pricing_plan_id":"cebpf4jnsgd1na2vs0mg"},{"bike_id":"6aca163b-448e-41c3-ae15-0a38c50ec209","system_id":"levelo_inurba_marseille","lat":43.25936,"lon":5.40907,"is_reserved":false,"is_disabled":false,"rental_uris":{"android":"levelo://app?vid=6aca163b-448e-41c3-ae15-0a38c50ec209","ios":"levelo://app?vid=6aca163b-448e-41c3-ae15-0a38c50ec209"},"vehicle_type_id":"4","last_reported":1732180233,"current_range_meters":7200,"station_id":"ce4bhm92rcd13ifvqglg","pricing_plan_id":"cebpf4jnsgd1na2vs0mg"},{"bike_id":"36f35e04-537f-4b65-bfc8-cddde59926f9","system_id":"levelo_inurba_marseille","lat":43.27491,"lon":5.42455,"is_reserved":false,"is_disabled":false,"rental_uris":{"android":"levelo://app?vid=36f35e04-537f-4b65-bfc8-cddde59926f9","ios":"levelo://app?vid=36f35e04-537f-4b65-bfc8-cddde59926f9"},"vehicle_type_id":"4","last_reported":1732180233,"current_range_meters":32800,"station_id":"ce4bhn92rcd13ifvqgrg","pricing_plan_id":"cebpf4jnsgd1na2vs0mg"},{"bike_id":"92635961-47c9-45e3-af36-01fb09162d27","system_id":"levelo_inurba_marseille","lat":43.27947,"lon":5.4104,"is_reserved":false,"is_disabled":false,"rental_uris":{"android":"levelo://app?vid=92635961-47c9-45e3-af36-01fb09162d27","ios":"levelo://app?vid=92635961-47c9-45e3-af36-01fb09162d27"},"vehicle_type_id":"4","last_reported":1732180233,"current_range_meters":36400,"station_id":"ce4bhnp2rcd13ifvqh0g","pricing_plan_id":"cebpf4jnsgd1na2vs0mg"},{"bike_id":"3193222d-584b-4642-a1d8-0c04b2309736","system_id":"levelo_inurba_marseille","lat":43.33726,"lon":5.39182,"is_reserved":false,"is_disabled":false,"rental_uris":{"android":"levelo://app?vid=3193222d-584b-4642-a1d8-0c04b2309736","ios":"levelo://app?vid=3193222d-584b-4642-a1d8-0c04b2309736"},"vehicle_type_id":"4","last_reported":1732180233,"current_range_meters":8400,"station_id":"ce4bhr92rcd13ifvqhsg","pricing_plan_id":"cebpf4jnsgd1na2vs0mg"},{"bike_id":"c9143af8-404c-4441-9318-1c81b7692244","system_id":"levelo_inurba_marseille","lat":43.28422,"lon":5.34982,"is_reserved":false,"is_disabled":false,"rental_uris":{"android":"levelo://app?vid=c9143af8-404c-4441-9318-1c81b7692244","ios":"levelo://app?vid=c9143af8-404c-4441-9318-1c81b7692244"},"vehicle_type_id":"4","last_reported":1732180233,"current_range_meters":28000,"station_id":"ce4bhbh2rcd13ifvqepg","pricing_plan_id":"cebpf4jnsgd1na2vs0mg"},{"bike_id":"4271307a-1e8f-4ec3-92c3-b1cc077db63a","system_id":"levelo_inurba_marseille","lat":43.28416,"lon":5.3752,"is_reserved":false,"is_disabled":true,"rental_uris":{"android":"levelo://app?vid=4271307a-1e8f-4ec3-92c3-b1cc077db63a","ios":"levelo://app?vid=4271307a-1e8f-4ec3-92c3-b1cc077db63a"},"vehicle_type_id":"4","last_reported":1732180233,"current_range_meters":36800,"station_id":"ce4bh412rcd13ifvqds0","pricing_plan_id":"cebpf4jnsgd1na2vs0mg"},{"bike_id":"13b56afa-018b-4abe-9633-b9cde5e2bde9","system_id":"levelo_inurba_marseille","lat":43.33724,"lon":5.39176,"is_reserved":false,"is_disabled":false,"rental_uris":{"android":"levelo://app?vid=13b56afa-018b-4abe-9633-b9cde5e2bde9","ios":"levelo://app?vid=13b56afa-018b-4abe-9633-b9cde5e2bde9"},"vehicle_type_id":"4","last_reported":1732180233,"current_range_meters":8000,"station_id":"ce4bhr92rcd13ifvqhsg","pricing_plan_id":"cebpf4jnsgd1na2vs0mg"},{"bike_id":"fae4826f-7cb0-49ab-84f6-0e67dea50443","system_id":"levelo_inurba_marseille","lat":43.27213,"lon":5.39175,"is_reserved":false,"is_disabled":true,"rental_uris":{"android":"levelo://app?vid=fae4826f-7cb0-49ab-84f6-0e67dea50443","ios":"levelo://app?vid=fae4826f-7cb0-49ab-84f6-0e67dea50443"},"vehicle_type_id":"4","last_reported":1732180233,"current_range_meters":0,"station_id":"ce4bhhp2rcd13ifvqfm0","pricing_plan_id":"cebpf4jnsgd1na2vs0mg"},{"bike_id":"dede266b-cc8b-4066-97a8-cfb678c49e44","system_id":"levelo_inurba_marseille","lat":43.29683,"lon":5.37288,"is_reserved":false,"is_disabled":false,"rental_uris":{"android":"levelo://app?vid=dede266b-cc8b-4066-97a8-cfb678c49e44","ios":"levelo://app?vid=dede266b-cc8b-4066-97a8-cfb678c49e44"},"vehicle_type_id":"4","last_reported":1732180233,"current_range_meters":22400,"station_id":"ce4bgk12rcd13ifvqbj0","pricing_plan_id":"cebpf4jnsgd1na2vs0mg"},{"bike_id":"8ae288fe-7f9e-4636-bc68-3daa0c790f34","system_id":"levelo_inurba_marseille","lat":43.2467,"lon":5.38162,"is_reserved":false,"is_disabled":false,"rental_uris":{"android":"levelo://app?vid=8ae288fe-7f9e-4636-bc68-3daa0c790f34","ios":"levelo://app?vid=8ae288fe-7f9e-4636-bc68-3daa0c790f34"},"vehicle_type_id":"4","last_reported":1732180233,"current_range_meters":37600,"station_id":"ce4bhih2rcd13ifvqfr0","pricing_plan_id":"cebpf4jnsgd1na2vs0mg"},{"bike_id":"33c6c1e9-c251-413c-949a-58121aa5483c","system_id":"levelo_inurba_marseille","lat":43.29256,"lon":5.40909,"is_reserved":false,"is_disabled":true,"rental_uris":{"android":"levelo://app?vid=33c6c1e9-c251-413c-949a-58121aa5483c","ios":"levelo://app?vid=33c6c1e9-c251-413c-949a-58121aa5483c"},"vehicle_type_id":"4","last_reported":1732180233,"current_range_meters":0,"station_id":"ce4bh192rcd13ifvqdc0","pricing_plan_id":"cebpf4jnsgd1na2vs0mg"},{"bike_id":"f8d773ad-6117-441c-8a1f-2ad7889ac928","system_id":"levelo_inurba_marseille","lat":43.33749,"lon":5.37423,"is_reserved":false,"is_disabled":false,"rental_uris":{"android":"levelo://app?vid=f8d773ad-6117-441c-8a1f-2ad7889ac928","ios":"levelo://app?vid=f8d773ad-6117-441c-8a1f-2ad7889ac928"},"vehicle_type_id":"4","last_reported":1732180233,"current_range_meters":30000,"station_id":"","pricing_plan_id":"cebpf4jnsgd1na2vs0mg"},{"bike_id":"77e4337a-7cb9-48fa-9908-5a1da85b67cf","system_id":"levelo_inurba_marseille","lat":43.31113,"lon":5.37759,"is_reserved":false,"is_disabled":false,"rental_uris":{"android":"levelo://app?vid=77e4337a-7cb9-48fa-9908-5a1da85b67cf","ios":"levelo://app?vid=77e4337a-7cb9-48fa-9908-5a1da85b67cf"},"vehicle_type_id":"4","last_reported":1732180233,"current_range_meters":32800,"station_id":"ce4bgt92rcd13ifvqcg0","pricing_plan_id":"cebpf4jnsgd1na2vs0mg"},{"bike_id":"8add313f-a9f0-4f8f-914d-1103a7dcb979","system_id":"levelo_inurba_marseille","lat":43.2657,"lon":5.39015,"is_reserved":false,"is_disabled":true,"rental_uris":{"android":"levelo://app?vid=8add313f-a9f0-4f8f-914d-1103a7dcb979","ios":"levelo://app?vid=8add313f-a9f0-4f8f-914d-1103a7dcb979"},"vehicle_type_id":"4","last_reported":1732180233,"current_range_meters":1600,"station_id":"ce4bhe12rcd13ifvqf30","pricing_plan_id":"cebpf4jnsgd1na2vs0mg"},{"bike_id":"612e2fb5-5bdd-4493-9d90-eaa49396d072","system_id":"levelo_inurba_marseille","lat":43.30532,"lon":5.36542,"is_reserved":false,"is_disabled":false,"rental_uris":{"android":"levelo://app?vid=612e2fb5-5bdd-4493-9d90-eaa49396d072","ios":"levelo://app?vid=612e2fb5-5bdd-4493-9d90-eaa49396d072"},"vehicle_type_id":"4","last_reported":1732180233,"current_range_meters":38400,"station_id":"ce4bgs12rcd13ifvqcag","pricing_plan_id":"cebpf4jnsgd1na2vs0mg"},{"bike_id":"24618c6c-9f3e-4480-ac3f-3dfa9b93dc99","system_id":"levelo_inurba_marseille","lat":43.27949,"lon":5.41043,"is_reserved":false,"is_disabled":true,"rental_uris":{"android":"levelo://app?vid=24618c6c-9f3e-4480-ac3f-3dfa9b93dc99","ios":"levelo://app?vid=24618c6c-9f3e-4480-ac3f-3dfa9b93dc99"},"vehicle_type_id":"4","last_reported":1732180233,"current_range_meters":0,"station_id":"ce4bhnp2rcd13ifvqh0g","pricing_plan_id":"cebpf4jnsgd1na2vs0mg"},{"bike_id":"d67adecc-f4bc-486c-995c-7f6c894d54fe","system_id":"levelo_inurba_marseille","lat":43.29917,"lon":5.37458,"is_reserved":false,"is_disabled":false,"rental_uris":{"android":"levelo://app?vid=d67adecc-f4bc-486c-995c-7f6c894d54fe","ios":"levelo://app?vid=d67adecc-f4bc-486c-995c-7f6c894d54fe"},"vehicle_type_id":"4","last_reported":1732180233,"current_range_meters":27200,"station_id":"ce4bgjh2rcd13ifvqbg0","pricing_plan_id":"cebpf4jnsgd1na2vs0mg"},{"bike_id":"a72de0fb-a9f5-4a11-a126-f1a4a586a23a","system_id":"levelo_inurba_marseille","lat":43.30285,"lon":5.37697,"is_reserved":false,"is_disabled":false,"rental_uris":{"android":"levelo://app?vid=a72de0fb-a9f5-4a11-a126-f1a4a586a23a","ios":"levelo://app?vid=a72de0fb-a9f5-4a11-a126-f1a4a586a23a"},"vehicle_type_id":"4","last_reported":1732180233,"current_range_meters":17600,"station_id":"ce4bguh2rcd13ifvqcj0","pricing_plan_id":"cebpf4jnsgd1na2vs0mg"},{"bike_id":"bfca3d83-bb54-45ff-9972-9d74a3189410","system_id":"levelo_inurba_marseille","lat":43.28732,"lon":5.37942,"is_reserved":false,"is_disabled":false,"rental_uris":{"android":"levelo://app?vid=bfca3d83-bb54-45ff-9972-9d74a3189410","ios":"levelo://app?vid=bfca3d83-bb54-45ff-9972-9d74a3189410"},"vehicle_type_id":"4","last_reported":1732180233,"current_range_meters":33200,"station_id":"ce4bh9p2rcd13ifvqec0","pricing_plan_id":"cebpf4jnsgd1na2vs0mg"},{"bike_id":"889549f4-52db-4c10-8952-2d713c9cb7e7","system_id":"levelo_inurba_marseille","lat":43.24081,"lon":5.37744,"is_reserved":false,"is_disabled":false,"rental_uris":{"android":"levelo://app?vid=889549f4-52db-4c10-8952-2d713c9cb7e7","ios":"levelo://app?vid=889549f4-52db-4c10-8952-2d713c9cb7e7"},"vehicle_type_id":"4","last_reported":1732180233,"current_range_meters":39200,"station_id":"ce4bhnp2rcd13ifvqgvg","pricing_plan_id":"cebpf4jnsgd1na2vs0mg"},{"bike_id":"2bb310e5-e4d7-4417-9b1b-3190420a02b9","system_id":"levelo_inurba_marseille","lat":43.27484,"lon":5.42456,"is_reserved":false,"is_disabled":false,"rental_uris":{"android":"levelo://app?vid=2bb310e5-e4d7-4417-9b1b-3190420a02b9","ios":"levelo://app?vid=2bb310e5-e4d7-4417-9b1b-3190420a02b9"},"vehicle_type_id":"4","last_reported":1732180233,"current_range_meters":10800,"station_id":"ce4bhn92rcd13ifvqgrg","pricing_plan_id":"cebpf4jnsgd1na2vs0mg"},{"bike_id":"089fadd4-bd3e-433a-b4d1-be4d9cb61c9f","system_id":"levelo_inurba_marseille","lat":43.30139,"lon":5.37411,"is_reserved":false,"is_disabled":false,"rental_uris":{"android":"levelo://app?vid=089fadd4-bd3e-433a-b4d1-be4d9cb61c9f","ios":"levelo://app?vid=089fadd4-bd3e-433a-b4d1-be4d9cb61c9f"},"vehicle_type_id":"4","last_reported":1732180233,"current_range_meters":26000,"station_id":"ce4bgs92rcd13ifvqcc0","pricing_plan_id":"cebpf4jnsgd1na2vs0mg"},{"bike_id":"dd4bd0e9-f188-48e7-9631-174c33613f3e","system_id":"levelo_inurba_marseille","lat":43.24088,"lon":5.37745,"is_reserved":false,"is_disabled":false,"rental_uris":{"android":"levelo://app?vid=dd4bd0e9-f188-48e7-9631-174c33613f3e","ios":"levelo://app?vid=dd4bd0e9-f188-48e7-9631-174c33613f3e"},"vehicle_type_id":"4","last_reported":1732180233,"current_range_meters":16400,"station_id":"ce4bhnp2rcd13ifvqgvg","pricing_plan_id":"cebpf4jnsgd1na2vs0mg"},{"bike_id":"9cc84d39-9245-4e32-a337-5c44989eee5a","system_id":"levelo_inurba_marseille","lat":43.30956,"lon":5.39028,"is_reserved":false,"is_disabled":false,"rental_uris":{"android":"levelo://app?vid=9cc84d39-9245-4e32-a337-5c44989eee5a","ios":"levelo://app?vid=9cc84d39-9245-4e32-a337-5c44989eee5a"},"vehicle_type_id":"4","last_reported":1732180233,"current_range_meters":38000,"station_id":"ce4bgup2rcd13ifvqco0","pricing_plan_id":"cebpf4jnsgd1na2vs0mg"},{"bike_id":"519aef3f-1ad2-4edb-bb0d-161b0166ade4","system_id":"levelo_inurba_marseille","lat":43.28939,"lon":5.39628,"is_reserved":false,"is_disabled":true,"rental_uris":{"android":"levelo://app?vid=519aef3f-1ad2-4edb-bb0d-161b0166ade4","ios":"levelo://app?vid=519aef3f-1ad2-4edb-bb0d-161b0166ade4"},"vehicle_type_id":"4","last_reported":1732180233,"current_range_meters":12400,"station_id":"ce4bh3h2rcd13ifvqdn0","pricing_plan_id":"cebpf4jnsgd1na2vs0mg"},{"bike_id":"1a51f640-6b48-41c3-8e7d-c6952041deac","system_id":"levelo_inurba_marseille","lat":43.29802,"lon":5.40408,"is_reserved":false,"is_disabled":true,"rental_uris":{"android":"levelo://app?vid=1a51f640-6b48-41c3-8e7d-c6952041deac","ios":"levelo://app?vid=1a51f640-6b48-41c3-8e7d-c6952041deac"},"vehicle_type_id":"4","last_reported":1732180233,"current_range_meters":16800,"station_id":"ce4bh112rcd13ifvqd90","pricing_plan_id":"cebpf4jnsgd1na2vs0mg"},{"bike_id":"b56ed195-7dba-449c-a550-4356820895ad","system_id":"levelo_inurba_marseille","lat":43.25117,"lon":5.40318,"is_reserved":false,"is_disabled":false,"rental_uris":{"android":"levelo://app?vid=b56ed195-7dba-449c-a550-4356820895ad","ios":"levelo://app?vid=b56ed195-7dba-449c-a550-4356820895ad"},"vehicle_type_id":"4","last_reported":1732180233,"current_range_meters":38800,"station_id":"ce4bhlh2rcd13ifvqgig","pricing_plan_id":"cebpf4jnsgd1na2vs0mg"},{"bike_id":"5d65b627-3435-4723-9775-b5218e9b2a7a","system_id":"levelo_inurba_marseille","lat":43.27207,"lon":5.39188,"is_reserved":false,"is_disabled":true,"rental_uris":{"android":"levelo://app?vid=5d65b627-3435-4723-9775-b5218e9b2a7a","ios":"levelo://app?vid=5d65b627-3435-4723-9775-b5218e9b2a7a"},"vehicle_type_id":"4","last_reported":1732180233,"current_range_meters":4800,"station_id":"ce4bhhp2rcd13ifvqfm0","pricing_plan_id":"cebpf4jnsgd1na2vs0mg"},{"bike_id":"9c2f56c3-b6c0-4a04-ad1c-456b29248b9e","system_id":"levelo_inurba_marseille","lat":43.30547,"lon":5.36766,"is_reserved":false,"is_disabled":false,"rental_uris":{"android":"levelo://app?vid=9c2f56c3-b6c0-4a04-ad1c-456b29248b9e","ios":"levelo://app?vid=9c2f56c3-b6c0-4a04-ad1c-456b29248b9e"},"vehicle_type_id":"4","last_reported":1732180233,"current_range_meters":27600,"station_id":"ce4bgrp2rcd13ifvqc9g","pricing_plan_id":"cebpf4jnsgd1na2vs0mg"},{"bike_id":"32c2fe9f-a607-4c07-a100-4beef28636ed","system_id":"levelo_inurba_marseille","lat":43.32479,"lon":5.36568,"is_reserved":false,"is_disabled":false,"rental_uris":{"android":"levelo://app?vid=32c2fe9f-a607-4c07-a100-4beef28636ed","ios":"levelo://app?vid=32c2fe9f-a607-4c07-a100-4beef28636ed"},"vehicle_type_id":"4","last_reported":1732180233,"current_range_meters":26000,"station_id":"ce4bhs12rcd13ifvqhvg","pricing_plan_id":"cebpf4jnsgd1na2vs0mg"},{"bike_id":"d35c7061-784d-4a23-8031-6bec93042a83","system_id":"levelo_inurba_marseille","lat":43.29973,"lon":5.37178,"is_reserved":false,"is_disabled":false,"rental_uris":{"android":"levelo://app?vid=d35c7061-784d-4a23-8031-6bec93042a83","ios":"levelo://app?vid=d35c7061-784d-4a23-8031-6bec93042a83"},"vehicle_type_id":"4","last_reported":1732180233,"current_range_meters":4400,"station_id":"ce4bgr92rcd13ifvqc7g","pricing_plan_id":"cebpf4jnsgd1na2vs0mg"},{"bike_id":"1904e4d6-e1e0-456f-9800-8b0e0e7107b4","system_id":"levelo_inurba_marseille","lat":43.23152,"lon":5.43708,"is_reserved":false,"is_disabled":false,"rental_uris":{"android":"levelo://app?vid=1904e4d6-e1e0-456f-9800-8b0e0e7107b4","ios":"levelo://app?vid=1904e4d6-e1e0-456f-9800-8b0e0e7107b4"},"vehicle_type_id":"4","last_reported":1732180233,"current_range_meters":38800,"station_id":"ce4bhmp2rcd13ifvqgog","pricing_plan_id":"cebpf4jnsgd1na2vs0mg"},{"bike_id":"7c0d48aa-5a52-4141-a0a0-780cbc3ce1b1","system_id":"levelo_inurba_marseille","lat":43.29308,"lon":5.37171,"is_reserved":false,"is_disabled":false,"rental_uris":{"android":"levelo://app?vid=7c0d48aa-5a52-4141-a0a0-780cbc3ce1b1","ios":"levelo://app?vid=7c0d48aa-5a52-4141-a0a0-780cbc3ce1b1"},"vehicle_type_id":"4","last_reported":1732180233,"current_range_meters":6000,"station_id":"ce4bgh92rcd13ifvqb40","pricing_plan_id":"cebpf4jnsgd1na2vs0mg"},{"bike_id":"587cd236-3232-4fda-a42b-55709a41c487","system_id":"levelo_inurba_marseille","lat":43.31349,"lon":5.36714,"is_reserved":false,"is_disabled":false,"rental_uris":{"android":"levelo://app?vid=587cd236-3232-4fda-a42b-55709a41c487","ios":"levelo://app?vid=587cd236-3232-4fda-a42b-55709a41c487"},"vehicle_type_id":"4","last_reported":1732180233,"current_range_meters":27600,"station_id":"ce4bgr92rcd13ifvqc6g","pricing_plan_id":"cebpf4jnsgd1na2vs0mg"},{"bike_id":"8a3c98a5-40a4-477c-bac4-fe951a1c5169","system_id":"levelo_inurba_marseille","lat":43.26687,"lon":5.38271,"is_reserved":false,"is_disabled":true,"rental_uris":{"android":"levelo://app?vid=8a3c98a5-40a4-477c-bac4-fe951a1c5169","ios":"levelo://app?vid=8a3c98a5-40a4-477c-bac4-fe951a1c5169"},"vehicle_type_id":"4","last_reported":1732180233,"current_range_meters":24000,"station_id":"ce4bhg92rcd13ifvqf90","pricing_plan_id":"cebpf4jnsgd1na2vs0mg"},{"bike_id":"1eff5ce5-2d56-4465-a12c-60db9ec2175a","system_id":"levelo_inurba_marseille","lat":43.22931,"lon":5.35371,"is_reserved":false,"is_disabled":false,"rental_uris":{"android":"levelo://app?vid=1eff5ce5-2d56-4465-a12c-60db9ec2175a","ios":"levelo://app?vid=1eff5ce5-2d56-4465-a12c-60db9ec2175a"},"vehicle_type_id":"4","last_reported":1732180233,"current_range_meters":10000,"station_id":"cpo3532slgdg3j2ikp40","pricing_plan_id":"cebpf4jnsgd1na2vs0mg"},{"bike_id":"1c707ac1-8613-4b1f-8959-c220a65f6286","system_id":"levelo_inurba_marseille","lat":43.29171,"lon":5.37149,"is_reserved":false,"is_disabled":true,"rental_uris":{"android":"levelo://app?vid=1c707ac1-8613-4b1f-8959-c220a65f6286","ios":"levelo://app?vid=1c707ac1-8613-4b1f-8959-c220a65f6286"},"vehicle_type_id":"4","last_reported":1732180233,"current_range_meters":24800,"station_id":"ce4bha92rcd13ifvqeh0","pricing_plan_id":"cebpf4jnsgd1na2vs0mg"},{"bike_id":"ce6d46e5-4223-4bce-a0db-85f63ca84039","system_id":"levelo_inurba_marseille","lat":43.3015,"lon":5.4005,"is_reserved":false,"is_disabled":true,"rental_uris":{"android":"levelo://app?vid=ce6d46e5-4223-4bce-a0db-85f63ca84039","ios":"levelo://app?vid=ce6d46e5-4223-4bce-a0db-85f63ca84039"},"vehicle_type_id":"4","last_reported":1732180233,"current_range_meters":2800,"station_id":"","pricing_plan_id":"cebpf4jnsgd1na2vs0mg"},{"bike_id":"dc815649-e3e3-48aa-b0fd-022cdb8ac58a","system_id":"levelo_inurba_marseille","lat":43.32368,"lon":5.38889,"is_reserved":false,"is_disabled":false,"rental_uris":{"android":"levelo://app?vid=dc815649-e3e3-48aa-b0fd-022cdb8ac58a","ios":"levelo://app?vid=dc815649-e3e3-48aa-b0fd-022cdb8ac58a"},"vehicle_type_id":"4","last_reported":1732180233,"current_range_meters":8800,"station_id":"ce4bhqp2rcd13ifvqhog","pricing_plan_id":"cebpf4jnsgd1na2vs0mg"},{"bike_id":"c5384ac5-1560-433b-b7b0-0bcd85cd5198","system_id":"levelo_inurba_marseille","lat":43.29965,"lon":5.37171,"is_reserved":false,"is_disabled":false,"rental_uris":{"android":"levelo://app?vid=c5384ac5-1560-433b-b7b0-0bcd85cd5198","ios":"levelo://app?vid=c5384ac5-1560-433b-b7b0-0bcd85cd5198"},"vehicle_type_id":"4","last_reported":1732180233,"current_range_meters":18000,"station_id":"ce4bgr92rcd13ifvqc7g","pricing_plan_id":"cebpf4jnsgd1na2vs0mg"},{"bike_id":"f7e3de0b-6b59-4e81-b07f-3b75a4d20ad1","system_id":"levelo_inurba_marseille","lat":43.30952,"lon":5.3905,"is_reserved":false,"is_disabled":false,"rental_uris":{"android":"levelo://app?vid=f7e3de0b-6b59-4e81-b07f-3b75a4d20ad1","ios":"levelo://app?vid=f7e3de0b-6b59-4e81-b07f-3b75a4d20ad1"},"vehicle_type_id":"4","last_reported":1732180233,"current_range_meters":38800,"station_id":"ce4bgup2rcd13ifvqco0","pricing_plan_id":"cebpf4jnsgd1na2vs0mg"},{"bike_id":"a75819ec-e034-4b63-80b3-7a6e65ba24bc","system_id":"levelo_inurba_marseille","lat":43.30941,"lon":5.39044,"is_reserved":false,"is_disabled":false,"rental_uris":{"android":"levelo://app?vid=a75819ec-e034-4b63-80b3-7a6e65ba24bc","ios":"levelo://app?vid=a75819ec-e034-4b63-80b3-7a6e65ba24bc"},"vehicle_type_id":"4","last_reported":1732180233,"current_range_meters":32400,"station_id":"ce4bgup2rcd13ifvqco0","pricing_plan_id":"cebpf4jnsgd1na2vs0mg"},{"bike_id":"77f33faa-058c-4caf-a980-cba04db4b198","system_id":"levelo_inurba_marseille","lat":43.28613,"lon":5.35106,"is_reserved":false,"is_disabled":false,"rental_uris":{"android":"levelo://app?vid=77f33faa-058c-4caf-a980-cba04db4b198","ios":"levelo://app?vid=77f33faa-058c-4caf-a980-cba04db4b198"},"vehicle_type_id":"4","last_reported":1732180233,"current_range_meters":29600,"station_id":"ce4bhch2rcd13ifvqeug","pricing_plan_id":"cebpf4jnsgd1na2vs0mg"},{"bike_id":"7ec34146-21cc-45f2-97f0-73eca315446c","system_id":"levelo_inurba_marseille","lat":43.2679,"lon":5.39409,"is_reserved":false,"is_disabled":false,"rental_uris":{"android":"levelo://app?vid=7ec34146-21cc-45f2-97f0-73eca315446c","ios":"levelo://app?vid=7ec34146-21cc-45f2-97f0-73eca315446c"},"vehicle_type_id":"4","last_reported":1732180233,"current_range_meters":28800,"station_id":"ce4bhh12rcd13ifvqfg0","pricing_plan_id":"cebpf4jnsgd1na2vs0mg"},{"bike_id":"995530e1-b419-4e95-b02a-89f607b334d6","system_id":"levelo_inurba_marseille","lat":43.27999,"lon":5.40012,"is_reserved":false,"is_disabled":false,"rental_uris":{"android":"levelo://app?vid=995530e1-b419-4e95-b02a-89f607b334d6","ios":"levelo://app?vid=995530e1-b419-4e95-b02a-89f607b334d6"},"vehicle_type_id":"4","last_reported":1732180233,"current_range_meters":22400,"station_id":"ce4bho92rcd13ifvqh4g","pricing_plan_id":"cebpf4jnsgd1na2vs0mg"},{"bike_id":"6e1202d7-79a0-4929-9ed3-a6242fdc8587","system_id":"levelo_inurba_marseille","lat":43.25578,"lon":5.38235,"is_reserved":false,"is_disabled":false,"rental_uris":{"android":"levelo://app?vid=6e1202d7-79a0-4929-9ed3-a6242fdc8587","ios":"levelo://app?vid=6e1202d7-79a0-4929-9ed3-a6242fdc8587"},"vehicle_type_id":"4","last_reported":1732180233,"current_range_meters":38800,"station_id":"ce4bhih2rcd13ifvqfs0","pricing_plan_id":"cebpf4jnsgd1na2vs0mg"},{"bike_id":"de7530a3-ff02-4c90-a152-c4f434da6ce7","system_id":"levelo_inurba_marseille","lat":43.2594,"lon":5.40904,"is_reserved":false,"is_disabled":false,"rental_uris":{"android":"levelo://app?vid=de7530a3-ff02-4c90-a152-c4f434da6ce7","ios":"levelo://app?vid=de7530a3-ff02-4c90-a152-c4f434da6ce7"},"vehicle_type_id":"4","last_reported":1732180233,"current_range_meters":32400,"station_id":"ce4bhm92rcd13ifvqglg","pricing_plan_id":"cebpf4jnsgd1na2vs0mg"},{"bike_id":"d5e18f5c-b2ab-4047-84c8-18de805c95b5","system_id":"levelo_inurba_marseille","lat":43.26952,"lon":5.38623,"is_reserved":false,"is_disabled":true,"rental_uris":{"android":"levelo://app?vid=d5e18f5c-b2ab-4047-84c8-18de805c95b5","ios":"levelo://app?vid=d5e18f5c-b2ab-4047-84c8-18de805c95b5"},"vehicle_type_id":"4","last_reported":1732180233,"current_range_meters":8800,"station_id":"ce4bhh92rcd13ifvqfh0","pricing_plan_id":"cebpf4jnsgd1na2vs0mg"},{"bike_id":"fbdc3998-a170-4688-bc44-6f50e3f8a7d1","system_id":"levelo_inurba_marseille","lat":43.2814,"lon":5.44198,"is_reserved":false,"is_disabled":true,"rental_uris":{"android":"levelo://app?vid=fbdc3998-a170-4688-bc44-6f50e3f8a7d1","ios":"levelo://app?vid=fbdc3998-a170-4688-bc44-6f50e3f8a7d1"},"vehicle_type_id":"4","last_reported":1732180233,"current_range_meters":27600,"station_id":"","pricing_plan_id":"cebpf4jnsgd1na2vs0mg"},{"bike_id":"87bdbe60-5511-4418-a4e4-682b5da37bfd","system_id":"levelo_inurba_marseille","lat":43.25865,"lon":5.39898,"is_reserved":false,"is_disabled":true,"rental_uris":{"android":"levelo://app?vid=87bdbe60-5511-4418-a4e4-682b5da37bfd","ios":"levelo://app?vid=87bdbe60-5511-4418-a4e4-682b5da37bfd"},"vehicle_type_id":"4","last_reported":1732180233,"current_range_meters":19200,"station_id":"ce4bhl92rcd13ifvqghg","pricing_plan_id":"cebpf4jnsgd1na2vs0mg"},{"bike_id":"47052fe1-a05c-49c3-b626-f5c628f20fc0","system_id":"levelo_inurba_marseille","lat":43.29107,"lon":5.38127,"is_reserved":false,"is_disabled":false,"rental_uris":{"android":"levelo://app?vid=47052fe1-a05c-49c3-b626-f5c628f20fc0","ios":"levelo://app?vid=47052fe1-a05c-49c3-b626-f5c628f20fc0"},"vehicle_type_id":"4","last_reported":1732180233,"current_range_meters":37600,"station_id":"ce4bh512rcd13ifvqe2g","pricing_plan_id":"cebpf4jnsgd1na2vs0mg"},{"bike_id":"03a86c06-6279-470a-b5aa-5f92a0de570d","system_id":"levelo_inurba_marseille","lat":43.28271,"lon":5.35061,"is_reserved":false,"is_disabled":false,"rental_uris":{"android":"levelo://app?vid=03a86c06-6279-470a-b5aa-5f92a0de570d","ios":"levelo://app?vid=03a86c06-6279-470a-b5aa-5f92a0de570d"},"vehicle_type_id":"4","last_reported":1732180233,"current_range_meters":9200,"station_id":"ce4bhbp2rcd13ifvqerg","pricing_plan_id":"cebpf4jnsgd1na2vs0mg"},{"bike_id":"f9914619-11ce-4027-a3a6-c70a8953c0a6","system_id":"levelo_inurba_marseille","lat":43.30227,"lon":5.37299,"is_reserved":false,"is_disabled":false,"rental_uris":{"android":"levelo://app?vid=f9914619-11ce-4027-a3a6-c70a8953c0a6","ios":"levelo://app?vid=f9914619-11ce-4027-a3a6-c70a8953c0a6"},"vehicle_type_id":"4","last_reported":1732180233,"current_range_meters":37600,"station_id":"","pricing_plan_id":"cebpf4jnsgd1na2vs0mg"},{"bike_id":"9b3fbf62-4f4c-46b4-9c62-9854a41b7d49","system_id":"levelo_inurba_marseille","lat":43.31713,"lon":5.3775,"is_reserved":false,"is_disabled":false,"rental_uris":{"android":"levelo://app?vid=9b3fbf62-4f4c-46b4-9c62-9854a41b7d49","ios":"levelo://app?vid=9b3fbf62-4f4c-46b4-9c62-9854a41b7d49"},"vehicle_type_id":"4","last_reported":1732180233,"current_range_meters":38800,"station_id":"ce4bgth2rcd13ifvqch0","pricing_plan_id":"cebpf4jnsgd1na2vs0mg"},{"bike_id":"5b0e878f-3396-4e57-89e3-c677fa45b15f","system_id":"levelo_inurba_marseille","lat":43.32338,"lon":5.40621,"is_reserved":false,"is_disabled":false,"rental_uris":{"android":"levelo://app?vid=5b0e878f-3396-4e57-89e3-c677fa45b15f","ios":"levelo://app?vid=5b0e878f-3396-4e57-89e3-c677fa45b15f"},"vehicle_type_id":"4","last_reported":1732180233,"current_range_meters":16000,"station_id":"ce4bhq92rcd13ifvqhjg","pricing_plan_id":"cebpf4jnsgd1na2vs0mg"},{"bike_id":"7eaf5910-b4db-4259-961f-d6ce83b4b295","system_id":"levelo_inurba_marseille","lat":43.33764,"lon":5.37443,"is_reserved":false,"is_disabled":false,"rental_uris":{"android":"levelo://app?vid=7eaf5910-b4db-4259-961f-d6ce83b4b295","ios":"levelo://app?vid=7eaf5910-b4db-4259-961f-d6ce83b4b295"},"vehicle_type_id":"4","last_reported":1732180233,"current_range_meters":38800,"station_id":"","pricing_plan_id":"cebpf4jnsgd1na2vs0mg"},{"bike_id":"42d6fa67-3d3d-427c-a63a-15e267a4a6ee","system_id":"levelo_inurba_marseille","lat":43.27943,"lon":5.41042,"is_reserved":false,"is_disabled":true,"rental_uris":{"android":"levelo://app?vid=42d6fa67-3d3d-427c-a63a-15e267a4a6ee","ios":"levelo://app?vid=42d6fa67-3d3d-427c-a63a-15e267a4a6ee"},"vehicle_type_id":"4","last_reported":1732180233,"current_range_meters":24400,"station_id":"ce4bhnp2rcd13ifvqh0g","pricing_plan_id":"cebpf4jnsgd1na2vs0mg"},{"bike_id":"e268425b-684d-4db1-892f-dc2b7008fe6d","system_id":"levelo_inurba_marseille","lat":43.29958,"lon":5.41322,"is_reserved":false,"is_disabled":false,"rental_uris":{"android":"levelo://app?vid=e268425b-684d-4db1-892f-dc2b7008fe6d","ios":"levelo://app?vid=e268425b-684d-4db1-892f-dc2b7008fe6d"},"vehicle_type_id":"4","last_reported":1732180233,"current_range_meters":38400,"station_id":"ce4bhp12rcd13ifvqh9g","pricing_plan_id":"cebpf4jnsgd1na2vs0mg"},{"bike_id":"a5e930ec-bd17-4fd5-804e-783bf99d3d71","system_id":"levelo_inurba_marseille","lat":43.26682,"lon":5.38265,"is_reserved":false,"is_disabled":false,"rental_uris":{"android":"levelo://app?vid=a5e930ec-bd17-4fd5-804e-783bf99d3d71","ios":"levelo://app?vid=a5e930ec-bd17-4fd5-804e-783bf99d3d71"},"vehicle_type_id":"4","last_reported":1732180233,"current_range_meters":38800,"station_id":"ce4bhg92rcd13ifvqf90","pricing_plan_id":"cebpf4jnsgd1na2vs0mg"},{"bike_id":"072f349f-a07c-4bc4-b312-736396f5889e","system_id":"levelo_inurba_marseille","lat":43.2731,"lon":5.39079,"is_reserved":false,"is_disabled":false,"rental_uris":{"android":"levelo://app?vid=072f349f-a07c-4bc4-b312-736396f5889e","ios":"levelo://app?vid=072f349f-a07c-4bc4-b312-736396f5889e"},"vehicle_type_id":"4","last_reported":1732180233,"current_range_meters":33600,"station_id":"ce4bhgp2rcd13ifvqfe0","pricing_plan_id":"cebpf4jnsgd1na2vs0mg"},{"bike_id":"6a1cf72b-8b4d-4929-af84-9c436a903bb4","system_id":"levelo_inurba_marseille","lat":43.29921,"lon":5.37453,"is_reserved":false,"is_disabled":false,"rental_uris":{"android":"levelo://app?vid=6a1cf72b-8b4d-4929-af84-9c436a903bb4","ios":"levelo://app?vid=6a1cf72b-8b4d-4929-af84-9c436a903bb4"},"vehicle_type_id":"4","last_reported":1732180233,"current_range_meters":39200,"station_id":"ce4bgjh2rcd13ifvqbg0","pricing_plan_id":"cebpf4jnsgd1na2vs0mg"},{"bike_id":"e8adc32e-0f82-45a1-bd01-fbfb459efe6e","system_id":"levelo_inurba_marseille","lat":43.29,"lon":5.35607,"is_reserved":false,"is_disabled":false,"rental_uris":{"android":"levelo://app?vid=e8adc32e-0f82-45a1-bd01-fbfb459efe6e","ios":"levelo://app?vid=e8adc32e-0f82-45a1-bd01-fbfb459efe6e"},"vehicle_type_id":"4","last_reported":1732180233,"current_range_meters":38000,"station_id":"ce4bhb92rcd13ifvqen0","pricing_plan_id":"cebpf4jnsgd1na2vs0mg"},{"bike_id":"b40ede3d-3df1-4e75-aa7c-f784505f0ad9","system_id":"levelo_inurba_marseille","lat":43.32006,"lon":5.38144,"is_reserved":false,"is_disabled":false,"rental_uris":{"android":"levelo://app?vid=b40ede3d-3df1-4e75-aa7c-f784505f0ad9","ios":"levelo://app?vid=b40ede3d-3df1-4e75-aa7c-f784505f0ad9"},"vehicle_type_id":"4","last_reported":1732180233,"current_range_meters":39200,"station_id":"ce4bhr12rcd13ifvqhpg","pricing_plan_id":"cebpf4jnsgd1na2vs0mg"},{"bike_id":"94f8ecd5-3389-4064-b8dc-49a1f1c19eef","system_id":"levelo_inurba_marseille","lat":43.26948,"lon":5.38627,"is_reserved":false,"is_disabled":false,"rental_uris":{"android":"levelo://app?vid=94f8ecd5-3389-4064-b8dc-49a1f1c19eef","ios":"levelo://app?vid=94f8ecd5-3389-4064-b8dc-49a1f1c19eef"},"vehicle_type_id":"4","last_reported":1732180233,"current_range_meters":32000,"station_id":"ce4bhh92rcd13ifvqfh0","pricing_plan_id":"cebpf4jnsgd1na2vs0mg"},{"bike_id":"3aded3d0-2cac-4684-b2b3-cd8ada8c6f4f","system_id":"levelo_inurba_marseille","lat":43.29986,"lon":5.38482,"is_reserved":false,"is_disabled":false,"rental_uris":{"android":"levelo://app?vid=3aded3d0-2cac-4684-b2b3-cd8ada8c6f4f","ios":"levelo://app?vid=3aded3d0-2cac-4684-b2b3-cd8ada8c6f4f"},"vehicle_type_id":"4","last_reported":1732180233,"current_range_meters":28000,"station_id":"ce4bgj92rcd13ifvqbd0","pricing_plan_id":"cebpf4jnsgd1na2vs0mg"},{"bike_id":"5b5f4604-3a82-4584-a08b-4bc79bf3d12b","system_id":"levelo_inurba_marseille","lat":43.30911,"lon":5.37162,"is_reserved":false,"is_disabled":false,"rental_uris":{"android":"levelo://app?vid=5b5f4604-3a82-4584-a08b-4bc79bf3d12b","ios":"levelo://app?vid=5b5f4604-3a82-4584-a08b-4bc79bf3d12b"},"vehicle_type_id":"4","last_reported":1732180233,"current_range_meters":9600,"station_id":"ce4bguh2rcd13ifvqckg","pricing_plan_id":"cebpf4jnsgd1na2vs0mg"},{"bike_id":"1a88079e-ca3a-4e16-9bb1-2dbd342dd3a2","system_id":"levelo_inurba_marseille","lat":43.27203,"lon":5.39189,"is_reserved":false,"is_disabled":true,"rental_uris":{"android":"levelo://app?vid=1a88079e-ca3a-4e16-9bb1-2dbd342dd3a2","ios":"levelo://app?vid=1a88079e-ca3a-4e16-9bb1-2dbd342dd3a2"},"vehicle_type_id":"4","last_reported":1732180233,"current_range_meters":10800,"station_id":"ce4bhhp2rcd13ifvqfm0","pricing_plan_id":"cebpf4jnsgd1na2vs0mg"},{"bike_id":"fdac78ea-7537-4171-bbcc-7e4b899fe408","system_id":"levelo_inurba_marseille","lat":43.32542,"lon":5.41437,"is_reserved":false,"is_disabled":false,"rental_uris":{"android":"levelo://app?vid=fdac78ea-7537-4171-bbcc-7e4b899fe408","ios":"levelo://app?vid=fdac78ea-7537-4171-bbcc-7e4b899fe408"},"vehicle_type_id":"4","last_reported":1732180233,"current_range_meters":38800,"station_id":"ce4bhq12rcd13ifvqhhg","pricing_plan_id":"cebpf4jnsgd1na2vs0mg"},{"bike_id":"cae080ee-7c9f-46a0-b9fc-d77e4f0f6295","system_id":"levelo_inurba_marseille","lat":43.34001,"lon":5.4228,"is_reserved":false,"is_disabled":true,"rental_uris":{"android":"levelo://app?vid=cae080ee-7c9f-46a0-b9fc-d77e4f0f6295","ios":"levelo://app?vid=cae080ee-7c9f-46a0-b9fc-d77e4f0f6295"},"vehicle_type_id":"4","last_reported":1732180233,"current_range_meters":1200,"station_id":"","pricing_plan_id":"cebpf4jnsgd1na2vs0mg"},{"bike_id":"436225a6-4694-4ff0-bed2-3c1da85ae302","system_id":"levelo_inurba_marseille","lat":43.30546,"lon":5.36717,"is_reserved":false,"is_disabled":false,"rental_uris":{"android":"levelo://app?vid=436225a6-4694-4ff0-bed2-3c1da85ae302","ios":"levelo://app?vid=436225a6-4694-4ff0-bed2-3c1da85ae302"},"vehicle_type_id":"4","last_reported":1732180233,"current_range_meters":32800,"station_id":"ce4bgrp2rcd13ifvqc9g","pricing_plan_id":"cebpf4jnsgd1na2vs0mg"},{"bike_id":"f28e6959-11cc-4b7a-be47-133558721324","system_id":"levelo_inurba_marseille","lat":43.25935,"lon":5.40912,"is_reserved":false,"is_disabled":false,"rental_uris":{"android":"levelo://app?vid=f28e6959-11cc-4b7a-be47-133558721324","ios":"levelo://app?vid=f28e6959-11cc-4b7a-be47-133558721324"},"vehicle_type_id":"4","last_reported":1732180233,"current_range_meters":36800,"station_id":"ce4bhm92rcd13ifvqglg","pricing_plan_id":"cebpf4jnsgd1na2vs0mg"},{"bike_id":"552ae1f9-34eb-4d70-a19b-3616d3661778","system_id":"levelo_inurba_marseille","lat":43.33721,"lon":5.3918,"is_reserved":false,"is_disabled":false,"rental_uris":{"android":"levelo://app?vid=552ae1f9-34eb-4d70-a19b-3616d3661778","ios":"levelo://app?vid=552ae1f9-34eb-4d70-a19b-3616d3661778"},"vehicle_type_id":"4","last_reported":1732180233,"current_range_meters":30000,"station_id":"ce4bhr92rcd13ifvqhsg","pricing_plan_id":"cebpf4jnsgd1na2vs0mg"},{"bike_id":"1bf91585-1655-41ca-aa3f-ff0ba6e8cc52","system_id":"levelo_inurba_marseille","lat":43.33026,"lon":5.3904,"is_reserved":false,"is_disabled":false,"rental_uris":{"android":"levelo://app?vid=1bf91585-1655-41ca-aa3f-ff0ba6e8cc52","ios":"levelo://app?vid=1bf91585-1655-41ca-aa3f-ff0ba6e8cc52"},"vehicle_type_id":"4","last_reported":1732180233,"current_range_meters":34800,"station_id":"ce4bhr92rcd13ifvqhrg","pricing_plan_id":"cebpf4jnsgd1na2vs0mg"},{"bike_id":"c7918193-fa65-4835-86b6-87f36f654569","system_id":"levelo_inurba_marseille","lat":43.2315,"lon":5.43725,"is_reserved":false,"is_disabled":false,"rental_uris":{"android":"levelo://app?vid=c7918193-fa65-4835-86b6-87f36f654569","ios":"levelo://app?vid=c7918193-fa65-4835-86b6-87f36f654569"},"vehicle_type_id":"4","last_reported":1732180233,"current_range_meters":24800,"station_id":"ce4bhmp2rcd13ifvqgog","pricing_plan_id":"cebpf4jnsgd1na2vs0mg"},{"bike_id":"efe8e488-fe62-4230-b6a7-900375ec95dd","system_id":"levelo_inurba_marseille","lat":43.23183,"lon":5.39984,"is_reserved":false,"is_disabled":false,"rental_uris":{"android":"levelo://app?vid=efe8e488-fe62-4230-b6a7-900375ec95dd","ios":"levelo://app?vid=efe8e488-fe62-4230-b6a7-900375ec95dd"},"vehicle_type_id":"4","last_reported":1732180233,"current_range_meters":14800,"station_id":"ce4bhn12rcd13ifvqgqg","pricing_plan_id":"cebpf4jnsgd1na2vs0mg"},{"bike_id":"7a942108-16ea-4f98-9d80-82c238759071","system_id":"levelo_inurba_marseille","lat":43.29574,"lon":5.39959,"is_reserved":false,"is_disabled":true,"rental_uris":{"android":"levelo://app?vid=7a942108-16ea-4f98-9d80-82c238759071","ios":"levelo://app?vid=7a942108-16ea-4f98-9d80-82c238759071"},"vehicle_type_id":"4","last_reported":1732180233,"current_range_meters":35200,"station_id":"ce4bh312rcd13ifvqdj0","pricing_plan_id":"cebpf4jnsgd1na2vs0mg"},{"bike_id":"028e5427-36e2-49e1-b3db-260058fffb58","system_id":"levelo_inurba_marseille","lat":43.25578,"lon":5.3823,"is_reserved":false,"is_disabled":false,"rental_uris":{"android":"levelo://app?vid=028e5427-36e2-49e1-b3db-260058fffb58","ios":"levelo://app?vid=028e5427-36e2-49e1-b3db-260058fffb58"},"vehicle_type_id":"4","last_reported":1732180233,"current_range_meters":24400,"station_id":"ce4bhih2rcd13ifvqfs0","pricing_plan_id":"cebpf4jnsgd1na2vs0mg"},{"bike_id":"2bf0861b-c265-465c-8582-cc41911dc19f","system_id":"levelo_inurba_marseille","lat":43.27209,"lon":5.3919,"is_reserved":false,"is_disabled":false,"rental_uris":{"android":"levelo://app?vid=2bf0861b-c265-465c-8582-cc41911dc19f","ios":"levelo://app?vid=2bf0861b-c265-465c-8582-cc41911dc19f"},"vehicle_type_id":"4","last_reported":1732180233,"current_range_meters":12400,"station_id":"ce4bhhp2rcd13ifvqfm0","pricing_plan_id":"cebpf4jnsgd1na2vs0mg"},{"bike_id":"ced66872-059d-4268-815d-080a073d130d","system_id":"levelo_inurba_marseille","lat":43.33609,"lon":5.41033,"is_reserved":false,"is_disabled":false,"rental_uris":{"android":"levelo://app?vid=ced66872-059d-4268-815d-080a073d130d","ios":"levelo://app?vid=ced66872-059d-4268-815d-080a073d130d"},"vehicle_type_id":"4","last_reported":1732180233,"current_range_meters":12000,"station_id":"ce4bhqh2rcd13ifvqhmg","pricing_plan_id":"cebpf4jnsgd1na2vs0mg"},{"bike_id":"7e17a81f-3b24-49e1-a5fc-e88f9462d78d","system_id":"levelo_inurba_marseille","lat":43.284146,"lon":5.409308,"is_reserved":false,"is_disabled":false,"rental_uris":{"android":"levelo://app?vid=7e17a81f-3b24-49e1-a5fc-e88f9462d78d","ios":"levelo://app?vid=7e17a81f-3b24-49e1-a5fc-e88f9462d78d"},"vehicle_type_id":"4","last_reported":1732180233,"current_range_meters":9200,"station_id":"","pricing_plan_id":"cebpf4jnsgd1na2vs0mg"},{"bike_id":"0d5efe48-32bd-461f-be09-c1d5e2d6ef37","system_id":"levelo_inurba_marseille","lat":43.32372,"lon":5.38884,"is_reserved":false,"is_disabled":false,"rental_uris":{"android":"levelo://app?vid=0d5efe48-32bd-461f-be09-c1d5e2d6ef37","ios":"levelo://app?vid=0d5efe48-32bd-461f-be09-c1d5e2d6ef37"},"vehicle_type_id":"4","last_reported":1732180233,"current_range_meters":38000,"station_id":"ce4bhqp2rcd13ifvqhog","pricing_plan_id":"cebpf4jnsgd1na2vs0mg"},{"bike_id":"feef18d9-267d-4d53-86f9-9c4304aa064a","system_id":"levelo_inurba_marseille","lat":43.26935,"lon":5.38907,"is_reserved":false,"is_disabled":true,"rental_uris":{"android":"levelo://app?vid=feef18d9-267d-4d53-86f9-9c4304aa064a","ios":"levelo://app?vid=feef18d9-267d-4d53-86f9-9c4304aa064a"},"vehicle_type_id":"4","last_reported":1732180233,"current_range_meters":39200,"station_id":"ce4bhhh2rcd13ifvqfl0","pricing_plan_id":"cebpf4jnsgd1na2vs0mg"},{"bike_id":"1deabaa7-1d02-474d-b833-0dc5ee1bcadb","system_id":"levelo_inurba_marseille","lat":43.28424,"lon":5.34986,"is_reserved":false,"is_disabled":false,"rental_uris":{"android":"levelo://app?vid=1deabaa7-1d02-474d-b833-0dc5ee1bcadb","ios":"levelo://app?vid=1deabaa7-1d02-474d-b833-0dc5ee1bcadb"},"vehicle_type_id":"4","last_reported":1732180233,"current_range_meters":36000,"station_id":"ce4bhbh2rcd13ifvqepg","pricing_plan_id":"cebpf4jnsgd1na2vs0mg"},{"bike_id":"2299b820-f196-4260-94c0-b18365bdbb31","system_id":"levelo_inurba_marseille","lat":43.29336,"lon":5.37437,"is_reserved":false,"is_disabled":false,"rental_uris":{"android":"levelo://app?vid=2299b820-f196-4260-94c0-b18365bdbb31","ios":"levelo://app?vid=2299b820-f196-4260-94c0-b18365bdbb31"},"vehicle_type_id":"4","last_reported":1732180233,"current_range_meters":22400,"station_id":"ce4bgi12rcd13ifvqb70","pricing_plan_id":"cebpf4jnsgd1na2vs0mg"},{"bike_id":"41b66025-5082-421d-922c-552de41f1f1b","system_id":"levelo_inurba_marseille","lat":43.33754,"lon":5.37448,"is_reserved":false,"is_disabled":false,"rental_uris":{"android":"levelo://app?vid=41b66025-5082-421d-922c-552de41f1f1b","ios":"levelo://app?vid=41b66025-5082-421d-922c-552de41f1f1b"},"vehicle_type_id":"4","last_reported":1732180233,"current_range_meters":38400,"station_id":"","pricing_plan_id":"cebpf4jnsgd1na2vs0mg"},{"bike_id":"74e778eb-ec7c-4bce-9674-2a045167f6a2","system_id":"levelo_inurba_marseille","lat":43.29911,"lon":5.38131,"is_reserved":false,"is_disabled":true,"rental_uris":{"android":"levelo://app?vid=74e778eb-ec7c-4bce-9674-2a045167f6a2","ios":"levelo://app?vid=74e778eb-ec7c-4bce-9674-2a045167f6a2"},"vehicle_type_id":"4","last_reported":1732180233,"current_range_meters":38400,"station_id":"ce4bgj12rcd13ifvqbc0","pricing_plan_id":"cebpf4jnsgd1na2vs0mg"},{"bike_id":"0520e7ae-329a-401c-af5e-399868714ab3","system_id":"levelo_inurba_marseille","lat":43.3135,"lon":5.36708,"is_reserved":false,"is_disabled":false,"rental_uris":{"android":"levelo://app?vid=0520e7ae-329a-401c-af5e-399868714ab3","ios":"levelo://app?vid=0520e7ae-329a-401c-af5e-399868714ab3"},"vehicle_type_id":"4","last_reported":1732180233,"current_range_meters":30800,"station_id":"ce4bgr92rcd13ifvqc6g","pricing_plan_id":"cebpf4jnsgd1na2vs0mg"},{"bike_id":"b88d1c52-81b3-4ffb-8aa2-85566462bd87","system_id":"levelo_inurba_marseille","lat":43.32538,"lon":5.41439,"is_reserved":false,"is_disabled":false,"rental_uris":{"android":"levelo://app?vid=b88d1c52-81b3-4ffb-8aa2-85566462bd87","ios":"levelo://app?vid=b88d1c52-81b3-4ffb-8aa2-85566462bd87"},"vehicle_type_id":"4","last_reported":1732180233,"current_range_meters":39200,"station_id":"ce4bhq12rcd13ifvqhhg","pricing_plan_id":"cebpf4jnsgd1na2vs0mg"},{"bike_id":"e092006c-73fc-47d0-9953-16a161a38977","system_id":"levelo_inurba_marseille","lat":43.30187,"lon":5.36611,"is_reserved":false,"is_disabled":false,"rental_uris":{"android":"levelo://app?vid=e092006c-73fc-47d0-9953-16a161a38977","ios":"levelo://app?vid=e092006c-73fc-47d0-9953-16a161a38977"},"vehicle_type_id":"4","last_reported":1732180233,"current_range_meters":24400,"station_id":"ce4bgrh2rcd13ifvqc8g","pricing_plan_id":"cebpf4jnsgd1na2vs0mg"},{"bike_id":"0aeb214c-fde7-45c8-b020-03be17efcbb9","system_id":"levelo_inurba_marseille","lat":43.33027,"lon":5.39042,"is_reserved":false,"is_disabled":false,"rental_uris":{"android":"levelo://app?vid=0aeb214c-fde7-45c8-b020-03be17efcbb9","ios":"levelo://app?vid=0aeb214c-fde7-45c8-b020-03be17efcbb9"},"vehicle_type_id":"4","last_reported":1732180233,"current_range_meters":29600,"station_id":"ce4bhr92rcd13ifvqhrg","pricing_plan_id":"cebpf4jnsgd1na2vs0mg"},{"bike_id":"ca486df7-b50c-4fa3-9ab1-a4cd00a0b3bb","system_id":"levelo_inurba_marseille","lat":43.29268,"lon":5.40115,"is_reserved":false,"is_disabled":true,"rental_uris":{"android":"levelo://app?vid=ca486df7-b50c-4fa3-9ab1-a4cd00a0b3bb","ios":"levelo://app?vid=ca486df7-b50c-4fa3-9ab1-a4cd00a0b3bb"},"vehicle_type_id":"4","last_reported":1732180233,"current_range_meters":23200,"station_id":"ce4bh312rcd13ifvqdk0","pricing_plan_id":"cebpf4jnsgd1na2vs0mg"},{"bike_id":"e243263c-16a0-487c-8237-288a405edef5","system_id":"levelo_inurba_marseille","lat":43.2953,"lon":5.37511,"is_reserved":false,"is_disabled":false,"rental_uris":{"android":"levelo://app?vid=e243263c-16a0-487c-8237-288a405edef5","ios":"levelo://app?vid=e243263c-16a0-487c-8237-288a405edef5"},"vehicle_type_id":"4","last_reported":1732180233,"current_range_meters":28000,"station_id":"ce4bgkp2rcd13ifvqbmg","pricing_plan_id":"cebpf4jnsgd1na2vs0mg"},{"bike_id":"545e0fc8-9864-4713-9710-375fa1e188c6","system_id":"levelo_inurba_marseille","lat":43.25938,"lon":5.40909,"is_reserved":false,"is_disabled":false,"rental_uris":{"android":"levelo://app?vid=545e0fc8-9864-4713-9710-375fa1e188c6","ios":"levelo://app?vid=545e0fc8-9864-4713-9710-375fa1e188c6"},"vehicle_type_id":"4","last_reported":1732180233,"current_range_meters":6000,"station_id":"ce4bhm92rcd13ifvqglg","pricing_plan_id":"cebpf4jnsgd1na2vs0mg"},{"bike_id":"c830409b-547c-4be3-b8ac-0819d1d038fe","system_id":"levelo_inurba_marseille","lat":43.29574,"lon":5.3996,"is_reserved":false,"is_disabled":true,"rental_uris":{"android":"levelo://app?vid=c830409b-547c-4be3-b8ac-0819d1d038fe","ios":"levelo://app?vid=c830409b-547c-4be3-b8ac-0819d1d038fe"},"vehicle_type_id":"4","last_reported":1732180233,"current_range_meters":20800,"station_id":"ce4bh312rcd13ifvqdj0","pricing_plan_id":"cebpf4jnsgd1na2vs0mg"},{"bike_id":"796b733f-49d0-45e2-becf-a5ec2492cb3c","system_id":"levelo_inurba_marseille","lat":43.25107,"lon":5.40324,"is_reserved":false,"is_disabled":true,"rental_uris":{"android":"levelo://app?vid=796b733f-49d0-45e2-becf-a5ec2492cb3c","ios":"levelo://app?vid=796b733f-49d0-45e2-becf-a5ec2492cb3c"},"vehicle_type_id":"4","last_reported":1732180233,"current_range_meters":36800,"station_id":"ce4bhlh2rcd13ifvqgig","pricing_plan_id":"cebpf4jnsgd1na2vs0mg"},{"bike_id":"da7f8bd4-8fd7-46fd-961a-7182e334da8d","system_id":"levelo_inurba_marseille","lat":43.30284,"lon":5.37714,"is_reserved":false,"is_disabled":false,"rental_uris":{"android":"levelo://app?vid=da7f8bd4-8fd7-46fd-961a-7182e334da8d","ios":"levelo://app?vid=da7f8bd4-8fd7-46fd-961a-7182e334da8d"},"vehicle_type_id":"4","last_reported":1732180233,"current_range_meters":22800,"station_id":"ce4bguh2rcd13ifvqcj0","pricing_plan_id":"cebpf4jnsgd1na2vs0mg"},{"bike_id":"5b781679-db62-46ee-a333-693ce67c900e","system_id":"levelo_inurba_marseille","lat":43.243581,"lon":5.370605,"is_reserved":false,"is_disabled":false,"rental_uris":{"android":"levelo://app?vid=5b781679-db62-46ee-a333-693ce67c900e","ios":"levelo://app?vid=5b781679-db62-46ee-a333-693ce67c900e"},"vehicle_type_id":"4","last_reported":1732180233,"current_range_meters":19200,"station_id":"ce4bhhh2rcd13ifvqfk0","pricing_plan_id":"cebpf4jnsgd1na2vs0mg"},{"bike_id":"e5951ee3-4a5a-4ebb-b469-096c5188dfa3","system_id":"levelo_inurba_marseille","lat":43.23191,"lon":5.35548,"is_reserved":false,"is_disabled":false,"rental_uris":{"android":"levelo://app?vid=e5951ee3-4a5a-4ebb-b469-096c5188dfa3","ios":"levelo://app?vid=e5951ee3-4a5a-4ebb-b469-096c5188dfa3"},"vehicle_type_id":"4","last_reported":1732180233,"current_range_meters":35200,"station_id":"ce4bhu92rcd13ifvqi70","pricing_plan_id":"cebpf4jnsgd1na2vs0mg"},{"bike_id":"9c7ea7e0-2d99-4479-920e-0613d61354f2","system_id":"levelo_inurba_marseille","lat":43.26569,"lon":5.38997,"is_reserved":false,"is_disabled":false,"rental_uris":{"android":"levelo://app?vid=9c7ea7e0-2d99-4479-920e-0613d61354f2","ios":"levelo://app?vid=9c7ea7e0-2d99-4479-920e-0613d61354f2"},"vehicle_type_id":"4","last_reported":1732180233,"current_range_meters":14000,"station_id":"ce4bhe12rcd13ifvqf30","pricing_plan_id":"cebpf4jnsgd1na2vs0mg"},{"bike_id":"3b936696-ecde-482b-a118-f1e71d3fc229","system_id":"levelo_inurba_marseille","lat":43.26035,"lon":5.37548,"is_reserved":false,"is_disabled":false,"rental_uris":{"android":"levelo://app?vid=3b936696-ecde-482b-a118-f1e71d3fc229","ios":"levelo://app?vid=3b936696-ecde-482b-a118-f1e71d3fc229"},"vehicle_type_id":"4","last_reported":1732180233,"current_range_meters":36800,"station_id":"ce4bhgh2rcd13ifvqfa0","pricing_plan_id":"cebpf4jnsgd1na2vs0mg"},{"bike_id":"b2f6b9cf-69db-40ab-8230-689c41a2c16c","system_id":"levelo_inurba_marseille","lat":43.24166,"lon":5.36395,"is_reserved":false,"is_disabled":false,"rental_uris":{"android":"levelo://app?vid=b2f6b9cf-69db-40ab-8230-689c41a2c16c","ios":"levelo://app?vid=b2f6b9cf-69db-40ab-8230-689c41a2c16c"},"vehicle_type_id":"4","last_reported":1732180233,"current_range_meters":34000,"station_id":"cpo36qri1sfpv3e86is0","pricing_plan_id":"cebpf4jnsgd1na2vs0mg"},{"bike_id":"58a208f4-fd83-44a4-bf12-9a135848ed36","system_id":"levelo_inurba_marseille","lat":43.3372,"lon":5.39184,"is_reserved":false,"is_disabled":false,"rental_uris":{"android":"levelo://app?vid=58a208f4-fd83-44a4-bf12-9a135848ed36","ios":"levelo://app?vid=58a208f4-fd83-44a4-bf12-9a135848ed36"},"vehicle_type_id":"4","last_reported":1732180233,"current_range_meters":39200,"station_id":"ce4bhr92rcd13ifvqhsg","pricing_plan_id":"cebpf4jnsgd1na2vs0mg"},{"bike_id":"2dc62d2b-79ca-433b-ad6f-17fb4bb3bae5","system_id":"levelo_inurba_marseille","lat":43.24073,"lon":5.37758,"is_reserved":false,"is_disabled":false,"rental_uris":{"android":"levelo://app?vid=2dc62d2b-79ca-433b-ad6f-17fb4bb3bae5","ios":"levelo://app?vid=2dc62d2b-79ca-433b-ad6f-17fb4bb3bae5"},"vehicle_type_id":"4","last_reported":1732180233,"current_range_meters":31200,"station_id":"ce4bhnp2rcd13ifvqgvg","pricing_plan_id":"cebpf4jnsgd1na2vs0mg"},{"bike_id":"53dccf3c-4ea0-402e-8bfd-f0ccd06f564c","system_id":"levelo_inurba_marseille","lat":43.29845,"lon":5.36276,"is_reserved":false,"is_disabled":false,"rental_uris":{"android":"levelo://app?vid=53dccf3c-4ea0-402e-8bfd-f0ccd06f564c","ios":"levelo://app?vid=53dccf3c-4ea0-402e-8bfd-f0ccd06f564c"},"vehicle_type_id":"4","last_reported":1732180233,"current_range_meters":36400,"station_id":"ce4bgpp2rcd13ifvqc3g","pricing_plan_id":"cebpf4jnsgd1na2vs0mg"},{"bike_id":"d81ab7a3-51c2-4185-a371-62197aa1f5e2","system_id":"levelo_inurba_marseille","lat":43.31284,"lon":5.38679,"is_reserved":false,"is_disabled":false,"rental_uris":{"android":"levelo://app?vid=d81ab7a3-51c2-4185-a371-62197aa1f5e2","ios":"levelo://app?vid=d81ab7a3-51c2-4185-a371-62197aa1f5e2"},"vehicle_type_id":"4","last_reported":1732180233,"current_range_meters":26800,"station_id":"","pricing_plan_id":"cebpf4jnsgd1na2vs0mg"},{"bike_id":"2fdc2020-285e-4a6a-a71d-c29abfc6593b","system_id":"levelo_inurba_marseille","lat":43.29596,"lon":5.37515,"is_reserved":false,"is_disabled":true,"rental_uris":{"android":"levelo://app?vid=2fdc2020-285e-4a6a-a71d-c29abfc6593b","ios":"levelo://app?vid=2fdc2020-285e-4a6a-a71d-c29abfc6593b"},"vehicle_type_id":"4","last_reported":1732180233,"current_range_meters":7200,"station_id":"ce4bgh92rcd13ifvqb50","pricing_plan_id":"cebpf4jnsgd1na2vs0mg"},{"bike_id":"9d927b2c-5799-4a1d-8ed5-cefb9f6b7b58","system_id":"levelo_inurba_marseille","lat":43.32295,"lon":5.38254,"is_reserved":false,"is_disabled":false,"rental_uris":{"android":"levelo://app?vid=9d927b2c-5799-4a1d-8ed5-cefb9f6b7b58","ios":"levelo://app?vid=9d927b2c-5799-4a1d-8ed5-cefb9f6b7b58"},"vehicle_type_id":"4","last_reported":1732180233,"current_range_meters":40000,"station_id":"ce4bhr12rcd13ifvqhqg","pricing_plan_id":"cebpf4jnsgd1na2vs0mg"},{"bike_id":"b7577726-d0d8-46a4-abb0-0e66776506ca","system_id":"levelo_inurba_marseille","lat":43.337444,"lon":5.374475,"is_reserved":false,"is_disabled":false,"rental_uris":{"android":"levelo://app?vid=b7577726-d0d8-46a4-abb0-0e66776506ca","ios":"levelo://app?vid=b7577726-d0d8-46a4-abb0-0e66776506ca"},"vehicle_type_id":"4","last_reported":1732180233,"current_range_meters":10000,"station_id":"","pricing_plan_id":"cebpf4jnsgd1na2vs0mg"},{"bike_id":"aa61e9fd-4dd9-4816-9fd7-e9c36706aca1","system_id":"levelo_inurba_marseille","lat":43.30536,"lon":5.36545,"is_reserved":false,"is_disabled":false,"rental_uris":{"android":"levelo://app?vid=aa61e9fd-4dd9-4816-9fd7-e9c36706aca1","ios":"levelo://app?vid=aa61e9fd-4dd9-4816-9fd7-e9c36706aca1"},"vehicle_type_id":"4","last_reported":1732180233,"current_range_meters":29600,"station_id":"ce4bgs12rcd13ifvqcag","pricing_plan_id":"cebpf4jnsgd1na2vs0mg"},{"bike_id":"26ce6e22-11fe-4850-80ce-605c93f03f2d","system_id":"levelo_inurba_marseille","lat":43.30536,"lon":5.36552,"is_reserved":false,"is_disabled":false,"rental_uris":{"android":"levelo://app?vid=26ce6e22-11fe-4850-80ce-605c93f03f2d","ios":"levelo://app?vid=26ce6e22-11fe-4850-80ce-605c93f03f2d"},"vehicle_type_id":"4","last_reported":1732180233,"current_range_meters":22400,"station_id":"ce4bgs12rcd13ifvqcag","pricing_plan_id":"cebpf4jnsgd1na2vs0mg"},{"bike_id":"5c53cfbd-2547-413a-b79a-f8cc3b1ca992","system_id":"levelo_inurba_marseille","lat":43.32114,"lon":5.36774,"is_reserved":false,"is_disabled":false,"rental_uris":{"android":"levelo://app?vid=5c53cfbd-2547-413a-b79a-f8cc3b1ca992","ios":"levelo://app?vid=5c53cfbd-2547-413a-b79a-f8cc3b1ca992"},"vehicle_type_id":"4","last_reported":1732180233,"current_range_meters":23200,"station_id":"ce4bhrh2rcd13ifvqhug","pricing_plan_id":"cebpf4jnsgd1na2vs0mg"},{"bike_id":"5be086de-002c-4a6b-8a2f-2036995347ff","system_id":"levelo_inurba_marseille","lat":43.29225,"lon":5.36063,"is_reserved":false,"is_disabled":false,"rental_uris":{"android":"levelo://app?vid=5be086de-002c-4a6b-8a2f-2036995347ff","ios":"levelo://app?vid=5be086de-002c-4a6b-8a2f-2036995347ff"},