{"last_updated":1741878656,"ttl":60,"version":"2.2","data":{"bikes":[{"bike_id":"1d1290cf-da89-4e5e-9676-250f65cf5c33","system_id":"levelo_inurba_marseille","lat":43.29553,"lon":5.42287,"is_reserved":false,"is_disabled":false,"rental_uris":{"android":"levelo://app?vid=1d1290cf-da89-4e5e-9676-250f65cf5c33","ios":"levelo://app?vid=1d1290cf-da89-4e5e-9676-250f65cf5c33"},"vehicle_type_id":"4","last_reported":1741878657,"current_range_meters":2800,"station_id":"ce4bhph2rcd13ifvqhdg","pricing_plan_id":"cebpf4jnsgd1na2vs0mg"},{"bike_id":"0121baf3-5984-4b4e-9795-aee12ed93cc2","system_id":"levelo_inurba_marseille","lat":43.30789,"lon":5.36784,"is_reserved":false,"is_disabled":false,"rental_uris":{"android":"levelo://app?vid=0121baf3-5984-4b4e-9795-aee12ed93cc2","ios":"levelo://app?vid=0121baf3-5984-4b4e-9795-aee12ed93cc2"},"vehicle_type_id":"4","last_reported":1741878657,"current_range_meters":2800,"station_id":"","pricing_plan_id":"cebpf4jnsgd1na2vs0mg"},{"bike_id":"07e420a8-1a4a-4ab3-9fd0-741887e7cc00","system_id":"levelo_inurba_marseille","lat":43.33607,"lon":5.41029,"is_reserved":false,"is_disabled":false,"rental_uris":{"android":"levelo://app?vid=07e420a8-1a4a-4ab3-9fd0-741887e7cc00","ios":"levelo://app?vid=07e420a8-1a4a-4ab3-9fd0-741887e7cc00"},"vehicle_type_id":"4","last_reported":1741878657,"current_range_meters":2800,"station_id":"ce4bhqh2rcd13ifvqhmg","pricing_plan_id":"cebpf4jnsgd1na2vs0mg"},{"bike_id":"48cf077f-aabb-46e2-9ccb-88eebfdbaaad","system_id":"levelo_inurba_marseille","lat":43.29702,"lon":5.37704,"is_reserved":false,"is_disabled":false,"rental_uris":{"android":"levelo://app?vid=48cf077f-aabb-46e2-9ccb-88eebfdbaaad","ios":"levelo://app?vid=48cf077f-aabb-46e2-9ccb-88eebfdbaaad"},"vehicle_type_id":"4","last_reported":1741878657,"current_range_meters":2800,"station_id":"ce4bgkh2rcd13ifvqbl0","pricing_plan_id":"cebpf4jnsgd1na2vs0mg"},{"bike_id":"a3ec5543-32e9-47dd-98e5-7d815c1d2c85","system_id":"levelo_inurba_marseille","lat":43.25734,"lon":5.41108,"is_reserved":false,"is_disabled":true,"rental_uris":{"android":"levelo://app?vid=a3ec5543-32e9-47dd-98e5-7d815c1d2c85","ios":"levelo://app?vid=a3ec5543-32e9-47dd-98e5-7d815c1d2c85"},"vehicle_type_id":"4","last_reported":1741878657,"current_range_meters":3200,"station_id":"ce4bhkp2rcd13ifvqgd0","pricing_plan_id":"cebpf4jnsgd1na2vs0mg"},{"bike_id":"09b596d2-9fb8-4407-91a7-ec4b3d2d3af7","system_id":"levelo_inurba_marseille","lat":43.25588,"lon":5.38234,"is_reserved":false,"is_disabled":false,"rental_uris":{"android":"levelo://app?vid=09b596d2-9fb8-4407-91a7-ec4b3d2d3af7","ios":"levelo://app?vid=09b596d2-9fb8-4407-91a7-ec4b3d2d3af7"},"vehicle_type_id":"4","last_reported":1741878657,"current_range_meters":4000,"station_id":"ce4bhih2rcd13ifvqfs0","pricing_plan_id":"cebpf4jnsgd1na2vs0mg"},{"bike_id":"b922620b-a2b1-428a-813b-05bd0aab95f2","system_id":"levelo_inurba_marseille","lat":43.31708,"lon":5.37737,"is_reserved":false,"is_disabled":false,"rental_uris":{"android":"levelo://app?vid=b922620b-a2b1-428a-813b-05bd0aab95f2","ios":"levelo://app?vid=b922620b-a2b1-428a-813b-05bd0aab95f2"},"vehicle_type_id":"4","last_reported":1741878657,"current_range_meters":3600,"station_id":"ce4bgth2rcd13ifvqch0","pricing_plan_id":"cebpf4jnsgd1na2vs0mg"},{"bike_id":"e581c241-1d5b-499f-8b47-6bacf0146b31","system_id":"levelo_inurba_marseille","lat":43.27312,"lon":5.39073,"is_reserved":false,"is_disabled":false,"rental_uris":{"android":"levelo://app?vid=e581c241-1d5b-499f-8b47-6bacf0146b31","ios":"levelo://app?vid=e581c241-1d5b-499f-8b47-6bacf0146b31"},"vehicle_type_id":"4","last_reported":1741878657,"current_range_meters":4000,"station_id":"ce4bhgp2rcd13ifvqfe0","pricing_plan_id":"cebpf4jnsgd1na2vs0mg"},{"bike_id":"d506a175-d16b-417e-8a3a-f2241e0e262e","system_id":"levelo_inurba_marseille","lat":43.30922,"lon":5.37875,"is_reserved":false,"is_disabled":false,"rental_uris":{"android":"levelo://app?vid=d506a175-d16b-417e-8a3a-f2241e0e262e","ios":"levelo://app?vid=d506a175-d16b-417e-8a3a-f2241e0e262e"},"vehicle_type_id":"4","last_reported":1741878657,"current_range_meters":4400,"station_id":"","pricing_plan_id":"cebpf4jnsgd1na2vs0mg"},{"bike_id":"58c5e8c6-6e3e-4bac-b702-9219905970c2","system_id":"levelo_inurba_marseille","lat":43.231938,"lon":5.355606,"is_reserved":false,"is_disabled":false,"rental_uris":{"android":"levelo://app?vid=58c5e8c6-6e3e-4bac-b702-9219905970c2","ios":"levelo://app?vid=58c5e8c6-6e3e-4bac-b702-9219905970c2"},"vehicle_type_id":"4","last_reported":1741878657,"current_range_meters":4400,"station_id":"ce4bhu92rcd13ifvqi70","pricing_plan_id":"cebpf4jnsgd1na2vs0mg"},{"bike_id":"b7750009-6836-4f4d-8e60-d86893e18e14","system_id":"levelo_inurba_marseille","lat":43.31048,"lon":5.37122,"is_reserved":false,"is_disabled":false,"rental_uris":{"android":"levelo://app?vid=b7750009-6836-4f4d-8e60-d86893e18e14","ios":"levelo://app?vid=b7750009-6836-4f4d-8e60-d86893e18e14"},"vehicle_type_id":"4","last_reported":1741878657,"current_range_meters":4400,"station_id":"","pricing_plan_id":"cebpf4jnsgd1na2vs0mg"},{"bike_id":"d7036a10-6caa-4f0b-ba7d-f7fccd863833","system_id":"levelo_inurba_marseille","lat":43.28864,"lon":5.35849,"is_reserved":false,"is_disabled":false,"rental_uris":{"android":"levelo://app?vid=d7036a10-6caa-4f0b-ba7d-f7fccd863833","ios":"levelo://app?vid=d7036a10-6caa-4f0b-ba7d-f7fccd863833"},"vehicle_type_id":"4","last_reported":1741878657,"current_range_meters":4400,"station_id":"ce4bhb12rcd13ifvqem0","pricing_plan_id":"cebpf4jnsgd1na2vs0mg"},{"bike_id":"341c3b67-6abe-472b-9d34-9f47508130bb","system_id":"levelo_inurba_marseille","lat":43.27073,"lon":5.42283,"is_reserved":false,"is_disabled":false,"rental_uris":{"android":"levelo://app?vid=341c3b67-6abe-472b-9d34-9f47508130bb","ios":"levelo://app?vid=341c3b67-6abe-472b-9d34-9f47508130bb"},"vehicle_type_id":"4","last_reported":1741878657,"current_range_meters":3200,"station_id":"ce4bhk92rcd13ifvqgb0","pricing_plan_id":"cebpf4jnsgd1na2vs0mg"},{"bike_id":"05f96acf-17fa-4179-ab64-e08a126a436c","system_id":"levelo_inurba_marseille","lat":43.30795,"lon":5.38148,"is_reserved":false,"is_disabled":false,"rental_uris":{"android":"levelo://app?vid=05f96acf-17fa-4179-ab64-e08a126a436c","ios":"levelo://app?vid=05f96acf-17fa-4179-ab64-e08a126a436c"},"vehicle_type_id":"4","last_reported":1741878657,"current_range_meters":4400,"station_id":"ce4bgt12rcd13ifvqce0","pricing_plan_id":"cebpf4jnsgd1na2vs0mg"},{"bike_id":"db2bdd25-d774-4bf6-87f5-1c5357cf7d5a","system_id":"levelo_inurba_marseille","lat":43.28326,"lon":5.38116,"is_reserved":false,"is_disabled":false,"rental_uris":{"android":"levelo://app?vid=db2bdd25-d774-4bf6-87f5-1c5357cf7d5a","ios":"levelo://app?vid=db2bdd25-d774-4bf6-87f5-1c5357cf7d5a"},"vehicle_type_id":"4","last_reported":1741878657,"current_range_meters":4400,"station_id":"ce4bh412rcd13ifvqdr0","pricing_plan_id":"cebpf4jnsgd1na2vs0mg"},{"bike_id":"44b141dd-d922-435b-95cf-d52537d6e998","system_id":"levelo_inurba_marseille","lat":43.28036,"lon":5.36946,"is_reserved":false,"is_disabled":false,"rental_uris":{"android":"levelo://app?vid=44b141dd-d922-435b-95cf-d52537d6e998","ios":"levelo://app?vid=44b141dd-d922-435b-95cf-d52537d6e998"},"vehicle_type_id":"4","last_reported":1741878657,"current_range_meters":4800,"station_id":"ce4bha12rcd13ifvqef0","pricing_plan_id":"cebpf4jnsgd1na2vs0mg"},{"bike_id":"73dcc6a7-b2b1-4401-a27e-7c79a43471a2","system_id":"levelo_inurba_marseille","lat":43.232012,"lon":5.355502,"is_reserved":false,"is_disabled":false,"rental_uris":{"android":"levelo://app?vid=73dcc6a7-b2b1-4401-a27e-7c79a43471a2","ios":"levelo://app?vid=73dcc6a7-b2b1-4401-a27e-7c79a43471a2"},"vehicle_type_id":"4","last_reported":1741878657,"current_range_meters":4400,"station_id":"ce4bhu92rcd13ifvqi70","pricing_plan_id":"cebpf4jnsgd1na2vs0mg"},{"bike_id":"91919df0-a609-4174-9c4e-96f0a7ea657d","system_id":"levelo_inurba_marseille","lat":43.26562,"lon":5.39016,"is_reserved":false,"is_disabled":false,"rental_uris":{"android":"levelo://app?vid=91919df0-a609-4174-9c4e-96f0a7ea657d","ios":"levelo://app?vid=91919df0-a609-4174-9c4e-96f0a7ea657d"},"vehicle_type_id":"4","last_reported":1741878657,"current_range_meters":4800,"station_id":"ce4bhe12rcd13ifvqf30","pricing_plan_id":"cebpf4jnsgd1na2vs0mg"},{"bike_id":"41300c69-dac2-414a-90f5-723515bbe27a","system_id":"levelo_inurba_marseille","lat":43.23196,"lon":5.35556,"is_reserved":false,"is_disabled":false,"rental_uris":{"android":"levelo://app?vid=41300c69-dac2-414a-90f5-723515bbe27a","ios":"levelo://app?vid=41300c69-dac2-414a-90f5-723515bbe27a"},"vehicle_type_id":"4","last_reported":1741878657,"current_range_meters":4800,"station_id":"ce4bhu92rcd13ifvqi70","pricing_plan_id":"cebpf4jnsgd1na2vs0mg"},{"bike_id":"acc75686-185d-4d6f-be32-4c372f5a7c8b","system_id":"levelo_inurba_marseille","lat":43.29198,"lon":5.38689,"is_reserved":false,"is_disabled":false,"rental_uris":{"android":"levelo://app?vid=acc75686-185d-4d6f-be32-4c372f5a7c8b","ios":"levelo://app?vid=acc75686-185d-4d6f-be32-4c372f5a7c8b"},"vehicle_type_id":"4","last_reported":1741878657,"current_range_meters":4800,"station_id":"ce4bha92rcd13ifvqeh0","pricing_plan_id":"cebpf4jnsgd1na2vs0mg"},{"bike_id":"44755e8a-8cd1-4cf4-a46a-cd29e908c3a8","system_id":"levelo_inurba_marseille","lat":43.28375,"lon":5.38646,"is_reserved":false,"is_disabled":false,"rental_uris":{"android":"levelo://app?vid=44755e8a-8cd1-4cf4-a46a-cd29e908c3a8","ios":"levelo://app?vid=44755e8a-8cd1-4cf4-a46a-cd29e908c3a8"},"vehicle_type_id":"4","last_reported":1741878657,"current_range_meters":4800,"station_id":"ce4bh492rcd13ifvqdvg","pricing_plan_id":"cebpf4jnsgd1na2vs0mg"},{"bike_id":"d9fbb953-140c-4d25-bdec-8af757eb3e95","system_id":"levelo_inurba_marseille","lat":43.26797,"lon":5.40259,"is_reserved":false,"is_disabled":false,"rental_uris":{"android":"levelo://app?vid=d9fbb953-140c-4d25-bdec-8af757eb3e95","ios":"levelo://app?vid=d9fbb953-140c-4d25-bdec-8af757eb3e95"},"vehicle_type_id":"4","last_reported":1741878657,"current_range_meters":5600,"station_id":"ce501612rcd8frsf0b60","pricing_plan_id":"cebpf4jnsgd1na2vs0mg"},{"bike_id":"ede9cdcd-d1e4-4cc0-90bd-cfb7cc135dc4","system_id":"levelo_inurba_marseille","lat":43.24171,"lon":5.39723,"is_reserved":false,"is_disabled":true,"rental_uris":{"android":"levelo://app?vid=ede9cdcd-d1e4-4cc0-90bd-cfb7cc135dc4","ios":"levelo://app?vid=ede9cdcd-d1e4-4cc0-90bd-cfb7cc135dc4"},"vehicle_type_id":"4","last_reported":1741878657,"current_range_meters":5600,"station_id":"ce4bhn12rcd13ifvqgpg","pricing_plan_id":"cebpf4jnsgd1na2vs0mg"},{"bike_id":"1037cff6-822c-49d5-9283-5c846265ca63","system_id":"levelo_inurba_marseille","lat":43.26214,"lon":5.40472,"is_reserved":false,"is_disabled":false,"rental_uris":{"android":"levelo://app?vid=1037cff6-822c-49d5-9283-5c846265ca63","ios":"levelo://app?vid=1037cff6-822c-49d5-9283-5c846265ca63"},"vehicle_type_id":"4","last_reported":1741878657,"current_range_meters":5600,"station_id":"ce4bhmh2rcd13ifvqgmg","pricing_plan_id":"cebpf4jnsgd1na2vs0mg"},{"bike_id":"5983c7b2-c229-410a-9519-9d67d08d4ec9","system_id":"levelo_inurba_marseille","lat":43.30144,"lon":5.38095,"is_reserved":false,"is_disabled":false,"rental_uris":{"android":"levelo://app?vid=5983c7b2-c229-410a-9519-9d67d08d4ec9","ios":"levelo://app?vid=5983c7b2-c229-410a-9519-9d67d08d4ec9"},"vehicle_type_id":"4","last_reported":1741878657,"current_range_meters":5600,"station_id":"ce4bgjp2rcd13ifvqbh0","pricing_plan_id":"cebpf4jnsgd1na2vs0mg"},{"bike_id":"bb6398ba-bcbe-42fa-8d1c-91c0d0ac3f0b","system_id":"levelo_inurba_marseille","lat":43.2466,"lon":5.38164,"is_reserved":false,"is_disabled":false,"rental_uris":{"android":"levelo://app?vid=bb6398ba-bcbe-42fa-8d1c-91c0d0ac3f0b","ios":"levelo://app?vid=bb6398ba-bcbe-42fa-8d1c-91c0d0ac3f0b"},"vehicle_type_id":"4","last_reported":1741878657,"current_range_meters":5600,"station_id":"ce4bhih2rcd13ifvqfr0","pricing_plan_id":"cebpf4jnsgd1na2vs0mg"},{"bike_id":"e65f842e-69b2-436a-a201-83a06add3a55","system_id":"levelo_inurba_marseille","lat":43.25014,"lon":5.38929,"is_reserved":false,"is_disabled":false,"rental_uris":{"android":"levelo://app?vid=e65f842e-69b2-436a-a201-83a06add3a55","ios":"levelo://app?vid=e65f842e-69b2-436a-a201-83a06add3a55"},"vehicle_type_id":"4","last_reported":1741878657,"current_range_meters":6000,"station_id":"ce4bhgp2rcd13ifvqfd0","pricing_plan_id":"cebpf4jnsgd1na2vs0mg"},{"bike_id":"9f923f71-f698-4676-bd13-02e0622a1f6e","system_id":"levelo_inurba_marseille","lat":43.28712,"lon":5.3793,"is_reserved":false,"is_disabled":false,"rental_uris":{"android":"levelo://app?vid=9f923f71-f698-4676-bd13-02e0622a1f6e","ios":"levelo://app?vid=9f923f71-f698-4676-bd13-02e0622a1f6e"},"vehicle_type_id":"4","last_reported":1741878657,"current_range_meters":6000,"station_id":"ce4bh9p2rcd13ifvqec0","pricing_plan_id":"cebpf4jnsgd1na2vs0mg"},{"bike_id":"4f22fe17-a417-41ba-bcf4-f26309487b11","system_id":"levelo_inurba_marseille","lat":43.33391,"lon":5.4006,"is_reserved":false,"is_disabled":false,"rental_uris":{"android":"levelo://app?vid=4f22fe17-a417-41ba-bcf4-f26309487b11","ios":"levelo://app?vid=4f22fe17-a417-41ba-bcf4-f26309487b11"},"vehicle_type_id":"4","last_reported":1741878657,"current_range_meters":6000,"station_id":"","pricing_plan_id":"cebpf4jnsgd1na2vs0mg"},{"bike_id":"2a69e639-a0be-4da5-b497-a75be2f56c13","system_id":"levelo_inurba_marseille","lat":43.25091,"lon":5.39511,"is_reserved":false,"is_disabled":false,"rental_uris":{"android":"levelo://app?vid=2a69e639-a0be-4da5-b497-a75be2f56c13","ios":"levelo://app?vid=2a69e639-a0be-4da5-b497-a75be2f56c13"},"vehicle_type_id":"4","last_reported":1741878657,"current_range_meters":6000,"station_id":"ce4bhm12rcd13ifvqgkg","pricing_plan_id":"cebpf4jnsgd1na2vs0mg"},{"bike_id":"a664d1b4-63b5-4224-a83b-38effcbc9814","system_id":"levelo_inurba_marseille","lat":43.3088,"lon":5.39637,"is_reserved":false,"is_disabled":false,"rental_uris":{"android":"levelo://app?vid=a664d1b4-63b5-4224-a83b-38effcbc9814","ios":"levelo://app?vid=a664d1b4-63b5-4224-a83b-38effcbc9814"},"vehicle_type_id":"4","last_reported":1741878657,"current_range_meters":6000,"station_id":"ce4bh012rcd13ifvqcv0","pricing_plan_id":"cebpf4jnsgd1na2vs0mg"},{"bike_id":"8a0b6182-e014-4f8d-99a7-4ed9613f7b40","system_id":"levelo_inurba_marseille","lat":43.28668,"lon":5.38685,"is_reserved":false,"is_disabled":false,"rental_uris":{"android":"levelo://app?vid=8a0b6182-e014-4f8d-99a7-4ed9613f7b40","ios":"levelo://app?vid=8a0b6182-e014-4f8d-99a7-4ed9613f7b40"},"vehicle_type_id":"4","last_reported":1741878657,"current_range_meters":6400,"station_id":"ce4bh492rcd13ifvqdug","pricing_plan_id":"cebpf4jnsgd1na2vs0mg"},{"bike_id":"0e1454f0-c501-449b-b78c-ddfc8f4d9aab","system_id":"levelo_inurba_marseille","lat":43.33768,"lon":5.3749,"is_reserved":false,"is_disabled":false,"rental_uris":{"android":"levelo://app?vid=0e1454f0-c501-449b-b78c-ddfc8f4d9aab","ios":"levelo://app?vid=0e1454f0-c501-449b-b78c-ddfc8f4d9aab"},"vehicle_type_id":"4","last_reported":1741878657,"current_range_meters":6400,"station_id":"","pricing_plan_id":"cebpf4jnsgd1na2vs0mg"},{"bike_id":"9382d5d4-dc76-48b5-a95a-85637837b039","system_id":"levelo_inurba_marseille","lat":43.28487,"lon":5.38548,"is_reserved":false,"is_disabled":false,"rental_uris":{"android":"levelo://app?vid=9382d5d4-dc76-48b5-a95a-85637837b039","ios":"levelo://app?vid=9382d5d4-dc76-48b5-a95a-85637837b039"},"vehicle_type_id":"4","last_reported":1741878657,"current_range_meters":6400,"station_id":"ce4bh8p2rcd13ifvqeb0","pricing_plan_id":"cebpf4jnsgd1na2vs0mg"},{"bike_id":"8a5be889-430b-4f3c-ad97-bb7a2b97f12e","system_id":"levelo_inurba_marseille","lat":43.29548,"lon":5.42278,"is_reserved":false,"is_disabled":false,"rental_uris":{"android":"levelo://app?vid=8a5be889-430b-4f3c-ad97-bb7a2b97f12e","ios":"levelo://app?vid=8a5be889-430b-4f3c-ad97-bb7a2b97f12e"},"vehicle_type_id":"4","last_reported":1741878657,"current_range_meters":6800,"station_id":"ce4bhph2rcd13ifvqhdg","pricing_plan_id":"cebpf4jnsgd1na2vs0mg"},{"bike_id":"f7cdc0ba-7a2a-4f87-b096-fe9d38686168","system_id":"levelo_inurba_marseille","lat":43.30874,"lon":5.39639,"is_reserved":false,"is_disabled":false,"rental_uris":{"android":"levelo://app?vid=f7cdc0ba-7a2a-4f87-b096-fe9d38686168","ios":"levelo://app?vid=f7cdc0ba-7a2a-4f87-b096-fe9d38686168"},"vehicle_type_id":"4","last_reported":1741878657,"current_range_meters":6800,"station_id":"ce4bh012rcd13ifvqcv0","pricing_plan_id":"cebpf4jnsgd1na2vs0mg"},{"bike_id":"57dd54e3-4a62-4d62-a03b-5320a176e579","system_id":"levelo_inurba_marseille","lat":43.24174,"lon":5.36404,"is_reserved":false,"is_disabled":false,"rental_uris":{"android":"levelo://app?vid=57dd54e3-4a62-4d62-a03b-5320a176e579","ios":"levelo://app?vid=57dd54e3-4a62-4d62-a03b-5320a176e579"},"vehicle_type_id":"4","last_reported":1741878657,"current_range_meters":6800,"station_id":"cpo36qri1sfpv3e86is0","pricing_plan_id":"cebpf4jnsgd1na2vs0mg"},{"bike_id":"f1077625-0232-49a4-a55f-c012ff95a0be","system_id":"levelo_inurba_marseille","lat":43.23964,"lon":5.36638,"is_reserved":false,"is_disabled":false,"rental_uris":{"android":"levelo://app?vid=f1077625-0232-49a4-a55f-c012ff95a0be","ios":"levelo://app?vid=f1077625-0232-49a4-a55f-c012ff95a0be"},"vehicle_type_id":"4","last_reported":1741878657,"current_range_meters":6800,"station_id":"ce4bhi12rcd13ifvqfp0","pricing_plan_id":"cebpf4jnsgd1na2vs0mg"},{"bike_id":"fb03e9b9-f1d4-4d2f-8575-deaaf2914ec9","system_id":"levelo_inurba_marseille","lat":43.24061,"lon":5.37695,"is_reserved":false,"is_disabled":false,"rental_uris":{"android":"levelo://app?vid=fb03e9b9-f1d4-4d2f-8575-deaaf2914ec9","ios":"levelo://app?vid=fb03e9b9-f1d4-4d2f-8575-deaaf2914ec9"},"vehicle_type_id":"4","last_reported":1741878657,"current_range_meters":6800,"station_id":"","pricing_plan_id":"cebpf4jnsgd1na2vs0mg"},{"bike_id":"616a435f-89dc-43cc-870e-cd4d9550de2e","system_id":"levelo_inurba_marseille","lat":43.31415,"lon":5.3763,"is_reserved":false,"is_disabled":false,"rental_uris":{"android":"levelo://app?vid=616a435f-89dc-43cc-870e-cd4d9550de2e","ios":"levelo://app?vid=616a435f-89dc-43cc-870e-cd4d9550de2e"},"vehicle_type_id":"4","last_reported":1741878657,"current_range_meters":6800,"station_id":"","pricing_plan_id":"cebpf4jnsgd1na2vs0mg"},{"bike_id":"99cd4659-bcc4-4174-a160-083ddf3d852d","system_id":"levelo_inurba_marseille","lat":43.27921,"lon":5.39593,"is_reserved":false,"is_disabled":false,"rental_uris":{"android":"levelo://app?vid=99cd4659-bcc4-4174-a160-083ddf3d852d","ios":"levelo://app?vid=99cd4659-bcc4-4174-a160-083ddf3d852d"},"vehicle_type_id":"4","last_reported":1741878657,"current_range_meters":6800,"station_id":"ce4bhf92rcd13ifvqf40","pricing_plan_id":"cebpf4jnsgd1na2vs0mg"},{"bike_id":"cb567277-cc92-473f-ba27-13f9d7cbb613","system_id":"levelo_inurba_marseille","lat":43.25014,"lon":5.3892,"is_reserved":false,"is_disabled":false,"rental_uris":{"android":"levelo://app?vid=cb567277-cc92-473f-ba27-13f9d7cbb613","ios":"levelo://app?vid=cb567277-cc92-473f-ba27-13f9d7cbb613"},"vehicle_type_id":"4","last_reported":1741878657,"current_range_meters":6800,"station_id":"ce4bhgp2rcd13ifvqfd0","pricing_plan_id":"cebpf4jnsgd1na2vs0mg"},{"bike_id":"2053d644-c7c1-4a84-85e5-e0d75fa3de3a","system_id":"levelo_inurba_marseille","lat":43.26223,"lon":5.40461,"is_reserved":false,"is_disabled":false,"rental_uris":{"android":"levelo://app?vid=2053d644-c7c1-4a84-85e5-e0d75fa3de3a","ios":"levelo://app?vid=2053d644-c7c1-4a84-85e5-e0d75fa3de3a"},"vehicle_type_id":"4","last_reported":1741878657,"current_range_meters":6800,"station_id":"ce4bhmh2rcd13ifvqgmg","pricing_plan_id":"cebpf4jnsgd1na2vs0mg"},{"bike_id":"893bdc0a-7e9a-4873-a8a2-1e6fabc41830","system_id":"levelo_inurba_marseille","lat":43.24803,"lon":5.37454,"is_reserved":false,"is_disabled":false,"rental_uris":{"android":"levelo://app?vid=893bdc0a-7e9a-4873-a8a2-1e6fabc41830","ios":"levelo://app?vid=893bdc0a-7e9a-4873-a8a2-1e6fabc41830"},"vehicle_type_id":"4","last_reported":1741878657,"current_range_meters":6400,"station_id":"ce4bhgh2rcd13ifvqfb0","pricing_plan_id":"cebpf4jnsgd1na2vs0mg"},{"bike_id":"7550c391-01d9-4834-9e87-9084864d0260","system_id":"levelo_inurba_marseille","lat":43.29421,"lon":5.38626,"is_reserved":false,"is_disabled":false,"rental_uris":{"android":"levelo://app?vid=7550c391-01d9-4834-9e87-9084864d0260","ios":"levelo://app?vid=7550c391-01d9-4834-9e87-9084864d0260"},"vehicle_type_id":"4","last_reported":1741878657,"current_range_meters":7200,"station_id":"ce4bh2h2rcd13ifvqdh0","pricing_plan_id":"cebpf4jnsgd1na2vs0mg"},{"bike_id":"e872f5ef-8b73-4001-8ad4-057654930544","system_id":"levelo_inurba_marseille","lat":43.30225,"lon":5.40035,"is_reserved":false,"is_disabled":true,"rental_uris":{"android":"levelo://app?vid=e872f5ef-8b73-4001-8ad4-057654930544","ios":"levelo://app?vid=e872f5ef-8b73-4001-8ad4-057654930544"},"vehicle_type_id":"4","last_reported":1741878657,"current_range_meters":7200,"station_id":"ce4bgvh2rcd13ifvqcs0","pricing_plan_id":"cebpf4jnsgd1na2vs0mg"},{"bike_id":"38294457-b8fd-4730-b5aa-3748c651b319","system_id":"levelo_inurba_marseille","lat":43.2314,"lon":5.43713,"is_reserved":false,"is_disabled":false,"rental_uris":{"android":"levelo://app?vid=38294457-b8fd-4730-b5aa-3748c651b319","ios":"levelo://app?vid=38294457-b8fd-4730-b5aa-3748c651b319"},"vehicle_type_id":"4","last_reported":1741878657,"current_range_meters":7200,"station_id":"ce4bhmp2rcd13ifvqgog","pricing_plan_id":"cebpf4jnsgd1na2vs0mg"},{"bike_id":"7f97dab3-6641-4c6a-9b12-3940cae11793","system_id":"levelo_inurba_marseille","lat":43.25005,"lon":5.38924,"is_reserved":false,"is_disabled":false,"rental_uris":{"android":"levelo://app?vid=7f97dab3-6641-4c6a-9b12-3940cae11793","ios":"levelo://app?vid=7f97dab3-6641-4c6a-9b12-3940cae11793"},"vehicle_type_id":"4","last_reported":1741878657,"current_range_meters":7200,"station_id":"ce4bhgp2rcd13ifvqfd0","pricing_plan_id":"cebpf4jnsgd1na2vs0mg"},{"bike_id":"32aebc3a-14c2-412a-9dd1-139c73270c7f","system_id":"levelo_inurba_marseille","lat":43.24997,"lon":5.38922,"is_reserved":false,"is_disabled":false,"rental_uris":{"android":"levelo://app?vid=32aebc3a-14c2-412a-9dd1-139c73270c7f","ios":"levelo://app?vid=32aebc3a-14c2-412a-9dd1-139c73270c7f"},"vehicle_type_id":"4","last_reported":1741878657,"current_range_meters":7200,"station_id":"ce4bhgp2rcd13ifvqfd0","pricing_plan_id":"cebpf4jnsgd1na2vs0mg"},{"bike_id":"61627851-8e2e-4a83-8a95-5eb2e68925c3","system_id":"levelo_inurba_marseille","lat":43.30462,"lon":5.37907,"is_reserved":false,"is_disabled":false,"rental_uris":{"android":"levelo://app?vid=61627851-8e2e-4a83-8a95-5eb2e68925c3","ios":"levelo://app?vid=61627851-8e2e-4a83-8a95-5eb2e68925c3"},"vehicle_type_id":"4","last_reported":1741878657,"current_range_meters":6000,"station_id":"ce4bgup2rcd13ifvqcn0","pricing_plan_id":"cebpf4jnsgd1na2vs0mg"},{"bike_id":"2fe54254-5b11-4939-bb74-6fb31c1295ea","system_id":"levelo_inurba_marseille","lat":43.22934,"lon":5.35379,"is_reserved":false,"is_disabled":false,"rental_uris":{"android":"levelo://app?vid=2fe54254-5b11-4939-bb74-6fb31c1295ea","ios":"levelo://app?vid=2fe54254-5b11-4939-bb74-6fb31c1295ea"},"vehicle_type_id":"4","last_reported":1741878657,"current_range_meters":7200,"station_id":"cpo3532slgdg3j2ikp40","pricing_plan_id":"cebpf4jnsgd1na2vs0mg"},{"bike_id":"15818832-22a2-4c03-b56c-fcfd42f5fb3f","system_id":"levelo_inurba_marseille","lat":43.25116,"lon":5.40339,"is_reserved":false,"is_disabled":false,"rental_uris":{"android":"levelo://app?vid=15818832-22a2-4c03-b56c-fcfd42f5fb3f","ios":"levelo://app?vid=15818832-22a2-4c03-b56c-fcfd42f5fb3f"},"vehicle_type_id":"4","last_reported":1741878657,"current_range_meters":7200,"station_id":"ce4bhlh2rcd13ifvqgig","pricing_plan_id":"cebpf4jnsgd1na2vs0mg"},{"bike_id":"6f6ef043-efb8-4b83-872c-7a4cc9a3416b","system_id":"levelo_inurba_marseille","lat":43.29597,"lon":5.38093,"is_reserved":false,"is_disabled":false,"rental_uris":{"android":"levelo://app?vid=6f6ef043-efb8-4b83-872c-7a4cc9a3416b","ios":"levelo://app?vid=6f6ef043-efb8-4b83-872c-7a4cc9a3416b"},"vehicle_type_id":"4","last_reported":1741878657,"current_range_meters":7200,"station_id":"ce4bgl12rcd13ifvqbo0","pricing_plan_id":"cebpf4jnsgd1na2vs0mg"},{"bike_id":"1bcce178-7e11-4c71-8837-7b1748cf932f","system_id":"levelo_inurba_marseille","lat":43.30381,"lon":5.42489,"is_reserved":false,"is_disabled":false,"rental_uris":{"android":"levelo://app?vid=1bcce178-7e11-4c71-8837-7b1748cf932f","ios":"levelo://app?vid=1bcce178-7e11-4c71-8837-7b1748cf932f"},"vehicle_type_id":"4","last_reported":1741878657,"current_range_meters":7200,"station_id":"","pricing_plan_id":"cebpf4jnsgd1na2vs0mg"},{"bike_id":"5267ad1b-f93f-4481-9855-8217bf7c42bf","system_id":"levelo_inurba_marseille","lat":43.28458,"lon":5.35894,"is_reserved":false,"is_disabled":false,"rental_uris":{"android":"levelo://app?vid=5267ad1b-f93f-4481-9855-8217bf7c42bf","ios":"levelo://app?vid=5267ad1b-f93f-4481-9855-8217bf7c42bf"},"vehicle_type_id":"4","last_reported":1741878657,"current_range_meters":7200,"station_id":"ce4bhah2rcd13ifvqei0","pricing_plan_id":"cebpf4jnsgd1na2vs0mg"},{"bike_id":"1f76633c-3d51-45d2-954c-a1b95e71ccca","system_id":"levelo_inurba_marseille","lat":43.26948,"lon":5.38912,"is_reserved":false,"is_disabled":false,"rental_uris":{"android":"levelo://app?vid=1f76633c-3d51-45d2-954c-a1b95e71ccca","ios":"levelo://app?vid=1f76633c-3d51-45d2-954c-a1b95e71ccca"},"vehicle_type_id":"4","last_reported":1741878657,"current_range_meters":7200,"station_id":"ce4bhhh2rcd13ifvqfl0","pricing_plan_id":"cebpf4jnsgd1na2vs0mg"},{"bike_id":"d5ae4600-476e-4c8a-b248-76c73ec9f040","system_id":"levelo_inurba_marseille","lat":43.25002,"lon":5.38916,"is_reserved":false,"is_disabled":false,"rental_uris":{"android":"levelo://app?vid=d5ae4600-476e-4c8a-b248-76c73ec9f040","ios":"levelo://app?vid=d5ae4600-476e-4c8a-b248-76c73ec9f040"},"vehicle_type_id":"4","last_reported":1741878657,"current_range_meters":8000,"station_id":"ce4bhgp2rcd13ifvqfd0","pricing_plan_id":"cebpf4jnsgd1na2vs0mg"},{"bike_id":"ce9250ff-4229-4ccb-a37a-4b380950241a","system_id":"levelo_inurba_marseille","lat":43.24676,"lon":5.3817,"is_reserved":false,"is_disabled":false,"rental_uris":{"android":"levelo://app?vid=ce9250ff-4229-4ccb-a37a-4b380950241a","ios":"levelo://app?vid=ce9250ff-4229-4ccb-a37a-4b380950241a"},"vehicle_type_id":"4","last_reported":1741878657,"current_range_meters":8000,"station_id":"ce4bhih2rcd13ifvqfr0","pricing_plan_id":"cebpf4jnsgd1na2vs0mg"},{"bike_id":"7e65070e-6c15-4341-96fb-ed9623cd63f0","system_id":"levelo_inurba_marseille","lat":43.29284,"lon":5.40123,"is_reserved":false,"is_disabled":false,"rental_uris":{"android":"levelo://app?vid=7e65070e-6c15-4341-96fb-ed9623cd63f0","ios":"levelo://app?vid=7e65070e-6c15-4341-96fb-ed9623cd63f0"},"vehicle_type_id":"4","last_reported":1741878657,"current_range_meters":8000,"station_id":"ce4bh312rcd13ifvqdk0","pricing_plan_id":"cebpf4jnsgd1na2vs0mg"},{"bike_id":"d9d3d121-f0d7-4508-af8c-81d54a419f97","system_id":"levelo_inurba_marseille","lat":43.2994,"lon":5.36548,"is_reserved":false,"is_disabled":false,"rental_uris":{"android":"levelo://app?vid=d9d3d121-f0d7-4508-af8c-81d54a419f97","ios":"levelo://app?vid=d9d3d121-f0d7-4508-af8c-81d54a419f97"},"vehicle_type_id":"4","last_reported":1741878657,"current_range_meters":8000,"station_id":"ce4bgm92rcd13ifvqbr0","pricing_plan_id":"cebpf4jnsgd1na2vs0mg"},{"bike_id":"d7d0cdbd-3f6b-4af6-9958-1322ed4e09c5","system_id":"levelo_inurba_marseille","lat":43.31042,"lon":5.3758,"is_reserved":false,"is_disabled":false,"rental_uris":{"android":"levelo://app?vid=d7d0cdbd-3f6b-4af6-9958-1322ed4e09c5","ios":"levelo://app?vid=d7d0cdbd-3f6b-4af6-9958-1322ed4e09c5"},"vehicle_type_id":"4","last_reported":1741878657,"current_range_meters":8000,"station_id":"","pricing_plan_id":"cebpf4jnsgd1na2vs0mg"},{"bike_id":"0ee2dac3-b8d8-4a8c-840b-7a7016cdb4f3","system_id":"levelo_inurba_marseille","lat":43.30426,"lon":5.39749,"is_reserved":false,"is_disabled":false,"rental_uris":{"android":"levelo://app?vid=0ee2dac3-b8d8-4a8c-840b-7a7016cdb4f3","ios":"levelo://app?vid=0ee2dac3-b8d8-4a8c-840b-7a7016cdb4f3"},"vehicle_type_id":"4","last_reported":1741878657,"current_range_meters":8000,"station_id":"ce4bh092rcd13ifvqd20","pricing_plan_id":"cebpf4jnsgd1na2vs0mg"},{"bike_id":"cc8a2482-a3e5-474a-a273-2523eaeb753f","system_id":"levelo_inurba_marseille","lat":43.26782,"lon":5.39421,"is_reserved":false,"is_disabled":false,"rental_uris":{"android":"levelo://app?vid=cc8a2482-a3e5-474a-a273-2523eaeb753f","ios":"levelo://app?vid=cc8a2482-a3e5-474a-a273-2523eaeb753f"},"vehicle_type_id":"4","last_reported":1741878657,"current_range_meters":8000,"station_id":"ce4bhh12rcd13ifvqfg0","pricing_plan_id":"cebpf4jnsgd1na2vs0mg"},{"bike_id":"7e88b6c2-925f-4ed5-9881-a1e5cd09e856","system_id":"levelo_inurba_marseille","lat":43.3133,"lon":5.39695,"is_reserved":false,"is_disabled":false,"rental_uris":{"android":"levelo://app?vid=7e88b6c2-925f-4ed5-9881-a1e5cd09e856","ios":"levelo://app?vid=7e88b6c2-925f-4ed5-9881-a1e5cd09e856"},"vehicle_type_id":"4","last_reported":1741878657,"current_range_meters":8000,"station_id":"ce4bgvp2rcd13ifvqcu0","pricing_plan_id":"cebpf4jnsgd1na2vs0mg"},{"bike_id":"b945d8d0-7f7e-44e7-a580-44ad2dfbe250","system_id":"levelo_inurba_marseille","lat":43.25932,"lon":5.40919,"is_reserved":false,"is_disabled":false,"rental_uris":{"android":"levelo://app?vid=b945d8d0-7f7e-44e7-a580-44ad2dfbe250","ios":"levelo://app?vid=b945d8d0-7f7e-44e7-a580-44ad2dfbe250"},"vehicle_type_id":"4","last_reported":1741878657,"current_range_meters":8000,"station_id":"ce4bhm92rcd13ifvqglg","pricing_plan_id":"cebpf4jnsgd1na2vs0mg"},{"bike_id":"7534fd57-2f73-402a-939e-490397703aff","system_id":"levelo_inurba_marseille","lat":43.27501,"lon":5.42453,"is_reserved":false,"is_disabled":false,"rental_uris":{"android":"levelo://app?vid=7534fd57-2f73-402a-939e-490397703aff","ios":"levelo://app?vid=7534fd57-2f73-402a-939e-490397703aff"},"vehicle_type_id":"4","last_reported":1741878657,"current_range_meters":8000,"station_id":"ce4bhn92rcd13ifvqgrg","pricing_plan_id":"cebpf4jnsgd1na2vs0mg"},{"bike_id":"5b7dcee6-e15c-472e-a498-5a10b2578633","system_id":"levelo_inurba_marseille","lat":43.30377,"lon":5.42495,"is_reserved":false,"is_disabled":false,"rental_uris":{"android":"levelo://app?vid=5b7dcee6-e15c-472e-a498-5a10b2578633","ios":"levelo://app?vid=5b7dcee6-e15c-472e-a498-5a10b2578633"},"vehicle_type_id":"4","last_reported":1741878657,"current_range_meters":8000,"station_id":"ce4bghh2rcd13ifvqb60","pricing_plan_id":"cebpf4jnsgd1na2vs0mg"},{"bike_id":"931a65f6-98be-4189-b167-a49aeaf4dc43","system_id":"levelo_inurba_marseille","lat":43.25014,"lon":5.3893,"is_reserved":false,"is_disabled":false,"rental_uris":{"android":"levelo://app?vid=931a65f6-98be-4189-b167-a49aeaf4dc43","ios":"levelo://app?vid=931a65f6-98be-4189-b167-a49aeaf4dc43"},"vehicle_type_id":"4","last_reported":1741878657,"current_range_meters":8000,"station_id":"ce4bhgp2rcd13ifvqfd0","pricing_plan_id":"cebpf4jnsgd1na2vs0mg"},{"bike_id":"8a01a9ee-0b5d-4dcf-86c8-3a55476e2aa0","system_id":"levelo_inurba_marseille","lat":43.24077,"lon":5.3775,"is_reserved":false,"is_disabled":false,"rental_uris":{"android":"levelo://app?vid=8a01a9ee-0b5d-4dcf-86c8-3a55476e2aa0","ios":"levelo://app?vid=8a01a9ee-0b5d-4dcf-86c8-3a55476e2aa0"},"vehicle_type_id":"4","last_reported":1741878657,"current_range_meters":8000,"station_id":"ce4bhnp2rcd13ifvqgvg","pricing_plan_id":"cebpf4jnsgd1na2vs0mg"},{"bike_id":"d7cf3da4-03cf-4eae-b183-47670a6b872f","system_id":"levelo_inurba_marseille","lat":43.232,"lon":5.35566,"is_reserved":false,"is_disabled":false,"rental_uris":{"android":"levelo://app?vid=d7cf3da4-03cf-4eae-b183-47670a6b872f","ios":"levelo://app?vid=d7cf3da4-03cf-4eae-b183-47670a6b872f"},"vehicle_type_id":"4","last_reported":1741878657,"current_range_meters":8400,"station_id":"ce4bhu92rcd13ifvqi70","pricing_plan_id":"cebpf4jnsgd1na2vs0mg"},{"bike_id":"8fa97a8a-6064-4461-a3d2-508d7bf21a46","system_id":"levelo_inurba_marseille","lat":43.30781,"lon":5.3766,"is_reserved":false,"is_disabled":false,"rental_uris":{"android":"levelo://app?vid=8fa97a8a-6064-4461-a3d2-508d7bf21a46","ios":"levelo://app?vid=8fa97a8a-6064-4461-a3d2-508d7bf21a46"},"vehicle_type_id":"4","last_reported":1741878657,"current_range_meters":8400,"station_id":"ce4bgv92rcd13ifvqcq0","pricing_plan_id":"cebpf4jnsgd1na2vs0mg"},{"bike_id":"ccde3be1-4144-427e-acc2-fed605e4915f","system_id":"levelo_inurba_marseille","lat":43.28101,"lon":5.39844,"is_reserved":false,"is_disabled":false,"rental_uris":{"android":"levelo://app?vid=ccde3be1-4144-427e-acc2-fed605e4915f","ios":"levelo://app?vid=ccde3be1-4144-427e-acc2-fed605e4915f"},"vehicle_type_id":"4","last_reported":1741878657,"current_range_meters":8400,"station_id":"","pricing_plan_id":"cebpf4jnsgd1na2vs0mg"},{"bike_id":"66dedbcd-86e4-4407-9834-f963fc926dd0","system_id":"levelo_inurba_marseille","lat":43.26569,"lon":5.37282,"is_reserved":false,"is_disabled":false,"rental_uris":{"android":"levelo://app?vid=66dedbcd-86e4-4407-9834-f963fc926dd0","ios":"levelo://app?vid=66dedbcd-86e4-4407-9834-f963fc926dd0"},"vehicle_type_id":"4","last_reported":1741878657,"current_range_meters":8400,"station_id":"ce4bhg12rcd13ifvqf70","pricing_plan_id":"cebpf4jnsgd1na2vs0mg"},{"bike_id":"060975f0-9c7a-428e-9ead-ef621294f129","system_id":"levelo_inurba_marseille","lat":43.31074,"lon":5.38355,"is_reserved":false,"is_disabled":false,"rental_uris":{"android":"levelo://app?vid=060975f0-9c7a-428e-9ead-ef621294f129","ios":"levelo://app?vid=060975f0-9c7a-428e-9ead-ef621294f129"},"vehicle_type_id":"4","last_reported":1741878657,"current_range_meters":8400,"station_id":"ce4bgv92rcd13ifvqcr0","pricing_plan_id":"cebpf4jnsgd1na2vs0mg"},{"bike_id":"6c58e2e0-6c43-4bd8-b702-60260c436f60","system_id":"levelo_inurba_marseille","lat":43.2848,"lon":5.38562,"is_reserved":false,"is_disabled":false,"rental_uris":{"android":"levelo://app?vid=6c58e2e0-6c43-4bd8-b702-60260c436f60","ios":"levelo://app?vid=6c58e2e0-6c43-4bd8-b702-60260c436f60"},"vehicle_type_id":"4","last_reported":1741878657,"current_range_meters":8800,"station_id":"ce4bh8p2rcd13ifvqeb0","pricing_plan_id":"cebpf4jnsgd1na2vs0mg"},{"bike_id":"df75ef7e-eb41-40b8-adf2-b9943ab360fb","system_id":"levelo_inurba_marseille","lat":43.30097,"lon":5.39081,"is_reserved":false,"is_disabled":false,"rental_uris":{"android":"levelo://app?vid=df75ef7e-eb41-40b8-adf2-b9943ab360fb","ios":"levelo://app?vid=df75ef7e-eb41-40b8-adf2-b9943ab360fb"},"vehicle_type_id":"4","last_reported":1741878657,"current_range_meters":8800,"station_id":"ce4bh192rcd13ifvqdb0","pricing_plan_id":"cebpf4jnsgd1na2vs0mg"},{"bike_id":"da92525d-691b-4e51-989f-b5c466d8ec4c","system_id":"levelo_inurba_marseille","lat":43.22939,"lon":5.35369,"is_reserved":false,"is_disabled":false,"rental_uris":{"android":"levelo://app?vid=da92525d-691b-4e51-989f-b5c466d8ec4c","ios":"levelo://app?vid=da92525d-691b-4e51-989f-b5c466d8ec4c"},"vehicle_type_id":"4","last_reported":1741878657,"current_range_meters":8800,"station_id":"cpo3532slgdg3j2ikp40","pricing_plan_id":"cebpf4jnsgd1na2vs0mg"},{"bike_id":"30e6ae21-5c95-4eb7-a4dc-48ab7b23a8d5","system_id":"levelo_inurba_marseille","lat":43.2903,"lon":5.38647,"is_reserved":false,"is_disabled":false,"rental_uris":{"android":"levelo://app?vid=30e6ae21-5c95-4eb7-a4dc-48ab7b23a8d5","ios":"levelo://app?vid=30e6ae21-5c95-4eb7-a4dc-48ab7b23a8d5"},"vehicle_type_id":"4","last_reported":1741878657,"current_range_meters":8800,"station_id":"ce4bh4p2rcd13ifvqe0g","pricing_plan_id":"cebpf4jnsgd1na2vs0mg"},{"bike_id":"02856e9e-87a0-4db1-8d36-2f035a3cb82d","system_id":"levelo_inurba_marseille","lat":43.25959,"lon":5.40905,"is_reserved":false,"is_disabled":false,"rental_uris":{"android":"levelo://app?vid=02856e9e-87a0-4db1-8d36-2f035a3cb82d","ios":"levelo://app?vid=02856e9e-87a0-4db1-8d36-2f035a3cb82d"},"vehicle_type_id":"4","last_reported":1741878657,"current_range_meters":8800,"station_id":"ce4bhm92rcd13ifvqglg","pricing_plan_id":"cebpf4jnsgd1na2vs0mg"},{"bike_id":"097b290e-bbf9-4c4b-b3f2-542c2279cfde","system_id":"levelo_inurba_marseille","lat":43.30126,"lon":5.37428,"is_reserved":false,"is_disabled":false,"rental_uris":{"android":"levelo://app?vid=097b290e-bbf9-4c4b-b3f2-542c2279cfde","ios":"levelo://app?vid=097b290e-bbf9-4c4b-b3f2-542c2279cfde"},"vehicle_type_id":"4","last_reported":1741878657,"current_range_meters":9200,"station_id":"ce4bgs92rcd13ifvqcc0","pricing_plan_id":"cebpf4jnsgd1na2vs0mg"},{"bike_id":"82a1cb21-cf9e-42c2-9fe9-2f009fecf735","system_id":"levelo_inurba_marseille","lat":43.29073,"lon":5.37171,"is_reserved":false,"is_disabled":false,"rental_uris":{"android":"levelo://app?vid=82a1cb21-cf9e-42c2-9fe9-2f009fecf735","ios":"levelo://app?vid=82a1cb21-cf9e-42c2-9fe9-2f009fecf735"},"vehicle_type_id":"4","last_reported":1741878657,"current_range_meters":8800,"station_id":"ce4bh5p2rcd13ifvqe4g","pricing_plan_id":"cebpf4jnsgd1na2vs0mg"},{"bike_id":"441d2ddc-39dd-48e4-898d-eee7c497f120","system_id":"levelo_inurba_marseille","lat":43.3054,"lon":5.36528,"is_reserved":false,"is_disabled":false,"rental_uris":{"android":"levelo://app?vid=441d2ddc-39dd-48e4-898d-eee7c497f120","ios":"levelo://app?vid=441d2ddc-39dd-48e4-898d-eee7c497f120"},"vehicle_type_id":"4","last_reported":1741878657,"current_range_meters":9200,"station_id":"ce4bgs12rcd13ifvqcag","pricing_plan_id":"cebpf4jnsgd1na2vs0mg"},{"bike_id":"798bdff5-b998-46d2-805f-b5ae7ef43bc6","system_id":"levelo_inurba_marseille","lat":43.30144,"lon":5.38074,"is_reserved":false,"is_disabled":false,"rental_uris":{"android":"levelo://app?vid=798bdff5-b998-46d2-805f-b5ae7ef43bc6","ios":"levelo://app?vid=798bdff5-b998-46d2-805f-b5ae7ef43bc6"},"vehicle_type_id":"4","last_reported":1741878657,"current_range_meters":9200,"station_id":"ce4bgjp2rcd13ifvqbh0","pricing_plan_id":"cebpf4jnsgd1na2vs0mg"},{"bike_id":"08eb2274-c9b3-451a-8129-7f28b1fd0985","system_id":"levelo_inurba_marseille","lat":43.26682,"lon":5.38267,"is_reserved":false,"is_disabled":false,"rental_uris":{"android":"levelo://app?vid=08eb2274-c9b3-451a-8129-7f28b1fd0985","ios":"levelo://app?vid=08eb2274-c9b3-451a-8129-7f28b1fd0985"},"vehicle_type_id":"4","last_reported":1741878657,"current_range_meters":9200,"station_id":"ce4bhg92rcd13ifvqf90","pricing_plan_id":"cebpf4jnsgd1na2vs0mg"},{"bike_id":"fe2dbfad-2b3c-45be-b26a-7ab6c0dcbc97","system_id":"levelo_inurba_marseille","lat":43.30158,"lon":5.37684,"is_reserved":false,"is_disabled":false,"rental_uris":{"android":"levelo://app?vid=fe2dbfad-2b3c-45be-b26a-7ab6c0dcbc97","ios":"levelo://app?vid=fe2dbfad-2b3c-45be-b26a-7ab6c0dcbc97"},"vehicle_type_id":"4","last_reported":1741878657,"current_range_meters":9200,"station_id":"","pricing_plan_id":"cebpf4jnsgd1na2vs0mg"},{"bike_id":"97ba1768-fb66-4214-8ccc-a93a364823cb","system_id":"levelo_inurba_marseille","lat":43.24177,"lon":5.39727,"is_reserved":false,"is_disabled":false,"rental_uris":{"android":"levelo://app?vid=97ba1768-fb66-4214-8ccc-a93a364823cb","ios":"levelo://app?vid=97ba1768-fb66-4214-8ccc-a93a364823cb"},"vehicle_type_id":"4","last_reported":1741878657,"current_range_meters":9200,"station_id":"ce4bhn12rcd13ifvqgpg","pricing_plan_id":"cebpf4jnsgd1na2vs0mg"},{"bike_id":"b3fead73-4c4c-401e-81a0-a7fad437c748","system_id":"levelo_inurba_marseille","lat":43.25027,"lon":5.38921,"is_reserved":false,"is_disabled":false,"rental_uris":{"android":"levelo://app?vid=b3fead73-4c4c-401e-81a0-a7fad437c748","ios":"levelo://app?vid=b3fead73-4c4c-401e-81a0-a7fad437c748"},"vehicle_type_id":"4","last_reported":1741878657,"current_range_meters":9200,"station_id":"ce4bhgp2rcd13ifvqfd0","pricing_plan_id":"cebpf4jnsgd1na2vs0mg"},{"bike_id":"aa308cfd-9139-4403-a420-046cc461e3cc","system_id":"levelo_inurba_marseille","lat":43.29982,"lon":5.36582,"is_reserved":false,"is_disabled":false,"rental_uris":{"android":"levelo://app?vid=aa308cfd-9139-4403-a420-046cc461e3cc","ios":"levelo://app?vid=aa308cfd-9139-4403-a420-046cc461e3cc"},"vehicle_type_id":"4","last_reported":1741878657,"current_range_meters":9200,"station_id":"","pricing_plan_id":"cebpf4jnsgd1na2vs0mg"},{"bike_id":"da2755da-e147-4ac1-a3a7-f5a31cd36490","system_id":"levelo_inurba_marseille","lat":43.23141,"lon":5.43711,"is_reserved":false,"is_disabled":false,"rental_uris":{"android":"levelo://app?vid=da2755da-e147-4ac1-a3a7-f5a31cd36490","ios":"levelo://app?vid=da2755da-e147-4ac1-a3a7-f5a31cd36490"},"vehicle_type_id":"4","last_reported":1741878657,"current_range_meters":9600,"station_id":"ce4bhmp2rcd13ifvqgog","pricing_plan_id":"cebpf4jnsgd1na2vs0mg"},{"bike_id":"cf295707-3f92-4ffd-8fa0-cb18518abe9e","system_id":"levelo_inurba_marseille","lat":43.26565,"lon":5.39026,"is_reserved":false,"is_disabled":false,"rental_uris":{"android":"levelo://app?vid=cf295707-3f92-4ffd-8fa0-cb18518abe9e","ios":"levelo://app?vid=cf295707-3f92-4ffd-8fa0-cb18518abe9e"},"vehicle_type_id":"4","last_reported":1741878657,"current_range_meters":9600,"station_id":"ce4bhe12rcd13ifvqf30","pricing_plan_id":"cebpf4jnsgd1na2vs0mg"},{"bike_id":"a2700207-e47d-4273-8901-cf86d647c953","system_id":"levelo_inurba_marseille","lat":43.2408,"lon":5.37734,"is_reserved":false,"is_disabled":false,"rental_uris":{"android":"levelo://app?vid=a2700207-e47d-4273-8901-cf86d647c953","ios":"levelo://app?vid=a2700207-e47d-4273-8901-cf86d647c953"},"vehicle_type_id":"4","last_reported":1741878657,"current_range_meters":9600,"station_id":"ce4bhnp2rcd13ifvqgvg","pricing_plan_id":"cebpf4jnsgd1na2vs0mg"},{"bike_id":"b6d8ba2a-aca4-4c1c-a0ae-1b9b91f76e1f","system_id":"levelo_inurba_marseille","lat":43.26551,"lon":5.37292,"is_reserved":false,"is_disabled":false,"rental_uris":{"android":"levelo://app?vid=b6d8ba2a-aca4-4c1c-a0ae-1b9b91f76e1f","ios":"levelo://app?vid=b6d8ba2a-aca4-4c1c-a0ae-1b9b91f76e1f"},"vehicle_type_id":"4","last_reported":1741878657,"current_range_meters":9600,"station_id":"ce4bhg12rcd13ifvqf70","pricing_plan_id":"cebpf4jnsgd1na2vs0mg"},{"bike_id":"36ebfc17-b6ab-4767-a5e0-c94c11aba8a2","system_id":"levelo_inurba_marseille","lat":43.3237,"lon":5.38879,"is_reserved":false,"is_disabled":false,"rental_uris":{"android":"levelo://app?vid=36ebfc17-b6ab-4767-a5e0-c94c11aba8a2","ios":"levelo://app?vid=36ebfc17-b6ab-4767-a5e0-c94c11aba8a2"},"vehicle_type_id":"4","last_reported":1741878657,"current_range_meters":9600,"station_id":"ce4bhqp2rcd13ifvqhog","pricing_plan_id":"cebpf4jnsgd1na2vs0mg"},{"bike_id":"2842753e-5477-489c-a6b0-3974e403c98e","system_id":"levelo_inurba_marseille","lat":43.28157,"lon":5.4265,"is_reserved":false,"is_disabled":false,"rental_uris":{"android":"levelo://app?vid=2842753e-5477-489c-a6b0-3974e403c98e","ios":"levelo://app?vid=2842753e-5477-489c-a6b0-3974e403c98e"},"vehicle_type_id":"4","last_reported":1741878657,"current_range_meters":9200,"station_id":"ce4bhnh2rcd13ifvqgug","pricing_plan_id":"cebpf4jnsgd1na2vs0mg"},{"bike_id":"38c88b08-41ba-4381-9de5-3b8ecb213ecf","system_id":"levelo_inurba_marseille","lat":43.29934,"lon":5.36538,"is_reserved":false,"is_disabled":false,"rental_uris":{"android":"levelo://app?vid=38c88b08-41ba-4381-9de5-3b8ecb213ecf","ios":"levelo://app?vid=38c88b08-41ba-4381-9de5-3b8ecb213ecf"},"vehicle_type_id":"4","last_reported":1741878657,"current_range_meters":10000,"station_id":"ce4bgm92rcd13ifvqbr0","pricing_plan_id":"cebpf4jnsgd1na2vs0mg"},{"bike_id":"f6f5ba21-d718-4c67-9381-1147138e897f","system_id":"levelo_inurba_marseille","lat":43.31074,"lon":5.38354,"is_reserved":false,"is_disabled":false,"rental_uris":{"android":"levelo://app?vid=f6f5ba21-d718-4c67-9381-1147138e897f","ios":"levelo://app?vid=f6f5ba21-d718-4c67-9381-1147138e897f"},"vehicle_type_id":"4","last_reported":1741878657,"current_range_meters":10000,"station_id":"ce4bgv92rcd13ifvqcr0","pricing_plan_id":"cebpf4jnsgd1na2vs0mg"},{"bike_id":"154d0f4a-7cf1-4b4a-8919-807104d462e1","system_id":"levelo_inurba_marseille","lat":43.26661,"lon":5.38627,"is_reserved":false,"is_disabled":false,"rental_uris":{"android":"levelo://app?vid=154d0f4a-7cf1-4b4a-8919-807104d462e1","ios":"levelo://app?vid=154d0f4a-7cf1-4b4a-8919-807104d462e1"},"vehicle_type_id":"4","last_reported":1741878657,"current_range_meters":10000,"station_id":"","pricing_plan_id":"cebpf4jnsgd1na2vs0mg"},{"bike_id":"c70ff858-da45-4440-82e8-29c6ebe7e2f7","system_id":"levelo_inurba_marseille","lat":43.31686,"lon":5.40473,"is_reserved":false,"is_disabled":false,"rental_uris":{"android":"levelo://app?vid=c70ff858-da45-4440-82e8-29c6ebe7e2f7","ios":"levelo://app?vid=c70ff858-da45-4440-82e8-29c6ebe7e2f7"},"vehicle_type_id":"4","last_reported":1741878657,"current_range_meters":10000,"station_id":"ce4bh012rcd13ifvqd00","pricing_plan_id":"cebpf4jnsgd1na2vs0mg"},{"bike_id":"1cbeb49c-8d51-46f2-ad03-8af78ea79d9a","system_id":"levelo_inurba_marseille","lat":43.24173,"lon":5.39691,"is_reserved":false,"is_disabled":false,"rental_uris":{"android":"levelo://app?vid=1cbeb49c-8d51-46f2-ad03-8af78ea79d9a","ios":"levelo://app?vid=1cbeb49c-8d51-46f2-ad03-8af78ea79d9a"},"vehicle_type_id":"4","last_reported":1741878657,"current_range_meters":10000,"station_id":"ce4bhn12rcd13ifvqgpg","pricing_plan_id":"cebpf4jnsgd1na2vs0mg"},{"bike_id":"d0be61ee-8c6c-4bf7-99b6-f099a281a656","system_id":"levelo_inurba_marseille","lat":43.24987,"lon":5.38937,"is_reserved":false,"is_disabled":false,"rental_uris":{"android":"levelo://app?vid=d0be61ee-8c6c-4bf7-99b6-f099a281a656","ios":"levelo://app?vid=d0be61ee-8c6c-4bf7-99b6-f099a281a656"},"vehicle_type_id":"4","last_reported":1741878657,"current_range_meters":10000,"station_id":"ce4bhgp2rcd13ifvqfd0","pricing_plan_id":"cebpf4jnsgd1na2vs0mg"},{"bike_id":"5a0002da-b687-4872-932d-20fcc86b0c9d","system_id":"levelo_inurba_marseille","lat":43.25004,"lon":5.38921,"is_reserved":false,"is_disabled":false,"rental_uris":{"android":"levelo://app?vid=5a0002da-b687-4872-932d-20fcc86b0c9d","ios":"levelo://app?vid=5a0002da-b687-4872-932d-20fcc86b0c9d"},"vehicle_type_id":"4","last_reported":1741878657,"current_range_meters":10800,"station_id":"ce4bhgp2rcd13ifvqfd0","pricing_plan_id":"cebpf4jnsgd1na2vs0mg"},{"bike_id":"abb4d827-d99d-447a-b69c-566f9402f115","system_id":"levelo_inurba_marseille","lat":43.259277,"lon":5.40908,"is_reserved":false,"is_disabled":false,"rental_uris":{"android":"levelo://app?vid=abb4d827-d99d-447a-b69c-566f9402f115","ios":"levelo://app?vid=abb4d827-d99d-447a-b69c-566f9402f115"},"vehicle_type_id":"4","last_reported":1741878657,"current_range_meters":10800,"station_id":"ce4bhm92rcd13ifvqglg","pricing_plan_id":"cebpf4jnsgd1na2vs0mg"},{"bike_id":"d041a7b5-732c-474f-b556-c0142a8f7b8d","system_id":"levelo_inurba_marseille","lat":43.31227,"lon":5.3685,"is_reserved":false,"is_disabled":false,"rental_uris":{"android":"levelo://app?vid=d041a7b5-732c-474f-b556-c0142a8f7b8d","ios":"levelo://app?vid=d041a7b5-732c-474f-b556-c0142a8f7b8d"},"vehicle_type_id":"4","last_reported":1741878657,"current_range_meters":10800,"station_id":"ce4bgl92rcd13ifvqbq0","pricing_plan_id":"cebpf4jnsgd1na2vs0mg"},{"bike_id":"00b489e6-2d1b-4399-99f8-fb9c65f26ebb","system_id":"levelo_inurba_marseille","lat":43.24068,"lon":5.37755,"is_reserved":false,"is_disabled":false,"rental_uris":{"android":"levelo://app?vid=00b489e6-2d1b-4399-99f8-fb9c65f26ebb","ios":"levelo://app?vid=00b489e6-2d1b-4399-99f8-fb9c65f26ebb"},"vehicle_type_id":"4","last_reported":1741878657,"current_range_meters":10800,"station_id":"ce4bhnp2rcd13ifvqgvg","pricing_plan_id":"cebpf4jnsgd1na2vs0mg"},{"bike_id":"1179ea35-4831-4438-984a-d67269a5255b","system_id":"levelo_inurba_marseille","lat":43.23198,"lon":5.35547,"is_reserved":false,"is_disabled":false,"rental_uris":{"android":"levelo://app?vid=1179ea35-4831-4438-984a-d67269a5255b","ios":"levelo://app?vid=1179ea35-4831-4438-984a-d67269a5255b"},"vehicle_type_id":"4","last_reported":1741878657,"current_range_meters":10800,"station_id":"ce4bhu92rcd13ifvqi70","pricing_plan_id":"cebpf4jnsgd1na2vs0mg"},{"bike_id":"079f3adc-4b20-4152-b0b0-dabdb04df937","system_id":"levelo_inurba_marseille","lat":43.29851,"lon":5.36258,"is_reserved":false,"is_disabled":false,"rental_uris":{"android":"levelo://app?vid=079f3adc-4b20-4152-b0b0-dabdb04df937","ios":"levelo://app?vid=079f3adc-4b20-4152-b0b0-dabdb04df937"},"vehicle_type_id":"4","last_reported":1741878657,"current_range_meters":10800,"station_id":"ce4bgpp2rcd13ifvqc3g","pricing_plan_id":"cebpf4jnsgd1na2vs0mg"},{"bike_id":"e1159280-824c-442f-9133-34af9cb17e18","system_id":"levelo_inurba_marseille","lat":43.28931,"lon":5.3664,"is_reserved":false,"is_disabled":false,"rental_uris":{"android":"levelo://app?vid=e1159280-824c-442f-9133-34af9cb17e18","ios":"levelo://app?vid=e1159280-824c-442f-9133-34af9cb17e18"},"vehicle_type_id":"4","last_reported":1741878657,"current_range_meters":11200,"station_id":"ce4bhap2rcd13ifvqek0","pricing_plan_id":"cebpf4jnsgd1na2vs0mg"},{"bike_id":"8cbc5110-832d-45be-af2c-061788770dd0","system_id":"levelo_inurba_marseille","lat":43.29417,"lon":5.38634,"is_reserved":false,"is_disabled":false,"rental_uris":{"android":"levelo://app?vid=8cbc5110-832d-45be-af2c-061788770dd0","ios":"levelo://app?vid=8cbc5110-832d-45be-af2c-061788770dd0"},"vehicle_type_id":"4","last_reported":1741878657,"current_range_meters":11200,"station_id":"ce4bh2h2rcd13ifvqdh0","pricing_plan_id":"cebpf4jnsgd1na2vs0mg"},{"bike_id":"70d7825b-a30c-4b78-bae2-c7ac789d6f10","system_id":"levelo_inurba_marseille","lat":43.29859,"lon":5.36251,"is_reserved":false,"is_disabled":false,"rental_uris":{"android":"levelo://app?vid=70d7825b-a30c-4b78-bae2-c7ac789d6f10","ios":"levelo://app?vid=70d7825b-a30c-4b78-bae2-c7ac789d6f10"},"vehicle_type_id":"4","last_reported":1741878657,"current_range_meters":11200,"station_id":"ce4bgpp2rcd13ifvqc3g","pricing_plan_id":"cebpf4jnsgd1na2vs0mg"},{"bike_id":"4760c4a3-2ebc-4787-9bfd-517781e41b15","system_id":"levelo_inurba_marseille","lat":43.28607,"lon":5.37071,"is_reserved":false,"is_disabled":false,"rental_uris":{"android":"levelo://app?vid=4760c4a3-2ebc-4787-9bfd-517781e41b15","ios":"levelo://app?vid=4760c4a3-2ebc-4787-9bfd-517781e41b15"},"vehicle_type_id":"4","last_reported":1741878657,"current_range_meters":11200,"station_id":"ce4bht12rcd13ifvqi60","pricing_plan_id":"cebpf4jnsgd1na2vs0mg"},{"bike_id":"58fcbc8c-9a0f-47cf-bc32-b43f95505588","system_id":"levelo_inurba_marseille","lat":43.31167,"lon":5.38718,"is_reserved":false,"is_disabled":false,"rental_uris":{"android":"levelo://app?vid=58fcbc8c-9a0f-47cf-bc32-b43f95505588","ios":"levelo://app?vid=58fcbc8c-9a0f-47cf-bc32-b43f95505588"},"vehicle_type_id":"4","last_reported":1741878657,"current_range_meters":11200,"station_id":"ce4bgv12rcd13ifvqcp0","pricing_plan_id":"cebpf4jnsgd1na2vs0mg"},{"bike_id":"5233e443-1736-449b-bfef-634509c8ee4b","system_id":"levelo_inurba_marseille","lat":43.29487,"lon":5.3864,"is_reserved":false,"is_disabled":false,"rental_uris":{"android":"levelo://app?vid=5233e443-1736-449b-bfef-634509c8ee4b","ios":"levelo://app?vid=5233e443-1736-449b-bfef-634509c8ee4b"},"vehicle_type_id":"4","last_reported":1741878657,"current_range_meters":11200,"station_id":"","pricing_plan_id":"cebpf4jnsgd1na2vs0mg"},{"bike_id":"5cce8c68-ab9c-4191-af50-cc1d03765c2b","system_id":"levelo_inurba_marseille","lat":43.25936,"lon":5.40905,"is_reserved":false,"is_disabled":false,"rental_uris":{"android":"levelo://app?vid=5cce8c68-ab9c-4191-af50-cc1d03765c2b","ios":"levelo://app?vid=5cce8c68-ab9c-4191-af50-cc1d03765c2b"},"vehicle_type_id":"4","last_reported":1741878657,"current_range_meters":11600,"station_id":"ce4bhm92rcd13ifvqglg","pricing_plan_id":"cebpf4jnsgd1na2vs0mg"},{"bike_id":"2a357399-1074-43a4-92c9-fe4475f3d914","system_id":"levelo_inurba_marseille","lat":43.27375,"lon":5.36257,"is_reserved":false,"is_disabled":false,"rental_uris":{"android":"levelo://app?vid=2a357399-1074-43a4-92c9-fe4475f3d914","ios":"levelo://app?vid=2a357399-1074-43a4-92c9-fe4475f3d914"},"vehicle_type_id":"4","last_reported":1741878657,"current_range_meters":11600,"station_id":"ce4bhbh2rcd13ifvqeo0","pricing_plan_id":"cebpf4jnsgd1na2vs0mg"},{"bike_id":"c41e88ee-de07-4a21-908c-d374f443676f","system_id":"levelo_inurba_marseille","lat":43.29712,"lon":5.36604,"is_reserved":false,"is_disabled":false,"rental_uris":{"android":"levelo://app?vid=c41e88ee-de07-4a21-908c-d374f443676f","ios":"levelo://app?vid=c41e88ee-de07-4a21-908c-d374f443676f"},"vehicle_type_id":"4","last_reported":1741878657,"current_range_meters":11600,"station_id":"ce4bgn12rcd13ifvqbt0","pricing_plan_id":"cebpf4jnsgd1na2vs0mg"},{"bike_id":"74328ff4-1e18-4f4f-8a6f-1f151f0918a1","system_id":"levelo_inurba_marseille","lat":43.26785,"lon":5.39421,"is_reserved":false,"is_disabled":false,"rental_uris":{"android":"levelo://app?vid=74328ff4-1e18-4f4f-8a6f-1f151f0918a1","ios":"levelo://app?vid=74328ff4-1e18-4f4f-8a6f-1f151f0918a1"},"vehicle_type_id":"4","last_reported":1741878657,"current_range_meters":11600,"station_id":"ce4bhh12rcd13ifvqfg0","pricing_plan_id":"cebpf4jnsgd1na2vs0mg"},{"bike_id":"00e9cc9b-4e9f-4f02-aa23-0b824e0e7a79","system_id":"levelo_inurba_marseille","lat":43.24168,"lon":5.39711,"is_reserved":false,"is_disabled":false,"rental_uris":{"android":"levelo://app?vid=00e9cc9b-4e9f-4f02-aa23-0b824e0e7a79","ios":"levelo://app?vid=00e9cc9b-4e9f-4f02-aa23-0b824e0e7a79"},"vehicle_type_id":"4","last_reported":1741878657,"current_range_meters":11600,"station_id":"ce4bhn12rcd13ifvqgpg","pricing_plan_id":"cebpf4jnsgd1na2vs0mg"},{"bike_id":"414a87d8-0320-4da5-94cb-1c2e9eb2c2e2","system_id":"levelo_inurba_marseille","lat":43.25818,"lon":5.39438,"is_reserved":false,"is_disabled":false,"rental_uris":{"android":"levelo://app?vid=414a87d8-0320-4da5-94cb-1c2e9eb2c2e2","ios":"levelo://app?vid=414a87d8-0320-4da5-94cb-1c2e9eb2c2e2"},"vehicle_type_id":"4","last_reported":1741878657,"current_range_meters":12000,"station_id":"ce4bhip2rcd13ifvqft0","pricing_plan_id":"cebpf4jnsgd1na2vs0mg"},{"bike_id":"8492cf29-0135-44fd-8919-2c4c92afc8fe","system_id":"levelo_inurba_marseille","lat":43.27811,"lon":5.40706,"is_reserved":false,"is_disabled":false,"rental_uris":{"android":"levelo://app?vid=8492cf29-0135-44fd-8919-2c4c92afc8fe","ios":"levelo://app?vid=8492cf29-0135-44fd-8919-2c4c92afc8fe"},"vehicle_type_id":"4","last_reported":1741878657,"current_range_meters":12000,"station_id":"ce4bhnh2rcd13ifvqgtg","pricing_plan_id":"cebpf4jnsgd1na2vs0mg"},{"bike_id":"61b9ad25-9195-424f-875c-94c04a329ec9","system_id":"levelo_inurba_marseille","lat":43.33026,"lon":5.39055,"is_reserved":false,"is_disabled":false,"rental_uris":{"android":"levelo://app?vid=61b9ad25-9195-424f-875c-94c04a329ec9","ios":"levelo://app?vid=61b9ad25-9195-424f-875c-94c04a329ec9"},"vehicle_type_id":"4","last_reported":1741878657,"current_range_meters":12000,"station_id":"ce4bhr92rcd13ifvqhrg","pricing_plan_id":"cebpf4jnsgd1na2vs0mg"},{"bike_id":"4f2ddad8-944b-4f7f-88fd-24992043188c","system_id":"levelo_inurba_marseille","lat":43.30928,"lon":5.40142,"is_reserved":false,"is_disabled":false,"rental_uris":{"android":"levelo://app?vid=4f2ddad8-944b-4f7f-88fd-24992043188c","ios":"levelo://app?vid=4f2ddad8-944b-4f7f-88fd-24992043188c"},"vehicle_type_id":"4","last_reported":1741878657,"current_range_meters":12000,"station_id":"ce4bgvp2rcd13ifvqct0","pricing_plan_id":"cebpf4jnsgd1na2vs0mg"},{"bike_id":"8132dfdf-ad0f-4ed1-89b2-e23448e301bc","system_id":"levelo_inurba_marseille","lat":43.27979,"lon":5.38741,"is_reserved":false,"is_disabled":false,"rental_uris":{"android":"levelo://app?vid=8132dfdf-ad0f-4ed1-89b2-e23448e301bc","ios":"levelo://app?vid=8132dfdf-ad0f-4ed1-89b2-e23448e301bc"},"vehicle_type_id":"4","last_reported":1741878657,"current_range_meters":12000,"station_id":"ce4bhg12rcd13ifvqf80","pricing_plan_id":"cebpf4jnsgd1na2vs0mg"},{"bike_id":"6944bb06-8a8c-4cf4-86a1-ca9561cf4ee4","system_id":"levelo_inurba_marseille","lat":43.23058,"lon":5.35503,"is_reserved":false,"is_disabled":false,"rental_uris":{"android":"levelo://app?vid=6944bb06-8a8c-4cf4-86a1-ca9561cf4ee4","ios":"levelo://app?vid=6944bb06-8a8c-4cf4-86a1-ca9561cf4ee4"},"vehicle_type_id":"4","last_reported":1741878657,"current_range_meters":12000,"station_id":"cpo3342slgdg3j2ifvpg","pricing_plan_id":"cebpf4jnsgd1na2vs0mg"},{"bike_id":"4e376f55-e98a-4bf1-8d5f-c79209c93ec1","system_id":"levelo_inurba_marseille","lat":43.3053,"lon":5.36499,"is_reserved":false,"is_disabled":false,"rental_uris":{"android":"levelo://app?vid=4e376f55-e98a-4bf1-8d5f-c79209c93ec1","ios":"levelo://app?vid=4e376f55-e98a-4bf1-8d5f-c79209c93ec1"},"vehicle_type_id":"4","last_reported":1741878657,"current_range_meters":12400,"station_id":"ce4bgs12rcd13ifvqcag","pricing_plan_id":"cebpf4jnsgd1na2vs0mg"},{"bike_id":"2189b7d1-7835-47c5-a635-4d29db82de0f","system_id":"levelo_inurba_marseille","lat":43.24081,"lon":5.3775,"is_reserved":false,"is_disabled":false,"rental_uris":{"android":"levelo://app?vid=2189b7d1-7835-47c5-a635-4d29db82de0f","ios":"levelo://app?vid=2189b7d1-7835-47c5-a635-4d29db82de0f"},"vehicle_type_id":"4","last_reported":1741878657,"current_range_meters":12400,"station_id":"ce4bhnp2rcd13ifvqgvg","pricing_plan_id":"cebpf4jnsgd1na2vs0mg"},{"bike_id":"2ee09967-204b-4f56-99c7-f17a638b168d","system_id":"levelo_inurba_marseille","lat":43.27961,"lon":5.41045,"is_reserved":false,"is_disabled":false,"rental_uris":{"android":"levelo://app?vid=2ee09967-204b-4f56-99c7-f17a638b168d","ios":"levelo://app?vid=2ee09967-204b-4f56-99c7-f17a638b168d"},"vehicle_type_id":"4","last_reported":1741878657,"current_range_meters":12400,"station_id":"ce4bhnp2rcd13ifvqh0g","pricing_plan_id":"cebpf4jnsgd1na2vs0mg"},{"bike_id":"317454e4-dd48-4611-814d-533bcc596415","system_id":"levelo_inurba_marseille","lat":43.29028,"lon":5.37551,"is_reserved":false,"is_disabled":false,"rental_uris":{"android":"levelo://app?vid=317454e4-dd48-4611-814d-533bcc596415","ios":"levelo://app?vid=317454e4-dd48-4611-814d-533bcc596415"},"vehicle_type_id":"4","last_reported":1741878657,"current_range_meters":12400,"station_id":"ce4bh692rcd13ifvqe90","pricing_plan_id":"cebpf4jnsgd1na2vs0mg"},{"bike_id":"a9506dd6-2164-46b0-9578-9303d5dfb6f7","system_id":"levelo_inurba_marseille","lat":43.26561,"lon":5.37289,"is_reserved":false,"is_disabled":false,"rental_uris":{"android":"levelo://app?vid=a9506dd6-2164-46b0-9578-9303d5dfb6f7","ios":"levelo://app?vid=a9506dd6-2164-46b0-9578-9303d5dfb6f7"},"vehicle_type_id":"4","last_reported":1741878657,"current_range_meters":12400,"station_id":"ce4bhg12rcd13ifvqf70","pricing_plan_id":"cebpf4jnsgd1na2vs0mg"},{"bike_id":"b4570490-97c2-402a-bf51-53a650c437ee","system_id":"levelo_inurba_marseille","lat":43.28445,"lon":5.39201,"is_reserved":false,"is_disabled":false,"rental_uris":{"android":"levelo://app?vid=b4570490-97c2-402a-bf51-53a650c437ee","ios":"levelo://app?vid=b4570490-97c2-402a-bf51-53a650c437ee"},"vehicle_type_id":"4","last_reported":1741878657,"current_range_meters":15200,"station_id":"ce4bhoh2rcd13ifvqh5g","pricing_plan_id":"cebpf4jnsgd1na2vs0mg"},{"bike_id":"8cd4ff65-c530-42fa-b397-120901a040de","system_id":"levelo_inurba_marseille","lat":43.28838,"lon":5.39322,"is_reserved":false,"is_disabled":false,"rental_uris":{"android":"levelo://app?vid=8cd4ff65-c530-42fa-b397-120901a040de","ios":"levelo://app?vid=8cd4ff65-c530-42fa-b397-120901a040de"},"vehicle_type_id":"4","last_reported":1741878657,"current_range_meters":12800,"station_id":"ce4bh2p2rcd13ifvqdi0","pricing_plan_id":"cebpf4jnsgd1na2vs0mg"},{"bike_id":"7121d818-13e2-43ed-b445-7134fefdd64f","system_id":"levelo_inurba_marseille","lat":43.23206,"lon":5.35544,"is_reserved":false,"is_disabled":false,"rental_uris":{"android":"levelo://app?vid=7121d818-13e2-43ed-b445-7134fefdd64f","ios":"levelo://app?vid=7121d818-13e2-43ed-b445-7134fefdd64f"},"vehicle_type_id":"4","last_reported":1741878657,"current_range_meters":12800,"station_id":"ce4bhu92rcd13ifvqi70","pricing_plan_id":"cebpf4jnsgd1na2vs0mg"},{"bike_id":"9db5f361-402f-483a-bcdc-9e6d2c49648d","system_id":"levelo_inurba_marseille","lat":43.28128,"lon":5.37812,"is_reserved":false,"is_disabled":false,"rental_uris":{"android":"levelo://app?vid=9db5f361-402f-483a-bcdc-9e6d2c49648d","ios":"levelo://app?vid=9db5f361-402f-483a-bcdc-9e6d2c49648d"},"vehicle_type_id":"4","last_reported":1741878657,"current_range_meters":12800,"station_id":"ce4bha12rcd13ifvqee0","pricing_plan_id":"cebpf4jnsgd1na2vs0mg"},{"bike_id":"9b750467-87e2-4fdb-93d7-edcb536818eb","system_id":"levelo_inurba_marseille","lat":43.305516,"lon":5.367184,"is_reserved":false,"is_disabled":false,"rental_uris":{"android":"levelo://app?vid=9b750467-87e2-4fdb-93d7-edcb536818eb","ios":"levelo://app?vid=9b750467-87e2-4fdb-93d7-edcb536818eb"},"vehicle_type_id":"4","last_reported":1741878657,"current_range_meters":13600,"station_id":"ce4bgrp2rcd13ifvqc9g","pricing_plan_id":"cebpf4jnsgd1na2vs0mg"},{"bike_id":"22861495-dc74-4557-9cc0-85bab0ae3340","system_id":"levelo_inurba_marseille","lat":43.29035,"lon":5.38638,"is_reserved":false,"is_disabled":false,"rental_uris":{"android":"levelo://app?vid=22861495-dc74-4557-9cc0-85bab0ae3340","ios":"levelo://app?vid=22861495-dc74-4557-9cc0-85bab0ae3340"},"vehicle_type_id":"4","last_reported":1741878657,"current_range_meters":14400,"station_id":"ce4bh4p2rcd13ifvqe0g","pricing_plan_id":"cebpf4jnsgd1na2vs0mg"},{"bike_id":"45f5800a-99c6-4c7e-892e-8047007584fe","system_id":"levelo_inurba_marseille","lat":43.29858,"lon":5.36297,"is_reserved":false,"is_disabled":false,"rental_uris":{"android":"levelo://app?vid=45f5800a-99c6-4c7e-892e-8047007584fe","ios":"levelo://app?vid=45f5800a-99c6-4c7e-892e-8047007584fe"},"vehicle_type_id":"4","last_reported":1741878657,"current_range_meters":12800,"station_id":"ce4bgpp2rcd13ifvqc3g","pricing_plan_id":"cebpf4jnsgd1na2vs0mg"},{"bike_id":"ee28eda2-5cef-405c-8952-1406cde247dc","system_id":"levelo_inurba_marseille","lat":43.283482,"lon":5.381133,"is_reserved":false,"is_disabled":false,"rental_uris":{"android":"levelo://app?vid=ee28eda2-5cef-405c-8952-1406cde247dc","ios":"levelo://app?vid=ee28eda2-5cef-405c-8952-1406cde247dc"},"vehicle_type_id":"4","last_reported":1741878657,"current_range_meters":12400,"station_id":"ce4bgn12rcd13ifvqbt0","pricing_plan_id":"cebpf4jnsgd1na2vs0mg"},{"bike_id":"36ec5a15-215b-4367-a3ca-336aadd9a251","system_id":"levelo_inurba_marseille","lat":43.33746,"lon":5.3745,"is_reserved":false,"is_disabled":false,"rental_uris":{"android":"levelo://app?vid=36ec5a15-215b-4367-a3ca-336aadd9a251","ios":"levelo://app?vid=36ec5a15-215b-4367-a3ca-336aadd9a251"},"vehicle_type_id":"4","last_reported":1741878657,"current_range_meters":12800,"station_id":"","pricing_plan_id":"cebpf4jnsgd1na2vs0mg"},{"bike_id":"21ba3c38-ebe7-4c8b-9d64-aeb8c493e04e","system_id":"levelo_inurba_marseille","lat":43.301365,"lon":5.398533,"is_reserved":false,"is_disabled":false,"rental_uris":{"android":"levelo://app?vid=21ba3c38-ebe7-4c8b-9d64-aeb8c493e04e","ios":"levelo://app?vid=21ba3c38-ebe7-4c8b-9d64-aeb8c493e04e"},"vehicle_type_id":"4","last_reported":1741878657,"current_range_meters":14400,"station_id":"ce4bhr12rcd13ifvqhqg","pricing_plan_id":"cebpf4jnsgd1na2vs0mg"},{"bike_id":"c21d61f0-bcdb-4f5b-905a-e9e09c25ab8b","system_id":"levelo_inurba_marseille","lat":43.24067,"lon":5.37727,"is_reserved":false,"is_disabled":false,"rental_uris":{"android":"levelo://app?vid=c21d61f0-bcdb-4f5b-905a-e9e09c25ab8b","ios":"levelo://app?vid=c21d61f0-bcdb-4f5b-905a-e9e09c25ab8b"},"vehicle_type_id":"4","last_reported":1741878657,"current_range_meters":13600,"station_id":"ce4bhnp2rcd13ifvqgvg","pricing_plan_id":"cebpf4jnsgd1na2vs0mg"},{"bike_id":"22972314-4a2b-4d4a-846e-6ea006363f50","system_id":"levelo_inurba_marseille","lat":43.29428,"lon":5.38648,"is_reserved":false,"is_disabled":false,"rental_uris":{"android":"levelo://app?vid=22972314-4a2b-4d4a-846e-6ea006363f50","ios":"levelo://app?vid=22972314-4a2b-4d4a-846e-6ea006363f50"},"vehicle_type_id":"4","last_reported":1741878657,"current_range_meters":13600,"station_id":"ce4bh2h2rcd13ifvqdh0","pricing_plan_id":"cebpf4jnsgd1na2vs0mg"},{"bike_id":"3363e5ed-aafd-4c83-9f97-12270e6ffcf4","system_id":"levelo_inurba_marseille","lat":43.24864,"lon":5.40679,"is_reserved":false,"is_disabled":false,"rental_uris":{"android":"levelo://app?vid=3363e5ed-aafd-4c83-9f97-12270e6ffcf4","ios":"levelo://app?vid=3363e5ed-aafd-4c83-9f97-12270e6ffcf4"},"vehicle_type_id":"4","last_reported":1741878657,"current_range_meters":13600,"station_id":"","pricing_plan_id":"cebpf4jnsgd1na2vs0mg"},{"bike_id":"97bfb8c0-4f7b-4ef4-ae46-bad7e53e4b0c","system_id":"levelo_inurba_marseille","lat":43.30812,"lon":5.38163,"is_reserved":false,"is_disabled":false,"rental_uris":{"android":"levelo://app?vid=97bfb8c0-4f7b-4ef4-ae46-bad7e53e4b0c","ios":"levelo://app?vid=97bfb8c0-4f7b-4ef4-ae46-bad7e53e4b0c"},"vehicle_type_id":"4","last_reported":1741878657,"current_range_meters":13600,"station_id":"ce4bgt12rcd13ifvqce0","pricing_plan_id":"cebpf4jnsgd1na2vs0mg"},{"bike_id":"2b1b509a-ae2c-4705-a5bd-2d2a5200b454","system_id":"levelo_inurba_marseille","lat":43.3055,"lon":5.36527,"is_reserved":false,"is_disabled":false,"rental_uris":{"android":"levelo://app?vid=2b1b509a-ae2c-4705-a5bd-2d2a5200b454","ios":"levelo://app?vid=2b1b509a-ae2c-4705-a5bd-2d2a5200b454"},"vehicle_type_id":"4","last_reported":1741878657,"current_range_meters":13600,"station_id":"ce4bgs12rcd13ifvqcag","pricing_plan_id":"cebpf4jnsgd1na2vs0mg"},{"bike_id":"a1994db3-f96d-43e3-a7c8-04c677d428a2","system_id":"levelo_inurba_marseille","lat":43.26932,"lon":5.3892,"is_reserved":false,"is_disabled":false,"rental_uris":{"android":"levelo://app?vid=a1994db3-f96d-43e3-a7c8-04c677d428a2","ios":"levelo://app?vid=a1994db3-f96d-43e3-a7c8-04c677d428a2"},"vehicle_type_id":"4","last_reported":1741878657,"current_range_meters":14000,"station_id":"ce4bhhh2rcd13ifvqfl0","pricing_plan_id":"cebpf4jnsgd1na2vs0mg"},{"bike_id":"436bf6fd-98f0-4c70-968c-7fcac8f398a5","system_id":"levelo_inurba_marseille","lat":43.25095,"lon":5.41053,"is_reserved":false,"is_disabled":false,"rental_uris":{"android":"levelo://app?vid=436bf6fd-98f0-4c70-968c-7fcac8f398a5","ios":"levelo://app?vid=436bf6fd-98f0-4c70-968c-7fcac8f398a5"},"vehicle_type_id":"4","last_reported":1741878657,"current_range_meters":14000,"station_id":"","pricing_plan_id":"cebpf4jnsgd1na2vs0mg"},{"bike_id":"1caf58e1-6273-4273-9c58-263efa9d2e3f","system_id":"levelo_inurba_marseille","lat":43.26787,"lon":5.39433,"is_reserved":false,"is_disabled":false,"rental_uris":{"android":"levelo://app?vid=1caf58e1-6273-4273-9c58-263efa9d2e3f","ios":"levelo://app?vid=1caf58e1-6273-4273-9c58-263efa9d2e3f"},"vehicle_type_id":"4","last_reported":1741878657,"current_range_meters":14000,"station_id":"ce4bhh12rcd13ifvqfg0","pricing_plan_id":"cebpf4jnsgd1na2vs0mg"},{"bike_id":"02e6ffe7-801a-4c7c-86fd-3d3f4a092e39","system_id":"levelo_inurba_marseille","lat":43.24066,"lon":5.37759,"is_reserved":false,"is_disabled":false,"rental_uris":{"android":"levelo://app?vid=02e6ffe7-801a-4c7c-86fd-3d3f4a092e39","ios":"levelo://app?vid=02e6ffe7-801a-4c7c-86fd-3d3f4a092e39"},"vehicle_type_id":"4","last_reported":1741878657,"current_range_meters":14000,"station_id":"ce4bhnp2rcd13ifvqgvg","pricing_plan_id":"cebpf4jnsgd1na2vs0mg"},{"bike_id":"68be21d7-2cbd-4d0b-b0d7-d9f180212117","system_id":"levelo_inurba_marseille","lat":43.28663,"lon":5.36359,"is_reserved":false,"is_disabled":false,"rental_uris":{"android":"levelo://app?vid=68be21d7-2cbd-4d0b-b0d7-d9f180212117","ios":"levelo://app?vid=68be21d7-2cbd-4d0b-b0d7-d9f180212117"},"vehicle_type_id":"4","last_reported":1741878657,"current_range_meters":14800,"station_id":"ce4bhah2rcd13ifvqej0","pricing_plan_id":"cebpf4jnsgd1na2vs0mg"},{"bike_id":"9894e5c5-969a-4bad-ae09-11e563ac1a6a","system_id":"levelo_inurba_marseille","lat":43.30615,"lon":5.37226,"is_reserved":false,"is_disabled":false,"rental_uris":{"android":"levelo://app?vid=9894e5c5-969a-4bad-ae09-11e563ac1a6a","ios":"levelo://app?vid=9894e5c5-969a-4bad-ae09-11e563ac1a6a"},"vehicle_type_id":"4","last_reported":1741878657,"current_range_meters":14000,"station_id":"ce4bgqh2rcd13ifvqc4g","pricing_plan_id":"cebpf4jnsgd1na2vs0mg"},{"bike_id":"b634fcd7-4303-4fed-a2f8-fcd04ed2a4dd","system_id":"levelo_inurba_marseille","lat":43.23072,"lon":5.35489,"is_reserved":false,"is_disabled":false,"rental_uris":{"android":"levelo://app?vid=b634fcd7-4303-4fed-a2f8-fcd04ed2a4dd","ios":"levelo://app?vid=b634fcd7-4303-4fed-a2f8-fcd04ed2a4dd"},"vehicle_type_id":"4","last_reported":1741878657,"current_range_meters":14000,"station_id":"cpo3342slgdg3j2ifvpg","pricing_plan_id":"cebpf4jnsgd1na2vs0mg"},{"bike_id":"9a719051-5115-4a08-8e7b-ae42f9cbb7fe","system_id":"levelo_inurba_marseille","lat":43.31118,"lon":5.37797,"is_reserved":false,"is_disabled":false,"rental_uris":{"android":"levelo://app?vid=9a719051-5115-4a08-8e7b-ae42f9cbb7fe","ios":"levelo://app?vid=9a719051-5115-4a08-8e7b-ae42f9cbb7fe"},"vehicle_type_id":"4","last_reported":1741878657,"current_range_meters":14000,"station_id":"ce4bgt92rcd13ifvqcg0","pricing_plan_id":"cebpf4jnsgd1na2vs0mg"},{"bike_id":"096a1e4b-823e-43d9-9050-7088dea44509","system_id":"levelo_inurba_marseille","lat":43.22931,"lon":5.35374,"is_reserved":false,"is_disabled":false,"rental_uris":{"android":"levelo://app?vid=096a1e4b-823e-43d9-9050-7088dea44509","ios":"levelo://app?vid=096a1e4b-823e-43d9-9050-7088dea44509"},"vehicle_type_id":"4","last_reported":1741878657,"current_range_meters":14000,"station_id":"cpo3532slgdg3j2ikp40","pricing_plan_id":"cebpf4jnsgd1na2vs0mg"},{"bike_id":"2a458cc1-a675-416c-8fb9-381b717822e6","system_id":"levelo_inurba_marseille","lat":43.30563,"lon":5.36524,"is_reserved":false,"is_disabled":false,"rental_uris":{"android":"levelo://app?vid=2a458cc1-a675-416c-8fb9-381b717822e6","ios":"levelo://app?vid=2a458cc1-a675-416c-8fb9-381b717822e6"},"vehicle_type_id":"4","last_reported":1741878657,"current_range_meters":14400,"station_id":"ce4bgs12rcd13ifvqcag","pricing_plan_id":"cebpf4jnsgd1na2vs0mg"},{"bike_id":"7a2528c7-fc51-47b3-b130-bcfcd01c1079","system_id":"levelo_inurba_marseille","lat":43.2595,"lon":5.40877,"is_reserved":false,"is_disabled":false,"rental_uris":{"android":"levelo://app?vid=7a2528c7-fc51-47b3-b130-bcfcd01c1079","ios":"levelo://app?vid=7a2528c7-fc51-47b3-b130-bcfcd01c1079"},"vehicle_type_id":"4","last_reported":1741878657,"current_range_meters":14400,"station_id":"ce4bhm92rcd13ifvqglg","pricing_plan_id":"cebpf4jnsgd1na2vs0mg"},{"bike_id":"23394485-eff3-47ee-bbda-4d566cd03555","system_id":"levelo_inurba_marseille","lat":43.24674,"lon":5.3816,"is_reserved":false,"is_disabled":false,"rental_uris":{"android":"levelo://app?vid=23394485-eff3-47ee-bbda-4d566cd03555","ios":"levelo://app?vid=23394485-eff3-47ee-bbda-4d566cd03555"},"vehicle_type_id":"4","last_reported":1741878657,"current_range_meters":14400,"station_id":"ce4bhih2rcd13ifvqfr0","pricing_plan_id":"cebpf4jnsgd1na2vs0mg"},{"bike_id":"ae0cb6ae-d8b5-4dc3-b181-0ba82cfd635b","system_id":"levelo_inurba_marseille","lat":43.27378,"lon":5.36257,"is_reserved":false,"is_disabled":false,"rental_uris":{"android":"levelo://app?vid=ae0cb6ae-d8b5-4dc3-b181-0ba82cfd635b","ios":"levelo://app?vid=ae0cb6ae-d8b5-4dc3-b181-0ba82cfd635b"},"vehicle_type_id":"4","last_reported":1741878657,"current_range_meters":14400,"station_id":"ce4bhbh2rcd13ifvqeo0","pricing_plan_id":"cebpf4jnsgd1na2vs0mg"},{"bike_id":"34956c05-8c36-43f4-b871-08db11d3bc9f","system_id":"levelo_inurba_marseille","lat":43.29809,"lon":5.38083,"is_reserved":false,"is_disabled":false,"rental_uris":{"android":"levelo://app?vid=34956c05-8c36-43f4-b871-08db11d3bc9f","ios":"levelo://app?vid=34956c05-8c36-43f4-b871-08db11d3bc9f"},"vehicle_type_id":"4","last_reported":1741878657,"current_range_meters":14400,"station_id":"ce4bgip2rcd13ifvqbb0","pricing_plan_id":"cebpf4jnsgd1na2vs0mg"},{"bike_id":"edeff993-7353-413f-b42c-b0f5072095e8","system_id":"levelo_inurba_marseille","lat":43.25927,"lon":5.40882,"is_reserved":false,"is_disabled":false,"rental_uris":{"android":"levelo://app?vid=edeff993-7353-413f-b42c-b0f5072095e8","ios":"levelo://app?vid=edeff993-7353-413f-b42c-b0f5072095e8"},"vehicle_type_id":"4","last_reported":1741878657,"current_range_meters":14400,"station_id":"ce4bhm92rcd13ifvqglg","pricing_plan_id":"cebpf4jnsgd1na2vs0mg"},{"bike_id":"db1d9945-452a-48d1-a218-9d250e8fb884","system_id":"levelo_inurba_marseille","lat":43.31332,"lon":5.397,"is_reserved":false,"is_disabled":false,"rental_uris":{"android":"levelo://app?vid=db1d9945-452a-48d1-a218-9d250e8fb884","ios":"levelo://app?vid=db1d9945-452a-48d1-a218-9d250e8fb884"},"vehicle_type_id":"4","last_reported":1741878657,"current_range_meters":14400,"station_id":"ce4bgvp2rcd13ifvqcu0","pricing_plan_id":"cebpf4jnsgd1na2vs0mg"},{"bike_id":"ad83a0ce-8ca9-4bd9-814f-bb7840f10402","system_id":"levelo_inurba_marseille","lat":43.26058,"lon":5.39398,"is_reserved":false,"is_disabled":false,"rental_uris":{"android":"levelo://app?vid=ad83a0ce-8ca9-4bd9-814f-bb7840f10402","ios":"levelo://app?vid=ad83a0ce-8ca9-4bd9-814f-bb7840f10402"},"vehicle_type_id":"4","last_reported":1741878657,"current_range_meters":15200,"station_id":"ce4bhh92rcd13ifvqfj0","pricing_plan_id":"cebpf4jnsgd1na2vs0mg"},{"bike_id":"a3576765-ee5b-4652-b921-e27818312da6","system_id":"levelo_inurba_marseille","lat":43.29629,"lon":5.406,"is_reserved":false,"is_disabled":false,"rental_uris":{"android":"levelo://app?vid=a3576765-ee5b-4652-b921-e27818312da6","ios":"levelo://app?vid=a3576765-ee5b-4652-b921-e27818312da6"},"vehicle_type_id":"4","last_reported":1741878657,"current_range_meters":15200,"station_id":"ce4bh0h2rcd13ifvqd60","pricing_plan_id":"cebpf4jnsgd1na2vs0mg"},{"bike_id":"36fa1bfb-4451-41ac-ac56-73ee9f3feeab","system_id":"levelo_inurba_marseille","lat":43.31253,"lon":5.36886,"is_reserved":false,"is_disabled":false,"rental_uris":{"android":"levelo://app?vid=36fa1bfb-4451-41ac-ac56-73ee9f3feeab","ios":"levelo://app?vid=36fa1bfb-4451-41ac-ac56-73ee9f3feeab"},"vehicle_type_id":"4","last_reported":1741878657,"current_range_meters":14800,"station_id":"ce4bgl92rcd13ifvqbq0","pricing_plan_id":"cebpf4jnsgd1na2vs0mg"},{"bike_id":"a5e71948-735a-4229-b2ca-74d55fc62066","system_id":"levelo_inurba_marseille","lat":43.280402,"lon":5.369351,"is_reserved":false,"is_disabled":false,"rental_uris":{"android":"levelo://app?vid=a5e71948-735a-4229-b2ca-74d55fc62066","ios":"levelo://app?vid=a5e71948-735a-4229-b2ca-74d55fc62066"},"vehicle_type_id":"4","last_reported":1741878657,"current_range_meters":14800,"station_id":"ce4bha12rcd13ifvqef0","pricing_plan_id":"cebpf4jnsgd1na2vs0mg"},{"bike_id":"bf702e5c-17d7-4b8b-9869-f878cb0ee2a1","system_id":"levelo_inurba_marseille","lat":43.30136,"lon":5.37424,"is_reserved":false,"is_disabled":false,"rental_uris":{"android":"levelo://app?vid=bf702e5c-17d7-4b8b-9869-f878cb0ee2a1","ios":"levelo://app?vid=bf702e5c-17d7-4b8b-9869-f878cb0ee2a1"},"vehicle_type_id":"4","last_reported":1741878657,"current_range_meters":14800,"station_id":"ce4bgs92rcd13ifvqcc0","pricing_plan_id":"cebpf4jnsgd1na2vs0mg"},{"bike_id":"c9c5f2dc-4290-4b40-9b4c-41286970aa48","system_id":"levelo_inurba_marseille","lat":43.32484,"lon":5.36566,"is_reserved":false,"is_disabled":false,"rental_uris":{"android":"levelo://app?vid=c9c5f2dc-4290-4b40-9b4c-41286970aa48","ios":"levelo://app?vid=c9c5f2dc-4290-4b40-9b4c-41286970aa48"},"vehicle_type_id":"4","last_reported":1741878657,"current_range_meters":14400,"station_id":"ce4bhs12rcd13ifvqhvg","pricing_plan_id":"cebpf4jnsgd1na2vs0mg"},{"bike_id":"20cf9b1f-595a-46ff-b2c1-133275f66c95","system_id":"levelo_inurba_marseille","lat":43.23148,"lon":5.43703,"is_reserved":false,"is_disabled":false,"rental_uris":{"android":"levelo://app?vid=20cf9b1f-595a-46ff-b2c1-133275f66c95","ios":"levelo://app?vid=20cf9b1f-595a-46ff-b2c1-133275f66c95"},"vehicle_type_id":"4","last_reported":1741878657,"current_range_meters":15200,"station_id":"ce4bhmp2rcd13ifvqgog","pricing_plan_id":"cebpf4jnsgd1na2vs0mg"},{"bike_id":"b4aca3d9-d2d1-4f34-8ea5-8485ddc83cbc","system_id":"levelo_inurba_marseille","lat":43.29553,"lon":5.42255,"is_reserved":false,"is_disabled":false,"rental_uris":{"android":"levelo://app?vid=b4aca3d9-d2d1-4f34-8ea5-8485ddc83cbc","ios":"levelo://app?vid=b4aca3d9-d2d1-4f34-8ea5-8485ddc83cbc"},"vehicle_type_id":"4","last_reported":1741878657,"current_range_meters":15200,"station_id":"ce4bhph2rcd13ifvqhdg","pricing_plan_id":"cebpf4jnsgd1na2vs0mg"},{"bike_id":"c36d1500-f4d5-46bc-8fde-f914dc989473","system_id":"levelo_inurba_marseille","lat":43.29955,"lon":5.41333,"is_reserved":false,"is_disabled":false,"rental_uris":{"android":"levelo://app?vid=c36d1500-f4d5-46bc-8fde-f914dc989473","ios":"levelo://app?vid=c36d1500-f4d5-46bc-8fde-f914dc989473"},"vehicle_type_id":"4","last_reported":1741878657,"current_range_meters":15200,"station_id":"ce4bhp12rcd13ifvqh9g","pricing_plan_id":"cebpf4jnsgd1na2vs0mg"},{"bike_id":"5e7ded7b-7e7c-4763-849c-89472168c50c","system_id":"levelo_inurba_marseille","lat":43.30138,"lon":5.39863,"is_reserved":false,"is_disabled":false,"rental_uris":{"android":"levelo://app?vid=5e7ded7b-7e7c-4763-849c-89472168c50c","ios":"levelo://app?vid=5e7ded7b-7e7c-4763-849c-89472168c50c"},"vehicle_type_id":"4","last_reported":1741878657,"current_range_meters":15200,"station_id":"ce4bh0h2rcd13ifvqd40","pricing_plan_id":"cebpf4jnsgd1na2vs0mg"},{"bike_id":"f42fb81b-20b4-490e-91af-424cf9f28529","system_id":"levelo_inurba_marseille","lat":43.29851,"lon":5.36266,"is_reserved":false,"is_disabled":false,"rental_uris":{"android":"levelo://app?vid=f42fb81b-20b4-490e-91af-424cf9f28529","ios":"levelo://app?vid=f42fb81b-20b4-490e-91af-424cf9f28529"},"vehicle_type_id":"4","last_reported":1741878657,"current_range_meters":15200,"station_id":"ce4bgpp2rcd13ifvqc3g","pricing_plan_id":"cebpf4jnsgd1na2vs0mg"},{"bike_id":"3fb6ae79-3fe0-4bba-a06f-dd8f38096e9b","system_id":"levelo_inurba_marseille","lat":43.29257,"lon":5.38433,"is_reserved":false,"is_disabled":false,"rental_uris":{"android":"levelo://app?vid=3fb6ae79-3fe0-4bba-a06f-dd8f38096e9b","ios":"levelo://app?vid=3fb6ae79-3fe0-4bba-a06f-dd8f38096e9b"},"vehicle_type_id":"4","last_reported":1741878657,"current_range_meters":15200,"station_id":"ce4bh692rcd13ifvqea0","pricing_plan_id":"cebpf4jnsgd1na2vs0mg"},{"bike_id":"a1865482-901a-461f-bbbf-89cc5aaa4978","system_id":"levelo_inurba_marseille","lat":43.31264,"lon":5.37901,"is_reserved":false,"is_disabled":false,"rental_uris":{"android":"levelo://app?vid=a1865482-901a-461f-bbbf-89cc5aaa4978","ios":"levelo://app?vid=a1865482-901a-461f-bbbf-89cc5aaa4978"},"vehicle_type_id":"4","last_reported":1741878657,"current_range_meters":16000,"station_id":"ce4bgj92rcd13ifvqbd0","pricing_plan_id":"cebpf4jnsgd1na2vs0mg"},{"bike_id":"2fc089d6-4e19-42ac-94d4-d3fb4203db1f","system_id":"levelo_inurba_marseille","lat":43.28851,"lon":5.39312,"is_reserved":false,"is_disabled":false,"rental_uris":{"android":"levelo://app?vid=2fc089d6-4e19-42ac-94d4-d3fb4203db1f","ios":"levelo://app?vid=2fc089d6-4e19-42ac-94d4-d3fb4203db1f"},"vehicle_type_id":"4","last_reported":1741878657,"current_range_meters":16000,"station_id":"ce4bh2p2rcd13ifvqdi0","pricing_plan_id":"cebpf4jnsgd1na2vs0mg"},{"bike_id":"aeec4843-e0cf-441f-b4d2-907b0f5fbe59","system_id":"levelo_inurba_marseille","lat":43.25827,"lon":5.39435,"is_reserved":false,"is_disabled":false,"rental_uris":{"android":"levelo://app?vid=aeec4843-e0cf-441f-b4d2-907b0f5fbe59","ios":"levelo://app?vid=aeec4843-e0cf-441f-b4d2-907b0f5fbe59"},"vehicle_type_id":"4","last_reported":1741878657,"current_range_meters":16000,"station_id":"ce4bhip2rcd13ifvqft0","pricing_plan_id":"cebpf4jnsgd1na2vs0mg"},{"bike_id":"4dae295b-e3fb-4a73-a554-9df31e929408","system_id":"levelo_inurba_marseille","lat":43.31371,"lon":5.38496,"is_reserved":false,"is_disabled":false,"rental_uris":{"android":"levelo://app?vid=4dae295b-e3fb-4a73-a554-9df31e929408","ios":"levelo://app?vid=4dae295b-e3fb-4a73-a554-9df31e929408"},"vehicle_type_id":"4","last_reported":1741878657,"current_range_meters":16000,"station_id":"ce4bgt92rcd13ifvqcf0","pricing_plan_id":"cebpf4jnsgd1na2vs0mg"},{"bike_id":"dc2dc920-7061-4611-9ad3-02d4898aaa15","system_id":"levelo_inurba_marseille","lat":43.23199,"lon":5.39972,"is_reserved":false,"is_disabled":false,"rental_uris":{"android":"levelo://app?vid=dc2dc920-7061-4611-9ad3-02d4898aaa15","ios":"levelo://app?vid=dc2dc920-7061-4611-9ad3-02d4898aaa15"},"vehicle_type_id":"4","last_reported":1741878657,"current_range_meters":16000,"station_id":"ce4bhn12rcd13ifvqgqg","pricing_plan_id":"cebpf4jnsgd1na2vs0mg"},{"bike_id":"cd7d2f23-14c8-4b00-b3ea-b5313802c0fa","system_id":"levelo_inurba_marseille","lat":43.25865,"lon":5.39908,"is_reserved":false,"is_disabled":false,"rental_uris":{"android":"levelo://app?vid=cd7d2f23-14c8-4b00-b3ea-b5313802c0fa","ios":"levelo://app?vid=cd7d2f23-14c8-4b00-b3ea-b5313802c0fa"},"vehicle_type_id":"4","last_reported":1741878657,"current_range_meters":15200,"station_id":"ce4bhl92rcd13ifvqghg","pricing_plan_id":"cebpf4jnsgd1na2vs0mg"},{"bike_id":"e514d185-4131-49cd-8a7c-317241865033","system_id":"levelo_inurba_marseille","lat":43.31495,"lon":5.37294,"is_reserved":false,"is_disabled":false,"rental_uris":{"android":"levelo://app?vid=e514d185-4131-49cd-8a7c-317241865033","ios":"levelo://app?vid=e514d185-4131-49cd-8a7c-317241865033"},"vehicle_type_id":"4","last_reported":1741878657,"current_range_meters":16000,"station_id":"ce4bgt12rcd13ifvqcd0","pricing_plan_id":"cebpf4jnsgd1na2vs0mg"},{"bike_id":"f11101ce-a441-4f9f-992a-ba3b4e7e8aa1","system_id":"levelo_inurba_marseille","lat":43.30127,"lon":5.39853,"is_reserved":false,"is_disabled":false,"rental_uris":{"android":"levelo://app?vid=f11101ce-a441-4f9f-992a-ba3b4e7e8aa1","ios":"levelo://app?vid=f11101ce-a441-4f9f-992a-ba3b4e7e8aa1"},"vehicle_type_id":"4","last_reported":1741878657,"current_range_meters":16000,"station_id":"ce4bh0h2rcd13ifvqd40","pricing_plan_id":"cebpf4jnsgd1na2vs0mg"},{"bike_id":"075a7328-5c33-4d29-810a-ac380fc45d29","system_id":"levelo_inurba_marseille","lat":43.30882,"lon":5.39643,"is_reserved":false,"is_disabled":false,"rental_uris":{"android":"levelo://app?vid=075a7328-5c33-4d29-810a-ac380fc45d29","ios":"levelo://app?vid=075a7328-5c33-4d29-810a-ac380fc45d29"},"vehicle_type_id":"4","last_reported":1741878657,"current_range_meters":16000,"station_id":"ce4bh012rcd13ifvqcv0","pricing_plan_id":"cebpf4jnsgd1na2vs0mg"},{"bike_id":"a7f16eac-9626-43f1-81fb-f5c3d849948a","system_id":"levelo_inurba_marseille","lat":43.25106,"lon":5.40326,"is_reserved":false,"is_disabled":false,"rental_uris":{"android":"levelo://app?vid=a7f16eac-9626-43f1-81fb-f5c3d849948a","ios":"levelo://app?vid=a7f16eac-9626-43f1-81fb-f5c3d849948a"},"vehicle_type_id":"4","last_reported":1741878657,"current_range_meters":16000,"station_id":"ce4bhlh2rcd13ifvqgig","pricing_plan_id":"cebpf4jnsgd1na2vs0mg"},{"bike_id":"4b987f1d-631f-470c-98ab-6d50fe5ad951","system_id":"levelo_inurba_marseille","lat":43.29419,"lon":5.38625,"is_reserved":false,"is_disabled":false,"rental_uris":{"android":"levelo://app?vid=4b987f1d-631f-470c-98ab-6d50fe5ad951","ios":"levelo://app?vid=4b987f1d-631f-470c-98ab-6d50fe5ad951"},"vehicle_type_id":"4","last_reported":1741878657,"current_range_meters":16000,"station_id":"ce4bh2h2rcd13ifvqdh0","pricing_plan_id":"cebpf4jnsgd1na2vs0mg"},{"bike_id":"594a33ea-5c85-49b0-893b-48b1f5e1011a","system_id":"levelo_inurba_marseille","lat":43.30923,"lon":5.40159,"is_reserved":false,"is_disabled":true,"rental_uris":{"android":"levelo://app?vid=594a33ea-5c85-49b0-893b-48b1f5e1011a","ios":"levelo://app?vid=594a33ea-5c85-49b0-893b-48b1f5e1011a"},"vehicle_type_id":"4","last_reported":1741878657,"current_range_meters":16000,"station_id":"ce4bgvp2rcd13ifvqct0","pricing_plan_id":"cebpf4jnsgd1na2vs0mg"},{"bike_id":"77cc074f-a4fc-4efc-9943-a45c92a22bc2","system_id":"levelo_inurba_marseille","lat":43.31224,"lon":5.36872,"is_reserved":false,"is_disabled":false,"rental_uris":{"android":"levelo://app?vid=77cc074f-a4fc-4efc-9943-a45c92a22bc2","ios":"levelo://app?vid=77cc074f-a4fc-4efc-9943-a45c92a22bc2"},"vehicle_type_id":"4","last_reported":1741878657,"current_range_meters":16000,"station_id":"ce4bgl92rcd13ifvqbq0","pricing_plan_id":"cebpf4jnsgd1na2vs0mg"},{"bike_id":"66883170-e5c7-43fb-99d1-10e33068afd5","system_id":"levelo_inurba_marseille","lat":43.30884,"lon":5.39646,"is_reserved":false,"is_disabled":false,"rental_uris":{"android":"levelo://app?vid=66883170-e5c7-43fb-99d1-10e33068afd5","ios":"levelo://app?vid=66883170-e5c7-43fb-99d1-10e33068afd5"},"vehicle_type_id":"4","last_reported":1741878657,"current_range_meters":16000,"station_id":"ce4bh012rcd13ifvqcv0","pricing_plan_id":"cebpf4jnsgd1na2vs0mg"},{"bike_id":"3e33256a-d861-45c0-af01-75642132ca20","system_id":"levelo_inurba_marseille","lat":43.33034,"lon":5.39396,"is_reserved":false,"is_disabled":false,"rental_uris":{"android":"levelo://app?vid=3e33256a-d861-45c0-af01-75642132ca20","ios":"levelo://app?vid=3e33256a-d861-45c0-af01-75642132ca20"},"vehicle_type_id":"4","last_reported":1741878657,"current_range_meters":16000,"station_id":"","pricing_plan_id":"cebpf4jnsgd1na2vs0mg"},{"bike_id":"3a0ca2ac-ad4f-4f28-856e-a8dc668ca745","system_id":"levelo_inurba_marseille","lat":43.23964,"lon":5.36645,"is_reserved":false,"is_disabled":false,"rental_uris":{"android":"levelo://app?vid=3a0ca2ac-ad4f-4f28-856e-a8dc668ca745","ios":"levelo://app?vid=3a0ca2ac-ad4f-4f28-856e-a8dc668ca745"},"vehicle_type_id":"4","last_reported":1741878657,"current_range_meters":16400,"station_id":"ce4bhi12rcd13ifvqfp0","pricing_plan_id":"cebpf4jnsgd1na2vs0mg"},{"bike_id":"29832e81-b63f-44c3-a8ae-1ccbc505bd58","system_id":"levelo_inurba_marseille","lat":43.27804,"lon":5.40727,"is_reserved":false,"is_disabled":false,"rental_uris":{"android":"levelo://app?vid=29832e81-b63f-44c3-a8ae-1ccbc505bd58","ios":"levelo://app?vid=29832e81-b63f-44c3-a8ae-1ccbc505bd58"},"vehicle_type_id":"4","last_reported":1741878657,"current_range_meters":16400,"station_id":"ce4bhnh2rcd13ifvqgtg","pricing_plan_id":"cebpf4jnsgd1na2vs0mg"},{"bike_id":"796a9c3c-d006-4f72-92ae-af64cf7e484e","system_id":"levelo_inurba_marseille","lat":43.28618,"lon":5.35098,"is_reserved":false,"is_disabled":false,"rental_uris":{"android":"levelo://app?vid=796a9c3c-d006-4f72-92ae-af64cf7e484e","ios":"levelo://app?vid=796a9c3c-d006-4f72-92ae-af64cf7e484e"},"vehicle_type_id":"4","last_reported":1741878657,"current_range_meters":16400,"station_id":"ce4bhch2rcd13ifvqeug","pricing_plan_id":"cebpf4jnsgd1na2vs0mg"},{"bike_id":"42324f55-fcf7-447b-bd93-874a6c7f62fe","system_id":"levelo_inurba_marseille","lat":43.30303,"lon":5.39209,"is_reserved":false,"is_disabled":false,"rental_uris":{"android":"levelo://app?vid=42324f55-fcf7-447b-bd93-874a6c7f62fe","ios":"levelo://app?vid=42324f55-fcf7-447b-bd93-874a6c7f62fe"},"vehicle_type_id":"4","last_reported":1741878657,"current_range_meters":16400,"station_id":"ce4bgkh2rcd13ifvqbk0","pricing_plan_id":"cebpf4jnsgd1na2vs0mg"},{"bike_id":"eff977f0-75cf-4a36-afca-3848bedb88d2","system_id":"levelo_inurba_marseille","lat":43.25938,"lon":5.40901,"is_reserved":false,"is_disabled":false,"rental_uris":{"android":"levelo://app?vid=eff977f0-75cf-4a36-afca-3848bedb88d2","ios":"levelo://app?vid=eff977f0-75cf-4a36-afca-3848bedb88d2"},"vehicle_type_id":"4","last_reported":1741878657,"current_range_meters":16400,"station_id":"ce4bhm92rcd13ifvqglg","pricing_plan_id":"cebpf4jnsgd1na2vs0mg"},{"bike_id":"8f7fc6e3-4f34-40c4-a1c6-220f2c5ee70c","system_id":"levelo_inurba_marseille","lat":43.2841,"lon":5.37509,"is_reserved":false,"is_disabled":false,"rental_uris":{"android":"levelo://app?vid=8f7fc6e3-4f34-40c4-a1c6-220f2c5ee70c","ios":"levelo://app?vid=8f7fc6e3-4f34-40c4-a1c6-220f2c5ee70c"},"vehicle_type_id":"4","last_reported":1741878657,"current_range_meters":16400,"station_id":"ce4bh412rcd13ifvqds0","pricing_plan_id":"cebpf4jnsgd1na2vs0mg"},{"bike_id":"7ec2477b-a3d5-4b5f-9b86-6657eaa66da5","system_id":"levelo_inurba_marseille","lat":43.28106,"lon":5.37831,"is_reserved":false,"is_disabled":false,"rental_uris":{"android":"levelo://app?vid=7ec2477b-a3d5-4b5f-9b86-6657eaa66da5","ios":"levelo://app?vid=7ec2477b-a3d5-4b5f-9b86-6657eaa66da5"},"vehicle_type_id":"4","last_reported":1741878657,"current_range_meters":16800,"station_id":"ce4bha12rcd13ifvqee0","pricing_plan_id":"cebpf4jnsgd1na2vs0mg"},{"bike_id":"75384a38-a16d-4888-ac77-bb518757f18a","system_id":"levelo_inurba_marseille","lat":43.29904,"lon":5.38135,"is_reserved":false,"is_disabled":false,"rental_uris":{"android":"levelo://app?vid=75384a38-a16d-4888-ac77-bb518757f18a","ios":"levelo://app?vid=75384a38-a16d-4888-ac77-bb518757f18a"},"vehicle_type_id":"4","last_reported":1741878657,"current_range_meters":16800,"station_id":"ce4bgj12rcd13ifvqbc0","pricing_plan_id":"cebpf4jnsgd1na2vs0mg"},{"bike_id":"357c208f-3106-4228-a20a-04e892f984bc","system_id":"levelo_inurba_marseille","lat":43.32369,"lon":5.36775,"is_reserved":false,"is_disabled":false,"rental_uris":{"android":"levelo://app?vid=357c208f-3106-4228-a20a-04e892f984bc","ios":"levelo://app?vid=357c208f-3106-4228-a20a-04e892f984bc"},"vehicle_type_id":"4","last_reported":1741878657,"current_range_meters":16800,"station_id":"ce4bhsh2rcd13ifvqi2g","pricing_plan_id":"cebpf4jnsgd1na2vs0mg"},{"bike_id":"5ca6f8ce-9296-40a6-b7cf-cbc7a14ea2f3","system_id":"levelo_inurba_marseille","lat":43.29972,"lon":5.38499,"is_reserved":false,"is_disabled":false,"rental_uris":{"android":"levelo://app?vid=5ca6f8ce-9296-40a6-b7cf-cbc7a14ea2f3","ios":"levelo://app?vid=5ca6f8ce-9296-40a6-b7cf-cbc7a14ea2f3"},"vehicle_type_id":"4","last_reported":1741878657,"current_range_meters":16800,"station_id":"ce4bgj92rcd13ifvqbd0","pricing_plan_id":"cebpf4jnsgd1na2vs0mg"},{"bike_id":"b8d433fe-ef1f-4898-8c27-0d671afc629e","system_id":"levelo_inurba_marseille","lat":43.30797,"lon":5.38152,"is_reserved":false,"is_disabled":false,"rental_uris":{"android":"levelo://app?vid=b8d433fe-ef1f-4898-8c27-0d671afc629e","ios":"levelo://app?vid=b8d433fe-ef1f-4898-8c27-0d671afc629e"},"vehicle_type_id":"4","last_reported":1741878657,"current_range_meters":16800,"station_id":"ce4bgt12rcd13ifvqce0","pricing_plan_id":"cebpf4jnsgd1na2vs0mg"},{"bike_id":"9862d5d8-14e6-4c8e-a1db-a289dbb7f6aa","system_id":"levelo_inurba_marseille","lat":43.30914,"lon":5.36861,"is_reserved":false,"is_disabled":false,"rental_uris":{"android":"levelo://app?vid=9862d5d8-14e6-4c8e-a1db-a289dbb7f6aa","ios":"levelo://app?vid=9862d5d8-14e6-4c8e-a1db-a289dbb7f6aa"},"vehicle_type_id":"4","last_reported":1741878657,"current_range_meters":16800,"station_id":"ce4bgn92rcd13ifvqbvg","pricing_plan_id":"cebpf4jnsgd1na2vs0mg"},{"bike_id":"31c8862d-1f7d-4f69-a37f-93c25c9ce4d5","system_id":"levelo_inurba_marseille","lat":43.25009,"lon":5.38929,"is_reserved":false,"is_disabled":false,"rental_uris":{"android":"levelo://app?vid=31c8862d-1f7d-4f69-a37f-93c25c9ce4d5","ios":"levelo://app?vid=31c8862d-1f7d-4f69-a37f-93c25c9ce4d5"},"vehicle_type_id":"4","last_reported":1741878657,"current_range_meters":17200,"station_id":"ce4bhgp2rcd13ifvqfd0","pricing_plan_id":"cebpf4jnsgd1na2vs0mg"},{"bike_id":"94b4075d-019b-49f9-b9a2-aa34a849b486","system_id":"levelo_inurba_marseille","lat":43.26784,"lon":5.3943,"is_reserved":false,"is_disabled":false,"rental_uris":{"android":"levelo://app?vid=94b4075d-019b-49f9-b9a2-aa34a849b486","ios":"levelo://app?vid=94b4075d-019b-49f9-b9a2-aa34a849b486"},"vehicle_type_id":"4","last_reported":1741878657,"current_range_meters":16800,"station_id":"ce4bhh12rcd13ifvqfg0","pricing_plan_id":"cebpf4jnsgd1na2vs0mg"},{"bike_id":"c5c9f44f-0d99-4774-949e-f6e73802ff8d","system_id":"levelo_inurba_marseille","lat":43.28711,"lon":5.39991,"is_reserved":false,"is_disabled":false,"rental_uris":{"android":"levelo://app?vid=c5c9f44f-0d99-4774-949e-f6e73802ff8d","ios":"levelo://app?vid=c5c9f44f-0d99-4774-949e-f6e73802ff8d"},"vehicle_type_id":"4","last_reported":1741878657,"current_range_meters":16400,"station_id":"ce4bho92rcd13ifvqh3g","pricing_plan_id":"cebpf4jnsgd1na2vs0mg"},{"bike_id":"78cc47f5-c6a8-4422-80bb-cd4096a38eac","system_id":"levelo_inurba_marseille","lat":43.29907,"lon":5.3815,"is_reserved":false,"is_disabled":false,"rental_uris":{"android":"levelo://app?vid=78cc47f5-c6a8-4422-80bb-cd4096a38eac","ios":"levelo://app?vid=78cc47f5-c6a8-4422-80bb-cd4096a38eac"},"vehicle_type_id":"4","last_reported":1741878657,"current_range_meters":17200,"station_id":"ce4bgj12rcd13ifvqbc0","pricing_plan_id":"cebpf4jnsgd1na2vs0mg"},{"bike_id":"73478635-6e08-4ccd-813a-ddef2812924b","system_id":"levelo_inurba_marseille","lat":43.27997,"lon":5.41662,"is_reserved":false,"is_disabled":false,"rental_uris":{"android":"levelo://app?vid=73478635-6e08-4ccd-813a-ddef2812924b","ios":"levelo://app?vid=73478635-6e08-4ccd-813a-ddef2812924b"},"vehicle_type_id":"4","last_reported":1741878657,"current_range_meters":17200,"station_id":"ce4bho12rcd13ifvqh1g","pricing_plan_id":"cebpf4jnsgd1na2vs0mg"},{"bike_id":"ba0ff314-18b8-4ef6-b3f3-756e797defc3","system_id":"levelo_inurba_marseille","lat":43.30801,"lon":5.37649,"is_reserved":false,"is_disabled":false,"rental_uris":{"android":"levelo://app?vid=ba0ff314-18b8-4ef6-b3f3-756e797defc3","ios":"levelo://app?vid=ba0ff314-18b8-4ef6-b3f3-756e797defc3"},"vehicle_type_id":"4","last_reported":1741878657,"current_range_meters":17200,"station_id":"ce4bgv92rcd13ifvqcq0","pricing_plan_id":"cebpf4jnsgd1na2vs0mg"},{"bike_id":"59822710-2d10-4517-868b-42cfab329759","system_id":"levelo_inurba_marseille","lat":43.23185,"lon":5.35558,"is_reserved":false,"is_disabled":false,"rental_uris":{"android":"levelo://app?vid=59822710-2d10-4517-868b-42cfab329759","ios":"levelo://app?vid=59822710-2d10-4517-868b-42cfab329759"},"vehicle_type_id":"4","last_reported":1741878657,"current_range_meters":17200,"station_id":"ce4bhu92rcd13ifvqi70","pricing_plan_id":"cebpf4jnsgd1na2vs0mg"},{"bike_id":"3b5238ed-e6ef-44c4-ac93-f8e070990b1c","system_id":"levelo_inurba_marseille","lat":43.25691,"lon":5.41115,"is_reserved":false,"is_disabled":false,"rental_uris":{"android":"levelo://app?vid=3b5238ed-e6ef-44c4-ac93-f8e070990b1c","ios":"levelo://app?vid=3b5238ed-e6ef-44c4-ac93-f8e070990b1c"},"vehicle_type_id":"4","last_reported":1741878657,"current_range_meters":17200,"station_id":"ce4bhkp2rcd13ifvqgd0","pricing_plan_id":"cebpf4jnsgd1na2vs0mg"},{"bike_id":"d98e5f37-4f71-4a36-9b3b-496f87de0d61","system_id":"levelo_inurba_marseille","lat":43.311,"lon":5.3759,"is_reserved":false,"is_disabled":false,"rental_uris":{"android":"levelo://app?vid=d98e5f37-4f71-4a36-9b3b-496f87de0d61","ios":"levelo://app?vid=d98e5f37-4f71-4a36-9b3b-496f87de0d61"},"vehicle_type_id":"4","last_reported":1741878657,"current_range_meters":17200,"station_id":"","pricing_plan_id":"cebpf4jnsgd1na2vs0mg"},{"bike_id":"bd7fb638-a561-41df-90ca-f32685780427","system_id":"levelo_inurba_marseille","lat":43.22925,"lon":5.35378,"is_reserved":false,"is_disabled":false,"rental_uris":{"android":"levelo://app?vid=bd7fb638-a561-41df-90ca-f32685780427","ios":"levelo://app?vid=bd7fb638-a561-41df-90ca-f32685780427"},"vehicle_type_id":"4","last_reported":1741878657,"current_range_meters":17200,"station_id":"cpo3532slgdg3j2ikp40","pricing_plan_id":"cebpf4jnsgd1na2vs0mg"},{"bike_id":"a095ab76-70b4-4b06-bf63-6dcce3e8cf39","system_id":"levelo_inurba_marseille","lat":43.30558,"lon":5.36725,"is_reserved":false,"is_disabled":false,"rental_uris":{"android":"levelo://app?vid=a095ab76-70b4-4b06-bf63-6dcce3e8cf39","ios":"levelo://app?vid=a095ab76-70b4-4b06-bf63-6dcce3e8cf39"},"vehicle_type_id":"4","last_reported":1741878657,"current_range_meters":17200,"station_id":"ce4bgrp2rcd13ifvqc9g","pricing_plan_id":"cebpf4jnsgd1na2vs0mg"},{"bike_id":"55ccb224-acdb-40c0-9250-20b5e51fc613","system_id":"levelo_inurba_marseille","lat":43.31226,"lon":5.36885,"is_reserved":false,"is_disabled":false,"rental_uris":{"android":"levelo://app?vid=55ccb224-acdb-40c0-9250-20b5e51fc613","ios":"levelo://app?vid=55ccb224-acdb-40c0-9250-20b5e51fc613"},"vehicle_type_id":"4","last_reported":1741878657,"current_range_meters":17200,"station_id":"ce4bgl92rcd13ifvqbq0","pricing_plan_id":"cebpf4jnsgd1na2vs0mg"},{"bike_id":"9a9ef659-d17a-4d8b-8442-16fbccc5e35a","system_id":"levelo_inurba_marseille","lat":43.304081,"lon":5.37826,"is_reserved":false,"is_disabled":false,"rental_uris":{"android":"levelo://app?vid=9a9ef659-d17a-4d8b-8442-16fbccc5e35a","ios":"levelo://app?vid=9a9ef659-d17a-4d8b-8442-16fbccc5e35a"},"vehicle_type_id":"4","last_reported":1741878657,"current_range_meters":17200,"station_id":"ce4bgup2rcd13ifvqcn0","pricing_plan_id":"cebpf4jnsgd1na2vs0mg"},{"bike_id":"8f472676-f4b8-4f8a-a700-64f30b04795c","system_id":"levelo_inurba_marseille","lat":43.26216,"lon":5.40429,"is_reserved":false,"is_disabled":false,"rental_uris":{"android":"levelo://app?vid=8f472676-f4b8-4f8a-a700-64f30b04795c","ios":"levelo://app?vid=8f472676-f4b8-4f8a-a700-64f30b04795c"},"vehicle_type_id":"4","last_reported":1741878657,"current_range_meters":17600,"station_id":"ce4bhmh2rcd13ifvqgmg","pricing_plan_id":"cebpf4jnsgd1na2vs0mg"},{"bike_id":"71ad7331-f80f-4a05-ba98-0af415103056","system_id":"levelo_inurba_marseille","lat":43.29488,"lon":5.42078,"is_reserved":false,"is_disabled":false,"rental_uris":{"android":"levelo://app?vid=71ad7331-f80f-4a05-ba98-0af415103056","ios":"levelo://app?vid=71ad7331-f80f-4a05-ba98-0af415103056"},"vehicle_type_id":"4","last_reported":1741878657,"current_range_meters":17600,"station_id":"ce4bhph2rcd13ifvqhdg","pricing_plan_id":"cebpf4jnsgd1na2vs0mg"},{"bike_id":"5d787cbb-b4d3-4193-aa3d-ac03e47773ba","system_id":"levelo_inurba_marseille","lat":43.29622,"lon":5.40624,"is_reserved":false,"is_disabled":false,"rental_uris":{"android":"levelo://app?vid=5d787cbb-b4d3-4193-aa3d-ac03e47773ba","ios":"levelo://app?vid=5d787cbb-b4d3-4193-aa3d-ac03e47773ba"},"vehicle_type_id":"4","last_reported":1741878657,"current_range_meters":18000,"station_id":"ce4bh0h2rcd13ifvqd60","pricing_plan_id":"cebpf4jnsgd1na2vs0mg"},{"bike_id":"808afc8d-c6a1-4b3f-b5e3-5773fa336c65","system_id":"levelo_inurba_marseille","lat":43.28147,"lon":5.42639,"is_reserved":false,"is_disabled":false,"rental_uris":{"android":"levelo://app?vid=808afc8d-c6a1-4b3f-b5e3-5773fa336c65","ios":"levelo://app?vid=808afc8d-c6a1-4b3f-b5e3-5773fa336c65"},"vehicle_type_id":"4","last_reported":1741878657,"current_range_meters":17600,"station_id":"ce4bhnh2rcd13ifvqgug","pricing_plan_id":"cebpf4jnsgd1na2vs0mg"},{"bike_id":"04f149c6-a120-4218-b435-a952d9eb67d0","system_id":"levelo_inurba_marseille","lat":43.24858,"lon":5.40629,"is_reserved":false,"is_disabled":false,"rental_uris":{"android":"levelo://app?vid=04f149c6-a120-4218-b435-a952d9eb67d0","ios":"levelo://app?vid=04f149c6-a120-4218-b435-a952d9eb67d0"},"vehicle_type_id":"4","last_reported":1741878657,"current_range_meters":17600,"station_id":"","pricing_plan_id":"cebpf4jnsgd1na2vs0mg"},{"bike_id":"2d3219c7-9dcc-4cd3-8e70-14b5e468ae7e","system_id":"levelo_inurba_marseille","lat":43.29261,"lon":5.38434,"is_reserved":false,"is_disabled":false,"rental_uris":{"android":"levelo://app?vid=2d3219c7-9dcc-4cd3-8e70-14b5e468ae7e","ios":"levelo://app?vid=2d3219c7-9dcc-4cd3-8e70-14b5e468ae7e"},"vehicle_type_id":"4","last_reported":1741878657,"current_range_meters":17600,"station_id":"ce4bh692rcd13ifvqea0","pricing_plan_id":"cebpf4jnsgd1na2vs0mg"},{"bike_id":"ba80c7a3-83c8-4bda-b467-af94164c0248","system_id":"levelo_inurba_marseille","lat":43.311131,"lon":5.378211,"is_reserved":false,"is_disabled":false,"rental_uris":{"android":"levelo://app?vid=ba80c7a3-83c8-4bda-b467-af94164c0248","ios":"levelo://app?vid=ba80c7a3-83c8-4bda-b467-af94164c0248"},"vehicle_type_id":"4","last_reported":1741878657,"current_range_meters":17600,"station_id":"ce4bgkh2rcd13ifvqbl0","pricing_plan_id":"cebpf4jnsgd1na2vs0mg"},{"bike_id":"ae49673f-ea48-4654-afa8-37261b9a0058","system_id":"levelo_inurba_marseille","lat":43.29848,"lon":5.36286,"is_reserved":false,"is_disabled":false,"rental_uris":{"android":"levelo://app?vid=ae49673f-ea48-4654-afa8-37261b9a0058","ios":"levelo://app?vid=ae49673f-ea48-4654-afa8-37261b9a0058"},"vehicle_type_id":"4","last_reported":1741878657,"current_range_meters":17600,"station_id":"ce4bgpp2rcd13ifvqc3g","pricing_plan_id":"cebpf4jnsgd1na2vs0mg"},{"bike_id":"beec61a7-fbf9-4f2b-ae33-1f4d82ba440d","system_id":"levelo_inurba_marseille","lat":43.25723,"lon":5.41111,"is_reserved":false,"is_disabled":false,"rental_uris":{"android":"levelo://app?vid=beec61a7-fbf9-4f2b-ae33-1f4d82ba440d","ios":"levelo://app?vid=beec61a7-fbf9-4f2b-ae33-1f4d82ba440d"},