{"last_updated":1686582417,"ttl":30,"version":"2.2","data":{"bikes":[{"bike_id":"46aab855-8193-482f-8752-b555c9b2ea64","system_id":"levelo_inurba_marseille","lat":43.30933,"lon":5.36739,"is_reserved":false,"is_disabled":false,"rental_uris":{"android":"levelo://app?vid=46aab855-8193-482f-8752-b555c9b2ea64","ios":"levelo://app?vid=46aab855-8193-482f-8752-b555c9b2ea64"},"vehicle_type_id":"4","last_reported":1686582418,"current_range_meters":18400,"station_id":"","pricing_plan_id":"free"},{"bike_id":"2a36e0c4-a817-43d3-8b9e-fc228a156a9e","system_id":"levelo_inurba_marseille","lat":43.30934,"lon":5.36868,"is_reserved":false,"is_disabled":false,"rental_uris":{"android":"levelo://app?vid=2a36e0c4-a817-43d3-8b9e-fc228a156a9e","ios":"levelo://app?vid=2a36e0c4-a817-43d3-8b9e-fc228a156a9e"},"vehicle_type_id":"4","last_reported":1686582418,"current_range_meters":25600,"station_id":"","pricing_plan_id":"free"},{"bike_id":"2236174f-9b48-4e77-bc47-17f9275c2cb6","system_id":"levelo_inurba_marseille","lat":43.309076,"lon":5.368465,"is_reserved":false,"is_disabled":false,"rental_uris":{"android":"levelo://app?vid=2236174f-9b48-4e77-bc47-17f9275c2cb6","ios":"levelo://app?vid=2236174f-9b48-4e77-bc47-17f9275c2cb6"},"vehicle_type_id":"4","last_reported":1686582418,"current_range_meters":5600,"station_id":"ce4bgn92rcd13ifvqbvg","pricing_plan_id":"free"},{"bike_id":"212ce616-7976-4531-92b1-69cefe6e3f6a","system_id":"levelo_inurba_marseille","lat":43.314811,"lon":5.373103,"is_reserved":false,"is_disabled":false,"rental_uris":{"android":"levelo://app?vid=212ce616-7976-4531-92b1-69cefe6e3f6a","ios":"levelo://app?vid=212ce616-7976-4531-92b1-69cefe6e3f6a"},"vehicle_type_id":"4","last_reported":1686582418,"current_range_meters":14000,"station_id":"ce4bgt12rcd13ifvqcd0","pricing_plan_id":"free"},{"bike_id":"4792b473-85e2-4fdd-83a4-302c95f6ac67","system_id":"levelo_inurba_marseille","lat":43.31675,"lon":5.37193,"is_reserved":false,"is_disabled":false,"rental_uris":{"android":"levelo://app?vid=4792b473-85e2-4fdd-83a4-302c95f6ac67","ios":"levelo://app?vid=4792b473-85e2-4fdd-83a4-302c95f6ac67"},"vehicle_type_id":"4","last_reported":1686582418,"current_range_meters":29600,"station_id":"","pricing_plan_id":"free"},{"bike_id":"c1fb032f-fb08-4a02-aedc-39d3c7c6c011","system_id":"levelo_inurba_marseille","lat":43.306,"lon":5.36574,"is_reserved":false,"is_disabled":false,"rental_uris":{"android":"levelo://app?vid=c1fb032f-fb08-4a02-aedc-39d3c7c6c011","ios":"levelo://app?vid=c1fb032f-fb08-4a02-aedc-39d3c7c6c011"},"vehicle_type_id":"4","last_reported":1686582418,"current_range_meters":0,"station_id":"","pricing_plan_id":"free"},{"bike_id":"dff1b0e2-7c5c-414a-846b-2ef60e70ea3e","system_id":"levelo_inurba_marseille","lat":43.31813,"lon":5.37384,"is_reserved":false,"is_disabled":false,"rental_uris":{"android":"levelo://app?vid=dff1b0e2-7c5c-414a-846b-2ef60e70ea3e","ios":"levelo://app?vid=dff1b0e2-7c5c-414a-846b-2ef60e70ea3e"},"vehicle_type_id":"4","last_reported":1686582418,"current_range_meters":24000,"station_id":"","pricing_plan_id":"free"},{"bike_id":"5699aec6-42d9-4197-9cf7-43e4edc38197","system_id":"levelo_inurba_marseille","lat":43.3112,"lon":5.37761,"is_reserved":false,"is_disabled":false,"rental_uris":{"android":"levelo://app?vid=5699aec6-42d9-4197-9cf7-43e4edc38197","ios":"levelo://app?vid=5699aec6-42d9-4197-9cf7-43e4edc38197"},"vehicle_type_id":"4","last_reported":1686582418,"current_range_meters":23200,"station_id":"ce4bgt92rcd13ifvqcg0","pricing_plan_id":"free"},{"bike_id":"da070104-fbaa-47c6-9aeb-98f814932e29","system_id":"levelo_inurba_marseille","lat":43.31124,"lon":5.37765,"is_reserved":false,"is_disabled":false,"rental_uris":{"android":"levelo://app?vid=da070104-fbaa-47c6-9aeb-98f814932e29","ios":"levelo://app?vid=da070104-fbaa-47c6-9aeb-98f814932e29"},"vehicle_type_id":"4","last_reported":1686582418,"current_range_meters":28000,"station_id":"ce4bgt92rcd13ifvqcg0","pricing_plan_id":"free"},{"bike_id":"e1a9ab3f-5d67-41fc-92c5-e50201b5bef5","system_id":"levelo_inurba_marseille","lat":43.30288,"lon":5.36884,"is_reserved":false,"is_disabled":false,"rental_uris":{"android":"levelo://app?vid=e1a9ab3f-5d67-41fc-92c5-e50201b5bef5","ios":"levelo://app?vid=e1a9ab3f-5d67-41fc-92c5-e50201b5bef5"},"vehicle_type_id":"4","last_reported":1686582418,"current_range_meters":23200,"station_id":"ce4bgqh2rcd13ifvqc5g","pricing_plan_id":"free"},{"bike_id":"794dd7c2-3108-4c8f-acbb-5ad90aa7104d","system_id":"levelo_inurba_marseille","lat":43.31557,"lon":5.38061,"is_reserved":false,"is_disabled":false,"rental_uris":{"android":"levelo://app?vid=794dd7c2-3108-4c8f-acbb-5ad90aa7104d","ios":"levelo://app?vid=794dd7c2-3108-4c8f-acbb-5ad90aa7104d"},"vehicle_type_id":"4","last_reported":1686582418,"current_range_meters":18400,"station_id":"","pricing_plan_id":"free"},{"bike_id":"7824dae9-2cf5-47c0-a61f-eb197c3637d6","system_id":"levelo_inurba_marseille","lat":43.30896,"lon":5.38045,"is_reserved":false,"is_disabled":false,"rental_uris":{"android":"levelo://app?vid=7824dae9-2cf5-47c0-a61f-eb197c3637d6","ios":"levelo://app?vid=7824dae9-2cf5-47c0-a61f-eb197c3637d6"},"vehicle_type_id":"4","last_reported":1686582418,"current_range_meters":22400,"station_id":"","pricing_plan_id":"free"},{"bike_id":"8678e6d6-f861-48d1-99dc-cf164f05872a","system_id":"levelo_inurba_marseille","lat":43.301939,"lon":5.366286,"is_reserved":false,"is_disabled":false,"rental_uris":{"android":"levelo://app?vid=8678e6d6-f861-48d1-99dc-cf164f05872a","ios":"levelo://app?vid=8678e6d6-f861-48d1-99dc-cf164f05872a"},"vehicle_type_id":"4","last_reported":1686582418,"current_range_meters":7200,"station_id":"ce4bgrh2rcd13ifvqc8g","pricing_plan_id":"free"},{"bike_id":"6f63b052-2ba1-4d3d-b650-f5bed182ffb4","system_id":"levelo_inurba_marseille","lat":43.304606,"lon":5.379026,"is_reserved":false,"is_disabled":false,"rental_uris":{"android":"levelo://app?vid=6f63b052-2ba1-4d3d-b650-f5bed182ffb4","ios":"levelo://app?vid=6f63b052-2ba1-4d3d-b650-f5bed182ffb4"},"vehicle_type_id":"4","last_reported":1686582418,"current_range_meters":24000,"station_id":"ce4bgup2rcd13ifvqcn0","pricing_plan_id":"free"},{"bike_id":"76173665-986b-41f3-ba5e-62aa7f33032c","system_id":"levelo_inurba_marseille","lat":43.30471,"lon":5.37903,"is_reserved":false,"is_disabled":false,"rental_uris":{"android":"levelo://app?vid=76173665-986b-41f3-ba5e-62aa7f33032c","ios":"levelo://app?vid=76173665-986b-41f3-ba5e-62aa7f33032c"},"vehicle_type_id":"4","last_reported":1686582418,"current_range_meters":31200,"station_id":"","pricing_plan_id":"free"},{"bike_id":"5a4ac47f-8558-4c55-908d-b107b910cc17","system_id":"levelo_inurba_marseille","lat":43.304606,"lon":5.379026,"is_reserved":false,"is_disabled":false,"rental_uris":{"android":"levelo://app?vid=5a4ac47f-8558-4c55-908d-b107b910cc17","ios":"levelo://app?vid=5a4ac47f-8558-4c55-908d-b107b910cc17"},"vehicle_type_id":"4","last_reported":1686582418,"current_range_meters":31600,"station_id":"ce4bgup2rcd13ifvqcn0","pricing_plan_id":"free"},{"bike_id":"7aae9c47-b539-458e-808f-8c64e706d242","system_id":"levelo_inurba_marseille","lat":43.304606,"lon":5.379026,"is_reserved":false,"is_disabled":false,"rental_uris":{"android":"levelo://app?vid=7aae9c47-b539-458e-808f-8c64e706d242","ios":"levelo://app?vid=7aae9c47-b539-458e-808f-8c64e706d242"},"vehicle_type_id":"4","last_reported":1686582418,"current_range_meters":5200,"station_id":"ce4bgup2rcd13ifvqcn0","pricing_plan_id":"free"},{"bike_id":"7420eaee-4604-4ad9-9b49-46cc5457e573","system_id":"levelo_inurba_marseille","lat":43.304606,"lon":5.379026,"is_reserved":false,"is_disabled":false,"rental_uris":{"android":"levelo://app?vid=7420eaee-4604-4ad9-9b49-46cc5457e573","ios":"levelo://app?vid=7420eaee-4604-4ad9-9b49-46cc5457e573"},"vehicle_type_id":"4","last_reported":1686582418,"current_range_meters":31200,"station_id":"ce4bgup2rcd13ifvqcn0","pricing_plan_id":"free"},{"bike_id":"301788e3-0a4c-4161-8c0d-6143875624a9","system_id":"levelo_inurba_marseille","lat":43.304606,"lon":5.379026,"is_reserved":false,"is_disabled":false,"rental_uris":{"android":"levelo://app?vid=301788e3-0a4c-4161-8c0d-6143875624a9","ios":"levelo://app?vid=301788e3-0a4c-4161-8c0d-6143875624a9"},"vehicle_type_id":"4","last_reported":1686582418,"current_range_meters":4400,"station_id":"ce4bgup2rcd13ifvqcn0","pricing_plan_id":"free"},{"bike_id":"98c2ce3a-3b2f-4dea-8e5b-c1740d16ae1e","system_id":"levelo_inurba_marseille","lat":43.30062,"lon":5.36652,"is_reserved":false,"is_disabled":false,"rental_uris":{"android":"levelo://app?vid=98c2ce3a-3b2f-4dea-8e5b-c1740d16ae1e","ios":"levelo://app?vid=98c2ce3a-3b2f-4dea-8e5b-c1740d16ae1e"},"vehicle_type_id":"4","last_reported":1686582418,"current_range_meters":8800,"station_id":"","pricing_plan_id":"free"},{"bike_id":"2210da94-3dbd-4ce6-8498-0fd4fd98cb2a","system_id":"levelo_inurba_marseille","lat":43.30143,"lon":5.37413,"is_reserved":false,"is_disabled":false,"rental_uris":{"android":"levelo://app?vid=2210da94-3dbd-4ce6-8498-0fd4fd98cb2a","ios":"levelo://app?vid=2210da94-3dbd-4ce6-8498-0fd4fd98cb2a"},"vehicle_type_id":"4","last_reported":1686582418,"current_range_meters":19600,"station_id":"ce4bgs92rcd13ifvqcc0","pricing_plan_id":"free"},{"bike_id":"28ddccb0-790c-435a-9945-282db7eb284d","system_id":"levelo_inurba_marseille","lat":43.32006,"lon":5.38165,"is_reserved":false,"is_disabled":false,"rental_uris":{"android":"levelo://app?vid=28ddccb0-790c-435a-9945-282db7eb284d","ios":"levelo://app?vid=28ddccb0-790c-435a-9945-282db7eb284d"},"vehicle_type_id":"4","last_reported":1686582418,"current_range_meters":24000,"station_id":"ce4bhr12rcd13ifvqhpg","pricing_plan_id":"free"},{"bike_id":"313bbf80-b771-4e24-9614-a07a8a5ab4ce","system_id":"levelo_inurba_marseille","lat":43.299243,"lon":5.37481,"is_reserved":false,"is_disabled":false,"rental_uris":{"android":"levelo://app?vid=313bbf80-b771-4e24-9614-a07a8a5ab4ce","ios":"levelo://app?vid=313bbf80-b771-4e24-9614-a07a8a5ab4ce"},"vehicle_type_id":"4","last_reported":1686582418,"current_range_meters":0,"station_id":"ce4bgjh2rcd13ifvqbg0","pricing_plan_id":"free"},{"bike_id":"41d136ab-bee8-4d7b-896f-24821c7b5381","system_id":"levelo_inurba_marseille","lat":43.2968,"lon":5.37291,"is_reserved":false,"is_disabled":false,"rental_uris":{"android":"levelo://app?vid=41d136ab-bee8-4d7b-896f-24821c7b5381","ios":"levelo://app?vid=41d136ab-bee8-4d7b-896f-24821c7b5381"},"vehicle_type_id":"4","last_reported":1686582418,"current_range_meters":27200,"station_id":"ce4bgk12rcd13ifvqbj0","pricing_plan_id":"free"},{"bike_id":"88d0330c-5bb0-4a19-9b65-d4683b42e015","system_id":"levelo_inurba_marseille","lat":43.29683,"lon":5.36046,"is_reserved":false,"is_disabled":false,"rental_uris":{"android":"levelo://app?vid=88d0330c-5bb0-4a19-9b65-d4683b42e015","ios":"levelo://app?vid=88d0330c-5bb0-4a19-9b65-d4683b42e015"},"vehicle_type_id":"4","last_reported":1686582418,"current_range_meters":25200,"station_id":"ce4bgpp2rcd13ifvqc3g","pricing_plan_id":"free"},{"bike_id":"182d05b6-e499-4ff2-a78c-32ca4b0843d7","system_id":"levelo_inurba_marseille","lat":43.30958,"lon":5.39027,"is_reserved":false,"is_disabled":false,"rental_uris":{"android":"levelo://app?vid=182d05b6-e499-4ff2-a78c-32ca4b0843d7","ios":"levelo://app?vid=182d05b6-e499-4ff2-a78c-32ca4b0843d7"},"vehicle_type_id":"4","last_reported":1686582418,"current_range_meters":7200,"station_id":"ce4bgup2rcd13ifvqco0","pricing_plan_id":"free"},{"bike_id":"823f0ad0-88a5-4c6b-8bbb-bf4e29df5e57","system_id":"levelo_inurba_marseille","lat":43.30158,"lon":5.38567,"is_reserved":false,"is_disabled":false,"rental_uris":{"android":"levelo://app?vid=823f0ad0-88a5-4c6b-8bbb-bf4e29df5e57","ios":"levelo://app?vid=823f0ad0-88a5-4c6b-8bbb-bf4e29df5e57"},"vehicle_type_id":"4","last_reported":1686582418,"current_range_meters":2800,"station_id":"ce4bgt12rcd13ifvqce0","pricing_plan_id":"free"},{"bike_id":"d283daa2-3bf7-4c31-9990-bf780efa5d86","system_id":"levelo_inurba_marseille","lat":43.29806,"lon":5.38091,"is_reserved":false,"is_disabled":false,"rental_uris":{"android":"levelo://app?vid=d283daa2-3bf7-4c31-9990-bf780efa5d86","ios":"levelo://app?vid=d283daa2-3bf7-4c31-9990-bf780efa5d86"},"vehicle_type_id":"4","last_reported":1686582418,"current_range_meters":24400,"station_id":"ce4bgip2rcd13ifvqbb0","pricing_plan_id":"free"},{"bike_id":"278f8fe9-8ce0-4fbb-a3a7-291558de4687","system_id":"levelo_inurba_marseille","lat":43.298037,"lon":5.381066,"is_reserved":false,"is_disabled":false,"rental_uris":{"android":"levelo://app?vid=278f8fe9-8ce0-4fbb-a3a7-291558de4687","ios":"levelo://app?vid=278f8fe9-8ce0-4fbb-a3a7-291558de4687"},"vehicle_type_id":"4","last_reported":1686582418,"current_range_meters":800,"station_id":"ce4bgip2rcd13ifvqbb0","pricing_plan_id":"free"},{"bike_id":"77a98ff7-b454-4195-8b45-b53b78a35842","system_id":"levelo_inurba_marseille","lat":43.298037,"lon":5.381066,"is_reserved":false,"is_disabled":false,"rental_uris":{"android":"levelo://app?vid=77a98ff7-b454-4195-8b45-b53b78a35842","ios":"levelo://app?vid=77a98ff7-b454-4195-8b45-b53b78a35842"},"vehicle_type_id":"4","last_reported":1686582418,"current_range_meters":31200,"station_id":"ce4bgip2rcd13ifvqbb0","pricing_plan_id":"free"},{"bike_id":"88b057ef-06a9-4fd5-9951-55f53a43bfd1","system_id":"levelo_inurba_marseille","lat":43.304274,"lon":5.388873,"is_reserved":false,"is_disabled":false,"rental_uris":{"android":"levelo://app?vid=88b057ef-06a9-4fd5-9951-55f53a43bfd1","ios":"levelo://app?vid=88b057ef-06a9-4fd5-9951-55f53a43bfd1"},"vehicle_type_id":"4","last_reported":1686582418,"current_range_meters":5600,"station_id":"ce4bgk12rcd13ifvqbi0","pricing_plan_id":"free"},{"bike_id":"84ccd281-3203-4d50-8a27-989a9bbc820b","system_id":"levelo_inurba_marseille","lat":43.304274,"lon":5.388873,"is_reserved":false,"is_disabled":false,"rental_uris":{"android":"levelo://app?vid=84ccd281-3203-4d50-8a27-989a9bbc820b","ios":"levelo://app?vid=84ccd281-3203-4d50-8a27-989a9bbc820b"},"vehicle_type_id":"4","last_reported":1686582418,"current_range_meters":5200,"station_id":"ce4bgk12rcd13ifvqbi0","pricing_plan_id":"free"},{"bike_id":"1c43cecf-5998-443f-b7e7-4444e156a690","system_id":"levelo_inurba_marseille","lat":43.295748,"lon":5.37522,"is_reserved":false,"is_disabled":false,"rental_uris":{"android":"levelo://app?vid=1c43cecf-5998-443f-b7e7-4444e156a690","ios":"levelo://app?vid=1c43cecf-5998-443f-b7e7-4444e156a690"},"vehicle_type_id":"4","last_reported":1686582418,"current_range_meters":29200,"station_id":"ce4bgh92rcd13ifvqb50","pricing_plan_id":"free"},{"bike_id":"529f9289-a8a8-4e90-a853-9ba053679d24","system_id":"levelo_inurba_marseille","lat":43.295279,"lon":5.375048,"is_reserved":false,"is_disabled":false,"rental_uris":{"android":"levelo://app?vid=529f9289-a8a8-4e90-a853-9ba053679d24","ios":"levelo://app?vid=529f9289-a8a8-4e90-a853-9ba053679d24"},"vehicle_type_id":"4","last_reported":1686582418,"current_range_meters":5600,"station_id":"ce4bgkp2rcd13ifvqbmg","pricing_plan_id":"free"},{"bike_id":"b9359164-9fdf-4786-abdf-47da72b54321","system_id":"levelo_inurba_marseille","lat":43.3237,"lon":5.38874,"is_reserved":false,"is_disabled":false,"rental_uris":{"android":"levelo://app?vid=b9359164-9fdf-4786-abdf-47da72b54321","ios":"levelo://app?vid=b9359164-9fdf-4786-abdf-47da72b54321"},"vehicle_type_id":"4","last_reported":1686582418,"current_range_meters":16800,"station_id":"ce4bhqp2rcd13ifvqhog","pricing_plan_id":"free"},{"bike_id":"aba990e3-afc6-40cc-99ca-88ca8228a0ff","system_id":"levelo_inurba_marseille","lat":43.3237,"lon":5.38881,"is_reserved":false,"is_disabled":false,"rental_uris":{"android":"levelo://app?vid=aba990e3-afc6-40cc-99ca-88ca8228a0ff","ios":"levelo://app?vid=aba990e3-afc6-40cc-99ca-88ca8228a0ff"},"vehicle_type_id":"4","last_reported":1686582418,"current_range_meters":21600,"station_id":"ce4bhqp2rcd13ifvqhog","pricing_plan_id":"free"},{"bike_id":"7278c80c-a501-47ea-b094-a642dd96a2d1","system_id":"levelo_inurba_marseille","lat":43.29565,"lon":5.37943,"is_reserved":false,"is_disabled":false,"rental_uris":{"android":"levelo://app?vid=7278c80c-a501-47ea-b094-a642dd96a2d1","ios":"levelo://app?vid=7278c80c-a501-47ea-b094-a642dd96a2d1"},"vehicle_type_id":"4","last_reported":1686582418,"current_range_meters":22400,"station_id":"","pricing_plan_id":"free"},{"bike_id":"6987dd49-262d-4da8-b404-79c12e4f6f74","system_id":"levelo_inurba_marseille","lat":43.29336,"lon":5.36361,"is_reserved":false,"is_disabled":false,"rental_uris":{"android":"levelo://app?vid=6987dd49-262d-4da8-b404-79c12e4f6f74","ios":"levelo://app?vid=6987dd49-262d-4da8-b404-79c12e4f6f74"},"vehicle_type_id":"4","last_reported":1686582418,"current_range_meters":25200,"station_id":"","pricing_plan_id":"free"},{"bike_id":"2fe1a29e-ee74-4f4c-84b6-a087ca228faa","system_id":"levelo_inurba_marseille","lat":43.2936,"lon":5.37835,"is_reserved":false,"is_disabled":false,"rental_uris":{"android":"levelo://app?vid=2fe1a29e-ee74-4f4c-84b6-a087ca228faa","ios":"levelo://app?vid=2fe1a29e-ee74-4f4c-84b6-a087ca228faa"},"vehicle_type_id":"4","last_reported":1686582418,"current_range_meters":6800,"station_id":"ce4bgjh2rcd13ifvqbf0","pricing_plan_id":"free"},{"bike_id":"120bbdc1-8b25-43b6-b18d-096f2120b8ee","system_id":"levelo_inurba_marseille","lat":43.29305,"lon":5.3745,"is_reserved":false,"is_disabled":false,"rental_uris":{"android":"levelo://app?vid=120bbdc1-8b25-43b6-b18d-096f2120b8ee","ios":"levelo://app?vid=120bbdc1-8b25-43b6-b18d-096f2120b8ee"},"vehicle_type_id":"4","last_reported":1686582418,"current_range_meters":20000,"station_id":"ce4bgi12rcd13ifvqb70","pricing_plan_id":"free"},{"bike_id":"ff0cdc0c-802f-41dd-bf49-867017323fb0","system_id":"levelo_inurba_marseille","lat":43.293009,"lon":5.374584,"is_reserved":false,"is_disabled":false,"rental_uris":{"android":"levelo://app?vid=ff0cdc0c-802f-41dd-bf49-867017323fb0","ios":"levelo://app?vid=ff0cdc0c-802f-41dd-bf49-867017323fb0"},"vehicle_type_id":"4","last_reported":1686582418,"current_range_meters":19200,"station_id":"ce4bgi12rcd13ifvqb70","pricing_plan_id":"free"},{"bike_id":"027a0017-ec95-4cb1-9f35-612d35682766","system_id":"levelo_inurba_marseille","lat":43.305994,"lon":5.393687,"is_reserved":false,"is_disabled":false,"rental_uris":{"android":"levelo://app?vid=027a0017-ec95-4cb1-9f35-612d35682766","ios":"levelo://app?vid=027a0017-ec95-4cb1-9f35-612d35682766"},"vehicle_type_id":"4","last_reported":1686582418,"current_range_meters":2800,"station_id":"ce4bh0p2rcd13ifvqd80","pricing_plan_id":"free"},{"bike_id":"0ad432c9-bd63-4ed8-bafd-143e4973e218","system_id":"levelo_inurba_marseille","lat":43.302992,"lon":5.392136,"is_reserved":false,"is_disabled":false,"rental_uris":{"android":"levelo://app?vid=0ad432c9-bd63-4ed8-bafd-143e4973e218","ios":"levelo://app?vid=0ad432c9-bd63-4ed8-bafd-143e4973e218"},"vehicle_type_id":"4","last_reported":1686582418,"current_range_meters":26800,"station_id":"ce4bgkh2rcd13ifvqbk0","pricing_plan_id":"free"},{"bike_id":"97b7bf52-dfde-47cc-9445-84a82d703094","system_id":"levelo_inurba_marseille","lat":43.291675,"lon":5.371583,"is_reserved":false,"is_disabled":false,"rental_uris":{"android":"levelo://app?vid=97b7bf52-dfde-47cc-9445-84a82d703094","ios":"levelo://app?vid=97b7bf52-dfde-47cc-9445-84a82d703094"},"vehicle_type_id":"4","last_reported":1686582418,"current_range_meters":1200,"station_id":"ce4bha92rcd13ifvqeh0","pricing_plan_id":"free"},{"bike_id":"82a9d747-06bc-4432-ad14-05478d445494","system_id":"levelo_inurba_marseille","lat":43.29249,"lon":5.37728,"is_reserved":false,"is_disabled":false,"rental_uris":{"android":"levelo://app?vid=82a9d747-06bc-4432-ad14-05478d445494","ios":"levelo://app?vid=82a9d747-06bc-4432-ad14-05478d445494"},"vehicle_type_id":"4","last_reported":1686582418,"current_range_meters":15600,"station_id":"","pricing_plan_id":"free"},{"bike_id":"0a382b3c-a357-43cd-ad4d-ce6da1912f0f","system_id":"levelo_inurba_marseille","lat":43.291994,"lon":5.357886,"is_reserved":false,"is_disabled":false,"rental_uris":{"android":"levelo://app?vid=0a382b3c-a357-43cd-ad4d-ce6da1912f0f","ios":"levelo://app?vid=0a382b3c-a357-43cd-ad4d-ce6da1912f0f"},"vehicle_type_id":"4","last_reported":1686582418,"current_range_meters":4000,"station_id":"ce4bhb12rcd13ifvqel0","pricing_plan_id":"free"},{"bike_id":"c7144520-a141-46e3-b013-dbbb9ab78563","system_id":"levelo_inurba_marseille","lat":43.291994,"lon":5.357886,"is_reserved":false,"is_disabled":false,"rental_uris":{"android":"levelo://app?vid=c7144520-a141-46e3-b013-dbbb9ab78563","ios":"levelo://app?vid=c7144520-a141-46e3-b013-dbbb9ab78563"},"vehicle_type_id":"4","last_reported":1686582418,"current_range_meters":12800,"station_id":"ce4bhb12rcd13ifvqel0","pricing_plan_id":"free"},{"bike_id":"bb94bdad-9d77-46d9-b0e3-b47769c617ef","system_id":"levelo_inurba_marseille","lat":43.31329,"lon":5.39688,"is_reserved":false,"is_disabled":false,"rental_uris":{"android":"levelo://app?vid=bb94bdad-9d77-46d9-b0e3-b47769c617ef","ios":"levelo://app?vid=bb94bdad-9d77-46d9-b0e3-b47769c617ef"},"vehicle_type_id":"4","last_reported":1686582418,"current_range_meters":12800,"station_id":"ce4bgvp2rcd13ifvqcu0","pricing_plan_id":"free"},{"bike_id":"ac86a208-6035-4037-b454-51ca8a44d1f7","system_id":"levelo_inurba_marseille","lat":43.3133,"lon":5.39689,"is_reserved":false,"is_disabled":false,"rental_uris":{"android":"levelo://app?vid=ac86a208-6035-4037-b454-51ca8a44d1f7","ios":"levelo://app?vid=ac86a208-6035-4037-b454-51ca8a44d1f7"},"vehicle_type_id":"4","last_reported":1686582418,"current_range_meters":16800,"station_id":"ce4bgvp2rcd13ifvqcu0","pricing_plan_id":"free"},{"bike_id":"ed24a1da-7d16-4dc2-b0ea-ddaf4045dfcd","system_id":"levelo_inurba_marseille","lat":43.291994,"lon":5.357886,"is_reserved":false,"is_disabled":false,"rental_uris":{"android":"levelo://app?vid=ed24a1da-7d16-4dc2-b0ea-ddaf4045dfcd","ios":"levelo://app?vid=ed24a1da-7d16-4dc2-b0ea-ddaf4045dfcd"},"vehicle_type_id":"4","last_reported":1686582418,"current_range_meters":16800,"station_id":"ce4bhb12rcd13ifvqel0","pricing_plan_id":"free"},{"bike_id":"50a191c4-7b7f-4099-9e82-92c1517f077d","system_id":"levelo_inurba_marseille","lat":43.31327,"lon":5.39695,"is_reserved":false,"is_disabled":false,"rental_uris":{"android":"levelo://app?vid=50a191c4-7b7f-4099-9e82-92c1517f077d","ios":"levelo://app?vid=50a191c4-7b7f-4099-9e82-92c1517f077d"},"vehicle_type_id":"4","last_reported":1686582418,"current_range_meters":6400,"station_id":"ce4bgvp2rcd13ifvqcu0","pricing_plan_id":"free"},{"bike_id":"62a58d6a-4129-4e62-8059-2310831dc6e2","system_id":"levelo_inurba_marseille","lat":43.29529,"lon":5.385581,"is_reserved":false,"is_disabled":false,"rental_uris":{"android":"levelo://app?vid=62a58d6a-4129-4e62-8059-2310831dc6e2","ios":"levelo://app?vid=62a58d6a-4129-4e62-8059-2310831dc6e2"},"vehicle_type_id":"4","last_reported":1686582418,"current_range_meters":18800,"station_id":"ce4bgih2rcd13ifvqba0","pricing_plan_id":"free"},{"bike_id":"223687b5-a77f-4f40-ad2b-a29a52456b67","system_id":"levelo_inurba_marseille","lat":43.29035,"lon":5.37565,"is_reserved":false,"is_disabled":false,"rental_uris":{"android":"levelo://app?vid=223687b5-a77f-4f40-ad2b-a29a52456b67","ios":"levelo://app?vid=223687b5-a77f-4f40-ad2b-a29a52456b67"},"vehicle_type_id":"4","last_reported":1686582418,"current_range_meters":16400,"station_id":"ce4bh692rcd13ifvqe90","pricing_plan_id":"free"},{"bike_id":"48a499c1-a341-408c-8bde-8caf70e578c0","system_id":"levelo_inurba_marseille","lat":43.289184,"lon":5.366408,"is_reserved":false,"is_disabled":false,"rental_uris":{"android":"levelo://app?vid=48a499c1-a341-408c-8bde-8caf70e578c0","ios":"levelo://app?vid=48a499c1-a341-408c-8bde-8caf70e578c0"},"vehicle_type_id":"4","last_reported":1686582418,"current_range_meters":800,"station_id":"ce4bhap2rcd13ifvqek0","pricing_plan_id":"free"},{"bike_id":"0a4beee8-1d0b-40b6-a628-dd56857f4693","system_id":"levelo_inurba_marseille","lat":43.294032,"lon":5.386342,"is_reserved":false,"is_disabled":false,"rental_uris":{"android":"levelo://app?vid=0a4beee8-1d0b-40b6-a628-dd56857f4693","ios":"levelo://app?vid=0a4beee8-1d0b-40b6-a628-dd56857f4693"},"vehicle_type_id":"4","last_reported":1686582418,"current_range_meters":15600,"station_id":"","pricing_plan_id":"free"},{"bike_id":"a6f80022-8a8c-4f80-bbf1-3b67a0efe971","system_id":"levelo_inurba_marseille","lat":43.292644,"lon":5.384257,"is_reserved":false,"is_disabled":false,"rental_uris":{"android":"levelo://app?vid=a6f80022-8a8c-4f80-bbf1-3b67a0efe971","ios":"levelo://app?vid=a6f80022-8a8c-4f80-bbf1-3b67a0efe971"},"vehicle_type_id":"4","last_reported":1686582418,"current_range_meters":10400,"station_id":"ce4bh692rcd13ifvqea0","pricing_plan_id":"free"},{"bike_id":"1ee3e8b7-3611-4256-9e78-6faf22b08482","system_id":"levelo_inurba_marseille","lat":43.30428,"lon":5.39747,"is_reserved":false,"is_disabled":false,"rental_uris":{"android":"levelo://app?vid=1ee3e8b7-3611-4256-9e78-6faf22b08482","ios":"levelo://app?vid=1ee3e8b7-3611-4256-9e78-6faf22b08482"},"vehicle_type_id":"4","last_reported":1686582418,"current_range_meters":29200,"station_id":"ce4bh092rcd13ifvqd20","pricing_plan_id":"free"},{"bike_id":"f10d589a-e875-467e-bc24-756dce22d66d","system_id":"levelo_inurba_marseille","lat":43.304274,"lon":5.397513,"is_reserved":false,"is_disabled":false,"rental_uris":{"android":"levelo://app?vid=f10d589a-e875-467e-bc24-756dce22d66d","ios":"levelo://app?vid=f10d589a-e875-467e-bc24-756dce22d66d"},"vehicle_type_id":"4","last_reported":1686582418,"current_range_meters":16000,"station_id":"ce4bh092rcd13ifvqd20","pricing_plan_id":"free"},{"bike_id":"04e3df2b-4c84-4252-8862-ff52254d29ea","system_id":"levelo_inurba_marseille","lat":43.29007,"lon":5.35606,"is_reserved":false,"is_disabled":false,"rental_uris":{"android":"levelo://app?vid=04e3df2b-4c84-4252-8862-ff52254d29ea","ios":"levelo://app?vid=04e3df2b-4c84-4252-8862-ff52254d29ea"},"vehicle_type_id":"4","last_reported":1686582418,"current_range_meters":12000,"station_id":"ce4bhb92rcd13ifvqen0","pricing_plan_id":"free"},{"bike_id":"1528779b-93d9-49b0-b933-b67a87d1ffd1","system_id":"levelo_inurba_marseille","lat":43.2901,"lon":5.381269,"is_reserved":false,"is_disabled":false,"rental_uris":{"android":"levelo://app?vid=1528779b-93d9-49b0-b933-b67a87d1ffd1","ios":"levelo://app?vid=1528779b-93d9-49b0-b933-b67a87d1ffd1"},"vehicle_type_id":"4","last_reported":1686582418,"current_range_meters":5200,"station_id":"ce4bh4p2rcd13ifvqe1g","pricing_plan_id":"free"},{"bike_id":"f852a456-25ae-4fd1-97f0-b9dfb80d0ebb","system_id":"levelo_inurba_marseille","lat":43.309371,"lon":5.401449,"is_reserved":false,"is_disabled":false,"rental_uris":{"android":"levelo://app?vid=f852a456-25ae-4fd1-97f0-b9dfb80d0ebb","ios":"levelo://app?vid=f852a456-25ae-4fd1-97f0-b9dfb80d0ebb"},"vehicle_type_id":"4","last_reported":1686582418,"current_range_meters":4000,"station_id":"ce4bgvp2rcd13ifvqct0","pricing_plan_id":"free"},{"bike_id":"b6b376f2-5126-436a-a4c9-aad46004240f","system_id":"levelo_inurba_marseille","lat":43.306412,"lon":5.401035,"is_reserved":false,"is_disabled":false,"rental_uris":{"android":"levelo://app?vid=b6b376f2-5126-436a-a4c9-aad46004240f","ios":"levelo://app?vid=b6b376f2-5126-436a-a4c9-aad46004240f"},"vehicle_type_id":"4","last_reported":1686582418,"current_range_meters":25200,"station_id":"ce4bh112rcd13ifvqda0","pricing_plan_id":"free"},{"bike_id":"9e3737b0-0700-4513-8c9a-0cc6d096e2bc","system_id":"levelo_inurba_marseille","lat":43.301117,"lon":5.398795,"is_reserved":false,"is_disabled":false,"rental_uris":{"android":"levelo://app?vid=9e3737b0-0700-4513-8c9a-0cc6d096e2bc","ios":"levelo://app?vid=9e3737b0-0700-4513-8c9a-0cc6d096e2bc"},"vehicle_type_id":"4","last_reported":1686582418,"current_range_meters":8000,"station_id":"ce4bh0h2rcd13ifvqd40","pricing_plan_id":"free"},{"bike_id":"344deb16-fbbe-43eb-a715-ce82a2f3f0ea","system_id":"levelo_inurba_marseille","lat":43.298681,"lon":5.397225,"is_reserved":false,"is_disabled":false,"rental_uris":{"android":"levelo://app?vid=344deb16-fbbe-43eb-a715-ce82a2f3f0ea","ios":"levelo://app?vid=344deb16-fbbe-43eb-a715-ce82a2f3f0ea"},"vehicle_type_id":"4","last_reported":1686582418,"current_range_meters":9200,"station_id":"ce4bh0h2rcd13ifvqd50","pricing_plan_id":"free"},{"bike_id":"1211026c-475b-4216-a1c4-a14999c3fb5e","system_id":"levelo_inurba_marseille","lat":43.290336,"lon":5.386425,"is_reserved":false,"is_disabled":false,"rental_uris":{"android":"levelo://app?vid=1211026c-475b-4216-a1c4-a14999c3fb5e","ios":"levelo://app?vid=1211026c-475b-4216-a1c4-a14999c3fb5e"},"vehicle_type_id":"4","last_reported":1686582418,"current_range_meters":9200,"station_id":"ce4bh4p2rcd13ifvqe0g","pricing_plan_id":"free"},{"bike_id":"c402bce4-22fc-454a-82a0-fbad01dbd79c","system_id":"levelo_inurba_marseille","lat":43.302759,"lon":5.400793,"is_reserved":false,"is_disabled":false,"rental_uris":{"android":"levelo://app?vid=c402bce4-22fc-454a-82a0-fbad01dbd79c","ios":"levelo://app?vid=c402bce4-22fc-454a-82a0-fbad01dbd79c"},"vehicle_type_id":"4","last_reported":1686582418,"current_range_meters":18800,"station_id":"ce4bgvh2rcd13ifvqcs0","pricing_plan_id":"free"},{"bike_id":"d0a68aaf-e599-4909-924b-11efdafa36fb","system_id":"levelo_inurba_marseille","lat":43.28616,"lon":5.37055,"is_reserved":false,"is_disabled":false,"rental_uris":{"android":"levelo://app?vid=d0a68aaf-e599-4909-924b-11efdafa36fb","ios":"levelo://app?vid=d0a68aaf-e599-4909-924b-11efdafa36fb"},"vehicle_type_id":"4","last_reported":1686582418,"current_range_meters":18000,"station_id":"ce4bht12rcd13ifvqi60","pricing_plan_id":"free"},{"bike_id":"5464abe2-5d60-4f93-bf84-dc48cadda3f6","system_id":"levelo_inurba_marseille","lat":43.28615,"lon":5.37061,"is_reserved":false,"is_disabled":false,"rental_uris":{"android":"levelo://app?vid=5464abe2-5d60-4f93-bf84-dc48cadda3f6","ios":"levelo://app?vid=5464abe2-5d60-4f93-bf84-dc48cadda3f6"},"vehicle_type_id":"4","last_reported":1686582418,"current_range_meters":22400,"station_id":"ce4bht12rcd13ifvqi60","pricing_plan_id":"free"},{"bike_id":"2f3a4973-c039-4010-b4b2-09d950f965e7","system_id":"levelo_inurba_marseille","lat":43.28613,"lon":5.3706,"is_reserved":false,"is_disabled":false,"rental_uris":{"android":"levelo://app?vid=2f3a4973-c039-4010-b4b2-09d950f965e7","ios":"levelo://app?vid=2f3a4973-c039-4010-b4b2-09d950f965e7"},"vehicle_type_id":"4","last_reported":1686582418,"current_range_meters":16400,"station_id":"ce4bht12rcd13ifvqi60","pricing_plan_id":"free"},{"bike_id":"e57378d0-57c6-49b8-a89d-0815193b0fad","system_id":"levelo_inurba_marseille","lat":43.286039,"lon":5.370681,"is_reserved":false,"is_disabled":false,"rental_uris":{"android":"levelo://app?vid=e57378d0-57c6-49b8-a89d-0815193b0fad","ios":"levelo://app?vid=e57378d0-57c6-49b8-a89d-0815193b0fad"},"vehicle_type_id":"4","last_reported":1686582418,"current_range_meters":10800,"station_id":"ce4bht12rcd13ifvqi60","pricing_plan_id":"free"},{"bike_id":"f107e377-9aba-4385-b645-07c0ec5142f1","system_id":"levelo_inurba_marseille","lat":43.316523,"lon":5.404367,"is_reserved":false,"is_disabled":false,"rental_uris":{"android":"levelo://app?vid=f107e377-9aba-4385-b645-07c0ec5142f1","ios":"levelo://app?vid=f107e377-9aba-4385-b645-07c0ec5142f1"},"vehicle_type_id":"4","last_reported":1686582418,"current_range_meters":0,"station_id":"ce4bh012rcd13ifvqd00","pricing_plan_id":"free"},{"bike_id":"76e42831-ac8b-4b22-bf24-fb195b346021","system_id":"levelo_inurba_marseille","lat":43.316523,"lon":5.404367,"is_reserved":false,"is_disabled":false,"rental_uris":{"android":"levelo://app?vid=76e42831-ac8b-4b22-bf24-fb195b346021","ios":"levelo://app?vid=76e42831-ac8b-4b22-bf24-fb195b346021"},"vehicle_type_id":"4","last_reported":1686582418,"current_range_meters":7200,"station_id":"ce4bh012rcd13ifvqd00","pricing_plan_id":"free"},{"bike_id":"b0ad82a8-5ec4-4193-b8ea-580c59eb7935","system_id":"levelo_inurba_marseille","lat":43.30626,"lon":5.40479,"is_reserved":false,"is_disabled":false,"rental_uris":{"android":"levelo://app?vid=b0ad82a8-5ec4-4193-b8ea-580c59eb7935","ios":"levelo://app?vid=b0ad82a8-5ec4-4193-b8ea-580c59eb7935"},"vehicle_type_id":"4","last_reported":1686582418,"current_range_meters":4400,"station_id":"","pricing_plan_id":"free"},{"bike_id":"56af14c9-493e-4469-97cb-f53bbf987e92","system_id":"levelo_inurba_marseille","lat":43.284538,"lon":5.358657,"is_reserved":false,"is_disabled":false,"rental_uris":{"android":"levelo://app?vid=56af14c9-493e-4469-97cb-f53bbf987e92","ios":"levelo://app?vid=56af14c9-493e-4469-97cb-f53bbf987e92"},"vehicle_type_id":"4","last_reported":1686582418,"current_range_meters":16800,"station_id":"ce4bhah2rcd13ifvqei0","pricing_plan_id":"free"},{"bike_id":"e01c7902-0647-4763-90ce-25299165c352","system_id":"levelo_inurba_marseille","lat":43.285856,"lon":5.350771,"is_reserved":false,"is_disabled":false,"rental_uris":{"android":"levelo://app?vid=e01c7902-0647-4763-90ce-25299165c352","ios":"levelo://app?vid=e01c7902-0647-4763-90ce-25299165c352"},"vehicle_type_id":"4","last_reported":1686582418,"current_range_meters":18800,"station_id":"ce4bhch2rcd13ifvqeug","pricing_plan_id":"free"},{"bike_id":"5d6a64ae-f7e9-4615-9dd0-3a25a37557ce","system_id":"levelo_inurba_marseille","lat":43.296263,"lon":5.40601,"is_reserved":false,"is_disabled":false,"rental_uris":{"android":"levelo://app?vid=5d6a64ae-f7e9-4615-9dd0-3a25a37557ce","ios":"levelo://app?vid=5d6a64ae-f7e9-4615-9dd0-3a25a37557ce"},"vehicle_type_id":"4","last_reported":1686582418,"current_range_meters":16800,"station_id":"ce4bh0h2rcd13ifvqd60","pricing_plan_id":"free"},{"bike_id":"5fc8293f-7100-4c17-9023-981b82c610d1","system_id":"levelo_inurba_marseille","lat":43.28518,"lon":5.35031,"is_reserved":false,"is_disabled":false,"rental_uris":{"android":"levelo://app?vid=5fc8293f-7100-4c17-9023-981b82c610d1","ios":"levelo://app?vid=5fc8293f-7100-4c17-9023-981b82c610d1"},"vehicle_type_id":"4","last_reported":1686582418,"current_range_meters":4400,"station_id":"ce4bhbh2rcd13ifvqepg","pricing_plan_id":"free"},{"bike_id":"6b6dc5f0-1fa0-4a62-95d2-a423a4463d04","system_id":"levelo_inurba_marseille","lat":43.28772,"lon":5.3902,"is_reserved":false,"is_disabled":false,"rental_uris":{"android":"levelo://app?vid=6b6dc5f0-1fa0-4a62-95d2-a423a4463d04","ios":"levelo://app?vid=6b6dc5f0-1fa0-4a62-95d2-a423a4463d04"},"vehicle_type_id":"4","last_reported":1686582418,"current_range_meters":24800,"station_id":"","pricing_plan_id":"free"},{"bike_id":"69c133a3-4c45-4b28-8576-a8ccdf3aeab4","system_id":"levelo_inurba_marseille","lat":43.323464,"lon":5.406297,"is_reserved":false,"is_disabled":false,"rental_uris":{"android":"levelo://app?vid=69c133a3-4c45-4b28-8576-a8ccdf3aeab4","ios":"levelo://app?vid=69c133a3-4c45-4b28-8576-a8ccdf3aeab4"},"vehicle_type_id":"4","last_reported":1686582418,"current_range_meters":27600,"station_id":"ce4bhq92rcd13ifvqhjg","pricing_plan_id":"free"},{"bike_id":"41216f38-85f0-4696-8c3e-605bae32e276","system_id":"levelo_inurba_marseille","lat":43.28348,"lon":5.381,"is_reserved":false,"is_disabled":false,"rental_uris":{"android":"levelo://app?vid=41216f38-85f0-4696-8c3e-605bae32e276","ios":"levelo://app?vid=41216f38-85f0-4696-8c3e-605bae32e276"},"vehicle_type_id":"4","last_reported":1686582418,"current_range_meters":31200,"station_id":"ce4bh412rcd13ifvqdr0","pricing_plan_id":"free"},{"bike_id":"a2255058-2727-4f9d-abdf-0f579e1fbc60","system_id":"levelo_inurba_marseille","lat":43.284219,"lon":5.3497,"is_reserved":false,"is_disabled":false,"rental_uris":{"android":"levelo://app?vid=a2255058-2727-4f9d-abdf-0f579e1fbc60","ios":"levelo://app?vid=a2255058-2727-4f9d-abdf-0f579e1fbc60"},"vehicle_type_id":"4","last_reported":1686582418,"current_range_meters":30000,"station_id":"ce4bhbh2rcd13ifvqepg","pricing_plan_id":"free"},{"bike_id":"dac5a86c-5c5a-4e5a-b053-ebc739732f88","system_id":"levelo_inurba_marseille","lat":43.284219,"lon":5.3497,"is_reserved":false,"is_disabled":false,"rental_uris":{"android":"levelo://app?vid=dac5a86c-5c5a-4e5a-b053-ebc739732f88","ios":"levelo://app?vid=dac5a86c-5c5a-4e5a-b053-ebc739732f88"},"vehicle_type_id":"4","last_reported":1686582418,"current_range_meters":31600,"station_id":"ce4bhbh2rcd13ifvqepg","pricing_plan_id":"free"},{"bike_id":"9dbfe7f3-470d-4faf-b63e-c31431a36191","system_id":"levelo_inurba_marseille","lat":43.284217,"lon":5.349697,"is_reserved":false,"is_disabled":false,"rental_uris":{"android":"levelo://app?vid=9dbfe7f3-470d-4faf-b63e-c31431a36191","ios":"levelo://app?vid=9dbfe7f3-470d-4faf-b63e-c31431a36191"},"vehicle_type_id":"4","last_reported":1686582418,"current_range_meters":2800,"station_id":"ce4bhbh2rcd13ifvqepg","pricing_plan_id":"free"},{"bike_id":"6be06d62-3a4e-478b-a95b-d9f3c0cc341b","system_id":"levelo_inurba_marseille","lat":43.284217,"lon":5.349697,"is_reserved":false,"is_disabled":false,"rental_uris":{"android":"levelo://app?vid=6be06d62-3a4e-478b-a95b-d9f3c0cc341b","ios":"levelo://app?vid=6be06d62-3a4e-478b-a95b-d9f3c0cc341b"},"vehicle_type_id":"4","last_reported":1686582418,"current_range_meters":31600,"station_id":"ce4bhbh2rcd13ifvqepg","pricing_plan_id":"free"},{"bike_id":"5353c96d-1e2a-449f-ac73-4ab8315e0c8f","system_id":"levelo_inurba_marseille","lat":43.284217,"lon":5.349697,"is_reserved":false,"is_disabled":false,"rental_uris":{"android":"levelo://app?vid=5353c96d-1e2a-449f-ac73-4ab8315e0c8f","ios":"levelo://app?vid=5353c96d-1e2a-449f-ac73-4ab8315e0c8f"},"vehicle_type_id":"4","last_reported":1686582418,"current_range_meters":4400,"station_id":"ce4bhbh2rcd13ifvqepg","pricing_plan_id":"free"},{"bike_id":"afe35104-c61c-4bb6-83de-ba31e71a6c1f","system_id":"levelo_inurba_marseille","lat":43.284217,"lon":5.349697,"is_reserved":false,"is_disabled":false,"rental_uris":{"android":"levelo://app?vid=afe35104-c61c-4bb6-83de-ba31e71a6c1f","ios":"levelo://app?vid=afe35104-c61c-4bb6-83de-ba31e71a6c1f"},"vehicle_type_id":"4","last_reported":1686582418,"current_range_meters":22400,"station_id":"ce4bhbh2rcd13ifvqepg","pricing_plan_id":"free"},{"bike_id":"31b3b784-43ba-427a-a24b-fcf7846a162d","system_id":"levelo_inurba_marseille","lat":43.284217,"lon":5.349697,"is_reserved":false,"is_disabled":false,"rental_uris":{"android":"levelo://app?vid=31b3b784-43ba-427a-a24b-fcf7846a162d","ios":"levelo://app?vid=31b3b784-43ba-427a-a24b-fcf7846a162d"},"vehicle_type_id":"4","last_reported":1686582418,"current_range_meters":19200,"station_id":"ce4bhbh2rcd13ifvqepg","pricing_plan_id":"free"},{"bike_id":"014a6ee9-e10f-4fb7-a5d4-6d70c6774c20","system_id":"levelo_inurba_marseille","lat":43.284219,"lon":5.3497,"is_reserved":false,"is_disabled":false,"rental_uris":{"android":"levelo://app?vid=014a6ee9-e10f-4fb7-a5d4-6d70c6774c20","ios":"levelo://app?vid=014a6ee9-e10f-4fb7-a5d4-6d70c6774c20"},"vehicle_type_id":"4","last_reported":1686582418,"current_range_meters":11200,"station_id":"ce4bhbh2rcd13ifvqepg","pricing_plan_id":"free"},{"bike_id":"603a6f77-7018-4909-b272-d6458a61e8fd","system_id":"levelo_inurba_marseille","lat":43.284217,"lon":5.349697,"is_reserved":false,"is_disabled":false,"rental_uris":{"android":"levelo://app?vid=603a6f77-7018-4909-b272-d6458a61e8fd","ios":"levelo://app?vid=603a6f77-7018-4909-b272-d6458a61e8fd"},"vehicle_type_id":"4","last_reported":1686582418,"current_range_meters":32000,"station_id":"ce4bhbh2rcd13ifvqepg","pricing_plan_id":"free"},{"bike_id":"d11d17aa-d9af-4db5-bbff-27d69777f8ea","system_id":"levelo_inurba_marseille","lat":43.284217,"lon":5.349697,"is_reserved":false,"is_disabled":false,"rental_uris":{"android":"levelo://app?vid=d11d17aa-d9af-4db5-bbff-27d69777f8ea","ios":"levelo://app?vid=d11d17aa-d9af-4db5-bbff-27d69777f8ea"},"vehicle_type_id":"4","last_reported":1686582418,"current_range_meters":32000,"station_id":"ce4bhbh2rcd13ifvqepg","pricing_plan_id":"free"},{"bike_id":"39212c28-fbd8-4031-969c-e82e5a971906","system_id":"levelo_inurba_marseille","lat":43.284219,"lon":5.3497,"is_reserved":false,"is_disabled":false,"rental_uris":{"android":"levelo://app?vid=39212c28-fbd8-4031-969c-e82e5a971906","ios":"levelo://app?vid=39212c28-fbd8-4031-969c-e82e5a971906"},"vehicle_type_id":"4","last_reported":1686582418,"current_range_meters":14000,"station_id":"ce4bhbh2rcd13ifvqepg","pricing_plan_id":"free"},{"bike_id":"4fe99303-df5c-4ada-9f22-4b82e31a0f59","system_id":"levelo_inurba_marseille","lat":43.28277,"lon":5.38128,"is_reserved":false,"is_disabled":false,"rental_uris":{"android":"levelo://app?vid=4fe99303-df5c-4ada-9f22-4b82e31a0f59","ios":"levelo://app?vid=4fe99303-df5c-4ada-9f22-4b82e31a0f59"},"vehicle_type_id":"4","last_reported":1686582418,"current_range_meters":31200,"station_id":"","pricing_plan_id":"free"},{"bike_id":"138e483f-3dba-4752-84d9-68e57d30c72a","system_id":"levelo_inurba_marseille","lat":43.29283,"lon":5.40124,"is_reserved":false,"is_disabled":false,"rental_uris":{"android":"levelo://app?vid=138e483f-3dba-4752-84d9-68e57d30c72a","ios":"levelo://app?vid=138e483f-3dba-4752-84d9-68e57d30c72a"},"vehicle_type_id":"4","last_reported":1686582418,"current_range_meters":5200,"station_id":"ce4bh312rcd13ifvqdk0","pricing_plan_id":"free"},{"bike_id":"17db222e-4099-476c-82d1-48c510a555cb","system_id":"levelo_inurba_marseille","lat":43.282744,"lon":5.350533,"is_reserved":false,"is_disabled":false,"rental_uris":{"android":"levelo://app?vid=17db222e-4099-476c-82d1-48c510a555cb","ios":"levelo://app?vid=17db222e-4099-476c-82d1-48c510a555cb"},"vehicle_type_id":"4","last_reported":1686582418,"current_range_meters":22000,"station_id":"ce4bhbp2rcd13ifvqerg","pricing_plan_id":"free"},{"bike_id":"a77291f5-8561-44c8-a509-7561d10e5523","system_id":"levelo_inurba_marseille","lat":43.282754,"lon":5.350519,"is_reserved":false,"is_disabled":false,"rental_uris":{"android":"levelo://app?vid=a77291f5-8561-44c8-a509-7561d10e5523","ios":"levelo://app?vid=a77291f5-8561-44c8-a509-7561d10e5523"},"vehicle_type_id":"4","last_reported":1686582418,"current_range_meters":26400,"station_id":"ce4bhbp2rcd13ifvqerg","pricing_plan_id":"free"},{"bike_id":"76bed01d-ca7d-4817-9c57-1046cfa5ef06","system_id":"levelo_inurba_marseille","lat":43.282754,"lon":5.350519,"is_reserved":false,"is_disabled":false,"rental_uris":{"android":"levelo://app?vid=76bed01d-ca7d-4817-9c57-1046cfa5ef06","ios":"levelo://app?vid=76bed01d-ca7d-4817-9c57-1046cfa5ef06"},"vehicle_type_id":"4","last_reported":1686582418,"current_range_meters":17200,"station_id":"ce4bhbp2rcd13ifvqerg","pricing_plan_id":"free"},{"bike_id":"43495500-efb8-48b4-b690-a31026557c83","system_id":"levelo_inurba_marseille","lat":43.28274,"lon":5.35067,"is_reserved":false,"is_disabled":false,"rental_uris":{"android":"levelo://app?vid=43495500-efb8-48b4-b690-a31026557c83","ios":"levelo://app?vid=43495500-efb8-48b4-b690-a31026557c83"},"vehicle_type_id":"4","last_reported":1686582418,"current_range_meters":21200,"station_id":"ce4bhbp2rcd13ifvqerg","pricing_plan_id":"free"},{"bike_id":"78d6b693-690f-4051-8209-1ef684f5b29b","system_id":"levelo_inurba_marseille","lat":43.282754,"lon":5.350519,"is_reserved":false,"is_disabled":false,"rental_uris":{"android":"levelo://app?vid=78d6b693-690f-4051-8209-1ef684f5b29b","ios":"levelo://app?vid=78d6b693-690f-4051-8209-1ef684f5b29b"},"vehicle_type_id":"4","last_reported":1686582418,"current_range_meters":20400,"station_id":"ce4bhbp2rcd13ifvqerg","pricing_plan_id":"free"},{"bike_id":"b61fb47f-0142-4a18-88f2-8834a19fe032","system_id":"levelo_inurba_marseille","lat":43.282754,"lon":5.350519,"is_reserved":false,"is_disabled":false,"rental_uris":{"android":"levelo://app?vid=b61fb47f-0142-4a18-88f2-8834a19fe032","ios":"levelo://app?vid=b61fb47f-0142-4a18-88f2-8834a19fe032"},"vehicle_type_id":"4","last_reported":1686582418,"current_range_meters":26400,"station_id":"ce4bhbp2rcd13ifvqerg","pricing_plan_id":"free"},{"bike_id":"fdfb835e-4948-49e0-a494-9e5b399dd25a","system_id":"levelo_inurba_marseille","lat":43.282754,"lon":5.350519,"is_reserved":false,"is_disabled":false,"rental_uris":{"android":"levelo://app?vid=fdfb835e-4948-49e0-a494-9e5b399dd25a","ios":"levelo://app?vid=fdfb835e-4948-49e0-a494-9e5b399dd25a"},"vehicle_type_id":"4","last_reported":1686582418,"current_range_meters":18000,"station_id":"ce4bhbp2rcd13ifvqerg","pricing_plan_id":"free"},{"bike_id":"19a458f8-7135-427b-b3cd-39ee23eb748c","system_id":"levelo_inurba_marseille","lat":43.282744,"lon":5.350533,"is_reserved":false,"is_disabled":false,"rental_uris":{"android":"levelo://app?vid=19a458f8-7135-427b-b3cd-39ee23eb748c","ios":"levelo://app?vid=19a458f8-7135-427b-b3cd-39ee23eb748c"},"vehicle_type_id":"4","last_reported":1686582418,"current_range_meters":14400,"station_id":"ce4bhbp2rcd13ifvqerg","pricing_plan_id":"free"},{"bike_id":"abb60716-5ac6-4638-9893-bb6ab49609fd","system_id":"levelo_inurba_marseille","lat":43.282754,"lon":5.350519,"is_reserved":false,"is_disabled":false,"rental_uris":{"android":"levelo://app?vid=abb60716-5ac6-4638-9893-bb6ab49609fd","ios":"levelo://app?vid=abb60716-5ac6-4638-9893-bb6ab49609fd"},"vehicle_type_id":"4","last_reported":1686582418,"current_range_meters":4800,"station_id":"ce4bhbp2rcd13ifvqerg","pricing_plan_id":"free"},{"bike_id":"631c62ba-41ef-49a3-892b-ec1fd253c9df","system_id":"levelo_inurba_marseille","lat":43.282754,"lon":5.350519,"is_reserved":false,"is_disabled":false,"rental_uris":{"android":"levelo://app?vid=631c62ba-41ef-49a3-892b-ec1fd253c9df","ios":"levelo://app?vid=631c62ba-41ef-49a3-892b-ec1fd253c9df"},"vehicle_type_id":"4","last_reported":1686582418,"current_range_meters":27200,"station_id":"ce4bhbp2rcd13ifvqerg","pricing_plan_id":"free"},{"bike_id":"3d5b6468-40a3-4e34-8903-0a3dd09ff54f","system_id":"levelo_inurba_marseille","lat":43.282754,"lon":5.350519,"is_reserved":false,"is_disabled":false,"rental_uris":{"android":"levelo://app?vid=3d5b6468-40a3-4e34-8903-0a3dd09ff54f","ios":"levelo://app?vid=3d5b6468-40a3-4e34-8903-0a3dd09ff54f"},"vehicle_type_id":"4","last_reported":1686582418,"current_range_meters":16800,"station_id":"ce4bhbp2rcd13ifvqerg","pricing_plan_id":"free"},{"bike_id":"d265b785-0b55-4756-8ed4-007117a6fd3d","system_id":"levelo_inurba_marseille","lat":43.28268,"lon":5.35058,"is_reserved":false,"is_disabled":false,"rental_uris":{"android":"levelo://app?vid=d265b785-0b55-4756-8ed4-007117a6fd3d","ios":"levelo://app?vid=d265b785-0b55-4756-8ed4-007117a6fd3d"},"vehicle_type_id":"4","last_reported":1686582418,"current_range_meters":13600,"station_id":"ce4bhbp2rcd13ifvqerg","pricing_plan_id":"free"},{"bike_id":"650ec031-2f21-4dfc-8278-6d84dd545354","system_id":"levelo_inurba_marseille","lat":43.282744,"lon":5.350533,"is_reserved":false,"is_disabled":false,"rental_uris":{"android":"levelo://app?vid=650ec031-2f21-4dfc-8278-6d84dd545354","ios":"levelo://app?vid=650ec031-2f21-4dfc-8278-6d84dd545354"},"vehicle_type_id":"4","last_reported":1686582418,"current_range_meters":10000,"station_id":"ce4bhbp2rcd13ifvqerg","pricing_plan_id":"free"},{"bike_id":"85bf7916-6b04-41fc-9f50-4f62e75f8635","system_id":"levelo_inurba_marseille","lat":43.282744,"lon":5.350533,"is_reserved":false,"is_disabled":false,"rental_uris":{"android":"levelo://app?vid=85bf7916-6b04-41fc-9f50-4f62e75f8635","ios":"levelo://app?vid=85bf7916-6b04-41fc-9f50-4f62e75f8635"},"vehicle_type_id":"4","last_reported":1686582418,"current_range_meters":0,"station_id":"ce4bhbp2rcd13ifvqerg","pricing_plan_id":"free"},{"bike_id":"4aeb8eac-e4ed-440d-b06f-4415c6e790ac","system_id":"levelo_inurba_marseille","lat":43.282744,"lon":5.350533,"is_reserved":false,"is_disabled":false,"rental_uris":{"android":"levelo://app?vid=4aeb8eac-e4ed-440d-b06f-4415c6e790ac","ios":"levelo://app?vid=4aeb8eac-e4ed-440d-b06f-4415c6e790ac"},"vehicle_type_id":"4","last_reported":1686582418,"current_range_meters":4400,"station_id":"ce4bhbp2rcd13ifvqerg","pricing_plan_id":"free"},{"bike_id":"5672ea5e-c269-4fe7-9863-6a2cd3e17664","system_id":"levelo_inurba_marseille","lat":43.282642,"lon":5.350552,"is_reserved":false,"is_disabled":false,"rental_uris":{"android":"levelo://app?vid=5672ea5e-c269-4fe7-9863-6a2cd3e17664","ios":"levelo://app?vid=5672ea5e-c269-4fe7-9863-6a2cd3e17664"},"vehicle_type_id":"4","last_reported":1686582418,"current_range_meters":19200,"station_id":"","pricing_plan_id":"free"},{"bike_id":"9c00b486-374a-499b-b23c-f92e4c735a7c","system_id":"levelo_inurba_marseille","lat":43.326605,"lon":5.409903,"is_reserved":false,"is_disabled":false,"rental_uris":{"android":"levelo://app?vid=9c00b486-374a-499b-b23c-f92e4c735a7c","ios":"levelo://app?vid=9c00b486-374a-499b-b23c-f92e4c735a7c"},"vehicle_type_id":"4","last_reported":1686582418,"current_range_meters":800,"station_id":"ce4bhpp2rcd13ifvqhgg","pricing_plan_id":"free"},{"bike_id":"26fc9073-f4cd-4d68-8eb4-52e0d495c31f","system_id":"levelo_inurba_marseille","lat":43.279742,"lon":5.38744,"is_reserved":false,"is_disabled":false,"rental_uris":{"android":"levelo://app?vid=26fc9073-f4cd-4d68-8eb4-52e0d495c31f","ios":"levelo://app?vid=26fc9073-f4cd-4d68-8eb4-52e0d495c31f"},"vehicle_type_id":"4","last_reported":1686582418,"current_range_meters":0,"station_id":"ce4bhg12rcd13ifvqf80","pricing_plan_id":"free"},{"bike_id":"e1dc2d8c-f5c0-46b7-ba63-a6f5c586346d","system_id":"levelo_inurba_marseille","lat":43.27618,"lon":5.361009,"is_reserved":false,"is_disabled":false,"rental_uris":{"android":"levelo://app?vid=e1dc2d8c-f5c0-46b7-ba63-a6f5c586346d","ios":"levelo://app?vid=e1dc2d8c-f5c0-46b7-ba63-a6f5c586346d"},"vehicle_type_id":"4","last_reported":1686582418,"current_range_meters":800,"station_id":"ce4bgj92rcd13ifvqbe0","pricing_plan_id":"free"},{"bike_id":"cf72711b-04f8-4aa4-b6ba-c395f78b9578","system_id":"levelo_inurba_marseille","lat":43.32543,"lon":5.41434,"is_reserved":false,"is_disabled":false,"rental_uris":{"android":"levelo://app?vid=cf72711b-04f8-4aa4-b6ba-c395f78b9578","ios":"levelo://app?vid=cf72711b-04f8-4aa4-b6ba-c395f78b9578"},"vehicle_type_id":"4","last_reported":1686582418,"current_range_meters":22000,"station_id":"ce4bhq12rcd13ifvqhhg","pricing_plan_id":"free"},{"bike_id":"8943558d-d91b-4290-93e3-98a57bce3e81","system_id":"levelo_inurba_marseille","lat":43.325233,"lon":5.414318,"is_reserved":false,"is_disabled":false,"rental_uris":{"android":"levelo://app?vid=8943558d-d91b-4290-93e3-98a57bce3e81","ios":"levelo://app?vid=8943558d-d91b-4290-93e3-98a57bce3e81"},"vehicle_type_id":"4","last_reported":1686582418,"current_range_meters":31200,"station_id":"ce4bhq12rcd13ifvqhhg","pricing_plan_id":"free"},{"bike_id":"2f444495-dafb-4a27-a7bb-caa72a132170","system_id":"levelo_inurba_marseille","lat":43.27618,"lon":5.3611,"is_reserved":false,"is_disabled":false,"rental_uris":{"android":"levelo://app?vid=2f444495-dafb-4a27-a7bb-caa72a132170","ios":"levelo://app?vid=2f444495-dafb-4a27-a7bb-caa72a132170"},"vehicle_type_id":"4","last_reported":1686582418,"current_range_meters":20000,"station_id":"ce4bgj92rcd13ifvqbe0","pricing_plan_id":"free"},{"bike_id":"73ab0383-3a0c-477a-918d-7da9143102b6","system_id":"levelo_inurba_marseille","lat":43.3255,"lon":5.41438,"is_reserved":false,"is_disabled":false,"rental_uris":{"android":"levelo://app?vid=73ab0383-3a0c-477a-918d-7da9143102b6","ios":"levelo://app?vid=73ab0383-3a0c-477a-918d-7da9143102b6"},"vehicle_type_id":"4","last_reported":1686582418,"current_range_meters":28800,"station_id":"ce4bhq12rcd13ifvqhhg","pricing_plan_id":"free"},{"bike_id":"ad209ead-f73a-4eec-ba19-9135545a41cc","system_id":"levelo_inurba_marseille","lat":43.325233,"lon":5.414318,"is_reserved":false,"is_disabled":false,"rental_uris":{"android":"levelo://app?vid=ad209ead-f73a-4eec-ba19-9135545a41cc","ios":"levelo://app?vid=ad209ead-f73a-4eec-ba19-9135545a41cc"},"vehicle_type_id":"4","last_reported":1686582418,"current_range_meters":31200,"station_id":"ce4bhq12rcd13ifvqhhg","pricing_plan_id":"free"},{"bike_id":"648361bc-1273-4030-87cb-940586bb145d","system_id":"levelo_inurba_marseille","lat":43.325233,"lon":5.414318,"is_reserved":false,"is_disabled":false,"rental_uris":{"android":"levelo://app?vid=648361bc-1273-4030-87cb-940586bb145d","ios":"levelo://app?vid=648361bc-1273-4030-87cb-940586bb145d"},"vehicle_type_id":"4","last_reported":1686582418,"current_range_meters":31200,"station_id":"ce4bhq12rcd13ifvqhhg","pricing_plan_id":"free"},{"bike_id":"79806a34-bc22-408f-b19b-7d2395ecc473","system_id":"levelo_inurba_marseille","lat":43.325233,"lon":5.414318,"is_reserved":false,"is_disabled":false,"rental_uris":{"android":"levelo://app?vid=79806a34-bc22-408f-b19b-7d2395ecc473","ios":"levelo://app?vid=79806a34-bc22-408f-b19b-7d2395ecc473"},"vehicle_type_id":"4","last_reported":1686582418,"current_range_meters":31200,"station_id":"ce4bhq12rcd13ifvqhhg","pricing_plan_id":"free"},{"bike_id":"c045fb5c-ea67-4dbf-bec0-80eefbf80547","system_id":"levelo_inurba_marseille","lat":43.325233,"lon":5.414318,"is_reserved":false,"is_disabled":false,"rental_uris":{"android":"levelo://app?vid=c045fb5c-ea67-4dbf-bec0-80eefbf80547","ios":"levelo://app?vid=c045fb5c-ea67-4dbf-bec0-80eefbf80547"},"vehicle_type_id":"4","last_reported":1686582418,"current_range_meters":31200,"station_id":"ce4bhq12rcd13ifvqhhg","pricing_plan_id":"free"},{"bike_id":"1a51ad98-c31e-4cd1-94a9-d7ebb45a3464","system_id":"levelo_inurba_marseille","lat":43.32546,"lon":5.41448,"is_reserved":false,"is_disabled":false,"rental_uris":{"android":"levelo://app?vid=1a51ad98-c31e-4cd1-94a9-d7ebb45a3464","ios":"levelo://app?vid=1a51ad98-c31e-4cd1-94a9-d7ebb45a3464"},"vehicle_type_id":"4","last_reported":1686582418,"current_range_meters":4800,"station_id":"","pricing_plan_id":"free"},{"bike_id":"7072d802-d9d0-4c6b-b359-f1bf5685f4b3","system_id":"levelo_inurba_marseille","lat":43.27381,"lon":5.36253,"is_reserved":false,"is_disabled":false,"rental_uris":{"android":"levelo://app?vid=7072d802-d9d0-4c6b-b359-f1bf5685f4b3","ios":"levelo://app?vid=7072d802-d9d0-4c6b-b359-f1bf5685f4b3"},"vehicle_type_id":"4","last_reported":1686582418,"current_range_meters":21200,"station_id":"ce4bhbh2rcd13ifvqeo0","pricing_plan_id":"free"},{"bike_id":"54b3ab0f-80e0-4897-9088-26d08fb96d47","system_id":"levelo_inurba_marseille","lat":43.273609,"lon":5.362708,"is_reserved":false,"is_disabled":false,"rental_uris":{"android":"levelo://app?vid=54b3ab0f-80e0-4897-9088-26d08fb96d47","ios":"levelo://app?vid=54b3ab0f-80e0-4897-9088-26d08fb96d47"},"vehicle_type_id":"4","last_reported":1686582418,"current_range_meters":23600,"station_id":"ce4bhbh2rcd13ifvqeo0","pricing_plan_id":"free"},{"bike_id":"49dae0f6-2d30-41cd-8b93-65c0fc541715","system_id":"levelo_inurba_marseille","lat":43.273613,"lon":5.362705,"is_reserved":false,"is_disabled":false,"rental_uris":{"android":"levelo://app?vid=49dae0f6-2d30-41cd-8b93-65c0fc541715","ios":"levelo://app?vid=49dae0f6-2d30-41cd-8b93-65c0fc541715"},"vehicle_type_id":"4","last_reported":1686582418,"current_range_meters":7600,"station_id":"ce4bhbh2rcd13ifvqeo0","pricing_plan_id":"free"},{"bike_id":"5335aa58-99df-4ca5-9c58-14d26d98782c","system_id":"levelo_inurba_marseille","lat":43.273613,"lon":5.362705,"is_reserved":false,"is_disabled":false,"rental_uris":{"android":"levelo://app?vid=5335aa58-99df-4ca5-9c58-14d26d98782c","ios":"levelo://app?vid=5335aa58-99df-4ca5-9c58-14d26d98782c"},"vehicle_type_id":"4","last_reported":1686582418,"current_range_meters":32000,"station_id":"ce4bhbh2rcd13ifvqeo0","pricing_plan_id":"free"},{"bike_id":"018443b7-99df-485c-805d-855a516bd49e","system_id":"levelo_inurba_marseille","lat":43.27375,"lon":5.36257,"is_reserved":false,"is_disabled":false,"rental_uris":{"android":"levelo://app?vid=018443b7-99df-485c-805d-855a516bd49e","ios":"levelo://app?vid=018443b7-99df-485c-805d-855a516bd49e"},"vehicle_type_id":"4","last_reported":1686582418,"current_range_meters":24400,"station_id":"ce4bhbh2rcd13ifvqeo0","pricing_plan_id":"free"},{"bike_id":"72c8197b-20b4-4256-9bd8-b1770e7740fc","system_id":"levelo_inurba_marseille","lat":43.27374,"lon":5.36261,"is_reserved":false,"is_disabled":false,"rental_uris":{"android":"levelo://app?vid=72c8197b-20b4-4256-9bd8-b1770e7740fc","ios":"levelo://app?vid=72c8197b-20b4-4256-9bd8-b1770e7740fc"},"vehicle_type_id":"4","last_reported":1686582418,"current_range_meters":3600,"station_id":"ce4bhbh2rcd13ifvqeo0","pricing_plan_id":"free"},{"bike_id":"bca32d88-6c83-4a44-99eb-7cd4e31d7793","system_id":"levelo_inurba_marseille","lat":43.27569,"lon":5.38423,"is_reserved":false,"is_disabled":false,"rental_uris":{"android":"levelo://app?vid=bca32d88-6c83-4a44-99eb-7cd4e31d7793","ios":"levelo://app?vid=bca32d88-6c83-4a44-99eb-7cd4e31d7793"},"vehicle_type_id":"4","last_reported":1686582418,"current_range_meters":3200,"station_id":"","pricing_plan_id":"free"},{"bike_id":"c2cbff8c-702c-4686-a7c7-1e45e062ae00","system_id":"levelo_inurba_marseille","lat":43.273609,"lon":5.362708,"is_reserved":false,"is_disabled":false,"rental_uris":{"android":"levelo://app?vid=c2cbff8c-702c-4686-a7c7-1e45e062ae00","ios":"levelo://app?vid=c2cbff8c-702c-4686-a7c7-1e45e062ae00"},"vehicle_type_id":"4","last_reported":1686582418,"current_range_meters":31600,"station_id":"ce4bhbh2rcd13ifvqeo0","pricing_plan_id":"free"},{"bike_id":"bf87bbbf-7819-43d6-803b-002f36c8cd51","system_id":"levelo_inurba_marseille","lat":43.27373,"lon":5.36259,"is_reserved":false,"is_disabled":false,"rental_uris":{"android":"levelo://app?vid=bf87bbbf-7819-43d6-803b-002f36c8cd51","ios":"levelo://app?vid=bf87bbbf-7819-43d6-803b-002f36c8cd51"},"vehicle_type_id":"4","last_reported":1686582418,"current_range_meters":6000,"station_id":"ce4bhbh2rcd13ifvqeo0","pricing_plan_id":"free"},{"bike_id":"f883c0b9-ebae-4f6e-a7c5-afb0b1b93e65","system_id":"levelo_inurba_marseille","lat":43.27373,"lon":5.36257,"is_reserved":false,"is_disabled":false,"rental_uris":{"android":"levelo://app?vid=f883c0b9-ebae-4f6e-a7c5-afb0b1b93e65","ios":"levelo://app?vid=f883c0b9-ebae-4f6e-a7c5-afb0b1b93e65"},"vehicle_type_id":"4","last_reported":1686582418,"current_range_meters":4400,"station_id":"ce4bhbh2rcd13ifvqeo0","pricing_plan_id":"free"},{"bike_id":"bf7c99da-6aa9-49e6-8f54-4ba61cf1ef38","system_id":"levelo_inurba_marseille","lat":43.273609,"lon":5.362708,"is_reserved":false,"is_disabled":false,"rental_uris":{"android":"levelo://app?vid=bf7c99da-6aa9-49e6-8f54-4ba61cf1ef38","ios":"levelo://app?vid=bf7c99da-6aa9-49e6-8f54-4ba61cf1ef38"},"vehicle_type_id":"4","last_reported":1686582418,"current_range_meters":23600,"station_id":"ce4bhbh2rcd13ifvqeo0","pricing_plan_id":"free"},{"bike_id":"a5c16fbe-3723-4816-9d9a-f920f2c6232f","system_id":"levelo_inurba_marseille","lat":43.33612,"lon":5.410321,"is_reserved":false,"is_disabled":false,"rental_uris":{"android":"levelo://app?vid=a5c16fbe-3723-4816-9d9a-f920f2c6232f","ios":"levelo://app?vid=a5c16fbe-3723-4816-9d9a-f920f2c6232f"},"vehicle_type_id":"4","last_reported":1686582418,"current_range_meters":31200,"station_id":"ce4bhqh2rcd13ifvqhmg","pricing_plan_id":"free"},{"bike_id":"9777f367-a930-474f-8beb-529d35d218de","system_id":"levelo_inurba_marseille","lat":43.27565,"lon":5.38419,"is_reserved":false,"is_disabled":false,"rental_uris":{"android":"levelo://app?vid=9777f367-a930-474f-8beb-529d35d218de","ios":"levelo://app?vid=9777f367-a930-474f-8beb-529d35d218de"},"vehicle_type_id":"4","last_reported":1686582418,"current_range_meters":20400,"station_id":"","pricing_plan_id":"free"},{"bike_id":"9cce9694-7f27-47ad-8fb9-e8e159306cfa","system_id":"levelo_inurba_marseille","lat":43.273609,"lon":5.362708,"is_reserved":false,"is_disabled":false,"rental_uris":{"android":"levelo://app?vid=9cce9694-7f27-47ad-8fb9-e8e159306cfa","ios":"levelo://app?vid=9cce9694-7f27-47ad-8fb9-e8e159306cfa"},"vehicle_type_id":"4","last_reported":1686582418,"current_range_meters":5200,"station_id":"ce4bhbh2rcd13ifvqeo0","pricing_plan_id":"free"},{"bike_id":"228529d7-aafc-45d1-a1d8-9aee595a3417","system_id":"levelo_inurba_marseille","lat":43.336134,"lon":5.410341,"is_reserved":false,"is_disabled":false,"rental_uris":{"android":"levelo://app?vid=228529d7-aafc-45d1-a1d8-9aee595a3417","ios":"levelo://app?vid=228529d7-aafc-45d1-a1d8-9aee595a3417"},"vehicle_type_id":"4","last_reported":1686582418,"current_range_meters":31200,"station_id":"ce4bhqh2rcd13ifvqhmg","pricing_plan_id":"free"},{"bike_id":"eed40ba7-266d-4f33-8e7a-28c30fbfc424","system_id":"levelo_inurba_marseille","lat":43.33605,"lon":5.41026,"is_reserved":false,"is_disabled":false,"rental_uris":{"android":"levelo://app?vid=eed40ba7-266d-4f33-8e7a-28c30fbfc424","ios":"levelo://app?vid=eed40ba7-266d-4f33-8e7a-28c30fbfc424"},"vehicle_type_id":"4","last_reported":1686582418,"current_range_meters":400,"station_id":"ce4bhqh2rcd13ifvqhmg","pricing_plan_id":"free"},{"bike_id":"307d2ec3-c6bb-484c-ae5f-4187abb83520","system_id":"levelo_inurba_marseille","lat":43.33608,"lon":5.41028,"is_reserved":false,"is_disabled":false,"rental_uris":{"android":"levelo://app?vid=307d2ec3-c6bb-484c-ae5f-4187abb83520","ios":"levelo://app?vid=307d2ec3-c6bb-484c-ae5f-4187abb83520"},"vehicle_type_id":"4","last_reported":1686582418,"current_range_meters":22800,"station_id":"ce4bhqh2rcd13ifvqhmg","pricing_plan_id":"free"},{"bike_id":"82301a44-7aae-4160-a265-2f2387c56e1f","system_id":"levelo_inurba_marseille","lat":43.33609,"lon":5.41028,"is_reserved":false,"is_disabled":false,"rental_uris":{"android":"levelo://app?vid=82301a44-7aae-4160-a265-2f2387c56e1f","ios":"levelo://app?vid=82301a44-7aae-4160-a265-2f2387c56e1f"},"vehicle_type_id":"4","last_reported":1686582418,"current_range_meters":30400,"station_id":"ce4bhqh2rcd13ifvqhmg","pricing_plan_id":"free"},{"bike_id":"b76d575e-c8c2-46da-8dca-4767548ae4d2","system_id":"levelo_inurba_marseille","lat":43.33613,"lon":5.41024,"is_reserved":false,"is_disabled":false,"rental_uris":{"android":"levelo://app?vid=b76d575e-c8c2-46da-8dca-4767548ae4d2","ios":"levelo://app?vid=b76d575e-c8c2-46da-8dca-4767548ae4d2"},"vehicle_type_id":"4","last_reported":1686582418,"current_range_meters":24800,"station_id":"ce4bhqh2rcd13ifvqhmg","pricing_plan_id":"free"},{"bike_id":"b4f9cebe-b189-41e0-bdb0-5986b8f818f8","system_id":"levelo_inurba_marseille","lat":43.336134,"lon":5.410341,"is_reserved":false,"is_disabled":false,"rental_uris":{"android":"levelo://app?vid=b4f9cebe-b189-41e0-bdb0-5986b8f818f8","ios":"levelo://app?vid=b4f9cebe-b189-41e0-bdb0-5986b8f818f8"},"vehicle_type_id":"4","last_reported":1686582418,"current_range_meters":12400,"station_id":"ce4bhqh2rcd13ifvqhmg","pricing_plan_id":"free"},{"bike_id":"3f826a19-3792-4651-9f65-bdeed85ddb4c","system_id":"levelo_inurba_marseille","lat":43.336134,"lon":5.410341,"is_reserved":false,"is_disabled":false,"rental_uris":{"android":"levelo://app?vid=3f826a19-3792-4651-9f65-bdeed85ddb4c","ios":"levelo://app?vid=3f826a19-3792-4651-9f65-bdeed85ddb4c"},"vehicle_type_id":"4","last_reported":1686582418,"current_range_meters":31200,"station_id":"ce4bhqh2rcd13ifvqhmg","pricing_plan_id":"free"},{"bike_id":"dedc2133-b89a-4b81-90bf-02c7de555c4f","system_id":"levelo_inurba_marseille","lat":43.27678,"lon":5.38897,"is_reserved":false,"is_disabled":false,"rental_uris":{"android":"levelo://app?vid=dedc2133-b89a-4b81-90bf-02c7de555c4f","ios":"levelo://app?vid=dedc2133-b89a-4b81-90bf-02c7de555c4f"},"vehicle_type_id":"4","last_reported":1686582418,"current_range_meters":13600,"station_id":"ce4bhi12rcd13ifvqfo0","pricing_plan_id":"free"},{"bike_id":"fdf5f688-4ba6-4507-85a0-ea7db31eb18c","system_id":"levelo_inurba_marseille","lat":43.35163,"lon":5.37569,"is_reserved":false,"is_disabled":false,"rental_uris":{"android":"levelo://app?vid=fdf5f688-4ba6-4507-85a0-ea7db31eb18c","ios":"levelo://app?vid=fdf5f688-4ba6-4507-85a0-ea7db31eb18c"},"vehicle_type_id":"4","last_reported":1686582418,"current_range_meters":9600,"station_id":"","pricing_plan_id":"free"},{"bike_id":"57ccffc8-d2b9-4832-a42f-034eb6c89c83","system_id":"levelo_inurba_marseille","lat":43.317121,"lon":5.423936,"is_reserved":false,"is_disabled":false,"rental_uris":{"android":"levelo://app?vid=57ccffc8-d2b9-4832-a42f-034eb6c89c83","ios":"levelo://app?vid=57ccffc8-d2b9-4832-a42f-034eb6c89c83"},"vehicle_type_id":"4","last_reported":1686582418,"current_range_meters":13600,"station_id":"ce4bhp92rcd13ifvqhbg","pricing_plan_id":"free"},{"bike_id":"753c6b72-ca8a-45ae-bd9d-8eca801d7a1c","system_id":"levelo_inurba_marseille","lat":43.27614,"lon":5.39489,"is_reserved":false,"is_disabled":false,"rental_uris":{"android":"levelo://app?vid=753c6b72-ca8a-45ae-bd9d-8eca801d7a1c","ios":"levelo://app?vid=753c6b72-ca8a-45ae-bd9d-8eca801d7a1c"},"vehicle_type_id":"4","last_reported":1686582418,"current_range_meters":11200,"station_id":"","pricing_plan_id":"free"},{"bike_id":"b8089476-5f6d-49af-876e-b37c9cb1725a","system_id":"levelo_inurba_marseille","lat":43.304096,"lon":5.425385,"is_reserved":false,"is_disabled":false,"rental_uris":{"android":"levelo://app?vid=b8089476-5f6d-49af-876e-b37c9cb1725a","ios":"levelo://app?vid=b8089476-5f6d-49af-876e-b37c9cb1725a"},"vehicle_type_id":"4","last_reported":1686582418,"current_range_meters":7200,"station_id":"ce4bhoh2rcd13ifvqh6g","pricing_plan_id":"free"},{"bike_id":"1b25d89f-f650-4ccd-b113-dfc74b97e4c2","system_id":"levelo_inurba_marseille","lat":43.304096,"lon":5.425385,"is_reserved":false,"is_disabled":false,"rental_uris":{"android":"levelo://app?vid=1b25d89f-f650-4ccd-b113-dfc74b97e4c2","ios":"levelo://app?vid=1b25d89f-f650-4ccd-b113-dfc74b97e4c2"},"vehicle_type_id":"4","last_reported":1686582418,"current_range_meters":800,"station_id":"ce4bhoh2rcd13ifvqh6g","pricing_plan_id":"free"},{"bike_id":"8bb05405-e7e5-4d57-8d91-50b785111f44","system_id":"levelo_inurba_marseille","lat":43.254947,"lon":5.376454,"is_reserved":false,"is_disabled":false,"rental_uris":{"android":"levelo://app?vid=8bb05405-e7e5-4d57-8d91-50b785111f44","ios":"levelo://app?vid=8bb05405-e7e5-4d57-8d91-50b785111f44"},"vehicle_type_id":"4","last_reported":1686582418,"current_range_meters":4800,"station_id":"ce4bhh12rcd13ifvqff0","pricing_plan_id":"free"},{"bike_id":"2aeffd5a-550e-4ead-ae86-d25ce5b72881","system_id":"levelo_inurba_marseille","lat":43.27924,"lon":5.40867,"is_reserved":false,"is_disabled":false,"rental_uris":{"android":"levelo://app?vid=2aeffd5a-550e-4ead-ae86-d25ce5b72881","ios":"levelo://app?vid=2aeffd5a-550e-4ead-ae86-d25ce5b72881"},"vehicle_type_id":"4","last_reported":1686582418,"current_range_meters":8800,"station_id":"","pricing_plan_id":"free"},{"bike_id":"031ae3cf-b472-4223-9fab-d487480e1913","system_id":"levelo_inurba_marseille","lat":43.269467,"lon":5.386439,"is_reserved":false,"is_disabled":false,"rental_uris":{"android":"levelo://app?vid=031ae3cf-b472-4223-9fab-d487480e1913","ios":"levelo://app?vid=031ae3cf-b472-4223-9fab-d487480e1913"},"vehicle_type_id":"4","last_reported":1686582418,"current_range_meters":0,"station_id":"ce4bhh92rcd13ifvqfh0","pricing_plan_id":"free"},{"bike_id":"4becbb6c-952d-4f5b-8aff-d7b3f17484d8","system_id":"levelo_inurba_marseille","lat":43.269467,"lon":5.386439,"is_reserved":false,"is_disabled":false,"rental_uris":{"android":"levelo://app?vid=4becbb6c-952d-4f5b-8aff-d7b3f17484d8","ios":"levelo://app?vid=4becbb6c-952d-4f5b-8aff-d7b3f17484d8"},"vehicle_type_id":"4","last_reported":1686582418,"current_range_meters":1200,"station_id":"ce4bhh92rcd13ifvqfh0","pricing_plan_id":"free"},{"bike_id":"a7b99701-e99b-4251-b446-90dd8ac78fe5","system_id":"levelo_inurba_marseille","lat":43.269319,"lon":5.389397,"is_reserved":false,"is_disabled":false,"rental_uris":{"android":"levelo://app?vid=a7b99701-e99b-4251-b446-90dd8ac78fe5","ios":"levelo://app?vid=a7b99701-e99b-4251-b446-90dd8ac78fe5"},"vehicle_type_id":"4","last_reported":1686582418,"current_range_meters":15200,"station_id":"ce4bhhh2rcd13ifvqfl0","pricing_plan_id":"free"},{"bike_id":"dba0ba63-d3ec-4a9d-a9fe-5b4b69f307ef","system_id":"levelo_inurba_marseille","lat":43.27951,"lon":5.41523,"is_reserved":false,"is_disabled":false,"rental_uris":{"android":"levelo://app?vid=dba0ba63-d3ec-4a9d-a9fe-5b4b69f307ef","ios":"levelo://app?vid=dba0ba63-d3ec-4a9d-a9fe-5b4b69f307ef"},"vehicle_type_id":"4","last_reported":1686582418,"current_range_meters":16800,"station_id":"","pricing_plan_id":"free"},{"bike_id":"6399b2f8-7341-49bb-aa13-04b460b7e566","system_id":"levelo_inurba_marseille","lat":43.27993,"lon":5.4166,"is_reserved":false,"is_disabled":false,"rental_uris":{"android":"levelo://app?vid=6399b2f8-7341-49bb-aa13-04b460b7e566","ios":"levelo://app?vid=6399b2f8-7341-49bb-aa13-04b460b7e566"},"vehicle_type_id":"4","last_reported":1686582418,"current_range_meters":31200,"station_id":"ce4bho12rcd13ifvqh1g","pricing_plan_id":"free"},{"bike_id":"5c1751ab-fd91-4867-85aa-ad3927a009ba","system_id":"levelo_inurba_marseille","lat":43.27992,"lon":5.41659,"is_reserved":false,"is_disabled":false,"rental_uris":{"android":"levelo://app?vid=5c1751ab-fd91-4867-85aa-ad3927a009ba","ios":"levelo://app?vid=5c1751ab-fd91-4867-85aa-ad3927a009ba"},"vehicle_type_id":"4","last_reported":1686582418,"current_range_meters":31200,"station_id":"ce4bho12rcd13ifvqh1g","pricing_plan_id":"free"},{"bike_id":"b6dc12e2-658d-4402-b2d5-aefd4d0e80d4","system_id":"levelo_inurba_marseille","lat":43.27996,"lon":5.416624,"is_reserved":false,"is_disabled":false,"rental_uris":{"android":"levelo://app?vid=b6dc12e2-658d-4402-b2d5-aefd4d0e80d4","ios":"levelo://app?vid=b6dc12e2-658d-4402-b2d5-aefd4d0e80d4"},"vehicle_type_id":"4","last_reported":1686582418,"current_range_meters":32000,"station_id":"ce4bho12rcd13ifvqh1g","pricing_plan_id":"free"},{"bike_id":"d360fe25-8dcc-4c7e-a18d-f0810ebec940","system_id":"levelo_inurba_marseille","lat":43.26791,"lon":5.39412,"is_reserved":false,"is_disabled":false,"rental_uris":{"android":"levelo://app?vid=d360fe25-8dcc-4c7e-a18d-f0810ebec940","ios":"levelo://app?vid=d360fe25-8dcc-4c7e-a18d-f0810ebec940"},"vehicle_type_id":"4","last_reported":1686582418,"current_range_meters":800,"station_id":"ce4bhh12rcd13ifvqfg0","pricing_plan_id":"free"},{"bike_id":"87f1a3c4-f51f-4b06-adfa-cc16c4ca3c74","system_id":"levelo_inurba_marseille","lat":43.267966,"lon":5.393976,"is_reserved":false,"is_disabled":false,"rental_uris":{"android":"levelo://app?vid=87f1a3c4-f51f-4b06-adfa-cc16c4ca3c74","ios":"levelo://app?vid=87f1a3c4-f51f-4b06-adfa-cc16c4ca3c74"},"vehicle_type_id":"4","last_reported":1686582418,"current_range_meters":13200,"station_id":"ce4bhh12rcd13ifvqfg0","pricing_plan_id":"free"},{"bike_id":"33d1c906-3875-41be-bc05-423ea64b3984","system_id":"levelo_inurba_marseille","lat":43.265569,"lon":5.390047,"is_reserved":false,"is_disabled":false,"rental_uris":{"android":"levelo://app?vid=33d1c906-3875-41be-bc05-423ea64b3984","ios":"levelo://app?vid=33d1c906-3875-41be-bc05-423ea64b3984"},"vehicle_type_id":"4","last_reported":1686582418,"current_range_meters":23600,"station_id":"ce4bhe12rcd13ifvqf30","pricing_plan_id":"free"},{"bike_id":"9f6e673c-72fc-4fb4-a00f-0a000272e831","system_id":"levelo_inurba_marseille","lat":43.265569,"lon":5.390047,"is_reserved":false,"is_disabled":false,"rental_uris":{"android":"levelo://app?vid=9f6e673c-72fc-4fb4-a00f-0a000272e831","ios":"levelo://app?vid=9f6e673c-72fc-4fb4-a00f-0a000272e831"},"vehicle_type_id":"4","last_reported":1686582418,"current_range_meters":10800,"station_id":"ce4bhe12rcd13ifvqf30","pricing_plan_id":"free"},{"bike_id":"9078fba1-0796-4427-bea6-6d95593df0d2","system_id":"levelo_inurba_marseille","lat":43.265569,"lon":5.390047,"is_reserved":false,"is_disabled":false,"rental_uris":{"android":"levelo://app?vid=9078fba1-0796-4427-bea6-6d95593df0d2","ios":"levelo://app?vid=9078fba1-0796-4427-bea6-6d95593df0d2"},"vehicle_type_id":"4","last_reported":1686582418,"current_range_meters":14800,"station_id":"ce4bhe12rcd13ifvqf30","pricing_plan_id":"free"},{"bike_id":"5388ccf4-9703-4237-bec8-d0003d21b466","system_id":"levelo_inurba_marseille","lat":43.261782,"lon":5.374515,"is_reserved":false,"is_disabled":false,"rental_uris":{"android":"levelo://app?vid=5388ccf4-9703-4237-bec8-d0003d21b466","ios":"levelo://app?vid=5388ccf4-9703-4237-bec8-d0003d21b466"},"vehicle_type_id":"4","last_reported":1686582418,"current_range_meters":8000,"station_id":"ce4bhgp2rcd13ifvqfc0","pricing_plan_id":"free"},{"bike_id":"c20b4a23-92f6-4e6e-a317-d67bd273334a","system_id":"levelo_inurba_marseille","lat":43.26195,"lon":5.37443,"is_reserved":false,"is_disabled":false,"rental_uris":{"android":"levelo://app?vid=c20b4a23-92f6-4e6e-a317-d67bd273334a","ios":"levelo://app?vid=c20b4a23-92f6-4e6e-a317-d67bd273334a"},"vehicle_type_id":"4","last_reported":1686582418,"current_range_meters":15200,"station_id":"ce4bhgp2rcd13ifvqfc0","pricing_plan_id":"free"},{"bike_id":"76a2fe49-6a25-4a29-8297-14c9425764ea","system_id":"levelo_inurba_marseille","lat":43.261782,"lon":5.374515,"is_reserved":false,"is_disabled":false,"rental_uris":{"android":"levelo://app?vid=76a2fe49-6a25-4a29-8297-14c9425764ea","ios":"levelo://app?vid=76a2fe49-6a25-4a29-8297-14c9425764ea"},"vehicle_type_id":"4","last_reported":1686582418,"current_range_meters":22400,"station_id":"ce4bhgp2rcd13ifvqfc0","pricing_plan_id":"free"},{"bike_id":"4a0dafaa-0f4f-4667-ab83-d92d9fcd4300","system_id":"levelo_inurba_marseille","lat":43.261782,"lon":5.374515,"is_reserved":false,"is_disabled":false,"rental_uris":{"android":"levelo://app?vid=4a0dafaa-0f4f-4667-ab83-d92d9fcd4300","ios":"levelo://app?vid=4a0dafaa-0f4f-4667-ab83-d92d9fcd4300"},"vehicle_type_id":"4","last_reported":1686582418,"current_range_meters":20400,"station_id":"ce4bhgp2rcd13ifvqfc0","pricing_plan_id":"free"},{"bike_id":"6b455ee0-a8e6-48ba-8113-fbd650e08304","system_id":"levelo_inurba_marseille","lat":43.261782,"lon":5.374515,"is_reserved":false,"is_disabled":false,"rental_uris":{"android":"levelo://app?vid=6b455ee0-a8e6-48ba-8113-fbd650e08304","ios":"levelo://app?vid=6b455ee0-a8e6-48ba-8113-fbd650e08304"},"vehicle_type_id":"4","last_reported":1686582418,"current_range_meters":28400,"station_id":"ce4bhgp2rcd13ifvqfc0","pricing_plan_id":"free"},{"bike_id":"1e81e0c5-42a7-401c-ae8e-8009d35eb8c0","system_id":"levelo_inurba_marseille","lat":43.261782,"lon":5.374515,"is_reserved":false,"is_disabled":false,"rental_uris":{"android":"levelo://app?vid=1e81e0c5-42a7-401c-ae8e-8009d35eb8c0","ios":"levelo://app?vid=1e81e0c5-42a7-401c-ae8e-8009d35eb8c0"},"vehicle_type_id":"4","last_reported":1686582418,"current_range_meters":30000,"station_id":"ce4bhgp2rcd13ifvqfc0","pricing_plan_id":"free"},{"bike_id":"fcf8d9d2-369e-4379-a82b-11e73eed1d94","system_id":"levelo_inurba_marseille","lat":43.261782,"lon":5.374515,"is_reserved":false,"is_disabled":false,"rental_uris":{"android":"levelo://app?vid=fcf8d9d2-369e-4379-a82b-11e73eed1d94","ios":"levelo://app?vid=fcf8d9d2-369e-4379-a82b-11e73eed1d94"},"vehicle_type_id":"4","last_reported":1686582418,"current_range_meters":10000,"station_id":"ce4bhgp2rcd13ifvqfc0","pricing_plan_id":"free"},{"bike_id":"307f15bb-8efd-4316-8b97-b2007709aa82","system_id":"levelo_inurba_marseille","lat":43.261782,"lon":5.374515,"is_reserved":false,"is_disabled":false,"rental_uris":{"android":"levelo://app?vid=307f15bb-8efd-4316-8b97-b2007709aa82","ios":"levelo://app?vid=307f15bb-8efd-4316-8b97-b2007709aa82"},"vehicle_type_id":"4","last_reported":1686582418,"current_range_meters":8800,"station_id":"ce4bhgp2rcd13ifvqfc0","pricing_plan_id":"free"},{"bike_id":"d2ccce28-00f0-4dc1-ba85-7f900957b22d","system_id":"levelo_inurba_marseille","lat":43.261782,"lon":5.374515,"is_reserved":false,"is_disabled":false,"rental_uris":{"android":"levelo://app?vid=d2ccce28-00f0-4dc1-ba85-7f900957b22d","ios":"levelo://app?vid=d2ccce28-00f0-4dc1-ba85-7f900957b22d"},"vehicle_type_id":"4","last_reported":1686582418,"current_range_meters":400,"station_id":"ce4bhgp2rcd13ifvqfc0","pricing_plan_id":"free"},{"bike_id":"602c264b-2618-424f-9107-6031ebcd5ab2","system_id":"levelo_inurba_marseille","lat":43.261782,"lon":5.374515,"is_reserved":false,"is_disabled":false,"rental_uris":{"android":"levelo://app?vid=602c264b-2618-424f-9107-6031ebcd5ab2","ios":"levelo://app?vid=602c264b-2618-424f-9107-6031ebcd5ab2"},"vehicle_type_id":"4","last_reported":1686582418,"current_range_meters":11200,"station_id":"ce4bhgp2rcd13ifvqfc0","pricing_plan_id":"free"},{"bike_id":"a474bc8f-96a8-4bff-b222-7b11cc38b7d8","system_id":"levelo_inurba_marseille","lat":43.261782,"lon":5.374515,"is_reserved":false,"is_disabled":false,"rental_uris":{"android":"levelo://app?vid=a474bc8f-96a8-4bff-b222-7b11cc38b7d8","ios":"levelo://app?vid=a474bc8f-96a8-4bff-b222-7b11cc38b7d8"},"vehicle_type_id":"4","last_reported":1686582418,"current_range_meters":3200,"station_id":"ce4bhgp2rcd13ifvqfc0","pricing_plan_id":"free"},{"bike_id":"43d00bf2-748d-470a-8247-faf3e9e62df6","system_id":"levelo_inurba_marseille","lat":43.261782,"lon":5.374515,"is_reserved":false,"is_disabled":false,"rental_uris":{"android":"levelo://app?vid=43d00bf2-748d-470a-8247-faf3e9e62df6","ios":"levelo://app?vid=43d00bf2-748d-470a-8247-faf3e9e62df6"},"vehicle_type_id":"4","last_reported":1686582418,"current_range_meters":31200,"station_id":"ce4bhgp2rcd13ifvqfc0","pricing_plan_id":"free"},{"bike_id":"d22a8864-2146-4129-a239-f4923d18a83b","system_id":"levelo_inurba_marseille","lat":43.27322,"lon":5.41221,"is_reserved":false,"is_disabled":false,"rental_uris":{"android":"levelo://app?vid=d22a8864-2146-4129-a239-f4923d18a83b","ios":"levelo://app?vid=d22a8864-2146-4129-a239-f4923d18a83b"},"vehicle_type_id":"4","last_reported":1686582418,"current_range_meters":18000,"station_id":"","pricing_plan_id":"free"},{"bike_id":"48546f0c-80bd-41ae-ae78-7012ef2c3443","system_id":"levelo_inurba_marseille","lat":43.271388,"lon":5.409269,"is_reserved":false,"is_disabled":false,"rental_uris":{"android":"levelo://app?vid=48546f0c-80bd-41ae-ae78-7012ef2c3443","ios":"levelo://app?vid=48546f0c-80bd-41ae-ae78-7012ef2c3443"},"vehicle_type_id":"4","last_reported":1686582418,"current_range_meters":28400,"station_id":"ce4bhl12rcd13ifvqgf0","pricing_plan_id":"free"},{"bike_id":"7ce96ff6-920c-4e17-9d82-a1aae6b1d988","system_id":"levelo_inurba_marseille","lat":43.27176,"lon":5.40989,"is_reserved":false,"is_disabled":false,"rental_uris":{"android":"levelo://app?vid=7ce96ff6-920c-4e17-9d82-a1aae6b1d988","ios":"levelo://app?vid=7ce96ff6-920c-4e17-9d82-a1aae6b1d988"},"vehicle_type_id":"4","last_reported":1686582418,"current_range_meters":24400,"station_id":"","pricing_plan_id":"free"},{"bike_id":"cc560c6b-bced-4852-9611-20ca059e5e9a","system_id":"levelo_inurba_marseille","lat":43.271368,"lon":5.40928,"is_reserved":false,"is_disabled":false,"rental_uris":{"android":"levelo://app?vid=cc560c6b-bced-4852-9611-20ca059e5e9a","ios":"levelo://app?vid=cc560c6b-bced-4852-9611-20ca059e5e9a"},"vehicle_type_id":"4","last_reported":1686582418,"current_range_meters":22000,"station_id":"ce4bhl12rcd13ifvqgf0","pricing_plan_id":"free"},{"bike_id":"d3dd3e31-f833-41e1-b9de-ad1eddf61ffd","system_id":"levelo_inurba_marseille","lat":43.271368,"lon":5.40928,"is_reserved":false,"is_disabled":false,"rental_uris":{"android":"levelo://app?vid=d3dd3e31-f833-41e1-b9de-ad1eddf61ffd","ios":"levelo://app?vid=d3dd3e31-f833-41e1-b9de-ad1eddf61ffd"},"vehicle_type_id":"4","last_reported":1686582418,"current_range_meters":25200,"station_id":"ce4bhl12rcd13ifvqgf0","pricing_plan_id":"free"},{"bike_id":"d54936a8-32d7-4b08-ad56-7e87a9a548bf","system_id":"levelo_inurba_marseille","lat":43.267959,"lon":5.402685,"is_reserved":false,"is_disabled":false,"rental_uris":{"android":"levelo://app?vid=d54936a8-32d7-4b08-ad56-7e87a9a548bf","ios":"levelo://app?vid=d54936a8-32d7-4b08-ad56-7e87a9a548bf"},"vehicle_type_id":"4","last_reported":1686582418,"current_range_meters":17600,"station_id":"ce501612rcd8frsf0b60","pricing_plan_id":"free"},{"bike_id":"08026aa9-6071-49ba-bb4f-4634563b5892","system_id":"levelo_inurba_marseille","lat":43.267959,"lon":5.402685,"is_reserved":false,"is_disabled":false,"rental_uris":{"android":"levelo://app?vid=08026aa9-6071-49ba-bb4f-4634563b5892","ios":"levelo://app?vid=08026aa9-6071-49ba-bb4f-4634563b5892"},"vehicle_type_id":"4","last_reported":1686582418,"current_range_meters":15200,"station_id":"ce501612rcd8frsf0b60","pricing_plan_id":"free"},{"bike_id":"c58aa8e0-b85f-48ff-b6e4-2f037783212b","system_id":"levelo_inurba_marseille","lat":43.2681,"lon":5.40269,"is_reserved":false,"is_disabled":false,"rental_uris":{"android":"levelo://app?vid=c58aa8e0-b85f-48ff-b6e4-2f037783212b","ios":"levelo://app?vid=c58aa8e0-b85f-48ff-b6e4-2f037783212b"},"vehicle_type_id":"4","last_reported":1686582418,"current_range_meters":28800,"station_id":"ce501612rcd8frsf0b60","pricing_plan_id":"free"},{"bike_id":"63fdcfbf-ca21-4eea-bbf2-37e5a1d5ee8b","system_id":"levelo_inurba_marseille","lat":43.267959,"lon":5.402685,"is_reserved":false,"is_disabled":false,"rental_uris":{"android":"levelo://app?vid=63fdcfbf-ca21-4eea-bbf2-37e5a1d5ee8b","ios":"levelo://app?vid=63fdcfbf-ca21-4eea-bbf2-37e5a1d5ee8b"},"vehicle_type_id":"4","last_reported":1686582418,"current_range_meters":23600,"station_id":"ce501612rcd8frsf0b60","pricing_plan_id":"free"},{"bike_id":"a14d6a27-4e4e-4a30-a743-0b6d5b650711","system_id":"levelo_inurba_marseille","lat":43.267959,"lon":5.402687,"is_reserved":false,"is_disabled":false,"rental_uris":{"android":"levelo://app?vid=a14d6a27-4e4e-4a30-a743-0b6d5b650711","ios":"levelo://app?vid=a14d6a27-4e4e-4a30-a743-0b6d5b650711"},"vehicle_type_id":"4","last_reported":1686582418,"current_range_meters":25200,"station_id":"ce501612rcd8frsf0b60","pricing_plan_id":"free"},{"bike_id":"dfce9d7b-92de-4fcc-90d4-f30f36764ab7","system_id":"levelo_inurba_marseille","lat":43.26411,"lon":5.39242,"is_reserved":false,"is_disabled":false,"rental_uris":{"android":"levelo://app?vid=dfce9d7b-92de-4fcc-90d4-f30f36764ab7","ios":"levelo://app?vid=dfce9d7b-92de-4fcc-90d4-f30f36764ab7"},"vehicle_type_id":"4","last_reported":1686582418,"current_range_meters":29200,"station_id":"","pricing_plan_id":"free"},{"bike_id":"b1b6bc0a-3c09-44e0-9f6d-357d4bfa3d8d","system_id":"levelo_inurba_marseille","lat":43.27913,"lon":5.42233,"is_reserved":false,"is_disabled":false,"rental_uris":{"android":"levelo://app?vid=b1b6bc0a-3c09-44e0-9f6d-357d4bfa3d8d","ios":"levelo://app?vid=b1b6bc0a-3c09-44e0-9f6d-357d4bfa3d8d"},"vehicle_type_id":"4","last_reported":1686582418,"current_range_meters":20800,"station_id":"","pricing_plan_id":"free"},{"bike_id":"f52b01fc-8174-4df3-b61c-d88e4f4401d2","system_id":"levelo_inurba_marseille","lat":43.298768,"lon":5.43643,"is_reserved":false,"is_disabled":false,"rental_uris":{"android":"levelo://app?vid=f52b01fc-8174-4df3-b61c-d88e4f4401d2","ios":"levelo://app?vid=f52b01fc-8174-4df3-b61c-d88e4f4401d2"},"vehicle_type_id":"4","last_reported":1686582418,"current_range_meters":24400,"station_id":"ce4bhpp2rcd13ifvqhfg","pricing_plan_id":"free"},{"bike_id":"56775ae0-a017-4826-ac21-a957f1815d05","system_id":"levelo_inurba_marseille","lat":43.2607,"lon":5.393983,"is_reserved":false,"is_disabled":false,"rental_uris":{"android":"levelo://app?vid=56775ae0-a017-4826-ac21-a957f1815d05","ios":"levelo://app?vid=56775ae0-a017-4826-ac21-a957f1815d05"},"vehicle_type_id":"4","last_reported":1686582418,"current_range_meters":19200,"station_id":"ce4bhh92rcd13ifvqfj0","pricing_plan_id":"free"},{"bike_id":"65787800-6282-46ca-9ec2-dd0ca79fa079","system_id":"levelo_inurba_marseille","lat":43.26326,"lon":5.40259,"is_reserved":false,"is_disabled":false,"rental_uris":{"android":"levelo://app?vid=65787800-6282-46ca-9ec2-dd0ca79fa079","ios":"levelo://app?vid=65787800-6282-46ca-9ec2-dd0ca79fa079"},"vehicle_type_id":"4","last_reported":1686582418,"current_range_meters":14800,"station_id":"","pricing_plan_id":"free"},{"bike_id":"8ae9020e-ccc7-4a4c-8a78-97f2aec7db16","system_id":"levelo_inurba_marseille","lat":43.28303,"lon":5.43266,"is_reserved":false,"is_disabled":false,"rental_uris":{"android":"levelo://app?vid=8ae9020e-ccc7-4a4c-8a78-97f2aec7db16","ios":"levelo://app?vid=8ae9020e-ccc7-4a4c-8a78-97f2aec7db16"},"vehicle_type_id":"4","last_reported":1686582418,"current_range_meters":23600,"station_id":"","pricing_plan_id":"free"},{"bike_id":"5f879288-bc0a-47c7-8c1a-b28bfee71026","system_id":"levelo_inurba_marseille","lat":43.275028,"lon":5.424534,"is_reserved":false,"is_disabled":false,"rental_uris":{"android":"levelo://app?vid=5f879288-bc0a-47c7-8c1a-b28bfee71026","ios":"levelo://app?vid=5f879288-bc0a-47c7-8c1a-b28bfee71026"},"vehicle_type_id":"4","last_reported":1686582418,"current_range_meters":0,"station_id":"ce4bhn92rcd13ifvqgrg","pricing_plan_id":"free"},{"bike_id":"a8ab4899-87cc-4525-9c6a-c9c756bd9827","system_id":"levelo_inurba_marseille","lat":43.275028,"lon":5.424534,"is_reserved":false,"is_disabled":false,"rental_uris":{"android":"levelo://app?vid=a8ab4899-87cc-4525-9c6a-c9c756bd9827","ios":"levelo://app?vid=a8ab4899-87cc-4525-9c6a-c9c756bd9827"},"vehicle_type_id":"4","last_reported":1686582418,"current_range_meters":19600,"station_id":"ce4bhn92rcd13ifvqgrg","pricing_plan_id":"free"},{"bike_id":"608221f5-1d3a-4d6b-a493-c89ac30a0802","system_id":"levelo_inurba_marseille","lat":43.275028,"lon":5.424534,"is_reserved":false,"is_disabled":false,"rental_uris":{"android":"levelo://app?vid=608221f5-1d3a-4d6b-a493-c89ac30a0802","ios":"levelo://app?vid=608221f5-1d3a-4d6b-a493-c89ac30a0802"},"vehicle_type_id":"4","last_reported":1686582418,"current_range_meters":0,"station_id":"ce4bhn92rcd13ifvqgrg","pricing_plan_id":"free"},{"bike_id":"68aa84e9-014f-4610-9054-e9c89eec237d","system_id":"levelo_inurba_marseille","lat":43.254947,"lon":5.376454,"is_reserved":false,"is_disabled":false,"rental_uris":{"android":"levelo://app?vid=68aa84e9-014f-4610-9054-e9c89eec237d","ios":"levelo://app?vid=68aa84e9-014f-4610-9054-e9c89eec237d"},"vehicle_type_id":"4","last_reported":1686582418,"current_range_meters":8400,"station_id":"ce4bhh12rcd13ifvqff0","pricing_plan_id":"free"},{"bike_id":"44c4c188-546c-4af4-a127-54a14b080193","system_id":"levelo_inurba_marseille","lat":43.25586,"lon":5.38235,"is_reserved":false,"is_disabled":false,"rental_uris":{"android":"levelo://app?vid=44c4c188-546c-4af4-a127-54a14b080193","ios":"levelo://app?vid=44c4c188-546c-4af4-a127-54a14b080193"},"vehicle_type_id":"4","last_reported":1686582418,"current_range_meters":13600,"station_id":"ce4bhih2rcd13ifvqfs0","pricing_plan_id":"free"},{"bike_id":"d0e44516-4c20-4f0e-8f55-1b09be6a2618","system_id":"levelo_inurba_marseille","lat":43.25584,"lon":5.38225,"is_reserved":false,"is_disabled":false,"rental_uris":{"android":"levelo://app?vid=d0e44516-4c20-4f0e-8f55-1b09be6a2618","ios":"levelo://app?vid=d0e44516-4c20-4f0e-8f55-1b09be6a2618"},"vehicle_type_id":"4","last_reported":1686582418,"current_range_meters":6800,"station_id":"ce4bhih2rcd13ifvqfs0","pricing_plan_id":"free"},{"bike_id":"2bdca25f-8aa0-46d9-92e7-0e280c96966f","system_id":"levelo_inurba_marseille","lat":43.25584,"lon":5.3823,"is_reserved":false,"is_disabled":false,"rental_uris":{"android":"levelo://app?vid=2bdca25f-8aa0-46d9-92e7-0e280c96966f","ios":"levelo://app?vid=2bdca25f-8aa0-46d9-92e7-0e280c96966f"},"vehicle_type_id":"4","last_reported":1686582418,"current_range_meters":17200,"station_id":"ce4bhih2rcd13ifvqfs0","pricing_plan_id":"free"},{"bike_id":"bb08dc88-d0e0-40a3-b632-63c6b8905614","system_id":"levelo_inurba_marseille","lat":43.25581,"lon":5.38237,"is_reserved":false,"is_disabled":false,"rental_uris":{"android":"levelo://app?vid=bb08dc88-d0e0-40a3-b632-63c6b8905614","ios":"levelo://app?vid=bb08dc88-d0e0-40a3-b632-63c6b8905614"},"vehicle_type_id":"4","last_reported":1686582418,"current_range_meters":28800,"station_id":"ce4bhih2rcd13ifvqfs0","pricing_plan_id":"free"},{"bike_id":"a0fdebbd-f7e6-4ffa-83fc-82f577981d20","system_id":"levelo_inurba_marseille","lat":43.254947,"lon":5.376454,"is_reserved":false,"is_disabled":false,"rental_uris":{"android":"levelo://app?vid=a0fdebbd-f7e6-4ffa-83fc-82f577981d20","ios":"levelo://app?vid=a0fdebbd-f7e6-4ffa-83fc-82f577981d20"},"vehicle_type_id":"4","last_reported":1686582418,"current_range_meters":14000,"station_id":"ce4bhh12rcd13ifvqff0","pricing_plan_id":"free"},{"bike_id":"7e6cedd7-f80f-42b6-93ef-86813515bf35","system_id":"levelo_inurba_marseille","lat":43.254947,"lon":5.376454,"is_reserved":false,"is_disabled":false,"rental_uris":{"android":"levelo://app?vid=7e6cedd7-f80f-42b6-93ef-86813515bf35","ios":"levelo://app?vid=7e6cedd7-f80f-42b6-93ef-86813515bf35"},"vehicle_type_id":"4","last_reported":1686582418,"current_range_meters":9600,"station_id":"ce4bhh12rcd13ifvqff0","pricing_plan_id":"free"},{"bike_id":"dc6dfc7b-2c2b-4007-bee1-5a044cd1608f","system_id":"levelo_inurba_marseille","lat":43.25502,"lon":5.3765,"is_reserved":false,"is_disabled":false,"rental_uris":{"android":"levelo://app?vid=dc6dfc7b-2c2b-4007-bee1-5a044cd1608f","ios":"levelo://app?vid=dc6dfc7b-2c2b-4007-bee1-5a044cd1608f"},"vehicle_type_id":"4","last_reported":1686582418,"current_range_meters":5200,"station_id":"ce4bhh12rcd13ifvqff0","pricing_plan_id":"free"},{"bike_id":"5852b85c-dc17-4981-9efb-370825b15a3f","system_id":"levelo_inurba_marseille","lat":43.25499,"lon":5.3765,"is_reserved":false,"is_disabled":false,"rental_uris":{"android":"levelo://app?vid=5852b85c-dc17-4981-9efb-370825b15a3f","ios":"levelo://app?vid=5852b85c-dc17-4981-9efb-370825b15a3f"},"vehicle_type_id":"4","last_reported":1686582418,"current_range_meters":20400,"station_id":"ce4bhh12rcd13ifvqff0","pricing_plan_id":"free"},{"bike_id":"b04e0d71-24f8-4db6-b221-6d694ef1e398","system_id":"levelo_inurba_marseille","lat":43.254947,"lon":5.376454,"is_reserved":false,"is_disabled":false,"rental_uris":{"android":"levelo://app?vid=b04e0d71-24f8-4db6-b221-6d694ef1e398","ios":"levelo://app?vid=b04e0d71-24f8-4db6-b221-6d694ef1e398"},"vehicle_type_id":"4","last_reported":1686582418,"current_range_meters":20800,"station_id":"ce4bhh12rcd13ifvqff0","pricing_plan_id":"free"},{"bike_id":"39f7869e-8186-4b4b-b9a4-3654996178a8","system_id":"levelo_inurba_marseille","lat":43.254947,"lon":5.376454,"is_reserved":false,"is_disabled":false,"rental_uris":{"android":"levelo://app?vid=39f7869e-8186-4b4b-b9a4-3654996178a8","ios":"levelo://app?vid=39f7869e-8186-4b4b-b9a4-3654996178a8"},"vehicle_type_id":"4","last_reported":1686582418,"current_range_meters":0,"station_id":"ce4bhh12rcd13ifvqff0","pricing_plan_id":"free"},{"bike_id":"3fd6ecd8-02b2-4898-8da2-ba0c87f1db21","system_id":"levelo_inurba_marseille","lat":43.25497,"lon":5.37646,"is_reserved":false,"is_disabled":false,"rental_uris":{"android":"levelo://app?vid=3fd6ecd8-02b2-4898-8da2-ba0c87f1db21","ios":"levelo://app?vid=3fd6ecd8-02b2-4898-8da2-ba0c87f1db21"},"vehicle_type_id":"4","last_reported":1686582418,"current_range_meters":3200,"station_id":"ce4bhh12rcd13ifvqff0","pricing_plan_id":"free"},{"bike_id":"9ab618a3-131f-4dec-b3c5-8c02a0455bc3","system_id":"levelo_inurba_marseille","lat":43.25497,"lon":5.37646,"is_reserved":false,"is_disabled":false,"rental_uris":{"android":"levelo://app?vid=9ab618a3-131f-4dec-b3c5-8c02a0455bc3","ios":"levelo://app?vid=9ab618a3-131f-4dec-b3c5-8c02a0455bc3"},"vehicle_type_id":"4","last_reported":1686582418,"current_range_meters":11600,"station_id":"ce4bhh12rcd13ifvqff0","pricing_plan_id":"free"},{"bike_id":"a66ec101-bef3-4e81-91fb-306d77988c12","system_id":"levelo_inurba_marseille","lat":43.254947,"lon":5.376454,"is_reserved":false,"is_disabled":false,"rental_uris":{"android":"levelo://app?vid=a66ec101-bef3-4e81-91fb-306d77988c12","ios":"levelo://app?vid=a66ec101-bef3-4e81-91fb-306d77988c12"},"vehicle_type_id":"4","last_reported":1686582418,"current_range_meters":4800,"station_id":"ce4bhh12rcd13ifvqff0","pricing_plan_id":"free"},{"bike_id":"a8e817f9-8ed2-4ab6-8e38-c10680372a43","system_id":"levelo_inurba_marseille","lat":43.25492,"lon":5.37651,"is_reserved":false,"is_disabled":false,"rental_uris":{"android":"levelo://app?vid=a8e817f9-8ed2-4ab6-8e38-c10680372a43","ios":"levelo://app?vid=a8e817f9-8ed2-4ab6-8e38-c10680372a43"},"vehicle_type_id":"4","last_reported":1686582418,"current_range_meters":12400,"station_id":"ce4bhh12rcd13ifvqff0","pricing_plan_id":"free"},{"bike_id":"b6667399-3272-47e5-a7e9-3d97845d9948","system_id":"levelo_inurba_marseille","lat":43.259009,"lon":5.40929,"is_reserved":false,"is_disabled":false,"rental_uris":{"android":"levelo://app?vid=b6667399-3272-47e5-a7e9-3d97845d9948","ios":"levelo://app?vid=b6667399-3272-47e5-a7e9-3d97845d9948"},"vehicle_type_id":"4","last_reported":1686582418,"current_range_meters":31200,"station_id":"ce4bhm92rcd13ifvqglg","pricing_plan_id":"free"},{"bike_id":"9e4df702-f45b-48b7-8429-b81ca2d320c8","system_id":"levelo_inurba_marseille","lat":43.259009,"lon":5.40929,"is_reserved":false,"is_disabled":false,"rental_uris":{"android":"levelo://app?vid=9e4df702-f45b-48b7-8429-b81ca2d320c8","ios":"levelo://app?vid=9e4df702-f45b-48b7-8429-b81ca2d320c8"},"vehicle_type_id":"4","last_reported":1686582418,"current_range_meters":15200,"station_id":"ce4bhm92rcd13ifvqglg","pricing_plan_id":"free"},{"bike_id":"65051b63-7387-43e7-a2a7-8e551bdc3a26","system_id":"levelo_inurba_marseille","lat":43.259009,"lon":5.40929,"is_reserved":false,"is_disabled":false,"rental_uris":{"android":"levelo://app?vid=65051b63-7387-43e7-a2a7-8e551bdc3a26","ios":"levelo://app?vid=65051b63-7387-43e7-a2a7-8e551bdc3a26"},"vehicle_type_id":"4","last_reported":1686582418,"current_range_meters":13600,"station_id":"ce4bhm92rcd13ifvqglg","pricing_plan_id":"free"},{"bike_id":"63314c11-b267-4d6b-a77f-b08e9871f3f5","system_id":"levelo_inurba_marseille","lat":43.259009,"lon":5.40929,"is_reserved":false,"is_disabled":false,"rental_uris":{"android":"levelo://app?vid=63314c11-b267-4d6b-a77f-b08e9871f3f5","ios":"levelo://app?vid=63314c11-b267-4d6b-a77f-b08e9871f3f5"},"vehicle_type_id":"4","last_reported":1686582418,"current_range_meters":22800,"station_id":"ce4bhm92rcd13ifvqglg","pricing_plan_id":"free"},{"bike_id":"7794cfda-fa07-4654-a2ae-ecff705b9410","system_id":"levelo_inurba_marseille","lat":43.259009,"lon":5.40929,"is_reserved":false,"is_disabled":false,"rental_uris":{"android":"levelo://app?vid=7794cfda-fa07-4654-a2ae-ecff705b9410","ios":"levelo://app?vid=7794cfda-fa07-4654-a2ae-ecff705b9410"},"vehicle_type_id":"4","last_reported":1686582418,"current_range_meters":23200,"station_id":"ce4bhm92rcd13ifvqglg","pricing_plan_id":"free"},{"bike_id":"35270dcb-8c0b-45df-a619-bdc6be3b9b8a","system_id":"levelo_inurba_marseille","lat":43.25936,"lon":5.40909,"is_reserved":false,"is_disabled":false,"rental_uris":{"android":"levelo://app?vid=35270dcb-8c0b-45df-a619-bdc6be3b9b8a","ios":"levelo://app?vid=35270dcb-8c0b-45df-a619-bdc6be3b9b8a"},"vehicle_type_id":"4","last_reported":1686582418,"current_range_meters":29200,"station_id":"","pricing_plan_id":"free"},{"bike_id":"e0cf2e74-27b5-4d78-90e8-749a94ed84a1","system_id":"levelo_inurba_marseille","lat":43.25936,"lon":5.40912,"is_reserved":false,"is_disabled":false,"rental_uris":{"android":"levelo://app?vid=e0cf2e74-27b5-4d78-90e8-749a94ed84a1","ios":"levelo://app?vid=e0cf2e74-27b5-4d78-90e8-749a94ed84a1"},"vehicle_type_id":"4","last_reported":1686582418,"current_range_meters":14000,"station_id":"","pricing_plan_id":"free"},{"bike_id":"386b721f-9ee2-4532-81d7-cda2b1ade2fd","system_id":"levelo_inurba_marseille","lat":43.259013,"lon":5.409301,"is_reserved":false,"is_disabled":false,"rental_uris":{"android":"levelo://app?vid=386b721f-9ee2-4532-81d7-cda2b1ade2fd","ios":"levelo://app?vid=386b721f-9ee2-4532-81d7-cda2b1ade2fd"},"vehicle_type_id":"4","last_reported":1686582418,"current_range_meters":18000,"station_id":"ce4bhm92rcd13ifvqglg","pricing_plan_id":"free"},{"bike_id":"a3377990-0813-459f-bdf7-3e4f30e52a04","system_id":"levelo_inurba_marseille","lat":43.28279,"lon":5.44314,"is_reserved":false,"is_disabled":false,"rental_uris":{"android":"levelo://app?vid=a3377990-0813-459f-bdf7-3e4f30e52a04","ios":"levelo://app?vid=a3377990-0813-459f-bdf7-3e4f30e52a04"},"vehicle_type_id":"4","last_reported":1686582418,"current_range_meters":19200,"station_id":"","pricing_plan_id":"free"},{"bike_id":"54ed60b9-2e18-4795-9f4f-bb74ff7b57a8","system_id":"levelo_inurba_marseille","lat":43.24806,"lon":5.37457,"is_reserved":false,"is_disabled":false,"rental_uris":{"android":"levelo://app?vid=54ed60b9-2e18-4795-9f4f-bb74ff7b57a8","ios":"levelo://app?vid=54ed60b9-2e18-4795-9f4f-bb74ff7b57a8"},"vehicle_type_id":"4","last_reported":1686582418,"current_range_meters":22800,"station_id":"ce4bhgh2rcd13ifvqfb0","pricing_plan_id":"free"},{"bike_id":"cbbc0619-5c7f-4f59-b0f5-8b7ba1d2dd75","system_id":"levelo_inurba_marseille","lat":43.25092,"lon":5.39518,"is_reserved":false,"is_disabled":false,"rental_uris":{"android":"levelo://app?vid=cbbc0619-5c7f-4f59-b0f5-8b7ba1d2dd75","ios":"levelo://app?vid=cbbc0619-5c7f-4f59-b0f5-8b7ba1d2dd75"},"vehicle_type_id":"4","last_reported":1686582418,"current_range_meters":30800,"station_id":"ce4bhm12rcd13ifvqgkg","pricing_plan_id":"free"},{"bike_id":"8fd51c2a-2d2a-449a-903b-38cc7826b48b","system_id":"levelo_inurba_marseille","lat":43.25091,"lon":5.3952,"is_reserved":false,"is_disabled":false,"rental_uris":{"android":"levelo://app?vid=8fd51c2a-2d2a-449a-903b-38cc7826b48b","ios":"levelo://app?vid=8fd51c2a-2d2a-449a-903b-38cc7826b48b"},"vehicle_type_id":"4","last_reported":1686582418,"current_range_meters":31200,"station_id":"ce4bhm12rcd13ifvqgkg","pricing_plan_id":"free"},{"bike_id":"41c03b76-2bbf-4370-8ce3-f922a590281a","system_id":"levelo_inurba_marseille","lat":43.250966,"lon":5.395186,"is_reserved":false,"is_disabled":false,"rental_uris":{"android":"levelo://app?vid=41c03b76-2bbf-4370-8ce3-f922a590281a","ios":"levelo://app?vid=41c03b76-2bbf-4370-8ce3-f922a590281a"},"vehicle_type_id":"4","last_reported":1686582418,"current_range_meters":1600,"station_id":"ce4bhm12rcd13ifvqgkg","pricing_plan_id":"free"},{"bike_id":"5504554d-45a9-4f13-b110-5c88e9fccad4","system_id":"levelo_inurba_marseille","lat":43.25102,"lon":5.403214,"is_reserved":false,"is_disabled":false,"rental_uris":{"android":"levelo://app?vid=5504554d-45a9-4f13-b110-5c88e9fccad4","ios":"levelo://app?vid=5504554d-45a9-4f13-b110-5c88e9fccad4"},"vehicle_type_id":"4","last_reported":1686582418,"current_range_meters":24800,"station_id":"ce4bhlh2rcd13ifvqgig","pricing_plan_id":"free"},{"bike_id":"dd9bc652-f7c3-4a72-9301-f7ca76b3f5ec","system_id":"levelo_inurba_marseille","lat":43.24572,"lon":5.37356,"is_reserved":false,"is_disabled":false,"rental_uris":{"android":"levelo://app?vid=dd9bc652-f7c3-4a72-9301-f7ca76b3f5ec","ios":"levelo://app?vid=dd9bc652-f7c3-4a72-9301-f7ca76b3f5ec"},"vehicle_type_id":"4","last_reported":1686582418,"current_range_meters":1200,"station_id":"","pricing_plan_id":"free"},{"bike_id":"428f32ff-b59a-4b24-b60c-d5f978d7c303","system_id":"levelo_inurba_marseille","lat":43.24388,"lon":5.37052,"is_reserved":false,"is_disabled":false,"rental_uris":{"android":"levelo://app?vid=428f32ff-b59a-4b24-b60c-d5f978d7c303","ios":"levelo://app?vid=428f32ff-b59a-4b24-b60c-d5f978d7c303"},"vehicle_type_id":"4","last_reported":1686582418,"current_range_meters":0,"station_id":"ce4bhhh2rcd13ifvqfk0","pricing_plan_id":"free"},{"bike_id":"a15c3a8a-4548-454c-bbca-b27e2d7612e0","system_id":"levelo_inurba_marseille","lat":43.243884,"lon":5.370736,"is_reserved":false,"is_disabled":false,"rental_uris":{"android":"levelo://app?vid=a15c3a8a-4548-454c-bbca-b27e2d7612e0","ios":"levelo://app?vid=a15c3a8a-4548-454c-bbca-b27e2d7612e0"},"vehicle_type_id":"4","last_reported":1686582418,"current_range_meters":10000,"station_id":"ce4bhhh2rcd13ifvqfk0","pricing_plan_id":"free"},{"bike_id":"9aec4c27-43dc-4a49-a56d-a78c68ebd98a","system_id":"levelo_inurba_marseille","lat":43.34675,"lon":5.44953,"is_reserved":false,"is_disabled":false,"rental_uris":{"android":"levelo://app?vid=9aec4c27-43dc-4a49-a56d-a78c68ebd98a","ios":"levelo://app?vid=9aec4c27-43dc-4a49-a56d-a78c68ebd98a"},"vehicle_type_id":"4","last_reported":1686582418,"current_range_meters":3200,"station_id":"","pricing_plan_id":"free"},{"bike_id":"877d97f1-41d3-42b8-be57-fd8b85259d30","system_id":"levelo_inurba_marseille","lat":43.245581,"lon":5.395069,"is_reserved":false,"is_disabled":false,"rental_uris":{"android":"levelo://app?vid=877d97f1-41d3-42b8-be57-fd8b85259d30","ios":"levelo://app?vid=877d97f1-41d3-42b8-be57-fd8b85259d30"},"vehicle_type_id":"4","last_reported":1686582418,"current_range_meters":23200,"station_id":"ce4bhlp2rcd13ifvqgjg","pricing_plan_id":"free"},{"bike_id":"425ba782-91e4-4cfd-bfd5-6267f1a8eed1","system_id":"levelo_inurba_marseille","lat":43.245581,"lon":5.395069,"is_reserved":false,"is_disabled":false,"rental_uris":{"android":"levelo://app?vid=425ba782-91e4-4cfd-bfd5-6267f1a8eed1","ios":"levelo://app?vid=425ba782-91e4-4cfd-bfd5-6267f1a8eed1"},