{"last_updated":1705561646,"ttl":30,"version":"2.2","data":{"bikes":[{"bike_id":"b971be56-0d34-41af-a304-2ab17fe49619","system_id":"levelo_inurba_marseille","lat":43.31341,"lon":5.367098,"is_reserved":false,"is_disabled":false,"rental_uris":{"android":"levelo://app?vid=b971be56-0d34-41af-a304-2ab17fe49619","ios":"levelo://app?vid=b971be56-0d34-41af-a304-2ab17fe49619"},"vehicle_type_id":"4","last_reported":1705561647,"current_range_meters":29200,"station_id":"ce4bgr92rcd13ifvqc6g","pricing_plan_id":"free"},{"bike_id":"bf1f1588-eee1-4f60-a77b-6f8e860278ec","system_id":"levelo_inurba_marseille","lat":43.31341,"lon":5.367098,"is_reserved":false,"is_disabled":false,"rental_uris":{"android":"levelo://app?vid=bf1f1588-eee1-4f60-a77b-6f8e860278ec","ios":"levelo://app?vid=bf1f1588-eee1-4f60-a77b-6f8e860278ec"},"vehicle_type_id":"4","last_reported":1705561647,"current_range_meters":19200,"station_id":"ce4bgr92rcd13ifvqc6g","pricing_plan_id":"free"},{"bike_id":"7380066a-837e-495b-8022-f26d3e3a5577","system_id":"levelo_inurba_marseille","lat":43.313391,"lon":5.36706,"is_reserved":false,"is_disabled":false,"rental_uris":{"android":"levelo://app?vid=7380066a-837e-495b-8022-f26d3e3a5577","ios":"levelo://app?vid=7380066a-837e-495b-8022-f26d3e3a5577"},"vehicle_type_id":"4","last_reported":1705561647,"current_range_meters":17200,"station_id":"ce4bgr92rcd13ifvqc6g","pricing_plan_id":"free"},{"bike_id":"c5e344a3-21cb-4d43-aeba-015a7ff17eaa","system_id":"levelo_inurba_marseille","lat":43.313391,"lon":5.36706,"is_reserved":false,"is_disabled":false,"rental_uris":{"android":"levelo://app?vid=c5e344a3-21cb-4d43-aeba-015a7ff17eaa","ios":"levelo://app?vid=c5e344a3-21cb-4d43-aeba-015a7ff17eaa"},"vehicle_type_id":"4","last_reported":1705561647,"current_range_meters":24800,"station_id":"ce4bgr92rcd13ifvqc6g","pricing_plan_id":"free"},{"bike_id":"1939c39a-8ef0-4a9c-8aef-6354692a7d10","system_id":"levelo_inurba_marseille","lat":43.31341,"lon":5.367098,"is_reserved":false,"is_disabled":false,"rental_uris":{"android":"levelo://app?vid=1939c39a-8ef0-4a9c-8aef-6354692a7d10","ios":"levelo://app?vid=1939c39a-8ef0-4a9c-8aef-6354692a7d10"},"vehicle_type_id":"4","last_reported":1705561647,"current_range_meters":25200,"station_id":"ce4bgr92rcd13ifvqc6g","pricing_plan_id":"free"},{"bike_id":"b583a396-5034-4f77-a306-795f95f6e1aa","system_id":"levelo_inurba_marseille","lat":43.313391,"lon":5.36706,"is_reserved":false,"is_disabled":false,"rental_uris":{"android":"levelo://app?vid=b583a396-5034-4f77-a306-795f95f6e1aa","ios":"levelo://app?vid=b583a396-5034-4f77-a306-795f95f6e1aa"},"vehicle_type_id":"4","last_reported":1705561647,"current_range_meters":26800,"station_id":"ce4bgr92rcd13ifvqc6g","pricing_plan_id":"free"},{"bike_id":"8a4fd6bf-8e98-4981-8582-2f266a2a7d52","system_id":"levelo_inurba_marseille","lat":43.313391,"lon":5.36706,"is_reserved":false,"is_disabled":false,"rental_uris":{"android":"levelo://app?vid=8a4fd6bf-8e98-4981-8582-2f266a2a7d52","ios":"levelo://app?vid=8a4fd6bf-8e98-4981-8582-2f266a2a7d52"},"vehicle_type_id":"4","last_reported":1705561647,"current_range_meters":22400,"station_id":"ce4bgr92rcd13ifvqc6g","pricing_plan_id":"free"},{"bike_id":"e1cf9a6d-640d-4130-9117-92e14bd44a2e","system_id":"levelo_inurba_marseille","lat":43.313391,"lon":5.36706,"is_reserved":false,"is_disabled":false,"rental_uris":{"android":"levelo://app?vid=e1cf9a6d-640d-4130-9117-92e14bd44a2e","ios":"levelo://app?vid=e1cf9a6d-640d-4130-9117-92e14bd44a2e"},"vehicle_type_id":"4","last_reported":1705561647,"current_range_meters":26000,"station_id":"ce4bgr92rcd13ifvqc6g","pricing_plan_id":"free"},{"bike_id":"5740a930-cf64-478a-a5b6-9785c6eda061","system_id":"levelo_inurba_marseille","lat":43.31341,"lon":5.367098,"is_reserved":false,"is_disabled":false,"rental_uris":{"android":"levelo://app?vid=5740a930-cf64-478a-a5b6-9785c6eda061","ios":"levelo://app?vid=5740a930-cf64-478a-a5b6-9785c6eda061"},"vehicle_type_id":"4","last_reported":1705561647,"current_range_meters":20000,"station_id":"ce4bgr92rcd13ifvqc6g","pricing_plan_id":"free"},{"bike_id":"b9dee7bc-48e5-4bd8-aa44-7f2269dbe2a9","system_id":"levelo_inurba_marseille","lat":43.313391,"lon":5.36706,"is_reserved":false,"is_disabled":false,"rental_uris":{"android":"levelo://app?vid=b9dee7bc-48e5-4bd8-aa44-7f2269dbe2a9","ios":"levelo://app?vid=b9dee7bc-48e5-4bd8-aa44-7f2269dbe2a9"},"vehicle_type_id":"4","last_reported":1705561647,"current_range_meters":13200,"station_id":"ce4bgr92rcd13ifvqc6g","pricing_plan_id":"free"},{"bike_id":"34f1e7f6-8580-4c60-a3ec-e4fb7d2eeb21","system_id":"levelo_inurba_marseille","lat":43.312239,"lon":5.368562,"is_reserved":false,"is_disabled":false,"rental_uris":{"android":"levelo://app?vid=34f1e7f6-8580-4c60-a3ec-e4fb7d2eeb21","ios":"levelo://app?vid=34f1e7f6-8580-4c60-a3ec-e4fb7d2eeb21"},"vehicle_type_id":"4","last_reported":1705561647,"current_range_meters":26400,"station_id":"ce4bgl92rcd13ifvqbq0","pricing_plan_id":"free"},{"bike_id":"61b93c57-6b08-4259-a460-f9bbda173b07","system_id":"levelo_inurba_marseille","lat":43.312239,"lon":5.368562,"is_reserved":false,"is_disabled":false,"rental_uris":{"android":"levelo://app?vid=61b93c57-6b08-4259-a460-f9bbda173b07","ios":"levelo://app?vid=61b93c57-6b08-4259-a460-f9bbda173b07"},"vehicle_type_id":"4","last_reported":1705561647,"current_range_meters":18800,"station_id":"ce4bgl92rcd13ifvqbq0","pricing_plan_id":"free"},{"bike_id":"897ae299-b3ab-481c-adba-997e1f460526","system_id":"levelo_inurba_marseille","lat":43.312239,"lon":5.368562,"is_reserved":false,"is_disabled":false,"rental_uris":{"android":"levelo://app?vid=897ae299-b3ab-481c-adba-997e1f460526","ios":"levelo://app?vid=897ae299-b3ab-481c-adba-997e1f460526"},"vehicle_type_id":"4","last_reported":1705561647,"current_range_meters":30800,"station_id":"ce4bgl92rcd13ifvqbq0","pricing_plan_id":"free"},{"bike_id":"5c378f13-78d9-404d-99ee-451c9ef7b0d3","system_id":"levelo_inurba_marseille","lat":43.312239,"lon":5.368562,"is_reserved":false,"is_disabled":false,"rental_uris":{"android":"levelo://app?vid=5c378f13-78d9-404d-99ee-451c9ef7b0d3","ios":"levelo://app?vid=5c378f13-78d9-404d-99ee-451c9ef7b0d3"},"vehicle_type_id":"4","last_reported":1705561647,"current_range_meters":23600,"station_id":"ce4bgl92rcd13ifvqbq0","pricing_plan_id":"free"},{"bike_id":"ca02a1fc-4b5a-4862-b417-379c2ed087c9","system_id":"levelo_inurba_marseille","lat":43.312239,"lon":5.368562,"is_reserved":false,"is_disabled":false,"rental_uris":{"android":"levelo://app?vid=ca02a1fc-4b5a-4862-b417-379c2ed087c9","ios":"levelo://app?vid=ca02a1fc-4b5a-4862-b417-379c2ed087c9"},"vehicle_type_id":"4","last_reported":1705561647,"current_range_meters":9200,"station_id":"ce4bgl92rcd13ifvqbq0","pricing_plan_id":"free"},{"bike_id":"e726ef74-cdfb-4106-80a3-1fae516e2e72","system_id":"levelo_inurba_marseille","lat":43.312239,"lon":5.368562,"is_reserved":false,"is_disabled":false,"rental_uris":{"android":"levelo://app?vid=e726ef74-cdfb-4106-80a3-1fae516e2e72","ios":"levelo://app?vid=e726ef74-cdfb-4106-80a3-1fae516e2e72"},"vehicle_type_id":"4","last_reported":1705561647,"current_range_meters":8800,"station_id":"ce4bgl92rcd13ifvqbq0","pricing_plan_id":"free"},{"bike_id":"c6c3d459-51cc-41a1-812a-e8b470d2f921","system_id":"levelo_inurba_marseille","lat":43.312239,"lon":5.368562,"is_reserved":false,"is_disabled":false,"rental_uris":{"android":"levelo://app?vid=c6c3d459-51cc-41a1-812a-e8b470d2f921","ios":"levelo://app?vid=c6c3d459-51cc-41a1-812a-e8b470d2f921"},"vehicle_type_id":"4","last_reported":1705561647,"current_range_meters":10400,"station_id":"ce4bgl92rcd13ifvqbq0","pricing_plan_id":"free"},{"bike_id":"915effab-40f5-4e0c-b815-9b57549f8f77","system_id":"levelo_inurba_marseille","lat":43.312239,"lon":5.368562,"is_reserved":false,"is_disabled":false,"rental_uris":{"android":"levelo://app?vid=915effab-40f5-4e0c-b815-9b57549f8f77","ios":"levelo://app?vid=915effab-40f5-4e0c-b815-9b57549f8f77"},"vehicle_type_id":"4","last_reported":1705561647,"current_range_meters":8400,"station_id":"ce4bgl92rcd13ifvqbq0","pricing_plan_id":"free"},{"bike_id":"5f9d5b3b-ae27-4862-b4a9-3c20d01ed11a","system_id":"levelo_inurba_marseille","lat":43.309076,"lon":5.368465,"is_reserved":false,"is_disabled":false,"rental_uris":{"android":"levelo://app?vid=5f9d5b3b-ae27-4862-b4a9-3c20d01ed11a","ios":"levelo://app?vid=5f9d5b3b-ae27-4862-b4a9-3c20d01ed11a"},"vehicle_type_id":"4","last_reported":1705561647,"current_range_meters":15600,"station_id":"ce4bgn92rcd13ifvqbvg","pricing_plan_id":"free"},{"bike_id":"e4b52c61-cfe6-44ef-a0ac-b73c41bd265e","system_id":"levelo_inurba_marseille","lat":43.309179,"lon":5.36851,"is_reserved":false,"is_disabled":false,"rental_uris":{"android":"levelo://app?vid=e4b52c61-cfe6-44ef-a0ac-b73c41bd265e","ios":"levelo://app?vid=e4b52c61-cfe6-44ef-a0ac-b73c41bd265e"},"vehicle_type_id":"4","last_reported":1705561647,"current_range_meters":21600,"station_id":"ce4bgn92rcd13ifvqbvg","pricing_plan_id":"free"},{"bike_id":"907b5817-624e-46c9-8983-d2ae4561236a","system_id":"levelo_inurba_marseille","lat":43.314811,"lon":5.373103,"is_reserved":false,"is_disabled":false,"rental_uris":{"android":"levelo://app?vid=907b5817-624e-46c9-8983-d2ae4561236a","ios":"levelo://app?vid=907b5817-624e-46c9-8983-d2ae4561236a"},"vehicle_type_id":"4","last_reported":1705561647,"current_range_meters":27600,"station_id":"ce4bgt12rcd13ifvqcd0","pricing_plan_id":"free"},{"bike_id":"636aba2d-ce46-4993-970a-c72a05609ca5","system_id":"levelo_inurba_marseille","lat":43.314811,"lon":5.373103,"is_reserved":false,"is_disabled":false,"rental_uris":{"android":"levelo://app?vid=636aba2d-ce46-4993-970a-c72a05609ca5","ios":"levelo://app?vid=636aba2d-ce46-4993-970a-c72a05609ca5"},"vehicle_type_id":"4","last_reported":1705561647,"current_range_meters":26400,"station_id":"ce4bgt12rcd13ifvqcd0","pricing_plan_id":"free"},{"bike_id":"f03cfcd0-c654-4ffb-9bcf-cbed6113c9f8","system_id":"levelo_inurba_marseille","lat":43.314811,"lon":5.373103,"is_reserved":false,"is_disabled":false,"rental_uris":{"android":"levelo://app?vid=f03cfcd0-c654-4ffb-9bcf-cbed6113c9f8","ios":"levelo://app?vid=f03cfcd0-c654-4ffb-9bcf-cbed6113c9f8"},"vehicle_type_id":"4","last_reported":1705561647,"current_range_meters":0,"station_id":"ce4bgt12rcd13ifvqcd0","pricing_plan_id":"free"},{"bike_id":"00abd259-d2f7-4aea-b622-41226521e0f0","system_id":"levelo_inurba_marseille","lat":43.314811,"lon":5.373104,"is_reserved":false,"is_disabled":false,"rental_uris":{"android":"levelo://app?vid=00abd259-d2f7-4aea-b622-41226521e0f0","ios":"levelo://app?vid=00abd259-d2f7-4aea-b622-41226521e0f0"},"vehicle_type_id":"4","last_reported":1705561647,"current_range_meters":4000,"station_id":"ce4bgt12rcd13ifvqcd0","pricing_plan_id":"free"},{"bike_id":"e566f2bc-9d19-4a3b-9e1f-c447b1265f62","system_id":"levelo_inurba_marseille","lat":43.309039,"lon":5.371797,"is_reserved":false,"is_disabled":false,"rental_uris":{"android":"levelo://app?vid=e566f2bc-9d19-4a3b-9e1f-c447b1265f62","ios":"levelo://app?vid=e566f2bc-9d19-4a3b-9e1f-c447b1265f62"},"vehicle_type_id":"4","last_reported":1705561647,"current_range_meters":12000,"station_id":"ce4bguh2rcd13ifvqckg","pricing_plan_id":"free"},{"bike_id":"60ef59bf-c341-455f-89d3-834a28bdd0e5","system_id":"levelo_inurba_marseille","lat":43.309039,"lon":5.371797,"is_reserved":false,"is_disabled":false,"rental_uris":{"android":"levelo://app?vid=60ef59bf-c341-455f-89d3-834a28bdd0e5","ios":"levelo://app?vid=60ef59bf-c341-455f-89d3-834a28bdd0e5"},"vehicle_type_id":"4","last_reported":1705561647,"current_range_meters":29600,"station_id":"ce4bguh2rcd13ifvqckg","pricing_plan_id":"free"},{"bike_id":"d7fd0770-d136-4181-88d9-d3c6af310f27","system_id":"levelo_inurba_marseille","lat":43.309039,"lon":5.371797,"is_reserved":false,"is_disabled":false,"rental_uris":{"android":"levelo://app?vid=d7fd0770-d136-4181-88d9-d3c6af310f27","ios":"levelo://app?vid=d7fd0770-d136-4181-88d9-d3c6af310f27"},"vehicle_type_id":"4","last_reported":1705561647,"current_range_meters":30000,"station_id":"ce4bguh2rcd13ifvqckg","pricing_plan_id":"free"},{"bike_id":"0fd1310f-eb7e-48e6-a8fb-29c28ffc1b12","system_id":"levelo_inurba_marseille","lat":43.30881,"lon":5.37187,"is_reserved":false,"is_disabled":false,"rental_uris":{"android":"levelo://app?vid=0fd1310f-eb7e-48e6-a8fb-29c28ffc1b12","ios":"levelo://app?vid=0fd1310f-eb7e-48e6-a8fb-29c28ffc1b12"},"vehicle_type_id":"4","last_reported":1705561647,"current_range_meters":30400,"station_id":"ce4bguh2rcd13ifvqckg","pricing_plan_id":"free"},{"bike_id":"8fdfd13c-7c98-4236-9d65-f9460a438d36","system_id":"levelo_inurba_marseille","lat":43.305368,"lon":5.367343,"is_reserved":false,"is_disabled":false,"rental_uris":{"android":"levelo://app?vid=8fdfd13c-7c98-4236-9d65-f9460a438d36","ios":"levelo://app?vid=8fdfd13c-7c98-4236-9d65-f9460a438d36"},"vehicle_type_id":"4","last_reported":1705561647,"current_range_meters":2800,"station_id":"ce4bgrp2rcd13ifvqc9g","pricing_plan_id":"free"},{"bike_id":"dde9773a-e185-4930-a15c-cb18edb75fc8","system_id":"levelo_inurba_marseille","lat":43.305368,"lon":5.367343,"is_reserved":false,"is_disabled":false,"rental_uris":{"android":"levelo://app?vid=dde9773a-e185-4930-a15c-cb18edb75fc8","ios":"levelo://app?vid=dde9773a-e185-4930-a15c-cb18edb75fc8"},"vehicle_type_id":"4","last_reported":1705561647,"current_range_meters":12000,"station_id":"ce4bgrp2rcd13ifvqc9g","pricing_plan_id":"free"},{"bike_id":"445eef08-0394-494d-bd82-bfad3862c43a","system_id":"levelo_inurba_marseille","lat":43.305706,"lon":5.365654,"is_reserved":false,"is_disabled":false,"rental_uris":{"android":"levelo://app?vid=445eef08-0394-494d-bd82-bfad3862c43a","ios":"levelo://app?vid=445eef08-0394-494d-bd82-bfad3862c43a"},"vehicle_type_id":"4","last_reported":1705561647,"current_range_meters":27200,"station_id":"ce4bgs12rcd13ifvqcag","pricing_plan_id":"free"},{"bike_id":"c80425d0-43b9-4124-a7a6-a8c5ba267922","system_id":"levelo_inurba_marseille","lat":43.305368,"lon":5.367343,"is_reserved":false,"is_disabled":false,"rental_uris":{"android":"levelo://app?vid=c80425d0-43b9-4124-a7a6-a8c5ba267922","ios":"levelo://app?vid=c80425d0-43b9-4124-a7a6-a8c5ba267922"},"vehicle_type_id":"4","last_reported":1705561647,"current_range_meters":29200,"station_id":"ce4bgrp2rcd13ifvqc9g","pricing_plan_id":"free"},{"bike_id":"8973d44d-cd54-4d86-a2fb-36d6d6c4e9f5","system_id":"levelo_inurba_marseille","lat":43.305714,"lon":5.365633,"is_reserved":false,"is_disabled":false,"rental_uris":{"android":"levelo://app?vid=8973d44d-cd54-4d86-a2fb-36d6d6c4e9f5","ios":"levelo://app?vid=8973d44d-cd54-4d86-a2fb-36d6d6c4e9f5"},"vehicle_type_id":"4","last_reported":1705561647,"current_range_meters":25600,"station_id":"ce4bgs12rcd13ifvqcag","pricing_plan_id":"free"},{"bike_id":"5455039f-c133-453c-940f-6a4c825d416b","system_id":"levelo_inurba_marseille","lat":43.305706,"lon":5.365654,"is_reserved":false,"is_disabled":false,"rental_uris":{"android":"levelo://app?vid=5455039f-c133-453c-940f-6a4c825d416b","ios":"levelo://app?vid=5455039f-c133-453c-940f-6a4c825d416b"},"vehicle_type_id":"4","last_reported":1705561647,"current_range_meters":30400,"station_id":"ce4bgs12rcd13ifvqcag","pricing_plan_id":"free"},{"bike_id":"e718b0ae-65ec-4fab-b305-2978c60ed9a1","system_id":"levelo_inurba_marseille","lat":43.305706,"lon":5.365654,"is_reserved":false,"is_disabled":false,"rental_uris":{"android":"levelo://app?vid=e718b0ae-65ec-4fab-b305-2978c60ed9a1","ios":"levelo://app?vid=e718b0ae-65ec-4fab-b305-2978c60ed9a1"},"vehicle_type_id":"4","last_reported":1705561647,"current_range_meters":22000,"station_id":"ce4bgs12rcd13ifvqcag","pricing_plan_id":"free"},{"bike_id":"db1c2df9-35f5-4617-b36d-a2f1152f8dae","system_id":"levelo_inurba_marseille","lat":43.305989,"lon":5.37225,"is_reserved":false,"is_disabled":false,"rental_uris":{"android":"levelo://app?vid=db1c2df9-35f5-4617-b36d-a2f1152f8dae","ios":"levelo://app?vid=db1c2df9-35f5-4617-b36d-a2f1152f8dae"},"vehicle_type_id":"4","last_reported":1705561647,"current_range_meters":12400,"station_id":"ce4bgqh2rcd13ifvqc4g","pricing_plan_id":"free"},{"bike_id":"e05d23e9-35f6-42b6-a3fd-df2114e9d163","system_id":"levelo_inurba_marseille","lat":43.305989,"lon":5.37225,"is_reserved":false,"is_disabled":false,"rental_uris":{"android":"levelo://app?vid=e05d23e9-35f6-42b6-a3fd-df2114e9d163","ios":"levelo://app?vid=e05d23e9-35f6-42b6-a3fd-df2114e9d163"},"vehicle_type_id":"4","last_reported":1705561647,"current_range_meters":24000,"station_id":"ce4bgqh2rcd13ifvqc4g","pricing_plan_id":"free"},{"bike_id":"cd908a2e-952b-4a57-8949-8068deb6dd76","system_id":"levelo_inurba_marseille","lat":43.305989,"lon":5.37225,"is_reserved":false,"is_disabled":false,"rental_uris":{"android":"levelo://app?vid=cd908a2e-952b-4a57-8949-8068deb6dd76","ios":"levelo://app?vid=cd908a2e-952b-4a57-8949-8068deb6dd76"},"vehicle_type_id":"4","last_reported":1705561647,"current_range_meters":30800,"station_id":"ce4bgqh2rcd13ifvqc4g","pricing_plan_id":"free"},{"bike_id":"a216c943-bb88-4764-ae03-b69a087c939c","system_id":"levelo_inurba_marseille","lat":43.305989,"lon":5.37225,"is_reserved":false,"is_disabled":false,"rental_uris":{"android":"levelo://app?vid=a216c943-bb88-4764-ae03-b69a087c939c","ios":"levelo://app?vid=a216c943-bb88-4764-ae03-b69a087c939c"},"vehicle_type_id":"4","last_reported":1705561647,"current_range_meters":29200,"station_id":"ce4bgqh2rcd13ifvqc4g","pricing_plan_id":"free"},{"bike_id":"3319558b-6df8-4dc1-ae82-d6ce4a2fb101","system_id":"levelo_inurba_marseille","lat":43.305989,"lon":5.37225,"is_reserved":false,"is_disabled":false,"rental_uris":{"android":"levelo://app?vid=3319558b-6df8-4dc1-ae82-d6ce4a2fb101","ios":"levelo://app?vid=3319558b-6df8-4dc1-ae82-d6ce4a2fb101"},"vehicle_type_id":"4","last_reported":1705561647,"current_range_meters":31600,"station_id":"ce4bgqh2rcd13ifvqc4g","pricing_plan_id":"free"},{"bike_id":"9c07dd63-5d21-4bfd-9bd9-2da3b6117522","system_id":"levelo_inurba_marseille","lat":43.305989,"lon":5.37225,"is_reserved":false,"is_disabled":false,"rental_uris":{"android":"levelo://app?vid=9c07dd63-5d21-4bfd-9bd9-2da3b6117522","ios":"levelo://app?vid=9c07dd63-5d21-4bfd-9bd9-2da3b6117522"},"vehicle_type_id":"4","last_reported":1705561647,"current_range_meters":27600,"station_id":"ce4bgqh2rcd13ifvqc4g","pricing_plan_id":"free"},{"bike_id":"120432ec-0d5f-4646-81a8-c75a185c83f5","system_id":"levelo_inurba_marseille","lat":43.305989,"lon":5.37225,"is_reserved":false,"is_disabled":false,"rental_uris":{"android":"levelo://app?vid=120432ec-0d5f-4646-81a8-c75a185c83f5","ios":"levelo://app?vid=120432ec-0d5f-4646-81a8-c75a185c83f5"},"vehicle_type_id":"4","last_reported":1705561647,"current_range_meters":14000,"station_id":"ce4bgqh2rcd13ifvqc4g","pricing_plan_id":"free"},{"bike_id":"7cb58920-7261-4d5a-9466-eae970d21a67","system_id":"levelo_inurba_marseille","lat":43.305989,"lon":5.37225,"is_reserved":false,"is_disabled":false,"rental_uris":{"android":"levelo://app?vid=7cb58920-7261-4d5a-9466-eae970d21a67","ios":"levelo://app?vid=7cb58920-7261-4d5a-9466-eae970d21a67"},"vehicle_type_id":"4","last_reported":1705561647,"current_range_meters":6800,"station_id":"ce4bgqh2rcd13ifvqc4g","pricing_plan_id":"free"},{"bike_id":"3fb321f0-d24b-4bdb-8dde-769af4949653","system_id":"levelo_inurba_marseille","lat":43.305989,"lon":5.37225,"is_reserved":false,"is_disabled":false,"rental_uris":{"android":"levelo://app?vid=3fb321f0-d24b-4bdb-8dde-769af4949653","ios":"levelo://app?vid=3fb321f0-d24b-4bdb-8dde-769af4949653"},"vehicle_type_id":"4","last_reported":1705561647,"current_range_meters":10000,"station_id":"ce4bgqh2rcd13ifvqc4g","pricing_plan_id":"free"},{"bike_id":"2321e897-6253-4937-abb9-a2e54fe28c32","system_id":"levelo_inurba_marseille","lat":43.31122,"lon":5.377635,"is_reserved":false,"is_disabled":false,"rental_uris":{"android":"levelo://app?vid=2321e897-6253-4937-abb9-a2e54fe28c32","ios":"levelo://app?vid=2321e897-6253-4937-abb9-a2e54fe28c32"},"vehicle_type_id":"4","last_reported":1705561647,"current_range_meters":0,"station_id":"ce4bgt92rcd13ifvqcg0","pricing_plan_id":"free"},{"bike_id":"9507b9a3-f418-4cd7-85c9-640f1d508976","system_id":"levelo_inurba_marseille","lat":43.317075,"lon":5.377367,"is_reserved":false,"is_disabled":false,"rental_uris":{"android":"levelo://app?vid=9507b9a3-f418-4cd7-85c9-640f1d508976","ios":"levelo://app?vid=9507b9a3-f418-4cd7-85c9-640f1d508976"},"vehicle_type_id":"4","last_reported":1705561647,"current_range_meters":8800,"station_id":"ce4bgth2rcd13ifvqch0","pricing_plan_id":"free"},{"bike_id":"a456dfc1-e659-4d25-82cb-0c1c3844b77a","system_id":"levelo_inurba_marseille","lat":43.317075,"lon":5.377367,"is_reserved":false,"is_disabled":false,"rental_uris":{"android":"levelo://app?vid=a456dfc1-e659-4d25-82cb-0c1c3844b77a","ios":"levelo://app?vid=a456dfc1-e659-4d25-82cb-0c1c3844b77a"},"vehicle_type_id":"4","last_reported":1705561647,"current_range_meters":30800,"station_id":"ce4bgth2rcd13ifvqch0","pricing_plan_id":"free"},{"bike_id":"ff33bb7d-c90b-41bd-a053-cd8c73fa345a","system_id":"levelo_inurba_marseille","lat":43.317075,"lon":5.377367,"is_reserved":false,"is_disabled":false,"rental_uris":{"android":"levelo://app?vid=ff33bb7d-c90b-41bd-a053-cd8c73fa345a","ios":"levelo://app?vid=ff33bb7d-c90b-41bd-a053-cd8c73fa345a"},"vehicle_type_id":"4","last_reported":1705561647,"current_range_meters":27600,"station_id":"ce4bgth2rcd13ifvqch0","pricing_plan_id":"free"},{"bike_id":"cbb63f9a-d9b8-4464-8673-4042bd8d4839","system_id":"levelo_inurba_marseille","lat":43.303046,"lon":5.368981,"is_reserved":false,"is_disabled":false,"rental_uris":{"android":"levelo://app?vid=cbb63f9a-d9b8-4464-8673-4042bd8d4839","ios":"levelo://app?vid=cbb63f9a-d9b8-4464-8673-4042bd8d4839"},"vehicle_type_id":"4","last_reported":1705561647,"current_range_meters":24000,"station_id":"ce4bgqh2rcd13ifvqc5g","pricing_plan_id":"free"},{"bike_id":"05f1c2b1-4f10-4ecf-8b88-e652e46b2941","system_id":"levelo_inurba_marseille","lat":43.303046,"lon":5.368981,"is_reserved":false,"is_disabled":false,"rental_uris":{"android":"levelo://app?vid=05f1c2b1-4f10-4ecf-8b88-e652e46b2941","ios":"levelo://app?vid=05f1c2b1-4f10-4ecf-8b88-e652e46b2941"},"vehicle_type_id":"4","last_reported":1705561647,"current_range_meters":16800,"station_id":"ce4bgqh2rcd13ifvqc5g","pricing_plan_id":"free"},{"bike_id":"20a75ddb-cd31-43df-9294-3ac49559de99","system_id":"levelo_inurba_marseille","lat":43.303046,"lon":5.368981,"is_reserved":false,"is_disabled":false,"rental_uris":{"android":"levelo://app?vid=20a75ddb-cd31-43df-9294-3ac49559de99","ios":"levelo://app?vid=20a75ddb-cd31-43df-9294-3ac49559de99"},"vehicle_type_id":"4","last_reported":1705561647,"current_range_meters":32000,"station_id":"ce4bgqh2rcd13ifvqc5g","pricing_plan_id":"free"},{"bike_id":"fcdec74f-10a2-436f-90cf-08d944012dcb","system_id":"levelo_inurba_marseille","lat":43.30311,"lon":5.36896,"is_reserved":false,"is_disabled":false,"rental_uris":{"android":"levelo://app?vid=fcdec74f-10a2-436f-90cf-08d944012dcb","ios":"levelo://app?vid=fcdec74f-10a2-436f-90cf-08d944012dcb"},"vehicle_type_id":"4","last_reported":1705561647,"current_range_meters":3600,"station_id":"ce4bgqh2rcd13ifvqc5g","pricing_plan_id":"free"},{"bike_id":"5406767f-abb5-45fe-804f-c7c621114e88","system_id":"levelo_inurba_marseille","lat":43.30304,"lon":5.368987,"is_reserved":false,"is_disabled":false,"rental_uris":{"android":"levelo://app?vid=5406767f-abb5-45fe-804f-c7c621114e88","ios":"levelo://app?vid=5406767f-abb5-45fe-804f-c7c621114e88"},"vehicle_type_id":"4","last_reported":1705561647,"current_range_meters":28800,"station_id":"ce4bgqh2rcd13ifvqc5g","pricing_plan_id":"free"},{"bike_id":"c3179880-8629-4fae-94a4-eb907e5ce175","system_id":"levelo_inurba_marseille","lat":43.303046,"lon":5.368981,"is_reserved":false,"is_disabled":false,"rental_uris":{"android":"levelo://app?vid=c3179880-8629-4fae-94a4-eb907e5ce175","ios":"levelo://app?vid=c3179880-8629-4fae-94a4-eb907e5ce175"},"vehicle_type_id":"4","last_reported":1705561647,"current_range_meters":18000,"station_id":"ce4bgqh2rcd13ifvqc5g","pricing_plan_id":"free"},{"bike_id":"d888ef6c-1721-4834-b22f-4042fda10e39","system_id":"levelo_inurba_marseille","lat":43.301939,"lon":5.366286,"is_reserved":false,"is_disabled":false,"rental_uris":{"android":"levelo://app?vid=d888ef6c-1721-4834-b22f-4042fda10e39","ios":"levelo://app?vid=d888ef6c-1721-4834-b22f-4042fda10e39"},"vehicle_type_id":"4","last_reported":1705561647,"current_range_meters":22800,"station_id":"ce4bgrh2rcd13ifvqc8g","pricing_plan_id":"free"},{"bike_id":"e97baf24-b8b5-46f6-9a83-de54ff8bfc9c","system_id":"levelo_inurba_marseille","lat":43.301939,"lon":5.366286,"is_reserved":false,"is_disabled":false,"rental_uris":{"android":"levelo://app?vid=e97baf24-b8b5-46f6-9a83-de54ff8bfc9c","ios":"levelo://app?vid=e97baf24-b8b5-46f6-9a83-de54ff8bfc9c"},"vehicle_type_id":"4","last_reported":1705561647,"current_range_meters":31200,"station_id":"ce4bgrh2rcd13ifvqc8g","pricing_plan_id":"free"},{"bike_id":"0328ef6c-ee07-4bff-84fe-d0195cc3c449","system_id":"levelo_inurba_marseille","lat":43.301939,"lon":5.366286,"is_reserved":false,"is_disabled":false,"rental_uris":{"android":"levelo://app?vid=0328ef6c-ee07-4bff-84fe-d0195cc3c449","ios":"levelo://app?vid=0328ef6c-ee07-4bff-84fe-d0195cc3c449"},"vehicle_type_id":"4","last_reported":1705561647,"current_range_meters":7600,"station_id":"ce4bgrh2rcd13ifvqc8g","pricing_plan_id":"free"},{"bike_id":"1b75f30a-8ea4-4255-80a9-7718f5778a8c","system_id":"levelo_inurba_marseille","lat":43.308012,"lon":5.381511,"is_reserved":false,"is_disabled":false,"rental_uris":{"android":"levelo://app?vid=1b75f30a-8ea4-4255-80a9-7718f5778a8c","ios":"levelo://app?vid=1b75f30a-8ea4-4255-80a9-7718f5778a8c"},"vehicle_type_id":"4","last_reported":1705561647,"current_range_meters":24000,"station_id":"ce4bgt12rcd13ifvqce0","pricing_plan_id":"free"},{"bike_id":"0ef580bd-3cd9-4ee1-ab07-3a248dd9a19c","system_id":"levelo_inurba_marseille","lat":43.304606,"lon":5.379026,"is_reserved":false,"is_disabled":false,"rental_uris":{"android":"levelo://app?vid=0ef580bd-3cd9-4ee1-ab07-3a248dd9a19c","ios":"levelo://app?vid=0ef580bd-3cd9-4ee1-ab07-3a248dd9a19c"},"vehicle_type_id":"4","last_reported":1705561647,"current_range_meters":17200,"station_id":"ce4bgup2rcd13ifvqcn0","pricing_plan_id":"free"},{"bike_id":"42f2acca-5ead-4a00-8673-db84e037759d","system_id":"levelo_inurba_marseille","lat":43.304606,"lon":5.379026,"is_reserved":false,"is_disabled":false,"rental_uris":{"android":"levelo://app?vid=42f2acca-5ead-4a00-8673-db84e037759d","ios":"levelo://app?vid=42f2acca-5ead-4a00-8673-db84e037759d"},"vehicle_type_id":"4","last_reported":1705561647,"current_range_meters":6800,"station_id":"ce4bgup2rcd13ifvqcn0","pricing_plan_id":"free"},{"bike_id":"c21f5ee8-c053-4574-94d1-3d15b388cdca","system_id":"levelo_inurba_marseille","lat":43.304526,"lon":5.378818,"is_reserved":false,"is_disabled":false,"rental_uris":{"android":"levelo://app?vid=c21f5ee8-c053-4574-94d1-3d15b388cdca","ios":"levelo://app?vid=c21f5ee8-c053-4574-94d1-3d15b388cdca"},"vehicle_type_id":"4","last_reported":1705561647,"current_range_meters":26800,"station_id":"ce4bgup2rcd13ifvqcn0","pricing_plan_id":"free"},{"bike_id":"6c28978d-e607-4835-9538-a7f33a8b2bc7","system_id":"levelo_inurba_marseille","lat":43.304606,"lon":5.379026,"is_reserved":false,"is_disabled":false,"rental_uris":{"android":"levelo://app?vid=6c28978d-e607-4835-9538-a7f33a8b2bc7","ios":"levelo://app?vid=6c28978d-e607-4835-9538-a7f33a8b2bc7"},"vehicle_type_id":"4","last_reported":1705561647,"current_range_meters":7200,"station_id":"ce4bgup2rcd13ifvqcn0","pricing_plan_id":"free"},{"bike_id":"dc4e2d60-27f9-438a-a21b-da38c7cbcc24","system_id":"levelo_inurba_marseille","lat":43.304606,"lon":5.379026,"is_reserved":false,"is_disabled":false,"rental_uris":{"android":"levelo://app?vid=dc4e2d60-27f9-438a-a21b-da38c7cbcc24","ios":"levelo://app?vid=dc4e2d60-27f9-438a-a21b-da38c7cbcc24"},"vehicle_type_id":"4","last_reported":1705561647,"current_range_meters":32000,"station_id":"ce4bgup2rcd13ifvqcn0","pricing_plan_id":"free"},{"bike_id":"5b93851a-35f7-4033-86d8-ed26b08a2a6a","system_id":"levelo_inurba_marseille","lat":43.304606,"lon":5.379026,"is_reserved":false,"is_disabled":false,"rental_uris":{"android":"levelo://app?vid=5b93851a-35f7-4033-86d8-ed26b08a2a6a","ios":"levelo://app?vid=5b93851a-35f7-4033-86d8-ed26b08a2a6a"},"vehicle_type_id":"4","last_reported":1705561647,"current_range_meters":4000,"station_id":"ce4bgup2rcd13ifvqcn0","pricing_plan_id":"free"},{"bike_id":"b2829c03-c040-4ade-b92f-6e1e341b4f13","system_id":"levelo_inurba_marseille","lat":43.304606,"lon":5.379026,"is_reserved":false,"is_disabled":false,"rental_uris":{"android":"levelo://app?vid=b2829c03-c040-4ade-b92f-6e1e341b4f13","ios":"levelo://app?vid=b2829c03-c040-4ade-b92f-6e1e341b4f13"},"vehicle_type_id":"4","last_reported":1705561647,"current_range_meters":25200,"station_id":"ce4bgup2rcd13ifvqcn0","pricing_plan_id":"free"},{"bike_id":"206b7d9d-b438-4434-a864-8ce73aa0496b","system_id":"levelo_inurba_marseille","lat":43.304606,"lon":5.379026,"is_reserved":false,"is_disabled":false,"rental_uris":{"android":"levelo://app?vid=206b7d9d-b438-4434-a864-8ce73aa0496b","ios":"levelo://app?vid=206b7d9d-b438-4434-a864-8ce73aa0496b"},"vehicle_type_id":"4","last_reported":1705561647,"current_range_meters":12400,"station_id":"ce4bgup2rcd13ifvqcn0","pricing_plan_id":"free"},{"bike_id":"fd66254e-438b-4152-a61c-fdc7e40ae464","system_id":"levelo_inurba_marseille","lat":43.304606,"lon":5.379026,"is_reserved":false,"is_disabled":false,"rental_uris":{"android":"levelo://app?vid=fd66254e-438b-4152-a61c-fdc7e40ae464","ios":"levelo://app?vid=fd66254e-438b-4152-a61c-fdc7e40ae464"},"vehicle_type_id":"4","last_reported":1705561647,"current_range_meters":25200,"station_id":"ce4bgup2rcd13ifvqcn0","pricing_plan_id":"free"},{"bike_id":"70d8b8ce-9a14-4166-acf6-a5ec3292e8ff","system_id":"levelo_inurba_marseille","lat":43.304606,"lon":5.379026,"is_reserved":false,"is_disabled":false,"rental_uris":{"android":"levelo://app?vid=70d8b8ce-9a14-4166-acf6-a5ec3292e8ff","ios":"levelo://app?vid=70d8b8ce-9a14-4166-acf6-a5ec3292e8ff"},"vehicle_type_id":"4","last_reported":1705561647,"current_range_meters":24400,"station_id":"ce4bgup2rcd13ifvqcn0","pricing_plan_id":"free"},{"bike_id":"d54540cd-a4ec-44e7-86eb-31cb9104c8e8","system_id":"levelo_inurba_marseille","lat":43.304606,"lon":5.379026,"is_reserved":false,"is_disabled":false,"rental_uris":{"android":"levelo://app?vid=d54540cd-a4ec-44e7-86eb-31cb9104c8e8","ios":"levelo://app?vid=d54540cd-a4ec-44e7-86eb-31cb9104c8e8"},"vehicle_type_id":"4","last_reported":1705561647,"current_range_meters":26400,"station_id":"ce4bgup2rcd13ifvqcn0","pricing_plan_id":"free"},{"bike_id":"ec0b22ef-9d25-4474-b5f8-679d08c03f4e","system_id":"levelo_inurba_marseille","lat":43.304606,"lon":5.379026,"is_reserved":false,"is_disabled":false,"rental_uris":{"android":"levelo://app?vid=ec0b22ef-9d25-4474-b5f8-679d08c03f4e","ios":"levelo://app?vid=ec0b22ef-9d25-4474-b5f8-679d08c03f4e"},"vehicle_type_id":"4","last_reported":1705561647,"current_range_meters":32000,"station_id":"ce4bgup2rcd13ifvqcn0","pricing_plan_id":"free"},{"bike_id":"397876e2-6400-4b78-87b5-3dce97e44812","system_id":"levelo_inurba_marseille","lat":43.304606,"lon":5.379026,"is_reserved":false,"is_disabled":false,"rental_uris":{"android":"levelo://app?vid=397876e2-6400-4b78-87b5-3dce97e44812","ios":"levelo://app?vid=397876e2-6400-4b78-87b5-3dce97e44812"},"vehicle_type_id":"4","last_reported":1705561647,"current_range_meters":25600,"station_id":"ce4bgup2rcd13ifvqcn0","pricing_plan_id":"free"},{"bike_id":"d87b62d8-30c6-4489-8b02-b30b14457013","system_id":"levelo_inurba_marseille","lat":43.304606,"lon":5.379026,"is_reserved":false,"is_disabled":false,"rental_uris":{"android":"levelo://app?vid=d87b62d8-30c6-4489-8b02-b30b14457013","ios":"levelo://app?vid=d87b62d8-30c6-4489-8b02-b30b14457013"},"vehicle_type_id":"4","last_reported":1705561647,"current_range_meters":27600,"station_id":"ce4bgup2rcd13ifvqcn0","pricing_plan_id":"free"},{"bike_id":"92665cb9-4053-4a04-9925-88db6a0d0b31","system_id":"levelo_inurba_marseille","lat":43.304606,"lon":5.379026,"is_reserved":false,"is_disabled":false,"rental_uris":{"android":"levelo://app?vid=92665cb9-4053-4a04-9925-88db6a0d0b31","ios":"levelo://app?vid=92665cb9-4053-4a04-9925-88db6a0d0b31"},"vehicle_type_id":"4","last_reported":1705561647,"current_range_meters":20800,"station_id":"ce4bgup2rcd13ifvqcn0","pricing_plan_id":"free"},{"bike_id":"ad67ea46-4a8f-40e2-af94-88a9deede91f","system_id":"levelo_inurba_marseille","lat":43.304606,"lon":5.379026,"is_reserved":false,"is_disabled":false,"rental_uris":{"android":"levelo://app?vid=ad67ea46-4a8f-40e2-af94-88a9deede91f","ios":"levelo://app?vid=ad67ea46-4a8f-40e2-af94-88a9deede91f"},"vehicle_type_id":"4","last_reported":1705561647,"current_range_meters":19600,"station_id":"ce4bgup2rcd13ifvqcn0","pricing_plan_id":"free"},{"bike_id":"ebfd8c2e-9910-4ab6-be5c-a184257a8412","system_id":"levelo_inurba_marseille","lat":43.304606,"lon":5.379026,"is_reserved":false,"is_disabled":false,"rental_uris":{"android":"levelo://app?vid=ebfd8c2e-9910-4ab6-be5c-a184257a8412","ios":"levelo://app?vid=ebfd8c2e-9910-4ab6-be5c-a184257a8412"},"vehicle_type_id":"4","last_reported":1705561647,"current_range_meters":27600,"station_id":"ce4bgup2rcd13ifvqcn0","pricing_plan_id":"free"},{"bike_id":"f7ca4983-39ad-488f-826e-bcbfc9d1ecd4","system_id":"levelo_inurba_marseille","lat":43.304606,"lon":5.379026,"is_reserved":false,"is_disabled":false,"rental_uris":{"android":"levelo://app?vid=f7ca4983-39ad-488f-826e-bcbfc9d1ecd4","ios":"levelo://app?vid=f7ca4983-39ad-488f-826e-bcbfc9d1ecd4"},"vehicle_type_id":"4","last_reported":1705561647,"current_range_meters":18000,"station_id":"ce4bgup2rcd13ifvqcn0","pricing_plan_id":"free"},{"bike_id":"e01b5f4e-e843-4095-8c6f-4b15d6f71875","system_id":"levelo_inurba_marseille","lat":43.304606,"lon":5.379026,"is_reserved":false,"is_disabled":false,"rental_uris":{"android":"levelo://app?vid=e01b5f4e-e843-4095-8c6f-4b15d6f71875","ios":"levelo://app?vid=e01b5f4e-e843-4095-8c6f-4b15d6f71875"},"vehicle_type_id":"4","last_reported":1705561647,"current_range_meters":17200,"station_id":"ce4bgup2rcd13ifvqcn0","pricing_plan_id":"free"},{"bike_id":"0ad270bc-9391-4804-8fe8-e65a766ae0bd","system_id":"levelo_inurba_marseille","lat":43.304606,"lon":5.379026,"is_reserved":false,"is_disabled":false,"rental_uris":{"android":"levelo://app?vid=0ad270bc-9391-4804-8fe8-e65a766ae0bd","ios":"levelo://app?vid=0ad270bc-9391-4804-8fe8-e65a766ae0bd"},"vehicle_type_id":"4","last_reported":1705561647,"current_range_meters":30800,"station_id":"ce4bgup2rcd13ifvqcn0","pricing_plan_id":"free"},{"bike_id":"dac9122d-7428-477d-baec-821b5acd97ed","system_id":"levelo_inurba_marseille","lat":43.30459,"lon":5.37907,"is_reserved":false,"is_disabled":false,"rental_uris":{"android":"levelo://app?vid=dac9122d-7428-477d-baec-821b5acd97ed","ios":"levelo://app?vid=dac9122d-7428-477d-baec-821b5acd97ed"},"vehicle_type_id":"4","last_reported":1705561647,"current_range_meters":2000,"station_id":"ce4bgup2rcd13ifvqcn0","pricing_plan_id":"free"},{"bike_id":"0d1b0fc2-916d-4b0a-ab73-fac1e2e4d96f","system_id":"levelo_inurba_marseille","lat":43.304606,"lon":5.379026,"is_reserved":false,"is_disabled":false,"rental_uris":{"android":"levelo://app?vid=0d1b0fc2-916d-4b0a-ab73-fac1e2e4d96f","ios":"levelo://app?vid=0d1b0fc2-916d-4b0a-ab73-fac1e2e4d96f"},"vehicle_type_id":"4","last_reported":1705561647,"current_range_meters":9600,"station_id":"ce4bgup2rcd13ifvqcn0","pricing_plan_id":"free"},{"bike_id":"0bff51a8-04fc-4288-9050-3ed0fd8c020d","system_id":"levelo_inurba_marseille","lat":43.304606,"lon":5.379026,"is_reserved":false,"is_disabled":false,"rental_uris":{"android":"levelo://app?vid=0bff51a8-04fc-4288-9050-3ed0fd8c020d","ios":"levelo://app?vid=0bff51a8-04fc-4288-9050-3ed0fd8c020d"},"vehicle_type_id":"4","last_reported":1705561647,"current_range_meters":28400,"station_id":"ce4bgup2rcd13ifvqcn0","pricing_plan_id":"free"},{"bike_id":"27022fea-d4fd-437d-be2c-cc93f2d495f3","system_id":"levelo_inurba_marseille","lat":43.304606,"lon":5.379026,"is_reserved":false,"is_disabled":false,"rental_uris":{"android":"levelo://app?vid=27022fea-d4fd-437d-be2c-cc93f2d495f3","ios":"levelo://app?vid=27022fea-d4fd-437d-be2c-cc93f2d495f3"},"vehicle_type_id":"4","last_reported":1705561647,"current_range_meters":30000,"station_id":"ce4bgup2rcd13ifvqcn0","pricing_plan_id":"free"},{"bike_id":"69eee197-09b0-47f6-bd9f-2659c0fdb9cb","system_id":"levelo_inurba_marseille","lat":43.304606,"lon":5.379026,"is_reserved":false,"is_disabled":false,"rental_uris":{"android":"levelo://app?vid=69eee197-09b0-47f6-bd9f-2659c0fdb9cb","ios":"levelo://app?vid=69eee197-09b0-47f6-bd9f-2659c0fdb9cb"},"vehicle_type_id":"4","last_reported":1705561647,"current_range_meters":28000,"station_id":"ce4bgup2rcd13ifvqcn0","pricing_plan_id":"free"},{"bike_id":"d27bbcb2-c978-4e6a-8341-3b5a3190c974","system_id":"levelo_inurba_marseille","lat":43.304606,"lon":5.379026,"is_reserved":false,"is_disabled":false,"rental_uris":{"android":"levelo://app?vid=d27bbcb2-c978-4e6a-8341-3b5a3190c974","ios":"levelo://app?vid=d27bbcb2-c978-4e6a-8341-3b5a3190c974"},"vehicle_type_id":"4","last_reported":1705561647,"current_range_meters":23600,"station_id":"ce4bgup2rcd13ifvqcn0","pricing_plan_id":"free"},{"bike_id":"cde8e91c-0e33-42c0-a167-e4d3f1a71f68","system_id":"levelo_inurba_marseille","lat":43.304606,"lon":5.379026,"is_reserved":false,"is_disabled":false,"rental_uris":{"android":"levelo://app?vid=cde8e91c-0e33-42c0-a167-e4d3f1a71f68","ios":"levelo://app?vid=cde8e91c-0e33-42c0-a167-e4d3f1a71f68"},"vehicle_type_id":"4","last_reported":1705561647,"current_range_meters":27200,"station_id":"ce4bgup2rcd13ifvqcn0","pricing_plan_id":"free"},{"bike_id":"2220a720-d757-4dad-bcc9-bd23f86b4a3d","system_id":"levelo_inurba_marseille","lat":43.304606,"lon":5.379026,"is_reserved":false,"is_disabled":false,"rental_uris":{"android":"levelo://app?vid=2220a720-d757-4dad-bcc9-bd23f86b4a3d","ios":"levelo://app?vid=2220a720-d757-4dad-bcc9-bd23f86b4a3d"},"vehicle_type_id":"4","last_reported":1705561647,"current_range_meters":19600,"station_id":"ce4bgup2rcd13ifvqcn0","pricing_plan_id":"free"},{"bike_id":"fc1daf01-ab49-403d-9c79-8508f443d4a1","system_id":"levelo_inurba_marseille","lat":43.324771,"lon":5.36557,"is_reserved":false,"is_disabled":false,"rental_uris":{"android":"levelo://app?vid=fc1daf01-ab49-403d-9c79-8508f443d4a1","ios":"levelo://app?vid=fc1daf01-ab49-403d-9c79-8508f443d4a1"},"vehicle_type_id":"4","last_reported":1705561647,"current_range_meters":26400,"station_id":"ce4bhs12rcd13ifvqhvg","pricing_plan_id":"free"},{"bike_id":"8020e722-360d-4e80-8bc3-7c961226a276","system_id":"levelo_inurba_marseille","lat":43.324771,"lon":5.36557,"is_reserved":false,"is_disabled":false,"rental_uris":{"android":"levelo://app?vid=8020e722-360d-4e80-8bc3-7c961226a276","ios":"levelo://app?vid=8020e722-360d-4e80-8bc3-7c961226a276"},"vehicle_type_id":"4","last_reported":1705561647,"current_range_meters":12800,"station_id":"ce4bhs12rcd13ifvqhvg","pricing_plan_id":"free"},{"bike_id":"b6665513-6ca2-42dc-9baf-3c5b43a49768","system_id":"levelo_inurba_marseille","lat":43.324771,"lon":5.36557,"is_reserved":false,"is_disabled":false,"rental_uris":{"android":"levelo://app?vid=b6665513-6ca2-42dc-9baf-3c5b43a49768","ios":"levelo://app?vid=b6665513-6ca2-42dc-9baf-3c5b43a49768"},"vehicle_type_id":"4","last_reported":1705561647,"current_range_meters":21600,"station_id":"ce4bhs12rcd13ifvqhvg","pricing_plan_id":"free"},{"bike_id":"49a85fe4-fbde-4bd6-8a32-6b95b6be65db","system_id":"levelo_inurba_marseille","lat":43.30163,"lon":5.37415,"is_reserved":false,"is_disabled":false,"rental_uris":{"android":"levelo://app?vid=49a85fe4-fbde-4bd6-8a32-6b95b6be65db","ios":"levelo://app?vid=49a85fe4-fbde-4bd6-8a32-6b95b6be65db"},"vehicle_type_id":"4","last_reported":1705561647,"current_range_meters":10000,"station_id":"ce4bgs92rcd13ifvqcc0","pricing_plan_id":"free"},{"bike_id":"ca4f5fec-c49d-4d18-b87e-e44505847922","system_id":"levelo_inurba_marseille","lat":43.30285,"lon":5.377,"is_reserved":false,"is_disabled":false,"rental_uris":{"android":"levelo://app?vid=ca4f5fec-c49d-4d18-b87e-e44505847922","ios":"levelo://app?vid=ca4f5fec-c49d-4d18-b87e-e44505847922"},"vehicle_type_id":"4","last_reported":1705561647,"current_range_meters":29200,"station_id":"","pricing_plan_id":"free"},{"bike_id":"1887c9d5-b221-4e4f-9c08-6db18a8488f7","system_id":"levelo_inurba_marseille","lat":43.301429,"lon":5.37413,"is_reserved":false,"is_disabled":false,"rental_uris":{"android":"levelo://app?vid=1887c9d5-b221-4e4f-9c08-6db18a8488f7","ios":"levelo://app?vid=1887c9d5-b221-4e4f-9c08-6db18a8488f7"},"vehicle_type_id":"4","last_reported":1705561647,"current_range_meters":20400,"station_id":"ce4bgs92rcd13ifvqcc0","pricing_plan_id":"free"},{"bike_id":"c655f05a-5671-41ab-a12c-551cce597681","system_id":"levelo_inurba_marseille","lat":43.301429,"lon":5.37413,"is_reserved":false,"is_disabled":false,"rental_uris":{"android":"levelo://app?vid=c655f05a-5671-41ab-a12c-551cce597681","ios":"levelo://app?vid=c655f05a-5671-41ab-a12c-551cce597681"},"vehicle_type_id":"4","last_reported":1705561647,"current_range_meters":30800,"station_id":"ce4bgs92rcd13ifvqcc0","pricing_plan_id":"free"},{"bike_id":"36b50ba8-f703-4a28-9cc8-f0ee3de4eda3","system_id":"levelo_inurba_marseille","lat":43.301386,"lon":5.374093,"is_reserved":false,"is_disabled":false,"rental_uris":{"android":"levelo://app?vid=36b50ba8-f703-4a28-9cc8-f0ee3de4eda3","ios":"levelo://app?vid=36b50ba8-f703-4a28-9cc8-f0ee3de4eda3"},"vehicle_type_id":"4","last_reported":1705561647,"current_range_meters":13600,"station_id":"ce4bgs92rcd13ifvqcc0","pricing_plan_id":"free"},{"bike_id":"eea98197-6bb8-4dc7-90c2-848d5956a3b7","system_id":"levelo_inurba_marseille","lat":43.302659,"lon":5.377095,"is_reserved":false,"is_disabled":false,"rental_uris":{"android":"levelo://app?vid=eea98197-6bb8-4dc7-90c2-848d5956a3b7","ios":"levelo://app?vid=eea98197-6bb8-4dc7-90c2-848d5956a3b7"},"vehicle_type_id":"4","last_reported":1705561647,"current_range_meters":20000,"station_id":"","pricing_plan_id":"free"},{"bike_id":"8291f60e-c159-4222-a855-08d95a38ee2d","system_id":"levelo_inurba_marseille","lat":43.301368,"lon":5.374177,"is_reserved":false,"is_disabled":false,"rental_uris":{"android":"levelo://app?vid=8291f60e-c159-4222-a855-08d95a38ee2d","ios":"levelo://app?vid=8291f60e-c159-4222-a855-08d95a38ee2d"},"vehicle_type_id":"4","last_reported":1705561647,"current_range_meters":31200,"station_id":"ce4bgs92rcd13ifvqcc0","pricing_plan_id":"free"},{"bike_id":"d7969d1d-a1b3-4043-b8e0-646e47c43f31","system_id":"levelo_inurba_marseille","lat":43.319935,"lon":5.381699,"is_reserved":false,"is_disabled":false,"rental_uris":{"android":"levelo://app?vid=d7969d1d-a1b3-4043-b8e0-646e47c43f31","ios":"levelo://app?vid=d7969d1d-a1b3-4043-b8e0-646e47c43f31"},"vehicle_type_id":"4","last_reported":1705561647,"current_range_meters":25600,"station_id":"ce4bhr12rcd13ifvqhpg","pricing_plan_id":"free"},{"bike_id":"d2edba53-b6fb-4937-aa17-e4cc1be26aea","system_id":"levelo_inurba_marseille","lat":43.319935,"lon":5.381699,"is_reserved":false,"is_disabled":false,"rental_uris":{"android":"levelo://app?vid=d2edba53-b6fb-4937-aa17-e4cc1be26aea","ios":"levelo://app?vid=d2edba53-b6fb-4937-aa17-e4cc1be26aea"},"vehicle_type_id":"4","last_reported":1705561647,"current_range_meters":11200,"station_id":"ce4bhr12rcd13ifvqhpg","pricing_plan_id":"free"},{"bike_id":"e5929407-b1e2-4548-b751-37a7898839b5","system_id":"levelo_inurba_marseille","lat":43.313667,"lon":5.384935,"is_reserved":false,"is_disabled":false,"rental_uris":{"android":"levelo://app?vid=e5929407-b1e2-4548-b751-37a7898839b5","ios":"levelo://app?vid=e5929407-b1e2-4548-b751-37a7898839b5"},"vehicle_type_id":"4","last_reported":1705561647,"current_range_meters":24400,"station_id":"","pricing_plan_id":"free"},{"bike_id":"a9fecdd8-54c6-42ba-9f80-f8cc0de47808","system_id":"levelo_inurba_marseille","lat":43.313571,"lon":5.384829,"is_reserved":false,"is_disabled":false,"rental_uris":{"android":"levelo://app?vid=a9fecdd8-54c6-42ba-9f80-f8cc0de47808","ios":"levelo://app?vid=a9fecdd8-54c6-42ba-9f80-f8cc0de47808"},"vehicle_type_id":"4","last_reported":1705561647,"current_range_meters":14800,"station_id":"ce4bgt92rcd13ifvqcf0","pricing_plan_id":"free"},{"bike_id":"2ca438be-02d4-40bd-b063-117dbb495a10","system_id":"levelo_inurba_marseille","lat":43.299727,"lon":5.371799,"is_reserved":false,"is_disabled":false,"rental_uris":{"android":"levelo://app?vid=2ca438be-02d4-40bd-b063-117dbb495a10","ios":"levelo://app?vid=2ca438be-02d4-40bd-b063-117dbb495a10"},"vehicle_type_id":"4","last_reported":1705561647,"current_range_meters":18400,"station_id":"ce4bgr92rcd13ifvqc7g","pricing_plan_id":"free"},{"bike_id":"3b6cb1c7-9365-41b8-a3ec-50626a2c97cc","system_id":"levelo_inurba_marseille","lat":43.299222,"lon":5.365554,"is_reserved":false,"is_disabled":false,"rental_uris":{"android":"levelo://app?vid=3b6cb1c7-9365-41b8-a3ec-50626a2c97cc","ios":"levelo://app?vid=3b6cb1c7-9365-41b8-a3ec-50626a2c97cc"},"vehicle_type_id":"4","last_reported":1705561647,"current_range_meters":14400,"station_id":"ce4bgm92rcd13ifvqbr0","pricing_plan_id":"free"},{"bike_id":"c957e585-feef-4b9d-b841-d31a1d363752","system_id":"levelo_inurba_marseille","lat":43.299222,"lon":5.365554,"is_reserved":false,"is_disabled":false,"rental_uris":{"android":"levelo://app?vid=c957e585-feef-4b9d-b841-d31a1d363752","ios":"levelo://app?vid=c957e585-feef-4b9d-b841-d31a1d363752"},"vehicle_type_id":"4","last_reported":1705561647,"current_range_meters":16800,"station_id":"ce4bgm92rcd13ifvqbr0","pricing_plan_id":"free"},{"bike_id":"1a91e209-aa20-43b4-9015-274e5402f17f","system_id":"levelo_inurba_marseille","lat":43.299243,"lon":5.374807,"is_reserved":false,"is_disabled":false,"rental_uris":{"android":"levelo://app?vid=1a91e209-aa20-43b4-9015-274e5402f17f","ios":"levelo://app?vid=1a91e209-aa20-43b4-9015-274e5402f17f"},"vehicle_type_id":"4","last_reported":1705561647,"current_range_meters":22400,"station_id":"ce4bgjh2rcd13ifvqbg0","pricing_plan_id":"free"},{"bike_id":"054b6011-da95-4d00-9e6a-946dca41b98a","system_id":"levelo_inurba_marseille","lat":43.305364,"lon":5.384119,"is_reserved":false,"is_disabled":false,"rental_uris":{"android":"levelo://app?vid=054b6011-da95-4d00-9e6a-946dca41b98a","ios":"levelo://app?vid=054b6011-da95-4d00-9e6a-946dca41b98a"},"vehicle_type_id":"4","last_reported":1705561647,"current_range_meters":28000,"station_id":"ce4bgg92rcd13ifvqb30","pricing_plan_id":"free"},{"bike_id":"54bd46ce-e778-4207-b6c0-4788e41d9627","system_id":"levelo_inurba_marseille","lat":43.305364,"lon":5.384119,"is_reserved":false,"is_disabled":false,"rental_uris":{"android":"levelo://app?vid=54bd46ce-e778-4207-b6c0-4788e41d9627","ios":"levelo://app?vid=54bd46ce-e778-4207-b6c0-4788e41d9627"},"vehicle_type_id":"4","last_reported":1705561647,"current_range_meters":13200,"station_id":"ce4bgg92rcd13ifvqb30","pricing_plan_id":"free"},{"bike_id":"45ca70f7-d306-4fd5-a9fa-fabc27245716","system_id":"levelo_inurba_marseille","lat":43.299243,"lon":5.374807,"is_reserved":false,"is_disabled":false,"rental_uris":{"android":"levelo://app?vid=45ca70f7-d306-4fd5-a9fa-fabc27245716","ios":"levelo://app?vid=45ca70f7-d306-4fd5-a9fa-fabc27245716"},"vehicle_type_id":"4","last_reported":1705561647,"current_range_meters":19600,"station_id":"ce4bgjh2rcd13ifvqbg0","pricing_plan_id":"free"},{"bike_id":"6b8ac097-e4f8-4361-a953-a16bcb62902a","system_id":"levelo_inurba_marseille","lat":43.311722,"lon":5.387247,"is_reserved":false,"is_disabled":false,"rental_uris":{"android":"levelo://app?vid=6b8ac097-e4f8-4361-a953-a16bcb62902a","ios":"levelo://app?vid=6b8ac097-e4f8-4361-a953-a16bcb62902a"},"vehicle_type_id":"4","last_reported":1705561647,"current_range_meters":20400,"station_id":"ce4bgv12rcd13ifvqcp0","pricing_plan_id":"free"},{"bike_id":"41541a5a-3a5f-46fe-a06f-51e3c14c9851","system_id":"levelo_inurba_marseille","lat":43.299243,"lon":5.37481,"is_reserved":false,"is_disabled":false,"rental_uris":{"android":"levelo://app?vid=41541a5a-3a5f-46fe-a06f-51e3c14c9851","ios":"levelo://app?vid=41541a5a-3a5f-46fe-a06f-51e3c14c9851"},"vehicle_type_id":"4","last_reported":1705561647,"current_range_meters":13200,"station_id":"ce4bgjh2rcd13ifvqbg0","pricing_plan_id":"free"},{"bike_id":"788fb907-3aa1-4044-b34f-90e84f72a528","system_id":"levelo_inurba_marseille","lat":43.297774,"lon":5.370875,"is_reserved":false,"is_disabled":false,"rental_uris":{"android":"levelo://app?vid=788fb907-3aa1-4044-b34f-90e84f72a528","ios":"levelo://app?vid=788fb907-3aa1-4044-b34f-90e84f72a528"},"vehicle_type_id":"4","last_reported":1705561647,"current_range_meters":26000,"station_id":"ce4bgop2rcd13ifvqc1g","pricing_plan_id":"free"},{"bike_id":"34c8b400-5074-46e3-aa02-f5d274dfaa4f","system_id":"levelo_inurba_marseille","lat":43.322865,"lon":5.382586,"is_reserved":false,"is_disabled":false,"rental_uris":{"android":"levelo://app?vid=34c8b400-5074-46e3-aa02-f5d274dfaa4f","ios":"levelo://app?vid=34c8b400-5074-46e3-aa02-f5d274dfaa4f"},"vehicle_type_id":"4","last_reported":1705561647,"current_range_meters":12400,"station_id":"ce4bhr12rcd13ifvqhqg","pricing_plan_id":"free"},{"bike_id":"7f73b72d-cc5e-4953-9b4b-d396e1416c0e","system_id":"levelo_inurba_marseille","lat":43.322872,"lon":5.382756,"is_reserved":false,"is_disabled":false,"rental_uris":{"android":"levelo://app?vid=7f73b72d-cc5e-4953-9b4b-d396e1416c0e","ios":"levelo://app?vid=7f73b72d-cc5e-4953-9b4b-d396e1416c0e"},"vehicle_type_id":"4","last_reported":1705561647,"current_range_meters":12400,"station_id":"ce4bhr12rcd13ifvqhqg","pricing_plan_id":"free"},{"bike_id":"c59e915a-05cb-49b2-8b19-dcae4465ebcc","system_id":"levelo_inurba_marseille","lat":43.322872,"lon":5.382756,"is_reserved":false,"is_disabled":false,"rental_uris":{"android":"levelo://app?vid=c59e915a-05cb-49b2-8b19-dcae4465ebcc","ios":"levelo://app?vid=c59e915a-05cb-49b2-8b19-dcae4465ebcc"},"vehicle_type_id":"4","last_reported":1705561647,"current_range_meters":29200,"station_id":"ce4bhr12rcd13ifvqhqg","pricing_plan_id":"free"},{"bike_id":"afe2d6ba-ebda-4981-9104-c77037901f05","system_id":"levelo_inurba_marseille","lat":43.322872,"lon":5.382756,"is_reserved":false,"is_disabled":false,"rental_uris":{"android":"levelo://app?vid=afe2d6ba-ebda-4981-9104-c77037901f05","ios":"levelo://app?vid=afe2d6ba-ebda-4981-9104-c77037901f05"},"vehicle_type_id":"4","last_reported":1705561647,"current_range_meters":12800,"station_id":"ce4bhr12rcd13ifvqhqg","pricing_plan_id":"free"},{"bike_id":"510e4003-ad50-4182-a4bb-6da1b111fff5","system_id":"levelo_inurba_marseille","lat":43.322872,"lon":5.382756,"is_reserved":false,"is_disabled":false,"rental_uris":{"android":"levelo://app?vid=510e4003-ad50-4182-a4bb-6da1b111fff5","ios":"levelo://app?vid=510e4003-ad50-4182-a4bb-6da1b111fff5"},"vehicle_type_id":"4","last_reported":1705561647,"current_range_meters":18800,"station_id":"ce4bhr12rcd13ifvqhqg","pricing_plan_id":"free"},{"bike_id":"bc668f13-2e56-47cf-a84f-2f5cc2560e83","system_id":"levelo_inurba_marseille","lat":43.322872,"lon":5.382756,"is_reserved":false,"is_disabled":false,"rental_uris":{"android":"levelo://app?vid=bc668f13-2e56-47cf-a84f-2f5cc2560e83","ios":"levelo://app?vid=bc668f13-2e56-47cf-a84f-2f5cc2560e83"},"vehicle_type_id":"4","last_reported":1705561647,"current_range_meters":24800,"station_id":"ce4bhr12rcd13ifvqhqg","pricing_plan_id":"free"},{"bike_id":"1b366ae5-0fdb-4064-9f58-849e24c027f0","system_id":"levelo_inurba_marseille","lat":43.297794,"lon":5.370888,"is_reserved":false,"is_disabled":false,"rental_uris":{"android":"levelo://app?vid=1b366ae5-0fdb-4064-9f58-849e24c027f0","ios":"levelo://app?vid=1b366ae5-0fdb-4064-9f58-849e24c027f0"},"vehicle_type_id":"4","last_reported":1705561647,"current_range_meters":22000,"station_id":"ce4bgop2rcd13ifvqc1g","pricing_plan_id":"free"},{"bike_id":"947a5c0b-0299-4cd2-aecd-5f351114aaf8","system_id":"levelo_inurba_marseille","lat":43.3282,"lon":5.36692,"is_reserved":false,"is_disabled":false,"rental_uris":{"android":"levelo://app?vid=947a5c0b-0299-4cd2-aecd-5f351114aaf8","ios":"levelo://app?vid=947a5c0b-0299-4cd2-aecd-5f351114aaf8"},"vehicle_type_id":"4","last_reported":1705561647,"current_range_meters":18800,"station_id":"ce4bhs92rcd13ifvqi0g","pricing_plan_id":"free"},{"bike_id":"641739e6-19de-47df-9491-35da26c3c9da","system_id":"levelo_inurba_marseille","lat":43.328371,"lon":5.366909,"is_reserved":false,"is_disabled":false,"rental_uris":{"android":"levelo://app?vid=641739e6-19de-47df-9491-35da26c3c9da","ios":"levelo://app?vid=641739e6-19de-47df-9491-35da26c3c9da"},"vehicle_type_id":"4","last_reported":1705561647,"current_range_meters":26000,"station_id":"ce4bhs92rcd13ifvqi0g","pricing_plan_id":"free"},{"bike_id":"b3d1df88-d8ad-420f-822b-89111e75191e","system_id":"levelo_inurba_marseille","lat":43.32823,"lon":5.36694,"is_reserved":false,"is_disabled":false,"rental_uris":{"android":"levelo://app?vid=b3d1df88-d8ad-420f-822b-89111e75191e","ios":"levelo://app?vid=b3d1df88-d8ad-420f-822b-89111e75191e"},"vehicle_type_id":"4","last_reported":1705561647,"current_range_meters":4800,"station_id":"ce4bhs92rcd13ifvqi0g","pricing_plan_id":"free"},{"bike_id":"ea0178f3-2c6b-4af6-b062-91b0b8dde1df","system_id":"levelo_inurba_marseille","lat":43.32825,"lon":5.36683,"is_reserved":false,"is_disabled":false,"rental_uris":{"android":"levelo://app?vid=ea0178f3-2c6b-4af6-b062-91b0b8dde1df","ios":"levelo://app?vid=ea0178f3-2c6b-4af6-b062-91b0b8dde1df"},"vehicle_type_id":"4","last_reported":1705561647,"current_range_meters":4400,"station_id":"ce4bhs92rcd13ifvqi0g","pricing_plan_id":"free"},{"bike_id":"85cedcff-9e9a-415d-8415-195178ea3cb7","system_id":"levelo_inurba_marseille","lat":43.32825,"lon":5.36673,"is_reserved":false,"is_disabled":false,"rental_uris":{"android":"levelo://app?vid=85cedcff-9e9a-415d-8415-195178ea3cb7","ios":"levelo://app?vid=85cedcff-9e9a-415d-8415-195178ea3cb7"},"vehicle_type_id":"4","last_reported":1705561647,"current_range_meters":17600,"station_id":"ce4bhs92rcd13ifvqi0g","pricing_plan_id":"free"},{"bike_id":"8463d0da-e03a-4a02-8a84-4dd7b137838e","system_id":"levelo_inurba_marseille","lat":43.328274,"lon":5.366807,"is_reserved":false,"is_disabled":false,"rental_uris":{"android":"levelo://app?vid=8463d0da-e03a-4a02-8a84-4dd7b137838e","ios":"levelo://app?vid=8463d0da-e03a-4a02-8a84-4dd7b137838e"},"vehicle_type_id":"4","last_reported":1705561647,"current_range_meters":18800,"station_id":"ce4bhs92rcd13ifvqi0g","pricing_plan_id":"free"},{"bike_id":"9cda7071-0b99-4f13-a66f-99ee8455accb","system_id":"levelo_inurba_marseille","lat":43.32829,"lon":5.36673,"is_reserved":false,"is_disabled":false,"rental_uris":{"android":"levelo://app?vid=9cda7071-0b99-4f13-a66f-99ee8455accb","ios":"levelo://app?vid=9cda7071-0b99-4f13-a66f-99ee8455accb"},"vehicle_type_id":"4","last_reported":1705561647,"current_range_meters":15600,"station_id":"ce4bhs92rcd13ifvqi0g","pricing_plan_id":"free"},{"bike_id":"88638e12-da12-4596-b7e2-600ab2f62219","system_id":"levelo_inurba_marseille","lat":43.328371,"lon":5.366909,"is_reserved":false,"is_disabled":false,"rental_uris":{"android":"levelo://app?vid=88638e12-da12-4596-b7e2-600ab2f62219","ios":"levelo://app?vid=88638e12-da12-4596-b7e2-600ab2f62219"},"vehicle_type_id":"4","last_reported":1705561647,"current_range_meters":7200,"station_id":"ce4bhs92rcd13ifvqi0g","pricing_plan_id":"free"},{"bike_id":"02f97db8-1e1e-4f38-89f3-11868234f7c3","system_id":"levelo_inurba_marseille","lat":43.3283,"lon":5.36668,"is_reserved":false,"is_disabled":false,"rental_uris":{"android":"levelo://app?vid=02f97db8-1e1e-4f38-89f3-11868234f7c3","ios":"levelo://app?vid=02f97db8-1e1e-4f38-89f3-11868234f7c3"},"vehicle_type_id":"4","last_reported":1705561647,"current_range_meters":14800,"station_id":"ce4bhs92rcd13ifvqi0g","pricing_plan_id":"free"},{"bike_id":"a53b6dde-9c97-4a96-897c-ee7f9265222d","system_id":"levelo_inurba_marseille","lat":43.328371,"lon":5.366909,"is_reserved":false,"is_disabled":false,"rental_uris":{"android":"levelo://app?vid=a53b6dde-9c97-4a96-897c-ee7f9265222d","ios":"levelo://app?vid=a53b6dde-9c97-4a96-897c-ee7f9265222d"},"vehicle_type_id":"4","last_reported":1705561647,"current_range_meters":18800,"station_id":"ce4bhs92rcd13ifvqi0g","pricing_plan_id":"free"},{"bike_id":"b4462b3d-7726-4d91-8012-ba1bac161ec5","system_id":"levelo_inurba_marseille","lat":43.29717,"lon":5.366175,"is_reserved":false,"is_disabled":false,"rental_uris":{"android":"levelo://app?vid=b4462b3d-7726-4d91-8012-ba1bac161ec5","ios":"levelo://app?vid=b4462b3d-7726-4d91-8012-ba1bac161ec5"},"vehicle_type_id":"4","last_reported":1705561647,"current_range_meters":21600,"station_id":"ce4bgn12rcd13ifvqbt0","pricing_plan_id":"free"},{"bike_id":"d5600d48-9ca1-431c-afdc-f055b0b3ff68","system_id":"levelo_inurba_marseille","lat":43.32832,"lon":5.36692,"is_reserved":false,"is_disabled":false,"rental_uris":{"android":"levelo://app?vid=d5600d48-9ca1-431c-afdc-f055b0b3ff68","ios":"levelo://app?vid=d5600d48-9ca1-431c-afdc-f055b0b3ff68"},"vehicle_type_id":"4","last_reported":1705561647,"current_range_meters":30000,"station_id":"ce4bhs92rcd13ifvqi0g","pricing_plan_id":"free"},{"bike_id":"1782ad4d-7cbc-4ac0-af82-b65688e9d34c","system_id":"levelo_inurba_marseille","lat":43.328371,"lon":5.366909,"is_reserved":false,"is_disabled":false,"rental_uris":{"android":"levelo://app?vid=1782ad4d-7cbc-4ac0-af82-b65688e9d34c","ios":"levelo://app?vid=1782ad4d-7cbc-4ac0-af82-b65688e9d34c"},"vehicle_type_id":"4","last_reported":1705561647,"current_range_meters":22800,"station_id":"ce4bhs92rcd13ifvqi0g","pricing_plan_id":"free"},{"bike_id":"70f179dd-f28c-4384-b145-ec6cf77cd4b8","system_id":"levelo_inurba_marseille","lat":43.328329,"lon":5.366726,"is_reserved":false,"is_disabled":false,"rental_uris":{"android":"levelo://app?vid=70f179dd-f28c-4384-b145-ec6cf77cd4b8","ios":"levelo://app?vid=70f179dd-f28c-4384-b145-ec6cf77cd4b8"},"vehicle_type_id":"4","last_reported":1705561647,"current_range_meters":8800,"station_id":"ce4bhs92rcd13ifvqi0g","pricing_plan_id":"free"},{"bike_id":"08f1e1a6-95f0-4c26-9179-6567480ce959","system_id":"levelo_inurba_marseille","lat":43.297163,"lon":5.365866,"is_reserved":false,"is_disabled":false,"rental_uris":{"android":"levelo://app?vid=08f1e1a6-95f0-4c26-9179-6567480ce959","ios":"levelo://app?vid=08f1e1a6-95f0-4c26-9179-6567480ce959"},"vehicle_type_id":"4","last_reported":1705561647,"current_range_meters":31600,"station_id":"ce4bgn12rcd13ifvqbt0","pricing_plan_id":"free"},{"bike_id":"7a5cfd19-67b5-4404-837f-9d2597d5b4a4","system_id":"levelo_inurba_marseille","lat":43.32833,"lon":5.366795,"is_reserved":false,"is_disabled":false,"rental_uris":{"android":"levelo://app?vid=7a5cfd19-67b5-4404-837f-9d2597d5b4a4","ios":"levelo://app?vid=7a5cfd19-67b5-4404-837f-9d2597d5b4a4"},"vehicle_type_id":"4","last_reported":1705561647,"current_range_meters":11200,"station_id":"ce4bhs92rcd13ifvqi0g","pricing_plan_id":"free"},{"bike_id":"58a410e8-042a-44c4-8894-1ecc869b6fb0","system_id":"levelo_inurba_marseille","lat":43.32833,"lon":5.36678,"is_reserved":false,"is_disabled":false,"rental_uris":{"android":"levelo://app?vid=58a410e8-042a-44c4-8894-1ecc869b6fb0","ios":"levelo://app?vid=58a410e8-042a-44c4-8894-1ecc869b6fb0"},"vehicle_type_id":"4","last_reported":1705561647,"current_range_meters":0,"station_id":"ce4bhs92rcd13ifvqi0g","pricing_plan_id":"free"},{"bike_id":"664bd2a8-3677-4471-ac1e-38952c7e4d0c","system_id":"levelo_inurba_marseille","lat":43.29716,"lon":5.36608,"is_reserved":false,"is_disabled":false,"rental_uris":{"android":"levelo://app?vid=664bd2a8-3677-4471-ac1e-38952c7e4d0c","ios":"levelo://app?vid=664bd2a8-3677-4471-ac1e-38952c7e4d0c"},"vehicle_type_id":"4","last_reported":1705561647,"current_range_meters":16000,"station_id":"ce4bgn12rcd13ifvqbt0","pricing_plan_id":"free"},{"bike_id":"6b4ea496-3016-42db-af64-ba8beb6e73fc","system_id":"levelo_inurba_marseille","lat":43.328371,"lon":5.366909,"is_reserved":false,"is_disabled":false,"rental_uris":{"android":"levelo://app?vid=6b4ea496-3016-42db-af64-ba8beb6e73fc","ios":"levelo://app?vid=6b4ea496-3016-42db-af64-ba8beb6e73fc"},"vehicle_type_id":"4","last_reported":1705561647,"current_range_meters":21200,"station_id":"ce4bhs92rcd13ifvqi0g","pricing_plan_id":"free"},{"bike_id":"bae0e6ef-8eeb-485a-a054-bea3431d2035","system_id":"levelo_inurba_marseille","lat":43.328371,"lon":5.366909,"is_reserved":false,"is_disabled":false,"rental_uris":{"android":"levelo://app?vid=bae0e6ef-8eeb-485a-a054-bea3431d2035","ios":"levelo://app?vid=bae0e6ef-8eeb-485a-a054-bea3431d2035"},"vehicle_type_id":"4","last_reported":1705561647,"current_range_meters":16000,"station_id":"ce4bhs92rcd13ifvqi0g","pricing_plan_id":"free"},{"bike_id":"0d0e2aeb-ae3a-40b9-a864-ba0cd9db8ca3","system_id":"levelo_inurba_marseille","lat":43.32835,"lon":5.36688,"is_reserved":false,"is_disabled":false,"rental_uris":{"android":"levelo://app?vid=0d0e2aeb-ae3a-40b9-a864-ba0cd9db8ca3","ios":"levelo://app?vid=0d0e2aeb-ae3a-40b9-a864-ba0cd9db8ca3"},"vehicle_type_id":"4","last_reported":1705561647,"current_range_meters":4000,"station_id":"ce4bhs92rcd13ifvqi0g","pricing_plan_id":"free"},{"bike_id":"a57fb72f-fba7-4d3c-bb6c-145fe89d9f7a","system_id":"levelo_inurba_marseille","lat":43.297163,"lon":5.365866,"is_reserved":false,"is_disabled":false,"rental_uris":{"android":"levelo://app?vid=a57fb72f-fba7-4d3c-bb6c-145fe89d9f7a","ios":"levelo://app?vid=a57fb72f-fba7-4d3c-bb6c-145fe89d9f7a"},"vehicle_type_id":"4","last_reported":1705561647,"current_range_meters":31600,"station_id":"ce4bgn12rcd13ifvqbt0","pricing_plan_id":"free"},{"bike_id":"38082c03-fac1-44d3-a79f-5142b4a113a9","system_id":"levelo_inurba_marseille","lat":43.328373,"lon":5.366902,"is_reserved":false,"is_disabled":false,"rental_uris":{"android":"levelo://app?vid=38082c03-fac1-44d3-a79f-5142b4a113a9","ios":"levelo://app?vid=38082c03-fac1-44d3-a79f-5142b4a113a9"},"vehicle_type_id":"4","last_reported":1705561647,"current_range_meters":20400,"station_id":"ce4bhs92rcd13ifvqi0g","pricing_plan_id":"free"},{"bike_id":"8c8841e0-3da9-4ec9-ab3e-86fdfcff75fa","system_id":"levelo_inurba_marseille","lat":43.297074,"lon":5.366161,"is_reserved":false,"is_disabled":false,"rental_uris":{"android":"levelo://app?vid=8c8841e0-3da9-4ec9-ab3e-86fdfcff75fa","ios":"levelo://app?vid=8c8841e0-3da9-4ec9-ab3e-86fdfcff75fa"},"vehicle_type_id":"4","last_reported":1705561647,"current_range_meters":9200,"station_id":"ce4bgn12rcd13ifvqbt0","pricing_plan_id":"free"},{"bike_id":"fca86b06-2160-4bc5-be0f-6c0b71564379","system_id":"levelo_inurba_marseille","lat":43.29704,"lon":5.36614,"is_reserved":false,"is_disabled":false,"rental_uris":{"android":"levelo://app?vid=fca86b06-2160-4bc5-be0f-6c0b71564379","ios":"levelo://app?vid=fca86b06-2160-4bc5-be0f-6c0b71564379"},"vehicle_type_id":"4","last_reported":1705561647,"current_range_meters":23600,"station_id":"ce4bgn12rcd13ifvqbt0","pricing_plan_id":"free"},{"bike_id":"a334f11f-87b6-4e9b-835c-85dc38c8e8b8","system_id":"levelo_inurba_marseille","lat":43.297163,"lon":5.365866,"is_reserved":false,"is_disabled":false,"rental_uris":{"android":"levelo://app?vid=a334f11f-87b6-4e9b-835c-85dc38c8e8b8","ios":"levelo://app?vid=a334f11f-87b6-4e9b-835c-85dc38c8e8b8"},"vehicle_type_id":"4","last_reported":1705561647,"current_range_meters":28000,"station_id":"ce4bgn12rcd13ifvqbt0","pricing_plan_id":"free"},{"bike_id":"34f07bb5-2968-4e9c-989b-1724511eb512","system_id":"levelo_inurba_marseille","lat":43.2968,"lon":5.37291,"is_reserved":false,"is_disabled":false,"rental_uris":{"android":"levelo://app?vid=34f07bb5-2968-4e9c-989b-1724511eb512","ios":"levelo://app?vid=34f07bb5-2968-4e9c-989b-1724511eb512"},"vehicle_type_id":"4","last_reported":1705561647,"current_range_meters":30400,"station_id":"ce4bgk12rcd13ifvqbj0","pricing_plan_id":"free"},{"bike_id":"9c1d922e-0a4f-4d90-a674-197e865d7b66","system_id":"levelo_inurba_marseille","lat":43.29624,"lon":5.37151,"is_reserved":false,"is_disabled":false,"rental_uris":{"android":"levelo://app?vid=9c1d922e-0a4f-4d90-a674-197e865d7b66","ios":"levelo://app?vid=9c1d922e-0a4f-4d90-a674-197e865d7b66"},"vehicle_type_id":"4","last_reported":1705561647,"current_range_meters":22800,"station_id":"ce4bgk12rcd13ifvqbj0","pricing_plan_id":"free"},{"bike_id":"08fe0e1e-4204-4896-8d20-bb18150e4960","system_id":"levelo_inurba_marseille","lat":43.299028,"lon":5.381509,"is_reserved":false,"is_disabled":false,"rental_uris":{"android":"levelo://app?vid=08fe0e1e-4204-4896-8d20-bb18150e4960","ios":"levelo://app?vid=08fe0e1e-4204-4896-8d20-bb18150e4960"},"vehicle_type_id":"4","last_reported":1705561647,"current_range_meters":26800,"station_id":"ce4bgj12rcd13ifvqbc0","pricing_plan_id":"free"},{"bike_id":"ead321f5-00a7-4f02-aaf2-e8ac95d81533","system_id":"levelo_inurba_marseille","lat":43.299028,"lon":5.381509,"is_reserved":false,"is_disabled":false,"rental_uris":{"android":"levelo://app?vid=ead321f5-00a7-4f02-aaf2-e8ac95d81533","ios":"levelo://app?vid=ead321f5-00a7-4f02-aaf2-e8ac95d81533"},"vehicle_type_id":"4","last_reported":1705561647,"current_range_meters":21600,"station_id":"ce4bgj12rcd13ifvqbc0","pricing_plan_id":"free"},{"bike_id":"f474a512-b3ed-4250-abd5-eecc81f77210","system_id":"levelo_inurba_marseille","lat":43.309589,"lon":5.390258,"is_reserved":false,"is_disabled":false,"rental_uris":{"android":"levelo://app?vid=f474a512-b3ed-4250-abd5-eecc81f77210","ios":"levelo://app?vid=f474a512-b3ed-4250-abd5-eecc81f77210"},"vehicle_type_id":"4","last_reported":1705561647,"current_range_meters":16000,"station_id":"ce4bgup2rcd13ifvqco0","pricing_plan_id":"free"},{"bike_id":"0c44c321-ad9e-44d7-a14b-ff2dd244e5e3","system_id":"levelo_inurba_marseille","lat":43.299028,"lon":5.381509,"is_reserved":false,"is_disabled":false,"rental_uris":{"android":"levelo://app?vid=0c44c321-ad9e-44d7-a14b-ff2dd244e5e3","ios":"levelo://app?vid=0c44c321-ad9e-44d7-a14b-ff2dd244e5e3"},"vehicle_type_id":"4","last_reported":1705561647,"current_range_meters":29600,"station_id":"ce4bgj12rcd13ifvqbc0","pricing_plan_id":"free"},{"bike_id":"38a62292-abf1-4611-9fb8-5d066a615920","system_id":"levelo_inurba_marseille","lat":43.31748,"lon":5.39006,"is_reserved":false,"is_disabled":false,"rental_uris":{"android":"levelo://app?vid=38a62292-abf1-4611-9fb8-5d066a615920","ios":"levelo://app?vid=38a62292-abf1-4611-9fb8-5d066a615920"},"vehicle_type_id":"4","last_reported":1705561647,"current_range_meters":5200,"station_id":"ce4bhqp2rcd13ifvqhng","pricing_plan_id":"free"},{"bike_id":"023c4ccc-2d84-4f47-b086-3cb26d1924fe","system_id":"levelo_inurba_marseille","lat":43.317557,"lon":5.390173,"is_reserved":false,"is_disabled":false,"rental_uris":{"android":"levelo://app?vid=023c4ccc-2d84-4f47-b086-3cb26d1924fe","ios":"levelo://app?vid=023c4ccc-2d84-4f47-b086-3cb26d1924fe"},"vehicle_type_id":"4","last_reported":1705561647,"current_range_meters":27600,"station_id":"ce4bhqp2rcd13ifvqhng","pricing_plan_id":"free"},{"bike_id":"dd1b7c04-d6e3-496f-abe1-fbcd4c77bbbf","system_id":"levelo_inurba_marseille","lat":43.298037,"lon":5.381066,"is_reserved":false,"is_disabled":false,"rental_uris":{"android":"levelo://app?vid=dd1b7c04-d6e3-496f-abe1-fbcd4c77bbbf","ios":"levelo://app?vid=dd1b7c04-d6e3-496f-abe1-fbcd4c77bbbf"},"vehicle_type_id":"4","last_reported":1705561647,"current_range_meters":26400,"station_id":"ce4bgip2rcd13ifvqbb0","pricing_plan_id":"free"},{"bike_id":"deec6f55-f84b-43ff-b5fc-5ba6527035dc","system_id":"levelo_inurba_marseille","lat":43.298037,"lon":5.381066,"is_reserved":false,"is_disabled":false,"rental_uris":{"android":"levelo://app?vid=deec6f55-f84b-43ff-b5fc-5ba6527035dc","ios":"levelo://app?vid=deec6f55-f84b-43ff-b5fc-5ba6527035dc"},"vehicle_type_id":"4","last_reported":1705561647,"current_range_meters":26000,"station_id":"ce4bgip2rcd13ifvqbb0","pricing_plan_id":"free"},{"bike_id":"60e0aabf-74da-4806-9aad-bd998d148d58","system_id":"levelo_inurba_marseille","lat":43.298037,"lon":5.381066,"is_reserved":false,"is_disabled":false,"rental_uris":{"android":"levelo://app?vid=60e0aabf-74da-4806-9aad-bd998d148d58","ios":"levelo://app?vid=60e0aabf-74da-4806-9aad-bd998d148d58"},"vehicle_type_id":"4","last_reported":1705561647,"current_range_meters":16400,"station_id":"ce4bgip2rcd13ifvqbb0","pricing_plan_id":"free"},{"bike_id":"9623d8b0-89dd-4da7-84a6-e1305f1a716b","system_id":"levelo_inurba_marseille","lat":43.298037,"lon":5.381066,"is_reserved":false,"is_disabled":false,"rental_uris":{"android":"levelo://app?vid=9623d8b0-89dd-4da7-84a6-e1305f1a716b","ios":"levelo://app?vid=9623d8b0-89dd-4da7-84a6-e1305f1a716b"},"vehicle_type_id":"4","last_reported":1705561647,"current_range_meters":22400,"station_id":"ce4bgip2rcd13ifvqbb0","pricing_plan_id":"free"},{"bike_id":"22286ab8-0210-4f0e-b61e-8a9478ea2a17","system_id":"levelo_inurba_marseille","lat":43.295748,"lon":5.37522,"is_reserved":false,"is_disabled":false,"rental_uris":{"android":"levelo://app?vid=22286ab8-0210-4f0e-b61e-8a9478ea2a17","ios":"levelo://app?vid=22286ab8-0210-4f0e-b61e-8a9478ea2a17"},"vehicle_type_id":"4","last_reported":1705561647,"current_range_meters":18800,"station_id":"ce4bgh92rcd13ifvqb50","pricing_plan_id":"free"},{"bike_id":"33bf82ed-1381-4f8a-9ed2-e55e405b44c6","system_id":"levelo_inurba_marseille","lat":43.29795,"lon":5.3811,"is_reserved":false,"is_disabled":false,"rental_uris":{"android":"levelo://app?vid=33bf82ed-1381-4f8a-9ed2-e55e405b44c6","ios":"levelo://app?vid=33bf82ed-1381-4f8a-9ed2-e55e405b44c6"},"vehicle_type_id":"4","last_reported":1705561647,"current_range_meters":24800,"station_id":"ce4bgip2rcd13ifvqbb0","pricing_plan_id":"free"},{"bike_id":"1f388798-a2b1-483b-912a-1295a5e5e38b","system_id":"levelo_inurba_marseille","lat":43.304278,"lon":5.388868,"is_reserved":false,"is_disabled":false,"rental_uris":{"android":"levelo://app?vid=1f388798-a2b1-483b-912a-1295a5e5e38b","ios":"levelo://app?vid=1f388798-a2b1-483b-912a-1295a5e5e38b"},"vehicle_type_id":"4","last_reported":1705561647,"current_range_meters":400,"station_id":"ce4bgk12rcd13ifvqbi0","pricing_plan_id":"free"},{"bike_id":"47e92a65-5b8c-4475-a6b7-80eb821fda7b","system_id":"levelo_inurba_marseille","lat":43.304274,"lon":5.388873,"is_reserved":false,"is_disabled":false,"rental_uris":{"android":"levelo://app?vid=47e92a65-5b8c-4475-a6b7-80eb821fda7b","ios":"levelo://app?vid=47e92a65-5b8c-4475-a6b7-80eb821fda7b"},"vehicle_type_id":"4","last_reported":1705561647,"current_range_meters":2800,"station_id":"ce4bgk12rcd13ifvqbi0","pricing_plan_id":"free"},{"bike_id":"7374bbc5-5c5a-4e34-8db3-0a5caf95025b","system_id":"levelo_inurba_marseille","lat":43.298037,"lon":5.381066,"is_reserved":false,"is_disabled":false,"rental_uris":{"android":"levelo://app?vid=7374bbc5-5c5a-4e34-8db3-0a5caf95025b","ios":"levelo://app?vid=7374bbc5-5c5a-4e34-8db3-0a5caf95025b"},"vehicle_type_id":"4","last_reported":1705561647,"current_range_meters":25200,"station_id":"ce4bgip2rcd13ifvqbb0","pricing_plan_id":"free"},{"bike_id":"64bac0ce-bf01-4043-ba0b-7ed95b95e042","system_id":"levelo_inurba_marseille","lat":43.304278,"lon":5.388868,"is_reserved":false,"is_disabled":false,"rental_uris":{"android":"levelo://app?vid=64bac0ce-bf01-4043-ba0b-7ed95b95e042","ios":"levelo://app?vid=64bac0ce-bf01-4043-ba0b-7ed95b95e042"},"vehicle_type_id":"4","last_reported":1705561647,"current_range_meters":26800,"station_id":"ce4bgk12rcd13ifvqbi0","pricing_plan_id":"free"},{"bike_id":"ea54733e-3395-4c6f-9166-6dc1df7e5ab9","system_id":"levelo_inurba_marseille","lat":43.293259,"lon":5.371586,"is_reserved":false,"is_disabled":false,"rental_uris":{"android":"levelo://app?vid=ea54733e-3395-4c6f-9166-6dc1df7e5ab9","ios":"levelo://app?vid=ea54733e-3395-4c6f-9166-6dc1df7e5ab9"},"vehicle_type_id":"4","last_reported":1705561647,"current_range_meters":2400,"station_id":"ce4bgh92rcd13ifvqb40","pricing_plan_id":"free"},{"bike_id":"7a229bb7-de79-4707-8d8f-5536188d8fdd","system_id":"levelo_inurba_marseille","lat":43.296263,"lon":5.377094,"is_reserved":false,"is_disabled":false,"rental_uris":{"android":"levelo://app?vid=7a229bb7-de79-4707-8d8f-5536188d8fdd","ios":"levelo://app?vid=7a229bb7-de79-4707-8d8f-5536188d8fdd"},"vehicle_type_id":"4","last_reported":1705561647,"current_range_meters":4400,"station_id":"ce4bgi92rcd13ifvqb90","pricing_plan_id":"free"},{"bike_id":"0714c2da-44dc-4a18-b4bf-c5d261cdbb66","system_id":"levelo_inurba_marseille","lat":43.29767,"lon":5.381219,"is_reserved":false,"is_disabled":false,"rental_uris":{"android":"levelo://app?vid=0714c2da-44dc-4a18-b4bf-c5d261cdbb66","ios":"levelo://app?vid=0714c2da-44dc-4a18-b4bf-c5d261cdbb66"},"vehicle_type_id":"4","last_reported":1705561647,"current_range_meters":18000,"station_id":"ce4bgip2rcd13ifvqbb0","pricing_plan_id":"free"},{"bike_id":"8c683a70-e779-4a8e-bf9c-8aaaf46b6f30","system_id":"levelo_inurba_marseille","lat":43.323611,"lon":5.388764,"is_reserved":false,"is_disabled":false,"rental_uris":{"android":"levelo://app?vid=8c683a70-e779-4a8e-bf9c-8aaaf46b6f30","ios":"levelo://app?vid=8c683a70-e779-4a8e-bf9c-8aaaf46b6f30"},"vehicle_type_id":"4","last_reported":1705561647,"current_range_meters":18000,"station_id":"ce4bhqp2rcd13ifvqhog","pricing_plan_id":"free"},{"bike_id":"dfaa302c-58f2-441b-8b66-a88d65e9e952","system_id":"levelo_inurba_marseille","lat":43.32367,"lon":5.388836,"is_reserved":false,"is_disabled":false,"rental_uris":{"android":"levelo://app?vid=dfaa302c-58f2-441b-8b66-a88d65e9e952","ios":"levelo://app?vid=dfaa302c-58f2-441b-8b66-a88d65e9e952"},"vehicle_type_id":"4","last_reported":1705561647,"current_range_meters":26800,"station_id":"ce4bhqp2rcd13ifvqhog","pricing_plan_id":"free"},{"bike_id":"4e1e9b11-3c6c-41ca-93a2-a6773594a990","system_id":"levelo_inurba_marseille","lat":43.32367,"lon":5.388836,"is_reserved":false,"is_disabled":false,"rental_uris":{"android":"levelo://app?vid=4e1e9b11-3c6c-41ca-93a2-a6773594a990","ios":"levelo://app?vid=4e1e9b11-3c6c-41ca-93a2-a6773594a990"},"vehicle_type_id":"4","last_reported":1705561647,"current_range_meters":26400,"station_id":"ce4bhqp2rcd13ifvqhog","pricing_plan_id":"free"},{"bike_id":"ebf063ec-fe68-439b-bf38-249e36edea5c","system_id":"levelo_inurba_marseille","lat":43.32367,"lon":5.388836,"is_reserved":false,"is_disabled":false,"rental_uris":{"android":"levelo://app?vid=ebf063ec-fe68-439b-bf38-249e36edea5c","ios":"levelo://app?vid=ebf063ec-fe68-439b-bf38-249e36edea5c"},"vehicle_type_id":"4","last_reported":1705561647,"current_range_meters":14800,"station_id":"ce4bhqp2rcd13ifvqhog","pricing_plan_id":"free"},{"bike_id":"ae329723-b6cd-4f52-99af-83cccf370dd2","system_id":"levelo_inurba_marseille","lat":43.323655,"lon":5.38881,"is_reserved":false,"is_disabled":false,"rental_uris":{"android":"levelo://app?vid=ae329723-b6cd-4f52-99af-83cccf370dd2","ios":"levelo://app?vid=ae329723-b6cd-4f52-99af-83cccf370dd2"},"vehicle_type_id":"4","last_reported":1705561647,"current_range_meters":7600,"station_id":"ce4bhqp2rcd13ifvqhog","pricing_plan_id":"free"},{"bike_id":"f7aa7bd5-9de4-4647-9d4c-974d2b3c6d5a","system_id":"levelo_inurba_marseille","lat":43.32367,"lon":5.388836,"is_reserved":false,"is_disabled":false,"rental_uris":{"android":"levelo://app?vid=f7aa7bd5-9de4-4647-9d4c-974d2b3c6d5a","ios":"levelo://app?vid=f7aa7bd5-9de4-4647-9d4c-974d2b3c6d5a"},"vehicle_type_id":"4","last_reported":1705561647,"current_range_meters":22800,"station_id":"ce4bhqp2rcd13ifvqhog","pricing_plan_id":"free"},{"bike_id":"5887ba77-b141-46e7-80f3-1e60b33b738c","system_id":"levelo_inurba_marseille","lat":43.32367,"lon":5.388836,"is_reserved":false,"is_disabled":false,"rental_uris":{"android":"levelo://app?vid=5887ba77-b141-46e7-80f3-1e60b33b738c","ios":"levelo://app?vid=5887ba77-b141-46e7-80f3-1e60b33b738c"},"vehicle_type_id":"4","last_reported":1705561647,"current_range_meters":18000,"station_id":"ce4bhqp2rcd13ifvqhog","pricing_plan_id":"free"},{"bike_id":"48d01839-1c06-4604-a1d2-ae1f8bd3df35","system_id":"levelo_inurba_marseille","lat":43.32367,"lon":5.388836,"is_reserved":false,"is_disabled":false,"rental_uris":{"android":"levelo://app?vid=48d01839-1c06-4604-a1d2-ae1f8bd3df35","ios":"levelo://app?vid=48d01839-1c06-4604-a1d2-ae1f8bd3df35"},"vehicle_type_id":"4","last_reported":1705561647,"current_range_meters":12000,"station_id":"ce4bhqp2rcd13ifvqhog","pricing_plan_id":"free"},{"bike_id":"37488e4d-837d-443b-a7f0-f22909aa2c7f","system_id":"levelo_inurba_marseille","lat":43.32367,"lon":5.388836,"is_reserved":false,"is_disabled":false,"rental_uris":{"android":"levelo://app?vid=37488e4d-837d-443b-a7f0-f22909aa2c7f","ios":"levelo://app?vid=37488e4d-837d-443b-a7f0-f22909aa2c7f"},"vehicle_type_id":"4","last_reported":1705561647,"current_range_meters":22000,"station_id":"ce4bhqp2rcd13ifvqhog","pricing_plan_id":"free"},{"bike_id":"bed31fce-57b6-47f8-affe-b17cab7dfc3d","system_id":"levelo_inurba_marseille","lat":43.32367,"lon":5.388836,"is_reserved":false,"is_disabled":false,"rental_uris":{"android":"levelo://app?vid=bed31fce-57b6-47f8-affe-b17cab7dfc3d","ios":"levelo://app?vid=bed31fce-57b6-47f8-affe-b17cab7dfc3d"},"vehicle_type_id":"4","last_reported":1705561647,"current_range_meters":23200,"station_id":"ce4bhqp2rcd13ifvqhog","pricing_plan_id":"free"},{"bike_id":"2ec4001f-5cf2-4614-bbfc-ffc6c5b765c3","system_id":"levelo_inurba_marseille","lat":43.32367,"lon":5.388836,"is_reserved":false,"is_disabled":false,"rental_uris":{"android":"levelo://app?vid=2ec4001f-5cf2-4614-bbfc-ffc6c5b765c3","ios":"levelo://app?vid=2ec4001f-5cf2-4614-bbfc-ffc6c5b765c3"},"vehicle_type_id":"4","last_reported":1705561647,"current_range_meters":21600,"station_id":"ce4bhqp2rcd13ifvqhog","pricing_plan_id":"free"},{"bike_id":"4ed8488a-f05c-4119-bfec-f892cce04e14","system_id":"levelo_inurba_marseille","lat":43.32367,"lon":5.388836,"is_reserved":false,"is_disabled":false,"rental_uris":{"android":"levelo://app?vid=4ed8488a-f05c-4119-bfec-f892cce04e14","ios":"levelo://app?vid=4ed8488a-f05c-4119-bfec-f892cce04e14"},"vehicle_type_id":"4","last_reported":1705561647,"current_range_meters":28000,"station_id":"ce4bhqp2rcd13ifvqhog","pricing_plan_id":"free"},{"bike_id":"b7beb6a5-b030-4fe2-a25b-ee6b5b88bebb","system_id":"levelo_inurba_marseille","lat":43.32367,"lon":5.388836,"is_reserved":false,"is_disabled":false,"rental_uris":{"android":"levelo://app?vid=b7beb6a5-b030-4fe2-a25b-ee6b5b88bebb","ios":"levelo://app?vid=b7beb6a5-b030-4fe2-a25b-ee6b5b88bebb"},"vehicle_type_id":"4","last_reported":1705561647,"current_range_meters":29200,"station_id":"ce4bhqp2rcd13ifvqhog","pricing_plan_id":"free"},{"bike_id":"857824b8-e665-4bdf-b027-64d2ac631228","system_id":"levelo_inurba_marseille","lat":43.29602,"lon":5.381084,"is_reserved":false,"is_disabled":false,"rental_uris":{"android":"levelo://app?vid=857824b8-e665-4bdf-b027-64d2ac631228","ios":"levelo://app?vid=857824b8-e665-4bdf-b027-64d2ac631228"},"vehicle_type_id":"4","last_reported":1705561647,"current_range_meters":19200,"station_id":"ce4bgl12rcd13ifvqbo0","pricing_plan_id":"free"},{"bike_id":"ee979f8b-e13f-45db-b41e-873dbd32820b","system_id":"levelo_inurba_marseille","lat":43.292749,"lon":5.368402,"is_reserved":false,"is_disabled":false,"rental_uris":{"android":"levelo://app?vid=ee979f8b-e13f-45db-b41e-873dbd32820b","ios":"levelo://app?vid=ee979f8b-e13f-45db-b41e-873dbd32820b"},"vehicle_type_id":"4","last_reported":1705561647,"current_range_meters":28000,"station_id":"ce4bhbp2rcd13ifvqesg","pricing_plan_id":"free"},{"bike_id":"3781a4ad-f3e3-41f6-bf25-0023036b56f9","system_id":"levelo_inurba_marseille","lat":43.293009,"lon":5.374584,"is_reserved":false,"is_disabled":false,"rental_uris":{"android":"levelo://app?vid=3781a4ad-f3e3-41f6-bf25-0023036b56f9","ios":"levelo://app?vid=3781a4ad-f3e3-41f6-bf25-0023036b56f9"},"vehicle_type_id":"4","last_reported":1705561647,"current_range_meters":7600,"station_id":"ce4bgi12rcd13ifvqb70","pricing_plan_id":"free"},{"bike_id":"e3d420bc-229a-4e32-9024-58f9633b8bf0","system_id":"levelo_inurba_marseille","lat":43.305994,"lon":5.393687,"is_reserved":false,"is_disabled":false,"rental_uris":{"android":"levelo://app?vid=e3d420bc-229a-4e32-9024-58f9633b8bf0","ios":"levelo://app?vid=e3d420bc-229a-4e32-9024-58f9633b8bf0"},"vehicle_type_id":"4","last_reported":1705561647,"current_range_meters":16800,"station_id":"ce4bh0p2rcd13ifvqd80","pricing_plan_id":"free"},{"bike_id":"9f765421-b0e7-4a7c-a563-03b6f56a8735","system_id":"levelo_inurba_marseille","lat":43.305994,"lon":5.393687,"is_reserved":false,"is_disabled":false,"rental_uris":{"android":"levelo://app?vid=9f765421-b0e7-4a7c-a563-03b6f56a8735","ios":"levelo://app?vid=9f765421-b0e7-4a7c-a563-03b6f56a8735"},"vehicle_type_id":"4","last_reported":1705561647,"current_range_meters":10400,"station_id":"ce4bh0p2rcd13ifvqd80","pricing_plan_id":"free"},{"bike_id":"8103f7a5-f976-4556-8654-d476e535be3a","system_id":"levelo_inurba_marseille","lat":43.305994,"lon":5.393687,"is_reserved":false,"is_disabled":false,"rental_uris":{"android":"levelo://app?vid=8103f7a5-f976-4556-8654-d476e535be3a","ios":"levelo://app?vid=8103f7a5-f976-4556-8654-d476e535be3a"},"vehicle_type_id":"4","last_reported":1705561647,"current_range_meters":14800,"station_id":"ce4bh0p2rcd13ifvqd80","pricing_plan_id":"free"},{"bike_id":"4231fe6d-ffd1-4058-be11-c8a6a2562d5c","system_id":"levelo_inurba_marseille","lat":43.305994,"lon":5.393687,"is_reserved":false,"is_disabled":false,"rental_uris":{"android":"levelo://app?vid=4231fe6d-ffd1-4058-be11-c8a6a2562d5c","ios":"levelo://app?vid=4231fe6d-ffd1-4058-be11-c8a6a2562d5c"},"vehicle_type_id":"4","last_reported":1705561647,"current_range_meters":28800,"station_id":"ce4bh0p2rcd13ifvqd80","pricing_plan_id":"free"},{"bike_id":"7eab90e7-4668-4749-a4d0-9c5fb8fd9e8b","system_id":"levelo_inurba_marseille","lat":43.305994,"lon":5.393687,"is_reserved":false,"is_disabled":false,"rental_uris":{"android":"levelo://app?vid=7eab90e7-4668-4749-a4d0-9c5fb8fd9e8b","ios":"levelo://app?vid=7eab90e7-4668-4749-a4d0-9c5fb8fd9e8b"},"vehicle_type_id":"4","last_reported":1705561647,"current_range_meters":0,"station_id":"ce4bh0p2rcd13ifvqd80","pricing_plan_id":"free"},{"bike_id":"b99a64a9-0456-4abd-88ca-ad36e8d0d20f","system_id":"levelo_inurba_marseille","lat":43.305994,"lon":5.393687,"is_reserved":false,"is_disabled":false,"rental_uris":{"android":"levelo://app?vid=b99a64a9-0456-4abd-88ca-ad36e8d0d20f","ios":"levelo://app?vid=b99a64a9-0456-4abd-88ca-ad36e8d0d20f"},"vehicle_type_id":"4","last_reported":1705561647,"current_range_meters":21200,"station_id":"ce4bh0p2rcd13ifvqd80","pricing_plan_id":"free"},{"bike_id":"d3d866d1-1c2d-4495-ba9b-43d02e61263e","system_id":"levelo_inurba_marseille","lat":43.305994,"lon":5.393687,"is_reserved":false,"is_disabled":false,"rental_uris":{"android":"levelo://app?vid=d3d866d1-1c2d-4495-ba9b-43d02e61263e","ios":"levelo://app?vid=d3d866d1-1c2d-4495-ba9b-43d02e61263e"},"vehicle_type_id":"4","last_reported":1705561647,"current_range_meters":21200,"station_id":"ce4bh0p2rcd13ifvqd80","pricing_plan_id":"free"},{"bike_id":"611815eb-8228-45ed-b82a-8348873215be","system_id":"levelo_inurba_marseille","lat":43.305994,"lon":5.393687,"is_reserved":false,"is_disabled":false,"rental_uris":{"android":"levelo://app?vid=611815eb-8228-45ed-b82a-8348873215be","ios":"levelo://app?vid=611815eb-8228-45ed-b82a-8348873215be"},"vehicle_type_id":"4","last_reported":1705561647,"current_range_meters":22000,"station_id":"ce4bh0p2rcd13ifvqd80","pricing_plan_id":"free"},{"bike_id":"1b50bb30-9306-4c6a-9ed4-e72b587f937a","system_id":"levelo_inurba_marseille","lat":43.305994,"lon":5.393687,"is_reserved":false,"is_disabled":false,"rental_uris":{"android":"levelo://app?vid=1b50bb30-9306-4c6a-9ed4-e72b587f937a","ios":"levelo://app?vid=1b50bb30-9306-4c6a-9ed4-e72b587f937a"},"vehicle_type_id":"4","last_reported":1705561647,"current_range_meters":12400,"station_id":"ce4bh0p2rcd13ifvqd80","pricing_plan_id":"free"},{"bike_id":"5a7c816c-1961-483e-bc42-8b3bd901cc2a","system_id":"levelo_inurba_marseille","lat":43.305994,"lon":5.393687,"is_reserved":false,"is_disabled":false,"rental_uris":{"android":"levelo://app?vid=5a7c816c-1961-483e-bc42-8b3bd901cc2a","ios":"levelo://app?vid=5a7c816c-1961-483e-bc42-8b3bd901cc2a"},"vehicle_type_id":"4","last_reported":1705561647,"current_range_meters":17600,"station_id":"ce4bh0p2rcd13ifvqd80","pricing_plan_id":"free"},{"bike_id":"7b8da9c4-9833-4a85-8c3b-37ef6232e5e1","system_id":"levelo_inurba_marseille","lat":43.305994,"lon":5.393687,"is_reserved":false,"is_disabled":false,"rental_uris":{"android":"levelo://app?vid=7b8da9c4-9833-4a85-8c3b-37ef6232e5e1","ios":"levelo://app?vid=7b8da9c4-9833-4a85-8c3b-37ef6232e5e1"},"vehicle_type_id":"4","last_reported":1705561647,"current_range_meters":21200,"station_id":"ce4bh0p2rcd13ifvqd80","pricing_plan_id":"free"},{"bike_id":"fc6947d6-9f45-4a93-8ce8-ac4584b0d864","system_id":"levelo_inurba_marseille","lat":43.305994,"lon":5.393687,"is_reserved":false,"is_disabled":false,"rental_uris":{"android":"levelo://app?vid=fc6947d6-9f45-4a93-8ce8-ac4584b0d864","ios":"levelo://app?vid=fc6947d6-9f45-4a93-8ce8-ac4584b0d864"},"vehicle_type_id":"4","last_reported":1705561647,"current_range_meters":31600,"station_id":"ce4bh0p2rcd13ifvqd80","pricing_plan_id":"free"},{"bike_id":"e78e5e3e-8f01-4d5f-9beb-2d1b16006ce7","system_id":"levelo_inurba_marseille","lat":43.303,"lon":5.39214,"is_reserved":false,"is_disabled":false,"rental_uris":{"android":"levelo://app?vid=e78e5e3e-8f01-4d5f-9beb-2d1b16006ce7","ios":"levelo://app?vid=e78e5e3e-8f01-4d5f-9beb-2d1b16006ce7"},"vehicle_type_id":"4","last_reported":1705561647,"current_range_meters":23200,"station_id":"ce4bgkh2rcd13ifvqbk0","pricing_plan_id":"free"},{"bike_id":"dec73ec2-1a44-48cf-b002-0edc71fa9c0f","system_id":"levelo_inurba_marseille","lat":43.305994,"lon":5.393687,"is_reserved":false,"is_disabled":false,"rental_uris":{"android":"levelo://app?vid=dec73ec2-1a44-48cf-b002-0edc71fa9c0f","ios":"levelo://app?vid=dec73ec2-1a44-48cf-b002-0edc71fa9c0f"},"vehicle_type_id":"4","last_reported":1705561647,"current_range_meters":27600,"station_id":"ce4bh0p2rcd13ifvqd80","pricing_plan_id":"free"},{"bike_id":"67c74b91-7fc8-405e-a082-ee28f4c3319a","system_id":"levelo_inurba_marseille","lat":43.2936,"lon":5.37835,"is_reserved":false,"is_disabled":false,"rental_uris":{"android":"levelo://app?vid=67c74b91-7fc8-405e-a082-ee28f4c3319a","ios":"levelo://app?vid=67c74b91-7fc8-405e-a082-ee28f4c3319a"},"vehicle_type_id":"4","last_reported":1705561647,"current_range_meters":27600,"station_id":"ce4bgjh2rcd13ifvqbf0","pricing_plan_id":"free"},{"bike_id":"cec1818c-62f2-4343-84f2-3af6453291ed","system_id":"levelo_inurba_marseille","lat":43.29856,"lon":5.38801,"is_reserved":false,"is_disabled":false,"rental_uris":{"android":"levelo://app?vid=cec1818c-62f2-4343-84f2-3af6453291ed","ios":"levelo://app?vid=cec1818c-62f2-4343-84f2-3af6453291ed"},"vehicle_type_id":"4","last_reported":1705561647,"current_range_meters":18400,"station_id":"","pricing_plan_id":"free"},{"bike_id":"9cc7ad43-8e35-4b07-9634-c14ec43b7aad","system_id":"levelo_inurba_marseille","lat":43.292311,"lon":5.360731,"is_reserved":false,"is_disabled":false,"rental_uris":{"android":"levelo://app?vid=9cc7ad43-8e35-4b07-9634-c14ec43b7aad","ios":"levelo://app?vid=9cc7ad43-8e35-4b07-9634-c14ec43b7aad"},"vehicle_type_id":"4","last_reported":1705561647,"current_range_meters":26800,"station_id":"ce4bhbh2rcd13ifvqeqg","pricing_plan_id":"free"},{"bike_id":"2c127073-033c-458a-a1d4-7d5af94b78ec","system_id":"levelo_inurba_marseille","lat":43.300852,"lon":5.390859,"is_reserved":false,"is_disabled":false,"rental_uris":{"android":"levelo://app?vid=2c127073-033c-458a-a1d4-7d5af94b78ec","ios":"levelo://app?vid=2c127073-033c-458a-a1d4-7d5af94b78ec"},"vehicle_type_id":"4","last_reported":1705561647,"current_range_meters":21600,"station_id":"ce4bh192rcd13ifvqdb0","pricing_plan_id":"free"},{"bike_id":"ad7e9ba1-7ba5-4672-b6e5-647ec39e871f","system_id":"levelo_inurba_marseille","lat":43.292311,"lon":5.360731,"is_reserved":false,"is_disabled":false,"rental_uris":{"android":"levelo://app?vid=ad7e9ba1-7ba5-4672-b6e5-647ec39e871f","ios":"levelo://app?vid=ad7e9ba1-7ba5-4672-b6e5-647ec39e871f"},"vehicle_type_id":"4","last_reported":1705561647,"current_range_meters":17600,"station_id":"ce4bhbh2rcd13ifvqeqg","pricing_plan_id":"free"},{"bike_id":"ab181b66-5694-4f20-8f1e-27b5f5fabfca","system_id":"levelo_inurba_marseille","lat":43.292311,"lon":5.360731,"is_reserved":false,"is_disabled":false,"rental_uris":{"android":"levelo://app?vid=ab181b66-5694-4f20-8f1e-27b5f5fabfca","ios":"levelo://app?vid=ab181b66-5694-4f20-8f1e-27b5f5fabfca"},"vehicle_type_id":"4","last_reported":1705561647,"current_range_meters":24800,"station_id":"ce4bhbh2rcd13ifvqeqg","pricing_plan_id":"free"},{"bike_id":"27e00b39-011d-4349-9efe-9a5f3ea368b4","system_id":"levelo_inurba_marseille","lat":43.30085,"lon":5.390856,"is_reserved":false,"is_disabled":false,"rental_uris":{"android":"levelo://app?vid=27e00b39-011d-4349-9efe-9a5f3ea368b4","ios":"levelo://app?vid=27e00b39-011d-4349-9efe-9a5f3ea368b4"},"vehicle_type_id":"4","last_reported":1705561647,"current_range_meters":31200,"station_id":"ce4bh192rcd13ifvqdb0","pricing_plan_id":"free"},{"bike_id":"11ca919a-5034-4384-a2ce-9d76a91948b5","system_id":"levelo_inurba_marseille","lat":43.291675,"lon":5.371583,"is_reserved":false,"is_disabled":false,"rental_uris":{"android":"levelo://app?vid=11ca919a-5034-4384-a2ce-9d76a91948b5","ios":"levelo://app?vid=11ca919a-5034-4384-a2ce-9d76a91948b5"},"vehicle_type_id":"4","last_reported":1705561647,"current_range_meters":29200,"station_id":"ce4bha92rcd13ifvqeh0","pricing_plan_id":"free"},{"bike_id":"427ace78-91d9-443d-abbc-86389bbd731c","system_id":"levelo_inurba_marseille","lat":43.290779,"lon":5.371482,"is_reserved":false,"is_disabled":false,"rental_uris":{"android":"levelo://app?vid=427ace78-91d9-443d-abbc-86389bbd731c","ios":"levelo://app?vid=427ace78-91d9-443d-abbc-86389bbd731c"},"vehicle_type_id":"4","last_reported":1705561647,"current_range_meters":30800,"station_id":"ce4bh5p2rcd13ifvqe4g","pricing_plan_id":"free"},{"bike_id":"13d0388d-54dd-47d1-ad1c-6fb51f602884","system_id":"levelo_inurba_marseille","lat":43.291994,"lon":5.357886,"is_reserved":false,"is_disabled":false,"rental_uris":{"android":"levelo://app?vid=13d0388d-54dd-47d1-ad1c-6fb51f602884","ios":"levelo://app?vid=13d0388d-54dd-47d1-ad1c-6fb51f602884"},"vehicle_type_id":"4","last_reported":1705561647,"current_range_meters":0,"station_id":"ce4bhb12rcd13ifvqel0","pricing_plan_id":"free"},{"bike_id":"85ac0da5-9138-415d-90ae-1ec76f0f5dbd","system_id":"levelo_inurba_marseille","lat":43.313291,"lon":5.396838,"is_reserved":false,"is_disabled":false,"rental_uris":{"android":"levelo://app?vid=85ac0da5-9138-415d-90ae-1ec76f0f5dbd","ios":"levelo://app?vid=85ac0da5-9138-415d-90ae-1ec76f0f5dbd"},"vehicle_type_id":"4","last_reported":1705561647,"current_range_meters":30400,"station_id":"ce4bgvp2rcd13ifvqcu0","pricing_plan_id":"free"},{"bike_id":"824c12d2-5308-47ba-bec9-796f31427d25","system_id":"levelo_inurba_marseille","lat":43.313291,"lon":5.396838,"is_reserved":false,"is_disabled":false,"rental_uris":{"android":"levelo://app?vid=824c12d2-5308-47ba-bec9-796f31427d25","ios":"levelo://app?vid=824c12d2-5308-47ba-bec9-796f31427d25"},"vehicle_type_id":"4","last_reported":1705561647,"current_range_meters":31600,"station_id":"ce4bgvp2rcd13ifvqcu0","pricing_plan_id":"free"},{"bike_id":"8937de69-dc86-4c87-a75b-e6b4169157f1","system_id":"levelo_inurba_marseille","lat":43.313291,"lon":5.396838,"is_reserved":false,"is_disabled":false,"rental_uris":{"android":"levelo://app?vid=8937de69-dc86-4c87-a75b-e6b4169157f1","ios":"levelo://app?vid=8937de69-dc86-4c87-a75b-e6b4169157f1"},"vehicle_type_id":"4","last_reported":1705561647,"current_range_meters":31600,"station_id":"ce4bgvp2rcd13ifvqcu0","pricing_plan_id":"free"},{"bike_id":"548602b1-e47f-4712-919b-7a7e7d11f41d","system_id":"levelo_inurba_marseille","lat":43.313291,"lon":5.396838,"is_reserved":false,"is_disabled":false,"rental_uris":{"android":"levelo://app?vid=548602b1-e47f-4712-919b-7a7e7d11f41d","ios":"levelo://app?vid=548602b1-e47f-4712-919b-7a7e7d11f41d"},"vehicle_type_id":"4","last_reported":1705561647,"current_range_meters":26800,"station_id":"ce4bgvp2rcd13ifvqcu0","pricing_plan_id":"free"},{"bike_id":"2507d52b-ab18-4abf-bfed-b984e7006a27","system_id":"levelo_inurba_marseille","lat":43.313291,"lon":5.396838,"is_reserved":false,"is_disabled":false,"rental_uris":{"android":"levelo://app?vid=2507d52b-ab18-4abf-bfed-b984e7006a27","ios":"levelo://app?vid=2507d52b-ab18-4abf-bfed-b984e7006a27"},"vehicle_type_id":"4","last_reported":1705561647,"current_range_meters":31600,"station_id":"ce4bgvp2rcd13ifvqcu0","pricing_plan_id":"free"},{"bike_id":"caa5b580-ed14-4d55-bf79-292b57876cb5","system_id":"levelo_inurba_marseille","lat":43.313291,"lon":5.396838,"is_reserved":false,"is_disabled":false,"rental_uris":{"android":"levelo://app?vid=caa5b580-ed14-4d55-bf79-292b57876cb5","ios":"levelo://app?vid=caa5b580-ed14-4d55-bf79-292b57876cb5"},"vehicle_type_id":"4","last_reported":1705561647,"current_range_meters":28000,"station_id":"ce4bgvp2rcd13ifvqcu0","pricing_plan_id":"free"},{"bike_id":"a148dc5b-3a6f-45aa-80d1-bd0ff864e647","system_id":"levelo_inurba_marseille","lat":43.309038,"lon":5.396546,"is_reserved":false,"is_disabled":false,"rental_uris":{"android":"levelo://app?vid=a148dc5b-3a6f-45aa-80d1-bd0ff864e647","ios":"levelo://app?vid=a148dc5b-3a6f-45aa-80d1-bd0ff864e647"},"vehicle_type_id":"4","last_reported":1705561647,"current_range_meters":30400,"station_id":"ce4bh012rcd13ifvqcv0","pricing_plan_id":"free"},{"bike_id":"46cc0bf6-5571-4001-bc19-46766f2727bf","system_id":"levelo_inurba_marseille","lat":43.29529,"lon":5.385581,"is_reserved":false,"is_disabled":false,"rental_uris":{"android":"levelo://app?vid=46cc0bf6-5571-4001-bc19-46766f2727bf","ios":"levelo://app?vid=46cc0bf6-5571-4001-bc19-46766f2727bf"},"vehicle_type_id":"4","last_reported":1705561647,"current_range_meters":30800,"station_id":"ce4bgih2rcd13ifvqba0","pricing_plan_id":"free"},{"bike_id":"8e802805-d0a9-4f71-a44a-558004d2b2ec","system_id":"levelo_inurba_marseille","lat":43.302008,"lon":5.394694,"is_reserved":false,"is_disabled":false,"rental_uris":{"android":"levelo://app?vid=8e802805-d0a9-4f71-a44a-558004d2b2ec","ios":"levelo://app?vid=8e802805-d0a9-4f71-a44a-558004d2b2ec"},"vehicle_type_id":"4","last_reported":1705561647,"current_range_meters":28400,"station_id":"ce4bh0p2rcd13ifvqd70","pricing_plan_id":"free"},{"bike_id":"224a9d4a-0380-49d3-87b4-b0b5af5b16f5","system_id":"levelo_inurba_marseille","lat":43.302008,"lon":5.394694,"is_reserved":false,"is_disabled":false,"rental_uris":{"android":"levelo://app?vid=224a9d4a-0380-49d3-87b4-b0b5af5b16f5","ios":"levelo://app?vid=224a9d4a-0380-49d3-87b4-b0b5af5b16f5"},"vehicle_type_id":"4","last_reported":1705561647,"current_range_meters":24000,"station_id":"ce4bh0p2rcd13ifvqd70","pricing_plan_id":"free"},{"bike_id":"2d00483e-6015-4779-8dce-00a116286dd3","system_id":"levelo_inurba_marseille","lat":43.302008,"lon":5.394694,"is_reserved":false,"is_disabled":false,"rental_uris":{"android":"levelo://app?vid=2d00483e-6015-4779-8dce-00a116286dd3","ios":"levelo://app?vid=2d00483e-6015-4779-8dce-00a116286dd3"},"vehicle_type_id":"4","last_reported":1705561647,"current_range_meters":6400,"station_id":"ce4bh0p2rcd13ifvqd70","pricing_plan_id":"free"},{"bike_id":"2b599fcd-d305-4794-bc6c-6f9f95e28638","system_id":"levelo_inurba_marseille","lat":43.290624,"lon":5.359245,"is_reserved":false,"is_disabled":false,"rental_uris":{"android":"levelo://app?vid=2b599fcd-d305-4794-bc6c-6f9f95e28638","ios":"levelo://app?vid=2b599fcd-d305-4794-bc6c-6f9f95e28638"},"vehicle_type_id":"4","last_reported":1705561647,"current_range_meters":31600,"station_id":"ce4bha92rcd13ifvqeg0","pricing_plan_id":"free"},{"bike_id":"87bd3a4c-a8ea-4e71-b81c-edf13e59222c","system_id":"levelo_inurba_marseille","lat":43.302759,"lon":5.400793,"is_reserved":false,"is_disabled":false,"rental_uris":{"android":"levelo://app?vid=87bd3a4c-a8ea-4e71-b81c-edf13e59222c","ios":"levelo://app?vid=87bd3a4c-a8ea-4e71-b81c-edf13e59222c"},"vehicle_type_id":"4","last_reported":1705561647,"current_range_meters":30000,"station_id":"ce4bgvh2rcd13ifvqcs0","pricing_plan_id":"free"},{"bike_id":"6a1b1a3c-0066-4977-87b9-a40298a7b77c","system_id":"levelo_inurba_marseille","lat":43.289184,"lon":5.366408,"is_reserved":false,"is_disabled":false,"rental_uris":{"android":"levelo://app?vid=6a1b1a3c-0066-4977-87b9-a40298a7b77c","ios":"levelo://app?vid=6a1b1a3c-0066-4977-87b9-a40298a7b77c"},"vehicle_type_id":"4","last_reported":1705561647,"current_range_meters":22000,"station_id":"ce4bhap2rcd13ifvqek0","pricing_plan_id":"free"},{"bike_id":"529c95c2-dbda-4af3-ae8b-d2963b6bcca4","system_id":"levelo_inurba_marseille","lat":43.289395,"lon":5.366427,"is_reserved":false,"is_disabled":false,"rental_uris":{"android":"levelo://app?vid=529c95c2-dbda-4af3-ae8b-d2963b6bcca4","ios":"levelo://app?vid=529c95c2-dbda-4af3-ae8b-d2963b6bcca4"},"vehicle_type_id":"4","last_reported":1705561647,"current_range_meters":3200,"station_id":"","pricing_plan_id":"free"},{"bike_id":"75b82011-9f01-4ec9-9146-bddec3baeaaf","system_id":"levelo_inurba_marseille","lat":43.289184,"lon":5.366408,"is_reserved":false,"is_disabled":false,"rental_uris":{"android":"levelo://app?vid=75b82011-9f01-4ec9-9146-bddec3baeaaf","ios":"levelo://app?vid=75b82011-9f01-4ec9-9146-bddec3baeaaf"},"vehicle_type_id":"4","last_reported":1705561647,"current_range_meters":18400,"station_id":"ce4bhap2rcd13ifvqek0","pricing_plan_id":"free"},{"bike_id":"27c1cd0a-add5-412b-ba87-7fc88e5628f1","system_id":"levelo_inurba_marseille","lat":43.289184,"lon":5.366408,"is_reserved":false,"is_disabled":false,"rental_uris":{"android":"levelo://app?vid=27c1cd0a-add5-412b-ba87-7fc88e5628f1","ios":"levelo://app?vid=27c1cd0a-add5-412b-ba87-7fc88e5628f1"},"vehicle_type_id":"4","last_reported":1705561647,"current_range_meters":7200,"station_id":"ce4bhap2rcd13ifvqek0","pricing_plan_id":"free"},{"bike_id":"d7f1d956-7353-44fe-8e91-22a88c538068","system_id":"levelo_inurba_marseille","lat":43.289184,"lon":5.366408,"is_reserved":false,"is_disabled":false,"rental_uris":{"android":"levelo://app?vid=d7f1d956-7353-44fe-8e91-22a88c538068","ios":"levelo://app?vid=d7f1d956-7353-44fe-8e91-22a88c538068"},"vehicle_type_id":"4","last_reported":1705561647,"current_range_meters":24000,"station_id":"ce4bhap2rcd13ifvqek0","pricing_plan_id":"free"},{"bike_id":"4cee6679-5c09-428c-8c40-841e745c555d","system_id":"levelo_inurba_marseille","lat":43.289468,"lon":5.363719,"is_reserved":false,"is_disabled":false,"rental_uris":{"android":"levelo://app?vid=4cee6679-5c09-428c-8c40-841e745c555d","ios":"levelo://app?vid=4cee6679-5c09-428c-8c40-841e745c555d"},"vehicle_type_id":"4","last_reported":1705561647,"current_range_meters":0,"station_id":"ce4bhc92rcd13ifvqetg","pricing_plan_id":"free"},{"bike_id":"627d64b6-5697-4b68-8848-0149a8f18153","system_id":"levelo_inurba_marseille","lat":43.289184,"lon":5.366408,"is_reserved":false,"is_disabled":false,"rental_uris":{"android":"levelo://app?vid=627d64b6-5697-4b68-8848-0149a8f18153","ios":"levelo://app?vid=627d64b6-5697-4b68-8848-0149a8f18153"},"vehicle_type_id":"4","last_reported":1705561647,"current_range_meters":24800,"station_id":"ce4bhap2rcd13ifvqek0","pricing_plan_id":"free"},{"bike_id":"401beff5-feb1-40fc-aa50-eb6a92540429","system_id":"levelo_inurba_marseille","lat":43.289438,"lon":5.364018,"is_reserved":false,"is_disabled":false,"rental_uris":{"android":"levelo://app?vid=401beff5-feb1-40fc-aa50-eb6a92540429","ios":"levelo://app?vid=401beff5-feb1-40fc-aa50-eb6a92540429"},"vehicle_type_id":"4","last_reported":1705561647,"current_range_meters":14800,"station_id":"ce4bhc92rcd13ifvqetg","pricing_plan_id":"free"},{"bike_id":"0c52c5db-a8c3-49ab-99ec-8dccae318bb5","system_id":"levelo_inurba_marseille","lat":43.304274,"lon":5.397513,"is_reserved":false,"is_disabled":false,"rental_uris":{"android":"levelo://app?vid=0c52c5db-a8c3-49ab-99ec-8dccae318bb5","ios":"levelo://app?vid=0c52c5db-a8c3-49ab-99ec-8dccae318bb5"},"vehicle_type_id":"4","last_reported":1705561647,"current_range_meters":27200,"station_id":"ce4bh092rcd13ifvqd20","pricing_plan_id":"free"},