{"last_updated":1726879364,"ttl":30,"version":"2.2","data":{"bikes":[{"bike_id":"0bbee90f-8502-443f-ba84-24be626a4a28","system_id":"levelo_inurba_marseille","lat":43.28145,"lon":5.4264,"is_reserved":false,"is_disabled":false,"rental_uris":{"android":"levelo://app?vid=0bbee90f-8502-443f-ba84-24be626a4a28","ios":"levelo://app?vid=0bbee90f-8502-443f-ba84-24be626a4a28"},"vehicle_type_id":"4","last_reported":1726879364,"current_range_meters":10800,"station_id":"ce4bhnh2rcd13ifvqgug","pricing_plan_id":"cebpf4jnsgd1na2vs0mg"},{"bike_id":"49179981-9681-4c43-86b6-a87d0ab4704f","system_id":"levelo_inurba_marseille","lat":43.27994,"lon":5.40004,"is_reserved":false,"is_disabled":false,"rental_uris":{"android":"levelo://app?vid=49179981-9681-4c43-86b6-a87d0ab4704f","ios":"levelo://app?vid=49179981-9681-4c43-86b6-a87d0ab4704f"},"vehicle_type_id":"4","last_reported":1726879364,"current_range_meters":35200,"station_id":"ce4bho92rcd13ifvqh4g","pricing_plan_id":"cebpf4jnsgd1na2vs0mg"},{"bike_id":"f7c34fc3-9eaa-4df1-b9d8-07dee8a7fadd","system_id":"levelo_inurba_marseille","lat":43.28474,"lon":5.35882,"is_reserved":false,"is_disabled":false,"rental_uris":{"android":"levelo://app?vid=f7c34fc3-9eaa-4df1-b9d8-07dee8a7fadd","ios":"levelo://app?vid=f7c34fc3-9eaa-4df1-b9d8-07dee8a7fadd"},"vehicle_type_id":"4","last_reported":1726879364,"current_range_meters":38800,"station_id":"ce4bhah2rcd13ifvqei0","pricing_plan_id":"cebpf4jnsgd1na2vs0mg"},{"bike_id":"a83a0c57-167f-4096-86c7-784363eeaea2","system_id":"levelo_inurba_marseille","lat":43.29297,"lon":5.37455,"is_reserved":false,"is_disabled":false,"rental_uris":{"android":"levelo://app?vid=a83a0c57-167f-4096-86c7-784363eeaea2","ios":"levelo://app?vid=a83a0c57-167f-4096-86c7-784363eeaea2"},"vehicle_type_id":"4","last_reported":1726879364,"current_range_meters":36400,"station_id":"ce4bgi12rcd13ifvqb70","pricing_plan_id":"cebpf4jnsgd1na2vs0mg"},{"bike_id":"c9f111b2-4b0c-48e9-aa6e-62bc711506ff","system_id":"levelo_inurba_marseille","lat":43.23178,"lon":5.39991,"is_reserved":false,"is_disabled":false,"rental_uris":{"android":"levelo://app?vid=c9f111b2-4b0c-48e9-aa6e-62bc711506ff","ios":"levelo://app?vid=c9f111b2-4b0c-48e9-aa6e-62bc711506ff"},"vehicle_type_id":"4","last_reported":1726879364,"current_range_meters":34800,"station_id":"ce4bhn12rcd13ifvqgqg","pricing_plan_id":"cebpf4jnsgd1na2vs0mg"},{"bike_id":"c943e2f3-933e-4efb-97de-45246d483f08","system_id":"levelo_inurba_marseille","lat":43.26559,"lon":5.37282,"is_reserved":false,"is_disabled":false,"rental_uris":{"android":"levelo://app?vid=c943e2f3-933e-4efb-97de-45246d483f08","ios":"levelo://app?vid=c943e2f3-933e-4efb-97de-45246d483f08"},"vehicle_type_id":"4","last_reported":1726879364,"current_range_meters":13600,"station_id":"ce4bhg12rcd13ifvqf70","pricing_plan_id":"cebpf4jnsgd1na2vs0mg"},{"bike_id":"e06a9bc0-779a-4165-ab2d-5700ab3fdc85","system_id":"levelo_inurba_marseille","lat":43.29297,"lon":5.37447,"is_reserved":false,"is_disabled":false,"rental_uris":{"android":"levelo://app?vid=e06a9bc0-779a-4165-ab2d-5700ab3fdc85","ios":"levelo://app?vid=e06a9bc0-779a-4165-ab2d-5700ab3fdc85"},"vehicle_type_id":"4","last_reported":1726879364,"current_range_meters":36800,"station_id":"ce4bgi12rcd13ifvqb70","pricing_plan_id":"cebpf4jnsgd1na2vs0mg"},{"bike_id":"caeb01e1-f6ca-4785-8d66-d5a031a43aa7","system_id":"levelo_inurba_marseille","lat":43.25089,"lon":5.39508,"is_reserved":false,"is_disabled":false,"rental_uris":{"android":"levelo://app?vid=caeb01e1-f6ca-4785-8d66-d5a031a43aa7","ios":"levelo://app?vid=caeb01e1-f6ca-4785-8d66-d5a031a43aa7"},"vehicle_type_id":"4","last_reported":1726879364,"current_range_meters":34000,"station_id":"ce4bhm12rcd13ifvqgkg","pricing_plan_id":"cebpf4jnsgd1na2vs0mg"},{"bike_id":"f6ef3552-3f9a-4d61-acb2-a4d0e1d60976","system_id":"levelo_inurba_marseille","lat":43.30936,"lon":5.40145,"is_reserved":false,"is_disabled":false,"rental_uris":{"android":"levelo://app?vid=f6ef3552-3f9a-4d61-acb2-a4d0e1d60976","ios":"levelo://app?vid=f6ef3552-3f9a-4d61-acb2-a4d0e1d60976"},"vehicle_type_id":"4","last_reported":1726879364,"current_range_meters":20000,"station_id":"ce4bgvp2rcd13ifvqct0","pricing_plan_id":"cebpf4jnsgd1na2vs0mg"},{"bike_id":"ce176230-2a5f-4ff6-b56e-d284477422aa","system_id":"levelo_inurba_marseille","lat":43.31079,"lon":5.3835,"is_reserved":false,"is_disabled":false,"rental_uris":{"android":"levelo://app?vid=ce176230-2a5f-4ff6-b56e-d284477422aa","ios":"levelo://app?vid=ce176230-2a5f-4ff6-b56e-d284477422aa"},"vehicle_type_id":"4","last_reported":1726879364,"current_range_meters":35600,"station_id":"ce4bgv92rcd13ifvqcr0","pricing_plan_id":"cebpf4jnsgd1na2vs0mg"},{"bike_id":"9709b754-0f7e-4cdd-828f-ce7d6859c431","system_id":"levelo_inurba_marseille","lat":43.29254,"lon":5.40911,"is_reserved":false,"is_disabled":false,"rental_uris":{"android":"levelo://app?vid=9709b754-0f7e-4cdd-828f-ce7d6859c431","ios":"levelo://app?vid=9709b754-0f7e-4cdd-828f-ce7d6859c431"},"vehicle_type_id":"4","last_reported":1726879364,"current_range_meters":4400,"station_id":"ce4bh192rcd13ifvqdc0","pricing_plan_id":"cebpf4jnsgd1na2vs0mg"},{"bike_id":"c7578a98-3e33-46e3-8817-30f14b194cac","system_id":"levelo_inurba_marseille","lat":43.27483,"lon":5.42468,"is_reserved":false,"is_disabled":false,"rental_uris":{"android":"levelo://app?vid=c7578a98-3e33-46e3-8817-30f14b194cac","ios":"levelo://app?vid=c7578a98-3e33-46e3-8817-30f14b194cac"},"vehicle_type_id":"4","last_reported":1726879364,"current_range_meters":17200,"station_id":"ce4bhn92rcd13ifvqgrg","pricing_plan_id":"cebpf4jnsgd1na2vs0mg"},{"bike_id":"e24ec35c-a6fd-4e4d-86e7-6c421a88fb24","system_id":"levelo_inurba_marseille","lat":43.28101,"lon":5.37839,"is_reserved":false,"is_disabled":false,"rental_uris":{"android":"levelo://app?vid=e24ec35c-a6fd-4e4d-86e7-6c421a88fb24","ios":"levelo://app?vid=e24ec35c-a6fd-4e4d-86e7-6c421a88fb24"},"vehicle_type_id":"4","last_reported":1726879364,"current_range_meters":38000,"station_id":"ce4bha12rcd13ifvqee0","pricing_plan_id":"cebpf4jnsgd1na2vs0mg"},{"bike_id":"ce0f4ebe-c6f4-43f8-958e-af9ec114cf5f","system_id":"levelo_inurba_marseille","lat":43.28859,"lon":5.3585,"is_reserved":false,"is_disabled":false,"rental_uris":{"android":"levelo://app?vid=ce0f4ebe-c6f4-43f8-958e-af9ec114cf5f","ios":"levelo://app?vid=ce0f4ebe-c6f4-43f8-958e-af9ec114cf5f"},"vehicle_type_id":"4","last_reported":1726879364,"current_range_meters":21600,"station_id":"ce4bhb12rcd13ifvqem0","pricing_plan_id":"cebpf4jnsgd1na2vs0mg"},{"bike_id":"2188b4b9-eb3c-4242-979a-afef2c203940","system_id":"levelo_inurba_marseille","lat":43.2796,"lon":5.41072,"is_reserved":false,"is_disabled":false,"rental_uris":{"android":"levelo://app?vid=2188b4b9-eb3c-4242-979a-afef2c203940","ios":"levelo://app?vid=2188b4b9-eb3c-4242-979a-afef2c203940"},"vehicle_type_id":"4","last_reported":1726879364,"current_range_meters":24000,"station_id":"","pricing_plan_id":"cebpf4jnsgd1na2vs0mg"},{"bike_id":"a93e6372-1954-4033-be8e-f284dd6ded89","system_id":"levelo_inurba_marseille","lat":43.28102,"lon":5.37838,"is_reserved":false,"is_disabled":false,"rental_uris":{"android":"levelo://app?vid=a93e6372-1954-4033-be8e-f284dd6ded89","ios":"levelo://app?vid=a93e6372-1954-4033-be8e-f284dd6ded89"},"vehicle_type_id":"4","last_reported":1726879364,"current_range_meters":22400,"station_id":"ce4bha12rcd13ifvqee0","pricing_plan_id":"cebpf4jnsgd1na2vs0mg"},{"bike_id":"d2117dbc-82f6-4573-b901-959df1836ef1","system_id":"levelo_inurba_marseille","lat":43.31165,"lon":5.38716,"is_reserved":false,"is_disabled":false,"rental_uris":{"android":"levelo://app?vid=d2117dbc-82f6-4573-b901-959df1836ef1","ios":"levelo://app?vid=d2117dbc-82f6-4573-b901-959df1836ef1"},"vehicle_type_id":"4","last_reported":1726879364,"current_range_meters":11600,"station_id":"ce4bgv12rcd13ifvqcp0","pricing_plan_id":"cebpf4jnsgd1na2vs0mg"},{"bike_id":"3fad8533-0341-469f-8cac-7801c9551436","system_id":"levelo_inurba_marseille","lat":43.34137,"lon":5.40906,"is_reserved":false,"is_disabled":false,"rental_uris":{"android":"levelo://app?vid=3fad8533-0341-469f-8cac-7801c9551436","ios":"levelo://app?vid=3fad8533-0341-469f-8cac-7801c9551436"},"vehicle_type_id":"4","last_reported":1726879364,"current_range_meters":23200,"station_id":"ce4bhqh2rcd13ifvqhlg","pricing_plan_id":"cebpf4jnsgd1na2vs0mg"},{"bike_id":"952727d5-10c0-49c8-a6ee-a4efa34b8c23","system_id":"levelo_inurba_marseille","lat":43.23965,"lon":5.36634,"is_reserved":false,"is_disabled":false,"rental_uris":{"android":"levelo://app?vid=952727d5-10c0-49c8-a6ee-a4efa34b8c23","ios":"levelo://app?vid=952727d5-10c0-49c8-a6ee-a4efa34b8c23"},"vehicle_type_id":"4","last_reported":1726879364,"current_range_meters":28000,"station_id":"ce4bhi12rcd13ifvqfp0","pricing_plan_id":"cebpf4jnsgd1na2vs0mg"},{"bike_id":"a16f30a1-2218-406b-a3d9-f0ca21d1456b","system_id":"levelo_inurba_marseille","lat":43.31165,"lon":5.38708,"is_reserved":false,"is_disabled":false,"rental_uris":{"android":"levelo://app?vid=a16f30a1-2218-406b-a3d9-f0ca21d1456b","ios":"levelo://app?vid=a16f30a1-2218-406b-a3d9-f0ca21d1456b"},"vehicle_type_id":"4","last_reported":1726879364,"current_range_meters":18800,"station_id":"ce4bgv12rcd13ifvqcp0","pricing_plan_id":"cebpf4jnsgd1na2vs0mg"},{"bike_id":"d013d7f0-ca41-499b-a43a-d2a4d80ea6cc","system_id":"levelo_inurba_marseille","lat":43.29959,"lon":5.41318,"is_reserved":false,"is_disabled":false,"rental_uris":{"android":"levelo://app?vid=d013d7f0-ca41-499b-a43a-d2a4d80ea6cc","ios":"levelo://app?vid=d013d7f0-ca41-499b-a43a-d2a4d80ea6cc"},"vehicle_type_id":"4","last_reported":1726879364,"current_range_meters":38800,"station_id":"ce4bhp12rcd13ifvqh9g","pricing_plan_id":"cebpf4jnsgd1na2vs0mg"},{"bike_id":"df5e993e-296b-4f33-baf5-eb5fbb9ac75e","system_id":"levelo_inurba_marseille","lat":43.30418,"lon":5.41283,"is_reserved":false,"is_disabled":false,"rental_uris":{"android":"levelo://app?vid=df5e993e-296b-4f33-baf5-eb5fbb9ac75e","ios":"levelo://app?vid=df5e993e-296b-4f33-baf5-eb5fbb9ac75e"},"vehicle_type_id":"4","last_reported":1726879364,"current_range_meters":38800,"station_id":"ce4bhop2rcd13ifvqh8g","pricing_plan_id":"cebpf4jnsgd1na2vs0mg"},{"bike_id":"88aef844-3d5d-4355-afa4-98056f2807be","system_id":"levelo_inurba_marseille","lat":43.32656,"lon":5.40994,"is_reserved":false,"is_disabled":false,"rental_uris":{"android":"levelo://app?vid=88aef844-3d5d-4355-afa4-98056f2807be","ios":"levelo://app?vid=88aef844-3d5d-4355-afa4-98056f2807be"},"vehicle_type_id":"4","last_reported":1726879364,"current_range_meters":38800,"station_id":"ce4bhpp2rcd13ifvqhgg","pricing_plan_id":"cebpf4jnsgd1na2vs0mg"},{"bike_id":"fefc4a89-0a2a-40a3-8639-a1237b93aa5f","system_id":"levelo_inurba_marseille","lat":43.27944,"lon":5.41039,"is_reserved":false,"is_disabled":false,"rental_uris":{"android":"levelo://app?vid=fefc4a89-0a2a-40a3-8639-a1237b93aa5f","ios":"levelo://app?vid=fefc4a89-0a2a-40a3-8639-a1237b93aa5f"},"vehicle_type_id":"4","last_reported":1726879364,"current_range_meters":24400,"station_id":"ce4bhnp2rcd13ifvqh0g","pricing_plan_id":"cebpf4jnsgd1na2vs0mg"},{"bike_id":"75b9a238-0902-4923-870c-463b74d203bd","system_id":"levelo_inurba_marseille","lat":43.24664,"lon":5.38173,"is_reserved":false,"is_disabled":false,"rental_uris":{"android":"levelo://app?vid=75b9a238-0902-4923-870c-463b74d203bd","ios":"levelo://app?vid=75b9a238-0902-4923-870c-463b74d203bd"},"vehicle_type_id":"4","last_reported":1726879364,"current_range_meters":38800,"station_id":"ce4bhih2rcd13ifvqfr0","pricing_plan_id":"cebpf4jnsgd1na2vs0mg"},{"bike_id":"787888e2-6206-46d5-a768-f37fbf332ec0","system_id":"levelo_inurba_marseille","lat":43.25115,"lon":5.40316,"is_reserved":false,"is_disabled":false,"rental_uris":{"android":"levelo://app?vid=787888e2-6206-46d5-a768-f37fbf332ec0","ios":"levelo://app?vid=787888e2-6206-46d5-a768-f37fbf332ec0"},"vehicle_type_id":"4","last_reported":1726879364,"current_range_meters":26800,"station_id":"ce4bhlh2rcd13ifvqgig","pricing_plan_id":"cebpf4jnsgd1na2vs0mg"},{"bike_id":"3cea86a1-9a58-478d-b244-957f4139aef0","system_id":"levelo_inurba_marseille","lat":43.336,"lon":5.4101,"is_reserved":false,"is_disabled":false,"rental_uris":{"android":"levelo://app?vid=3cea86a1-9a58-478d-b244-957f4139aef0","ios":"levelo://app?vid=3cea86a1-9a58-478d-b244-957f4139aef0"},"vehicle_type_id":"4","last_reported":1726879364,"current_range_meters":38400,"station_id":"ce4bhqh2rcd13ifvqhmg","pricing_plan_id":"cebpf4jnsgd1na2vs0mg"},{"bike_id":"00f53691-2b59-4db9-b44d-413d6ca88a52","system_id":"levelo_inurba_marseille","lat":43.23974,"lon":5.36615,"is_reserved":false,"is_disabled":false,"rental_uris":{"android":"levelo://app?vid=00f53691-2b59-4db9-b44d-413d6ca88a52","ios":"levelo://app?vid=00f53691-2b59-4db9-b44d-413d6ca88a52"},"vehicle_type_id":"4","last_reported":1726879364,"current_range_meters":8800,"station_id":"ce4bhi12rcd13ifvqfp0","pricing_plan_id":"cebpf4jnsgd1na2vs0mg"},{"bike_id":"4688c789-e271-4691-8ae6-46b92b1e6e9b","system_id":"levelo_inurba_marseille","lat":43.25583,"lon":5.38228,"is_reserved":false,"is_disabled":false,"rental_uris":{"android":"levelo://app?vid=4688c789-e271-4691-8ae6-46b92b1e6e9b","ios":"levelo://app?vid=4688c789-e271-4691-8ae6-46b92b1e6e9b"},"vehicle_type_id":"4","last_reported":1726879364,"current_range_meters":32800,"station_id":"ce4bhih2rcd13ifvqfs0","pricing_plan_id":"cebpf4jnsgd1na2vs0mg"},{"bike_id":"7f78d056-c97b-4db3-8458-15db8bdcc510","system_id":"levelo_inurba_marseille","lat":43.27669,"lon":5.38898,"is_reserved":false,"is_disabled":false,"rental_uris":{"android":"levelo://app?vid=7f78d056-c97b-4db3-8458-15db8bdcc510","ios":"levelo://app?vid=7f78d056-c97b-4db3-8458-15db8bdcc510"},"vehicle_type_id":"4","last_reported":1726879364,"current_range_meters":11600,"station_id":"ce4bhi12rcd13ifvqfo0","pricing_plan_id":"cebpf4jnsgd1na2vs0mg"},{"bike_id":"257a419d-0eb9-4304-bf32-b7ae767798e2","system_id":"levelo_inurba_marseille","lat":43.28698,"lon":5.39971,"is_reserved":false,"is_disabled":false,"rental_uris":{"android":"levelo://app?vid=257a419d-0eb9-4304-bf32-b7ae767798e2","ios":"levelo://app?vid=257a419d-0eb9-4304-bf32-b7ae767798e2"},"vehicle_type_id":"4","last_reported":1726879364,"current_range_meters":6400,"station_id":"ce4bho92rcd13ifvqh3g","pricing_plan_id":"cebpf4jnsgd1na2vs0mg"},{"bike_id":"83e5d7e1-b7a2-47dc-871d-a20fbcd4f395","system_id":"levelo_inurba_marseille","lat":43.265764,"lon":5.390066,"is_reserved":false,"is_disabled":false,"rental_uris":{"android":"levelo://app?vid=83e5d7e1-b7a2-47dc-871d-a20fbcd4f395","ios":"levelo://app?vid=83e5d7e1-b7a2-47dc-871d-a20fbcd4f395"},"vehicle_type_id":"4","last_reported":1726879364,"current_range_meters":36000,"station_id":"ce4bhe12rcd13ifvqf30","pricing_plan_id":"cebpf4jnsgd1na2vs0mg"},{"bike_id":"548ff5e8-4be6-4fa2-b210-beb1ef8053de","system_id":"levelo_inurba_marseille","lat":43.33024,"lon":5.39041,"is_reserved":false,"is_disabled":false,"rental_uris":{"android":"levelo://app?vid=548ff5e8-4be6-4fa2-b210-beb1ef8053de","ios":"levelo://app?vid=548ff5e8-4be6-4fa2-b210-beb1ef8053de"},"vehicle_type_id":"4","last_reported":1726879364,"current_range_meters":19200,"station_id":"ce4bhr92rcd13ifvqhrg","pricing_plan_id":"cebpf4jnsgd1na2vs0mg"},{"bike_id":"3f133c78-0fe0-41df-9f9a-759a5497f987","system_id":"levelo_inurba_marseille","lat":43.30881,"lon":5.3719,"is_reserved":false,"is_disabled":false,"rental_uris":{"android":"levelo://app?vid=3f133c78-0fe0-41df-9f9a-759a5497f987","ios":"levelo://app?vid=3f133c78-0fe0-41df-9f9a-759a5497f987"},"vehicle_type_id":"4","last_reported":1726879364,"current_range_meters":38800,"station_id":"ce4bguh2rcd13ifvqckg","pricing_plan_id":"cebpf4jnsgd1na2vs0mg"},{"bike_id":"b44f3cd0-6668-407e-84bc-7a73e32c0c41","system_id":"levelo_inurba_marseille","lat":43.27182,"lon":5.40988,"is_reserved":false,"is_disabled":false,"rental_uris":{"android":"levelo://app?vid=b44f3cd0-6668-407e-84bc-7a73e32c0c41","ios":"levelo://app?vid=b44f3cd0-6668-407e-84bc-7a73e32c0c41"},"vehicle_type_id":"4","last_reported":1726879364,"current_range_meters":26800,"station_id":"ce4bhl12rcd13ifvqgf0","pricing_plan_id":"cebpf4jnsgd1na2vs0mg"},{"bike_id":"41a2b490-767a-4eef-80db-88a86b57be07","system_id":"levelo_inurba_marseille","lat":43.30885,"lon":5.3963,"is_reserved":false,"is_disabled":false,"rental_uris":{"android":"levelo://app?vid=41a2b490-767a-4eef-80db-88a86b57be07","ios":"levelo://app?vid=41a2b490-767a-4eef-80db-88a86b57be07"},"vehicle_type_id":"4","last_reported":1726879364,"current_range_meters":24800,"station_id":"ce4bh012rcd13ifvqcv0","pricing_plan_id":"cebpf4jnsgd1na2vs0mg"},{"bike_id":"c08606db-3118-487a-b455-a556aa036562","system_id":"levelo_inurba_marseille","lat":43.30799,"lon":5.43529,"is_reserved":false,"is_disabled":false,"rental_uris":{"android":"levelo://app?vid=c08606db-3118-487a-b455-a556aa036562","ios":"levelo://app?vid=c08606db-3118-487a-b455-a556aa036562"},"vehicle_type_id":"4","last_reported":1726879364,"current_range_meters":22800,"station_id":"ce4bhph2rcd13ifvqheg","pricing_plan_id":"cebpf4jnsgd1na2vs0mg"},{"bike_id":"ee7da271-2586-49b9-8b27-7c1d2ffc4c67","system_id":"levelo_inurba_marseille","lat":43.25111,"lon":5.40332,"is_reserved":false,"is_disabled":false,"rental_uris":{"android":"levelo://app?vid=ee7da271-2586-49b9-8b27-7c1d2ffc4c67","ios":"levelo://app?vid=ee7da271-2586-49b9-8b27-7c1d2ffc4c67"},"vehicle_type_id":"4","last_reported":1726879364,"current_range_meters":30800,"station_id":"ce4bhlh2rcd13ifvqgig","pricing_plan_id":"cebpf4jnsgd1na2vs0mg"},{"bike_id":"395e7bf1-ef0f-4e7e-8553-0ab6663d872d","system_id":"levelo_inurba_marseille","lat":43.28916,"lon":5.36643,"is_reserved":false,"is_disabled":false,"rental_uris":{"android":"levelo://app?vid=395e7bf1-ef0f-4e7e-8553-0ab6663d872d","ios":"levelo://app?vid=395e7bf1-ef0f-4e7e-8553-0ab6663d872d"},"vehicle_type_id":"4","last_reported":1726879364,"current_range_meters":38800,"station_id":"ce4bhap2rcd13ifvqek0","pricing_plan_id":"cebpf4jnsgd1na2vs0mg"},{"bike_id":"46b66742-8367-4779-8589-b1fd80c508c3","system_id":"levelo_inurba_marseille","lat":43.27831,"lon":5.39205,"is_reserved":false,"is_disabled":false,"rental_uris":{"android":"levelo://app?vid=46b66742-8367-4779-8589-b1fd80c508c3","ios":"levelo://app?vid=46b66742-8367-4779-8589-b1fd80c508c3"},"vehicle_type_id":"4","last_reported":1726879364,"current_range_meters":38800,"station_id":"ce4bhjp2rcd13ifvqga0","pricing_plan_id":"cebpf4jnsgd1na2vs0mg"},{"bike_id":"5ad68b21-42f9-465d-b5fc-d8834da799a7","system_id":"levelo_inurba_marseille","lat":43.28702,"lon":5.39972,"is_reserved":false,"is_disabled":false,"rental_uris":{"android":"levelo://app?vid=5ad68b21-42f9-465d-b5fc-d8834da799a7","ios":"levelo://app?vid=5ad68b21-42f9-465d-b5fc-d8834da799a7"},"vehicle_type_id":"4","last_reported":1726879364,"current_range_meters":26000,"station_id":"ce4bho92rcd13ifvqh3g","pricing_plan_id":"cebpf4jnsgd1na2vs0mg"},{"bike_id":"acfd38db-e93b-4b83-9afa-11e828273dc3","system_id":"levelo_inurba_marseille","lat":43.33022,"lon":5.39038,"is_reserved":false,"is_disabled":false,"rental_uris":{"android":"levelo://app?vid=acfd38db-e93b-4b83-9afa-11e828273dc3","ios":"levelo://app?vid=acfd38db-e93b-4b83-9afa-11e828273dc3"},"vehicle_type_id":"4","last_reported":1726879364,"current_range_meters":5600,"station_id":"ce4bhr92rcd13ifvqhrg","pricing_plan_id":"cebpf4jnsgd1na2vs0mg"},{"bike_id":"4054ff49-dc3a-424d-9e09-451ef9607aae","system_id":"levelo_inurba_marseille","lat":43.29368,"lon":5.40858,"is_reserved":false,"is_disabled":false,"rental_uris":{"android":"levelo://app?vid=4054ff49-dc3a-424d-9e09-451ef9607aae","ios":"levelo://app?vid=4054ff49-dc3a-424d-9e09-451ef9607aae"},"vehicle_type_id":"4","last_reported":1726879364,"current_range_meters":6800,"station_id":"","pricing_plan_id":"cebpf4jnsgd1na2vs0mg"},{"bike_id":"66275b8c-4851-4d18-a4a5-380e9fa79d13","system_id":"levelo_inurba_marseille","lat":43.29051,"lon":5.35909,"is_reserved":false,"is_disabled":false,"rental_uris":{"android":"levelo://app?vid=66275b8c-4851-4d18-a4a5-380e9fa79d13","ios":"levelo://app?vid=66275b8c-4851-4d18-a4a5-380e9fa79d13"},"vehicle_type_id":"4","last_reported":1726879364,"current_range_meters":27200,"station_id":"ce4bha92rcd13ifvqeg0","pricing_plan_id":"cebpf4jnsgd1na2vs0mg"},{"bike_id":"dcae2268-a29f-4f09-9355-c9605b71386d","system_id":"levelo_inurba_marseille","lat":43.3133,"lon":5.39694,"is_reserved":false,"is_disabled":false,"rental_uris":{"android":"levelo://app?vid=dcae2268-a29f-4f09-9355-c9605b71386d","ios":"levelo://app?vid=dcae2268-a29f-4f09-9355-c9605b71386d"},"vehicle_type_id":"4","last_reported":1726879364,"current_range_meters":8000,"station_id":"ce4bgvp2rcd13ifvqcu0","pricing_plan_id":"cebpf4jnsgd1na2vs0mg"},{"bike_id":"3a6e0322-7429-403f-8a90-fe1a74b837aa","system_id":"levelo_inurba_marseille","lat":43.29416,"lon":5.38617,"is_reserved":false,"is_disabled":false,"rental_uris":{"android":"levelo://app?vid=3a6e0322-7429-403f-8a90-fe1a74b837aa","ios":"levelo://app?vid=3a6e0322-7429-403f-8a90-fe1a74b837aa"},"vehicle_type_id":"4","last_reported":1726879364,"current_range_meters":1600,"station_id":"ce4bh2h2rcd13ifvqdh0","pricing_plan_id":"cebpf4jnsgd1na2vs0mg"},{"bike_id":"ab97a94b-fd42-419b-beef-be9196f65238","system_id":"levelo_inurba_marseille","lat":43.23179,"lon":5.39995,"is_reserved":false,"is_disabled":false,"rental_uris":{"android":"levelo://app?vid=ab97a94b-fd42-419b-beef-be9196f65238","ios":"levelo://app?vid=ab97a94b-fd42-419b-beef-be9196f65238"},"vehicle_type_id":"4","last_reported":1726879364,"current_range_meters":24800,"station_id":"ce4bhn12rcd13ifvqgqg","pricing_plan_id":"cebpf4jnsgd1na2vs0mg"},{"bike_id":"2e500453-4f8f-49e2-8bf2-b2eee74029b8","system_id":"levelo_inurba_marseille","lat":43.29265,"lon":5.40121,"is_reserved":false,"is_disabled":false,"rental_uris":{"android":"levelo://app?vid=2e500453-4f8f-49e2-8bf2-b2eee74029b8","ios":"levelo://app?vid=2e500453-4f8f-49e2-8bf2-b2eee74029b8"},"vehicle_type_id":"4","last_reported":1726879364,"current_range_meters":36400,"station_id":"ce4bh312rcd13ifvqdk0","pricing_plan_id":"cebpf4jnsgd1na2vs0mg"},{"bike_id":"8599327e-7a38-42cc-bae8-5460e681ba0a","system_id":"levelo_inurba_marseille","lat":43.31754,"lon":5.39022,"is_reserved":false,"is_disabled":false,"rental_uris":{"android":"levelo://app?vid=8599327e-7a38-42cc-bae8-5460e681ba0a","ios":"levelo://app?vid=8599327e-7a38-42cc-bae8-5460e681ba0a"},"vehicle_type_id":"4","last_reported":1726879364,"current_range_meters":38400,"station_id":"ce4bhqp2rcd13ifvqhng","pricing_plan_id":"cebpf4jnsgd1na2vs0mg"},{"bike_id":"39a2ab1a-7c49-4add-8dec-5efebd8dc7f4","system_id":"levelo_inurba_marseille","lat":43.27918,"lon":5.39578,"is_reserved":false,"is_disabled":false,"rental_uris":{"android":"levelo://app?vid=39a2ab1a-7c49-4add-8dec-5efebd8dc7f4","ios":"levelo://app?vid=39a2ab1a-7c49-4add-8dec-5efebd8dc7f4"},"vehicle_type_id":"4","last_reported":1726879364,"current_range_meters":36400,"station_id":"ce4bhf92rcd13ifvqf40","pricing_plan_id":"cebpf4jnsgd1na2vs0mg"},{"bike_id":"2a7db943-6265-4479-9604-043d344eb7a6","system_id":"levelo_inurba_marseille","lat":43.30279,"lon":5.38393,"is_reserved":false,"is_disabled":false,"rental_uris":{"android":"levelo://app?vid=2a7db943-6265-4479-9604-043d344eb7a6","ios":"levelo://app?vid=2a7db943-6265-4479-9604-043d344eb7a6"},"vehicle_type_id":"4","last_reported":1726879364,"current_range_meters":25600,"station_id":"","pricing_plan_id":"cebpf4jnsgd1na2vs0mg"},{"bike_id":"1ac0a20c-401d-4777-af73-d334affd0e09","system_id":"levelo_inurba_marseille","lat":43.2509,"lon":5.39513,"is_reserved":false,"is_disabled":false,"rental_uris":{"android":"levelo://app?vid=1ac0a20c-401d-4777-af73-d334affd0e09","ios":"levelo://app?vid=1ac0a20c-401d-4777-af73-d334affd0e09"},"vehicle_type_id":"4","last_reported":1726879364,"current_range_meters":38800,"station_id":"ce4bhm12rcd13ifvqgkg","pricing_plan_id":"cebpf4jnsgd1na2vs0mg"},{"bike_id":"b8afe22f-c0f3-483c-bb5f-6071483e5e25","system_id":"levelo_inurba_marseille","lat":43.25932,"lon":5.409,"is_reserved":false,"is_disabled":false,"rental_uris":{"android":"levelo://app?vid=b8afe22f-c0f3-483c-bb5f-6071483e5e25","ios":"levelo://app?vid=b8afe22f-c0f3-483c-bb5f-6071483e5e25"},"vehicle_type_id":"4","last_reported":1726879364,"current_range_meters":33200,"station_id":"ce4bhm92rcd13ifvqglg","pricing_plan_id":"cebpf4jnsgd1na2vs0mg"},{"bike_id":"d75153d7-6268-408b-82e9-0b51bc241dc3","system_id":"levelo_inurba_marseille","lat":43.28415,"lon":5.37519,"is_reserved":false,"is_disabled":false,"rental_uris":{"android":"levelo://app?vid=d75153d7-6268-408b-82e9-0b51bc241dc3","ios":"levelo://app?vid=d75153d7-6268-408b-82e9-0b51bc241dc3"},"vehicle_type_id":"4","last_reported":1726879364,"current_range_meters":30400,"station_id":"ce4bh412rcd13ifvqds0","pricing_plan_id":"cebpf4jnsgd1na2vs0mg"},{"bike_id":"832d8542-8876-4751-8855-58bf8b86e2c4","system_id":"levelo_inurba_marseille","lat":43.30297,"lon":5.39213,"is_reserved":false,"is_disabled":false,"rental_uris":{"android":"levelo://app?vid=832d8542-8876-4751-8855-58bf8b86e2c4","ios":"levelo://app?vid=832d8542-8876-4751-8855-58bf8b86e2c4"},"vehicle_type_id":"4","last_reported":1726879364,"current_range_meters":38000,"station_id":"ce4bgkh2rcd13ifvqbk0","pricing_plan_id":"cebpf4jnsgd1na2vs0mg"},{"bike_id":"b8c4fb30-143a-40da-a94d-ac106aff7dd4","system_id":"levelo_inurba_marseille","lat":43.31261,"lon":5.40164,"is_reserved":false,"is_disabled":false,"rental_uris":{"android":"levelo://app?vid=b8c4fb30-143a-40da-a94d-ac106aff7dd4","ios":"levelo://app?vid=b8c4fb30-143a-40da-a94d-ac106aff7dd4"},"vehicle_type_id":"4","last_reported":1726879364,"current_range_meters":7200,"station_id":"ce4bh092rcd13ifvqd30","pricing_plan_id":"cebpf4jnsgd1na2vs0mg"},{"bike_id":"edfb1ff5-b81b-4225-8da9-100a9115b1e3","system_id":"levelo_inurba_marseille","lat":43.29735,"lon":5.36561,"is_reserved":false,"is_disabled":false,"rental_uris":{"android":"levelo://app?vid=edfb1ff5-b81b-4225-8da9-100a9115b1e3","ios":"levelo://app?vid=edfb1ff5-b81b-4225-8da9-100a9115b1e3"},"vehicle_type_id":"4","last_reported":1726879364,"current_range_meters":10800,"station_id":"","pricing_plan_id":"cebpf4jnsgd1na2vs0mg"},{"bike_id":"4538c702-8de4-4b33-9ab0-2b4d17415cc2","system_id":"levelo_inurba_marseille","lat":43.24798,"lon":5.37455,"is_reserved":false,"is_disabled":false,"rental_uris":{"android":"levelo://app?vid=4538c702-8de4-4b33-9ab0-2b4d17415cc2","ios":"levelo://app?vid=4538c702-8de4-4b33-9ab0-2b4d17415cc2"},"vehicle_type_id":"4","last_reported":1726879364,"current_range_meters":18800,"station_id":"ce4bhgh2rcd13ifvqfb0","pricing_plan_id":"cebpf4jnsgd1na2vs0mg"},{"bike_id":"0df805ca-5348-4169-979d-f0b036f1fe02","system_id":"levelo_inurba_marseille","lat":43.31992,"lon":5.3815,"is_reserved":false,"is_disabled":false,"rental_uris":{"android":"levelo://app?vid=0df805ca-5348-4169-979d-f0b036f1fe02","ios":"levelo://app?vid=0df805ca-5348-4169-979d-f0b036f1fe02"},"vehicle_type_id":"4","last_reported":1726879364,"current_range_meters":20800,"station_id":"ce4bhr12rcd13ifvqhpg","pricing_plan_id":"cebpf4jnsgd1na2vs0mg"},{"bike_id":"9b593e1a-bf66-49e3-9157-adba3e02bd78","system_id":"levelo_inurba_marseille","lat":43.30121,"lon":5.39179,"is_reserved":false,"is_disabled":false,"rental_uris":{"android":"levelo://app?vid=9b593e1a-bf66-49e3-9157-adba3e02bd78","ios":"levelo://app?vid=9b593e1a-bf66-49e3-9157-adba3e02bd78"},"vehicle_type_id":"4","last_reported":1726879364,"current_range_meters":24400,"station_id":"","pricing_plan_id":"cebpf4jnsgd1na2vs0mg"},{"bike_id":"35de92f8-d509-4165-a969-76652f8aba59","system_id":"levelo_inurba_marseille","lat":43.30928,"lon":5.40179,"is_reserved":false,"is_disabled":false,"rental_uris":{"android":"levelo://app?vid=35de92f8-d509-4165-a969-76652f8aba59","ios":"levelo://app?vid=35de92f8-d509-4165-a969-76652f8aba59"},"vehicle_type_id":"4","last_reported":1726879364,"current_range_meters":18000,"station_id":"ce4bgvp2rcd13ifvqct0","pricing_plan_id":"cebpf4jnsgd1na2vs0mg"},{"bike_id":"a46f474a-57e8-44f2-96d1-7f0a8dde5b54","system_id":"levelo_inurba_marseille","lat":43.2407,"lon":5.37755,"is_reserved":false,"is_disabled":false,"rental_uris":{"android":"levelo://app?vid=a46f474a-57e8-44f2-96d1-7f0a8dde5b54","ios":"levelo://app?vid=a46f474a-57e8-44f2-96d1-7f0a8dde5b54"},"vehicle_type_id":"4","last_reported":1726879364,"current_range_meters":37600,"station_id":"ce4bhnp2rcd13ifvqgvg","pricing_plan_id":"cebpf4jnsgd1na2vs0mg"},{"bike_id":"569ff18e-9975-467c-9c41-e82126f03fcb","system_id":"levelo_inurba_marseille","lat":43.26053,"lon":5.39388,"is_reserved":false,"is_disabled":false,"rental_uris":{"android":"levelo://app?vid=569ff18e-9975-467c-9c41-e82126f03fcb","ios":"levelo://app?vid=569ff18e-9975-467c-9c41-e82126f03fcb"},"vehicle_type_id":"4","last_reported":1726879364,"current_range_meters":40000,"station_id":"ce4bhh92rcd13ifvqfj0","pricing_plan_id":"cebpf4jnsgd1na2vs0mg"},{"bike_id":"c47aba76-dd8d-4b6e-9b2b-3c45cf9e5115","system_id":"levelo_inurba_marseille","lat":43.31066,"lon":5.38352,"is_reserved":false,"is_disabled":false,"rental_uris":{"android":"levelo://app?vid=c47aba76-dd8d-4b6e-9b2b-3c45cf9e5115","ios":"levelo://app?vid=c47aba76-dd8d-4b6e-9b2b-3c45cf9e5115"},"vehicle_type_id":"4","last_reported":1726879364,"current_range_meters":26000,"station_id":"ce4bgv92rcd13ifvqcr0","pricing_plan_id":"cebpf4jnsgd1na2vs0mg"},{"bike_id":"e4cd288b-58e9-4c73-81ff-0e54d332441e","system_id":"levelo_inurba_marseille","lat":43.3302,"lon":5.39038,"is_reserved":false,"is_disabled":false,"rental_uris":{"android":"levelo://app?vid=e4cd288b-58e9-4c73-81ff-0e54d332441e","ios":"levelo://app?vid=e4cd288b-58e9-4c73-81ff-0e54d332441e"},"vehicle_type_id":"4","last_reported":1726879364,"current_range_meters":18800,"station_id":"ce4bhr92rcd13ifvqhrg","pricing_plan_id":"cebpf4jnsgd1na2vs0mg"},{"bike_id":"72964c67-6aed-4707-911d-186df8a12b64","system_id":"levelo_inurba_marseille","lat":43.32333,"lon":5.40617,"is_reserved":false,"is_disabled":false,"rental_uris":{"android":"levelo://app?vid=72964c67-6aed-4707-911d-186df8a12b64","ios":"levelo://app?vid=72964c67-6aed-4707-911d-186df8a12b64"},"vehicle_type_id":"4","last_reported":1726879364,"current_range_meters":39200,"station_id":"ce4bhq92rcd13ifvqhjg","pricing_plan_id":"cebpf4jnsgd1na2vs0mg"},{"bike_id":"b4d8cc2f-08fa-447c-98aa-3fb508700768","system_id":"levelo_inurba_marseille","lat":43.28949,"lon":5.35777,"is_reserved":false,"is_disabled":false,"rental_uris":{"android":"levelo://app?vid=b4d8cc2f-08fa-447c-98aa-3fb508700768","ios":"levelo://app?vid=b4d8cc2f-08fa-447c-98aa-3fb508700768"},"vehicle_type_id":"4","last_reported":1726879364,"current_range_meters":6800,"station_id":"","pricing_plan_id":"cebpf4jnsgd1na2vs0mg"},{"bike_id":"a1110c0e-ff10-4328-aae2-5b52cd8cd3a7","system_id":"levelo_inurba_marseille","lat":43.28475,"lon":5.3856,"is_reserved":false,"is_disabled":false,"rental_uris":{"android":"levelo://app?vid=a1110c0e-ff10-4328-aae2-5b52cd8cd3a7","ios":"levelo://app?vid=a1110c0e-ff10-4328-aae2-5b52cd8cd3a7"},"vehicle_type_id":"4","last_reported":1726879364,"current_range_meters":32800,"station_id":"ce4bh8p2rcd13ifvqeb0","pricing_plan_id":"cebpf4jnsgd1na2vs0mg"},{"bike_id":"f21eab61-d138-4b2f-83ff-2d501b8fe47e","system_id":"levelo_inurba_marseille","lat":43.27487,"lon":5.42455,"is_reserved":false,"is_disabled":false,"rental_uris":{"android":"levelo://app?vid=f21eab61-d138-4b2f-83ff-2d501b8fe47e","ios":"levelo://app?vid=f21eab61-d138-4b2f-83ff-2d501b8fe47e"},"vehicle_type_id":"4","last_reported":1726879364,"current_range_meters":33600,"station_id":"ce4bhn92rcd13ifvqgrg","pricing_plan_id":"cebpf4jnsgd1na2vs0mg"},{"bike_id":"53b0d88c-3ddb-4e2e-a1d5-9ea3b0a5c6d1","system_id":"levelo_inurba_marseille","lat":43.31331,"lon":5.39692,"is_reserved":false,"is_disabled":false,"rental_uris":{"android":"levelo://app?vid=53b0d88c-3ddb-4e2e-a1d5-9ea3b0a5c6d1","ios":"levelo://app?vid=53b0d88c-3ddb-4e2e-a1d5-9ea3b0a5c6d1"},"vehicle_type_id":"4","last_reported":1726879364,"current_range_meters":28400,"station_id":"ce4bgvp2rcd13ifvqcu0","pricing_plan_id":"cebpf4jnsgd1na2vs0mg"},{"bike_id":"bcd9d067-b093-4910-baae-4106d4c6d258","system_id":"levelo_inurba_marseille","lat":43.29221,"lon":5.36045,"is_reserved":false,"is_disabled":false,"rental_uris":{"android":"levelo://app?vid=bcd9d067-b093-4910-baae-4106d4c6d258","ios":"levelo://app?vid=bcd9d067-b093-4910-baae-4106d4c6d258"},"vehicle_type_id":"4","last_reported":1726879364,"current_range_meters":38800,"station_id":"ce4bhbh2rcd13ifvqeqg","pricing_plan_id":"cebpf4jnsgd1na2vs0mg"},{"bike_id":"8db99277-90a2-45d9-aafa-536ff23cacde","system_id":"levelo_inurba_marseille","lat":43.31335,"lon":5.39699,"is_reserved":false,"is_disabled":false,"rental_uris":{"android":"levelo://app?vid=8db99277-90a2-45d9-aafa-536ff23cacde","ios":"levelo://app?vid=8db99277-90a2-45d9-aafa-536ff23cacde"},"vehicle_type_id":"4","last_reported":1726879364,"current_range_meters":38800,"station_id":"ce4bgvp2rcd13ifvqcu0","pricing_plan_id":"cebpf4jnsgd1na2vs0mg"},{"bike_id":"330482f2-d873-4633-9ec5-b762c61cd676","system_id":"levelo_inurba_marseille","lat":43.30535,"lon":5.38428,"is_reserved":false,"is_disabled":false,"rental_uris":{"android":"levelo://app?vid=330482f2-d873-4633-9ec5-b762c61cd676","ios":"levelo://app?vid=330482f2-d873-4633-9ec5-b762c61cd676"},"vehicle_type_id":"4","last_reported":1726879364,"current_range_meters":18800,"station_id":"ce4bgg92rcd13ifvqb30","pricing_plan_id":"cebpf4jnsgd1na2vs0mg"},{"bike_id":"c4ffebf7-570f-4e93-a597-25b4f6edf95e","system_id":"levelo_inurba_marseille","lat":43.28708,"lon":5.39984,"is_reserved":false,"is_disabled":false,"rental_uris":{"android":"levelo://app?vid=c4ffebf7-570f-4e93-a597-25b4f6edf95e","ios":"levelo://app?vid=c4ffebf7-570f-4e93-a597-25b4f6edf95e"},"vehicle_type_id":"4","last_reported":1726879364,"current_range_meters":38800,"station_id":"ce4bho92rcd13ifvqh3g","pricing_plan_id":"cebpf4jnsgd1na2vs0mg"},{"bike_id":"a551c994-df60-4a90-b372-694301157325","system_id":"levelo_inurba_marseille","lat":43.29259,"lon":5.40915,"is_reserved":false,"is_disabled":false,"rental_uris":{"android":"levelo://app?vid=a551c994-df60-4a90-b372-694301157325","ios":"levelo://app?vid=a551c994-df60-4a90-b372-694301157325"},"vehicle_type_id":"4","last_reported":1726879364,"current_range_meters":38800,"station_id":"ce4bh192rcd13ifvqdc0","pricing_plan_id":"cebpf4jnsgd1na2vs0mg"},{"bike_id":"8e9dbe47-337f-4dc5-a191-5ff772ee52d9","system_id":"levelo_inurba_marseille","lat":43.30888,"lon":5.37195,"is_reserved":false,"is_disabled":false,"rental_uris":{"android":"levelo://app?vid=8e9dbe47-337f-4dc5-a191-5ff772ee52d9","ios":"levelo://app?vid=8e9dbe47-337f-4dc5-a191-5ff772ee52d9"},"vehicle_type_id":"4","last_reported":1726879364,"current_range_meters":3200,"station_id":"ce4bguh2rcd13ifvqckg","pricing_plan_id":"cebpf4jnsgd1na2vs0mg"},{"bike_id":"6247911d-3b1a-4b71-bb29-f64d3346857c","system_id":"levelo_inurba_marseille","lat":43.30784,"lon":5.37652,"is_reserved":false,"is_disabled":false,"rental_uris":{"android":"levelo://app?vid=6247911d-3b1a-4b71-bb29-f64d3346857c","ios":"levelo://app?vid=6247911d-3b1a-4b71-bb29-f64d3346857c"},"vehicle_type_id":"4","last_reported":1726879364,"current_range_meters":23200,"station_id":"ce4bgv92rcd13ifvqcq0","pricing_plan_id":"cebpf4jnsgd1na2vs0mg"},{"bike_id":"f7ad2e7a-a575-4361-994a-0ff95a85d018","system_id":"levelo_inurba_marseille","lat":43.30646,"lon":5.3719,"is_reserved":false,"is_disabled":false,"rental_uris":{"android":"levelo://app?vid=f7ad2e7a-a575-4361-994a-0ff95a85d018","ios":"levelo://app?vid=f7ad2e7a-a575-4361-994a-0ff95a85d018"},"vehicle_type_id":"4","last_reported":1726879364,"current_range_meters":4800,"station_id":"","pricing_plan_id":"cebpf4jnsgd1na2vs0mg"},{"bike_id":"6dc6f439-d4f1-41c9-b6a4-732401976389","system_id":"levelo_inurba_marseille","lat":43.26674,"lon":5.38267,"is_reserved":false,"is_disabled":false,"rental_uris":{"android":"levelo://app?vid=6dc6f439-d4f1-41c9-b6a4-732401976389","ios":"levelo://app?vid=6dc6f439-d4f1-41c9-b6a4-732401976389"},"vehicle_type_id":"4","last_reported":1726879364,"current_range_meters":24800,"station_id":"ce4bhg92rcd13ifvqf90","pricing_plan_id":"cebpf4jnsgd1na2vs0mg"},{"bike_id":"0e158a29-89b5-4d61-827e-b2d1804dcd54","system_id":"levelo_inurba_marseille","lat":43.27833,"lon":5.3921,"is_reserved":false,"is_disabled":false,"rental_uris":{"android":"levelo://app?vid=0e158a29-89b5-4d61-827e-b2d1804dcd54","ios":"levelo://app?vid=0e158a29-89b5-4d61-827e-b2d1804dcd54"},"vehicle_type_id":"4","last_reported":1726879364,"current_range_meters":18800,"station_id":"ce4bhjp2rcd13ifvqga0","pricing_plan_id":"cebpf4jnsgd1na2vs0mg"},{"bike_id":"382b83cf-ea4e-4bb0-8ac1-627f9b837cc0","system_id":"levelo_inurba_marseille","lat":43.30596,"lon":5.37227,"is_reserved":false,"is_disabled":false,"rental_uris":{"android":"levelo://app?vid=382b83cf-ea4e-4bb0-8ac1-627f9b837cc0","ios":"levelo://app?vid=382b83cf-ea4e-4bb0-8ac1-627f9b837cc0"},"vehicle_type_id":"4","last_reported":1726879364,"current_range_meters":26000,"station_id":"ce4bgqh2rcd13ifvqc4g","pricing_plan_id":"cebpf4jnsgd1na2vs0mg"},{"bike_id":"5a375672-8adf-4f3f-b8a0-82973eabacfd","system_id":"levelo_inurba_marseille","lat":43.31267,"lon":5.40174,"is_reserved":false,"is_disabled":false,"rental_uris":{"android":"levelo://app?vid=5a375672-8adf-4f3f-b8a0-82973eabacfd","ios":"levelo://app?vid=5a375672-8adf-4f3f-b8a0-82973eabacfd"},"vehicle_type_id":"4","last_reported":1726879364,"current_range_meters":38800,"station_id":"ce4bh092rcd13ifvqd30","pricing_plan_id":"cebpf4jnsgd1na2vs0mg"},{"bike_id":"841546c0-6dca-4af6-955b-6e5b4bf0d05c","system_id":"levelo_inurba_marseille","lat":43.29248,"lon":5.40903,"is_reserved":false,"is_disabled":false,"rental_uris":{"android":"levelo://app?vid=841546c0-6dca-4af6-955b-6e5b4bf0d05c","ios":"levelo://app?vid=841546c0-6dca-4af6-955b-6e5b4bf0d05c"},"vehicle_type_id":"4","last_reported":1726879364,"current_range_meters":33600,"station_id":"ce4bh192rcd13ifvqdc0","pricing_plan_id":"cebpf4jnsgd1na2vs0mg"},{"bike_id":"cc1442f2-df9d-4ef9-a449-bab001c25afc","system_id":"levelo_inurba_marseille","lat":43.280354,"lon":5.369553,"is_reserved":false,"is_disabled":false,"rental_uris":{"android":"levelo://app?vid=cc1442f2-df9d-4ef9-a449-bab001c25afc","ios":"levelo://app?vid=cc1442f2-df9d-4ef9-a449-bab001c25afc"},"vehicle_type_id":"4","last_reported":1726879364,"current_range_meters":37600,"station_id":"ce4bha12rcd13ifvqef0","pricing_plan_id":"cebpf4jnsgd1na2vs0mg"},{"bike_id":"b6151a23-09dc-4601-8e6f-a15a516cd21e","system_id":"levelo_inurba_marseille","lat":43.27423,"lon":5.39399,"is_reserved":false,"is_disabled":false,"rental_uris":{"android":"levelo://app?vid=b6151a23-09dc-4601-8e6f-a15a516cd21e","ios":"levelo://app?vid=b6151a23-09dc-4601-8e6f-a15a516cd21e"},"vehicle_type_id":"4","last_reported":1726879364,"current_range_meters":37600,"station_id":"ce4bhdp2rcd13ifvqf20","pricing_plan_id":"cebpf4jnsgd1na2vs0mg"},{"bike_id":"5840a821-7b4a-4179-8856-92a74917e83c","system_id":"levelo_inurba_marseille","lat":43.24999,"lon":5.38923,"is_reserved":false,"is_disabled":false,"rental_uris":{"android":"levelo://app?vid=5840a821-7b4a-4179-8856-92a74917e83c","ios":"levelo://app?vid=5840a821-7b4a-4179-8856-92a74917e83c"},"vehicle_type_id":"4","last_reported":1726879364,"current_range_meters":38800,"station_id":"ce4bhgp2rcd13ifvqfd0","pricing_plan_id":"cebpf4jnsgd1na2vs0mg"},{"bike_id":"53aa3265-3aae-4710-98ee-70d60e85c676","system_id":"levelo_inurba_marseille","lat":43.29889,"lon":5.39726,"is_reserved":false,"is_disabled":false,"rental_uris":{"android":"levelo://app?vid=53aa3265-3aae-4710-98ee-70d60e85c676","ios":"levelo://app?vid=53aa3265-3aae-4710-98ee-70d60e85c676"},"vehicle_type_id":"4","last_reported":1726879364,"current_range_meters":10000,"station_id":"ce4bh0h2rcd13ifvqd50","pricing_plan_id":"cebpf4jnsgd1na2vs0mg"},{"bike_id":"f30670e1-1de8-4985-82be-d26441c3c41c","system_id":"levelo_inurba_marseille","lat":43.28469,"lon":5.35884,"is_reserved":false,"is_disabled":false,"rental_uris":{"android":"levelo://app?vid=f30670e1-1de8-4985-82be-d26441c3c41c","ios":"levelo://app?vid=f30670e1-1de8-4985-82be-d26441c3c41c"},"vehicle_type_id":"4","last_reported":1726879364,"current_range_meters":39200,"station_id":"ce4bhah2rcd13ifvqei0","pricing_plan_id":"cebpf4jnsgd1na2vs0mg"},{"bike_id":"5419b1bf-d37c-4076-a34c-52ede101758e","system_id":"levelo_inurba_marseille","lat":43.337444,"lon":5.374475,"is_reserved":false,"is_disabled":false,"rental_uris":{"android":"levelo://app?vid=5419b1bf-d37c-4076-a34c-52ede101758e","ios":"levelo://app?vid=5419b1bf-d37c-4076-a34c-52ede101758e"},"vehicle_type_id":"4","last_reported":1726879364,"current_range_meters":35200,"station_id":"","pricing_plan_id":"cebpf4jnsgd1na2vs0mg"},{"bike_id":"c33e9d45-7b28-4509-86fe-867e95c1321a","system_id":"levelo_inurba_marseille","lat":43.336,"lon":5.41027,"is_reserved":false,"is_disabled":false,"rental_uris":{"android":"levelo://app?vid=c33e9d45-7b28-4509-86fe-867e95c1321a","ios":"levelo://app?vid=c33e9d45-7b28-4509-86fe-867e95c1321a"},"vehicle_type_id":"4","last_reported":1726879364,"current_range_meters":38800,"station_id":"ce4bhqh2rcd13ifvqhmg","pricing_plan_id":"cebpf4jnsgd1na2vs0mg"},{"bike_id":"b44f0900-5f12-4df5-a67a-3a29d1a8d8d5","system_id":"levelo_inurba_marseille","lat":43.30603,"lon":5.37211,"is_reserved":false,"is_disabled":false,"rental_uris":{"android":"levelo://app?vid=b44f0900-5f12-4df5-a67a-3a29d1a8d8d5","ios":"levelo://app?vid=b44f0900-5f12-4df5-a67a-3a29d1a8d8d5"},"vehicle_type_id":"4","last_reported":1726879364,"current_range_meters":32400,"station_id":"ce4bgqh2rcd13ifvqc4g","pricing_plan_id":"cebpf4jnsgd1na2vs0mg"},{"bike_id":"f7575c27-994c-406f-8323-578b38c16d91","system_id":"levelo_inurba_marseille","lat":43.28733,"lon":5.36537,"is_reserved":false,"is_disabled":false,"rental_uris":{"android":"levelo://app?vid=f7575c27-994c-406f-8323-578b38c16d91","ios":"levelo://app?vid=f7575c27-994c-406f-8323-578b38c16d91"},"vehicle_type_id":"4","last_reported":1726879364,"current_range_meters":33600,"station_id":"","pricing_plan_id":"cebpf4jnsgd1na2vs0mg"},{"bike_id":"f55d82a5-a2f1-4a59-a6a0-790c179f4953","system_id":"levelo_inurba_marseille","lat":43.29887,"lon":5.43663,"is_reserved":false,"is_disabled":false,"rental_uris":{"android":"levelo://app?vid=f55d82a5-a2f1-4a59-a6a0-790c179f4953","ios":"levelo://app?vid=f55d82a5-a2f1-4a59-a6a0-790c179f4953"},"vehicle_type_id":"4","last_reported":1726879364,"current_range_meters":32000,"station_id":"ce4bhpp2rcd13ifvqhfg","pricing_plan_id":"cebpf4jnsgd1na2vs0mg"},{"bike_id":"dbb8d6a4-ff29-4846-a1f6-0ca042986f97","system_id":"levelo_inurba_marseille","lat":43.27813,"lon":5.40707,"is_reserved":false,"is_disabled":false,"rental_uris":{"android":"levelo://app?vid=dbb8d6a4-ff29-4846-a1f6-0ca042986f97","ios":"levelo://app?vid=dbb8d6a4-ff29-4846-a1f6-0ca042986f97"},"vehicle_type_id":"4","last_reported":1726879364,"current_range_meters":25200,"station_id":"ce4bhnh2rcd13ifvqgtg","pricing_plan_id":"cebpf4jnsgd1na2vs0mg"},{"bike_id":"a020a923-89fb-4175-829b-bdb01d885f9c","system_id":"levelo_inurba_marseille","lat":43.23058,"lon":5.35491,"is_reserved":false,"is_disabled":false,"rental_uris":{"android":"levelo://app?vid=a020a923-89fb-4175-829b-bdb01d885f9c","ios":"levelo://app?vid=a020a923-89fb-4175-829b-bdb01d885f9c"},"vehicle_type_id":"4","last_reported":1726879364,"current_range_meters":30000,"station_id":"cpo3342slgdg3j2ifvpg","pricing_plan_id":"cebpf4jnsgd1na2vs0mg"},{"bike_id":"a9603a9a-3575-4d61-8297-7e9985c61899","system_id":"levelo_inurba_marseille","lat":43.30799,"lon":5.38142,"is_reserved":false,"is_disabled":false,"rental_uris":{"android":"levelo://app?vid=a9603a9a-3575-4d61-8297-7e9985c61899","ios":"levelo://app?vid=a9603a9a-3575-4d61-8297-7e9985c61899"},"vehicle_type_id":"4","last_reported":1726879364,"current_range_meters":6400,"station_id":"ce4bgt12rcd13ifvqce0","pricing_plan_id":"cebpf4jnsgd1na2vs0mg"},{"bike_id":"742a3543-343d-45b9-b876-36b8d248039c","system_id":"levelo_inurba_marseille","lat":43.28103,"lon":5.37842,"is_reserved":false,"is_disabled":false,"rental_uris":{"android":"levelo://app?vid=742a3543-343d-45b9-b876-36b8d248039c","ios":"levelo://app?vid=742a3543-343d-45b9-b876-36b8d248039c"},"vehicle_type_id":"4","last_reported":1726879364,"current_range_meters":39200,"station_id":"ce4bha12rcd13ifvqee0","pricing_plan_id":"cebpf4jnsgd1na2vs0mg"},{"bike_id":"5899dc76-4576-41fc-91db-67e269faacc4","system_id":"levelo_inurba_marseille","lat":43.31758,"lon":5.39014,"is_reserved":false,"is_disabled":false,"rental_uris":{"android":"levelo://app?vid=5899dc76-4576-41fc-91db-67e269faacc4","ios":"levelo://app?vid=5899dc76-4576-41fc-91db-67e269faacc4"},"vehicle_type_id":"4","last_reported":1726879364,"current_range_meters":38800,"station_id":"ce4bhqp2rcd13ifvqhng","pricing_plan_id":"cebpf4jnsgd1na2vs0mg"},{"bike_id":"5f096d7e-445f-4f25-b9c1-08961d1d650e","system_id":"levelo_inurba_marseille","lat":43.27909,"lon":5.39571,"is_reserved":false,"is_disabled":false,"rental_uris":{"android":"levelo://app?vid=5f096d7e-445f-4f25-b9c1-08961d1d650e","ios":"levelo://app?vid=5f096d7e-445f-4f25-b9c1-08961d1d650e"},"vehicle_type_id":"4","last_reported":1726879364,"current_range_meters":38800,"station_id":"ce4bhf92rcd13ifvqf40","pricing_plan_id":"cebpf4jnsgd1na2vs0mg"},{"bike_id":"6e2fd8fb-799c-468d-a60b-38d2bf81aa37","system_id":"levelo_inurba_marseille","lat":43.23957,"lon":5.36614,"is_reserved":false,"is_disabled":false,"rental_uris":{"android":"levelo://app?vid=6e2fd8fb-799c-468d-a60b-38d2bf81aa37","ios":"levelo://app?vid=6e2fd8fb-799c-468d-a60b-38d2bf81aa37"},"vehicle_type_id":"4","last_reported":1726879364,"current_range_meters":6000,"station_id":"ce4bhi12rcd13ifvqfp0","pricing_plan_id":"cebpf4jnsgd1na2vs0mg"},{"bike_id":"010cdbb2-cdbe-48c0-bc62-a8e1c006b540","system_id":"levelo_inurba_marseille","lat":43.31271,"lon":5.40166,"is_reserved":false,"is_disabled":false,"rental_uris":{"android":"levelo://app?vid=010cdbb2-cdbe-48c0-bc62-a8e1c006b540","ios":"levelo://app?vid=010cdbb2-cdbe-48c0-bc62-a8e1c006b540"},"vehicle_type_id":"4","last_reported":1726879364,"current_range_meters":14800,"station_id":"ce4bh092rcd13ifvqd30","pricing_plan_id":"cebpf4jnsgd1na2vs0mg"},{"bike_id":"fb730c85-cef2-43fb-877c-de273059500e","system_id":"levelo_inurba_marseille","lat":43.3176,"lon":5.39021,"is_reserved":false,"is_disabled":false,"rental_uris":{"android":"levelo://app?vid=fb730c85-cef2-43fb-877c-de273059500e","ios":"levelo://app?vid=fb730c85-cef2-43fb-877c-de273059500e"},"vehicle_type_id":"4","last_reported":1726879364,"current_range_meters":32000,"station_id":"ce4bhqp2rcd13ifvqhng","pricing_plan_id":"cebpf4jnsgd1na2vs0mg"},{"bike_id":"5bf617b6-2eea-40a9-9576-9b6f0fdecd15","system_id":"levelo_inurba_marseille","lat":43.32362,"lon":5.38882,"is_reserved":false,"is_disabled":false,"rental_uris":{"android":"levelo://app?vid=5bf617b6-2eea-40a9-9576-9b6f0fdecd15","ios":"levelo://app?vid=5bf617b6-2eea-40a9-9576-9b6f0fdecd15"},"vehicle_type_id":"4","last_reported":1726879364,"current_range_meters":19200,"station_id":"ce4bhqp2rcd13ifvqhog","pricing_plan_id":"cebpf4jnsgd1na2vs0mg"},{"bike_id":"8de964f3-991f-47cb-98ab-ed6130191177","system_id":"levelo_inurba_marseille","lat":43.24384,"lon":5.37052,"is_reserved":false,"is_disabled":false,"rental_uris":{"android":"levelo://app?vid=8de964f3-991f-47cb-98ab-ed6130191177","ios":"levelo://app?vid=8de964f3-991f-47cb-98ab-ed6130191177"},"vehicle_type_id":"4","last_reported":1726879364,"current_range_meters":37600,"station_id":"ce4bhhh2rcd13ifvqfk0","pricing_plan_id":"cebpf4jnsgd1na2vs0mg"},{"bike_id":"53bc04ae-f552-44a5-9019-52e8300f3399","system_id":"levelo_inurba_marseille","lat":43.32483,"lon":5.36551,"is_reserved":false,"is_disabled":false,"rental_uris":{"android":"levelo://app?vid=53bc04ae-f552-44a5-9019-52e8300f3399","ios":"levelo://app?vid=53bc04ae-f552-44a5-9019-52e8300f3399"},"vehicle_type_id":"4","last_reported":1726879364,"current_range_meters":30800,"station_id":"ce4bhs12rcd13ifvqhvg","pricing_plan_id":"cebpf4jnsgd1na2vs0mg"},{"bike_id":"559f0939-ccb7-449e-bcbe-22dedfce5dda","system_id":"levelo_inurba_marseille","lat":43.28561,"lon":5.38424,"is_reserved":false,"is_disabled":false,"rental_uris":{"android":"levelo://app?vid=559f0939-ccb7-449e-bcbe-22dedfce5dda","ios":"levelo://app?vid=559f0939-ccb7-449e-bcbe-22dedfce5dda"},"vehicle_type_id":"4","last_reported":1726879364,"current_range_meters":3200,"station_id":"","pricing_plan_id":"cebpf4jnsgd1na2vs0mg"},{"bike_id":"759751c6-00ff-4153-a15e-ad962e27e329","system_id":"levelo_inurba_marseille","lat":43.28929,"lon":5.36388,"is_reserved":false,"is_disabled":false,"rental_uris":{"android":"levelo://app?vid=759751c6-00ff-4153-a15e-ad962e27e329","ios":"levelo://app?vid=759751c6-00ff-4153-a15e-ad962e27e329"},"vehicle_type_id":"4","last_reported":1726879364,"current_range_meters":37600,"station_id":"ce4bhc92rcd13ifvqetg","pricing_plan_id":"cebpf4jnsgd1na2vs0mg"},{"bike_id":"40b30bf1-df0a-47fd-bf93-8f163c982ffe","system_id":"levelo_inurba_marseille","lat":43.32288,"lon":5.38276,"is_reserved":false,"is_disabled":false,"rental_uris":{"android":"levelo://app?vid=40b30bf1-df0a-47fd-bf93-8f163c982ffe","ios":"levelo://app?vid=40b30bf1-df0a-47fd-bf93-8f163c982ffe"},"vehicle_type_id":"4","last_reported":1726879364,"current_range_meters":36800,"station_id":"ce4bhr12rcd13ifvqhqg","pricing_plan_id":"cebpf4jnsgd1na2vs0mg"},{"bike_id":"cb1fb9f3-3e9a-497c-bbb7-d797dbb42c5f","system_id":"levelo_inurba_marseille","lat":43.29955,"lon":5.41319,"is_reserved":false,"is_disabled":false,"rental_uris":{"android":"levelo://app?vid=cb1fb9f3-3e9a-497c-bbb7-d797dbb42c5f","ios":"levelo://app?vid=cb1fb9f3-3e9a-497c-bbb7-d797dbb42c5f"},"vehicle_type_id":"4","last_reported":1726879364,"current_range_meters":25600,"station_id":"ce4bhp12rcd13ifvqh9g","pricing_plan_id":"cebpf4jnsgd1na2vs0mg"},{"bike_id":"46bf82bc-1a52-4468-903a-8570c5761b27","system_id":"levelo_inurba_marseille","lat":43.26781,"lon":5.39414,"is_reserved":false,"is_disabled":false,"rental_uris":{"android":"levelo://app?vid=46bf82bc-1a52-4468-903a-8570c5761b27","ios":"levelo://app?vid=46bf82bc-1a52-4468-903a-8570c5761b27"},"vehicle_type_id":"4","last_reported":1726879364,"current_range_meters":10000,"station_id":"ce4bhh12rcd13ifvqfg0","pricing_plan_id":"cebpf4jnsgd1na2vs0mg"},{"bike_id":"f72cb613-ba3a-4223-90e0-592c62d11e1c","system_id":"levelo_inurba_marseille","lat":43.28704,"lon":5.39993,"is_reserved":false,"is_disabled":false,"rental_uris":{"android":"levelo://app?vid=f72cb613-ba3a-4223-90e0-592c62d11e1c","ios":"levelo://app?vid=f72cb613-ba3a-4223-90e0-592c62d11e1c"},"vehicle_type_id":"4","last_reported":1726879364,"current_range_meters":26000,"station_id":"ce4bho92rcd13ifvqh3g","pricing_plan_id":"cebpf4jnsgd1na2vs0mg"},{"bike_id":"546ee6bf-55f8-4946-bcee-e7096c9be4b7","system_id":"levelo_inurba_marseille","lat":43.24388,"lon":5.37062,"is_reserved":false,"is_disabled":false,"rental_uris":{"android":"levelo://app?vid=546ee6bf-55f8-4946-bcee-e7096c9be4b7","ios":"levelo://app?vid=546ee6bf-55f8-4946-bcee-e7096c9be4b7"},"vehicle_type_id":"4","last_reported":1726879364,"current_range_meters":28000,"station_id":"ce4bhhh2rcd13ifvqfk0","pricing_plan_id":"cebpf4jnsgd1na2vs0mg"},{"bike_id":"714c6da7-f17d-4349-a15a-585a7c09856d","system_id":"levelo_inurba_marseille","lat":43.28865,"lon":5.39312,"is_reserved":false,"is_disabled":false,"rental_uris":{"android":"levelo://app?vid=714c6da7-f17d-4349-a15a-585a7c09856d","ios":"levelo://app?vid=714c6da7-f17d-4349-a15a-585a7c09856d"},"vehicle_type_id":"4","last_reported":1726879364,"current_range_meters":27600,"station_id":"ce4bh2p2rcd13ifvqdi0","pricing_plan_id":"cebpf4jnsgd1na2vs0mg"},{"bike_id":"2633e599-bd28-40d3-b331-ac739c663b27","system_id":"levelo_inurba_marseille","lat":43.32482,"lon":5.36556,"is_reserved":false,"is_disabled":false,"rental_uris":{"android":"levelo://app?vid=2633e599-bd28-40d3-b331-ac739c663b27","ios":"levelo://app?vid=2633e599-bd28-40d3-b331-ac739c663b27"},"vehicle_type_id":"4","last_reported":1726879364,"current_range_meters":18800,"station_id":"ce4bhs12rcd13ifvqhvg","pricing_plan_id":"cebpf4jnsgd1na2vs0mg"},{"bike_id":"1032c0bc-2796-4700-9037-5d3e4470253f","system_id":"levelo_inurba_marseille","lat":43.28104,"lon":5.37835,"is_reserved":false,"is_disabled":false,"rental_uris":{"android":"levelo://app?vid=1032c0bc-2796-4700-9037-5d3e4470253f","ios":"levelo://app?vid=1032c0bc-2796-4700-9037-5d3e4470253f"},"vehicle_type_id":"4","last_reported":1726879364,"current_range_meters":14000,"station_id":"ce4bha12rcd13ifvqee0","pricing_plan_id":"cebpf4jnsgd1na2vs0mg"},{"bike_id":"40b4c6d2-1591-4c31-ba7e-28d863ceb674","system_id":"levelo_inurba_marseille","lat":43.30803,"lon":5.38149,"is_reserved":false,"is_disabled":false,"rental_uris":{"android":"levelo://app?vid=40b4c6d2-1591-4c31-ba7e-28d863ceb674","ios":"levelo://app?vid=40b4c6d2-1591-4c31-ba7e-28d863ceb674"},"vehicle_type_id":"4","last_reported":1726879364,"current_range_meters":34000,"station_id":"ce4bgt12rcd13ifvqce0","pricing_plan_id":"cebpf4jnsgd1na2vs0mg"},{"bike_id":"fa3733d3-bed3-4287-bc95-95d569077792","system_id":"levelo_inurba_marseille","lat":43.28714,"lon":5.39982,"is_reserved":false,"is_disabled":false,"rental_uris":{"android":"levelo://app?vid=fa3733d3-bed3-4287-bc95-95d569077792","ios":"levelo://app?vid=fa3733d3-bed3-4287-bc95-95d569077792"},"vehicle_type_id":"4","last_reported":1726879364,"current_range_meters":24000,"station_id":"ce4bho92rcd13ifvqh3g","pricing_plan_id":"cebpf4jnsgd1na2vs0mg"},{"bike_id":"6860e9db-5d98-45b4-aae5-0f2e9c653968","system_id":"levelo_inurba_marseille","lat":43.28936,"lon":5.36633,"is_reserved":false,"is_disabled":false,"rental_uris":{"android":"levelo://app?vid=6860e9db-5d98-45b4-aae5-0f2e9c653968","ios":"levelo://app?vid=6860e9db-5d98-45b4-aae5-0f2e9c653968"},"vehicle_type_id":"4","last_reported":1726879364,"current_range_meters":38800,"station_id":"ce4bhap2rcd13ifvqek0","pricing_plan_id":"cebpf4jnsgd1na2vs0mg"},{"bike_id":"ec55276f-77cb-4620-963f-fef2e0e52774","system_id":"levelo_inurba_marseille","lat":43.27898,"lon":5.38002,"is_reserved":false,"is_disabled":false,"rental_uris":{"android":"levelo://app?vid=ec55276f-77cb-4620-963f-fef2e0e52774","ios":"levelo://app?vid=ec55276f-77cb-4620-963f-fef2e0e52774"},"vehicle_type_id":"4","last_reported":1726879364,"current_range_meters":34000,"station_id":"ce4bhf92rcd13ifvqf50","pricing_plan_id":"cebpf4jnsgd1na2vs0mg"},{"bike_id":"f3130500-f401-4a62-ae18-128419f3b3e3","system_id":"levelo_inurba_marseille","lat":43.31274,"lon":5.40172,"is_reserved":false,"is_disabled":false,"rental_uris":{"android":"levelo://app?vid=f3130500-f401-4a62-ae18-128419f3b3e3","ios":"levelo://app?vid=f3130500-f401-4a62-ae18-128419f3b3e3"},"vehicle_type_id":"4","last_reported":1726879364,"current_range_meters":27200,"station_id":"ce4bh092rcd13ifvqd30","pricing_plan_id":"cebpf4jnsgd1na2vs0mg"},{"bike_id":"604c9531-be4f-4974-bfe2-bd7828d7386f","system_id":"levelo_inurba_marseille","lat":43.29888,"lon":5.43667,"is_reserved":false,"is_disabled":false,"rental_uris":{"android":"levelo://app?vid=604c9531-be4f-4974-bfe2-bd7828d7386f","ios":"levelo://app?vid=604c9531-be4f-4974-bfe2-bd7828d7386f"},"vehicle_type_id":"4","last_reported":1726879364,"current_range_meters":26000,"station_id":"ce4bhpp2rcd13ifvqhfg","pricing_plan_id":"cebpf4jnsgd1na2vs0mg"},{"bike_id":"c1310b37-dd83-4623-a074-f471af25c7d1","system_id":"levelo_inurba_marseille","lat":43.28436,"lon":5.39178,"is_reserved":false,"is_disabled":false,"rental_uris":{"android":"levelo://app?vid=c1310b37-dd83-4623-a074-f471af25c7d1","ios":"levelo://app?vid=c1310b37-dd83-4623-a074-f471af25c7d1"},"vehicle_type_id":"4","last_reported":1726879364,"current_range_meters":4800,"station_id":"ce4bhoh2rcd13ifvqh5g","pricing_plan_id":"cebpf4jnsgd1na2vs0mg"},{"bike_id":"713dca00-9221-4cd7-ac35-8f074cf6f847","system_id":"levelo_inurba_marseille","lat":43.31225,"lon":5.36889,"is_reserved":false,"is_disabled":false,"rental_uris":{"android":"levelo://app?vid=713dca00-9221-4cd7-ac35-8f074cf6f847","ios":"levelo://app?vid=713dca00-9221-4cd7-ac35-8f074cf6f847"},"vehicle_type_id":"4","last_reported":1726879364,"current_range_meters":35200,"station_id":"ce4bgl92rcd13ifvqbq0","pricing_plan_id":"cebpf4jnsgd1na2vs0mg"},{"bike_id":"ac541845-242c-4a0c-bbe9-2d2bbcb39d05","system_id":"levelo_inurba_marseille","lat":43.28001,"lon":5.40003,"is_reserved":false,"is_disabled":false,"rental_uris":{"android":"levelo://app?vid=ac541845-242c-4a0c-bbe9-2d2bbcb39d05","ios":"levelo://app?vid=ac541845-242c-4a0c-bbe9-2d2bbcb39d05"},"vehicle_type_id":"4","last_reported":1726879364,"current_range_meters":9600,"station_id":"ce4bho92rcd13ifvqh4g","pricing_plan_id":"cebpf4jnsgd1na2vs0mg"},{"bike_id":"e6bcdbe7-48f0-4335-bf4f-d7a22249ce5f","system_id":"levelo_inurba_marseille","lat":43.25115,"lon":5.40319,"is_reserved":false,"is_disabled":false,"rental_uris":{"android":"levelo://app?vid=e6bcdbe7-48f0-4335-bf4f-d7a22249ce5f","ios":"levelo://app?vid=e6bcdbe7-48f0-4335-bf4f-d7a22249ce5f"},"vehicle_type_id":"4","last_reported":1726879364,"current_range_meters":22400,"station_id":"ce4bhlh2rcd13ifvqgig","pricing_plan_id":"cebpf4jnsgd1na2vs0mg"},{"bike_id":"e9e47cf3-3119-455a-b8d6-6a1b1d8479ca","system_id":"levelo_inurba_marseille","lat":43.28699,"lon":5.39982,"is_reserved":false,"is_disabled":false,"rental_uris":{"android":"levelo://app?vid=e9e47cf3-3119-455a-b8d6-6a1b1d8479ca","ios":"levelo://app?vid=e9e47cf3-3119-455a-b8d6-6a1b1d8479ca"},"vehicle_type_id":"4","last_reported":1726879364,"current_range_meters":10000,"station_id":"ce4bho92rcd13ifvqh3g","pricing_plan_id":"cebpf4jnsgd1na2vs0mg"},{"bike_id":"f3f8e050-a1c2-48aa-b8de-726645beea4c","system_id":"levelo_inurba_marseille","lat":43.29048,"lon":5.35925,"is_reserved":false,"is_disabled":false,"rental_uris":{"android":"levelo://app?vid=f3f8e050-a1c2-48aa-b8de-726645beea4c","ios":"levelo://app?vid=f3f8e050-a1c2-48aa-b8de-726645beea4c"},"vehicle_type_id":"4","last_reported":1726879364,"current_range_meters":36800,"station_id":"ce4bha92rcd13ifvqeg0","pricing_plan_id":"cebpf4jnsgd1na2vs0mg"},{"bike_id":"b47f7abd-dffa-4594-ae10-66a4216fac59","system_id":"levelo_inurba_marseille","lat":43.31067,"lon":5.40084,"is_reserved":false,"is_disabled":false,"rental_uris":{"android":"levelo://app?vid=b47f7abd-dffa-4594-ae10-66a4216fac59","ios":"levelo://app?vid=b47f7abd-dffa-4594-ae10-66a4216fac59"},"vehicle_type_id":"4","last_reported":1726879364,"current_range_meters":38800,"station_id":"","pricing_plan_id":"cebpf4jnsgd1na2vs0mg"},{"bike_id":"a09b131e-b0a8-4938-a802-317747afbde1","system_id":"levelo_inurba_marseille","lat":43.29967,"lon":5.36939,"is_reserved":false,"is_disabled":false,"rental_uris":{"android":"levelo://app?vid=a09b131e-b0a8-4938-a802-317747afbde1","ios":"levelo://app?vid=a09b131e-b0a8-4938-a802-317747afbde1"},"vehicle_type_id":"4","last_reported":1726879364,"current_range_meters":6000,"station_id":"","pricing_plan_id":"cebpf4jnsgd1na2vs0mg"},{"bike_id":"b3a3e2cf-e173-4782-9560-348915a6093a","system_id":"levelo_inurba_marseille","lat":43.27175,"lon":5.40992,"is_reserved":false,"is_disabled":false,"rental_uris":{"android":"levelo://app?vid=b3a3e2cf-e173-4782-9560-348915a6093a","ios":"levelo://app?vid=b3a3e2cf-e173-4782-9560-348915a6093a"},"vehicle_type_id":"4","last_reported":1726879364,"current_range_meters":32400,"station_id":"ce4bhl12rcd13ifvqgf0","pricing_plan_id":"cebpf4jnsgd1na2vs0mg"},{"bike_id":"b9abb1c6-eda5-4086-8157-de0c63cc2402","system_id":"levelo_inurba_marseille","lat":43.28105,"lon":5.37837,"is_reserved":false,"is_disabled":false,"rental_uris":{"android":"levelo://app?vid=b9abb1c6-eda5-4086-8157-de0c63cc2402","ios":"levelo://app?vid=b9abb1c6-eda5-4086-8157-de0c63cc2402"},"vehicle_type_id":"4","last_reported":1726879364,"current_range_meters":17600,"station_id":"ce4bha12rcd13ifvqee0","pricing_plan_id":"cebpf4jnsgd1na2vs0mg"},{"bike_id":"542e2c69-6cd2-413d-9cfd-2c5f9a60a140","system_id":"levelo_inurba_marseille","lat":43.2407,"lon":5.37759,"is_reserved":false,"is_disabled":false,"rental_uris":{"android":"levelo://app?vid=542e2c69-6cd2-413d-9cfd-2c5f9a60a140","ios":"levelo://app?vid=542e2c69-6cd2-413d-9cfd-2c5f9a60a140"},"vehicle_type_id":"4","last_reported":1726879364,"current_range_meters":9200,"station_id":"ce4bhnp2rcd13ifvqgvg","pricing_plan_id":"cebpf4jnsgd1na2vs0mg"},{"bike_id":"f9c9be8e-ea20-4727-9516-26ff2df08de7","system_id":"levelo_inurba_marseille","lat":43.29958,"lon":5.41312,"is_reserved":false,"is_disabled":false,"rental_uris":{"android":"levelo://app?vid=f9c9be8e-ea20-4727-9516-26ff2df08de7","ios":"levelo://app?vid=f9c9be8e-ea20-4727-9516-26ff2df08de7"},"vehicle_type_id":"4","last_reported":1726879364,"current_range_meters":39200,"station_id":"ce4bhp12rcd13ifvqh9g","pricing_plan_id":"cebpf4jnsgd1na2vs0mg"},{"bike_id":"d038f6fe-b2d6-4097-a926-3366f3cea33d","system_id":"levelo_inurba_marseille","lat":43.28936,"lon":5.38407,"is_reserved":false,"is_disabled":false,"rental_uris":{"android":"levelo://app?vid=d038f6fe-b2d6-4097-a926-3366f3cea33d","ios":"levelo://app?vid=d038f6fe-b2d6-4097-a926-3366f3cea33d"},"vehicle_type_id":"4","last_reported":1726879364,"current_range_meters":38800,"station_id":"ce4bh612rcd13ifvqe6g","pricing_plan_id":"cebpf4jnsgd1na2vs0mg"},{"bike_id":"8273c267-5219-4186-8f32-c3e55203a7ac","system_id":"levelo_inurba_marseille","lat":43.23965,"lon":5.39702,"is_reserved":false,"is_disabled":false,"rental_uris":{"android":"levelo://app?vid=8273c267-5219-4186-8f32-c3e55203a7ac","ios":"levelo://app?vid=8273c267-5219-4186-8f32-c3e55203a7ac"},"vehicle_type_id":"4","last_reported":1726879364,"current_range_meters":7200,"station_id":"","pricing_plan_id":"cebpf4jnsgd1na2vs0mg"},{"bike_id":"79ae80ec-ee51-41e3-8d81-35eef174ac0d","system_id":"levelo_inurba_marseille","lat":43.29025,"lon":5.36957,"is_reserved":false,"is_disabled":false,"rental_uris":{"android":"levelo://app?vid=79ae80ec-ee51-41e3-8d81-35eef174ac0d","ios":"levelo://app?vid=79ae80ec-ee51-41e3-8d81-35eef174ac0d"},"vehicle_type_id":"4","last_reported":1726879364,"current_range_meters":12400,"station_id":"","pricing_plan_id":"cebpf4jnsgd1na2vs0mg"},{"bike_id":"9c92648a-f006-4167-bb4c-b3ce8835b4ad","system_id":"levelo_inurba_marseille","lat":43.31715,"lon":5.43701,"is_reserved":false,"is_disabled":false,"rental_uris":{"android":"levelo://app?vid=9c92648a-f006-4167-bb4c-b3ce8835b4ad","ios":"levelo://app?vid=9c92648a-f006-4167-bb4c-b3ce8835b4ad"},"vehicle_type_id":"4","last_reported":1726879364,"current_range_meters":38800,"station_id":"ce4bhp92rcd13ifvqhcg","pricing_plan_id":"cebpf4jnsgd1na2vs0mg"},{"bike_id":"0758898b-c621-4049-b058-e9cd0ceaa979","system_id":"levelo_inurba_marseille","lat":43.30461,"lon":5.37904,"is_reserved":false,"is_disabled":false,"rental_uris":{"android":"levelo://app?vid=0758898b-c621-4049-b058-e9cd0ceaa979","ios":"levelo://app?vid=0758898b-c621-4049-b058-e9cd0ceaa979"},"vehicle_type_id":"4","last_reported":1726879364,"current_range_meters":37600,"station_id":"ce4bgup2rcd13ifvqcn0","pricing_plan_id":"cebpf4jnsgd1na2vs0mg"},{"bike_id":"302824b9-3dd5-4019-865b-adb62674e635","system_id":"levelo_inurba_marseille","lat":43.22936,"lon":5.35377,"is_reserved":false,"is_disabled":false,"rental_uris":{"android":"levelo://app?vid=302824b9-3dd5-4019-865b-adb62674e635","ios":"levelo://app?vid=302824b9-3dd5-4019-865b-adb62674e635"},"vehicle_type_id":"4","last_reported":1726879364,"current_range_meters":32800,"station_id":"cpo3532slgdg3j2ikp40","pricing_plan_id":"cebpf4jnsgd1na2vs0mg"},{"bike_id":"59ff5b6d-f654-421c-9531-eb97a5647b8c","system_id":"levelo_inurba_marseille","lat":43.30247,"lon":5.40061,"is_reserved":false,"is_disabled":false,"rental_uris":{"android":"levelo://app?vid=59ff5b6d-f654-421c-9531-eb97a5647b8c","ios":"levelo://app?vid=59ff5b6d-f654-421c-9531-eb97a5647b8c"},"vehicle_type_id":"4","last_reported":1726879364,"current_range_meters":38000,"station_id":"ce4bgvh2rcd13ifvqcs0","pricing_plan_id":"cebpf4jnsgd1na2vs0mg"},{"bike_id":"05ce1cc7-1458-4b6f-b98b-b440ad978a7c","system_id":"levelo_inurba_marseille","lat":43.28575,"lon":5.39479,"is_reserved":false,"is_disabled":false,"rental_uris":{"android":"levelo://app?vid=05ce1cc7-1458-4b6f-b98b-b440ad978a7c","ios":"levelo://app?vid=05ce1cc7-1458-4b6f-b98b-b440ad978a7c"},"vehicle_type_id":"4","last_reported":1726879364,"current_range_meters":29600,"station_id":"ce4bh292rcd13ifvqdg0","pricing_plan_id":"cebpf4jnsgd1na2vs0mg"},{"bike_id":"42fac7e5-89b5-43a0-86e0-6d691ed14493","system_id":"levelo_inurba_marseille","lat":43.31264,"lon":5.40171,"is_reserved":false,"is_disabled":false,"rental_uris":{"android":"levelo://app?vid=42fac7e5-89b5-43a0-86e0-6d691ed14493","ios":"levelo://app?vid=42fac7e5-89b5-43a0-86e0-6d691ed14493"},"vehicle_type_id":"4","last_reported":1726879364,"current_range_meters":28400,"station_id":"ce4bh092rcd13ifvqd30","pricing_plan_id":"cebpf4jnsgd1na2vs0mg"},{"bike_id":"8e22fc24-4a7c-45aa-a5d9-f186ef2348cb","system_id":"levelo_inurba_marseille","lat":43.27996,"lon":5.41664,"is_reserved":false,"is_disabled":false,"rental_uris":{"android":"levelo://app?vid=8e22fc24-4a7c-45aa-a5d9-f186ef2348cb","ios":"levelo://app?vid=8e22fc24-4a7c-45aa-a5d9-f186ef2348cb"},"vehicle_type_id":"4","last_reported":1726879364,"current_range_meters":33600,"station_id":"ce4bho12rcd13ifvqh1g","pricing_plan_id":"cebpf4jnsgd1na2vs0mg"},{"bike_id":"fff9e145-8789-414d-bffe-2978cf0a6dc3","system_id":"levelo_inurba_marseille","lat":43.28457,"lon":5.35886,"is_reserved":false,"is_disabled":false,"rental_uris":{"android":"levelo://app?vid=fff9e145-8789-414d-bffe-2978cf0a6dc3","ios":"levelo://app?vid=fff9e145-8789-414d-bffe-2978cf0a6dc3"},"vehicle_type_id":"4","last_reported":1726879364,"current_range_meters":38800,"station_id":"ce4bhah2rcd13ifvqei0","pricing_plan_id":"cebpf4jnsgd1na2vs0mg"},{"bike_id":"8d9b6c12-9461-48b6-a20f-f6e98e0537c2","system_id":"levelo_inurba_marseille","lat":43.30331,"lon":5.40429,"is_reserved":false,"is_disabled":false,"rental_uris":{"android":"levelo://app?vid=8d9b6c12-9461-48b6-a20f-f6e98e0537c2","ios":"levelo://app?vid=8d9b6c12-9461-48b6-a20f-f6e98e0537c2"},"vehicle_type_id":"4","last_reported":1726879364,"current_range_meters":14000,"station_id":"ce4bh012rcd13ifvqd10","pricing_plan_id":"cebpf4jnsgd1na2vs0mg"},{"bike_id":"7db34aab-bb83-4943-a5a0-93955f52a4ec","system_id":"levelo_inurba_marseille","lat":43.33718,"lon":5.39178,"is_reserved":false,"is_disabled":false,"rental_uris":{"android":"levelo://app?vid=7db34aab-bb83-4943-a5a0-93955f52a4ec","ios":"levelo://app?vid=7db34aab-bb83-4943-a5a0-93955f52a4ec"},"vehicle_type_id":"4","last_reported":1726879364,"current_range_meters":38800,"station_id":"ce4bhr92rcd13ifvqhsg","pricing_plan_id":"cebpf4jnsgd1na2vs0mg"},{"bike_id":"d63454a7-1749-4b2e-9995-433038e7b1a4","system_id":"levelo_inurba_marseille","lat":43.29702,"lon":5.36618,"is_reserved":false,"is_disabled":false,"rental_uris":{"android":"levelo://app?vid=d63454a7-1749-4b2e-9995-433038e7b1a4","ios":"levelo://app?vid=d63454a7-1749-4b2e-9995-433038e7b1a4"},"vehicle_type_id":"4","last_reported":1726879364,"current_range_meters":33200,"station_id":"ce4bgn12rcd13ifvqbt0","pricing_plan_id":"cebpf4jnsgd1na2vs0mg"},{"bike_id":"f8756bd1-1b84-40a9-97cd-556eb9ea7069","system_id":"levelo_inurba_marseille","lat":43.3127,"lon":5.40156,"is_reserved":false,"is_disabled":false,"rental_uris":{"android":"levelo://app?vid=f8756bd1-1b84-40a9-97cd-556eb9ea7069","ios":"levelo://app?vid=f8756bd1-1b84-40a9-97cd-556eb9ea7069"},"vehicle_type_id":"4","last_reported":1726879364,"current_range_meters":38800,"station_id":"ce4bh092rcd13ifvqd30","pricing_plan_id":"cebpf4jnsgd1na2vs0mg"},{"bike_id":"d48f1906-adcd-45cb-a59f-a9353947a181","system_id":"levelo_inurba_marseille","lat":43.27826,"lon":5.3921,"is_reserved":false,"is_disabled":false,"rental_uris":{"android":"levelo://app?vid=d48f1906-adcd-45cb-a59f-a9353947a181","ios":"levelo://app?vid=d48f1906-adcd-45cb-a59f-a9353947a181"},"vehicle_type_id":"4","last_reported":1726879364,"current_range_meters":24000,"station_id":"ce4bhjp2rcd13ifvqga0","pricing_plan_id":"cebpf4jnsgd1na2vs0mg"},{"bike_id":"dce40237-e2bf-4a23-8c88-bc0cc0f841f8","system_id":"levelo_inurba_marseille","lat":43.27949,"lon":5.41041,"is_reserved":false,"is_disabled":false,"rental_uris":{"android":"levelo://app?vid=dce40237-e2bf-4a23-8c88-bc0cc0f841f8","ios":"levelo://app?vid=dce40237-e2bf-4a23-8c88-bc0cc0f841f8"},"vehicle_type_id":"4","last_reported":1726879364,"current_range_meters":26800,"station_id":"ce4bhnp2rcd13ifvqh0g","pricing_plan_id":"cebpf4jnsgd1na2vs0mg"},{"bike_id":"6c34ccae-402e-40b8-9c0d-2e7f312c8354","system_id":"levelo_inurba_marseille","lat":43.25493,"lon":5.3765,"is_reserved":false,"is_disabled":false,"rental_uris":{"android":"levelo://app?vid=6c34ccae-402e-40b8-9c0d-2e7f312c8354","ios":"levelo://app?vid=6c34ccae-402e-40b8-9c0d-2e7f312c8354"},"vehicle_type_id":"4","last_reported":1726879364,"current_range_meters":30000,"station_id":"ce4bhh12rcd13ifvqff0","pricing_plan_id":"cebpf4jnsgd1na2vs0mg"},{"bike_id":"2c4d5dd6-b3fc-4e99-ae10-37420ed7722b","system_id":"levelo_inurba_marseille","lat":43.31987,"lon":5.3814,"is_reserved":false,"is_disabled":false,"rental_uris":{"android":"levelo://app?vid=2c4d5dd6-b3fc-4e99-ae10-37420ed7722b","ios":"levelo://app?vid=2c4d5dd6-b3fc-4e99-ae10-37420ed7722b"},"vehicle_type_id":"4","last_reported":1726879364,"current_range_meters":38800,"station_id":"ce4bhr12rcd13ifvqhpg","pricing_plan_id":"cebpf4jnsgd1na2vs0mg"},{"bike_id":"23e5fcf4-4fac-4b05-9a6c-be73f5a6d743","system_id":"levelo_inurba_marseille","lat":43.28149,"lon":5.42639,"is_reserved":false,"is_disabled":false,"rental_uris":{"android":"levelo://app?vid=23e5fcf4-4fac-4b05-9a6c-be73f5a6d743","ios":"levelo://app?vid=23e5fcf4-4fac-4b05-9a6c-be73f5a6d743"},"vehicle_type_id":"4","last_reported":1726879364,"current_range_meters":20000,"station_id":"ce4bhnh2rcd13ifvqgug","pricing_plan_id":"cebpf4jnsgd1na2vs0mg"},{"bike_id":"c13d0fc5-3653-4034-b303-e733b4898e4b","system_id":"levelo_inurba_marseille","lat":43.28104,"lon":5.37836,"is_reserved":false,"is_disabled":false,"rental_uris":{"android":"levelo://app?vid=c13d0fc5-3653-4034-b303-e733b4898e4b","ios":"levelo://app?vid=c13d0fc5-3653-4034-b303-e733b4898e4b"},"vehicle_type_id":"4","last_reported":1726879364,"current_range_meters":4800,"station_id":"ce4bha12rcd13ifvqee0","pricing_plan_id":"cebpf4jnsgd1na2vs0mg"},{"bike_id":"39d4a54e-7d9f-413e-8656-86ac5427a3f0","system_id":"levelo_inurba_marseille","lat":43.2794,"lon":5.41038,"is_reserved":false,"is_disabled":false,"rental_uris":{"android":"levelo://app?vid=39d4a54e-7d9f-413e-8656-86ac5427a3f0","ios":"levelo://app?vid=39d4a54e-7d9f-413e-8656-86ac5427a3f0"},"vehicle_type_id":"4","last_reported":1726879364,"current_range_meters":16000,"station_id":"ce4bhnp2rcd13ifvqh0g","pricing_plan_id":"cebpf4jnsgd1na2vs0mg"},{"bike_id":"40e21d2c-4e69-4d5b-b1ff-38f4433c1826","system_id":"levelo_inurba_marseille","lat":43.24997,"lon":5.38933,"is_reserved":false,"is_disabled":false,"rental_uris":{"android":"levelo://app?vid=40e21d2c-4e69-4d5b-b1ff-38f4433c1826","ios":"levelo://app?vid=40e21d2c-4e69-4d5b-b1ff-38f4433c1826"},"vehicle_type_id":"4","last_reported":1726879364,"current_range_meters":33200,"station_id":"ce4bhgp2rcd13ifvqfd0","pricing_plan_id":"cebpf4jnsgd1na2vs0mg"},{"bike_id":"0039f2f3-724c-4e9c-ad07-303eb89fe473","system_id":"levelo_inurba_marseille","lat":43.2694,"lon":5.40249,"is_reserved":false,"is_disabled":false,"rental_uris":{"android":"levelo://app?vid=0039f2f3-724c-4e9c-ad07-303eb89fe473","ios":"levelo://app?vid=0039f2f3-724c-4e9c-ad07-303eb89fe473"},"vehicle_type_id":"4","last_reported":1726879364,"current_range_meters":28000,"station_id":"cjm6bp8fraef2m0cb0m0","pricing_plan_id":"cebpf4jnsgd1na2vs0mg"},{"bike_id":"7b9dd459-340b-4978-bfb0-6c163a5263e8","system_id":"levelo_inurba_marseille","lat":43.23189,"lon":5.35544,"is_reserved":false,"is_disabled":false,"rental_uris":{"android":"levelo://app?vid=7b9dd459-340b-4978-bfb0-6c163a5263e8","ios":"levelo://app?vid=7b9dd459-340b-4978-bfb0-6c163a5263e8"},"vehicle_type_id":"4","last_reported":1726879364,"current_range_meters":39200,"station_id":"ce4bhu92rcd13ifvqi70","pricing_plan_id":"cebpf4jnsgd1na2vs0mg"},{"bike_id":"0b34c002-1469-4f0b-b54e-0134780c2840","system_id":"levelo_inurba_marseille","lat":43.28935,"lon":5.36625,"is_reserved":false,"is_disabled":false,"rental_uris":{"android":"levelo://app?vid=0b34c002-1469-4f0b-b54e-0134780c2840","ios":"levelo://app?vid=0b34c002-1469-4f0b-b54e-0134780c2840"},"vehicle_type_id":"4","last_reported":1726879364,"current_range_meters":30000,"station_id":"ce4bhap2rcd13ifvqek0","pricing_plan_id":"cebpf4jnsgd1na2vs0mg"},{"bike_id":"89e844ff-c7a5-4a44-a0fd-67cf61de3b45","system_id":"levelo_inurba_marseille","lat":43.31075,"lon":5.38348,"is_reserved":false,"is_disabled":false,"rental_uris":{"android":"levelo://app?vid=89e844ff-c7a5-4a44-a0fd-67cf61de3b45","ios":"levelo://app?vid=89e844ff-c7a5-4a44-a0fd-67cf61de3b45"},"vehicle_type_id":"4","last_reported":1726879364,"current_range_meters":33600,"station_id":"ce4bgv92rcd13ifvqcr0","pricing_plan_id":"cebpf4jnsgd1na2vs0mg"},{"bike_id":"14af6286-56f0-4221-b0cf-f9a5d206a408","system_id":"levelo_inurba_marseille","lat":43.31071,"lon":5.38346,"is_reserved":false,"is_disabled":false,"rental_uris":{"android":"levelo://app?vid=14af6286-56f0-4221-b0cf-f9a5d206a408","ios":"levelo://app?vid=14af6286-56f0-4221-b0cf-f9a5d206a408"},"vehicle_type_id":"4","last_reported":1726879364,"current_range_meters":38800,"station_id":"ce4bgv92rcd13ifvqcr0","pricing_plan_id":"cebpf4jnsgd1na2vs0mg"},{"bike_id":"16b25c0b-3ab8-4750-b50d-0dc6846d7a80","system_id":"levelo_inurba_marseille","lat":43.28698,"lon":5.39979,"is_reserved":false,"is_disabled":false,"rental_uris":{"android":"levelo://app?vid=16b25c0b-3ab8-4750-b50d-0dc6846d7a80","ios":"levelo://app?vid=16b25c0b-3ab8-4750-b50d-0dc6846d7a80"},"vehicle_type_id":"4","last_reported":1726879364,"current_range_meters":33200,"station_id":"ce4bho92rcd13ifvqh3g","pricing_plan_id":"cebpf4jnsgd1na2vs0mg"},{"bike_id":"e9b8e590-3bc0-4c22-b946-0db314d5083d","system_id":"levelo_inurba_marseille","lat":43.25864,"lon":5.39904,"is_reserved":false,"is_disabled":false,"rental_uris":{"android":"levelo://app?vid=e9b8e590-3bc0-4c22-b946-0db314d5083d","ios":"levelo://app?vid=e9b8e590-3bc0-4c22-b946-0db314d5083d"},"vehicle_type_id":"4","last_reported":1726879364,"current_range_meters":8000,"station_id":"ce4bhl92rcd13ifvqghg","pricing_plan_id":"cebpf4jnsgd1na2vs0mg"},{"bike_id":"655232e5-dd47-4aeb-b051-4bd3e3ea8975","system_id":"levelo_inurba_marseille","lat":43.25717,"lon":5.41111,"is_reserved":false,"is_disabled":false,"rental_uris":{"android":"levelo://app?vid=655232e5-dd47-4aeb-b051-4bd3e3ea8975","ios":"levelo://app?vid=655232e5-dd47-4aeb-b051-4bd3e3ea8975"},"vehicle_type_id":"4","last_reported":1726879364,"current_range_meters":24400,"station_id":"ce4bhkp2rcd13ifvqgd0","pricing_plan_id":"cebpf4jnsgd1na2vs0mg"},{"bike_id":"3740c6df-06cd-419b-9ae6-b8d9e5eff548","system_id":"levelo_inurba_marseille","lat":43.2753,"lon":5.40935,"is_reserved":false,"is_disabled":false,"rental_uris":{"android":"levelo://app?vid=3740c6df-06cd-419b-9ae6-b8d9e5eff548","ios":"levelo://app?vid=3740c6df-06cd-419b-9ae6-b8d9e5eff548"},"vehicle_type_id":"4","last_reported":1726879364,"current_range_meters":20000,"station_id":"","pricing_plan_id":"cebpf4jnsgd1na2vs0mg"},{"bike_id":"31eacf0a-aee8-4c4e-91fa-2027a693bafe","system_id":"levelo_inurba_marseille","lat":43.30126,"lon":5.39857,"is_reserved":false,"is_disabled":false,"rental_uris":{"android":"levelo://app?vid=31eacf0a-aee8-4c4e-91fa-2027a693bafe","ios":"levelo://app?vid=31eacf0a-aee8-4c4e-91fa-2027a693bafe"},"vehicle_type_id":"4","last_reported":1726879364,"current_range_meters":28400,"station_id":"ce4bh0h2rcd13ifvqd40","pricing_plan_id":"cebpf4jnsgd1na2vs0mg"},{"bike_id":"1eb99371-cf70-4b1b-87cf-241f6c45a879","system_id":"levelo_inurba_marseille","lat":43.287872,"lon":5.379776,"is_reserved":false,"is_disabled":false,"rental_uris":{"android":"levelo://app?vid=1eb99371-cf70-4b1b-87cf-241f6c45a879","ios":"levelo://app?vid=1eb99371-cf70-4b1b-87cf-241f6c45a879"},"vehicle_type_id":"4","last_reported":1726879364,"current_range_meters":33200,"station_id":"","pricing_plan_id":"cebpf4jnsgd1na2vs0mg"},{"bike_id":"c6a5b1c0-1ce2-46f3-8262-a62ae2cf80bf","system_id":"levelo_inurba_marseille","lat":43.32655,"lon":5.40977,"is_reserved":false,"is_disabled":false,"rental_uris":{"android":"levelo://app?vid=c6a5b1c0-1ce2-46f3-8262-a62ae2cf80bf","ios":"levelo://app?vid=c6a5b1c0-1ce2-46f3-8262-a62ae2cf80bf"},"vehicle_type_id":"4","last_reported":1726879364,"current_range_meters":38800,"station_id":"ce4bhpp2rcd13ifvqhgg","pricing_plan_id":"cebpf4jnsgd1na2vs0mg"},{"bike_id":"51f5754a-5fa4-496b-92aa-8db5fb5c04c9","system_id":"levelo_inurba_marseille","lat":43.32334,"lon":5.4062,"is_reserved":false,"is_disabled":false,"rental_uris":{"android":"levelo://app?vid=51f5754a-5fa4-496b-92aa-8db5fb5c04c9","ios":"levelo://app?vid=51f5754a-5fa4-496b-92aa-8db5fb5c04c9"},"vehicle_type_id":"4","last_reported":1726879364,"current_range_meters":29600,"station_id":"ce4bhq92rcd13ifvqhjg","pricing_plan_id":"cebpf4jnsgd1na2vs0mg"},{"bike_id":"2ce703b4-f868-4226-bdab-b34d4cd84ef6","system_id":"levelo_inurba_marseille","lat":43.33022,"lon":5.39042,"is_reserved":false,"is_disabled":false,"rental_uris":{"android":"levelo://app?vid=2ce703b4-f868-4226-bdab-b34d4cd84ef6","ios":"levelo://app?vid=2ce703b4-f868-4226-bdab-b34d4cd84ef6"},"vehicle_type_id":"4","last_reported":1726879364,"current_range_meters":8800,"station_id":"ce4bhr92rcd13ifvqhrg","pricing_plan_id":"cebpf4jnsgd1na2vs0mg"},{"bike_id":"a51b6faf-f07e-4703-9b45-c377c29d7d5a","system_id":"levelo_inurba_marseille","lat":43.26217,"lon":5.37444,"is_reserved":false,"is_disabled":false,"rental_uris":{"android":"levelo://app?vid=a51b6faf-f07e-4703-9b45-c377c29d7d5a","ios":"levelo://app?vid=a51b6faf-f07e-4703-9b45-c377c29d7d5a"},"vehicle_type_id":"4","last_reported":1726879364,"current_range_meters":22000,"station_id":"ce4bhgp2rcd13ifvqfc0","pricing_plan_id":"cebpf4jnsgd1na2vs0mg"},{"bike_id":"b72704fa-d890-4e4c-b2f5-5359f503596c","system_id":"levelo_inurba_marseille","lat":43.27901,"lon":5.38003,"is_reserved":false,"is_disabled":false,"rental_uris":{"android":"levelo://app?vid=b72704fa-d890-4e4c-b2f5-5359f503596c","ios":"levelo://app?vid=b72704fa-d890-4e4c-b2f5-5359f503596c"},"vehicle_type_id":"4","last_reported":1726879364,"current_range_meters":36400,"station_id":"ce4bhf92rcd13ifvqf50","pricing_plan_id":"cebpf4jnsgd1na2vs0mg"},{"bike_id":"d050b7b6-47ad-4582-9d90-edb6ebf2db9c","system_id":"levelo_inurba_marseille","lat":43.28042,"lon":5.3696,"is_reserved":false,"is_disabled":false,"rental_uris":{"android":"levelo://app?vid=d050b7b6-47ad-4582-9d90-edb6ebf2db9c","ios":"levelo://app?vid=d050b7b6-47ad-4582-9d90-edb6ebf2db9c"},"vehicle_type_id":"4","last_reported":1726879364,"current_range_meters":24800,"station_id":"ce4bha12rcd13ifvqef0","pricing_plan_id":"cebpf4jnsgd1na2vs0mg"},{"bike_id":"146dc772-f2a3-4694-9ba5-5905f9c6938e","system_id":"levelo_inurba_marseille","lat":43.30793,"lon":5.38139,"is_reserved":false,"is_disabled":false,"rental_uris":{"android":"levelo://app?vid=146dc772-f2a3-4694-9ba5-5905f9c6938e","ios":"levelo://app?vid=146dc772-f2a3-4694-9ba5-5905f9c6938e"},"vehicle_type_id":"4","last_reported":1726879364,"current_range_meters":38000,"station_id":"ce4bgt12rcd13ifvqce0","pricing_plan_id":"cebpf4jnsgd1na2vs0mg"},{"bike_id":"36804418-55ab-48a2-8e52-fdbd55d4360a","system_id":"levelo_inurba_marseille","lat":43.25107,"lon":5.40322,"is_reserved":false,"is_disabled":false,"rental_uris":{"android":"levelo://app?vid=36804418-55ab-48a2-8e52-fdbd55d4360a","ios":"levelo://app?vid=36804418-55ab-48a2-8e52-fdbd55d4360a"},"vehicle_type_id":"4","last_reported":1726879364,"current_range_meters":27600,"station_id":"ce4bhlh2rcd13ifvqgig","pricing_plan_id":"cebpf4jnsgd1na2vs0mg"},{"bike_id":"422925b0-a793-4796-b72f-761108954c4d","system_id":"levelo_inurba_marseille","lat":43.28416,"lon":5.37522,"is_reserved":false,"is_disabled":false,"rental_uris":{"android":"levelo://app?vid=422925b0-a793-4796-b72f-761108954c4d","ios":"levelo://app?vid=422925b0-a793-4796-b72f-761108954c4d"},"vehicle_type_id":"4","last_reported":1726879364,"current_range_meters":38400,"station_id":"ce4bh412rcd13ifvqds0","pricing_plan_id":"cebpf4jnsgd1na2vs0mg"},{"bike_id":"60460f01-4fc1-4471-a1cc-fd64c0c52430","system_id":"levelo_inurba_marseille","lat":43.31332,"lon":5.39692,"is_reserved":false,"is_disabled":false,"rental_uris":{"android":"levelo://app?vid=60460f01-4fc1-4471-a1cc-fd64c0c52430","ios":"levelo://app?vid=60460f01-4fc1-4471-a1cc-fd64c0c52430"},"vehicle_type_id":"4","last_reported":1726879364,"current_range_meters":39200,"station_id":"ce4bgvp2rcd13ifvqcu0","pricing_plan_id":"cebpf4jnsgd1na2vs0mg"},{"bike_id":"dc69e71e-22d9-4670-848a-2aec37d2d01c","system_id":"levelo_inurba_marseille","lat":43.27958,"lon":5.41045,"is_reserved":false,"is_disabled":false,"rental_uris":{"android":"levelo://app?vid=dc69e71e-22d9-4670-848a-2aec37d2d01c","ios":"levelo://app?vid=dc69e71e-22d9-4670-848a-2aec37d2d01c"},"vehicle_type_id":"4","last_reported":1726879364,"current_range_meters":34800,"station_id":"ce4bhnp2rcd13ifvqh0g","pricing_plan_id":"cebpf4jnsgd1na2vs0mg"},{"bike_id":"aa920dc3-8475-4ea9-a170-3de0cd7446a2","system_id":"levelo_inurba_marseille","lat":43.30413,"lon":5.41284,"is_reserved":false,"is_disabled":false,"rental_uris":{"android":"levelo://app?vid=aa920dc3-8475-4ea9-a170-3de0cd7446a2","ios":"levelo://app?vid=aa920dc3-8475-4ea9-a170-3de0cd7446a2"},"vehicle_type_id":"4","last_reported":1726879364,"current_range_meters":16800,"station_id":"ce4bhop2rcd13ifvqh8g","pricing_plan_id":"cebpf4jnsgd1na2vs0mg"},{"bike_id":"bab4929f-2ee8-4e72-abcd-10338869bd8f","system_id":"levelo_inurba_marseille","lat":43.31265,"lon":5.40162,"is_reserved":false,"is_disabled":false,"rental_uris":{"android":"levelo://app?vid=bab4929f-2ee8-4e72-abcd-10338869bd8f","ios":"levelo://app?vid=bab4929f-2ee8-4e72-abcd-10338869bd8f"},"vehicle_type_id":"4","last_reported":1726879364,"current_range_meters":35600,"station_id":"ce4bh092rcd13ifvqd30","pricing_plan_id":"cebpf4jnsgd1na2vs0mg"},{"bike_id":"d65cbc32-3a83-4b2e-90d3-f60b7e66b84a","system_id":"levelo_inurba_marseille","lat":43.29557,"lon":5.42292,"is_reserved":false,"is_disabled":false,"rental_uris":{"android":"levelo://app?vid=d65cbc32-3a83-4b2e-90d3-f60b7e66b84a","ios":"levelo://app?vid=d65cbc32-3a83-4b2e-90d3-f60b7e66b84a"},"vehicle_type_id":"4","last_reported":1726879364,"current_range_meters":38800,"station_id":"ce4bhph2rcd13ifvqhdg","pricing_plan_id":"cebpf4jnsgd1na2vs0mg"},{"bike_id":"2b829ffb-e074-4a2f-a6d8-9bb6d361c523","system_id":"levelo_inurba_marseille","lat":43.24545,"lon":5.39521,"is_reserved":false,"is_disabled":false,"rental_uris":{"android":"levelo://app?vid=2b829ffb-e074-4a2f-a6d8-9bb6d361c523","ios":"levelo://app?vid=2b829ffb-e074-4a2f-a6d8-9bb6d361c523"},"vehicle_type_id":"4","last_reported":1726879364,"current_range_meters":19200,"station_id":"ce4bhlp2rcd13ifvqgjg","pricing_plan_id":"cebpf4jnsgd1na2vs0mg"},{"bike_id":"381816ef-1239-44b3-95b2-7c3a47845f8b","system_id":"levelo_inurba_marseille","lat":43.31482,"lon":5.37298,"is_reserved":false,"is_disabled":false,"rental_uris":{"android":"levelo://app?vid=381816ef-1239-44b3-95b2-7c3a47845f8b","ios":"levelo://app?vid=381816ef-1239-44b3-95b2-7c3a47845f8b"},"vehicle_type_id":"4","last_reported":1726879364,"current_range_meters":35200,"station_id":"ce4bgt12rcd13ifvqcd0","pricing_plan_id":"cebpf4jnsgd1na2vs0mg"},{"bike_id":"3261e81d-6f13-45a4-ba96-33ed382e28e0","system_id":"levelo_inurba_marseille","lat":43.28067,"lon":5.39639,"is_reserved":false,"is_disabled":false,"rental_uris":{"android":"levelo://app?vid=3261e81d-6f13-45a4-ba96-33ed382e28e0","ios":"levelo://app?vid=3261e81d-6f13-45a4-ba96-33ed382e28e0"},"vehicle_type_id":"4","last_reported":1726879364,"current_range_meters":38800,"station_id":"ce4bho12rcd13ifvqh2g","pricing_plan_id":"cebpf4jnsgd1na2vs0mg"},{"bike_id":"1e1c92ea-4100-48a4-80e0-a529141b8530","system_id":"levelo_inurba_marseille","lat":43.30649,"lon":5.40096,"is_reserved":false,"is_disabled":false,"rental_uris":{"android":"levelo://app?vid=1e1c92ea-4100-48a4-80e0-a529141b8530","ios":"levelo://app?vid=1e1c92ea-4100-48a4-80e0-a529141b8530"},"vehicle_type_id":"4","last_reported":1726879364,"current_range_meters":24800,"station_id":"ce4bh112rcd13ifvqda0","pricing_plan_id":"cebpf4jnsgd1na2vs0mg"},{"bike_id":"4d45288b-ada8-40a5-999b-fc3b31935dbf","system_id":"levelo_inurba_marseille","lat":43.30309,"lon":5.36892,"is_reserved":false,"is_disabled":false,"rental_uris":{"android":"levelo://app?vid=4d45288b-ada8-40a5-999b-fc3b31935dbf","ios":"levelo://app?vid=4d45288b-ada8-40a5-999b-fc3b31935dbf"},"vehicle_type_id":"4","last_reported":1726879364,"current_range_meters":38800,"station_id":"ce4bgqh2rcd13ifvqc5g","pricing_plan_id":"cebpf4jnsgd1na2vs0mg"},{"bike_id":"81437a93-aba3-423a-96ab-d420c4e83f71","system_id":"levelo_inurba_marseille","lat":43.31751,"lon":5.39021,"is_reserved":false,"is_disabled":false,"rental_uris":{"android":"levelo://app?vid=81437a93-aba3-423a-96ab-d420c4e83f71","ios":"levelo://app?vid=81437a93-aba3-423a-96ab-d420c4e83f71"},"vehicle_type_id":"4","last_reported":1726879364,"current_range_meters":24400,"station_id":"ce4bhqp2rcd13ifvqhng","pricing_plan_id":"cebpf4jnsgd1na2vs0mg"},{"bike_id":"7d6a4ae0-5563-478e-a351-f52ab08c155f","system_id":"levelo_inurba_marseille","lat":43.28338,"lon":5.38102,"is_reserved":false,"is_disabled":false,"rental_uris":{"android":"levelo://app?vid=7d6a4ae0-5563-478e-a351-f52ab08c155f","ios":"levelo://app?vid=7d6a4ae0-5563-478e-a351-f52ab08c155f"},"vehicle_type_id":"4","last_reported":1726879364,"current_range_meters":27600,"station_id":"ce4bh412rcd13ifvqdr0","pricing_plan_id":"cebpf4jnsgd1na2vs0mg"},{"bike_id":"4cdb29a3-250a-4b85-b491-3b54906467b8","system_id":"levelo_inurba_marseille","lat":43.31755,"lon":5.39029,"is_reserved":false,"is_disabled":false,"rental_uris":{"android":"levelo://app?vid=4cdb29a3-250a-4b85-b491-3b54906467b8","ios":"levelo://app?vid=4cdb29a3-250a-4b85-b491-3b54906467b8"},"vehicle_type_id":"4","last_reported":1726879364,"current_range_meters":23200,"station_id":"ce4bhqp2rcd13ifvqhng","pricing_plan_id":"cebpf4jnsgd1na2vs0mg"},{"bike_id":"489f81cc-6aea-4eb0-9203-c6cf09def547","system_id":"levelo_inurba_marseille","lat":43.28716,"lon":5.37945,"is_reserved":false,"is_disabled":false,"rental_uris":{"android":"levelo://app?vid=489f81cc-6aea-4eb0-9203-c6cf09def547","ios":"levelo://app?vid=489f81cc-6aea-4eb0-9203-c6cf09def547"},"vehicle_type_id":"4","last_reported":1726879364,"current_range_meters":36000,"station_id":"ce4bh9p2rcd13ifvqec0","pricing_plan_id":"cebpf4jnsgd1na2vs0mg"},{"bike_id":"2eac50e5-7011-4a43-8936-b2ff6ff99a36","system_id":"levelo_inurba_marseille","lat":43.31073,"lon":5.38352,"is_reserved":false,"is_disabled":false,"rental_uris":{"android":"levelo://app?vid=2eac50e5-7011-4a43-8936-b2ff6ff99a36","ios":"levelo://app?vid=2eac50e5-7011-4a43-8936-b2ff6ff99a36"},"vehicle_type_id":"4","last_reported":1726879364,"current_range_meters":27200,"station_id":"ce4bgv92rcd13ifvqcr0","pricing_plan_id":"cebpf4jnsgd1na2vs0mg"},{"bike_id":"bdc2dd31-442c-4eeb-b951-a54134fa2840","system_id":"levelo_inurba_marseille","lat":43.28027,"lon":5.36942,"is_reserved":false,"is_disabled":false,"rental_uris":{"android":"levelo://app?vid=bdc2dd31-442c-4eeb-b951-a54134fa2840","ios":"levelo://app?vid=bdc2dd31-442c-4eeb-b951-a54134fa2840"},"vehicle_type_id":"4","last_reported":1726879364,"current_range_meters":23200,"station_id":"ce4bha12rcd13ifvqef0","pricing_plan_id":"cebpf4jnsgd1na2vs0mg"},{"bike_id":"06f58f1b-eca6-465f-bdfc-71eb9b07aa63","system_id":"levelo_inurba_marseille","lat":43.31703,"lon":5.37746,"is_reserved":false,"is_disabled":false,"rental_uris":{"android":"levelo://app?vid=06f58f1b-eca6-465f-bdfc-71eb9b07aa63","ios":"levelo://app?vid=06f58f1b-eca6-465f-bdfc-71eb9b07aa63"},"vehicle_type_id":"4","last_reported":1726879364,"current_range_meters":22800,"station_id":"ce4bgth2rcd13ifvqch0","pricing_plan_id":"cebpf4jnsgd1na2vs0mg"},{"bike_id":"4f6cd953-65f5-4d4f-a052-70118d864e1d","system_id":"levelo_inurba_marseille","lat":43.29893,"lon":5.43669,"is_reserved":false,"is_disabled":false,"rental_uris":{"android":"levelo://app?vid=4f6cd953-65f5-4d4f-a052-70118d864e1d","ios":"levelo://app?vid=4f6cd953-65f5-4d4f-a052-70118d864e1d"},"vehicle_type_id":"4","last_reported":1726879364,"current_range_meters":10000,"station_id":"ce4bhpp2rcd13ifvqhfg","pricing_plan_id":"cebpf4jnsgd1na2vs0mg"},{"bike_id":"0c59de94-831f-4bf6-8abe-98b3ac3999be","system_id":"levelo_inurba_marseille","lat":43.294156,"lon":5.386031,"is_reserved":false,"is_disabled":false,"rental_uris":{"android":"levelo://app?vid=0c59de94-831f-4bf6-8abe-98b3ac3999be","ios":"levelo://app?vid=0c59de94-831f-4bf6-8abe-98b3ac3999be"},"vehicle_type_id":"4","last_reported":1726879364,"current_range_meters":18800,"station_id":"ce4bh2h2rcd13ifvqdh0","pricing_plan_id":"cebpf4jnsgd1na2vs0mg"},{"bike_id":"0cbd7f65-c27f-4154-af83-97063396f9fb","system_id":"levelo_inurba_marseille","lat":43.29724,"lon":5.39268,"is_reserved":false,"is_disabled":false,"rental_uris":{"android":"levelo://app?vid=0cbd7f65-c27f-4154-af83-97063396f9fb","ios":"levelo://app?vid=0cbd7f65-c27f-4154-af83-97063396f9fb"},"vehicle_type_id":"4","last_reported":1726879364,"current_range_meters":25600,"station_id":"","pricing_plan_id":"cebpf4jnsgd1na2vs0mg"},{"bike_id":"019fb69a-1999-4333-8000-b962cec133fb","system_id":"levelo_inurba_marseille","lat":43.27937,"lon":5.41048,"is_reserved":false,"is_disabled":false,"rental_uris":{"android":"levelo://app?vid=019fb69a-1999-4333-8000-b962cec133fb","ios":"levelo://app?vid=019fb69a-1999-4333-8000-b962cec133fb"},"vehicle_type_id":"4","last_reported":1726879364,"current_range_meters":9600,"station_id":"ce4bhnp2rcd13ifvqh0g","pricing_plan_id":"cebpf4jnsgd1na2vs0mg"},{"bike_id":"610ae2bc-1ce0-4157-8b8a-62d460f1da9c","system_id":"levelo_inurba_marseille","lat":43.22922,"lon":5.35376,"is_reserved":false,"is_disabled":false,"rental_uris":{"android":"levelo://app?vid=610ae2bc-1ce0-4157-8b8a-62d460f1da9c","ios":"levelo://app?vid=610ae2bc-1ce0-4157-8b8a-62d460f1da9c"},"vehicle_type_id":"4","last_reported":1726879364,"current_range_meters":8400,"station_id":"cpo3532slgdg3j2ikp40","pricing_plan_id":"cebpf4jnsgd1na2vs0mg"},{"bike_id":"437d7254-4081-4ab2-bd2e-34dedca9de98","system_id":"levelo_inurba_marseille","lat":43.30777,"lon":5.37655,"is_reserved":false,"is_disabled":false,"rental_uris":{"android":"levelo://app?vid=437d7254-4081-4ab2-bd2e-34dedca9de98","ios":"levelo://app?vid=437d7254-4081-4ab2-bd2e-34dedca9de98"},"vehicle_type_id":"4","last_reported":1726879364,"current_range_meters":16400,"station_id":"ce4bgv92rcd13ifvqcq0","pricing_plan_id":"cebpf4jnsgd1na2vs0mg"},{"bike_id":"cf88c48f-76e1-4865-8aec-2a94db3cd4d9","system_id":"levelo_inurba_marseille","lat":43.31128,"lon":5.37761,"is_reserved":false,"is_disabled":false,"rental_uris":{"android":"levelo://app?vid=cf88c48f-76e1-4865-8aec-2a94db3cd4d9","ios":"levelo://app?vid=cf88c48f-76e1-4865-8aec-2a94db3cd4d9"},"vehicle_type_id":"4","last_reported":1726879364,"current_range_meters":28000,"station_id":"ce4bgt92rcd13ifvqcg0","pricing_plan_id":"cebpf4jnsgd1na2vs0mg"},{"bike_id":"2e0ad234-46bd-4aa7-aed9-b44f50fc5c66","system_id":"levelo_inurba_marseille","lat":43.28077,"lon":5.39647,"is_reserved":false,"is_disabled":false,"rental_uris":{"android":"levelo://app?vid=2e0ad234-46bd-4aa7-aed9-b44f50fc5c66","ios":"levelo://app?vid=2e0ad234-46bd-4aa7-aed9-b44f50fc5c66"},"vehicle_type_id":"4","last_reported":1726879364,"current_range_meters":39200,"station_id":"ce4bho12rcd13ifvqh2g","pricing_plan_id":"cebpf4jnsgd1na2vs0mg"},{"bike_id":"eecbe099-2cdf-4018-8898-2dd34a0362d6","system_id":"levelo_inurba_marseille","lat":43.25111,"lon":5.40319,"is_reserved":false,"is_disabled":false,"rental_uris":{"android":"levelo://app?vid=eecbe099-2cdf-4018-8898-2dd34a0362d6","ios":"levelo://app?vid=eecbe099-2cdf-4018-8898-2dd34a0362d6"},"vehicle_type_id":"4","last_reported":1726879364,"current_range_meters":25600,"station_id":"ce4bhlh2rcd13ifvqgig","pricing_plan_id":"cebpf4jnsgd1na2vs0mg"},{"bike_id":"7bad7561-83a5-484a-8aa7-f54c1517020f","system_id":"levelo_inurba_marseille","lat":43.31332,"lon":5.39692,"is_reserved":false,"is_disabled":false,"rental_uris":{"android":"levelo://app?vid=7bad7561-83a5-484a-8aa7-f54c1517020f","ios":"levelo://app?vid=7bad7561-83a5-484a-8aa7-f54c1517020f"},"vehicle_type_id":"4","last_reported":1726879364,"current_range_meters":13600,"station_id":"ce4bgvp2rcd13ifvqcu0","pricing_plan_id":"cebpf4jnsgd1na2vs0mg"},{"bike_id":"99e2ce67-245d-46cf-9678-8414ecf6610e","system_id":"levelo_inurba_marseille","lat":43.299686,"lon":5.384934,"is_reserved":false,"is_disabled":false,"rental_uris":{"android":"levelo://app?vid=99e2ce67-245d-46cf-9678-8414ecf6610e","ios":"levelo://app?vid=99e2ce67-245d-46cf-9678-8414ecf6610e"},"vehicle_type_id":"4","last_reported":1726879364,"current_range_meters":32000,"station_id":"","pricing_plan_id":"cebpf4jnsgd1na2vs0mg"},{"bike_id":"58014cc6-4f39-4119-a8a0-cdc0e2507820","system_id":"levelo_inurba_marseille","lat":43.32282,"lon":5.38265,"is_reserved":false,"is_disabled":false,"rental_uris":{"android":"levelo://app?vid=58014cc6-4f39-4119-a8a0-cdc0e2507820","ios":"levelo://app?vid=58014cc6-4f39-4119-a8a0-cdc0e2507820"},"vehicle_type_id":"4","last_reported":1726879364,"current_range_meters":38800,"station_id":"ce4bhr12rcd13ifvqhqg","pricing_plan_id":"cebpf4jnsgd1na2vs0mg"},{"bike_id":"7bf73dc9-c1ca-473f-ba3d-0c39cb05dc85","system_id":"levelo_inurba_marseille","lat":43.28456,"lon":5.35897,"is_reserved":false,"is_disabled":false,"rental_uris":{"android":"levelo://app?vid=7bf73dc9-c1ca-473f-ba3d-0c39cb05dc85","ios":"levelo://app?vid=7bf73dc9-c1ca-473f-ba3d-0c39cb05dc85"},"vehicle_type_id":"4","last_reported":1726879364,"current_range_meters":36000,"station_id":"ce4bhah2rcd13ifvqei0","pricing_plan_id":"cebpf4jnsgd1na2vs0mg"},{"bike_id":"29058ff5-4d24-4c57-9c80-3c616b905bac","system_id":"levelo_inurba_marseille","lat":43.29545,"lon":5.42278,"is_reserved":false,"is_disabled":false,"rental_uris":{"android":"levelo://app?vid=29058ff5-4d24-4c57-9c80-3c616b905bac","ios":"levelo://app?vid=29058ff5-4d24-4c57-9c80-3c616b905bac"},"vehicle_type_id":"4","last_reported":1726879364,"current_range_meters":38800,"station_id":"ce4bhph2rcd13ifvqhdg","pricing_plan_id":"cebpf4jnsgd1na2vs0mg"},{"bike_id":"e1b8bd0c-b203-485a-85e4-bcb8e338cfbc","system_id":"levelo_inurba_marseille","lat":43.27822,"lon":5.39206,"is_reserved":false,"is_disabled":false,"rental_uris":{"android":"levelo://app?vid=e1b8bd0c-b203-485a-85e4-bcb8e338cfbc","ios":"levelo://app?vid=e1b8bd0c-b203-485a-85e4-bcb8e338cfbc"},"vehicle_type_id":"4","last_reported":1726879364,"current_range_meters":10000,"station_id":"ce4bhjp2rcd13ifvqga0","pricing_plan_id":"cebpf4jnsgd1na2vs0mg"},{"bike_id":"135a9a01-ae33-4dc2-882a-5fa02e4d035c","system_id":"levelo_inurba_marseille","lat":43.31167,"lon":5.38718,"is_reserved":false,"is_disabled":false,"rental_uris":{"android":"levelo://app?vid=135a9a01-ae33-4dc2-882a-5fa02e4d035c","ios":"levelo://app?vid=135a9a01-ae33-4dc2-882a-5fa02e4d035c"},"vehicle_type_id":"4","last_reported":1726879364,"current_range_meters":26800,"station_id":"ce4bgv12rcd13ifvqcp0","pricing_plan_id":"cebpf4jnsgd1na2vs0mg"},{"bike_id":"bce83964-771d-421d-a795-c2b376c5b9dc","system_id":"levelo_inurba_marseille","lat":43.23193,"lon":5.35555,"is_reserved":false,"is_disabled":false,"rental_uris":{"android":"levelo://app?vid=bce83964-771d-421d-a795-c2b376c5b9dc","ios":"levelo://app?vid=bce83964-771d-421d-a795-c2b376c5b9dc"},"vehicle_type_id":"4","last_reported":1726879364,"current_range_meters":18800,"station_id":"ce4bhu92rcd13ifvqi70","pricing_plan_id":"cebpf4jnsgd1na2vs0mg"},{"bike_id":"d8646183-4cac-49c4-a3ce-0f34e3bebaa3","system_id":"levelo_inurba_marseille","lat":43.31332,"lon":5.39691,"is_reserved":false,"is_disabled":false,"rental_uris":{"android":"levelo://app?vid=d8646183-4cac-49c4-a3ce-0f34e3bebaa3","ios":"levelo://app?vid=d8646183-4cac-49c4-a3ce-0f34e3bebaa3"},"vehicle_type_id":"4","last_reported":1726879364,"current_range_meters":9600,"station_id":"ce4bgvp2rcd13ifvqcu0","pricing_plan_id":"cebpf4jnsgd1na2vs0mg"},{"bike_id":"624656ad-365a-42d0-9a9e-4d70089a88d6","system_id":"levelo_inurba_marseille","lat":43.24808,"lon":5.37454,"is_reserved":false,"is_disabled":false,"rental_uris":{"android":"levelo://app?vid=624656ad-365a-42d0-9a9e-4d70089a88d6","ios":"levelo://app?vid=624656ad-365a-42d0-9a9e-4d70089a88d6"},"vehicle_type_id":"4","last_reported":1726879364,"current_range_meters":11200,"station_id":"ce4bhgh2rcd13ifvqfb0","pricing_plan_id":"cebpf4jnsgd1na2vs0mg"},{"bike_id":"7eac24f0-38da-4e70-8193-0995c7f77744","system_id":"levelo_inurba_marseille","lat":43.24545,"lon":5.39531,"is_reserved":false,"is_disabled":false,"rental_uris":{"android":"levelo://app?vid=7eac24f0-38da-4e70-8193-0995c7f77744","ios":"levelo://app?vid=7eac24f0-38da-4e70-8193-0995c7f77744"},"vehicle_type_id":"4","last_reported":1726879364,"current_range_meters":21600,"station_id":"ce4bhlp2rcd13ifvqgjg","pricing_plan_id":"cebpf4jnsgd1na2vs0mg"},{"bike_id":"5c4bffed-0019-4b39-a45e-d1fccf257ffb","system_id":"levelo_inurba_marseille","lat":43.31337,"lon":5.39692,"is_reserved":false,"is_disabled":false,"rental_uris":{"android":"levelo://app?vid=5c4bffed-0019-4b39-a45e-d1fccf257ffb","ios":"levelo://app?vid=5c4bffed-0019-4b39-a45e-d1fccf257ffb"},"vehicle_type_id":"4","last_reported":1726879364,"current_range_meters":28800,"station_id":"ce4bgvp2rcd13ifvqcu0","pricing_plan_id":"cebpf4jnsgd1na2vs0mg"},{"bike_id":"989613c8-a10b-4007-8a3a-29b74908d148","system_id":"levelo_inurba_marseille","lat":43.2794,"lon":5.41044,"is_reserved":false,"is_disabled":false,"rental_uris":{"android":"levelo://app?vid=989613c8-a10b-4007-8a3a-29b74908d148","ios":"levelo://app?vid=989613c8-a10b-4007-8a3a-29b74908d148"},"vehicle_type_id":"4","last_reported":1726879364,"current_range_meters":21600,"station_id":"ce4bhnp2rcd13ifvqh0g","pricing_plan_id":"cebpf4jnsgd1na2vs0mg"},{"bike_id":"4bc555cb-e6a9-407c-a17e-97ad3d918bd6","system_id":"levelo_inurba_marseille","lat":43.27619,"lon":5.36106,"is_reserved":false,"is_disabled":false,"rental_uris":{"android":"levelo://app?vid=4bc555cb-e6a9-407c-a17e-97ad3d918bd6","ios":"levelo://app?vid=4bc555cb-e6a9-407c-a17e-97ad3d918bd6"},"vehicle_type_id":"4","last_reported":1726879364,"current_range_meters":38800,"station_id":"ce4bgj92rcd13ifvqbe0","pricing_plan_id":"cebpf4jnsgd1na2vs0mg"},{"bike_id":"4f992c86-063a-4c10-8275-fd19a3c08c89","system_id":"levelo_inurba_marseille","lat":43.31117,"lon":5.37758,"is_reserved":false,"is_disabled":false,"rental_uris":{"android":"levelo://app?vid=4f992c86-063a-4c10-8275-fd19a3c08c89","ios":"levelo://app?vid=4f992c86-063a-4c10-8275-fd19a3c08c89"},"vehicle_type_id":"4","last_reported":1726879364,"current_range_meters":35200,"station_id":"ce4bgt92rcd13ifvqcg0","pricing_plan_id":"cebpf4jnsgd1na2vs0mg"},{"bike_id":"9418d43d-dce8-4f9a-89f8-74e31cd7355a","system_id":"levelo_inurba_marseille","lat":43.30324,"lon":5.40442,"is_reserved":false,"is_disabled":false,"rental_uris":{"android":"levelo://app?vid=9418d43d-dce8-4f9a-89f8-74e31cd7355a","ios":"levelo://app?vid=9418d43d-dce8-4f9a-89f8-74e31cd7355a"},"vehicle_type_id":"4","last_reported":1726879364,"current_range_meters":26000,"station_id":"ce4bh012rcd13ifvqd10","pricing_plan_id":"cebpf4jnsgd1na2vs0mg"},{"bike_id":"9ccced35-5efa-4c8a-9ad4-8c1689684396","system_id":"levelo_inurba_marseille","lat":43.27816,"lon":5.39205,"is_reserved":false,"is_disabled":false,"rental_uris":{"android":"levelo://app?vid=9ccced35-5efa-4c8a-9ad4-8c1689684396","ios":"levelo://app?vid=9ccced35-5efa-4c8a-9ad4-8c1689684396"},"vehicle_type_id":"4","last_reported":1726879364,"current_range_meters":20000,"station_id":"ce4bhjp2rcd13ifvqga0","pricing_plan_id":"cebpf4jnsgd1na2vs0mg"},