{"last_updated":1747196038,"ttl":60,"version":"2.2","data":{"bikes":[{"bike_id":"679a1652-9834-4e25-8720-e5f793f672e7","system_id":"levelo_inurba_marseille","lat":43.25082,"lon":5.395,"is_reserved":false,"is_disabled":false,"rental_uris":{"android":"levelo://app?vid=679a1652-9834-4e25-8720-e5f793f672e7","ios":"levelo://app?vid=679a1652-9834-4e25-8720-e5f793f672e7"},"vehicle_type_id":"4","last_reported":1747196038,"current_range_meters":2800,"station_id":"ce4bhm12rcd13ifvqgkg","pricing_plan_id":"cebpf4jnsgd1na2vs0mg"},{"bike_id":"6861c2ae-b8dd-4ed0-86d9-03af359f7503","system_id":"levelo_inurba_marseille","lat":43.240665,"lon":5.377594,"is_reserved":false,"is_disabled":false,"rental_uris":{"android":"levelo://app?vid=6861c2ae-b8dd-4ed0-86d9-03af359f7503","ios":"levelo://app?vid=6861c2ae-b8dd-4ed0-86d9-03af359f7503"},"vehicle_type_id":"4","last_reported":1747196038,"current_range_meters":2800,"station_id":"ce4bhnp2rcd13ifvqgvg","pricing_plan_id":"cebpf4jnsgd1na2vs0mg"},{"bike_id":"3071c56b-ce80-4fb6-b5b1-b157555fc3f4","system_id":"levelo_inurba_marseille","lat":43.24542,"lon":5.395228,"is_reserved":false,"is_disabled":false,"rental_uris":{"android":"levelo://app?vid=3071c56b-ce80-4fb6-b5b1-b157555fc3f4","ios":"levelo://app?vid=3071c56b-ce80-4fb6-b5b1-b157555fc3f4"},"vehicle_type_id":"4","last_reported":1747196038,"current_range_meters":2800,"station_id":"ce4bhlp2rcd13ifvqgjg","pricing_plan_id":"cebpf4jnsgd1na2vs0mg"},{"bike_id":"9a55e5e6-457b-4535-b7b7-fd36234274f4","system_id":"levelo_inurba_marseille","lat":43.30801,"lon":5.38153,"is_reserved":false,"is_disabled":true,"rental_uris":{"android":"levelo://app?vid=9a55e5e6-457b-4535-b7b7-fd36234274f4","ios":"levelo://app?vid=9a55e5e6-457b-4535-b7b7-fd36234274f4"},"vehicle_type_id":"4","last_reported":1747196038,"current_range_meters":3200,"station_id":"ce4bgt12rcd13ifvqce0","pricing_plan_id":"cebpf4jnsgd1na2vs0mg"},{"bike_id":"20e364b9-9bca-4365-866b-4ccf9399ec0a","system_id":"levelo_inurba_marseille","lat":43.279454,"lon":5.41046,"is_reserved":false,"is_disabled":false,"rental_uris":{"android":"levelo://app?vid=20e364b9-9bca-4365-866b-4ccf9399ec0a","ios":"levelo://app?vid=20e364b9-9bca-4365-866b-4ccf9399ec0a"},"vehicle_type_id":"4","last_reported":1747196038,"current_range_meters":3200,"station_id":"ce4bhnp2rcd13ifvqh0g","pricing_plan_id":"cebpf4jnsgd1na2vs0mg"},{"bike_id":"399df683-e8cd-422a-878d-678260339cdd","system_id":"levelo_inurba_marseille","lat":43.27993,"lon":5.4166,"is_reserved":false,"is_disabled":false,"rental_uris":{"android":"levelo://app?vid=399df683-e8cd-422a-878d-678260339cdd","ios":"levelo://app?vid=399df683-e8cd-422a-878d-678260339cdd"},"vehicle_type_id":"4","last_reported":1747196038,"current_range_meters":3600,"station_id":"ce4bho12rcd13ifvqh1g","pricing_plan_id":"cebpf4jnsgd1na2vs0mg"},{"bike_id":"764a7013-3fc3-4d32-b171-097f58534232","system_id":"levelo_inurba_marseille","lat":43.28071,"lon":5.39654,"is_reserved":false,"is_disabled":false,"rental_uris":{"android":"levelo://app?vid=764a7013-3fc3-4d32-b171-097f58534232","ios":"levelo://app?vid=764a7013-3fc3-4d32-b171-097f58534232"},"vehicle_type_id":"4","last_reported":1747196038,"current_range_meters":3600,"station_id":"ce4bho12rcd13ifvqh2g","pricing_plan_id":"cebpf4jnsgd1na2vs0mg"},{"bike_id":"324038b2-dc71-420d-8274-5f30ae59c210","system_id":"levelo_inurba_marseille","lat":43.251102,"lon":5.403262,"is_reserved":false,"is_disabled":false,"rental_uris":{"android":"levelo://app?vid=324038b2-dc71-420d-8274-5f30ae59c210","ios":"levelo://app?vid=324038b2-dc71-420d-8274-5f30ae59c210"},"vehicle_type_id":"4","last_reported":1747196038,"current_range_meters":4400,"station_id":"ce4bhlh2rcd13ifvqgig","pricing_plan_id":"cebpf4jnsgd1na2vs0mg"},{"bike_id":"abe19c7b-dd48-4f23-ad5b-10c07cbeffa6","system_id":"levelo_inurba_marseille","lat":43.29593,"lon":5.37919,"is_reserved":false,"is_disabled":false,"rental_uris":{"android":"levelo://app?vid=abe19c7b-dd48-4f23-ad5b-10c07cbeffa6","ios":"levelo://app?vid=abe19c7b-dd48-4f23-ad5b-10c07cbeffa6"},"vehicle_type_id":"4","last_reported":1747196038,"current_range_meters":5600,"station_id":"","pricing_plan_id":"cebpf4jnsgd1na2vs0mg"},{"bike_id":"d991382c-9312-4a59-b021-052b5426210e","system_id":"levelo_inurba_marseille","lat":43.26044,"lon":5.3939,"is_reserved":false,"is_disabled":false,"rental_uris":{"android":"levelo://app?vid=d991382c-9312-4a59-b021-052b5426210e","ios":"levelo://app?vid=d991382c-9312-4a59-b021-052b5426210e"},"vehicle_type_id":"4","last_reported":1747196038,"current_range_meters":6000,"station_id":"ce4bhh92rcd13ifvqfj0","pricing_plan_id":"cebpf4jnsgd1na2vs0mg"},{"bike_id":"4a7a989c-172d-4f21-a17f-a1e0e81980c4","system_id":"levelo_inurba_marseille","lat":43.258646,"lon":5.399096,"is_reserved":false,"is_disabled":false,"rental_uris":{"android":"levelo://app?vid=4a7a989c-172d-4f21-a17f-a1e0e81980c4","ios":"levelo://app?vid=4a7a989c-172d-4f21-a17f-a1e0e81980c4"},"vehicle_type_id":"4","last_reported":1747196038,"current_range_meters":6000,"station_id":"ce4bhl92rcd13ifvqghg","pricing_plan_id":"cebpf4jnsgd1na2vs0mg"},{"bike_id":"74ce7741-5813-4b25-8268-d773ddb37d17","system_id":"levelo_inurba_marseille","lat":43.302061,"lon":5.453963,"is_reserved":false,"is_disabled":false,"rental_uris":{"android":"levelo://app?vid=74ce7741-5813-4b25-8268-d773ddb37d17","ios":"levelo://app?vid=74ce7741-5813-4b25-8268-d773ddb37d17"},"vehicle_type_id":"4","last_reported":1747196038,"current_range_meters":6400,"station_id":"","pricing_plan_id":"cebpf4jnsgd1na2vs0mg"},{"bike_id":"bd790923-84de-4063-9c5a-d40660043ea8","system_id":"levelo_inurba_marseille","lat":43.24544,"lon":5.39526,"is_reserved":false,"is_disabled":false,"rental_uris":{"android":"levelo://app?vid=bd790923-84de-4063-9c5a-d40660043ea8","ios":"levelo://app?vid=bd790923-84de-4063-9c5a-d40660043ea8"},"vehicle_type_id":"4","last_reported":1747196038,"current_range_meters":6400,"station_id":"ce4bhlp2rcd13ifvqgjg","pricing_plan_id":"cebpf4jnsgd1na2vs0mg"},{"bike_id":"597e7865-b942-4532-81ea-d2c26c4cbf33","system_id":"levelo_inurba_marseille","lat":43.240711,"lon":5.377639,"is_reserved":false,"is_disabled":false,"rental_uris":{"android":"levelo://app?vid=597e7865-b942-4532-81ea-d2c26c4cbf33","ios":"levelo://app?vid=597e7865-b942-4532-81ea-d2c26c4cbf33"},"vehicle_type_id":"4","last_reported":1747196038,"current_range_meters":6800,"station_id":"ce4bhnp2rcd13ifvqgvg","pricing_plan_id":"cebpf4jnsgd1na2vs0mg"},{"bike_id":"e42e17e5-d574-40b9-811b-e914acd6632f","system_id":"levelo_inurba_marseille","lat":43.23056,"lon":5.35495,"is_reserved":false,"is_disabled":false,"rental_uris":{"android":"levelo://app?vid=e42e17e5-d574-40b9-811b-e914acd6632f","ios":"levelo://app?vid=e42e17e5-d574-40b9-811b-e914acd6632f"},"vehicle_type_id":"4","last_reported":1747196038,"current_range_meters":6800,"station_id":"cpo3342slgdg3j2ifvpg","pricing_plan_id":"cebpf4jnsgd1na2vs0mg"},{"bike_id":"ce4325af-2448-4172-bdec-81d552ee0b62","system_id":"levelo_inurba_marseille","lat":43.261676,"lon":5.420031,"is_reserved":false,"is_disabled":false,"rental_uris":{"android":"levelo://app?vid=ce4325af-2448-4172-bdec-81d552ee0b62","ios":"levelo://app?vid=ce4325af-2448-4172-bdec-81d552ee0b62"},"vehicle_type_id":"4","last_reported":1747196038,"current_range_meters":7200,"station_id":"","pricing_plan_id":"cebpf4jnsgd1na2vs0mg"},{"bike_id":"581fa52b-d332-45e3-9d7f-f18fbfd08e95","system_id":"levelo_inurba_marseille","lat":43.34159,"lon":5.40919,"is_reserved":false,"is_disabled":true,"rental_uris":{"android":"levelo://app?vid=581fa52b-d332-45e3-9d7f-f18fbfd08e95","ios":"levelo://app?vid=581fa52b-d332-45e3-9d7f-f18fbfd08e95"},"vehicle_type_id":"4","last_reported":1747196038,"current_range_meters":7200,"station_id":"ce4bhqh2rcd13ifvqhlg","pricing_plan_id":"cebpf4jnsgd1na2vs0mg"},{"bike_id":"7100f54c-b0ff-47c7-bfce-e9e46a62d28d","system_id":"levelo_inurba_marseille","lat":43.3019,"lon":5.39444,"is_reserved":false,"is_disabled":false,"rental_uris":{"android":"levelo://app?vid=7100f54c-b0ff-47c7-bfce-e9e46a62d28d","ios":"levelo://app?vid=7100f54c-b0ff-47c7-bfce-e9e46a62d28d"},"vehicle_type_id":"4","last_reported":1747196038,"current_range_meters":7200,"station_id":"ce4bh0p2rcd13ifvqd70","pricing_plan_id":"cebpf4jnsgd1na2vs0mg"},{"bike_id":"a4788589-db0c-43f6-9ae1-d181d3cfcd08","system_id":"levelo_inurba_marseille","lat":43.26961,"lon":5.36576,"is_reserved":false,"is_disabled":false,"rental_uris":{"android":"levelo://app?vid=a4788589-db0c-43f6-9ae1-d181d3cfcd08","ios":"levelo://app?vid=a4788589-db0c-43f6-9ae1-d181d3cfcd08"},"vehicle_type_id":"4","last_reported":1747196038,"current_range_meters":7200,"station_id":"","pricing_plan_id":"cebpf4jnsgd1na2vs0mg"},{"bike_id":"a2ae26c9-3a89-4142-a096-4b0533460118","system_id":"levelo_inurba_marseille","lat":43.27075,"lon":5.40257,"is_reserved":false,"is_disabled":false,"rental_uris":{"android":"levelo://app?vid=a2ae26c9-3a89-4142-a096-4b0533460118","ios":"levelo://app?vid=a2ae26c9-3a89-4142-a096-4b0533460118"},"vehicle_type_id":"4","last_reported":1747196038,"current_range_meters":8000,"station_id":"ce4bhk92rcd13ifvqgc0","pricing_plan_id":"cebpf4jnsgd1na2vs0mg"},{"bike_id":"96ffb000-4e10-4fec-a53d-e6fef8bb424d","system_id":"levelo_inurba_marseille","lat":43.25863,"lon":5.39895,"is_reserved":false,"is_disabled":false,"rental_uris":{"android":"levelo://app?vid=96ffb000-4e10-4fec-a53d-e6fef8bb424d","ios":"levelo://app?vid=96ffb000-4e10-4fec-a53d-e6fef8bb424d"},"vehicle_type_id":"4","last_reported":1747196038,"current_range_meters":8000,"station_id":"ce4bhl92rcd13ifvqghg","pricing_plan_id":"cebpf4jnsgd1na2vs0mg"},{"bike_id":"23bfae5d-adbc-487a-a024-c8962e33e86d","system_id":"levelo_inurba_marseille","lat":43.24648,"lon":5.388949,"is_reserved":false,"is_disabled":false,"rental_uris":{"android":"levelo://app?vid=23bfae5d-adbc-487a-a024-c8962e33e86d","ios":"levelo://app?vid=23bfae5d-adbc-487a-a024-c8962e33e86d"},"vehicle_type_id":"4","last_reported":1747196038,"current_range_meters":8000,"station_id":"ce4bhg12rcd13ifvqf60","pricing_plan_id":"cebpf4jnsgd1na2vs0mg"},{"bike_id":"9aba25c8-ec36-4940-ad29-07cd209e024f","system_id":"levelo_inurba_marseille","lat":43.23967,"lon":5.3664,"is_reserved":false,"is_disabled":false,"rental_uris":{"android":"levelo://app?vid=9aba25c8-ec36-4940-ad29-07cd209e024f","ios":"levelo://app?vid=9aba25c8-ec36-4940-ad29-07cd209e024f"},"vehicle_type_id":"4","last_reported":1747196038,"current_range_meters":8000,"station_id":"ce4bhi12rcd13ifvqfp0","pricing_plan_id":"cebpf4jnsgd1na2vs0mg"},{"bike_id":"eb050f5c-8fe4-4b4d-ba6e-ec9a1bb9c4cd","system_id":"levelo_inurba_marseille","lat":43.31689,"lon":5.40468,"is_reserved":false,"is_disabled":false,"rental_uris":{"android":"levelo://app?vid=eb050f5c-8fe4-4b4d-ba6e-ec9a1bb9c4cd","ios":"levelo://app?vid=eb050f5c-8fe4-4b4d-ba6e-ec9a1bb9c4cd"},"vehicle_type_id":"4","last_reported":1747196038,"current_range_meters":8000,"station_id":"ce4bh012rcd13ifvqd00","pricing_plan_id":"cebpf4jnsgd1na2vs0mg"},{"bike_id":"a252ee44-b8c3-4556-a12c-5f4f5dc85b27","system_id":"levelo_inurba_marseille","lat":43.306545,"lon":5.400803,"is_reserved":false,"is_disabled":false,"rental_uris":{"android":"levelo://app?vid=a252ee44-b8c3-4556-a12c-5f4f5dc85b27","ios":"levelo://app?vid=a252ee44-b8c3-4556-a12c-5f4f5dc85b27"},"vehicle_type_id":"4","last_reported":1747196038,"current_range_meters":8400,"station_id":"ce4bh112rcd13ifvqda0","pricing_plan_id":"cebpf4jnsgd1na2vs0mg"},{"bike_id":"7f7cd8c7-120d-4ea6-957a-e8facbf3a71d","system_id":"levelo_inurba_marseille","lat":43.314948,"lon":5.373071,"is_reserved":false,"is_disabled":false,"rental_uris":{"android":"levelo://app?vid=7f7cd8c7-120d-4ea6-957a-e8facbf3a71d","ios":"levelo://app?vid=7f7cd8c7-120d-4ea6-957a-e8facbf3a71d"},"vehicle_type_id":"4","last_reported":1747196038,"current_range_meters":8400,"station_id":"ce4bgt12rcd13ifvqcd0","pricing_plan_id":"cebpf4jnsgd1na2vs0mg"},{"bike_id":"3e298fff-a6c8-4c84-a257-9c58614d0496","system_id":"levelo_inurba_marseille","lat":43.320859,"lon":5.440912,"is_reserved":false,"is_disabled":false,"rental_uris":{"android":"levelo://app?vid=3e298fff-a6c8-4c84-a257-9c58614d0496","ios":"levelo://app?vid=3e298fff-a6c8-4c84-a257-9c58614d0496"},"vehicle_type_id":"4","last_reported":1747196038,"current_range_meters":8400,"station_id":"","pricing_plan_id":"cebpf4jnsgd1na2vs0mg"},{"bike_id":"a8c7bae6-d983-4f91-a2a9-b8d3f74003b5","system_id":"levelo_inurba_marseille","lat":43.302429,"lon":5.400649,"is_reserved":false,"is_disabled":false,"rental_uris":{"android":"levelo://app?vid=a8c7bae6-d983-4f91-a2a9-b8d3f74003b5","ios":"levelo://app?vid=a8c7bae6-d983-4f91-a2a9-b8d3f74003b5"},"vehicle_type_id":"4","last_reported":1747196038,"current_range_meters":8400,"station_id":"ce4bgvh2rcd13ifvqcs0","pricing_plan_id":"cebpf4jnsgd1na2vs0mg"},{"bike_id":"c78709f5-2894-4d12-aff9-20e6f85f4ee8","system_id":"levelo_inurba_marseille","lat":43.30886,"lon":5.39667,"is_reserved":false,"is_disabled":false,"rental_uris":{"android":"levelo://app?vid=c78709f5-2894-4d12-aff9-20e6f85f4ee8","ios":"levelo://app?vid=c78709f5-2894-4d12-aff9-20e6f85f4ee8"},"vehicle_type_id":"4","last_reported":1747196038,"current_range_meters":8400,"station_id":"ce4bh012rcd13ifvqcv0","pricing_plan_id":"cebpf4jnsgd1na2vs0mg"},{"bike_id":"5de1e8df-cec1-47cf-b554-41f6e726d337","system_id":"levelo_inurba_marseille","lat":43.274302,"lon":5.406407,"is_reserved":false,"is_disabled":false,"rental_uris":{"android":"levelo://app?vid=5de1e8df-cec1-47cf-b554-41f6e726d337","ios":"levelo://app?vid=5de1e8df-cec1-47cf-b554-41f6e726d337"},"vehicle_type_id":"4","last_reported":1747196038,"current_range_meters":8400,"station_id":"","pricing_plan_id":"cebpf4jnsgd1na2vs0mg"},{"bike_id":"f4f44ecb-d1f2-458e-9c20-4902d78902fa","system_id":"levelo_inurba_marseille","lat":43.305939,"lon":5.393525,"is_reserved":false,"is_disabled":false,"rental_uris":{"android":"levelo://app?vid=f4f44ecb-d1f2-458e-9c20-4902d78902fa","ios":"levelo://app?vid=f4f44ecb-d1f2-458e-9c20-4902d78902fa"},"vehicle_type_id":"4","last_reported":1747196038,"current_range_meters":8800,"station_id":"ce4bh0p2rcd13ifvqd80","pricing_plan_id":"cebpf4jnsgd1na2vs0mg"},{"bike_id":"f37b7848-b34f-4203-8cd6-ee4ac88ff930","system_id":"levelo_inurba_marseille","lat":43.239588,"lon":5.366261,"is_reserved":false,"is_disabled":false,"rental_uris":{"android":"levelo://app?vid=f37b7848-b34f-4203-8cd6-ee4ac88ff930","ios":"levelo://app?vid=f37b7848-b34f-4203-8cd6-ee4ac88ff930"},"vehicle_type_id":"4","last_reported":1747196038,"current_range_meters":8800,"station_id":"ce4bhi12rcd13ifvqfp0","pricing_plan_id":"cebpf4jnsgd1na2vs0mg"},{"bike_id":"910f9f39-856a-4a58-baa8-3e2e791f2766","system_id":"levelo_inurba_marseille","lat":43.288544,"lon":5.393337,"is_reserved":false,"is_disabled":true,"rental_uris":{"android":"levelo://app?vid=910f9f39-856a-4a58-baa8-3e2e791f2766","ios":"levelo://app?vid=910f9f39-856a-4a58-baa8-3e2e791f2766"},"vehicle_type_id":"4","last_reported":1747196038,"current_range_meters":8800,"station_id":"ce4bh2p2rcd13ifvqdi0","pricing_plan_id":"cebpf4jnsgd1na2vs0mg"},{"bike_id":"0d826070-2b6a-4e0e-9fd5-7d4b62a6ea2e","system_id":"levelo_inurba_marseille","lat":43.3126,"lon":5.4019,"is_reserved":false,"is_disabled":false,"rental_uris":{"android":"levelo://app?vid=0d826070-2b6a-4e0e-9fd5-7d4b62a6ea2e","ios":"levelo://app?vid=0d826070-2b6a-4e0e-9fd5-7d4b62a6ea2e"},"vehicle_type_id":"4","last_reported":1747196038,"current_range_meters":8800,"station_id":"ce4bh092rcd13ifvqd30","pricing_plan_id":"cebpf4jnsgd1na2vs0mg"},{"bike_id":"1466ea0a-656f-485b-939a-7c9e9c76ce64","system_id":"levelo_inurba_marseille","lat":43.31896,"lon":5.40738,"is_reserved":false,"is_disabled":false,"rental_uris":{"android":"levelo://app?vid=1466ea0a-656f-485b-939a-7c9e9c76ce64","ios":"levelo://app?vid=1466ea0a-656f-485b-939a-7c9e9c76ce64"},"vehicle_type_id":"4","last_reported":1747196038,"current_range_meters":8800,"station_id":"ce4bhq12rcd13ifvqhig","pricing_plan_id":"cebpf4jnsgd1na2vs0mg"},{"bike_id":"eda320a9-c748-41fe-8957-3c5ad95195ad","system_id":"levelo_inurba_marseille","lat":43.310869,"lon":5.383692,"is_reserved":false,"is_disabled":false,"rental_uris":{"android":"levelo://app?vid=eda320a9-c748-41fe-8957-3c5ad95195ad","ios":"levelo://app?vid=eda320a9-c748-41fe-8957-3c5ad95195ad"},"vehicle_type_id":"4","last_reported":1747196038,"current_range_meters":8800,"station_id":"ce4bgv92rcd13ifvqcr0","pricing_plan_id":"cebpf4jnsgd1na2vs0mg"},{"bike_id":"6e09efd0-ae69-455b-a95f-47dfe1e3828d","system_id":"levelo_inurba_marseille","lat":43.30816,"lon":5.43598,"is_reserved":false,"is_disabled":false,"rental_uris":{"android":"levelo://app?vid=6e09efd0-ae69-455b-a95f-47dfe1e3828d","ios":"levelo://app?vid=6e09efd0-ae69-455b-a95f-47dfe1e3828d"},"vehicle_type_id":"4","last_reported":1747196038,"current_range_meters":8800,"station_id":"","pricing_plan_id":"cebpf4jnsgd1na2vs0mg"},{"bike_id":"31bbd2a3-3187-4cf6-ac4f-ef100a38b191","system_id":"levelo_inurba_marseille","lat":43.31479,"lon":5.37278,"is_reserved":false,"is_disabled":false,"rental_uris":{"android":"levelo://app?vid=31bbd2a3-3187-4cf6-ac4f-ef100a38b191","ios":"levelo://app?vid=31bbd2a3-3187-4cf6-ac4f-ef100a38b191"},"vehicle_type_id":"4","last_reported":1747196038,"current_range_meters":9200,"station_id":"ce4bgt12rcd13ifvqcd0","pricing_plan_id":"cebpf4jnsgd1na2vs0mg"},{"bike_id":"cf338769-a8de-47e3-99f7-f44d43d6f821","system_id":"levelo_inurba_marseille","lat":43.29675,"lon":5.36611,"is_reserved":false,"is_disabled":true,"rental_uris":{"android":"levelo://app?vid=cf338769-a8de-47e3-99f7-f44d43d6f821","ios":"levelo://app?vid=cf338769-a8de-47e3-99f7-f44d43d6f821"},"vehicle_type_id":"4","last_reported":1747196038,"current_range_meters":9200,"station_id":"ce4bgn12rcd13ifvqbt0","pricing_plan_id":"cebpf4jnsgd1na2vs0mg"},{"bike_id":"544aa33b-6d85-46e4-8e4f-d0a805535fd2","system_id":"levelo_inurba_marseille","lat":43.287005,"lon":5.399862,"is_reserved":false,"is_disabled":false,"rental_uris":{"android":"levelo://app?vid=544aa33b-6d85-46e4-8e4f-d0a805535fd2","ios":"levelo://app?vid=544aa33b-6d85-46e4-8e4f-d0a805535fd2"},"vehicle_type_id":"4","last_reported":1747196038,"current_range_meters":9200,"station_id":"ce4bho92rcd13ifvqh3g","pricing_plan_id":"cebpf4jnsgd1na2vs0mg"},{"bike_id":"a5d260ad-5fd1-499d-89d7-66b6d0e446f2","system_id":"levelo_inurba_marseille","lat":43.25115,"lon":5.40353,"is_reserved":false,"is_disabled":false,"rental_uris":{"android":"levelo://app?vid=a5d260ad-5fd1-499d-89d7-66b6d0e446f2","ios":"levelo://app?vid=a5d260ad-5fd1-499d-89d7-66b6d0e446f2"},"vehicle_type_id":"4","last_reported":1747196038,"current_range_meters":9200,"station_id":"","pricing_plan_id":"cebpf4jnsgd1na2vs0mg"},{"bike_id":"060d34f9-d5e7-4c03-bb96-9e6501866e6d","system_id":"levelo_inurba_marseille","lat":43.24088,"lon":5.37717,"is_reserved":false,"is_disabled":false,"rental_uris":{"android":"levelo://app?vid=060d34f9-d5e7-4c03-bb96-9e6501866e6d","ios":"levelo://app?vid=060d34f9-d5e7-4c03-bb96-9e6501866e6d"},"vehicle_type_id":"4","last_reported":1747196038,"current_range_meters":9200,"station_id":"ce4bhnp2rcd13ifvqgvg","pricing_plan_id":"cebpf4jnsgd1na2vs0mg"},{"bike_id":"e698e52b-b35d-4538-9d26-dea1a6ab3275","system_id":"levelo_inurba_marseille","lat":43.307968,"lon":5.381465,"is_reserved":false,"is_disabled":false,"rental_uris":{"android":"levelo://app?vid=e698e52b-b35d-4538-9d26-dea1a6ab3275","ios":"levelo://app?vid=e698e52b-b35d-4538-9d26-dea1a6ab3275"},"vehicle_type_id":"4","last_reported":1747196038,"current_range_meters":9200,"station_id":"ce4bgt12rcd13ifvqce0","pricing_plan_id":"cebpf4jnsgd1na2vs0mg"},{"bike_id":"a8d52740-981a-4603-b6fa-4d8a60cc4ff3","system_id":"levelo_inurba_marseille","lat":43.27997,"lon":5.40017,"is_reserved":false,"is_disabled":true,"rental_uris":{"android":"levelo://app?vid=a8d52740-981a-4603-b6fa-4d8a60cc4ff3","ios":"levelo://app?vid=a8d52740-981a-4603-b6fa-4d8a60cc4ff3"},"vehicle_type_id":"4","last_reported":1747196038,"current_range_meters":9200,"station_id":"ce4bho92rcd13ifvqh4g","pricing_plan_id":"cebpf4jnsgd1na2vs0mg"},{"bike_id":"0f4abef2-b0df-4803-98c6-01c55c5d115b","system_id":"levelo_inurba_marseille","lat":43.28566,"lon":5.395,"is_reserved":false,"is_disabled":false,"rental_uris":{"android":"levelo://app?vid=0f4abef2-b0df-4803-98c6-01c55c5d115b","ios":"levelo://app?vid=0f4abef2-b0df-4803-98c6-01c55c5d115b"},"vehicle_type_id":"4","last_reported":1747196038,"current_range_meters":9200,"station_id":"ce4bh292rcd13ifvqdg0","pricing_plan_id":"cebpf4jnsgd1na2vs0mg"},{"bike_id":"127f6762-1f70-43ae-8938-79f5184b1ee2","system_id":"levelo_inurba_marseille","lat":43.240691,"lon":5.377562,"is_reserved":false,"is_disabled":false,"rental_uris":{"android":"levelo://app?vid=127f6762-1f70-43ae-8938-79f5184b1ee2","ios":"levelo://app?vid=127f6762-1f70-43ae-8938-79f5184b1ee2"},"vehicle_type_id":"4","last_reported":1747196038,"current_range_meters":9200,"station_id":"ce4bhnp2rcd13ifvqgvg","pricing_plan_id":"cebpf4jnsgd1na2vs0mg"},{"bike_id":"ba458a5d-d478-4103-836d-59da615565d8","system_id":"levelo_inurba_marseille","lat":43.27017,"lon":5.42281,"is_reserved":false,"is_disabled":false,"rental_uris":{"android":"levelo://app?vid=ba458a5d-d478-4103-836d-59da615565d8","ios":"levelo://app?vid=ba458a5d-d478-4103-836d-59da615565d8"},"vehicle_type_id":"4","last_reported":1747196038,"current_range_meters":9600,"station_id":"","pricing_plan_id":"cebpf4jnsgd1na2vs0mg"},{"bike_id":"828f3d72-4b62-4490-a898-df9e30d9cf9b","system_id":"levelo_inurba_marseille","lat":43.30772,"lon":5.41333,"is_reserved":false,"is_disabled":false,"rental_uris":{"android":"levelo://app?vid=828f3d72-4b62-4490-a898-df9e30d9cf9b","ios":"levelo://app?vid=828f3d72-4b62-4490-a898-df9e30d9cf9b"},"vehicle_type_id":"4","last_reported":1747196038,"current_range_meters":9600,"station_id":"","pricing_plan_id":"cebpf4jnsgd1na2vs0mg"},{"bike_id":"bae0709b-c933-441a-ab47-3aad58f66d78","system_id":"levelo_inurba_marseille","lat":43.21752,"lon":5.34592,"is_reserved":false,"is_disabled":false,"rental_uris":{"android":"levelo://app?vid=bae0709b-c933-441a-ab47-3aad58f66d78","ios":"levelo://app?vid=bae0709b-c933-441a-ab47-3aad58f66d78"},"vehicle_type_id":"4","last_reported":1747196038,"current_range_meters":9600,"station_id":"st_cvj6r9ubvosntc0bgbag","pricing_plan_id":"cebpf4jnsgd1na2vs0mg"},{"bike_id":"35e54327-9a6c-4eab-83d7-f4b66990d100","system_id":"levelo_inurba_marseille","lat":43.289984,"lon":5.356135,"is_reserved":false,"is_disabled":true,"rental_uris":{"android":"levelo://app?vid=35e54327-9a6c-4eab-83d7-f4b66990d100","ios":"levelo://app?vid=35e54327-9a6c-4eab-83d7-f4b66990d100"},"vehicle_type_id":"4","last_reported":1747196038,"current_range_meters":9600,"station_id":"ce4bhb92rcd13ifvqen0","pricing_plan_id":"cebpf4jnsgd1na2vs0mg"},{"bike_id":"0505a949-06c3-482d-9bba-8aec985a08c5","system_id":"levelo_inurba_marseille","lat":43.308889,"lon":5.372013,"is_reserved":false,"is_disabled":true,"rental_uris":{"android":"levelo://app?vid=0505a949-06c3-482d-9bba-8aec985a08c5","ios":"levelo://app?vid=0505a949-06c3-482d-9bba-8aec985a08c5"},"vehicle_type_id":"4","last_reported":1747196038,"current_range_meters":9600,"station_id":"ce4bguh2rcd13ifvqckg","pricing_plan_id":"cebpf4jnsgd1na2vs0mg"},{"bike_id":"9c7224b1-1bf5-4174-843d-f9bc5d28275e","system_id":"levelo_inurba_marseille","lat":43.28712,"lon":5.399899,"is_reserved":false,"is_disabled":false,"rental_uris":{"android":"levelo://app?vid=9c7224b1-1bf5-4174-843d-f9bc5d28275e","ios":"levelo://app?vid=9c7224b1-1bf5-4174-843d-f9bc5d28275e"},"vehicle_type_id":"4","last_reported":1747196038,"current_range_meters":10000,"station_id":"ce4bho92rcd13ifvqh3g","pricing_plan_id":"cebpf4jnsgd1na2vs0mg"},{"bike_id":"80bee8ac-b124-4980-a798-213773e52355","system_id":"levelo_inurba_marseille","lat":43.3031,"lon":5.40452,"is_reserved":false,"is_disabled":false,"rental_uris":{"android":"levelo://app?vid=80bee8ac-b124-4980-a798-213773e52355","ios":"levelo://app?vid=80bee8ac-b124-4980-a798-213773e52355"},"vehicle_type_id":"4","last_reported":1747196038,"current_range_meters":10000,"station_id":"ce4bh012rcd13ifvqd10","pricing_plan_id":"cebpf4jnsgd1na2vs0mg"},{"bike_id":"fa247c8a-d839-4800-910d-7cc95e9b745b","system_id":"levelo_inurba_marseille","lat":43.30525,"lon":5.37209,"is_reserved":false,"is_disabled":false,"rental_uris":{"android":"levelo://app?vid=fa247c8a-d839-4800-910d-7cc95e9b745b","ios":"levelo://app?vid=fa247c8a-d839-4800-910d-7cc95e9b745b"},"vehicle_type_id":"4","last_reported":1747196038,"current_range_meters":10800,"station_id":"ce4bgqh2rcd13ifvqc4g","pricing_plan_id":"cebpf4jnsgd1na2vs0mg"},{"bike_id":"29ca8818-f2ee-47ec-a332-2860bcc2fb2a","system_id":"levelo_inurba_marseille","lat":43.231901,"lon":5.355673,"is_reserved":false,"is_disabled":false,"rental_uris":{"android":"levelo://app?vid=29ca8818-f2ee-47ec-a332-2860bcc2fb2a","ios":"levelo://app?vid=29ca8818-f2ee-47ec-a332-2860bcc2fb2a"},"vehicle_type_id":"4","last_reported":1747196038,"current_range_meters":10800,"station_id":"ce4bhu92rcd13ifvqi70","pricing_plan_id":"cebpf4jnsgd1na2vs0mg"},{"bike_id":"d559a899-b1bd-4a71-a12e-4458bcd0cdbf","system_id":"levelo_inurba_marseille","lat":43.23044,"lon":5.35496,"is_reserved":false,"is_disabled":false,"rental_uris":{"android":"levelo://app?vid=d559a899-b1bd-4a71-a12e-4458bcd0cdbf","ios":"levelo://app?vid=d559a899-b1bd-4a71-a12e-4458bcd0cdbf"},"vehicle_type_id":"4","last_reported":1747196038,"current_range_meters":10800,"station_id":"cpo3342slgdg3j2ifvpg","pricing_plan_id":"cebpf4jnsgd1na2vs0mg"},{"bike_id":"ff497a71-e333-4974-b3e4-ae998313ad63","system_id":"levelo_inurba_marseille","lat":43.3012,"lon":5.39858,"is_reserved":false,"is_disabled":false,"rental_uris":{"android":"levelo://app?vid=ff497a71-e333-4974-b3e4-ae998313ad63","ios":"levelo://app?vid=ff497a71-e333-4974-b3e4-ae998313ad63"},"vehicle_type_id":"4","last_reported":1747196038,"current_range_meters":10800,"station_id":"ce4bh0h2rcd13ifvqd40","pricing_plan_id":"cebpf4jnsgd1na2vs0mg"},{"bike_id":"11e495cb-e2b0-4615-bc23-02982335ed54","system_id":"levelo_inurba_marseille","lat":43.2507,"lon":5.39527,"is_reserved":false,"is_disabled":false,"rental_uris":{"android":"levelo://app?vid=11e495cb-e2b0-4615-bc23-02982335ed54","ios":"levelo://app?vid=11e495cb-e2b0-4615-bc23-02982335ed54"},"vehicle_type_id":"4","last_reported":1747196038,"current_range_meters":10800,"station_id":"ce4bhm12rcd13ifvqgkg","pricing_plan_id":"cebpf4jnsgd1na2vs0mg"},{"bike_id":"83119d09-9efb-429c-b5b9-f2163d6f4389","system_id":"levelo_inurba_marseille","lat":43.310721,"lon":5.383537,"is_reserved":false,"is_disabled":false,"rental_uris":{"android":"levelo://app?vid=83119d09-9efb-429c-b5b9-f2163d6f4389","ios":"levelo://app?vid=83119d09-9efb-429c-b5b9-f2163d6f4389"},"vehicle_type_id":"4","last_reported":1747196038,"current_range_meters":10800,"station_id":"ce4bgv92rcd13ifvqcr0","pricing_plan_id":"cebpf4jnsgd1na2vs0mg"},{"bike_id":"a681fd8a-af7e-409a-938a-dc3de79aa287","system_id":"levelo_inurba_marseille","lat":43.312662,"lon":5.401713,"is_reserved":false,"is_disabled":false,"rental_uris":{"android":"levelo://app?vid=a681fd8a-af7e-409a-938a-dc3de79aa287","ios":"levelo://app?vid=a681fd8a-af7e-409a-938a-dc3de79aa287"},"vehicle_type_id":"4","last_reported":1747196038,"current_range_meters":11200,"station_id":"ce4bh092rcd13ifvqd30","pricing_plan_id":"cebpf4jnsgd1na2vs0mg"},{"bike_id":"da5ac1fa-2e65-4f9c-a773-5ab48cea463c","system_id":"levelo_inurba_marseille","lat":43.240769,"lon":5.377496,"is_reserved":false,"is_disabled":false,"rental_uris":{"android":"levelo://app?vid=da5ac1fa-2e65-4f9c-a773-5ab48cea463c","ios":"levelo://app?vid=da5ac1fa-2e65-4f9c-a773-5ab48cea463c"},"vehicle_type_id":"4","last_reported":1747196038,"current_range_meters":11200,"station_id":"ce4bhnp2rcd13ifvqgvg","pricing_plan_id":"cebpf4jnsgd1na2vs0mg"},{"bike_id":"932e2eea-2ef5-46ab-b128-64df19c5d658","system_id":"levelo_inurba_marseille","lat":43.304935,"lon":5.392761,"is_reserved":false,"is_disabled":false,"rental_uris":{"android":"levelo://app?vid=932e2eea-2ef5-46ab-b128-64df19c5d658","ios":"levelo://app?vid=932e2eea-2ef5-46ab-b128-64df19c5d658"},"vehicle_type_id":"4","last_reported":1747196038,"current_range_meters":11200,"station_id":"","pricing_plan_id":"cebpf4jnsgd1na2vs0mg"},{"bike_id":"2095f8bc-1727-4f15-b184-732581ddd9e6","system_id":"levelo_inurba_marseille","lat":43.299281,"lon":5.37556,"is_reserved":false,"is_disabled":false,"rental_uris":{"android":"levelo://app?vid=2095f8bc-1727-4f15-b184-732581ddd9e6","ios":"levelo://app?vid=2095f8bc-1727-4f15-b184-732581ddd9e6"},"vehicle_type_id":"4","last_reported":1747196038,"current_range_meters":11200,"station_id":"","pricing_plan_id":"cebpf4jnsgd1na2vs0mg"},{"bike_id":"540e2a13-73af-464d-8e61-3cf23599d30a","system_id":"levelo_inurba_marseille","lat":43.3042,"lon":5.41276,"is_reserved":false,"is_disabled":false,"rental_uris":{"android":"levelo://app?vid=540e2a13-73af-464d-8e61-3cf23599d30a","ios":"levelo://app?vid=540e2a13-73af-464d-8e61-3cf23599d30a"},"vehicle_type_id":"4","last_reported":1747196038,"current_range_meters":11200,"station_id":"ce4bhop2rcd13ifvqh8g","pricing_plan_id":"cebpf4jnsgd1na2vs0mg"},{"bike_id":"bdfb75ca-fefb-4fb9-becc-bd378613ab46","system_id":"levelo_inurba_marseille","lat":43.29443,"lon":5.397481,"is_reserved":false,"is_disabled":false,"rental_uris":{"android":"levelo://app?vid=bdfb75ca-fefb-4fb9-becc-bd378613ab46","ios":"levelo://app?vid=bdfb75ca-fefb-4fb9-becc-bd378613ab46"},"vehicle_type_id":"4","last_reported":1747196038,"current_range_meters":11200,"station_id":"ce4bh3h2rcd13ifvqdo0","pricing_plan_id":"cebpf4jnsgd1na2vs0mg"},{"bike_id":"3097c71f-29aa-4cf9-98d9-b76dabee7dc9","system_id":"levelo_inurba_marseille","lat":43.281016,"lon":5.378514,"is_reserved":false,"is_disabled":false,"rental_uris":{"android":"levelo://app?vid=3097c71f-29aa-4cf9-98d9-b76dabee7dc9","ios":"levelo://app?vid=3097c71f-29aa-4cf9-98d9-b76dabee7dc9"},"vehicle_type_id":"4","last_reported":1747196038,"current_range_meters":11600,"station_id":"ce4bha12rcd13ifvqee0","pricing_plan_id":"cebpf4jnsgd1na2vs0mg"},{"bike_id":"63582912-f314-437d-bdb9-8991ea5c92a6","system_id":"levelo_inurba_marseille","lat":43.2465,"lon":5.38909,"is_reserved":false,"is_disabled":false,"rental_uris":{"android":"levelo://app?vid=63582912-f314-437d-bdb9-8991ea5c92a6","ios":"levelo://app?vid=63582912-f314-437d-bdb9-8991ea5c92a6"},"vehicle_type_id":"4","last_reported":1747196038,"current_range_meters":11600,"station_id":"ce4bhg12rcd13ifvqf60","pricing_plan_id":"cebpf4jnsgd1na2vs0mg"},{"bike_id":"e15dd958-cc90-41eb-8c8a-6663f7bccd99","system_id":"levelo_inurba_marseille","lat":43.311154,"lon":5.377634,"is_reserved":false,"is_disabled":false,"rental_uris":{"android":"levelo://app?vid=e15dd958-cc90-41eb-8c8a-6663f7bccd99","ios":"levelo://app?vid=e15dd958-cc90-41eb-8c8a-6663f7bccd99"},"vehicle_type_id":"4","last_reported":1747196038,"current_range_meters":11600,"station_id":"ce4bgt92rcd13ifvqcg0","pricing_plan_id":"cebpf4jnsgd1na2vs0mg"},{"bike_id":"f992a421-1974-43d2-890b-13f18604b31c","system_id":"levelo_inurba_marseille","lat":43.24649,"lon":5.38894,"is_reserved":false,"is_disabled":false,"rental_uris":{"android":"levelo://app?vid=f992a421-1974-43d2-890b-13f18604b31c","ios":"levelo://app?vid=f992a421-1974-43d2-890b-13f18604b31c"},"vehicle_type_id":"4","last_reported":1747196038,"current_range_meters":11600,"station_id":"ce4bhg12rcd13ifvqf60","pricing_plan_id":"cebpf4jnsgd1na2vs0mg"},{"bike_id":"b0242bf4-b83b-4d62-aa3e-64266801fbe9","system_id":"levelo_inurba_marseille","lat":43.310831,"lon":5.424291,"is_reserved":false,"is_disabled":false,"rental_uris":{"android":"levelo://app?vid=b0242bf4-b83b-4d62-aa3e-64266801fbe9","ios":"levelo://app?vid=b0242bf4-b83b-4d62-aa3e-64266801fbe9"},"vehicle_type_id":"4","last_reported":1747196038,"current_range_meters":11600,"station_id":"ce4bhp92rcd13ifvqhag","pricing_plan_id":"cebpf4jnsgd1na2vs0mg"},{"bike_id":"7d8a940b-fa41-48ed-bc64-d4da3160240b","system_id":"levelo_inurba_marseille","lat":43.30829,"lon":5.37934,"is_reserved":false,"is_disabled":false,"rental_uris":{"android":"levelo://app?vid=7d8a940b-fa41-48ed-bc64-d4da3160240b","ios":"levelo://app?vid=7d8a940b-fa41-48ed-bc64-d4da3160240b"},"vehicle_type_id":"4","last_reported":1747196038,"current_range_meters":11600,"station_id":"","pricing_plan_id":"cebpf4jnsgd1na2vs0mg"},{"bike_id":"4d1dec91-681c-43ec-bef1-6f9ae59b99c1","system_id":"levelo_inurba_marseille","lat":43.308017,"lon":5.381596,"is_reserved":false,"is_disabled":false,"rental_uris":{"android":"levelo://app?vid=4d1dec91-681c-43ec-bef1-6f9ae59b99c1","ios":"levelo://app?vid=4d1dec91-681c-43ec-bef1-6f9ae59b99c1"},"vehicle_type_id":"4","last_reported":1747196038,"current_range_meters":11600,"station_id":"ce4bgt12rcd13ifvqce0","pricing_plan_id":"cebpf4jnsgd1na2vs0mg"},{"bike_id":"4821750a-72fd-4a71-957e-987850a371e2","system_id":"levelo_inurba_marseille","lat":43.30144,"lon":5.47653,"is_reserved":false,"is_disabled":false,"rental_uris":{"android":"levelo://app?vid=4821750a-72fd-4a71-957e-987850a371e2","ios":"levelo://app?vid=4821750a-72fd-4a71-957e-987850a371e2"},"vehicle_type_id":"4","last_reported":1747196038,"current_range_meters":12000,"station_id":"","pricing_plan_id":"cebpf4jnsgd1na2vs0mg"},{"bike_id":"7cba10fe-3c05-4600-9e99-b670b46508ce","system_id":"levelo_inurba_marseille","lat":43.305257,"lon":5.384448,"is_reserved":false,"is_disabled":false,"rental_uris":{"android":"levelo://app?vid=7cba10fe-3c05-4600-9e99-b670b46508ce","ios":"levelo://app?vid=7cba10fe-3c05-4600-9e99-b670b46508ce"},"vehicle_type_id":"4","last_reported":1747196038,"current_range_meters":12000,"station_id":"ce4bgg92rcd13ifvqb30","pricing_plan_id":"cebpf4jnsgd1na2vs0mg"},{"bike_id":"ee95d7b1-23aa-4ba2-8604-c3c7e16b2172","system_id":"levelo_inurba_marseille","lat":43.289076,"lon":5.366538,"is_reserved":false,"is_disabled":false,"rental_uris":{"android":"levelo://app?vid=ee95d7b1-23aa-4ba2-8604-c3c7e16b2172","ios":"levelo://app?vid=ee95d7b1-23aa-4ba2-8604-c3c7e16b2172"},"vehicle_type_id":"4","last_reported":1747196038,"current_range_meters":12000,"station_id":"ce4bhap2rcd13ifvqek0","pricing_plan_id":"cebpf4jnsgd1na2vs0mg"},{"bike_id":"47b426d0-f6dd-4e48-87c1-a053a74ef8e3","system_id":"levelo_inurba_marseille","lat":43.302434,"lon":5.400519,"is_reserved":false,"is_disabled":false,"rental_uris":{"android":"levelo://app?vid=47b426d0-f6dd-4e48-87c1-a053a74ef8e3","ios":"levelo://app?vid=47b426d0-f6dd-4e48-87c1-a053a74ef8e3"},"vehicle_type_id":"4","last_reported":1747196038,"current_range_meters":12000,"station_id":"ce4bgvh2rcd13ifvqcs0","pricing_plan_id":"cebpf4jnsgd1na2vs0mg"},{"bike_id":"3e9889e7-cbb1-4e8a-8cbd-cde0b4fae7e2","system_id":"levelo_inurba_marseille","lat":43.27936,"lon":5.41063,"is_reserved":false,"is_disabled":false,"rental_uris":{"android":"levelo://app?vid=3e9889e7-cbb1-4e8a-8cbd-cde0b4fae7e2","ios":"levelo://app?vid=3e9889e7-cbb1-4e8a-8cbd-cde0b4fae7e2"},"vehicle_type_id":"4","last_reported":1747196038,"current_range_meters":12000,"station_id":"ce4bhnp2rcd13ifvqh0g","pricing_plan_id":"cebpf4jnsgd1na2vs0mg"},{"bike_id":"305747f4-7223-472c-b524-a278ac4e8ef1","system_id":"levelo_inurba_marseille","lat":43.295677,"lon":5.375161,"is_reserved":false,"is_disabled":true,"rental_uris":{"android":"levelo://app?vid=305747f4-7223-472c-b524-a278ac4e8ef1","ios":"levelo://app?vid=305747f4-7223-472c-b524-a278ac4e8ef1"},"vehicle_type_id":"4","last_reported":1747196038,"current_range_meters":12000,"station_id":"ce4bgh92rcd13ifvqb50","pricing_plan_id":"cebpf4jnsgd1na2vs0mg"},{"bike_id":"5c8b9c5b-5c2a-483e-865d-ae36047d40b5","system_id":"levelo_inurba_marseille","lat":43.300045,"lon":5.476345,"is_reserved":false,"is_disabled":false,"rental_uris":{"android":"levelo://app?vid=5c8b9c5b-5c2a-483e-865d-ae36047d40b5","ios":"levelo://app?vid=5c8b9c5b-5c2a-483e-865d-ae36047d40b5"},"vehicle_type_id":"4","last_reported":1747196038,"current_range_meters":12400,"station_id":"","pricing_plan_id":"cebpf4jnsgd1na2vs0mg"},{"bike_id":"3c019cfc-cf98-4ed3-817c-ad25fb02ed9c","system_id":"levelo_inurba_marseille","lat":43.284759,"lon":5.384354,"is_reserved":false,"is_disabled":true,"rental_uris":{"android":"levelo://app?vid=3c019cfc-cf98-4ed3-817c-ad25fb02ed9c","ios":"levelo://app?vid=3c019cfc-cf98-4ed3-817c-ad25fb02ed9c"},"vehicle_type_id":"4","last_reported":1747196038,"current_range_meters":12400,"station_id":"ce4bh512rcd13ifvqe3g","pricing_plan_id":"cebpf4jnsgd1na2vs0mg"},{"bike_id":"92a623d9-2bde-4d60-81e2-fdf54bb18ca6","system_id":"levelo_inurba_marseille","lat":43.22934,"lon":5.353769,"is_reserved":false,"is_disabled":false,"rental_uris":{"android":"levelo://app?vid=92a623d9-2bde-4d60-81e2-fdf54bb18ca6","ios":"levelo://app?vid=92a623d9-2bde-4d60-81e2-fdf54bb18ca6"},"vehicle_type_id":"4","last_reported":1747196038,"current_range_meters":12400,"station_id":"cpo3532slgdg3j2ikp40","pricing_plan_id":"cebpf4jnsgd1na2vs0mg"},{"bike_id":"ddede2fb-2f81-465d-98bb-e95d89460d99","system_id":"levelo_inurba_marseille","lat":43.287216,"lon":5.399862,"is_reserved":false,"is_disabled":false,"rental_uris":{"android":"levelo://app?vid=ddede2fb-2f81-465d-98bb-e95d89460d99","ios":"levelo://app?vid=ddede2fb-2f81-465d-98bb-e95d89460d99"},"vehicle_type_id":"4","last_reported":1747196038,"current_range_meters":12800,"station_id":"ce4bho92rcd13ifvqh3g","pricing_plan_id":"cebpf4jnsgd1na2vs0mg"},{"bike_id":"6507c08a-14ca-4394-a7ca-a83fa84e36c6","system_id":"levelo_inurba_marseille","lat":43.26936,"lon":5.40249,"is_reserved":false,"is_disabled":false,"rental_uris":{"android":"levelo://app?vid=6507c08a-14ca-4394-a7ca-a83fa84e36c6","ios":"levelo://app?vid=6507c08a-14ca-4394-a7ca-a83fa84e36c6"},"vehicle_type_id":"4","last_reported":1747196038,"current_range_meters":12800,"station_id":"cjm6bp8fraef2m0cb0m0","pricing_plan_id":"cebpf4jnsgd1na2vs0mg"},{"bike_id":"55a82d97-745b-41fd-8dda-f8ea9e4d2f06","system_id":"levelo_inurba_marseille","lat":43.335792,"lon":5.428274,"is_reserved":false,"is_disabled":false,"rental_uris":{"android":"levelo://app?vid=55a82d97-745b-41fd-8dda-f8ea9e4d2f06","ios":"levelo://app?vid=55a82d97-745b-41fd-8dda-f8ea9e4d2f06"},"vehicle_type_id":"4","last_reported":1747196038,"current_range_meters":12800,"station_id":"","pricing_plan_id":"cebpf4jnsgd1na2vs0mg"},{"bike_id":"301a3a6f-3f8e-4707-9290-d6655e615c25","system_id":"levelo_inurba_marseille","lat":43.317245,"lon":5.424054,"is_reserved":false,"is_disabled":false,"rental_uris":{"android":"levelo://app?vid=301a3a6f-3f8e-4707-9290-d6655e615c25","ios":"levelo://app?vid=301a3a6f-3f8e-4707-9290-d6655e615c25"},"vehicle_type_id":"4","last_reported":1747196038,"current_range_meters":12800,"station_id":"ce4bhp92rcd13ifvqhbg","pricing_plan_id":"cebpf4jnsgd1na2vs0mg"},{"bike_id":"382da604-28cd-407b-adb2-1bed2bb48c46","system_id":"levelo_inurba_marseille","lat":43.31904,"lon":5.36765,"is_reserved":false,"is_disabled":false,"rental_uris":{"android":"levelo://app?vid=382da604-28cd-407b-adb2-1bed2bb48c46","ios":"levelo://app?vid=382da604-28cd-407b-adb2-1bed2bb48c46"},"vehicle_type_id":"4","last_reported":1747196038,"current_range_meters":12800,"station_id":"","pricing_plan_id":"cebpf4jnsgd1na2vs0mg"},{"bike_id":"8864a029-a941-4ce6-b475-5550eed18723","system_id":"levelo_inurba_marseille","lat":43.299282,"lon":5.3655,"is_reserved":false,"is_disabled":false,"rental_uris":{"android":"levelo://app?vid=8864a029-a941-4ce6-b475-5550eed18723","ios":"levelo://app?vid=8864a029-a941-4ce6-b475-5550eed18723"},"vehicle_type_id":"4","last_reported":1747196038,"current_range_meters":12800,"station_id":"ce4bgm92rcd13ifvqbr0","pricing_plan_id":"cebpf4jnsgd1na2vs0mg"},{"bike_id":"f57e6f12-c038-4a7e-8f40-23ed2bed5616","system_id":"levelo_inurba_marseille","lat":43.30016,"lon":5.47593,"is_reserved":false,"is_disabled":false,"rental_uris":{"android":"levelo://app?vid=f57e6f12-c038-4a7e-8f40-23ed2bed5616","ios":"levelo://app?vid=f57e6f12-c038-4a7e-8f40-23ed2bed5616"},"vehicle_type_id":"4","last_reported":1747196038,"current_range_meters":12800,"station_id":"","pricing_plan_id":"cebpf4jnsgd1na2vs0mg"},{"bike_id":"7395c0f9-eb26-4cbc-9f9b-9c1edf7364f4","system_id":"levelo_inurba_marseille","lat":43.329662,"lon":5.405623,"is_reserved":false,"is_disabled":false,"rental_uris":{"android":"levelo://app?vid=7395c0f9-eb26-4cbc-9f9b-9c1edf7364f4","ios":"levelo://app?vid=7395c0f9-eb26-4cbc-9f9b-9c1edf7364f4"},"vehicle_type_id":"4","last_reported":1747196038,"current_range_meters":13600,"station_id":"","pricing_plan_id":"cebpf4jnsgd1na2vs0mg"},{"bike_id":"6b7c26be-9a4f-428c-8f3a-237ecf9240f7","system_id":"levelo_inurba_marseille","lat":43.316263,"lon":5.39633,"is_reserved":false,"is_disabled":false,"rental_uris":{"android":"levelo://app?vid=6b7c26be-9a4f-428c-8f3a-237ecf9240f7","ios":"levelo://app?vid=6b7c26be-9a4f-428c-8f3a-237ecf9240f7"},"vehicle_type_id":"4","last_reported":1747196038,"current_range_meters":13600,"station_id":"","pricing_plan_id":"cebpf4jnsgd1na2vs0mg"},{"bike_id":"5b83d4c8-c0b4-47f3-b1d8-051959d6423b","system_id":"levelo_inurba_marseille","lat":43.26208,"lon":5.40476,"is_reserved":false,"is_disabled":false,"rental_uris":{"android":"levelo://app?vid=5b83d4c8-c0b4-47f3-b1d8-051959d6423b","ios":"levelo://app?vid=5b83d4c8-c0b4-47f3-b1d8-051959d6423b"},"vehicle_type_id":"4","last_reported":1747196038,"current_range_meters":13600,"station_id":"ce4bhmh2rcd13ifvqgmg","pricing_plan_id":"cebpf4jnsgd1na2vs0mg"},{"bike_id":"a0c836bd-3175-4f52-b689-ec99736589ef","system_id":"levelo_inurba_marseille","lat":43.24547,"lon":5.39528,"is_reserved":false,"is_disabled":false,"rental_uris":{"android":"levelo://app?vid=a0c836bd-3175-4f52-b689-ec99736589ef","ios":"levelo://app?vid=a0c836bd-3175-4f52-b689-ec99736589ef"},"vehicle_type_id":"4","last_reported":1747196038,"current_range_meters":13600,"station_id":"ce4bhlp2rcd13ifvqgjg","pricing_plan_id":"cebpf4jnsgd1na2vs0mg"},{"bike_id":"42cfaabc-d4d4-405c-ab84-52ce3ce3032a","system_id":"levelo_inurba_marseille","lat":43.31713,"lon":5.43621,"is_reserved":false,"is_disabled":false,"rental_uris":{"android":"levelo://app?vid=42cfaabc-d4d4-405c-ab84-52ce3ce3032a","ios":"levelo://app?vid=42cfaabc-d4d4-405c-ab84-52ce3ce3032a"},"vehicle_type_id":"4","last_reported":1747196038,"current_range_meters":13600,"station_id":"","pricing_plan_id":"cebpf4jnsgd1na2vs0mg"},{"bike_id":"56d36b68-edf9-473f-91b7-17e6da79fdc2","system_id":"levelo_inurba_marseille","lat":43.26784,"lon":5.39464,"is_reserved":false,"is_disabled":false,"rental_uris":{"android":"levelo://app?vid=56d36b68-edf9-473f-91b7-17e6da79fdc2","ios":"levelo://app?vid=56d36b68-edf9-473f-91b7-17e6da79fdc2"},"vehicle_type_id":"4","last_reported":1747196038,"current_range_meters":14000,"station_id":"ce4bhh12rcd13ifvqfg0","pricing_plan_id":"cebpf4jnsgd1na2vs0mg"},{"bike_id":"f91a9f20-e278-49f9-bff0-9af4e1bfdc72","system_id":"levelo_inurba_marseille","lat":43.28658,"lon":5.39999,"is_reserved":false,"is_disabled":false,"rental_uris":{"android":"levelo://app?vid=f91a9f20-e278-49f9-bff0-9af4e1bfdc72","ios":"levelo://app?vid=f91a9f20-e278-49f9-bff0-9af4e1bfdc72"},"vehicle_type_id":"4","last_reported":1747196038,"current_range_meters":14000,"station_id":"","pricing_plan_id":"cebpf4jnsgd1na2vs0mg"},{"bike_id":"4d067a69-b9a9-4647-83ac-611755a10a2d","system_id":"levelo_inurba_marseille","lat":43.260155,"lon":5.41747,"is_reserved":false,"is_disabled":false,"rental_uris":{"android":"levelo://app?vid=4d067a69-b9a9-4647-83ac-611755a10a2d","ios":"levelo://app?vid=4d067a69-b9a9-4647-83ac-611755a10a2d"},"vehicle_type_id":"4","last_reported":1747196038,"current_range_meters":14000,"station_id":"","pricing_plan_id":"cebpf4jnsgd1na2vs0mg"},{"bike_id":"290413f8-4b92-42b0-99af-0cb4e023060f","system_id":"levelo_inurba_marseille","lat":43.31197,"lon":5.36892,"is_reserved":false,"is_disabled":true,"rental_uris":{"android":"levelo://app?vid=290413f8-4b92-42b0-99af-0cb4e023060f","ios":"levelo://app?vid=290413f8-4b92-42b0-99af-0cb4e023060f"},"vehicle_type_id":"4","last_reported":1747196038,"current_range_meters":14000,"station_id":"ce4bgl92rcd13ifvqbq0","pricing_plan_id":"cebpf4jnsgd1na2vs0mg"},{"bike_id":"9dce5f8a-8308-405a-84ed-0cff7b0e3802","system_id":"levelo_inurba_marseille","lat":43.287087,"lon":5.399999,"is_reserved":false,"is_disabled":false,"rental_uris":{"android":"levelo://app?vid=9dce5f8a-8308-405a-84ed-0cff7b0e3802","ios":"levelo://app?vid=9dce5f8a-8308-405a-84ed-0cff7b0e3802"},"vehicle_type_id":"4","last_reported":1747196038,"current_range_meters":14400,"station_id":"ce4bho92rcd13ifvqh3g","pricing_plan_id":"cebpf4jnsgd1na2vs0mg"},{"bike_id":"37166b1b-e63b-43e4-8df4-47faf64ec965","system_id":"levelo_inurba_marseille","lat":43.30804,"lon":5.381466,"is_reserved":false,"is_disabled":false,"rental_uris":{"android":"levelo://app?vid=37166b1b-e63b-43e4-8df4-47faf64ec965","ios":"levelo://app?vid=37166b1b-e63b-43e4-8df4-47faf64ec965"},"vehicle_type_id":"4","last_reported":1747196038,"current_range_meters":14400,"station_id":"ce4bgt12rcd13ifvqce0","pricing_plan_id":"cebpf4jnsgd1na2vs0mg"},{"bike_id":"6c320e07-d645-40f2-af93-68425ed6e226","system_id":"levelo_inurba_marseille","lat":43.31082,"lon":5.3833,"is_reserved":false,"is_disabled":false,"rental_uris":{"android":"levelo://app?vid=6c320e07-d645-40f2-af93-68425ed6e226","ios":"levelo://app?vid=6c320e07-d645-40f2-af93-68425ed6e226"},"vehicle_type_id":"4","last_reported":1747196038,"current_range_meters":14400,"station_id":"ce4bgv92rcd13ifvqcr0","pricing_plan_id":"cebpf4jnsgd1na2vs0mg"},{"bike_id":"ebbb3db5-66b4-4907-9a7b-ed749cb4c62b","system_id":"levelo_inurba_marseille","lat":43.31738,"lon":5.39026,"is_reserved":false,"is_disabled":false,"rental_uris":{"android":"levelo://app?vid=ebbb3db5-66b4-4907-9a7b-ed749cb4c62b","ios":"levelo://app?vid=ebbb3db5-66b4-4907-9a7b-ed749cb4c62b"},"vehicle_type_id":"4","last_reported":1747196038,"current_range_meters":14400,"station_id":"ce4bhqp2rcd13ifvqhng","pricing_plan_id":"cebpf4jnsgd1na2vs0mg"},{"bike_id":"1e297e0e-a907-489c-9a22-1dfb89bfb64f","system_id":"levelo_inurba_marseille","lat":43.29279,"lon":5.36444,"is_reserved":false,"is_disabled":false,"rental_uris":{"android":"levelo://app?vid=1e297e0e-a907-489c-9a22-1dfb89bfb64f","ios":"levelo://app?vid=1e297e0e-a907-489c-9a22-1dfb89bfb64f"},"vehicle_type_id":"4","last_reported":1747196038,"current_range_meters":14800,"station_id":"","pricing_plan_id":"cebpf4jnsgd1na2vs0mg"},{"bike_id":"0c893fb7-8626-4706-85bf-f404b871dea5","system_id":"levelo_inurba_marseille","lat":43.281183,"lon":5.445991,"is_reserved":false,"is_disabled":false,"rental_uris":{"android":"levelo://app?vid=0c893fb7-8626-4706-85bf-f404b871dea5","ios":"levelo://app?vid=0c893fb7-8626-4706-85bf-f404b871dea5"},"vehicle_type_id":"4","last_reported":1747196038,"current_range_meters":14800,"station_id":"","pricing_plan_id":"cebpf4jnsgd1na2vs0mg"},{"bike_id":"356eb65b-4211-494a-b4a2-fba28f60c55b","system_id":"levelo_inurba_marseille","lat":43.312711,"lon":5.40162,"is_reserved":false,"is_disabled":false,"rental_uris":{"android":"levelo://app?vid=356eb65b-4211-494a-b4a2-fba28f60c55b","ios":"levelo://app?vid=356eb65b-4211-494a-b4a2-fba28f60c55b"},"vehicle_type_id":"4","last_reported":1747196038,"current_range_meters":14800,"station_id":"ce4bh092rcd13ifvqd30","pricing_plan_id":"cebpf4jnsgd1na2vs0mg"},{"bike_id":"e0b72e53-6f43-40a6-a62f-fa80124a77b6","system_id":"levelo_inurba_marseille","lat":43.26945,"lon":5.386293,"is_reserved":false,"is_disabled":true,"rental_uris":{"android":"levelo://app?vid=e0b72e53-6f43-40a6-a62f-fa80124a77b6","ios":"levelo://app?vid=e0b72e53-6f43-40a6-a62f-fa80124a77b6"},"vehicle_type_id":"4","last_reported":1747196038,"current_range_meters":15200,"station_id":"ce4bhh92rcd13ifvqfh0","pricing_plan_id":"cebpf4jnsgd1na2vs0mg"},{"bike_id":"46763bb3-efa8-4792-b73a-0ee884b4c63a","system_id":"levelo_inurba_marseille","lat":43.30439,"lon":5.41255,"is_reserved":false,"is_disabled":false,"rental_uris":{"android":"levelo://app?vid=46763bb3-efa8-4792-b73a-0ee884b4c63a","ios":"levelo://app?vid=46763bb3-efa8-4792-b73a-0ee884b4c63a"},"vehicle_type_id":"4","last_reported":1747196038,"current_range_meters":15200,"station_id":"ce4bhop2rcd13ifvqh8g","pricing_plan_id":"cebpf4jnsgd1na2vs0mg"},{"bike_id":"e1b7877d-b413-4fd3-b7e0-fbf47c737189","system_id":"levelo_inurba_marseille","lat":43.284381,"lon":5.391911,"is_reserved":false,"is_disabled":false,"rental_uris":{"android":"levelo://app?vid=e1b7877d-b413-4fd3-b7e0-fbf47c737189","ios":"levelo://app?vid=e1b7877d-b413-4fd3-b7e0-fbf47c737189"},"vehicle_type_id":"4","last_reported":1747196038,"current_range_meters":15200,"station_id":"ce4bhoh2rcd13ifvqh5g","pricing_plan_id":"cebpf4jnsgd1na2vs0mg"},{"bike_id":"996c5fef-fb32-436e-91e8-1605b7eae977","system_id":"levelo_inurba_marseille","lat":43.21191,"lon":5.35069,"is_reserved":false,"is_disabled":false,"rental_uris":{"android":"levelo://app?vid=996c5fef-fb32-436e-91e8-1605b7eae977","ios":"levelo://app?vid=996c5fef-fb32-436e-91e8-1605b7eae977"},"vehicle_type_id":"4","last_reported":1747196038,"current_range_meters":15200,"station_id":"st_cvj6sg6p6f1abm77japg","pricing_plan_id":"cebpf4jnsgd1na2vs0mg"},{"bike_id":"977d0951-40d5-4b1e-8806-1af2c81bb348","system_id":"levelo_inurba_marseille","lat":43.229234,"lon":5.353854,"is_reserved":false,"is_disabled":false,"rental_uris":{"android":"levelo://app?vid=977d0951-40d5-4b1e-8806-1af2c81bb348","ios":"levelo://app?vid=977d0951-40d5-4b1e-8806-1af2c81bb348"},"vehicle_type_id":"4","last_reported":1747196038,"current_range_meters":16000,"station_id":"cpo3532slgdg3j2ikp40","pricing_plan_id":"cebpf4jnsgd1na2vs0mg"},{"bike_id":"6c2c2fbb-d63b-479a-8565-a08a4d80173e","system_id":"levelo_inurba_marseille","lat":43.292735,"lon":5.401524,"is_reserved":false,"is_disabled":false,"rental_uris":{"android":"levelo://app?vid=6c2c2fbb-d63b-479a-8565-a08a4d80173e","ios":"levelo://app?vid=6c2c2fbb-d63b-479a-8565-a08a4d80173e"},"vehicle_type_id":"4","last_reported":1747196038,"current_range_meters":16000,"station_id":"ce4bh312rcd13ifvqdk0","pricing_plan_id":"cebpf4jnsgd1na2vs0mg"},{"bike_id":"ffe53d02-a538-4c1a-9a5c-588c2097d334","system_id":"levelo_inurba_marseille","lat":43.22932,"lon":5.35377,"is_reserved":false,"is_disabled":false,"rental_uris":{"android":"levelo://app?vid=ffe53d02-a538-4c1a-9a5c-588c2097d334","ios":"levelo://app?vid=ffe53d02-a538-4c1a-9a5c-588c2097d334"},"vehicle_type_id":"4","last_reported":1747196038,"current_range_meters":16000,"station_id":"cpo3532slgdg3j2ikp40","pricing_plan_id":"cebpf4jnsgd1na2vs0mg"},{"bike_id":"bd2b5a4c-e937-4cff-a5f6-59cf103d5392","system_id":"levelo_inurba_marseille","lat":43.302579,"lon":5.400725,"is_reserved":false,"is_disabled":false,"rental_uris":{"android":"levelo://app?vid=bd2b5a4c-e937-4cff-a5f6-59cf103d5392","ios":"levelo://app?vid=bd2b5a4c-e937-4cff-a5f6-59cf103d5392"},"vehicle_type_id":"4","last_reported":1747196038,"current_range_meters":16400,"station_id":"ce4bgvh2rcd13ifvqcs0","pricing_plan_id":"cebpf4jnsgd1na2vs0mg"},{"bike_id":"8d563e64-e76f-43b4-934f-0ef8b1e94d35","system_id":"levelo_inurba_marseille","lat":43.318768,"lon":5.373802,"is_reserved":false,"is_disabled":false,"rental_uris":{"android":"levelo://app?vid=8d563e64-e76f-43b4-934f-0ef8b1e94d35","ios":"levelo://app?vid=8d563e64-e76f-43b4-934f-0ef8b1e94d35"},"vehicle_type_id":"4","last_reported":1747196038,"current_range_meters":16400,"station_id":"","pricing_plan_id":"cebpf4jnsgd1na2vs0mg"},{"bike_id":"0ee57cd3-b290-46af-a35a-6f306772e452","system_id":"levelo_inurba_marseille","lat":43.30662,"lon":5.40273,"is_reserved":false,"is_disabled":false,"rental_uris":{"android":"levelo://app?vid=0ee57cd3-b290-46af-a35a-6f306772e452","ios":"levelo://app?vid=0ee57cd3-b290-46af-a35a-6f306772e452"},"vehicle_type_id":"4","last_reported":1747196038,"current_range_meters":16400,"station_id":"","pricing_plan_id":"cebpf4jnsgd1na2vs0mg"},{"bike_id":"6ab8ce51-7577-4ccb-ac2f-bc6cb35c2974","system_id":"levelo_inurba_marseille","lat":43.211926,"lon":5.350769,"is_reserved":false,"is_disabled":false,"rental_uris":{"android":"levelo://app?vid=6ab8ce51-7577-4ccb-ac2f-bc6cb35c2974","ios":"levelo://app?vid=6ab8ce51-7577-4ccb-ac2f-bc6cb35c2974"},"vehicle_type_id":"4","last_reported":1747196038,"current_range_meters":16400,"station_id":"st_cvj6sg6p6f1abm77japg","pricing_plan_id":"cebpf4jnsgd1na2vs0mg"},{"bike_id":"10f98a35-89c5-4475-9c01-49b1c98311db","system_id":"levelo_inurba_marseille","lat":43.27572,"lon":5.38464,"is_reserved":false,"is_disabled":false,"rental_uris":{"android":"levelo://app?vid=10f98a35-89c5-4475-9c01-49b1c98311db","ios":"levelo://app?vid=10f98a35-89c5-4475-9c01-49b1c98311db"},"vehicle_type_id":"4","last_reported":1747196038,"current_range_meters":16800,"station_id":"ce4bhh92rcd13ifvqfi0","pricing_plan_id":"cebpf4jnsgd1na2vs0mg"},{"bike_id":"deac4db0-9b8e-4a2f-baf8-2108ac02cff5","system_id":"levelo_inurba_marseille","lat":43.22518,"lon":5.34755,"is_reserved":false,"is_disabled":false,"rental_uris":{"android":"levelo://app?vid=deac4db0-9b8e-4a2f-baf8-2108ac02cff5","ios":"levelo://app?vid=deac4db0-9b8e-4a2f-baf8-2108ac02cff5"},"vehicle_type_id":"4","last_reported":1747196038,"current_range_meters":16800,"station_id":"st_cvj5dfep6f1abm77gieg","pricing_plan_id":"cebpf4jnsgd1na2vs0mg"},{"bike_id":"5d370f72-1749-4f0b-9815-d32525a7fd58","system_id":"levelo_inurba_marseille","lat":43.323341,"lon":5.406236,"is_reserved":false,"is_disabled":false,"rental_uris":{"android":"levelo://app?vid=5d370f72-1749-4f0b-9815-d32525a7fd58","ios":"levelo://app?vid=5d370f72-1749-4f0b-9815-d32525a7fd58"},"vehicle_type_id":"4","last_reported":1747196038,"current_range_meters":16800,"station_id":"ce4bhq92rcd13ifvqhjg","pricing_plan_id":"cebpf4jnsgd1na2vs0mg"},{"bike_id":"140a4313-931b-4531-86c2-56a878302554","system_id":"levelo_inurba_marseille","lat":43.30929,"lon":5.40149,"is_reserved":false,"is_disabled":false,"rental_uris":{"android":"levelo://app?vid=140a4313-931b-4531-86c2-56a878302554","ios":"levelo://app?vid=140a4313-931b-4531-86c2-56a878302554"},"vehicle_type_id":"4","last_reported":1747196038,"current_range_meters":16800,"station_id":"ce4bgvp2rcd13ifvqct0","pricing_plan_id":"cebpf4jnsgd1na2vs0mg"},{"bike_id":"f82feab9-232b-41ba-b7d0-66c9931f5d8b","system_id":"levelo_inurba_marseille","lat":43.286974,"lon":5.400084,"is_reserved":false,"is_disabled":false,"rental_uris":{"android":"levelo://app?vid=f82feab9-232b-41ba-b7d0-66c9931f5d8b","ios":"levelo://app?vid=f82feab9-232b-41ba-b7d0-66c9931f5d8b"},"vehicle_type_id":"4","last_reported":1747196038,"current_range_meters":16800,"station_id":"ce4bho92rcd13ifvqh3g","pricing_plan_id":"cebpf4jnsgd1na2vs0mg"},{"bike_id":"c5a6038e-e242-4c42-a6da-186787771b16","system_id":"levelo_inurba_marseille","lat":43.217623,"lon":5.346128,"is_reserved":false,"is_disabled":false,"rental_uris":{"android":"levelo://app?vid=c5a6038e-e242-4c42-a6da-186787771b16","ios":"levelo://app?vid=c5a6038e-e242-4c42-a6da-186787771b16"},"vehicle_type_id":"4","last_reported":1747196038,"current_range_meters":17200,"station_id":"st_cvj6r9ubvosntc0bgbag","pricing_plan_id":"cebpf4jnsgd1na2vs0mg"},{"bike_id":"c1221f98-1a10-4585-801b-8900ec2f00eb","system_id":"levelo_inurba_marseille","lat":43.297078,"lon":5.365965,"is_reserved":false,"is_disabled":false,"rental_uris":{"android":"levelo://app?vid=c1221f98-1a10-4585-801b-8900ec2f00eb","ios":"levelo://app?vid=c1221f98-1a10-4585-801b-8900ec2f00eb"},"vehicle_type_id":"4","last_reported":1747196038,"current_range_meters":17200,"station_id":"ce4bgn12rcd13ifvqbt0","pricing_plan_id":"cebpf4jnsgd1na2vs0mg"},{"bike_id":"b4777d59-fc56-46ae-8a48-c6f6a5536c77","system_id":"levelo_inurba_marseille","lat":43.30278,"lon":5.40444,"is_reserved":false,"is_disabled":false,"rental_uris":{"android":"levelo://app?vid=b4777d59-fc56-46ae-8a48-c6f6a5536c77","ios":"levelo://app?vid=b4777d59-fc56-46ae-8a48-c6f6a5536c77"},"vehicle_type_id":"4","last_reported":1747196038,"current_range_meters":17200,"station_id":"","pricing_plan_id":"cebpf4jnsgd1na2vs0mg"},{"bike_id":"3b8bd03d-b03b-41de-9406-6372dd33a0ed","system_id":"levelo_inurba_marseille","lat":43.287088,"lon":5.399759,"is_reserved":false,"is_disabled":false,"rental_uris":{"android":"levelo://app?vid=3b8bd03d-b03b-41de-9406-6372dd33a0ed","ios":"levelo://app?vid=3b8bd03d-b03b-41de-9406-6372dd33a0ed"},"vehicle_type_id":"4","last_reported":1747196038,"current_range_meters":17200,"station_id":"ce4bho92rcd13ifvqh3g","pricing_plan_id":"cebpf4jnsgd1na2vs0mg"},{"bike_id":"8ff86fea-1791-450c-a5aa-8bebc912c03b","system_id":"levelo_inurba_marseille","lat":43.321038,"lon":5.367805,"is_reserved":false,"is_disabled":false,"rental_uris":{"android":"levelo://app?vid=8ff86fea-1791-450c-a5aa-8bebc912c03b","ios":"levelo://app?vid=8ff86fea-1791-450c-a5aa-8bebc912c03b"},"vehicle_type_id":"4","last_reported":1747196038,"current_range_meters":17200,"station_id":"ce4bhrh2rcd13ifvqhug","pricing_plan_id":"cebpf4jnsgd1na2vs0mg"},{"bike_id":"51436966-3bae-4f05-bd39-e136a6553cbf","system_id":"levelo_inurba_marseille","lat":43.28432,"lon":5.39225,"is_reserved":false,"is_disabled":false,"rental_uris":{"android":"levelo://app?vid=51436966-3bae-4f05-bd39-e136a6553cbf","ios":"levelo://app?vid=51436966-3bae-4f05-bd39-e136a6553cbf"},"vehicle_type_id":"4","last_reported":1747196038,"current_range_meters":17200,"station_id":"ce4bhoh2rcd13ifvqh5g","pricing_plan_id":"cebpf4jnsgd1na2vs0mg"},{"bike_id":"8446de64-ef8c-4cdc-a02f-ac80f8460e67","system_id":"levelo_inurba_marseille","lat":43.313674,"lon":5.38496,"is_reserved":false,"is_disabled":true,"rental_uris":{"android":"levelo://app?vid=8446de64-ef8c-4cdc-a02f-ac80f8460e67","ios":"levelo://app?vid=8446de64-ef8c-4cdc-a02f-ac80f8460e67"},"vehicle_type_id":"4","last_reported":1747196038,"current_range_meters":17200,"station_id":"ce4bgt92rcd13ifvqcf0","pricing_plan_id":"cebpf4jnsgd1na2vs0mg"},{"bike_id":"ecdc5eb1-7184-4fb1-b390-8b3d2977affa","system_id":"levelo_inurba_marseille","lat":43.311039,"lon":5.375987,"is_reserved":false,"is_disabled":false,"rental_uris":{"android":"levelo://app?vid=ecdc5eb1-7184-4fb1-b390-8b3d2977affa","ios":"levelo://app?vid=ecdc5eb1-7184-4fb1-b390-8b3d2977affa"},"vehicle_type_id":"4","last_reported":1747196038,"current_range_meters":17200,"station_id":"","pricing_plan_id":"cebpf4jnsgd1na2vs0mg"},{"bike_id":"1cfb5e24-e097-429b-8c97-a76aaf9b3f49","system_id":"levelo_inurba_marseille","lat":43.24683,"lon":5.38137,"is_reserved":false,"is_disabled":false,"rental_uris":{"android":"levelo://app?vid=1cfb5e24-e097-429b-8c97-a76aaf9b3f49","ios":"levelo://app?vid=1cfb5e24-e097-429b-8c97-a76aaf9b3f49"},"vehicle_type_id":"4","last_reported":1747196038,"current_range_meters":17600,"station_id":"ce4bhih2rcd13ifvqfr0","pricing_plan_id":"cebpf4jnsgd1na2vs0mg"},{"bike_id":"4fc49f79-fa67-4460-a03b-8373ee1b7092","system_id":"levelo_inurba_marseille","lat":43.267972,"lon":5.402769,"is_reserved":false,"is_disabled":false,"rental_uris":{"android":"levelo://app?vid=4fc49f79-fa67-4460-a03b-8373ee1b7092","ios":"levelo://app?vid=4fc49f79-fa67-4460-a03b-8373ee1b7092"},"vehicle_type_id":"4","last_reported":1747196038,"current_range_meters":17600,"station_id":"ce501612rcd8frsf0b60","pricing_plan_id":"cebpf4jnsgd1na2vs0mg"},{"bike_id":"ef410d40-1ffa-437e-9a16-f0d5b7ee98c1","system_id":"levelo_inurba_marseille","lat":43.281,"lon":5.37848,"is_reserved":false,"is_disabled":false,"rental_uris":{"android":"levelo://app?vid=ef410d40-1ffa-437e-9a16-f0d5b7ee98c1","ios":"levelo://app?vid=ef410d40-1ffa-437e-9a16-f0d5b7ee98c1"},"vehicle_type_id":"4","last_reported":1747196038,"current_range_meters":17600,"station_id":"ce4bha12rcd13ifvqee0","pricing_plan_id":"cebpf4jnsgd1na2vs0mg"},{"bike_id":"1f4658bd-b04a-47f1-8fa8-8ae9eb2b41b6","system_id":"levelo_inurba_marseille","lat":43.287039,"lon":5.399946,"is_reserved":false,"is_disabled":false,"rental_uris":{"android":"levelo://app?vid=1f4658bd-b04a-47f1-8fa8-8ae9eb2b41b6","ios":"levelo://app?vid=1f4658bd-b04a-47f1-8fa8-8ae9eb2b41b6"},"vehicle_type_id":"4","last_reported":1747196038,"current_range_meters":17600,"station_id":"ce4bho92rcd13ifvqh3g","pricing_plan_id":"cebpf4jnsgd1na2vs0mg"},{"bike_id":"29ce2bff-29c9-4638-a93d-53611c79a41e","system_id":"levelo_inurba_marseille","lat":43.323698,"lon":5.38884,"is_reserved":false,"is_disabled":false,"rental_uris":{"android":"levelo://app?vid=29ce2bff-29c9-4638-a93d-53611c79a41e","ios":"levelo://app?vid=29ce2bff-29c9-4638-a93d-53611c79a41e"},"vehicle_type_id":"4","last_reported":1747196038,"current_range_meters":17600,"station_id":"ce4bhqp2rcd13ifvqhog","pricing_plan_id":"cebpf4jnsgd1na2vs0mg"},{"bike_id":"8494d181-9ae5-4c66-9c18-2effdb88bdb3","system_id":"levelo_inurba_marseille","lat":43.307873,"lon":5.376456,"is_reserved":false,"is_disabled":false,"rental_uris":{"android":"levelo://app?vid=8494d181-9ae5-4c66-9c18-2effdb88bdb3","ios":"levelo://app?vid=8494d181-9ae5-4c66-9c18-2effdb88bdb3"},"vehicle_type_id":"4","last_reported":1747196038,"current_range_meters":17600,"station_id":"ce4bgv92rcd13ifvqcq0","pricing_plan_id":"cebpf4jnsgd1na2vs0mg"},{"bike_id":"f1451609-d035-47a8-8036-0b5324cee08c","system_id":"levelo_inurba_marseille","lat":43.305962,"lon":5.372342,"is_reserved":false,"is_disabled":false,"rental_uris":{"android":"levelo://app?vid=f1451609-d035-47a8-8036-0b5324cee08c","ios":"levelo://app?vid=f1451609-d035-47a8-8036-0b5324cee08c"},"vehicle_type_id":"4","last_reported":1747196038,"current_range_meters":17600,"station_id":"ce4bgqh2rcd13ifvqc4g","pricing_plan_id":"cebpf4jnsgd1na2vs0mg"},{"bike_id":"fd75db0b-8fe0-4d21-834a-948fc2981351","system_id":"levelo_inurba_marseille","lat":43.28438,"lon":5.39244,"is_reserved":false,"is_disabled":false,"rental_uris":{"android":"levelo://app?vid=fd75db0b-8fe0-4d21-834a-948fc2981351","ios":"levelo://app?vid=fd75db0b-8fe0-4d21-834a-948fc2981351"},"vehicle_type_id":"4","last_reported":1747196038,"current_range_meters":17600,"station_id":"ce4bhoh2rcd13ifvqh5g","pricing_plan_id":"cebpf4jnsgd1na2vs0mg"},{"bike_id":"5647a91f-31a6-41fb-82bb-83893a94fc73","system_id":"levelo_inurba_marseille","lat":43.21194,"lon":5.35071,"is_reserved":false,"is_disabled":false,"rental_uris":{"android":"levelo://app?vid=5647a91f-31a6-41fb-82bb-83893a94fc73","ios":"levelo://app?vid=5647a91f-31a6-41fb-82bb-83893a94fc73"},"vehicle_type_id":"4","last_reported":1747196038,"current_range_meters":18000,"station_id":"st_cvj6sg6p6f1abm77japg","pricing_plan_id":"cebpf4jnsgd1na2vs0mg"},{"bike_id":"e3ebb892-4873-4499-953b-e4921a77194a","system_id":"levelo_inurba_marseille","lat":43.272131,"lon":5.391844,"is_reserved":false,"is_disabled":true,"rental_uris":{"android":"levelo://app?vid=e3ebb892-4873-4499-953b-e4921a77194a","ios":"levelo://app?vid=e3ebb892-4873-4499-953b-e4921a77194a"},"vehicle_type_id":"4","last_reported":1747196038,"current_range_meters":18000,"station_id":"ce4bhhp2rcd13ifvqfm0","pricing_plan_id":"cebpf4jnsgd1na2vs0mg"},{"bike_id":"5b2bf2cc-e79c-4a99-a91f-20d49657d90b","system_id":"levelo_inurba_marseille","lat":43.241748,"lon":5.397314,"is_reserved":false,"is_disabled":false,"rental_uris":{"android":"levelo://app?vid=5b2bf2cc-e79c-4a99-a91f-20d49657d90b","ios":"levelo://app?vid=5b2bf2cc-e79c-4a99-a91f-20d49657d90b"},"vehicle_type_id":"4","last_reported":1747196038,"current_range_meters":18000,"station_id":"ce4bhn12rcd13ifvqgpg","pricing_plan_id":"cebpf4jnsgd1na2vs0mg"},{"bike_id":"2caf282f-50d5-4f90-a160-c61524772e9a","system_id":"levelo_inurba_marseille","lat":43.285706,"lon":5.39484,"is_reserved":false,"is_disabled":false,"rental_uris":{"android":"levelo://app?vid=2caf282f-50d5-4f90-a160-c61524772e9a","ios":"levelo://app?vid=2caf282f-50d5-4f90-a160-c61524772e9a"},"vehicle_type_id":"4","last_reported":1747196038,"current_range_meters":18000,"station_id":"ce4bh292rcd13ifvqdg0","pricing_plan_id":"cebpf4jnsgd1na2vs0mg"},{"bike_id":"c77744cd-dd85-473a-952b-e9873b6afa4f","system_id":"levelo_inurba_marseille","lat":43.332284,"lon":5.404284,"is_reserved":false,"is_disabled":false,"rental_uris":{"android":"levelo://app?vid=c77744cd-dd85-473a-952b-e9873b6afa4f","ios":"levelo://app?vid=c77744cd-dd85-473a-952b-e9873b6afa4f"},"vehicle_type_id":"4","last_reported":1747196038,"current_range_meters":18000,"station_id":"","pricing_plan_id":"cebpf4jnsgd1na2vs0mg"},{"bike_id":"743d0d38-9a78-4c3b-bda7-0ebf8bc2b883","system_id":"levelo_inurba_marseille","lat":43.29184,"lon":5.393126,"is_reserved":false,"is_disabled":false,"rental_uris":{"android":"levelo://app?vid=743d0d38-9a78-4c3b-bda7-0ebf8bc2b883","ios":"levelo://app?vid=743d0d38-9a78-4c3b-bda7-0ebf8bc2b883"},"vehicle_type_id":"4","last_reported":1747196038,"current_range_meters":18000,"station_id":"ce4bh192rcd13ifvqdd0","pricing_plan_id":"cebpf4jnsgd1na2vs0mg"},{"bike_id":"4d9dea08-0ce2-46e3-a80c-3afc35c09a11","system_id":"levelo_inurba_marseille","lat":43.3173,"lon":5.39023,"is_reserved":false,"is_disabled":false,"rental_uris":{"android":"levelo://app?vid=4d9dea08-0ce2-46e3-a80c-3afc35c09a11","ios":"levelo://app?vid=4d9dea08-0ce2-46e3-a80c-3afc35c09a11"},"vehicle_type_id":"4","last_reported":1747196038,"current_range_meters":18000,"station_id":"ce4bhqp2rcd13ifvqhng","pricing_plan_id":"cebpf4jnsgd1na2vs0mg"},{"bike_id":"686028bb-3f38-4226-a10d-757fc0409f53","system_id":"levelo_inurba_marseille","lat":43.2927,"lon":5.40122,"is_reserved":false,"is_disabled":false,"rental_uris":{"android":"levelo://app?vid=686028bb-3f38-4226-a10d-757fc0409f53","ios":"levelo://app?vid=686028bb-3f38-4226-a10d-757fc0409f53"},"vehicle_type_id":"4","last_reported":1747196038,"current_range_meters":17600,"station_id":"ce4bh312rcd13ifvqdk0","pricing_plan_id":"cebpf4jnsgd1na2vs0mg"},{"bike_id":"3315caf7-376f-4460-bd73-ddce057d5263","system_id":"levelo_inurba_marseille","lat":43.24081,"lon":5.37766,"is_reserved":false,"is_disabled":false,"rental_uris":{"android":"levelo://app?vid=3315caf7-376f-4460-bd73-ddce057d5263","ios":"levelo://app?vid=3315caf7-376f-4460-bd73-ddce057d5263"},"vehicle_type_id":"4","last_reported":1747196038,"current_range_meters":18000,"station_id":"ce4bhnp2rcd13ifvqgvg","pricing_plan_id":"cebpf4jnsgd1na2vs0mg"},{"bike_id":"71184bd5-3817-43b3-8b7e-8c7eedcc81a3","system_id":"levelo_inurba_marseille","lat":43.30298,"lon":5.40438,"is_reserved":false,"is_disabled":false,"rental_uris":{"android":"levelo://app?vid=71184bd5-3817-43b3-8b7e-8c7eedcc81a3","ios":"levelo://app?vid=71184bd5-3817-43b3-8b7e-8c7eedcc81a3"},"vehicle_type_id":"4","last_reported":1747196038,"current_range_meters":18800,"station_id":"ce4bh012rcd13ifvqd10","pricing_plan_id":"cebpf4jnsgd1na2vs0mg"},{"bike_id":"0b9607ef-f196-4c2a-a63c-3384ebed5fb2","system_id":"levelo_inurba_marseille","lat":43.29904,"lon":5.39718,"is_reserved":false,"is_disabled":false,"rental_uris":{"android":"levelo://app?vid=0b9607ef-f196-4c2a-a63c-3384ebed5fb2","ios":"levelo://app?vid=0b9607ef-f196-4c2a-a63c-3384ebed5fb2"},"vehicle_type_id":"4","last_reported":1747196038,"current_range_meters":18800,"station_id":"ce4bh0h2rcd13ifvqd50","pricing_plan_id":"cebpf4jnsgd1na2vs0mg"},{"bike_id":"f0649364-0107-4d97-ae7e-c2cb5ebd23f0","system_id":"levelo_inurba_marseille","lat":43.21776,"lon":5.34592,"is_reserved":false,"is_disabled":false,"rental_uris":{"android":"levelo://app?vid=f0649364-0107-4d97-ae7e-c2cb5ebd23f0","ios":"levelo://app?vid=f0649364-0107-4d97-ae7e-c2cb5ebd23f0"},"vehicle_type_id":"4","last_reported":1747196038,"current_range_meters":18800,"station_id":"st_cvj6r9ubvosntc0bgbag","pricing_plan_id":"cebpf4jnsgd1na2vs0mg"},{"bike_id":"c61dc4c2-1457-4a98-ab55-37af57e827a1","system_id":"levelo_inurba_marseille","lat":43.281553,"lon":5.426459,"is_reserved":false,"is_disabled":false,"rental_uris":{"android":"levelo://app?vid=c61dc4c2-1457-4a98-ab55-37af57e827a1","ios":"levelo://app?vid=c61dc4c2-1457-4a98-ab55-37af57e827a1"},"vehicle_type_id":"4","last_reported":1747196038,"current_range_meters":18800,"station_id":"ce4bhnh2rcd13ifvqgug","pricing_plan_id":"cebpf4jnsgd1na2vs0mg"},{"bike_id":"cde9e2f9-16b1-492d-93b9-e84fde1bbe3d","system_id":"levelo_inurba_marseille","lat":43.337793,"lon":5.374745,"is_reserved":false,"is_disabled":false,"rental_uris":{"android":"levelo://app?vid=cde9e2f9-16b1-492d-93b9-e84fde1bbe3d","ios":"levelo://app?vid=cde9e2f9-16b1-492d-93b9-e84fde1bbe3d"},"vehicle_type_id":"4","last_reported":1747196038,"current_range_meters":18800,"station_id":"","pricing_plan_id":"cebpf4jnsgd1na2vs0mg"},{"bike_id":"ac0112c9-313e-422c-910b-a3523b05b0c9","system_id":"levelo_inurba_marseille","lat":43.230572,"lon":5.354867,"is_reserved":false,"is_disabled":false,"rental_uris":{"android":"levelo://app?vid=ac0112c9-313e-422c-910b-a3523b05b0c9","ios":"levelo://app?vid=ac0112c9-313e-422c-910b-a3523b05b0c9"},"vehicle_type_id":"4","last_reported":1747196038,"current_range_meters":19200,"station_id":"cpo3342slgdg3j2ifvpg","pricing_plan_id":"cebpf4jnsgd1na2vs0mg"},{"bike_id":"042b9723-7f0a-48a6-9720-7f35c609a25c","system_id":"levelo_inurba_marseille","lat":43.313589,"lon":5.385088,"is_reserved":false,"is_disabled":false,"rental_uris":{"android":"levelo://app?vid=042b9723-7f0a-48a6-9720-7f35c609a25c","ios":"levelo://app?vid=042b9723-7f0a-48a6-9720-7f35c609a25c"},"vehicle_type_id":"4","last_reported":1747196038,"current_range_meters":19200,"station_id":"ce4bgt92rcd13ifvqcf0","pricing_plan_id":"cebpf4jnsgd1na2vs0mg"},{"bike_id":"49a5f454-00ee-4b17-84b8-175848e72351","system_id":"levelo_inurba_marseille","lat":43.306534,"lon":5.400849,"is_reserved":false,"is_disabled":false,"rental_uris":{"android":"levelo://app?vid=49a5f454-00ee-4b17-84b8-175848e72351","ios":"levelo://app?vid=49a5f454-00ee-4b17-84b8-175848e72351"},"vehicle_type_id":"4","last_reported":1747196038,"current_range_meters":19200,"station_id":"ce4bh112rcd13ifvqda0","pricing_plan_id":"cebpf4jnsgd1na2vs0mg"},{"bike_id":"c4f204d2-505f-4d38-a978-29d1e951ec0a","system_id":"levelo_inurba_marseille","lat":43.25016,"lon":5.38933,"is_reserved":false,"is_disabled":false,"rental_uris":{"android":"levelo://app?vid=c4f204d2-505f-4d38-a978-29d1e951ec0a","ios":"levelo://app?vid=c4f204d2-505f-4d38-a978-29d1e951ec0a"},"vehicle_type_id":"4","last_reported":1747196038,"current_range_meters":19200,"station_id":"ce4bhgp2rcd13ifvqfd0","pricing_plan_id":"cebpf4jnsgd1na2vs0mg"},{"bike_id":"e409cd08-b9c4-4d62-aefb-05d029e2c480","system_id":"levelo_inurba_marseille","lat":43.306459,"lon":5.427941,"is_reserved":false,"is_disabled":false,"rental_uris":{"android":"levelo://app?vid=e409cd08-b9c4-4d62-aefb-05d029e2c480","ios":"levelo://app?vid=e409cd08-b9c4-4d62-aefb-05d029e2c480"},"vehicle_type_id":"4","last_reported":1747196038,"current_range_meters":19200,"station_id":"","pricing_plan_id":"cebpf4jnsgd1na2vs0mg"},{"bike_id":"32c4297d-700e-456e-b1ab-9788fe2e644b","system_id":"levelo_inurba_marseille","lat":43.315066,"lon":5.372939,"is_reserved":false,"is_disabled":true,"rental_uris":{"android":"levelo://app?vid=32c4297d-700e-456e-b1ab-9788fe2e644b","ios":"levelo://app?vid=32c4297d-700e-456e-b1ab-9788fe2e644b"},"vehicle_type_id":"4","last_reported":1747196038,"current_range_meters":19200,"station_id":"ce4bgt12rcd13ifvqcd0","pricing_plan_id":"cebpf4jnsgd1na2vs0mg"},{"bike_id":"09a35a50-6156-435d-8ef9-8519335d4492","system_id":"levelo_inurba_marseille","lat":43.30626,"lon":5.40102,"is_reserved":false,"is_disabled":false,"rental_uris":{"android":"levelo://app?vid=09a35a50-6156-435d-8ef9-8519335d4492","ios":"levelo://app?vid=09a35a50-6156-435d-8ef9-8519335d4492"},"vehicle_type_id":"4","last_reported":1747196038,"current_range_meters":19200,"station_id":"ce4bh112rcd13ifvqda0","pricing_plan_id":"cebpf4jnsgd1na2vs0mg"},{"bike_id":"000c0b13-a9a2-4019-bac1-98362dbbca8f","system_id":"levelo_inurba_marseille","lat":43.24066,"lon":5.37769,"is_reserved":false,"is_disabled":false,"rental_uris":{"android":"levelo://app?vid=000c0b13-a9a2-4019-bac1-98362dbbca8f","ios":"levelo://app?vid=000c0b13-a9a2-4019-bac1-98362dbbca8f"},"vehicle_type_id":"4","last_reported":1747196038,"current_range_meters":19200,"station_id":"ce4bhnp2rcd13ifvqgvg","pricing_plan_id":"cebpf4jnsgd1na2vs0mg"},{"bike_id":"c11d672d-5ac8-4a85-b01e-f9e4763d878d","system_id":"levelo_inurba_marseille","lat":43.33601,"lon":5.41016,"is_reserved":false,"is_disabled":false,"rental_uris":{"android":"levelo://app?vid=c11d672d-5ac8-4a85-b01e-f9e4763d878d","ios":"levelo://app?vid=c11d672d-5ac8-4a85-b01e-f9e4763d878d"},"vehicle_type_id":"4","last_reported":1747196038,"current_range_meters":19200,"station_id":"ce4bhqh2rcd13ifvqhmg","pricing_plan_id":"cebpf4jnsgd1na2vs0mg"},{"bike_id":"2b610a4a-1cfb-4419-b14d-2ee96e7de55a","system_id":"levelo_inurba_marseille","lat":43.291883,"lon":5.393374,"is_reserved":false,"is_disabled":false,"rental_uris":{"android":"levelo://app?vid=2b610a4a-1cfb-4419-b14d-2ee96e7de55a","ios":"levelo://app?vid=2b610a4a-1cfb-4419-b14d-2ee96e7de55a"},"vehicle_type_id":"4","last_reported":1747196038,"current_range_meters":19200,"station_id":"ce4bh192rcd13ifvqdd0","pricing_plan_id":"cebpf4jnsgd1na2vs0mg"},{"bike_id":"41534364-62ff-4459-92c4-4f300a43681b","system_id":"levelo_inurba_marseille","lat":43.284381,"lon":5.391946,"is_reserved":false,"is_disabled":false,"rental_uris":{"android":"levelo://app?vid=41534364-62ff-4459-92c4-4f300a43681b","ios":"levelo://app?vid=41534364-62ff-4459-92c4-4f300a43681b"},"vehicle_type_id":"4","last_reported":1747196038,"current_range_meters":19200,"station_id":"ce4bhoh2rcd13ifvqh5g","pricing_plan_id":"cebpf4jnsgd1na2vs0mg"},{"bike_id":"c380b381-f658-4326-975e-149df212b5ab","system_id":"levelo_inurba_marseille","lat":43.24804,"lon":5.37455,"is_reserved":false,"is_disabled":false,"rental_uris":{"android":"levelo://app?vid=c380b381-f658-4326-975e-149df212b5ab","ios":"levelo://app?vid=c380b381-f658-4326-975e-149df212b5ab"},"vehicle_type_id":"4","last_reported":1747196038,"current_range_meters":19600,"station_id":"ce4bhgh2rcd13ifvqfb0","pricing_plan_id":"cebpf4jnsgd1na2vs0mg"},{"bike_id":"c21fd8a7-f8cf-41af-b742-acb68b7cb536","system_id":"levelo_inurba_marseille","lat":43.241769,"lon":5.397054,"is_reserved":false,"is_disabled":true,"rental_uris":{"android":"levelo://app?vid=c21fd8a7-f8cf-41af-b742-acb68b7cb536","ios":"levelo://app?vid=c21fd8a7-f8cf-41af-b742-acb68b7cb536"},"vehicle_type_id":"4","last_reported":1747196038,"current_range_meters":19600,"station_id":"ce4bhn12rcd13ifvqgpg","pricing_plan_id":"cebpf4jnsgd1na2vs0mg"},{"bike_id":"68bd40db-e76c-4167-888e-a375f5a26ea6","system_id":"levelo_inurba_marseille","lat":43.2816,"lon":5.42684,"is_reserved":false,"is_disabled":false,"rental_uris":{"android":"levelo://app?vid=68bd40db-e76c-4167-888e-a375f5a26ea6","ios":"levelo://app?vid=68bd40db-e76c-4167-888e-a375f5a26ea6"},"vehicle_type_id":"4","last_reported":1747196038,"current_range_meters":19600,"station_id":"ce4bhnh2rcd13ifvqgug","pricing_plan_id":"cebpf4jnsgd1na2vs0mg"},{"bike_id":"65a2976c-8b04-429a-95dd-f42d445408eb","system_id":"levelo_inurba_marseille","lat":43.2897,"lon":5.39619,"is_reserved":false,"is_disabled":false,"rental_uris":{"android":"levelo://app?vid=65a2976c-8b04-429a-95dd-f42d445408eb","ios":"levelo://app?vid=65a2976c-8b04-429a-95dd-f42d445408eb"},"vehicle_type_id":"4","last_reported":1747196038,"current_range_meters":19600,"station_id":"ce4bh3h2rcd13ifvqdn0","pricing_plan_id":"cebpf4jnsgd1na2vs0mg"},{"bike_id":"765d3cc3-0332-4bc4-99d3-4f30c7b8cbea","system_id":"levelo_inurba_marseille","lat":43.28299,"lon":5.35085,"is_reserved":false,"is_disabled":false,"rental_uris":{"android":"levelo://app?vid=765d3cc3-0332-4bc4-99d3-4f30c7b8cbea","ios":"levelo://app?vid=765d3cc3-0332-4bc4-99d3-4f30c7b8cbea"},"vehicle_type_id":"4","last_reported":1747196038,"current_range_meters":19600,"station_id":"ce4bhbp2rcd13ifvqerg","pricing_plan_id":"cebpf4jnsgd1na2vs0mg"},{"bike_id":"c2b14f17-082d-4942-ac27-c2062cd954d6","system_id":"levelo_inurba_marseille","lat":43.261955,"lon":5.379313,"is_reserved":false,"is_disabled":false,"rental_uris":{"android":"levelo://app?vid=c2b14f17-082d-4942-ac27-c2062cd954d6","ios":"levelo://app?vid=c2b14f17-082d-4942-ac27-c2062cd954d6"},"vehicle_type_id":"4","last_reported":1747196038,"current_range_meters":20000,"station_id":"ce4bhjp2rcd13ifvqg90","pricing_plan_id":"cebpf4jnsgd1na2vs0mg"},{"bike_id":"04e67dbc-e3a0-4610-98d7-538d972ffae2","system_id":"levelo_inurba_marseille","lat":43.2511,"lon":5.40317,"is_reserved":false,"is_disabled":false,"rental_uris":{"android":"levelo://app?vid=04e67dbc-e3a0-4610-98d7-538d972ffae2","ios":"levelo://app?vid=04e67dbc-e3a0-4610-98d7-538d972ffae2"},"vehicle_type_id":"4","last_reported":1747196038,"current_range_meters":20000,"station_id":"ce4bhlh2rcd13ifvqgig","pricing_plan_id":"cebpf4jnsgd1na2vs0mg"},{"bike_id":"644511a3-94a8-4d9e-a99e-a8a4681f0634","system_id":"levelo_inurba_marseille","lat":43.241759,"lon":5.397345,"is_reserved":false,"is_disabled":false,"rental_uris":{"android":"levelo://app?vid=644511a3-94a8-4d9e-a99e-a8a4681f0634","ios":"levelo://app?vid=644511a3-94a8-4d9e-a99e-a8a4681f0634"},"vehicle_type_id":"4","last_reported":1747196038,"current_range_meters":20000,"station_id":"ce4bhn12rcd13ifvqgpg","pricing_plan_id":"cebpf4jnsgd1na2vs0mg"},{"bike_id":"e46528c9-be4d-4b17-9919-22ec681c2159","system_id":"levelo_inurba_marseille","lat":43.29934,"lon":5.38518,"is_reserved":false,"is_disabled":false,"rental_uris":{"android":"levelo://app?vid=e46528c9-be4d-4b17-9919-22ec681c2159","ios":"levelo://app?vid=e46528c9-be4d-4b17-9919-22ec681c2159"},"vehicle_type_id":"4","last_reported":1747196038,"current_range_meters":20400,"station_id":"","pricing_plan_id":"cebpf4jnsgd1na2vs0mg"},{"bike_id":"c35bcab0-a37f-4f36-9542-92ea7d9f56c6","system_id":"levelo_inurba_marseille","lat":43.284391,"lon":5.391833,"is_reserved":false,"is_disabled":false,"rental_uris":{"android":"levelo://app?vid=c35bcab0-a37f-4f36-9542-92ea7d9f56c6","ios":"levelo://app?vid=c35bcab0-a37f-4f36-9542-92ea7d9f56c6"},"vehicle_type_id":"4","last_reported":1747196038,"current_range_meters":20400,"station_id":"ce4bhoh2rcd13ifvqh5g","pricing_plan_id":"cebpf4jnsgd1na2vs0mg"},{"bike_id":"38e17345-4492-446b-b61d-b44cc143194f","system_id":"levelo_inurba_marseille","lat":43.2715,"lon":5.4102,"is_reserved":false,"is_disabled":false,"rental_uris":{"android":"levelo://app?vid=38e17345-4492-446b-b61d-b44cc143194f","ios":"levelo://app?vid=38e17345-4492-446b-b61d-b44cc143194f"},"vehicle_type_id":"4","last_reported":1747196038,"current_range_meters":20400,"station_id":"ce4bhl12rcd13ifvqgf0","pricing_plan_id":"cebpf4jnsgd1na2vs0mg"},{"bike_id":"c0b9fd4f-e181-46ce-b0bf-f5119973334f","system_id":"levelo_inurba_marseille","lat":43.33771,"lon":5.37424,"is_reserved":false,"is_disabled":false,"rental_uris":{"android":"levelo://app?vid=c0b9fd4f-e181-46ce-b0bf-f5119973334f","ios":"levelo://app?vid=c0b9fd4f-e181-46ce-b0bf-f5119973334f"},"vehicle_type_id":"4","last_reported":1747196038,"current_range_meters":20400,"station_id":"","pricing_plan_id":"cebpf4jnsgd1na2vs0mg"},{"bike_id":"9f1268c2-d2d6-4f6b-ad6b-d35923580a6d","system_id":"levelo_inurba_marseille","lat":43.24192,"lon":5.39692,"is_reserved":false,"is_disabled":false,"rental_uris":{"android":"levelo://app?vid=9f1268c2-d2d6-4f6b-ad6b-d35923580a6d","ios":"levelo://app?vid=9f1268c2-d2d6-4f6b-ad6b-d35923580a6d"},"vehicle_type_id":"4","last_reported":1747196038,"current_range_meters":20800,"station_id":"ce4bhn12rcd13ifvqgpg","pricing_plan_id":"cebpf4jnsgd1na2vs0mg"},{"bike_id":"6acad5bb-433f-471b-b953-71840710769f","system_id":"levelo_inurba_marseille","lat":43.28163,"lon":5.42665,"is_reserved":false,"is_disabled":false,"rental_uris":{"android":"levelo://app?vid=6acad5bb-433f-471b-b953-71840710769f","ios":"levelo://app?vid=6acad5bb-433f-471b-b953-71840710769f"},"vehicle_type_id":"4","last_reported":1747196038,"current_range_meters":20800,"station_id":"ce4bhnh2rcd13ifvqgug","pricing_plan_id":"cebpf4jnsgd1na2vs0mg"},{"bike_id":"64824209-6cba-4c12-875a-1502c403c27a","system_id":"levelo_inurba_marseille","lat":43.211704,"lon":5.350823,"is_reserved":false,"is_disabled":false,"rental_uris":{"android":"levelo://app?vid=64824209-6cba-4c12-875a-1502c403c27a","ios":"levelo://app?vid=64824209-6cba-4c12-875a-1502c403c27a"},"vehicle_type_id":"4","last_reported":1747196038,"current_range_meters":20800,"station_id":"st_cvj6sg6p6f1abm77japg","pricing_plan_id":"cebpf4jnsgd1na2vs0mg"},{"bike_id":"08a93b84-f9e2-4480-b23a-2ee7a592645e","system_id":"levelo_inurba_marseille","lat":43.217497,"lon":5.346044,"is_reserved":false,"is_disabled":false,"rental_uris":{"android":"levelo://app?vid=08a93b84-f9e2-4480-b23a-2ee7a592645e","ios":"levelo://app?vid=08a93b84-f9e2-4480-b23a-2ee7a592645e"},"vehicle_type_id":"4","last_reported":1747196038,"current_range_meters":20800,"station_id":"st_cvj6r9ubvosntc0bgbag","pricing_plan_id":"cebpf4jnsgd1na2vs0mg"},{"bike_id":"f68e8348-7bfa-41aa-8b96-07cd6d89f773","system_id":"levelo_inurba_marseille","lat":43.281552,"lon":5.426478,"is_reserved":false,"is_disabled":false,"rental_uris":{"android":"levelo://app?vid=f68e8348-7bfa-41aa-8b96-07cd6d89f773","ios":"levelo://app?vid=f68e8348-7bfa-41aa-8b96-07cd6d89f773"},"vehicle_type_id":"4","last_reported":1747196038,"current_range_meters":20800,"station_id":"","pricing_plan_id":"cebpf4jnsgd1na2vs0mg"},{"bike_id":"a0b33ced-2d73-4ee0-93d7-11f117c46477","system_id":"levelo_inurba_marseille","lat":43.308033,"lon":5.381493,"is_reserved":false,"is_disabled":false,"rental_uris":{"android":"levelo://app?vid=a0b33ced-2d73-4ee0-93d7-11f117c46477","ios":"levelo://app?vid=a0b33ced-2d73-4ee0-93d7-11f117c46477"},"vehicle_type_id":"4","last_reported":1747196038,"current_range_meters":20800,"station_id":"ce4bgt12rcd13ifvqce0","pricing_plan_id":"cebpf4jnsgd1na2vs0mg"},{"bike_id":"0cc46be0-cda7-4d84-a24a-b567a36e5f7e","system_id":"levelo_inurba_marseille","lat":43.30273,"lon":5.36859,"is_reserved":false,"is_disabled":true,"rental_uris":{"android":"levelo://app?vid=0cc46be0-cda7-4d84-a24a-b567a36e5f7e","ios":"levelo://app?vid=0cc46be0-cda7-4d84-a24a-b567a36e5f7e"},"vehicle_type_id":"4","last_reported":1747196038,"current_range_meters":20800,"station_id":"","pricing_plan_id":"cebpf4jnsgd1na2vs0mg"},{"bike_id":"b1aa1f45-b92a-4d19-a660-2a64a4d58438","system_id":"levelo_inurba_marseille","lat":43.30787,"lon":5.43543,"is_reserved":false,"is_disabled":false,"rental_uris":{"android":"levelo://app?vid=b1aa1f45-b92a-4d19-a660-2a64a4d58438","ios":"levelo://app?vid=b1aa1f45-b92a-4d19-a660-2a64a4d58438"},"vehicle_type_id":"4","last_reported":1747196038,"current_range_meters":20800,"station_id":"ce4bhph2rcd13ifvqheg","pricing_plan_id":"cebpf4jnsgd1na2vs0mg"},{"bike_id":"c9813867-74b9-4493-a0fd-23fe27ebcda4","system_id":"levelo_inurba_marseille","lat":43.231863,"lon":5.399898,"is_reserved":false,"is_disabled":false,"rental_uris":{"android":"levelo://app?vid=c9813867-74b9-4493-a0fd-23fe27ebcda4","ios":"levelo://app?vid=c9813867-74b9-4493-a0fd-23fe27ebcda4"},"vehicle_type_id":"4","last_reported":1747196038,"current_range_meters":20800,"station_id":"ce4bhn12rcd13ifvqgqg","pricing_plan_id":"cebpf4jnsgd1na2vs0mg"},{"bike_id":"74e465a6-62f1-45be-9144-40f0ae71c9e6","system_id":"levelo_inurba_marseille","lat":43.323638,"lon":5.367632,"is_reserved":false,"is_disabled":false,"rental_uris":{"android":"levelo://app?vid=74e465a6-62f1-45be-9144-40f0ae71c9e6","ios":"levelo://app?vid=74e465a6-62f1-45be-9144-40f0ae71c9e6"},"vehicle_type_id":"4","last_reported":1747196038,"current_range_meters":20800,"station_id":"ce4bhsh2rcd13ifvqi2g","pricing_plan_id":"cebpf4jnsgd1na2vs0mg"},{"bike_id":"b6df1ef4-d5f7-49cc-b6d6-45e21292bd56","system_id":"levelo_inurba_marseille","lat":43.30787,"lon":5.37653,"is_reserved":false,"is_disabled":false,"rental_uris":{"android":"levelo://app?vid=b6df1ef4-d5f7-49cc-b6d6-45e21292bd56","ios":"levelo://app?vid=b6df1ef4-d5f7-49cc-b6d6-45e21292bd56"},"vehicle_type_id":"4","last_reported":1747196038,"current_range_meters":20800,"station_id":"ce4bgv92rcd13ifvqcq0","pricing_plan_id":"cebpf4jnsgd1na2vs0mg"},{"bike_id":"330f2327-dace-4ec8-bea6-228e1998da88","system_id":"levelo_inurba_marseille","lat":43.311736,"lon":5.387183,"is_reserved":false,"is_disabled":false,"rental_uris":{"android":"levelo://app?vid=330f2327-dace-4ec8-bea6-228e1998da88","ios":"levelo://app?vid=330f2327-dace-4ec8-bea6-228e1998da88"},"vehicle_type_id":"4","last_reported":1747196038,"current_range_meters":21600,"station_id":"ce4bgv12rcd13ifvqcp0","pricing_plan_id":"cebpf4jnsgd1na2vs0mg"},{"bike_id":"b40566c8-4d01-4412-8987-500491dad71f","system_id":"levelo_inurba_marseille","lat":43.29213,"lon":5.39339,"is_reserved":false,"is_disabled":false,"rental_uris":{"android":"levelo://app?vid=b40566c8-4d01-4412-8987-500491dad71f","ios":"levelo://app?vid=b40566c8-4d01-4412-8987-500491dad71f"},"vehicle_type_id":"4","last_reported":1747196038,"current_range_meters":21600,"station_id":"ce4bh192rcd13ifvqdd0","pricing_plan_id":"cebpf4jnsgd1na2vs0mg"},{"bike_id":"5d2adaa4-6c94-44d1-9821-32113c11cea1","system_id":"levelo_inurba_marseille","lat":43.311245,"lon":5.377744,"is_reserved":false,"is_disabled":false,"rental_uris":{"android":"levelo://app?vid=5d2adaa4-6c94-44d1-9821-32113c11cea1","ios":"levelo://app?vid=5d2adaa4-6c94-44d1-9821-32113c11cea1"},"vehicle_type_id":"4","last_reported":1747196038,"current_range_meters":22000,"station_id":"ce4bgt92rcd13ifvqcg0","pricing_plan_id":"cebpf4jnsgd1na2vs0mg"},{"bike_id":"609f90e5-b3dc-4f12-9a9c-f87707d79da6","system_id":"levelo_inurba_marseille","lat":43.306414,"lon":5.400706,"is_reserved":false,"is_disabled":false,"rental_uris":{"android":"levelo://app?vid=609f90e5-b3dc-4f12-9a9c-f87707d79da6","ios":"levelo://app?vid=609f90e5-b3dc-4f12-9a9c-f87707d79da6"},"vehicle_type_id":"4","last_reported":1747196038,"current_range_meters":22000,"station_id":"ce4bh112rcd13ifvqda0","pricing_plan_id":"cebpf4jnsgd1na2vs0mg"},{"bike_id":"535a0ff2-55fd-494f-9309-765ffaabd655","system_id":"levelo_inurba_marseille","lat":43.292497,"lon":5.384513,"is_reserved":false,"is_disabled":true,"rental_uris":{"android":"levelo://app?vid=535a0ff2-55fd-494f-9309-765ffaabd655","ios":"levelo://app?vid=535a0ff2-55fd-494f-9309-765ffaabd655"},"vehicle_type_id":"4","last_reported":1747196038,"current_range_meters":22400,"station_id":"ce4bh692rcd13ifvqea0","pricing_plan_id":"cebpf4jnsgd1na2vs0mg"},{"bike_id":"40b7249d-dd19-497f-8d80-28577f46a35f","system_id":"levelo_inurba_marseille","lat":43.297073,"lon":5.377029,"is_reserved":false,"is_disabled":false,"rental_uris":{"android":"levelo://app?vid=40b7249d-dd19-497f-8d80-28577f46a35f","ios":"levelo://app?vid=40b7249d-dd19-497f-8d80-28577f46a35f"},"vehicle_type_id":"4","last_reported":1747196038,"current_range_meters":22400,"station_id":"","pricing_plan_id":"cebpf4jnsgd1na2vs0mg"},{"bike_id":"4f461d9e-0791-44a1-8f2c-1bfb520f3d7e","system_id":"levelo_inurba_marseille","lat":43.28676,"lon":5.39973,"is_reserved":false,"is_disabled":false,"rental_uris":{"android":"levelo://app?vid=4f461d9e-0791-44a1-8f2c-1bfb520f3d7e","ios":"levelo://app?vid=4f461d9e-0791-44a1-8f2c-1bfb520f3d7e"},"vehicle_type_id":"4","last_reported":1747196038,"current_range_meters":22400,"station_id":"ce4bho92rcd13ifvqh3g","pricing_plan_id":"cebpf4jnsgd1na2vs0mg"},{"bike_id":"ebeec7c7-d83e-4d66-a329-183623c050d7","system_id":"levelo_inurba_marseille","lat":43.307923,"lon":5.435299,"is_reserved":false,"is_disabled":false,"rental_uris":{"android":"levelo://app?vid=ebeec7c7-d83e-4d66-a329-183623c050d7","ios":"levelo://app?vid=ebeec7c7-d83e-4d66-a329-183623c050d7"},"vehicle_type_id":"4","last_reported":1747196038,"current_range_meters":22400,"station_id":"ce4bhph2rcd13ifvqheg","pricing_plan_id":"cebpf4jnsgd1na2vs0mg"},{"bike_id":"f7f6f24d-43e1-4937-8f7b-cf3ee6847e7e","system_id":"levelo_inurba_marseille","lat":43.308001,"lon":5.381528,"is_reserved":false,"is_disabled":false,"rental_uris":{"android":"levelo://app?vid=f7f6f24d-43e1-4937-8f7b-cf3ee6847e7e","ios":"levelo://app?vid=f7f6f24d-43e1-4937-8f7b-cf3ee6847e7e"},"vehicle_type_id":"4","last_reported":1747196038,"current_range_meters":22800,"station_id":"ce4bgt12rcd13ifvqce0","pricing_plan_id":"cebpf4jnsgd1na2vs0mg"},{"bike_id":"90d298fd-9069-4918-a0ed-7933d2508d55","system_id":"levelo_inurba_marseille","lat":43.250016,"lon":5.389411,"is_reserved":false,"is_disabled":false,"rental_uris":{"android":"levelo://app?vid=90d298fd-9069-4918-a0ed-7933d2508d55","ios":"levelo://app?vid=90d298fd-9069-4918-a0ed-7933d2508d55"},"vehicle_type_id":"4","last_reported":1747196038,"current_range_meters":22800,"station_id":"ce4bhgp2rcd13ifvqfd0","pricing_plan_id":"cebpf4jnsgd1na2vs0mg"},{"bike_id":"13d7645a-b313-4466-b24e-065d9d04ca16","system_id":"levelo_inurba_marseille","lat":43.308837,"lon":5.396334,"is_reserved":false,"is_disabled":false,"rental_uris":{"android":"levelo://app?vid=13d7645a-b313-4466-b24e-065d9d04ca16","ios":"levelo://app?vid=13d7645a-b313-4466-b24e-065d9d04ca16"},"vehicle_type_id":"4","last_reported":1747196038,"current_range_meters":22800,"station_id":"ce4bh012rcd13ifvqcv0","pricing_plan_id":"cebpf4jnsgd1na2vs0mg"},{"bike_id":"1cefe3c8-6482-4456-8977-2796698d014e","system_id":"levelo_inurba_marseille","lat":43.28715,"lon":5.37939,"is_reserved":false,"is_disabled":true,"rental_uris":{"android":"levelo://app?vid=1cefe3c8-6482-4456-8977-2796698d014e","ios":"levelo://app?vid=1cefe3c8-6482-4456-8977-2796698d014e"},"vehicle_type_id":"4","last_reported":1747196038,"current_range_meters":22800,"station_id":"ce4bh9p2rcd13ifvqec0","pricing_plan_id":"cebpf4jnsgd1na2vs0mg"},{"bike_id":"293b1291-fa31-42ff-b217-fd5b0c052cbd","system_id":"levelo_inurba_marseille","lat":43.279149,"lon":5.39583,"is_reserved":false,"is_disabled":false,"rental_uris":{"android":"levelo://app?vid=293b1291-fa31-42ff-b217-fd5b0c052cbd","ios":"levelo://app?vid=293b1291-fa31-42ff-b217-fd5b0c052cbd"},"vehicle_type_id":"4","last_reported":1747196038,"current_range_meters":22800,"station_id":"ce4bhf92rcd13ifvqf40","pricing_plan_id":"cebpf4jnsgd1na2vs0mg"},{"bike_id":"fc4a2a91-2090-42e4-827a-8953545bc346","system_id":"levelo_inurba_marseille","lat":43.22952,"lon":5.35405,"is_reserved":false,"is_disabled":false,"rental_uris":{"android":"levelo://app?vid=fc4a2a91-2090-42e4-827a-8953545bc346","ios":"levelo://app?vid=fc4a2a91-2090-42e4-827a-8953545bc346"},"vehicle_type_id":"4","last_reported":1747196038,"current_range_meters":22800,"station_id":"cpo3532slgdg3j2ikp40","pricing_plan_id":"cebpf4jnsgd1na2vs0mg"},{"bike_id":"a9d31fe0-2508-42cc-8e0b-6f6a14799b08","system_id":"levelo_inurba_marseille","lat":43.30196,"lon":5.37262,"is_reserved":false,"is_disabled":false,"rental_uris":{"android":"levelo://app?vid=a9d31fe0-2508-42cc-8e0b-6f6a14799b08","ios":"levelo://app?vid=a9d31fe0-2508-42cc-8e0b-6f6a14799b08"},"vehicle_type_id":"4","last_reported":1747196038,"current_range_meters":22800,"station_id":"","pricing_plan_id":"cebpf4jnsgd1na2vs0mg"},{"bike_id":"9a402898-f116-408b-8709-c62dd77d2b5d","system_id":"levelo_inurba_marseille","lat":43.2934,"lon":5.42853,"is_reserved":false,"is_disabled":false,"rental_uris":{"android":"levelo://app?vid=9a402898-f116-408b-8709-c62dd77d2b5d","ios":"levelo://app?vid=9a402898-f116-408b-8709-c62dd77d2b5d"},"vehicle_type_id":"4","last_reported":1747196038,"current_range_meters":23200,"station_id":"","pricing_plan_id":"cebpf4jnsgd1na2vs0mg"},{"bike_id":"f03ed3f3-42d4-488a-9039-0789b1881240","system_id":"levelo_inurba_marseille","lat":43.30738,"lon":5.37403,"is_reserved":false,"is_disabled":false,"rental_uris":{"android":"levelo://app?vid=f03ed3f3-42d4-488a-9039-0789b1881240","ios":"levelo://app?vid=f03ed3f3-42d4-488a-9039-0789b1881240"},"vehicle_type_id":"4","last_reported":1747196038,"current_range_meters":23200,"station_id":"","pricing_plan_id":"cebpf4jnsgd1na2vs0mg"},{"bike_id":"5f376294-688d-4353-8107-9da36b230f2c","system_id":"levelo_inurba_marseille","lat":43.28442,"lon":5.39182,"is_reserved":false,"is_disabled":false,"rental_uris":{"android":"levelo://app?vid=5f376294-688d-4353-8107-9da36b230f2c","ios":"levelo://app?vid=5f376294-688d-4353-8107-9da36b230f2c"},"vehicle_type_id":"4","last_reported":1747196038,"current_range_meters":23200,"station_id":"ce4bhoh2rcd13ifvqh5g","pricing_plan_id":"cebpf4jnsgd1na2vs0mg"},{"bike_id":"a53fd275-d2bd-4ffd-adf7-334596269a76","system_id":"levelo_inurba_marseille","lat":43.313288,"lon":5.396976,"is_reserved":false,"is_disabled":true,"rental_uris":{"android":"levelo://app?vid=a53fd275-d2bd-4ffd-adf7-334596269a76","ios":"levelo://app?vid=a53fd275-d2bd-4ffd-adf7-334596269a76"},"vehicle_type_id":"4","last_reported":1747196038,"current_range_meters":24000,"station_id":"ce4bgvp2rcd13ifvqcu0","pricing_plan_id":"cebpf4jnsgd1na2vs0mg"},{"bike_id":"40c3a0bb-b106-481f-8d5f-6825dd7e2086","system_id":"levelo_inurba_marseille","lat":43.30608,"lon":5.37223,"is_reserved":false,"is_disabled":false,"rental_uris":{"android":"levelo://app?vid=40c3a0bb-b106-481f-8d5f-6825dd7e2086","ios":"levelo://app?vid=40c3a0bb-b106-481f-8d5f-6825dd7e2086"},"vehicle_type_id":"4","last_reported":1747196038,"current_range_meters":24000,"station_id":"ce4bgqh2rcd13ifvqc4g","pricing_plan_id":"cebpf4jnsgd1na2vs0mg"},{"bike_id":"f5916ab5-da34-4ae7-833d-4eaf7108c313","system_id":"levelo_inurba_marseille","lat":43.28402,"lon":5.375227,"is_reserved":false,"is_disabled":false,"rental_uris":{"android":"levelo://app?vid=f5916ab5-da34-4ae7-833d-4eaf7108c313","ios":"levelo://app?vid=f5916ab5-da34-4ae7-833d-4eaf7108c313"},"vehicle_type_id":"4","last_reported":1747196038,"current_range_meters":24000,"station_id":"ce4bh412rcd13ifvqds0","pricing_plan_id":"cebpf4jnsgd1na2vs0mg"},{"bike_id":"c7d6c562-b7e1-4d6b-9698-3ded696f5564","system_id":"levelo_inurba_marseille","lat":43.30355,"lon":5.40427,"is_reserved":false,"is_disabled":false,"rental_uris":{"android":"levelo://app?vid=c7d6c562-b7e1-4d6b-9698-3ded696f5564","ios":"levelo://app?vid=c7d6c562-b7e1-4d6b-9698-3ded696f5564"},"vehicle_type_id":"4","last_reported":1747196038,"current_range_meters":24000,"station_id":"ce4bh012rcd13ifvqd10","pricing_plan_id":"cebpf4jnsgd1na2vs0mg"},{"bike_id":"93122e68-3506-4165-a72a-567c26dbd4ce","system_id":"levelo_inurba_marseille","lat":43.28987,"lon":5.36495,"is_reserved":false,"is_disabled":false,"rental_uris":{"android":"levelo://app?vid=93122e68-3506-4165-a72a-567c26dbd4ce","ios":"levelo://app?vid=93122e68-3506-4165-a72a-567c26dbd4ce"},"vehicle_type_id":"4","last_reported":1747196038,"current_range_meters":24000,"station_id":"","pricing_plan_id":"cebpf4jnsgd1na2vs0mg"},{"bike_id":"29024e2c-7541-48b4-92bf-96f8b42b1b66","system_id":"levelo_inurba_marseille","lat":43.211747,"lon":5.350924,"is_reserved":false,"is_disabled":true,"rental_uris":{"android":"levelo://app?vid=29024e2c-7541-48b4-92bf-96f8b42b1b66","ios":"levelo://app?vid=29024e2c-7541-48b4-92bf-96f8b42b1b66"},"vehicle_type_id":"4","last_reported":1747196038,"current_range_meters":24000,"station_id":"st_cvj6sg6p6f1abm77japg","pricing_plan_id":"cebpf4jnsgd1na2vs0mg"},{"bike_id":"d608ab93-8a42-4106-a60f-e264e23b137a","system_id":"levelo_inurba_marseille","lat":43.241658,"lon":5.397427,"is_reserved":false,"is_disabled":false,"rental_uris":{"android":"levelo://app?vid=d608ab93-8a42-4106-a60f-e264e23b137a","ios":"levelo://app?vid=d608ab93-8a42-4106-a60f-e264e23b137a"},"vehicle_type_id":"4","last_reported":1747196038,"current_range_meters":24000,"station_id":"ce4bhn12rcd13ifvqgpg","pricing_plan_id":"cebpf4jnsgd1na2vs0mg"},{"bike_id":"e9571d0b-5795-4e11-b5a3-f8cd357134ee","system_id":"levelo_inurba_marseille","lat":43.30607,"lon":5.37222,"is_reserved":false,"is_disabled":false,"rental_uris":{"android":"levelo://app?vid=e9571d0b-5795-4e11-b5a3-f8cd357134ee","ios":"levelo://app?vid=e9571d0b-5795-4e11-b5a3-f8cd357134ee"},"vehicle_type_id":"4","last_reported":1747196038,"current_range_meters":24000,"station_id":"ce4bgqh2rcd13ifvqc4g","pricing_plan_id":"cebpf4jnsgd1na2vs0mg"},{"bike_id":"27c04895-ef43-45ce-84e9-d550fde0f1e6","system_id":"levelo_inurba_marseille","lat":43.28598,"lon":5.3948,"is_reserved":false,"is_disabled":true,"rental_uris":{"android":"levelo://app?vid=27c04895-ef43-45ce-84e9-d550fde0f1e6","ios":"levelo://app?vid=27c04895-ef43-45ce-84e9-d550fde0f1e6"},"vehicle_type_id":"4","last_reported":1747196038,"current_range_meters":24400,"station_id":"ce4bh292rcd13ifvqdg0","pricing_plan_id":"cebpf4jnsgd1na2vs0mg"},{"bike_id":"2db49789-f147-4efe-9027-7d0a661abb26","system_id":"levelo_inurba_marseille","lat":43.29633,"lon":5.40597,"is_reserved":false,"is_disabled":true,"rental_uris":{"android":"levelo://app?vid=2db49789-f147-4efe-9027-7d0a661abb26","ios":"levelo://app?vid=2db49789-f147-4efe-9027-7d0a661abb26"},"vehicle_type_id":"4","last_reported":1747196038,"current_range_meters":24400,"station_id":"ce4bh0h2rcd13ifvqd60","pricing_plan_id":"cebpf4jnsgd1na2vs0mg"},{"bike_id":"d12f0c5e-de37-47c9-926e-843b262b3d00","system_id":"levelo_inurba_marseille","lat":43.30749,"lon":5.40044,"is_reserved":false,"is_disabled":false,"rental_uris":{"android":"levelo://app?vid=d12f0c5e-de37-47c9-926e-843b262b3d00","ios":"levelo://app?vid=d12f0c5e-de37-47c9-926e-843b262b3d00"},"vehicle_type_id":"4","last_reported":1747196038,"current_range_meters":24400,"station_id":"ce4bh112rcd13ifvqda0","pricing_plan_id":"cebpf4jnsgd1na2vs0mg"},{"bike_id":"8f7e4e4e-fae5-4382-8f9d-1ea9deb48874","system_id":"levelo_inurba_marseille","lat":43.286049,"lon":5.370707,"is_reserved":false,"is_disabled":false,"rental_uris":{"android":"levelo://app?vid=8f7e4e4e-fae5-4382-8f9d-1ea9deb48874","ios":"levelo://app?vid=8f7e4e4e-fae5-4382-8f9d-1ea9deb48874"},"vehicle_type_id":"4","last_reported":1747196038,"current_range_meters":24400,"station_id":"ce4bht12rcd13ifvqi60","pricing_plan_id":"cebpf4jnsgd1na2vs0mg"},{"bike_id":"c351ad74-cfad-4524-b23a-5f995cfa52ab","system_id":"levelo_inurba_marseille","lat":43.22521,"lon":5.3479,"is_reserved":false,"is_disabled":false,"rental_uris":{"android":"levelo://app?vid=c351ad74-cfad-4524-b23a-5f995cfa52ab","ios":"levelo://app?vid=c351ad74-cfad-4524-b23a-5f995cfa52ab"},"vehicle_type_id":"4","last_reported":1747196038,"current_range_meters":24400,"station_id":"st_cvj5dfep6f1abm77gieg","pricing_plan_id":"cebpf4jnsgd1na2vs0mg"},{"bike_id":"84cb6767-3eec-4008-94f2-cf384810ff36","system_id":"levelo_inurba_marseille","lat":43.289344,"lon":5.396228,"is_reserved":false,"is_disabled":false,"rental_uris":{"android":"levelo://app?vid=84cb6767-3eec-4008-94f2-cf384810ff36","ios":"levelo://app?vid=84cb6767-3eec-4008-94f2-cf384810ff36"},"vehicle_type_id":"4","last_reported":1747196038,"current_range_meters":24400,"station_id":"ce4bh3h2rcd13ifvqdn0","pricing_plan_id":"cebpf4jnsgd1na2vs0mg"},{"bike_id":"2daf6a93-0936-4757-8d8e-a37133b2a76e","system_id":"levelo_inurba_marseille","lat":43.2943,"lon":5.39775,"is_reserved":false,"is_disabled":false,"rental_uris":{"android":"levelo://app?vid=2daf6a93-0936-4757-8d8e-a37133b2a76e","ios":"levelo://app?vid=2daf6a93-0936-4757-8d8e-a37133b2a76e"},"vehicle_type_id":"4","last_reported":1747196038,"current_range_meters":24400,"station_id":"ce4bh3h2rcd13ifvqdo0","pricing_plan_id":"cebpf4jnsgd1na2vs0mg"},{"bike_id":"7064039b-3249-4916-ae28-6e4b08eac1da","system_id":"levelo_inurba_marseille","lat":43.289397,"lon":5.366258,"is_reserved":false,"is_disabled":false,"rental_uris":{"android":"levelo://app?vid=7064039b-3249-4916-ae28-6e4b08eac1da","ios":"levelo://app?vid=7064039b-3249-4916-ae28-6e4b08eac1da"},"vehicle_type_id":"4","last_reported":1747196038,"current_range_meters":24400,"station_id":"ce4bhap2rcd13ifvqek0","pricing_plan_id":"cebpf4jnsgd1na2vs0mg"},{"bike_id":"e3bca8b8-1997-4264-9210-7c223f790e05","system_id":"levelo_inurba_marseille","lat":43.3035,"lon":5.37942,"is_reserved":false,"is_disabled":false,"rental_uris":{"android":"levelo://app?vid=e3bca8b8-1997-4264-9210-7c223f790e05","ios":"levelo://app?vid=e3bca8b8-1997-4264-9210-7c223f790e05"},"vehicle_type_id":"4","last_reported":1747196038,"current_range_meters":24400,"station_id":"","pricing_plan_id":"cebpf4jnsgd1na2vs0mg"},{"bike_id":"c803c65a-34d4-4002-8d0d-a8edcc94de8d","system_id":"levelo_inurba_marseille","lat":43.33604,"lon":5.41019,"is_reserved":false,"is_disabled":false,"rental_uris":{"android":"levelo://app?vid=c803c65a-34d4-4002-8d0d-a8edcc94de8d","ios":"levelo://app?vid=c803c65a-34d4-4002-8d0d-a8edcc94de8d"},"vehicle_type_id":"4","last_reported":1747196038,"current_range_meters":24400,"station_id":"ce4bhqh2rcd13ifvqhmg","pricing_plan_id":"cebpf4jnsgd1na2vs0mg"},