{"last_updated":1742065570,"ttl":60,"version":"2.2","data":{"bikes":[{"bike_id":"df3872bb-f0a3-48a0-9985-f082d8cf9c44","system_id":"levelo_inurba_marseille","lat":43.29043,"lon":5.39966,"is_reserved":false,"is_disabled":false,"rental_uris":{"android":"levelo://app?vid=df3872bb-f0a3-48a0-9985-f082d8cf9c44","ios":"levelo://app?vid=df3872bb-f0a3-48a0-9985-f082d8cf9c44"},"vehicle_type_id":"4","last_reported":1742065570,"current_range_meters":2800,"station_id":"ce4bh392rcd13ifvqdm0","pricing_plan_id":"cebpf4jnsgd1na2vs0mg"},{"bike_id":"922250fd-f102-4870-b9ce-dd6811aedb49","system_id":"levelo_inurba_marseille","lat":43.30952,"lon":5.39029,"is_reserved":false,"is_disabled":false,"rental_uris":{"android":"levelo://app?vid=922250fd-f102-4870-b9ce-dd6811aedb49","ios":"levelo://app?vid=922250fd-f102-4870-b9ce-dd6811aedb49"},"vehicle_type_id":"4","last_reported":1742065570,"current_range_meters":2800,"station_id":"ce4bgup2rcd13ifvqco0","pricing_plan_id":"cebpf4jnsgd1na2vs0mg"},{"bike_id":"d15b78ee-d06e-48b8-87cc-c517d8620dd9","system_id":"levelo_inurba_marseille","lat":43.28694,"lon":5.37392,"is_reserved":false,"is_disabled":false,"rental_uris":{"android":"levelo://app?vid=d15b78ee-d06e-48b8-87cc-c517d8620dd9","ios":"levelo://app?vid=d15b78ee-d06e-48b8-87cc-c517d8620dd9"},"vehicle_type_id":"4","last_reported":1742065570,"current_range_meters":2800,"station_id":"ce4bh3p2rcd13ifvqdq0","pricing_plan_id":"cebpf4jnsgd1na2vs0mg"},{"bike_id":"2af7c1b3-bdd0-4943-845e-9bac6e4c2a93","system_id":"levelo_inurba_marseille","lat":43.29505,"lon":5.39397,"is_reserved":false,"is_disabled":false,"rental_uris":{"android":"levelo://app?vid=2af7c1b3-bdd0-4943-845e-9bac6e4c2a93","ios":"levelo://app?vid=2af7c1b3-bdd0-4943-845e-9bac6e4c2a93"},"vehicle_type_id":"4","last_reported":1742065570,"current_range_meters":2800,"station_id":"ce4bh292rcd13ifvqdf0","pricing_plan_id":"cebpf4jnsgd1na2vs0mg"},{"bike_id":"22dbea86-a5ca-4f3b-8b7f-9d66c0d5357e","system_id":"levelo_inurba_marseille","lat":43.27697,"lon":5.38844,"is_reserved":false,"is_disabled":false,"rental_uris":{"android":"levelo://app?vid=22dbea86-a5ca-4f3b-8b7f-9d66c0d5357e","ios":"levelo://app?vid=22dbea86-a5ca-4f3b-8b7f-9d66c0d5357e"},"vehicle_type_id":"4","last_reported":1742065570,"current_range_meters":2800,"station_id":"ce4bhi12rcd13ifvqfo0","pricing_plan_id":"cebpf4jnsgd1na2vs0mg"},{"bike_id":"def1cfb3-2cc2-4037-a28e-ec96adbd64eb","system_id":"levelo_inurba_marseille","lat":43.29306,"lon":5.37169,"is_reserved":false,"is_disabled":false,"rental_uris":{"android":"levelo://app?vid=def1cfb3-2cc2-4037-a28e-ec96adbd64eb","ios":"levelo://app?vid=def1cfb3-2cc2-4037-a28e-ec96adbd64eb"},"vehicle_type_id":"4","last_reported":1742065570,"current_range_meters":2800,"station_id":"ce4bgh92rcd13ifvqb40","pricing_plan_id":"cebpf4jnsgd1na2vs0mg"},{"bike_id":"c4d74ac0-59f0-4b6c-b491-28aa3f7d79da","system_id":"levelo_inurba_marseille","lat":43.32106,"lon":5.36799,"is_reserved":false,"is_disabled":false,"rental_uris":{"android":"levelo://app?vid=c4d74ac0-59f0-4b6c-b491-28aa3f7d79da","ios":"levelo://app?vid=c4d74ac0-59f0-4b6c-b491-28aa3f7d79da"},"vehicle_type_id":"4","last_reported":1742065570,"current_range_meters":2800,"station_id":"ce4bhrh2rcd13ifvqhug","pricing_plan_id":"cebpf4jnsgd1na2vs0mg"},{"bike_id":"8fadc527-d2d8-49a5-8bd8-4a94febfe39c","system_id":"levelo_inurba_marseille","lat":43.29008,"lon":5.35609,"is_reserved":false,"is_disabled":false,"rental_uris":{"android":"levelo://app?vid=8fadc527-d2d8-49a5-8bd8-4a94febfe39c","ios":"levelo://app?vid=8fadc527-d2d8-49a5-8bd8-4a94febfe39c"},"vehicle_type_id":"4","last_reported":1742065570,"current_range_meters":2800,"station_id":"ce4bhb92rcd13ifvqen0","pricing_plan_id":"cebpf4jnsgd1na2vs0mg"},{"bike_id":"eb3b264e-51cc-446c-9cfa-eff214e01c7a","system_id":"levelo_inurba_marseille","lat":43.2987,"lon":5.3975,"is_reserved":false,"is_disabled":false,"rental_uris":{"android":"levelo://app?vid=eb3b264e-51cc-446c-9cfa-eff214e01c7a","ios":"levelo://app?vid=eb3b264e-51cc-446c-9cfa-eff214e01c7a"},"vehicle_type_id":"4","last_reported":1742065570,"current_range_meters":3200,"station_id":"ce4bh0h2rcd13ifvqd50","pricing_plan_id":"cebpf4jnsgd1na2vs0mg"},{"bike_id":"242eba96-7260-4dc9-a00a-8c7da1fa719d","system_id":"levelo_inurba_marseille","lat":43.2871,"lon":5.37403,"is_reserved":false,"is_disabled":false,"rental_uris":{"android":"levelo://app?vid=242eba96-7260-4dc9-a00a-8c7da1fa719d","ios":"levelo://app?vid=242eba96-7260-4dc9-a00a-8c7da1fa719d"},"vehicle_type_id":"4","last_reported":1742065570,"current_range_meters":3200,"station_id":"ce4bh3p2rcd13ifvqdq0","pricing_plan_id":"cebpf4jnsgd1na2vs0mg"},{"bike_id":"7db9235c-9c67-42de-9517-6ba12cc78925","system_id":"levelo_inurba_marseille","lat":43.26567,"lon":5.39009,"is_reserved":false,"is_disabled":false,"rental_uris":{"android":"levelo://app?vid=7db9235c-9c67-42de-9517-6ba12cc78925","ios":"levelo://app?vid=7db9235c-9c67-42de-9517-6ba12cc78925"},"vehicle_type_id":"4","last_reported":1742065570,"current_range_meters":3200,"station_id":"ce4bhe12rcd13ifvqf30","pricing_plan_id":"cebpf4jnsgd1na2vs0mg"},{"bike_id":"4489de69-e79b-4217-b581-8ef0bbff1fae","system_id":"levelo_inurba_marseille","lat":43.27959,"lon":5.41044,"is_reserved":false,"is_disabled":false,"rental_uris":{"android":"levelo://app?vid=4489de69-e79b-4217-b581-8ef0bbff1fae","ios":"levelo://app?vid=4489de69-e79b-4217-b581-8ef0bbff1fae"},"vehicle_type_id":"4","last_reported":1742065570,"current_range_meters":3200,"station_id":"ce4bhnp2rcd13ifvqh0g","pricing_plan_id":"cebpf4jnsgd1na2vs0mg"},{"bike_id":"a7613575-3d35-483c-bba4-2908358580e1","system_id":"levelo_inurba_marseille","lat":43.27679,"lon":5.38871,"is_reserved":false,"is_disabled":false,"rental_uris":{"android":"levelo://app?vid=a7613575-3d35-483c-bba4-2908358580e1","ios":"levelo://app?vid=a7613575-3d35-483c-bba4-2908358580e1"},"vehicle_type_id":"4","last_reported":1742065570,"current_range_meters":3200,"station_id":"ce4bhi12rcd13ifvqfo0","pricing_plan_id":"cebpf4jnsgd1na2vs0mg"},{"bike_id":"b5fc927b-8cbe-494d-9135-01f7a786febb","system_id":"levelo_inurba_marseille","lat":43.30436,"lon":5.3889,"is_reserved":false,"is_disabled":false,"rental_uris":{"android":"levelo://app?vid=b5fc927b-8cbe-494d-9135-01f7a786febb","ios":"levelo://app?vid=b5fc927b-8cbe-494d-9135-01f7a786febb"},"vehicle_type_id":"4","last_reported":1742065570,"current_range_meters":3200,"station_id":"ce4bgk12rcd13ifvqbi0","pricing_plan_id":"cebpf4jnsgd1na2vs0mg"},{"bike_id":"36ec5a15-215b-4367-a3ca-336aadd9a251","system_id":"levelo_inurba_marseille","lat":43.33746,"lon":5.3745,"is_reserved":false,"is_disabled":false,"rental_uris":{"android":"levelo://app?vid=36ec5a15-215b-4367-a3ca-336aadd9a251","ios":"levelo://app?vid=36ec5a15-215b-4367-a3ca-336aadd9a251"},"vehicle_type_id":"4","last_reported":1742065570,"current_range_meters":3200,"station_id":"","pricing_plan_id":"cebpf4jnsgd1na2vs0mg"},{"bike_id":"6e32353d-8edf-4017-90f6-585a4b0fab7f","system_id":"levelo_inurba_marseille","lat":43.338424,"lon":5.406775,"is_reserved":false,"is_disabled":false,"rental_uris":{"android":"levelo://app?vid=6e32353d-8edf-4017-90f6-585a4b0fab7f","ios":"levelo://app?vid=6e32353d-8edf-4017-90f6-585a4b0fab7f"},"vehicle_type_id":"4","last_reported":1742065570,"current_range_meters":3600,"station_id":"ce4bgl12rcd13ifvqbo0","pricing_plan_id":"cebpf4jnsgd1na2vs0mg"},{"bike_id":"8b6eb29a-bf96-4e04-a162-14b7cfd30c26","system_id":"levelo_inurba_marseille","lat":43.28934,"lon":5.38406,"is_reserved":false,"is_disabled":false,"rental_uris":{"android":"levelo://app?vid=8b6eb29a-bf96-4e04-a162-14b7cfd30c26","ios":"levelo://app?vid=8b6eb29a-bf96-4e04-a162-14b7cfd30c26"},"vehicle_type_id":"4","last_reported":1742065570,"current_range_meters":3600,"station_id":"ce4bh612rcd13ifvqe6g","pricing_plan_id":"cebpf4jnsgd1na2vs0mg"},{"bike_id":"e36b98f1-2e8d-408e-89b9-305a5badc0de","system_id":"levelo_inurba_marseille","lat":43.29036,"lon":5.3865,"is_reserved":false,"is_disabled":false,"rental_uris":{"android":"levelo://app?vid=e36b98f1-2e8d-408e-89b9-305a5badc0de","ios":"levelo://app?vid=e36b98f1-2e8d-408e-89b9-305a5badc0de"},"vehicle_type_id":"4","last_reported":1742065570,"current_range_meters":3600,"station_id":"ce4bh4p2rcd13ifvqe0g","pricing_plan_id":"cebpf4jnsgd1na2vs0mg"},{"bike_id":"7c38e561-5ebf-4481-a8b0-d571d922a1b9","system_id":"levelo_inurba_marseille","lat":43.29973,"lon":5.38493,"is_reserved":false,"is_disabled":false,"rental_uris":{"android":"levelo://app?vid=7c38e561-5ebf-4481-a8b0-d571d922a1b9","ios":"levelo://app?vid=7c38e561-5ebf-4481-a8b0-d571d922a1b9"},"vehicle_type_id":"4","last_reported":1742065570,"current_range_meters":3600,"station_id":"ce4bgj92rcd13ifvqbd0","pricing_plan_id":"cebpf4jnsgd1na2vs0mg"},{"bike_id":"43d81e96-cdcc-4c5d-9b6e-181c13e8e406","system_id":"levelo_inurba_marseille","lat":43.31532,"lon":5.38038,"is_reserved":false,"is_disabled":false,"rental_uris":{"android":"levelo://app?vid=43d81e96-cdcc-4c5d-9b6e-181c13e8e406","ios":"levelo://app?vid=43d81e96-cdcc-4c5d-9b6e-181c13e8e406"},"vehicle_type_id":"4","last_reported":1742065570,"current_range_meters":4000,"station_id":"ce4bhsp2rcd13ifvqi50","pricing_plan_id":"cebpf4jnsgd1na2vs0mg"},{"bike_id":"8554e500-d3ca-4e10-bcc6-1499f5592cae","system_id":"levelo_inurba_marseille","lat":43.29036,"lon":5.35926,"is_reserved":false,"is_disabled":false,"rental_uris":{"android":"levelo://app?vid=8554e500-d3ca-4e10-bcc6-1499f5592cae","ios":"levelo://app?vid=8554e500-d3ca-4e10-bcc6-1499f5592cae"},"vehicle_type_id":"4","last_reported":1742065570,"current_range_meters":4000,"station_id":"ce4bha92rcd13ifvqeg0","pricing_plan_id":"cebpf4jnsgd1na2vs0mg"},{"bike_id":"2c06e0e4-0a95-4aef-8106-fb1c4d4c990a","system_id":"levelo_inurba_marseille","lat":43.23958,"lon":5.3664,"is_reserved":false,"is_disabled":false,"rental_uris":{"android":"levelo://app?vid=2c06e0e4-0a95-4aef-8106-fb1c4d4c990a","ios":"levelo://app?vid=2c06e0e4-0a95-4aef-8106-fb1c4d4c990a"},"vehicle_type_id":"4","last_reported":1742065570,"current_range_meters":4000,"station_id":"ce4bhi12rcd13ifvqfp0","pricing_plan_id":"cebpf4jnsgd1na2vs0mg"},{"bike_id":"a1957036-ca6f-4051-a55e-c5ee9fc05240","system_id":"levelo_inurba_marseille","lat":43.27816,"lon":5.4071,"is_reserved":false,"is_disabled":false,"rental_uris":{"android":"levelo://app?vid=a1957036-ca6f-4051-a55e-c5ee9fc05240","ios":"levelo://app?vid=a1957036-ca6f-4051-a55e-c5ee9fc05240"},"vehicle_type_id":"4","last_reported":1742065570,"current_range_meters":4000,"station_id":"ce4bhnh2rcd13ifvqgtg","pricing_plan_id":"cebpf4jnsgd1na2vs0mg"},{"bike_id":"6cf80656-f4c3-4735-bbb1-1b0ab6a490a2","system_id":"levelo_inurba_marseille","lat":43.2583,"lon":5.39438,"is_reserved":false,"is_disabled":false,"rental_uris":{"android":"levelo://app?vid=6cf80656-f4c3-4735-bbb1-1b0ab6a490a2","ios":"levelo://app?vid=6cf80656-f4c3-4735-bbb1-1b0ab6a490a2"},"vehicle_type_id":"4","last_reported":1742065570,"current_range_meters":4400,"station_id":"ce4bhip2rcd13ifvqft0","pricing_plan_id":"cebpf4jnsgd1na2vs0mg"},{"bike_id":"70733407-d631-4bef-9379-9cbf10906a47","system_id":"levelo_inurba_marseille","lat":43.29609,"lon":5.38103,"is_reserved":false,"is_disabled":false,"rental_uris":{"android":"levelo://app?vid=70733407-d631-4bef-9379-9cbf10906a47","ios":"levelo://app?vid=70733407-d631-4bef-9379-9cbf10906a47"},"vehicle_type_id":"4","last_reported":1742065570,"current_range_meters":4400,"station_id":"ce4bgl12rcd13ifvqbo0","pricing_plan_id":"cebpf4jnsgd1na2vs0mg"},{"bike_id":"5b11d238-4115-4238-b343-5a01412da5fe","system_id":"levelo_inurba_marseille","lat":43.29372,"lon":5.37838,"is_reserved":false,"is_disabled":false,"rental_uris":{"android":"levelo://app?vid=5b11d238-4115-4238-b343-5a01412da5fe","ios":"levelo://app?vid=5b11d238-4115-4238-b343-5a01412da5fe"},"vehicle_type_id":"4","last_reported":1742065570,"current_range_meters":4000,"station_id":"ce4bgjh2rcd13ifvqbf0","pricing_plan_id":"cebpf4jnsgd1na2vs0mg"},{"bike_id":"70c9beeb-26b7-4860-984d-eebc64b09ee9","system_id":"levelo_inurba_marseille","lat":43.31112,"lon":5.37764,"is_reserved":false,"is_disabled":false,"rental_uris":{"android":"levelo://app?vid=70c9beeb-26b7-4860-984d-eebc64b09ee9","ios":"levelo://app?vid=70c9beeb-26b7-4860-984d-eebc64b09ee9"},"vehicle_type_id":"4","last_reported":1742065570,"current_range_meters":4400,"station_id":"ce4bgt92rcd13ifvqcg0","pricing_plan_id":"cebpf4jnsgd1na2vs0mg"},{"bike_id":"2315d970-5319-41d5-ad3c-06ac299452e3","system_id":"levelo_inurba_marseille","lat":43.2781,"lon":5.40717,"is_reserved":false,"is_disabled":false,"rental_uris":{"android":"levelo://app?vid=2315d970-5319-41d5-ad3c-06ac299452e3","ios":"levelo://app?vid=2315d970-5319-41d5-ad3c-06ac299452e3"},"vehicle_type_id":"4","last_reported":1742065570,"current_range_meters":4400,"station_id":"ce4bhnh2rcd13ifvqgtg","pricing_plan_id":"cebpf4jnsgd1na2vs0mg"},{"bike_id":"f2eb4374-0875-4873-8177-a38f3baa6f3a","system_id":"levelo_inurba_marseille","lat":43.24076,"lon":5.37758,"is_reserved":false,"is_disabled":false,"rental_uris":{"android":"levelo://app?vid=f2eb4374-0875-4873-8177-a38f3baa6f3a","ios":"levelo://app?vid=f2eb4374-0875-4873-8177-a38f3baa6f3a"},"vehicle_type_id":"4","last_reported":1742065570,"current_range_meters":4400,"station_id":"ce4bhnp2rcd13ifvqgvg","pricing_plan_id":"cebpf4jnsgd1na2vs0mg"},{"bike_id":"1b1b8b7a-1bb1-4f65-a070-4a4cf74718ab","system_id":"levelo_inurba_marseille","lat":43.22926,"lon":5.35393,"is_reserved":false,"is_disabled":false,"rental_uris":{"android":"levelo://app?vid=1b1b8b7a-1bb1-4f65-a070-4a4cf74718ab","ios":"levelo://app?vid=1b1b8b7a-1bb1-4f65-a070-4a4cf74718ab"},"vehicle_type_id":"4","last_reported":1742065570,"current_range_meters":4400,"station_id":"cpo3532slgdg3j2ikp40","pricing_plan_id":"cebpf4jnsgd1na2vs0mg"},{"bike_id":"5b6d8940-ede5-40ec-97a9-745cd6b9e014","system_id":"levelo_inurba_marseille","lat":43.29607,"lon":5.38088,"is_reserved":false,"is_disabled":false,"rental_uris":{"android":"levelo://app?vid=5b6d8940-ede5-40ec-97a9-745cd6b9e014","ios":"levelo://app?vid=5b6d8940-ede5-40ec-97a9-745cd6b9e014"},"vehicle_type_id":"4","last_reported":1742065570,"current_range_meters":4400,"station_id":"ce4bgl12rcd13ifvqbo0","pricing_plan_id":"cebpf4jnsgd1na2vs0mg"},{"bike_id":"cd2914ff-5ddf-4465-add0-5220dd4b2e6a","system_id":"levelo_inurba_marseille","lat":43.27943,"lon":5.4105,"is_reserved":false,"is_disabled":false,"rental_uris":{"android":"levelo://app?vid=cd2914ff-5ddf-4465-add0-5220dd4b2e6a","ios":"levelo://app?vid=cd2914ff-5ddf-4465-add0-5220dd4b2e6a"},"vehicle_type_id":"4","last_reported":1742065570,"current_range_meters":4400,"station_id":"ce4bhnp2rcd13ifvqh0g","pricing_plan_id":"cebpf4jnsgd1na2vs0mg"},{"bike_id":"340488f0-9988-427b-a9bc-7386c392af7a","system_id":"levelo_inurba_marseille","lat":43.25736,"lon":5.41093,"is_reserved":false,"is_disabled":false,"rental_uris":{"android":"levelo://app?vid=340488f0-9988-427b-a9bc-7386c392af7a","ios":"levelo://app?vid=340488f0-9988-427b-a9bc-7386c392af7a"},"vehicle_type_id":"4","last_reported":1742065570,"current_range_meters":4800,"station_id":"ce4bhkp2rcd13ifvqgd0","pricing_plan_id":"cebpf4jnsgd1na2vs0mg"},{"bike_id":"8048f82c-2585-4054-8c81-714bf47634c7","system_id":"levelo_inurba_marseille","lat":43.28492,"lon":5.38406,"is_reserved":false,"is_disabled":false,"rental_uris":{"android":"levelo://app?vid=8048f82c-2585-4054-8c81-714bf47634c7","ios":"levelo://app?vid=8048f82c-2585-4054-8c81-714bf47634c7"},"vehicle_type_id":"4","last_reported":1742065570,"current_range_meters":4800,"station_id":"ce4bh512rcd13ifvqe3g","pricing_plan_id":"cebpf4jnsgd1na2vs0mg"},{"bike_id":"70c37a2a-9d1f-4e82-a0f1-fa1ad5459af0","system_id":"levelo_inurba_marseille","lat":43.29032,"lon":5.38656,"is_reserved":false,"is_disabled":false,"rental_uris":{"android":"levelo://app?vid=70c37a2a-9d1f-4e82-a0f1-fa1ad5459af0","ios":"levelo://app?vid=70c37a2a-9d1f-4e82-a0f1-fa1ad5459af0"},"vehicle_type_id":"4","last_reported":1742065570,"current_range_meters":4800,"station_id":"ce4bh4p2rcd13ifvqe0g","pricing_plan_id":"cebpf4jnsgd1na2vs0mg"},{"bike_id":"7edfc6ef-fc55-4e88-92fd-63788383a8cb","system_id":"levelo_inurba_marseille","lat":43.31376,"lon":5.38491,"is_reserved":false,"is_disabled":false,"rental_uris":{"android":"levelo://app?vid=7edfc6ef-fc55-4e88-92fd-63788383a8cb","ios":"levelo://app?vid=7edfc6ef-fc55-4e88-92fd-63788383a8cb"},"vehicle_type_id":"4","last_reported":1742065570,"current_range_meters":4800,"station_id":"ce4bgt92rcd13ifvqcf0","pricing_plan_id":"cebpf4jnsgd1na2vs0mg"},{"bike_id":"7e37991f-f6f7-4db1-81d1-82e2e67502c0","system_id":"levelo_inurba_marseille","lat":43.29508,"lon":5.39408,"is_reserved":false,"is_disabled":false,"rental_uris":{"android":"levelo://app?vid=7e37991f-f6f7-4db1-81d1-82e2e67502c0","ios":"levelo://app?vid=7e37991f-f6f7-4db1-81d1-82e2e67502c0"},"vehicle_type_id":"4","last_reported":1742065570,"current_range_meters":4800,"station_id":"ce4bh292rcd13ifvqdf0","pricing_plan_id":"cebpf4jnsgd1na2vs0mg"},{"bike_id":"8d56b1ef-40c2-4d4f-9a2e-599b93c21a55","system_id":"levelo_inurba_marseille","lat":43.295294,"lon":5.390341,"is_reserved":false,"is_disabled":false,"rental_uris":{"android":"levelo://app?vid=8d56b1ef-40c2-4d4f-9a2e-599b93c21a55","ios":"levelo://app?vid=8d56b1ef-40c2-4d4f-9a2e-599b93c21a55"},"vehicle_type_id":"4","last_reported":1742065570,"current_range_meters":4800,"station_id":"ce4bh312rcd13ifvqdj0","pricing_plan_id":"cebpf4jnsgd1na2vs0mg"},{"bike_id":"96c95cc5-3655-4976-bd9e-8b622b598117","system_id":"levelo_inurba_marseille","lat":43.28,"lon":5.41675,"is_reserved":false,"is_disabled":true,"rental_uris":{"android":"levelo://app?vid=96c95cc5-3655-4976-bd9e-8b622b598117","ios":"levelo://app?vid=96c95cc5-3655-4976-bd9e-8b622b598117"},"vehicle_type_id":"4","last_reported":1742065570,"current_range_meters":4800,"station_id":"ce4bho12rcd13ifvqh1g","pricing_plan_id":"cebpf4jnsgd1na2vs0mg"},{"bike_id":"ef0420cd-62d9-46e6-bc23-a8b7c01978bb","system_id":"levelo_inurba_marseille","lat":43.29788,"lon":5.38105,"is_reserved":false,"is_disabled":true,"rental_uris":{"android":"levelo://app?vid=ef0420cd-62d9-46e6-bc23-a8b7c01978bb","ios":"levelo://app?vid=ef0420cd-62d9-46e6-bc23-a8b7c01978bb"},"vehicle_type_id":"4","last_reported":1742065570,"current_range_meters":4800,"station_id":"ce4bgip2rcd13ifvqbb0","pricing_plan_id":"cebpf4jnsgd1na2vs0mg"},{"bike_id":"5e92b9c9-c32c-4e0a-8f6f-a2013a747b78","system_id":"levelo_inurba_marseille","lat":43.29965,"lon":5.38513,"is_reserved":false,"is_disabled":false,"rental_uris":{"android":"levelo://app?vid=5e92b9c9-c32c-4e0a-8f6f-a2013a747b78","ios":"levelo://app?vid=5e92b9c9-c32c-4e0a-8f6f-a2013a747b78"},"vehicle_type_id":"4","last_reported":1742065570,"current_range_meters":5600,"station_id":"ce4bgj92rcd13ifvqbd0","pricing_plan_id":"cebpf4jnsgd1na2vs0mg"},{"bike_id":"71f2d6af-3cdb-452e-9507-59e6f5da3cf4","system_id":"levelo_inurba_marseille","lat":43.29985,"lon":5.37173,"is_reserved":false,"is_disabled":false,"rental_uris":{"android":"levelo://app?vid=71f2d6af-3cdb-452e-9507-59e6f5da3cf4","ios":"levelo://app?vid=71f2d6af-3cdb-452e-9507-59e6f5da3cf4"},"vehicle_type_id":"4","last_reported":1742065570,"current_range_meters":5600,"station_id":"ce4bgr92rcd13ifvqc7g","pricing_plan_id":"cebpf4jnsgd1na2vs0mg"},{"bike_id":"b76967ef-432a-4b0a-a1aa-bc28216361bc","system_id":"levelo_inurba_marseille","lat":43.23202,"lon":5.39995,"is_reserved":false,"is_disabled":false,"rental_uris":{"android":"levelo://app?vid=b76967ef-432a-4b0a-a1aa-bc28216361bc","ios":"levelo://app?vid=b76967ef-432a-4b0a-a1aa-bc28216361bc"},"vehicle_type_id":"4","last_reported":1742065570,"current_range_meters":5600,"station_id":"ce4bhn12rcd13ifvqgqg","pricing_plan_id":"cebpf4jnsgd1na2vs0mg"},{"bike_id":"3dec03f7-711b-476c-8e87-0b75b382b1a1","system_id":"levelo_inurba_marseille","lat":43.293,"lon":5.37468,"is_reserved":false,"is_disabled":false,"rental_uris":{"android":"levelo://app?vid=3dec03f7-711b-476c-8e87-0b75b382b1a1","ios":"levelo://app?vid=3dec03f7-711b-476c-8e87-0b75b382b1a1"},"vehicle_type_id":"4","last_reported":1742065570,"current_range_meters":5600,"station_id":"ce4bgi12rcd13ifvqb70","pricing_plan_id":"cebpf4jnsgd1na2vs0mg"},{"bike_id":"fa5894d7-1c98-4f78-8661-afc7d0ea5566","system_id":"levelo_inurba_marseille","lat":43.26948,"lon":5.40242,"is_reserved":false,"is_disabled":false,"rental_uris":{"android":"levelo://app?vid=fa5894d7-1c98-4f78-8661-afc7d0ea5566","ios":"levelo://app?vid=fa5894d7-1c98-4f78-8661-afc7d0ea5566"},"vehicle_type_id":"4","last_reported":1742065570,"current_range_meters":5600,"station_id":"cjm6bp8fraef2m0cb0m0","pricing_plan_id":"cebpf4jnsgd1na2vs0mg"},{"bike_id":"39fc9955-9b73-4685-ba5b-6ad09fdfa658","system_id":"levelo_inurba_marseille","lat":43.2781,"lon":5.40721,"is_reserved":false,"is_disabled":false,"rental_uris":{"android":"levelo://app?vid=39fc9955-9b73-4685-ba5b-6ad09fdfa658","ios":"levelo://app?vid=39fc9955-9b73-4685-ba5b-6ad09fdfa658"},"vehicle_type_id":"4","last_reported":1742065570,"current_range_meters":5600,"station_id":"ce4bhnh2rcd13ifvqgtg","pricing_plan_id":"cebpf4jnsgd1na2vs0mg"},{"bike_id":"dcd435ce-b0f6-4a81-9070-9cefd39577e9","system_id":"levelo_inurba_marseille","lat":43.29876,"lon":5.38915,"is_reserved":false,"is_disabled":true,"rental_uris":{"android":"levelo://app?vid=dcd435ce-b0f6-4a81-9070-9cefd39577e9","ios":"levelo://app?vid=dcd435ce-b0f6-4a81-9070-9cefd39577e9"},"vehicle_type_id":"4","last_reported":1742065570,"current_range_meters":5600,"station_id":"ce4bh392rcd13ifvqdl0","pricing_plan_id":"cebpf4jnsgd1na2vs0mg"},{"bike_id":"dfb1890d-a53d-42f7-a687-0bca1634d203","system_id":"levelo_inurba_marseille","lat":43.26995,"lon":5.38652,"is_reserved":false,"is_disabled":false,"rental_uris":{"android":"levelo://app?vid=dfb1890d-a53d-42f7-a687-0bca1634d203","ios":"levelo://app?vid=dfb1890d-a53d-42f7-a687-0bca1634d203"},"vehicle_type_id":"4","last_reported":1742065570,"current_range_meters":5600,"station_id":"","pricing_plan_id":"cebpf4jnsgd1na2vs0mg"},{"bike_id":"98836e19-8221-42d1-946f-956561327618","system_id":"levelo_inurba_marseille","lat":43.2738,"lon":5.3622,"is_reserved":false,"is_disabled":true,"rental_uris":{"android":"levelo://app?vid=98836e19-8221-42d1-946f-956561327618","ios":"levelo://app?vid=98836e19-8221-42d1-946f-956561327618"},"vehicle_type_id":"4","last_reported":1742065570,"current_range_meters":4800,"station_id":"ce4bhbh2rcd13ifvqeo0","pricing_plan_id":"cebpf4jnsgd1na2vs0mg"},{"bike_id":"9e47f4dd-e296-4fc3-ba49-3cb504725941","system_id":"levelo_inurba_marseille","lat":43.27986,"lon":5.40056,"is_reserved":false,"is_disabled":false,"rental_uris":{"android":"levelo://app?vid=9e47f4dd-e296-4fc3-ba49-3cb504725941","ios":"levelo://app?vid=9e47f4dd-e296-4fc3-ba49-3cb504725941"},"vehicle_type_id":"4","last_reported":1742065570,"current_range_meters":5600,"station_id":"ce4bho92rcd13ifvqh4g","pricing_plan_id":"cebpf4jnsgd1na2vs0mg"},{"bike_id":"b8dc8f59-88b2-4cec-b5bd-26e833ba9750","system_id":"levelo_inurba_marseille","lat":43.32464,"lon":5.36564,"is_reserved":false,"is_disabled":true,"rental_uris":{"android":"levelo://app?vid=b8dc8f59-88b2-4cec-b5bd-26e833ba9750","ios":"levelo://app?vid=b8dc8f59-88b2-4cec-b5bd-26e833ba9750"},"vehicle_type_id":"4","last_reported":1742065570,"current_range_meters":5600,"station_id":"ce4bhs12rcd13ifvqhvg","pricing_plan_id":"cebpf4jnsgd1na2vs0mg"},{"bike_id":"52d1096d-8fe7-49a0-85fe-4d48bf271b73","system_id":"levelo_inurba_marseille","lat":43.27814,"lon":5.40704,"is_reserved":false,"is_disabled":false,"rental_uris":{"android":"levelo://app?vid=52d1096d-8fe7-49a0-85fe-4d48bf271b73","ios":"levelo://app?vid=52d1096d-8fe7-49a0-85fe-4d48bf271b73"},"vehicle_type_id":"4","last_reported":1742065570,"current_range_meters":6000,"station_id":"ce4bhnh2rcd13ifvqgtg","pricing_plan_id":"cebpf4jnsgd1na2vs0mg"},{"bike_id":"6dc3c1f8-b7f0-44f6-b17b-f51851049f32","system_id":"levelo_inurba_marseille","lat":43.292989,"lon":5.374409,"is_reserved":false,"is_disabled":false,"rental_uris":{"android":"levelo://app?vid=6dc3c1f8-b7f0-44f6-b17b-f51851049f32","ios":"levelo://app?vid=6dc3c1f8-b7f0-44f6-b17b-f51851049f32"},"vehicle_type_id":"4","last_reported":1742065570,"current_range_meters":6000,"station_id":"ce4bgi12rcd13ifvqb70","pricing_plan_id":"cebpf4jnsgd1na2vs0mg"},{"bike_id":"695e7e3b-819b-4e77-bff6-0c6b91049e7d","system_id":"levelo_inurba_marseille","lat":43.3022,"lon":5.39449,"is_reserved":false,"is_disabled":false,"rental_uris":{"android":"levelo://app?vid=695e7e3b-819b-4e77-bff6-0c6b91049e7d","ios":"levelo://app?vid=695e7e3b-819b-4e77-bff6-0c6b91049e7d"},"vehicle_type_id":"4","last_reported":1742065570,"current_range_meters":6000,"station_id":"ce4bh0p2rcd13ifvqd70","pricing_plan_id":"cebpf4jnsgd1na2vs0mg"},{"bike_id":"7ae8a66c-3805-44b2-93a0-2bc94a542e7b","system_id":"levelo_inurba_marseille","lat":43.29037,"lon":5.38641,"is_reserved":false,"is_disabled":false,"rental_uris":{"android":"levelo://app?vid=7ae8a66c-3805-44b2-93a0-2bc94a542e7b","ios":"levelo://app?vid=7ae8a66c-3805-44b2-93a0-2bc94a542e7b"},"vehicle_type_id":"4","last_reported":1742065570,"current_range_meters":6000,"station_id":"ce4bh4p2rcd13ifvqe0g","pricing_plan_id":"cebpf4jnsgd1na2vs0mg"},{"bike_id":"e95355ed-6e0c-4f06-bdb0-42a1764900a6","system_id":"levelo_inurba_marseille","lat":43.28731,"lon":5.36082,"is_reserved":false,"is_disabled":false,"rental_uris":{"android":"levelo://app?vid=e95355ed-6e0c-4f06-bdb0-42a1764900a6","ios":"levelo://app?vid=e95355ed-6e0c-4f06-bdb0-42a1764900a6"},"vehicle_type_id":"4","last_reported":1742065570,"current_range_meters":6000,"station_id":"cki0cbj6b192h4jlfktg","pricing_plan_id":"cebpf4jnsgd1na2vs0mg"},{"bike_id":"f5d879b5-4e8a-4e91-bc2b-907eff703e2f","system_id":"levelo_inurba_marseille","lat":43.24684,"lon":5.38122,"is_reserved":false,"is_disabled":false,"rental_uris":{"android":"levelo://app?vid=f5d879b5-4e8a-4e91-bc2b-907eff703e2f","ios":"levelo://app?vid=f5d879b5-4e8a-4e91-bc2b-907eff703e2f"},"vehicle_type_id":"4","last_reported":1742065570,"current_range_meters":6400,"station_id":"ce4bhih2rcd13ifvqfr0","pricing_plan_id":"cebpf4jnsgd1na2vs0mg"},{"bike_id":"36c7567d-bf94-4f07-b200-0dd9cc40b546","system_id":"levelo_inurba_marseille","lat":43.28422,"lon":5.34988,"is_reserved":false,"is_disabled":true,"rental_uris":{"android":"levelo://app?vid=36c7567d-bf94-4f07-b200-0dd9cc40b546","ios":"levelo://app?vid=36c7567d-bf94-4f07-b200-0dd9cc40b546"},"vehicle_type_id":"4","last_reported":1742065570,"current_range_meters":6400,"station_id":"ce4bhbh2rcd13ifvqepg","pricing_plan_id":"cebpf4jnsgd1na2vs0mg"},{"bike_id":"46940bc3-56d9-457a-8198-5219ac334a24","system_id":"levelo_inurba_marseille","lat":43.29869,"lon":5.39754,"is_reserved":false,"is_disabled":false,"rental_uris":{"android":"levelo://app?vid=46940bc3-56d9-457a-8198-5219ac334a24","ios":"levelo://app?vid=46940bc3-56d9-457a-8198-5219ac334a24"},"vehicle_type_id":"4","last_reported":1742065570,"current_range_meters":6400,"station_id":"ce4bh0h2rcd13ifvqd50","pricing_plan_id":"cebpf4jnsgd1na2vs0mg"},{"bike_id":"6b43488e-49e7-4159-b7e7-54e154d8769f","system_id":"levelo_inurba_marseille","lat":43.23068,"lon":5.35483,"is_reserved":false,"is_disabled":false,"rental_uris":{"android":"levelo://app?vid=6b43488e-49e7-4159-b7e7-54e154d8769f","ios":"levelo://app?vid=6b43488e-49e7-4159-b7e7-54e154d8769f"},"vehicle_type_id":"4","last_reported":1742065570,"current_range_meters":6400,"station_id":"cpo3342slgdg3j2ifvpg","pricing_plan_id":"cebpf4jnsgd1na2vs0mg"},{"bike_id":"03ea6c2c-038e-4919-9e03-a60597c05eeb","system_id":"levelo_inurba_marseille","lat":43.28856,"lon":5.35842,"is_reserved":false,"is_disabled":false,"rental_uris":{"android":"levelo://app?vid=03ea6c2c-038e-4919-9e03-a60597c05eeb","ios":"levelo://app?vid=03ea6c2c-038e-4919-9e03-a60597c05eeb"},"vehicle_type_id":"4","last_reported":1742065570,"current_range_meters":6400,"station_id":"ce4bhb12rcd13ifvqem0","pricing_plan_id":"cebpf4jnsgd1na2vs0mg"},{"bike_id":"041d3818-0b91-400d-a555-fafffb4550ae","system_id":"levelo_inurba_marseille","lat":43.29238,"lon":5.36062,"is_reserved":false,"is_disabled":false,"rental_uris":{"android":"levelo://app?vid=041d3818-0b91-400d-a555-fafffb4550ae","ios":"levelo://app?vid=041d3818-0b91-400d-a555-fafffb4550ae"},"vehicle_type_id":"4","last_reported":1742065570,"current_range_meters":6400,"station_id":"ce4bhbh2rcd13ifvqeqg","pricing_plan_id":"cebpf4jnsgd1na2vs0mg"},{"bike_id":"a8db734b-bd7d-4d7a-a437-7c9f339f7518","system_id":"levelo_inurba_marseille","lat":43.2997,"lon":5.38497,"is_reserved":false,"is_disabled":false,"rental_uris":{"android":"levelo://app?vid=a8db734b-bd7d-4d7a-a437-7c9f339f7518","ios":"levelo://app?vid=a8db734b-bd7d-4d7a-a437-7c9f339f7518"},"vehicle_type_id":"4","last_reported":1742065570,"current_range_meters":6800,"station_id":"ce4bgj92rcd13ifvqbd0","pricing_plan_id":"cebpf4jnsgd1na2vs0mg"},{"bike_id":"48f968e9-2670-450c-9a50-b12a7ac1907f","system_id":"levelo_inurba_marseille","lat":43.25723,"lon":5.41088,"is_reserved":false,"is_disabled":false,"rental_uris":{"android":"levelo://app?vid=48f968e9-2670-450c-9a50-b12a7ac1907f","ios":"levelo://app?vid=48f968e9-2670-450c-9a50-b12a7ac1907f"},"vehicle_type_id":"4","last_reported":1742065570,"current_range_meters":6800,"station_id":"ce4bhkp2rcd13ifvqgd0","pricing_plan_id":"cebpf4jnsgd1na2vs0mg"},{"bike_id":"4e54a2ce-7f2d-4764-bb0a-bc0d4bd69bd5","system_id":"levelo_inurba_marseille","lat":43.25095,"lon":5.39525,"is_reserved":false,"is_disabled":false,"rental_uris":{"android":"levelo://app?vid=4e54a2ce-7f2d-4764-bb0a-bc0d4bd69bd5","ios":"levelo://app?vid=4e54a2ce-7f2d-4764-bb0a-bc0d4bd69bd5"},"vehicle_type_id":"4","last_reported":1742065570,"current_range_meters":6800,"station_id":"ce4bhm12rcd13ifvqgkg","pricing_plan_id":"cebpf4jnsgd1na2vs0mg"},{"bike_id":"a8e67676-89ba-43e0-82dc-5ef4b0a5e328","system_id":"levelo_inurba_marseille","lat":43.31614,"lon":5.38626,"is_reserved":false,"is_disabled":false,"rental_uris":{"android":"levelo://app?vid=a8e67676-89ba-43e0-82dc-5ef4b0a5e328","ios":"levelo://app?vid=a8e67676-89ba-43e0-82dc-5ef4b0a5e328"},"vehicle_type_id":"4","last_reported":1742065570,"current_range_meters":6800,"station_id":"","pricing_plan_id":"cebpf4jnsgd1na2vs0mg"},{"bike_id":"31a0334a-e232-4ef2-8523-76e80a04f75f","system_id":"levelo_inurba_marseille","lat":43.29227,"lon":5.36062,"is_reserved":false,"is_disabled":false,"rental_uris":{"android":"levelo://app?vid=31a0334a-e232-4ef2-8523-76e80a04f75f","ios":"levelo://app?vid=31a0334a-e232-4ef2-8523-76e80a04f75f"},"vehicle_type_id":"4","last_reported":1742065570,"current_range_meters":6800,"station_id":"ce4bhbh2rcd13ifvqeqg","pricing_plan_id":"cebpf4jnsgd1na2vs0mg"},{"bike_id":"9e763656-124f-449b-8369-476a0acf3318","system_id":"levelo_inurba_marseille","lat":43.29069,"lon":5.37165,"is_reserved":false,"is_disabled":false,"rental_uris":{"android":"levelo://app?vid=9e763656-124f-449b-8369-476a0acf3318","ios":"levelo://app?vid=9e763656-124f-449b-8369-476a0acf3318"},"vehicle_type_id":"4","last_reported":1742065570,"current_range_meters":6800,"station_id":"ce4bh5p2rcd13ifvqe4g","pricing_plan_id":"cebpf4jnsgd1na2vs0mg"},{"bike_id":"4fba7e23-c0bd-469b-817e-c2e00b4ad63a","system_id":"levelo_inurba_marseille","lat":43.29041,"lon":5.38639,"is_reserved":false,"is_disabled":false,"rental_uris":{"android":"levelo://app?vid=4fba7e23-c0bd-469b-817e-c2e00b4ad63a","ios":"levelo://app?vid=4fba7e23-c0bd-469b-817e-c2e00b4ad63a"},"vehicle_type_id":"4","last_reported":1742065570,"current_range_meters":6800,"station_id":"ce4bh4p2rcd13ifvqe0g","pricing_plan_id":"cebpf4jnsgd1na2vs0mg"},{"bike_id":"4a1bbf96-65e1-4a39-ace7-b5a98c8befe0","system_id":"levelo_inurba_marseille","lat":43.2998,"lon":5.38481,"is_reserved":false,"is_disabled":false,"rental_uris":{"android":"levelo://app?vid=4a1bbf96-65e1-4a39-ace7-b5a98c8befe0","ios":"levelo://app?vid=4a1bbf96-65e1-4a39-ace7-b5a98c8befe0"},"vehicle_type_id":"4","last_reported":1742065570,"current_range_meters":6800,"station_id":"ce4bgj92rcd13ifvqbd0","pricing_plan_id":"cebpf4jnsgd1na2vs0mg"},{"bike_id":"2ec0f046-4e68-4150-a618-5c892d6b2cb5","system_id":"levelo_inurba_marseille","lat":43.26221,"lon":5.40441,"is_reserved":false,"is_disabled":false,"rental_uris":{"android":"levelo://app?vid=2ec0f046-4e68-4150-a618-5c892d6b2cb5","ios":"levelo://app?vid=2ec0f046-4e68-4150-a618-5c892d6b2cb5"},"vehicle_type_id":"4","last_reported":1742065570,"current_range_meters":6800,"station_id":"ce4bhmh2rcd13ifvqgmg","pricing_plan_id":"cebpf4jnsgd1na2vs0mg"},{"bike_id":"5d51dfd6-d2b8-4008-9bb1-54e15f06911c","system_id":"levelo_inurba_marseille","lat":43.30147,"lon":5.38795,"is_reserved":false,"is_disabled":false,"rental_uris":{"android":"levelo://app?vid=5d51dfd6-d2b8-4008-9bb1-54e15f06911c","ios":"levelo://app?vid=5d51dfd6-d2b8-4008-9bb1-54e15f06911c"},"vehicle_type_id":"4","last_reported":1742065570,"current_range_meters":7200,"station_id":"ce4bghh2rcd13ifvqb60","pricing_plan_id":"cebpf4jnsgd1na2vs0mg"},{"bike_id":"01bb7a42-0851-42b4-9cdc-2b45ba11e528","system_id":"levelo_inurba_marseille","lat":43.29852,"lon":5.36287,"is_reserved":false,"is_disabled":false,"rental_uris":{"android":"levelo://app?vid=01bb7a42-0851-42b4-9cdc-2b45ba11e528","ios":"levelo://app?vid=01bb7a42-0851-42b4-9cdc-2b45ba11e528"},"vehicle_type_id":"4","last_reported":1742065570,"current_range_meters":7200,"station_id":"ce4bgpp2rcd13ifvqc3g","pricing_plan_id":"cebpf4jnsgd1na2vs0mg"},{"bike_id":"32e54212-bcb0-4c34-9b2b-debf9a0c5310","system_id":"levelo_inurba_marseille","lat":43.2953,"lon":5.39036,"is_reserved":false,"is_disabled":false,"rental_uris":{"android":"levelo://app?vid=32e54212-bcb0-4c34-9b2b-debf9a0c5310","ios":"levelo://app?vid=32e54212-bcb0-4c34-9b2b-debf9a0c5310"},"vehicle_type_id":"4","last_reported":1742065570,"current_range_meters":7200,"station_id":"ce4bh3p2rcd13ifvqdp0","pricing_plan_id":"cebpf4jnsgd1na2vs0mg"},{"bike_id":"88c2ec9c-c2ee-474d-a6aa-dbb7a53fc0ca","system_id":"levelo_inurba_marseille","lat":43.24183,"lon":5.39736,"is_reserved":false,"is_disabled":true,"rental_uris":{"android":"levelo://app?vid=88c2ec9c-c2ee-474d-a6aa-dbb7a53fc0ca","ios":"levelo://app?vid=88c2ec9c-c2ee-474d-a6aa-dbb7a53fc0ca"},"vehicle_type_id":"4","last_reported":1742065570,"current_range_meters":7200,"station_id":"ce4bhn12rcd13ifvqgpg","pricing_plan_id":"cebpf4jnsgd1na2vs0mg"},{"bike_id":"904a9a63-e78a-4eba-a3aa-1170eb6119b1","system_id":"levelo_inurba_marseille","lat":43.28682,"lon":5.38673,"is_reserved":false,"is_disabled":false,"rental_uris":{"android":"levelo://app?vid=904a9a63-e78a-4eba-a3aa-1170eb6119b1","ios":"levelo://app?vid=904a9a63-e78a-4eba-a3aa-1170eb6119b1"},"vehicle_type_id":"4","last_reported":1742065570,"current_range_meters":7200,"station_id":"ce4bh492rcd13ifvqdug","pricing_plan_id":"cebpf4jnsgd1na2vs0mg"},{"bike_id":"51ab53f7-208d-4680-8b07-384454f7147f","system_id":"levelo_inurba_marseille","lat":43.23187,"lon":5.39986,"is_reserved":false,"is_disabled":false,"rental_uris":{"android":"levelo://app?vid=51ab53f7-208d-4680-8b07-384454f7147f","ios":"levelo://app?vid=51ab53f7-208d-4680-8b07-384454f7147f"},"vehicle_type_id":"4","last_reported":1742065570,"current_range_meters":7200,"station_id":"ce4bhn12rcd13ifvqgqg","pricing_plan_id":"cebpf4jnsgd1na2vs0mg"},{"bike_id":"53e15e3c-cee2-41a4-aff7-8769052ec604","system_id":"levelo_inurba_marseille","lat":43.2903,"lon":5.38133,"is_reserved":false,"is_disabled":false,"rental_uris":{"android":"levelo://app?vid=53e15e3c-cee2-41a4-aff7-8769052ec604","ios":"levelo://app?vid=53e15e3c-cee2-41a4-aff7-8769052ec604"},"vehicle_type_id":"4","last_reported":1742065570,"current_range_meters":7200,"station_id":"ce4bh4p2rcd13ifvqe1g","pricing_plan_id":"cebpf4jnsgd1na2vs0mg"},{"bike_id":"96607fec-75b2-42c9-810d-4e867947e442","system_id":"levelo_inurba_marseille","lat":43.3061,"lon":5.37238,"is_reserved":false,"is_disabled":false,"rental_uris":{"android":"levelo://app?vid=96607fec-75b2-42c9-810d-4e867947e442","ios":"levelo://app?vid=96607fec-75b2-42c9-810d-4e867947e442"},"vehicle_type_id":"4","last_reported":1742065570,"current_range_meters":7200,"station_id":"ce4bgqh2rcd13ifvqc4g","pricing_plan_id":"cebpf4jnsgd1na2vs0mg"},{"bike_id":"355fb77e-22da-4ed4-bab8-f395a5c5d15a","system_id":"levelo_inurba_marseille","lat":43.24652,"lon":5.38167,"is_reserved":false,"is_disabled":false,"rental_uris":{"android":"levelo://app?vid=355fb77e-22da-4ed4-bab8-f395a5c5d15a","ios":"levelo://app?vid=355fb77e-22da-4ed4-bab8-f395a5c5d15a"},"vehicle_type_id":"4","last_reported":1742065570,"current_range_meters":7200,"station_id":"ce4bhih2rcd13ifvqfr0","pricing_plan_id":"cebpf4jnsgd1na2vs0mg"},{"bike_id":"bd7fb638-a561-41df-90ca-f32685780427","system_id":"levelo_inurba_marseille","lat":43.22933,"lon":5.35376,"is_reserved":false,"is_disabled":false,"rental_uris":{"android":"levelo://app?vid=bd7fb638-a561-41df-90ca-f32685780427","ios":"levelo://app?vid=bd7fb638-a561-41df-90ca-f32685780427"},"vehicle_type_id":"4","last_reported":1742065570,"current_range_meters":7200,"station_id":"cpo3532slgdg3j2ikp40","pricing_plan_id":"cebpf4jnsgd1na2vs0mg"},{"bike_id":"0effbbb8-a931-404a-a47c-69bda0c677cc","system_id":"levelo_inurba_marseille","lat":43.22918,"lon":5.35423,"is_reserved":false,"is_disabled":false,"rental_uris":{"android":"levelo://app?vid=0effbbb8-a931-404a-a47c-69bda0c677cc","ios":"levelo://app?vid=0effbbb8-a931-404a-a47c-69bda0c677cc"},"vehicle_type_id":"4","last_reported":1742065570,"current_range_meters":7200,"station_id":"cpo3532slgdg3j2ikp40","pricing_plan_id":"cebpf4jnsgd1na2vs0mg"},{"bike_id":"3632362f-b9b0-468b-918a-66ceca772a7a","system_id":"levelo_inurba_marseille","lat":43.28421,"lon":5.37513,"is_reserved":false,"is_disabled":false,"rental_uris":{"android":"levelo://app?vid=3632362f-b9b0-468b-918a-66ceca772a7a","ios":"levelo://app?vid=3632362f-b9b0-468b-918a-66ceca772a7a"},"vehicle_type_id":"4","last_reported":1742065570,"current_range_meters":7200,"station_id":"ce4bh412rcd13ifvqds0","pricing_plan_id":"cebpf4jnsgd1na2vs0mg"},{"bike_id":"30a4f127-94f9-4909-8f10-cc0842fe728e","system_id":"levelo_inurba_marseille","lat":43.2985,"lon":5.3628,"is_reserved":false,"is_disabled":false,"rental_uris":{"android":"levelo://app?vid=30a4f127-94f9-4909-8f10-cc0842fe728e","ios":"levelo://app?vid=30a4f127-94f9-4909-8f10-cc0842fe728e"},"vehicle_type_id":"4","last_reported":1742065570,"current_range_meters":7200,"station_id":"ce4bgpp2rcd13ifvqc3g","pricing_plan_id":"cebpf4jnsgd1na2vs0mg"},{"bike_id":"a34c7857-958f-4104-a3b4-3724e6f95aca","system_id":"levelo_inurba_marseille","lat":43.27321,"lon":5.39073,"is_reserved":false,"is_disabled":false,"rental_uris":{"android":"levelo://app?vid=a34c7857-958f-4104-a3b4-3724e6f95aca","ios":"levelo://app?vid=a34c7857-958f-4104-a3b4-3724e6f95aca"},"vehicle_type_id":"4","last_reported":1742065570,"current_range_meters":6800,"station_id":"ce4bhgp2rcd13ifvqfe0","pricing_plan_id":"cebpf4jnsgd1na2vs0mg"},{"bike_id":"d4fc173d-681a-4e41-b8cb-9b4d19a7b40c","system_id":"levelo_inurba_marseille","lat":43.25843,"lon":5.39408,"is_reserved":false,"is_disabled":false,"rental_uris":{"android":"levelo://app?vid=d4fc173d-681a-4e41-b8cb-9b4d19a7b40c","ios":"levelo://app?vid=d4fc173d-681a-4e41-b8cb-9b4d19a7b40c"},"vehicle_type_id":"4","last_reported":1742065570,"current_range_meters":8000,"station_id":"ce4bhip2rcd13ifvqft0","pricing_plan_id":"cebpf4jnsgd1na2vs0mg"},{"bike_id":"01adc5b3-d57f-4492-a1ff-fda72072a49e","system_id":"levelo_inurba_marseille","lat":43.29525,"lon":5.39033,"is_reserved":false,"is_disabled":false,"rental_uris":{"android":"levelo://app?vid=01adc5b3-d57f-4492-a1ff-fda72072a49e","ios":"levelo://app?vid=01adc5b3-d57f-4492-a1ff-fda72072a49e"},"vehicle_type_id":"4","last_reported":1742065570,"current_range_meters":8000,"station_id":"ce4bh3p2rcd13ifvqdp0","pricing_plan_id":"cebpf4jnsgd1na2vs0mg"},{"bike_id":"8a5bd971-61c1-4475-933b-dffdb284dd01","system_id":"levelo_inurba_marseille","lat":43.24976,"lon":5.38959,"is_reserved":false,"is_disabled":false,"rental_uris":{"android":"levelo://app?vid=8a5bd971-61c1-4475-933b-dffdb284dd01","ios":"levelo://app?vid=8a5bd971-61c1-4475-933b-dffdb284dd01"},"vehicle_type_id":"4","last_reported":1742065570,"current_range_meters":8000,"station_id":"ce4bhgp2rcd13ifvqfd0","pricing_plan_id":"cebpf4jnsgd1na2vs0mg"},{"bike_id":"45f9e9c6-aca8-4b38-b4ea-91a6a154866f","system_id":"levelo_inurba_marseille","lat":43.28084,"lon":5.3966,"is_reserved":false,"is_disabled":false,"rental_uris":{"android":"levelo://app?vid=45f9e9c6-aca8-4b38-b4ea-91a6a154866f","ios":"levelo://app?vid=45f9e9c6-aca8-4b38-b4ea-91a6a154866f"},"vehicle_type_id":"4","last_reported":1742065570,"current_range_meters":8000,"station_id":"ce4bho12rcd13ifvqh2g","pricing_plan_id":"cebpf4jnsgd1na2vs0mg"},{"bike_id":"14672f34-519d-4b00-bfd5-d6ee5ef72e99","system_id":"levelo_inurba_marseille","lat":43.24808,"lon":5.37459,"is_reserved":false,"is_disabled":false,"rental_uris":{"android":"levelo://app?vid=14672f34-519d-4b00-bfd5-d6ee5ef72e99","ios":"levelo://app?vid=14672f34-519d-4b00-bfd5-d6ee5ef72e99"},"vehicle_type_id":"4","last_reported":1742065570,"current_range_meters":8000,"station_id":"ce4bhgh2rcd13ifvqfb0","pricing_plan_id":"cebpf4jnsgd1na2vs0mg"},{"bike_id":"fce291b7-ea10-4d8e-ada9-0a02184bf6fd","system_id":"levelo_inurba_marseille","lat":43.2509,"lon":5.39506,"is_reserved":false,"is_disabled":false,"rental_uris":{"android":"levelo://app?vid=fce291b7-ea10-4d8e-ada9-0a02184bf6fd","ios":"levelo://app?vid=fce291b7-ea10-4d8e-ada9-0a02184bf6fd"},"vehicle_type_id":"4","last_reported":1742065570,"current_range_meters":8000,"station_id":"ce4bhm12rcd13ifvqgkg","pricing_plan_id":"cebpf4jnsgd1na2vs0mg"},{"bike_id":"5f302834-47d4-401d-a4b4-804921831d5f","system_id":"levelo_inurba_marseille","lat":43.27813,"lon":5.4071,"is_reserved":false,"is_disabled":false,"rental_uris":{"android":"levelo://app?vid=5f302834-47d4-401d-a4b4-804921831d5f","ios":"levelo://app?vid=5f302834-47d4-401d-a4b4-804921831d5f"},"vehicle_type_id":"4","last_reported":1742065570,"current_range_meters":8000,"station_id":"ce4bhnh2rcd13ifvqgtg","pricing_plan_id":"cebpf4jnsgd1na2vs0mg"},{"bike_id":"05c70a7a-86e2-4ec8-a1d1-c1288539ed36","system_id":"levelo_inurba_marseille","lat":43.2657,"lon":5.39007,"is_reserved":false,"is_disabled":false,"rental_uris":{"android":"levelo://app?vid=05c70a7a-86e2-4ec8-a1d1-c1288539ed36","ios":"levelo://app?vid=05c70a7a-86e2-4ec8-a1d1-c1288539ed36"},"vehicle_type_id":"4","last_reported":1742065570,"current_range_meters":8000,"station_id":"ce4bhe12rcd13ifvqf30","pricing_plan_id":"cebpf4jnsgd1na2vs0mg"},{"bike_id":"b53f6815-5f6a-4bb8-8c39-3453a8aad7d4","system_id":"levelo_inurba_marseille","lat":43.33768,"lon":5.39168,"is_reserved":false,"is_disabled":false,"rental_uris":{"android":"levelo://app?vid=b53f6815-5f6a-4bb8-8c39-3453a8aad7d4","ios":"levelo://app?vid=b53f6815-5f6a-4bb8-8c39-3453a8aad7d4"},"vehicle_type_id":"4","last_reported":1742065570,"current_range_meters":8000,"station_id":"ce4bhr92rcd13ifvqhsg","pricing_plan_id":"cebpf4jnsgd1na2vs0mg"},{"bike_id":"dab3deb1-dbe6-4af6-84df-e1d700877961","system_id":"levelo_inurba_marseille","lat":43.29622,"lon":5.37722,"is_reserved":false,"is_disabled":false,"rental_uris":{"android":"levelo://app?vid=dab3deb1-dbe6-4af6-84df-e1d700877961","ios":"levelo://app?vid=dab3deb1-dbe6-4af6-84df-e1d700877961"},"vehicle_type_id":"4","last_reported":1742065570,"current_range_meters":7200,"station_id":"ce4bgi92rcd13ifvqb90","pricing_plan_id":"cebpf4jnsgd1na2vs0mg"},{"bike_id":"74d04e7e-29ca-4cf3-b82a-9775acfeb45e","system_id":"levelo_inurba_marseille","lat":43.29037,"lon":5.38639,"is_reserved":false,"is_disabled":false,"rental_uris":{"android":"levelo://app?vid=74d04e7e-29ca-4cf3-b82a-9775acfeb45e","ios":"levelo://app?vid=74d04e7e-29ca-4cf3-b82a-9775acfeb45e"},"vehicle_type_id":"4","last_reported":1742065570,"current_range_meters":8000,"station_id":"ce4bh4p2rcd13ifvqe0g","pricing_plan_id":"cebpf4jnsgd1na2vs0mg"},{"bike_id":"86f8a338-fbb0-4e3c-b6c5-e5f52fee66b9","system_id":"levelo_inurba_marseille","lat":43.29612,"lon":5.38103,"is_reserved":false,"is_disabled":false,"rental_uris":{"android":"levelo://app?vid=86f8a338-fbb0-4e3c-b6c5-e5f52fee66b9","ios":"levelo://app?vid=86f8a338-fbb0-4e3c-b6c5-e5f52fee66b9"},"vehicle_type_id":"4","last_reported":1742065570,"current_range_meters":8000,"station_id":"ce4bgl12rcd13ifvqbo0","pricing_plan_id":"cebpf4jnsgd1na2vs0mg"},{"bike_id":"d14a07aa-15ce-42e9-bb33-77968e69a5d0","system_id":"levelo_inurba_marseille","lat":43.29524,"lon":5.39048,"is_reserved":false,"is_disabled":false,"rental_uris":{"android":"levelo://app?vid=d14a07aa-15ce-42e9-bb33-77968e69a5d0","ios":"levelo://app?vid=d14a07aa-15ce-42e9-bb33-77968e69a5d0"},"vehicle_type_id":"4","last_reported":1742065570,"current_range_meters":8000,"station_id":"ce4bh3p2rcd13ifvqdp0","pricing_plan_id":"cebpf4jnsgd1na2vs0mg"},{"bike_id":"3d32daa8-533f-4ade-ab31-611854a83f23","system_id":"levelo_inurba_marseille","lat":43.29037,"lon":5.3865,"is_reserved":false,"is_disabled":false,"rental_uris":{"android":"levelo://app?vid=3d32daa8-533f-4ade-ab31-611854a83f23","ios":"levelo://app?vid=3d32daa8-533f-4ade-ab31-611854a83f23"},"vehicle_type_id":"4","last_reported":1742065570,"current_range_meters":8400,"station_id":"ce4bh4p2rcd13ifvqe0g","pricing_plan_id":"cebpf4jnsgd1na2vs0mg"},{"bike_id":"ce49cfd8-e14c-49c3-9731-835eaa9cce42","system_id":"levelo_inurba_marseille","lat":43.29779,"lon":5.38116,"is_reserved":false,"is_disabled":false,"rental_uris":{"android":"levelo://app?vid=ce49cfd8-e14c-49c3-9731-835eaa9cce42","ios":"levelo://app?vid=ce49cfd8-e14c-49c3-9731-835eaa9cce42"},"vehicle_type_id":"4","last_reported":1742065570,"current_range_meters":8400,"station_id":"ce4bgip2rcd13ifvqbb0","pricing_plan_id":"cebpf4jnsgd1na2vs0mg"},{"bike_id":"40e8e8ac-e97d-455f-bd7e-cd3eb90a8171","system_id":"levelo_inurba_marseille","lat":43.29792,"lon":5.38119,"is_reserved":false,"is_disabled":false,"rental_uris":{"android":"levelo://app?vid=40e8e8ac-e97d-455f-bd7e-cd3eb90a8171","ios":"levelo://app?vid=40e8e8ac-e97d-455f-bd7e-cd3eb90a8171"},"vehicle_type_id":"4","last_reported":1742065570,"current_range_meters":8400,"station_id":"ce4bgip2rcd13ifvqbb0","pricing_plan_id":"cebpf4jnsgd1na2vs0mg"},{"bike_id":"2cdf3b18-0a82-4018-b15a-9fa6067e63d4","system_id":"levelo_inurba_marseille","lat":43.28942,"lon":5.36629,"is_reserved":false,"is_disabled":false,"rental_uris":{"android":"levelo://app?vid=2cdf3b18-0a82-4018-b15a-9fa6067e63d4","ios":"levelo://app?vid=2cdf3b18-0a82-4018-b15a-9fa6067e63d4"},"vehicle_type_id":"4","last_reported":1742065570,"current_range_meters":8400,"station_id":"ce4bhap2rcd13ifvqek0","pricing_plan_id":"cebpf4jnsgd1na2vs0mg"},{"bike_id":"7cafac1f-6cec-4b0e-b181-af4067df47ba","system_id":"levelo_inurba_marseille","lat":43.29009,"lon":5.35614,"is_reserved":false,"is_disabled":false,"rental_uris":{"android":"levelo://app?vid=7cafac1f-6cec-4b0e-b181-af4067df47ba","ios":"levelo://app?vid=7cafac1f-6cec-4b0e-b181-af4067df47ba"},"vehicle_type_id":"4","last_reported":1742065570,"current_range_meters":8400,"station_id":"ce4bhb92rcd13ifvqen0","pricing_plan_id":"cebpf4jnsgd1na2vs0mg"},{"bike_id":"1df6feb5-b798-4a57-a0b2-64cd04459733","system_id":"levelo_inurba_marseille","lat":43.29798,"lon":5.38102,"is_reserved":false,"is_disabled":false,"rental_uris":{"android":"levelo://app?vid=1df6feb5-b798-4a57-a0b2-64cd04459733","ios":"levelo://app?vid=1df6feb5-b798-4a57-a0b2-64cd04459733"},"vehicle_type_id":"4","last_reported":1742065570,"current_range_meters":8400,"station_id":"ce4bgip2rcd13ifvqbb0","pricing_plan_id":"cebpf4jnsgd1na2vs0mg"},{"bike_id":"ae101444-9461-4e76-a90e-2e5eacdcafbc","system_id":"levelo_inurba_marseille","lat":43.2798,"lon":5.3875,"is_reserved":false,"is_disabled":true,"rental_uris":{"android":"levelo://app?vid=ae101444-9461-4e76-a90e-2e5eacdcafbc","ios":"levelo://app?vid=ae101444-9461-4e76-a90e-2e5eacdcafbc"},"vehicle_type_id":"4","last_reported":1742065570,"current_range_meters":8400,"station_id":"ce4bhg12rcd13ifvqf80","pricing_plan_id":"cebpf4jnsgd1na2vs0mg"},{"bike_id":"2d28b0b5-973c-4ed2-bbb3-a4c0fd206c56","system_id":"levelo_inurba_marseille","lat":43.26782,"lon":5.39417,"is_reserved":false,"is_disabled":false,"rental_uris":{"android":"levelo://app?vid=2d28b0b5-973c-4ed2-bbb3-a4c0fd206c56","ios":"levelo://app?vid=2d28b0b5-973c-4ed2-bbb3-a4c0fd206c56"},"vehicle_type_id":"4","last_reported":1742065570,"current_range_meters":8400,"station_id":"ce4bhh12rcd13ifvqfg0","pricing_plan_id":"cebpf4jnsgd1na2vs0mg"},{"bike_id":"58597d51-988a-4b3e-81aa-b36cb11be1eb","system_id":"levelo_inurba_marseille","lat":43.287,"lon":5.37391,"is_reserved":false,"is_disabled":false,"rental_uris":{"android":"levelo://app?vid=58597d51-988a-4b3e-81aa-b36cb11be1eb","ios":"levelo://app?vid=58597d51-988a-4b3e-81aa-b36cb11be1eb"},"vehicle_type_id":"4","last_reported":1742065570,"current_range_meters":8400,"station_id":"ce4bh3p2rcd13ifvqdq0","pricing_plan_id":"cebpf4jnsgd1na2vs0mg"},{"bike_id":"0fa7f06d-4d6c-4d97-b8d9-bce44d43c22f","system_id":"levelo_inurba_marseille","lat":43.29302,"lon":5.37169,"is_reserved":false,"is_disabled":false,"rental_uris":{"android":"levelo://app?vid=0fa7f06d-4d6c-4d97-b8d9-bce44d43c22f","ios":"levelo://app?vid=0fa7f06d-4d6c-4d97-b8d9-bce44d43c22f"},"vehicle_type_id":"4","last_reported":1742065570,"current_range_meters":8400,"station_id":"ce4bgh92rcd13ifvqb40","pricing_plan_id":"cebpf4jnsgd1na2vs0mg"},{"bike_id":"11877a08-1209-410f-8a57-ef814c57a390","system_id":"levelo_inurba_marseille","lat":43.24179,"lon":5.36352,"is_reserved":false,"is_disabled":false,"rental_uris":{"android":"levelo://app?vid=11877a08-1209-410f-8a57-ef814c57a390","ios":"levelo://app?vid=11877a08-1209-410f-8a57-ef814c57a390"},"vehicle_type_id":"4","last_reported":1742065570,"current_range_meters":8400,"station_id":"cpo36qri1sfpv3e86is0","pricing_plan_id":"cebpf4jnsgd1na2vs0mg"},{"bike_id":"385ae15c-2c3c-4490-a507-5eb20fb883a5","system_id":"levelo_inurba_marseille","lat":43.25938,"lon":5.40874,"is_reserved":false,"is_disabled":false,"rental_uris":{"android":"levelo://app?vid=385ae15c-2c3c-4490-a507-5eb20fb883a5","ios":"levelo://app?vid=385ae15c-2c3c-4490-a507-5eb20fb883a5"},"vehicle_type_id":"4","last_reported":1742065570,"current_range_meters":8400,"station_id":"ce4bhm92rcd13ifvqglg","pricing_plan_id":"cebpf4jnsgd1na2vs0mg"},{"bike_id":"19d40a31-db0e-48ce-a3c7-b7e217247c29","system_id":"levelo_inurba_marseille","lat":43.2926,"lon":5.37627,"is_reserved":false,"is_disabled":false,"rental_uris":{"android":"levelo://app?vid=19d40a31-db0e-48ce-a3c7-b7e217247c29","ios":"levelo://app?vid=19d40a31-db0e-48ce-a3c7-b7e217247c29"},"vehicle_type_id":"4","last_reported":1742065570,"current_range_meters":8400,"station_id":"ce4bgi12rcd13ifvqb80","pricing_plan_id":"cebpf4jnsgd1na2vs0mg"},{"bike_id":"74c8f1ef-49b4-49b3-937a-3ab552ca570e","system_id":"levelo_inurba_marseille","lat":43.27942,"lon":5.41056,"is_reserved":false,"is_disabled":false,"rental_uris":{"android":"levelo://app?vid=74c8f1ef-49b4-49b3-937a-3ab552ca570e","ios":"levelo://app?vid=74c8f1ef-49b4-49b3-937a-3ab552ca570e"},"vehicle_type_id":"4","last_reported":1742065570,"current_range_meters":8400,"station_id":"ce4bhnp2rcd13ifvqh0g","pricing_plan_id":"cebpf4jnsgd1na2vs0mg"},{"bike_id":"832d4ee6-23fb-4c75-9bc5-6a2d919c8c55","system_id":"levelo_inurba_marseille","lat":43.25937,"lon":5.40898,"is_reserved":false,"is_disabled":false,"rental_uris":{"android":"levelo://app?vid=832d4ee6-23fb-4c75-9bc5-6a2d919c8c55","ios":"levelo://app?vid=832d4ee6-23fb-4c75-9bc5-6a2d919c8c55"},"vehicle_type_id":"4","last_reported":1742065570,"current_range_meters":8400,"station_id":"ce4bhm92rcd13ifvqglg","pricing_plan_id":"cebpf4jnsgd1na2vs0mg"},{"bike_id":"830c39e2-a7a7-4477-b1c6-9ee80558d0b2","system_id":"levelo_inurba_marseille","lat":43.28432,"lon":5.35004,"is_reserved":false,"is_disabled":false,"rental_uris":{"android":"levelo://app?vid=830c39e2-a7a7-4477-b1c6-9ee80558d0b2","ios":"levelo://app?vid=830c39e2-a7a7-4477-b1c6-9ee80558d0b2"},"vehicle_type_id":"4","last_reported":1742065570,"current_range_meters":8400,"station_id":"ce4bhbh2rcd13ifvqepg","pricing_plan_id":"cebpf4jnsgd1na2vs0mg"},{"bike_id":"a75b9f2f-f1c1-4b6d-ac8f-577368a4e69b","system_id":"levelo_inurba_marseille","lat":43.26943,"lon":5.40271,"is_reserved":false,"is_disabled":false,"rental_uris":{"android":"levelo://app?vid=a75b9f2f-f1c1-4b6d-ac8f-577368a4e69b","ios":"levelo://app?vid=a75b9f2f-f1c1-4b6d-ac8f-577368a4e69b"},"vehicle_type_id":"4","last_reported":1742065570,"current_range_meters":8800,"station_id":"cjm6bp8fraef2m0cb0m0","pricing_plan_id":"cebpf4jnsgd1na2vs0mg"},{"bike_id":"1ac0ebad-6828-4242-99b2-14a9f8209f79","system_id":"levelo_inurba_marseille","lat":43.23211,"lon":5.35507,"is_reserved":false,"is_disabled":false,"rental_uris":{"android":"levelo://app?vid=1ac0ebad-6828-4242-99b2-14a9f8209f79","ios":"levelo://app?vid=1ac0ebad-6828-4242-99b2-14a9f8209f79"},"vehicle_type_id":"4","last_reported":1742065570,"current_range_meters":8800,"station_id":"ce4bhu92rcd13ifvqi70","pricing_plan_id":"cebpf4jnsgd1na2vs0mg"},{"bike_id":"a51e83ee-53b4-4965-b5bb-694ae883e860","system_id":"levelo_inurba_marseille","lat":43.26223,"lon":5.37456,"is_reserved":false,"is_disabled":true,"rental_uris":{"android":"levelo://app?vid=a51e83ee-53b4-4965-b5bb-694ae883e860","ios":"levelo://app?vid=a51e83ee-53b4-4965-b5bb-694ae883e860"},"vehicle_type_id":"4","last_reported":1742065570,"current_range_meters":8800,"station_id":"ce4bhgp2rcd13ifvqfc0","pricing_plan_id":"cebpf4jnsgd1na2vs0mg"},{"bike_id":"aa795381-5174-4265-abe3-ddbff84516c8","system_id":"levelo_inurba_marseille","lat":43.30133,"lon":5.3741,"is_reserved":false,"is_disabled":true,"rental_uris":{"android":"levelo://app?vid=aa795381-5174-4265-abe3-ddbff84516c8","ios":"levelo://app?vid=aa795381-5174-4265-abe3-ddbff84516c8"},"vehicle_type_id":"4","last_reported":1742065570,"current_range_meters":8800,"station_id":"ce4bgs92rcd13ifvqcc0","pricing_plan_id":"cebpf4jnsgd1na2vs0mg"},{"bike_id":"99388530-3199-4a9b-85e9-15b56e29535b","system_id":"levelo_inurba_marseille","lat":43.31293,"lon":5.37323,"is_reserved":false,"is_disabled":false,"rental_uris":{"android":"levelo://app?vid=99388530-3199-4a9b-85e9-15b56e29535b","ios":"levelo://app?vid=99388530-3199-4a9b-85e9-15b56e29535b"},"vehicle_type_id":"4","last_reported":1742065570,"current_range_meters":8800,"station_id":"","pricing_plan_id":"cebpf4jnsgd1na2vs0mg"},{"bike_id":"2ada218c-4e3e-433b-a33e-91e0fed6090b","system_id":"levelo_inurba_marseille","lat":43.29455,"lon":5.39774,"is_reserved":false,"is_disabled":true,"rental_uris":{"android":"levelo://app?vid=2ada218c-4e3e-433b-a33e-91e0fed6090b","ios":"levelo://app?vid=2ada218c-4e3e-433b-a33e-91e0fed6090b"},"vehicle_type_id":"4","last_reported":1742065570,"current_range_meters":8800,"station_id":"ce4bh3h2rcd13ifvqdo0","pricing_plan_id":"cebpf4jnsgd1na2vs0mg"},{"bike_id":"a4c1e1b0-9ebd-4927-86d9-53a0fce4e886","system_id":"levelo_inurba_marseille","lat":43.29608,"lon":5.38089,"is_reserved":false,"is_disabled":false,"rental_uris":{"android":"levelo://app?vid=a4c1e1b0-9ebd-4927-86d9-53a0fce4e886","ios":"levelo://app?vid=a4c1e1b0-9ebd-4927-86d9-53a0fce4e886"},"vehicle_type_id":"4","last_reported":1742065570,"current_range_meters":8800,"station_id":"ce4bgl12rcd13ifvqbo0","pricing_plan_id":"cebpf4jnsgd1na2vs0mg"},{"bike_id":"1999cecf-f38c-4961-9580-ef6a50d3e0be","system_id":"levelo_inurba_marseille","lat":43.24164,"lon":5.36406,"is_reserved":false,"is_disabled":false,"rental_uris":{"android":"levelo://app?vid=1999cecf-f38c-4961-9580-ef6a50d3e0be","ios":"levelo://app?vid=1999cecf-f38c-4961-9580-ef6a50d3e0be"},"vehicle_type_id":"4","last_reported":1742065570,"current_range_meters":8800,"station_id":"cpo36qri1sfpv3e86is0","pricing_plan_id":"cebpf4jnsgd1na2vs0mg"},{"bike_id":"e0834956-e6d7-4bc3-862d-e76e3f887cbb","system_id":"levelo_inurba_marseille","lat":43.23064,"lon":5.35478,"is_reserved":false,"is_disabled":false,"rental_uris":{"android":"levelo://app?vid=e0834956-e6d7-4bc3-862d-e76e3f887cbb","ios":"levelo://app?vid=e0834956-e6d7-4bc3-862d-e76e3f887cbb"},"vehicle_type_id":"4","last_reported":1742065570,"current_range_meters":8800,"station_id":"cpo3342slgdg3j2ifvpg","pricing_plan_id":"cebpf4jnsgd1na2vs0mg"},{"bike_id":"1f5def01-7b82-4f17-9373-9cc7bb311870","system_id":"levelo_inurba_marseille","lat":43.28721,"lon":5.37937,"is_reserved":false,"is_disabled":false,"rental_uris":{"android":"levelo://app?vid=1f5def01-7b82-4f17-9373-9cc7bb311870","ios":"levelo://app?vid=1f5def01-7b82-4f17-9373-9cc7bb311870"},"vehicle_type_id":"4","last_reported":1742065570,"current_range_meters":8800,"station_id":"ce4bh9p2rcd13ifvqec0","pricing_plan_id":"cebpf4jnsgd1na2vs0mg"},{"bike_id":"34b41436-20a2-4524-9e2f-27bd05d93b21","system_id":"levelo_inurba_marseille","lat":43.31699,"lon":5.40451,"is_reserved":false,"is_disabled":false,"rental_uris":{"android":"levelo://app?vid=34b41436-20a2-4524-9e2f-27bd05d93b21","ios":"levelo://app?vid=34b41436-20a2-4524-9e2f-27bd05d93b21"},"vehicle_type_id":"4","last_reported":1742065570,"current_range_meters":8800,"station_id":"ce4bh012rcd13ifvqd00","pricing_plan_id":"cebpf4jnsgd1na2vs0mg"},{"bike_id":"6f143c5b-933e-4a51-97d8-72a3705988b8","system_id":"levelo_inurba_marseille","lat":43.32229,"lon":5.37926,"is_reserved":false,"is_disabled":false,"rental_uris":{"android":"levelo://app?vid=6f143c5b-933e-4a51-97d8-72a3705988b8","ios":"levelo://app?vid=6f143c5b-933e-4a51-97d8-72a3705988b8"},"vehicle_type_id":"4","last_reported":1742065570,"current_range_meters":8800,"station_id":"","pricing_plan_id":"cebpf4jnsgd1na2vs0mg"},{"bike_id":"676e66c6-8e50-404c-b512-5f94c7d6a8fc","system_id":"levelo_inurba_marseille","lat":43.24215,"lon":5.36357,"is_reserved":false,"is_disabled":false,"rental_uris":{"android":"levelo://app?vid=676e66c6-8e50-404c-b512-5f94c7d6a8fc","ios":"levelo://app?vid=676e66c6-8e50-404c-b512-5f94c7d6a8fc"},"vehicle_type_id":"4","last_reported":1742065570,"current_range_meters":9200,"station_id":"cpo36qri1sfpv3e86is0","pricing_plan_id":"cebpf4jnsgd1na2vs0mg"},{"bike_id":"85d10f39-4b49-477c-b6e3-e96eb6cda2fc","system_id":"levelo_inurba_marseille","lat":43.27617,"lon":5.36113,"is_reserved":false,"is_disabled":false,"rental_uris":{"android":"levelo://app?vid=85d10f39-4b49-477c-b6e3-e96eb6cda2fc","ios":"levelo://app?vid=85d10f39-4b49-477c-b6e3-e96eb6cda2fc"},"vehicle_type_id":"4","last_reported":1742065570,"current_range_meters":9200,"station_id":"ce4bgj92rcd13ifvqbe0","pricing_plan_id":"cebpf4jnsgd1na2vs0mg"},{"bike_id":"c53f0866-36a3-43b0-814f-a11b1bce09aa","system_id":"levelo_inurba_marseille","lat":43.27821,"lon":5.40668,"is_reserved":false,"is_disabled":false,"rental_uris":{"android":"levelo://app?vid=c53f0866-36a3-43b0-814f-a11b1bce09aa","ios":"levelo://app?vid=c53f0866-36a3-43b0-814f-a11b1bce09aa"},"vehicle_type_id":"4","last_reported":1742065570,"current_range_meters":9200,"station_id":"ce4bhnh2rcd13ifvqgtg","pricing_plan_id":"cebpf4jnsgd1na2vs0mg"},{"bike_id":"f5414c20-237e-4868-b5f5-108e31f3ee76","system_id":"levelo_inurba_marseille","lat":43.29309,"lon":5.37179,"is_reserved":false,"is_disabled":false,"rental_uris":{"android":"levelo://app?vid=f5414c20-237e-4868-b5f5-108e31f3ee76","ios":"levelo://app?vid=f5414c20-237e-4868-b5f5-108e31f3ee76"},"vehicle_type_id":"4","last_reported":1742065570,"current_range_meters":9200,"station_id":"ce4bgh92rcd13ifvqb40","pricing_plan_id":"cebpf4jnsgd1na2vs0mg"},{"bike_id":"50c97caa-ca8a-4b03-99d5-4678c955e14d","system_id":"levelo_inurba_marseille","lat":43.24808,"lon":5.37474,"is_reserved":false,"is_disabled":false,"rental_uris":{"android":"levelo://app?vid=50c97caa-ca8a-4b03-99d5-4678c955e14d","ios":"levelo://app?vid=50c97caa-ca8a-4b03-99d5-4678c955e14d"},"vehicle_type_id":"4","last_reported":1742065570,"current_range_meters":9200,"station_id":"ce4bhgh2rcd13ifvqfb0","pricing_plan_id":"cebpf4jnsgd1na2vs0mg"},{"bike_id":"8a5adb96-750f-4ed8-b908-196be1565ef2","system_id":"levelo_inurba_marseille","lat":43.29794,"lon":5.38108,"is_reserved":false,"is_disabled":false,"rental_uris":{"android":"levelo://app?vid=8a5adb96-750f-4ed8-b908-196be1565ef2","ios":"levelo://app?vid=8a5adb96-750f-4ed8-b908-196be1565ef2"},"vehicle_type_id":"4","last_reported":1742065570,"current_range_meters":9200,"station_id":"ce4bgip2rcd13ifvqbb0","pricing_plan_id":"cebpf4jnsgd1na2vs0mg"},{"bike_id":"728c644c-2a3a-4080-9b2c-d53f140b0e52","system_id":"levelo_inurba_marseille","lat":43.29977,"lon":5.3717,"is_reserved":false,"is_disabled":false,"rental_uris":{"android":"levelo://app?vid=728c644c-2a3a-4080-9b2c-d53f140b0e52","ios":"levelo://app?vid=728c644c-2a3a-4080-9b2c-d53f140b0e52"},"vehicle_type_id":"4","last_reported":1742065570,"current_range_meters":8800,"station_id":"ce4bgr92rcd13ifvqc7g","pricing_plan_id":"cebpf4jnsgd1na2vs0mg"},{"bike_id":"3034db0c-7cfa-4361-a8e5-85d8b0635402","system_id":"levelo_inurba_marseille","lat":43.23956,"lon":5.36645,"is_reserved":false,"is_disabled":false,"rental_uris":{"android":"levelo://app?vid=3034db0c-7cfa-4361-a8e5-85d8b0635402","ios":"levelo://app?vid=3034db0c-7cfa-4361-a8e5-85d8b0635402"},"vehicle_type_id":"4","last_reported":1742065570,"current_range_meters":9200,"station_id":"ce4bhi12rcd13ifvqfp0","pricing_plan_id":"cebpf4jnsgd1na2vs0mg"},{"bike_id":"91cb9d70-b79b-4df4-8b4b-1738ec0fd951","system_id":"levelo_inurba_marseille","lat":43.2904,"lon":5.38657,"is_reserved":false,"is_disabled":false,"rental_uris":{"android":"levelo://app?vid=91cb9d70-b79b-4df4-8b4b-1738ec0fd951","ios":"levelo://app?vid=91cb9d70-b79b-4df4-8b4b-1738ec0fd951"},"vehicle_type_id":"4","last_reported":1742065570,"current_range_meters":9200,"station_id":"ce4bh4p2rcd13ifvqe0g","pricing_plan_id":"cebpf4jnsgd1na2vs0mg"},{"bike_id":"3436e643-74e0-40cc-9ec4-11f60f5eaffe","system_id":"levelo_inurba_marseille","lat":43.29214,"lon":5.39335,"is_reserved":false,"is_disabled":false,"rental_uris":{"android":"levelo://app?vid=3436e643-74e0-40cc-9ec4-11f60f5eaffe","ios":"levelo://app?vid=3436e643-74e0-40cc-9ec4-11f60f5eaffe"},"vehicle_type_id":"4","last_reported":1742065570,"current_range_meters":9200,"station_id":"ce4bh192rcd13ifvqdd0","pricing_plan_id":"cebpf4jnsgd1na2vs0mg"},{"bike_id":"5248e6b4-07bf-4c12-9858-6123181b5e5d","system_id":"levelo_inurba_marseille","lat":43.29513,"lon":5.394,"is_reserved":false,"is_disabled":false,"rental_uris":{"android":"levelo://app?vid=5248e6b4-07bf-4c12-9858-6123181b5e5d","ios":"levelo://app?vid=5248e6b4-07bf-4c12-9858-6123181b5e5d"},"vehicle_type_id":"4","last_reported":1742065570,"current_range_meters":9200,"station_id":"ce4bh292rcd13ifvqdf0","pricing_plan_id":"cebpf4jnsgd1na2vs0mg"},{"bike_id":"75beec41-4a88-4024-bcbf-fdcd1b863557","system_id":"levelo_inurba_marseille","lat":43.296,"lon":5.38101,"is_reserved":false,"is_disabled":false,"rental_uris":{"android":"levelo://app?vid=75beec41-4a88-4024-bcbf-fdcd1b863557","ios":"levelo://app?vid=75beec41-4a88-4024-bcbf-fdcd1b863557"},"vehicle_type_id":"4","last_reported":1742065570,"current_range_meters":9200,"station_id":"ce4bgl12rcd13ifvqbo0","pricing_plan_id":"cebpf4jnsgd1na2vs0mg"},{"bike_id":"327c59c8-638a-41ac-aea6-77efebe8d342","system_id":"levelo_inurba_marseille","lat":43.29611,"lon":5.37524,"is_reserved":false,"is_disabled":false,"rental_uris":{"android":"levelo://app?vid=327c59c8-638a-41ac-aea6-77efebe8d342","ios":"levelo://app?vid=327c59c8-638a-41ac-aea6-77efebe8d342"},"vehicle_type_id":"4","last_reported":1742065570,"current_range_meters":9200,"station_id":"ce4bgh92rcd13ifvqb50","pricing_plan_id":"cebpf4jnsgd1na2vs0mg"},{"bike_id":"92bd2e8f-197b-47ad-8530-ee4394b2ecce","system_id":"levelo_inurba_marseille","lat":43.24152,"lon":5.36462,"is_reserved":false,"is_disabled":false,"rental_uris":{"android":"levelo://app?vid=92bd2e8f-197b-47ad-8530-ee4394b2ecce","ios":"levelo://app?vid=92bd2e8f-197b-47ad-8530-ee4394b2ecce"},"vehicle_type_id":"4","last_reported":1742065570,"current_range_meters":9200,"station_id":"","pricing_plan_id":"cebpf4jnsgd1na2vs0mg"},{"bike_id":"f6b3a511-92bb-49b4-ad08-ada46b8c21af","system_id":"levelo_inurba_marseille","lat":43.29297,"lon":5.37172,"is_reserved":false,"is_disabled":false,"rental_uris":{"android":"levelo://app?vid=f6b3a511-92bb-49b4-ad08-ada46b8c21af","ios":"levelo://app?vid=f6b3a511-92bb-49b4-ad08-ada46b8c21af"},"vehicle_type_id":"4","last_reported":1742065570,"current_range_meters":9200,"station_id":"ce4bgh92rcd13ifvqb40","pricing_plan_id":"cebpf4jnsgd1na2vs0mg"},{"bike_id":"63cfaea5-f172-409c-93d3-875ff9136d61","system_id":"levelo_inurba_marseille","lat":43.24672,"lon":5.38165,"is_reserved":false,"is_disabled":false,"rental_uris":{"android":"levelo://app?vid=63cfaea5-f172-409c-93d3-875ff9136d61","ios":"levelo://app?vid=63cfaea5-f172-409c-93d3-875ff9136d61"},"vehicle_type_id":"4","last_reported":1742065570,"current_range_meters":9600,"station_id":"ce4bhih2rcd13ifvqfr0","pricing_plan_id":"cebpf4jnsgd1na2vs0mg"},{"bike_id":"f086f384-feec-4968-a0b6-7828464e346f","system_id":"levelo_inurba_marseille","lat":43.2842,"lon":5.37502,"is_reserved":false,"is_disabled":false,"rental_uris":{"android":"levelo://app?vid=f086f384-feec-4968-a0b6-7828464e346f","ios":"levelo://app?vid=f086f384-feec-4968-a0b6-7828464e346f"},"vehicle_type_id":"4","last_reported":1742065570,"current_range_meters":9600,"station_id":"ce4bh412rcd13ifvqds0","pricing_plan_id":"cebpf4jnsgd1na2vs0mg"},{"bike_id":"19a625b6-0fa9-4ec1-9907-1b9db88d3b7b","system_id":"levelo_inurba_marseille","lat":43.29579,"lon":5.37523,"is_reserved":false,"is_disabled":false,"rental_uris":{"android":"levelo://app?vid=19a625b6-0fa9-4ec1-9907-1b9db88d3b7b","ios":"levelo://app?vid=19a625b6-0fa9-4ec1-9907-1b9db88d3b7b"},"vehicle_type_id":"4","last_reported":1742065570,"current_range_meters":9600,"station_id":"ce4bgh92rcd13ifvqb50","pricing_plan_id":"cebpf4jnsgd1na2vs0mg"},{"bike_id":"b614f100-11d7-4ef9-8f84-7c5dea0b786b","system_id":"levelo_inurba_marseille","lat":43.26918,"lon":5.40362,"is_reserved":false,"is_disabled":false,"rental_uris":{"android":"levelo://app?vid=b614f100-11d7-4ef9-8f84-7c5dea0b786b","ios":"levelo://app?vid=b614f100-11d7-4ef9-8f84-7c5dea0b786b"},"vehicle_type_id":"4","last_reported":1742065570,"current_range_meters":9600,"station_id":"cjm6bp8fraef2m0cb0m0","pricing_plan_id":"cebpf4jnsgd1na2vs0mg"},{"bike_id":"9823e718-a96e-493e-9827-a769cf475f7e","system_id":"levelo_inurba_marseille","lat":43.30151,"lon":5.38083,"is_reserved":false,"is_disabled":false,"rental_uris":{"android":"levelo://app?vid=9823e718-a96e-493e-9827-a769cf475f7e","ios":"levelo://app?vid=9823e718-a96e-493e-9827-a769cf475f7e"},"vehicle_type_id":"4","last_reported":1742065570,"current_range_meters":9600,"station_id":"ce4bgjp2rcd13ifvqbh0","pricing_plan_id":"cebpf4jnsgd1na2vs0mg"},{"bike_id":"c57a9691-9e95-4215-b428-845658242e5e","system_id":"levelo_inurba_marseille","lat":43.29607,"lon":5.38107,"is_reserved":false,"is_disabled":false,"rental_uris":{"android":"levelo://app?vid=c57a9691-9e95-4215-b428-845658242e5e","ios":"levelo://app?vid=c57a9691-9e95-4215-b428-845658242e5e"},"vehicle_type_id":"4","last_reported":1742065570,"current_range_meters":9600,"station_id":"ce4bgl12rcd13ifvqbo0","pricing_plan_id":"cebpf4jnsgd1na2vs0mg"},{"bike_id":"78eb2a09-9265-46eb-86ea-d40060200af6","system_id":"levelo_inurba_marseille","lat":43.30098,"lon":5.39082,"is_reserved":false,"is_disabled":false,"rental_uris":{"android":"levelo://app?vid=78eb2a09-9265-46eb-86ea-d40060200af6","ios":"levelo://app?vid=78eb2a09-9265-46eb-86ea-d40060200af6"},"vehicle_type_id":"4","last_reported":1742065570,"current_range_meters":9600,"station_id":"ce4bh192rcd13ifvqdb0","pricing_plan_id":"cebpf4jnsgd1na2vs0mg"},{"bike_id":"9625f194-a853-4767-bda8-0eedb08b2cb3","system_id":"levelo_inurba_marseille","lat":43.28735,"lon":5.3991,"is_reserved":false,"is_disabled":true,"rental_uris":{"android":"levelo://app?vid=9625f194-a853-4767-bda8-0eedb08b2cb3","ios":"levelo://app?vid=9625f194-a853-4767-bda8-0eedb08b2cb3"},"vehicle_type_id":"4","last_reported":1742065570,"current_range_meters":9600,"station_id":"ce4bho92rcd13ifvqh3g","pricing_plan_id":"cebpf4jnsgd1na2vs0mg"},{"bike_id":"efb53dda-871b-483c-8dec-e716116f9234","system_id":"levelo_inurba_marseille","lat":43.3111,"lon":5.36815,"is_reserved":false,"is_disabled":false,"rental_uris":{"android":"levelo://app?vid=efb53dda-871b-483c-8dec-e716116f9234","ios":"levelo://app?vid=efb53dda-871b-483c-8dec-e716116f9234"},"vehicle_type_id":"4","last_reported":1742065570,"current_range_meters":9600,"station_id":"","pricing_plan_id":"cebpf4jnsgd1na2vs0mg"},{"bike_id":"122d3c0b-8ce7-4d45-b19c-631c20d2088e","system_id":"levelo_inurba_marseille","lat":43.29034,"lon":5.38658,"is_reserved":false,"is_disabled":false,"rental_uris":{"android":"levelo://app?vid=122d3c0b-8ce7-4d45-b19c-631c20d2088e","ios":"levelo://app?vid=122d3c0b-8ce7-4d45-b19c-631c20d2088e"},"vehicle_type_id":"4","last_reported":1742065570,"current_range_meters":9600,"station_id":"ce4bh4p2rcd13ifvqe0g","pricing_plan_id":"cebpf4jnsgd1na2vs0mg"},{"bike_id":"82aa4d1e-6c2e-4ca0-b766-99350143f347","system_id":"levelo_inurba_marseille","lat":43.2864,"lon":5.35061,"is_reserved":false,"is_disabled":false,"rental_uris":{"android":"levelo://app?vid=82aa4d1e-6c2e-4ca0-b766-99350143f347","ios":"levelo://app?vid=82aa4d1e-6c2e-4ca0-b766-99350143f347"},"vehicle_type_id":"4","last_reported":1742065570,"current_range_meters":9600,"station_id":"ce4bhch2rcd13ifvqeug","pricing_plan_id":"cebpf4jnsgd1na2vs0mg"},{"bike_id":"c491e804-fc87-4c1d-bae5-12449e8e3260","system_id":"levelo_inurba_marseille","lat":43.29969,"lon":5.38498,"is_reserved":false,"is_disabled":false,"rental_uris":{"android":"levelo://app?vid=c491e804-fc87-4c1d-bae5-12449e8e3260","ios":"levelo://app?vid=c491e804-fc87-4c1d-bae5-12449e8e3260"},"vehicle_type_id":"4","last_reported":1742065570,"current_range_meters":9600,"station_id":"ce4bgj92rcd13ifvqbd0","pricing_plan_id":"cebpf4jnsgd1na2vs0mg"},{"bike_id":"2e57b3a3-b0f7-46e9-8467-c545170db7fe","system_id":"levelo_inurba_marseille","lat":43.295286,"lon":5.390342,"is_reserved":false,"is_disabled":false,"rental_uris":{"android":"levelo://app?vid=2e57b3a3-b0f7-46e9-8467-c545170db7fe","ios":"levelo://app?vid=2e57b3a3-b0f7-46e9-8467-c545170db7fe"},"vehicle_type_id":"4","last_reported":1742065570,"current_range_meters":10000,"station_id":"ce4bh3p2rcd13ifvqdp0","pricing_plan_id":"cebpf4jnsgd1na2vs0mg"},{"bike_id":"0b7bfdb8-fd03-4687-9225-8085184f929c","system_id":"levelo_inurba_marseille","lat":43.32367,"lon":5.36784,"is_reserved":false,"is_disabled":false,"rental_uris":{"android":"levelo://app?vid=0b7bfdb8-fd03-4687-9225-8085184f929c","ios":"levelo://app?vid=0b7bfdb8-fd03-4687-9225-8085184f929c"},"vehicle_type_id":"4","last_reported":1742065570,"current_range_meters":10000,"station_id":"ce4bhsh2rcd13ifvqi2g","pricing_plan_id":"cebpf4jnsgd1na2vs0mg"},{"bike_id":"e52b41b5-52df-4c67-a85c-3cebb3bf7504","system_id":"levelo_inurba_marseille","lat":43.32365,"lon":5.36774,"is_reserved":false,"is_disabled":false,"rental_uris":{"android":"levelo://app?vid=e52b41b5-52df-4c67-a85c-3cebb3bf7504","ios":"levelo://app?vid=e52b41b5-52df-4c67-a85c-3cebb3bf7504"},"vehicle_type_id":"4","last_reported":1742065570,"current_range_meters":10000,"station_id":"ce4bhsh2rcd13ifvqi2g","pricing_plan_id":"cebpf4jnsgd1na2vs0mg"},{"bike_id":"c8eae0d7-9bdb-4392-8147-31c872123bd3","system_id":"levelo_inurba_marseille","lat":43.25825,"lon":5.39447,"is_reserved":false,"is_disabled":false,"rental_uris":{"android":"levelo://app?vid=c8eae0d7-9bdb-4392-8147-31c872123bd3","ios":"levelo://app?vid=c8eae0d7-9bdb-4392-8147-31c872123bd3"},"vehicle_type_id":"4","last_reported":1742065570,"current_range_meters":10000,"station_id":"ce4bhip2rcd13ifvqft0","pricing_plan_id":"cebpf4jnsgd1na2vs0mg"},{"bike_id":"2888920d-5337-4dad-b80c-b748fa94c0d3","system_id":"levelo_inurba_marseille","lat":43.24647,"lon":5.38903,"is_reserved":false,"is_disabled":false,"rental_uris":{"android":"levelo://app?vid=2888920d-5337-4dad-b80c-b748fa94c0d3","ios":"levelo://app?vid=2888920d-5337-4dad-b80c-b748fa94c0d3"},"vehicle_type_id":"4","last_reported":1742065570,"current_range_meters":10000,"station_id":"ce4bhg12rcd13ifvqf60","pricing_plan_id":"cebpf4jnsgd1na2vs0mg"},{"bike_id":"d0a10a05-8a21-431b-945e-680b12ad5974","system_id":"levelo_inurba_marseille","lat":43.28465,"lon":5.35881,"is_reserved":false,"is_disabled":false,"rental_uris":{"android":"levelo://app?vid=d0a10a05-8a21-431b-945e-680b12ad5974","ios":"levelo://app?vid=d0a10a05-8a21-431b-945e-680b12ad5974"},"vehicle_type_id":"4","last_reported":1742065570,"current_range_meters":10000,"station_id":"ce4bhah2rcd13ifvqei0","pricing_plan_id":"cebpf4jnsgd1na2vs0mg"},{"bike_id":"ac28eb0b-f9e3-454d-8eb6-b1f5cccb5d84","system_id":"levelo_inurba_marseille","lat":43.29969,"lon":5.38506,"is_reserved":false,"is_disabled":false,"rental_uris":{"android":"levelo://app?vid=ac28eb0b-f9e3-454d-8eb6-b1f5cccb5d84","ios":"levelo://app?vid=ac28eb0b-f9e3-454d-8eb6-b1f5cccb5d84"},"vehicle_type_id":"4","last_reported":1742065570,"current_range_meters":10000,"station_id":"ce4bgj92rcd13ifvqbd0","pricing_plan_id":"cebpf4jnsgd1na2vs0mg"},{"bike_id":"0f1b0db9-346d-4db3-9391-3aab5dc8f677","system_id":"levelo_inurba_marseille","lat":43.29045,"lon":5.38639,"is_reserved":false,"is_disabled":false,"rental_uris":{"android":"levelo://app?vid=0f1b0db9-346d-4db3-9391-3aab5dc8f677","ios":"levelo://app?vid=0f1b0db9-346d-4db3-9391-3aab5dc8f677"},"vehicle_type_id":"4","last_reported":1742065570,"current_range_meters":10000,"station_id":"ce4bh4p2rcd13ifvqe0g","pricing_plan_id":"cebpf4jnsgd1na2vs0mg"},{"bike_id":"d95316d7-ae0b-470d-8c1a-3d7196e53821","system_id":"levelo_inurba_marseille","lat":43.26951,"lon":5.38656,"is_reserved":false,"is_disabled":false,"rental_uris":{"android":"levelo://app?vid=d95316d7-ae0b-470d-8c1a-3d7196e53821","ios":"levelo://app?vid=d95316d7-ae0b-470d-8c1a-3d7196e53821"},"vehicle_type_id":"4","last_reported":1742065570,"current_range_meters":10000,"station_id":"ce4bhh92rcd13ifvqfh0","pricing_plan_id":"cebpf4jnsgd1na2vs0mg"},{"bike_id":"a7c61189-d39b-4cf7-a782-bd9ecbf9bfa4","system_id":"levelo_inurba_marseille","lat":43.29523,"lon":5.39028,"is_reserved":false,"is_disabled":false,"rental_uris":{"android":"levelo://app?vid=a7c61189-d39b-4cf7-a782-bd9ecbf9bfa4","ios":"levelo://app?vid=a7c61189-d39b-4cf7-a782-bd9ecbf9bfa4"},"vehicle_type_id":"4","last_reported":1742065570,"current_range_meters":10000,"station_id":"ce4bh3p2rcd13ifvqdp0","pricing_plan_id":"cebpf4jnsgd1na2vs0mg"},{"bike_id":"33bebc78-59e6-4ca2-a2ef-6c7554b85cf4","system_id":"levelo_inurba_marseille","lat":43.29376,"lon":5.37842,"is_reserved":false,"is_disabled":false,"rental_uris":{"android":"levelo://app?vid=33bebc78-59e6-4ca2-a2ef-6c7554b85cf4","ios":"levelo://app?vid=33bebc78-59e6-4ca2-a2ef-6c7554b85cf4"},"vehicle_type_id":"4","last_reported":1742065570,"current_range_meters":10800,"station_id":"ce4bgjh2rcd13ifvqbf0","pricing_plan_id":"cebpf4jnsgd1na2vs0mg"},{"bike_id":"782bd5d1-9b7f-4479-886b-191f69437a9d","system_id":"levelo_inurba_marseille","lat":43.29035,"lon":5.386467,"is_reserved":false,"is_disabled":false,"rental_uris":{"android":"levelo://app?vid=782bd5d1-9b7f-4479-886b-191f69437a9d","ios":"levelo://app?vid=782bd5d1-9b7f-4479-886b-191f69437a9d"},"vehicle_type_id":"4","last_reported":1742065570,"current_range_meters":10800,"station_id":"ce4bh4p2rcd13ifvqe0g","pricing_plan_id":"cebpf4jnsgd1na2vs0mg"},{"bike_id":"9f292676-c4cb-44a2-b2da-2ef1a1e30264","system_id":"levelo_inurba_marseille","lat":43.30161,"lon":5.38078,"is_reserved":false,"is_disabled":false,"rental_uris":{"android":"levelo://app?vid=9f292676-c4cb-44a2-b2da-2ef1a1e30264","ios":"levelo://app?vid=9f292676-c4cb-44a2-b2da-2ef1a1e30264"},"vehicle_type_id":"4","last_reported":1742065570,"current_range_meters":10800,"station_id":"ce4bgjp2rcd13ifvqbh0","pricing_plan_id":"cebpf4jnsgd1na2vs0mg"},{"bike_id":"71d6b220-48b3-44b0-9feb-d7bbfca6b232","system_id":"levelo_inurba_marseille","lat":43.25491,"lon":5.37622,"is_reserved":false,"is_disabled":true,"rental_uris":{"android":"levelo://app?vid=71d6b220-48b3-44b0-9feb-d7bbfca6b232","ios":"levelo://app?vid=71d6b220-48b3-44b0-9feb-d7bbfca6b232"},"vehicle_type_id":"4","last_reported":1742065570,"current_range_meters":10800,"station_id":"ce4bhh12rcd13ifvqff0","pricing_plan_id":"cebpf4jnsgd1na2vs0mg"},{"bike_id":"dee8c68d-3097-4a69-acad-609d4c0a9231","system_id":"levelo_inurba_marseille","lat":43.27382,"lon":5.3626,"is_reserved":false,"is_disabled":false,"rental_uris":{"android":"levelo://app?vid=dee8c68d-3097-4a69-acad-609d4c0a9231","ios":"levelo://app?vid=dee8c68d-3097-4a69-acad-609d4c0a9231"},"vehicle_type_id":"4","last_reported":1742065570,"current_range_meters":10800,"station_id":"ce4bhbh2rcd13ifvqeo0","pricing_plan_id":"cebpf4jnsgd1na2vs0mg"},{"bike_id":"0c590d2b-92a7-4d09-9282-b6e517c621c1","system_id":"levelo_inurba_marseille","lat":43.269406,"lon":5.402596,"is_reserved":false,"is_disabled":false,"rental_uris":{"android":"levelo://app?vid=0c590d2b-92a7-4d09-9282-b6e517c621c1","ios":"levelo://app?vid=0c590d2b-92a7-4d09-9282-b6e517c621c1"},"vehicle_type_id":"4","last_reported":1742065570,"current_range_meters":10800,"station_id":"cjm6bp8fraef2m0cb0m0","pricing_plan_id":"cebpf4jnsgd1na2vs0mg"},{"bike_id":"b3f3e85b-2bcf-48de-b580-f98bb9289105","system_id":"levelo_inurba_marseille","lat":43.31125,"lon":5.37788,"is_reserved":false,"is_disabled":false,"rental_uris":{"android":"levelo://app?vid=b3f3e85b-2bcf-48de-b580-f98bb9289105","ios":"levelo://app?vid=b3f3e85b-2bcf-48de-b580-f98bb9289105"},"vehicle_type_id":"4","last_reported":1742065570,"current_range_meters":10800,"station_id":"ce4bgt92rcd13ifvqcg0","pricing_plan_id":"cebpf4jnsgd1na2vs0mg"},{"bike_id":"b13c83ce-5089-4b9c-ba5c-9505d62705c8","system_id":"levelo_inurba_marseille","lat":43.29304,"lon":5.3746,"is_reserved":false,"is_disabled":false,"rental_uris":{"android":"levelo://app?vid=b13c83ce-5089-4b9c-ba5c-9505d62705c8","ios":"levelo://app?vid=b13c83ce-5089-4b9c-ba5c-9505d62705c8"},"vehicle_type_id":"4","last_reported":1742065570,"current_range_meters":10800,"station_id":"ce4bgi12rcd13ifvqb70","pricing_plan_id":"cebpf4jnsgd1na2vs0mg"},{"bike_id":"0d8be06c-e0c1-437e-a2c4-31102fec5024","system_id":"levelo_inurba_marseille","lat":43.27814,"lon":5.40713,"is_reserved":false,"is_disabled":false,"rental_uris":{"android":"levelo://app?vid=0d8be06c-e0c1-437e-a2c4-31102fec5024","ios":"levelo://app?vid=0d8be06c-e0c1-437e-a2c4-31102fec5024"},"vehicle_type_id":"4","last_reported":1742065570,"current_range_meters":10800,"station_id":"ce4bhnh2rcd13ifvqgtg","pricing_plan_id":"cebpf4jnsgd1na2vs0mg"},{"bike_id":"31710fca-ccfa-43a5-ac6f-5ec923018ebf","system_id":"levelo_inurba_marseille","lat":43.27414,"lon":5.42066,"is_reserved":false,"is_disabled":false,"rental_uris":{"android":"levelo://app?vid=31710fca-ccfa-43a5-ac6f-5ec923018ebf","ios":"levelo://app?vid=31710fca-ccfa-43a5-ac6f-5ec923018ebf"},"vehicle_type_id":"4","last_reported":1742065570,"current_range_meters":10800,"station_id":"","pricing_plan_id":"cebpf4jnsgd1na2vs0mg"},{"bike_id":"2bc050d9-2120-4b33-8309-3a17da1a8770","system_id":"levelo_inurba_marseille","lat":43.29181,"lon":5.35952,"is_reserved":false,"is_disabled":false,"rental_uris":{"android":"levelo://app?vid=2bc050d9-2120-4b33-8309-3a17da1a8770","ios":"levelo://app?vid=2bc050d9-2120-4b33-8309-3a17da1a8770"},"vehicle_type_id":"4","last_reported":1742065570,"current_range_meters":11200,"station_id":"ce4bh612rcd13ifvqe6g","pricing_plan_id":"cebpf4jnsgd1na2vs0mg"},{"bike_id":"001f1fad-8233-4cb7-ade3-8cc7ce262441","system_id":"levelo_inurba_marseille","lat":43.29316,"lon":5.37472,"is_reserved":false,"is_disabled":false,"rental_uris":{"android":"levelo://app?vid=001f1fad-8233-4cb7-ade3-8cc7ce262441","ios":"levelo://app?vid=001f1fad-8233-4cb7-ade3-8cc7ce262441"},"vehicle_type_id":"4","last_reported":1742065570,"current_range_meters":11200,"station_id":"ce4bgi12rcd13ifvqb70","pricing_plan_id":"cebpf4jnsgd1na2vs0mg"},{"bike_id":"5f7f03a2-add7-44f0-9ebb-8428c5f0e58a","system_id":"levelo_inurba_marseille","lat":43.25976,"lon":5.40911,"is_reserved":false,"is_disabled":false,"rental_uris":{"android":"levelo://app?vid=5f7f03a2-add7-44f0-9ebb-8428c5f0e58a","ios":"levelo://app?vid=5f7f03a2-add7-44f0-9ebb-8428c5f0e58a"},"vehicle_type_id":"4","last_reported":1742065570,"current_range_meters":11200,"station_id":"","pricing_plan_id":"cebpf4jnsgd1na2vs0mg"},{"bike_id":"328af8a3-4fb0-4e47-944b-bf366e3aa7cc","system_id":"levelo_inurba_marseille","lat":43.29309,"lon":5.37465,"is_reserved":false,"is_disabled":false,"rental_uris":{"android":"levelo://app?vid=328af8a3-4fb0-4e47-944b-bf366e3aa7cc","ios":"levelo://app?vid=328af8a3-4fb0-4e47-944b-bf366e3aa7cc"},"vehicle_type_id":"4","last_reported":1742065570,"current_range_meters":11200,"station_id":"ce4bgi12rcd13ifvqb70","pricing_plan_id":"cebpf4jnsgd1na2vs0mg"},{"bike_id":"3f51f1f5-7a39-4364-adc9-c4c0ef6e90b0","system_id":"levelo_inurba_marseille","lat":43.28618,"lon":5.35101,"is_reserved":false,"is_disabled":false,"rental_uris":{"android":"levelo://app?vid=3f51f1f5-7a39-4364-adc9-c4c0ef6e90b0","ios":"levelo://app?vid=3f51f1f5-7a39-4364-adc9-c4c0ef6e90b0"},"vehicle_type_id":"4","last_reported":1742065570,"current_range_meters":11200,"station_id":"ce4bhch2rcd13ifvqeug","pricing_plan_id":"cebpf4jnsgd1na2vs0mg"},{"bike_id":"20fb1480-f038-46d0-a972-0f8a739c0e49","system_id":"levelo_inurba_marseille","lat":43.29914,"lon":5.38143,"is_reserved":false,"is_disabled":false,"rental_uris":{"android":"levelo://app?vid=20fb1480-f038-46d0-a972-0f8a739c0e49","ios":"levelo://app?vid=20fb1480-f038-46d0-a972-0f8a739c0e49"},"vehicle_type_id":"4","last_reported":1742065570,"current_range_meters":11200,"station_id":"ce4bgj12rcd13ifvqbc0","pricing_plan_id":"cebpf4jnsgd1na2vs0mg"},{"bike_id":"f41ba171-719f-4966-a943-e42b0accfb57","system_id":"levelo_inurba_marseille","lat":43.25827,"lon":5.39442,"is_reserved":false,"is_disabled":false,"rental_uris":{"android":"levelo://app?vid=f41ba171-719f-4966-a943-e42b0accfb57","ios":"levelo://app?vid=f41ba171-719f-4966-a943-e42b0accfb57"},"vehicle_type_id":"4","last_reported":1742065570,"current_range_meters":10800,"station_id":"ce4bhip2rcd13ifvqft0","pricing_plan_id":"cebpf4jnsgd1na2vs0mg"},{"bike_id":"c5c18e2a-bc2e-4492-9bbe-983a9fab74ae","system_id":"levelo_inurba_marseille","lat":43.298988,"lon":5.381436,"is_reserved":false,"is_disabled":false,"rental_uris":{"android":"levelo://app?vid=c5c18e2a-bc2e-4492-9bbe-983a9fab74ae","ios":"levelo://app?vid=c5c18e2a-bc2e-4492-9bbe-983a9fab74ae"},"vehicle_type_id":"4","last_reported":1742065570,"current_range_meters":10800,"station_id":"ce4bgjh2rcd13ifvqbf0","pricing_plan_id":"cebpf4jnsgd1na2vs0mg"},{"bike_id":"b723aca3-8e78-42dc-aea3-2292da138d59","system_id":"levelo_inurba_marseille","lat":43.2305,"lon":5.35506,"is_reserved":false,"is_disabled":false,"rental_uris":{"android":"levelo://app?vid=b723aca3-8e78-42dc-aea3-2292da138d59","ios":"levelo://app?vid=b723aca3-8e78-42dc-aea3-2292da138d59"},"vehicle_type_id":"4","last_reported":1742065570,"current_range_meters":11200,"station_id":"cpo3342slgdg3j2ifvpg","pricing_plan_id":"cebpf4jnsgd1na2vs0mg"},{"bike_id":"3a766561-d5df-4bb1-accb-85c347f27a70","system_id":"levelo_inurba_marseille","lat":43.33733,"lon":5.39184,"is_reserved":false,"is_disabled":false,"rental_uris":{"android":"levelo://app?vid=3a766561-d5df-4bb1-accb-85c347f27a70","ios":"levelo://app?vid=3a766561-d5df-4bb1-accb-85c347f27a70"},"vehicle_type_id":"4","last_reported":1742065570,"current_range_meters":11200,"station_id":"ce4bhr92rcd13ifvqhsg","pricing_plan_id":"cebpf4jnsgd1na2vs0mg"},{"bike_id":"8473bf4e-bce4-4915-beac-ba58d56310a4","system_id":"levelo_inurba_marseille","lat":43.29603,"lon":5.38094,"is_reserved":false,"is_disabled":false,"rental_uris":{"android":"levelo://app?vid=8473bf4e-bce4-4915-beac-ba58d56310a4","ios":"levelo://app?vid=8473bf4e-bce4-4915-beac-ba58d56310a4"},"vehicle_type_id":"4","last_reported":1742065570,"current_range_meters":11200,"station_id":"ce4bgl12rcd13ifvqbo0","pricing_plan_id":"cebpf4jnsgd1na2vs0mg"},{"bike_id":"4fa27d90-ae5c-4383-8b07-d59fefafbdde","system_id":"levelo_inurba_marseille","lat":43.30299,"lon":5.39221,"is_reserved":false,"is_disabled":false,"rental_uris":{"android":"levelo://app?vid=4fa27d90-ae5c-4383-8b07-d59fefafbdde","ios":"levelo://app?vid=4fa27d90-ae5c-4383-8b07-d59fefafbdde"},"vehicle_type_id":"4","last_reported":1742065570,"current_range_meters":11600,"station_id":"ce4bgkh2rcd13ifvqbk0","pricing_plan_id":"cebpf4jnsgd1na2vs0mg"},{"bike_id":"10044722-9baa-416e-a6f1-7ac67f5372b1","system_id":"levelo_inurba_marseille","lat":43.2961,"lon":5.37727,"is_reserved":false,"is_disabled":true,"rental_uris":{"android":"levelo://app?vid=10044722-9baa-416e-a6f1-7ac67f5372b1","ios":"levelo://app?vid=10044722-9baa-416e-a6f1-7ac67f5372b1"},"vehicle_type_id":"4","last_reported":1742065570,"current_range_meters":11600,"station_id":"ce4bgi92rcd13ifvqb90","pricing_plan_id":"cebpf4jnsgd1na2vs0mg"},{"bike_id":"6582e7c2-5aa5-4e6a-abc5-fa241e74aeb6","system_id":"levelo_inurba_marseille","lat":43.29904,"lon":5.43659,"is_reserved":false,"is_disabled":false,"rental_uris":{"android":"levelo://app?vid=6582e7c2-5aa5-4e6a-abc5-fa241e74aeb6","ios":"levelo://app?vid=6582e7c2-5aa5-4e6a-abc5-fa241e74aeb6"},"vehicle_type_id":"4","last_reported":1742065570,"current_range_meters":11600,"station_id":"ce4bhpp2rcd13ifvqhfg","pricing_plan_id":"cebpf4jnsgd1na2vs0mg"},{"bike_id":"17683764-eb7d-42a0-9748-ffabf2e61c0f","system_id":"levelo_inurba_marseille","lat":43.29852,"lon":5.36262,"is_reserved":false,"is_disabled":false,"rental_uris":{"android":"levelo://app?vid=17683764-eb7d-42a0-9748-ffabf2e61c0f","ios":"levelo://app?vid=17683764-eb7d-42a0-9748-ffabf2e61c0f"},"vehicle_type_id":"4","last_reported":1742065570,"current_range_meters":11600,"station_id":"ce4bgpp2rcd13ifvqc3g","pricing_plan_id":"cebpf4jnsgd1na2vs0mg"},{"bike_id":"741cb384-440e-429d-8d00-64db83124bfc","system_id":"levelo_inurba_marseille","lat":43.29033,"lon":5.38643,"is_reserved":false,"is_disabled":false,"rental_uris":{"android":"levelo://app?vid=741cb384-440e-429d-8d00-64db83124bfc","ios":"levelo://app?vid=741cb384-440e-429d-8d00-64db83124bfc"},"vehicle_type_id":"4","last_reported":1742065570,"current_range_meters":11600,"station_id":"ce4bh4p2rcd13ifvqe0g","pricing_plan_id":"cebpf4jnsgd1na2vs0mg"},{"bike_id":"5ad832b9-7feb-4983-82bd-dc05ba84c635","system_id":"levelo_inurba_marseille","lat":43.31121,"lon":5.37771,"is_reserved":false,"is_disabled":false,"rental_uris":{"android":"levelo://app?vid=5ad832b9-7feb-4983-82bd-dc05ba84c635","ios":"levelo://app?vid=5ad832b9-7feb-4983-82bd-dc05ba84c635"},"vehicle_type_id":"4","last_reported":1742065570,"current_range_meters":11600,"station_id":"ce4bgt92rcd13ifvqcg0","pricing_plan_id":"cebpf4jnsgd1na2vs0mg"},{"bike_id":"28b7da57-3324-4776-b906-440608bdb20f","system_id":"levelo_inurba_marseille","lat":43.231926,"lon":5.399995,"is_reserved":false,"is_disabled":false,"rental_uris":{"android":"levelo://app?vid=28b7da57-3324-4776-b906-440608bdb20f","ios":"levelo://app?vid=28b7da57-3324-4776-b906-440608bdb20f"},"vehicle_type_id":"4","last_reported":1742065570,"current_range_meters":11600,"station_id":"ce4bhn12rcd13ifvqgqg","pricing_plan_id":"cebpf4jnsgd1na2vs0mg"},{"bike_id":"7eaafad8-29a5-4f93-917d-494d84568550","system_id":"levelo_inurba_marseille","lat":43.29211,"lon":5.39333,"is_reserved":false,"is_disabled":false,"rental_uris":{"android":"levelo://app?vid=7eaafad8-29a5-4f93-917d-494d84568550","ios":"levelo://app?vid=7eaafad8-29a5-4f93-917d-494d84568550"},"vehicle_type_id":"4","last_reported":1742065570,"current_range_meters":12000,"station_id":"ce4bh192rcd13ifvqdd0","pricing_plan_id":"cebpf4jnsgd1na2vs0mg"},{"bike_id":"e2eeef0a-6097-43b2-ac9f-071e43b60347","system_id":"levelo_inurba_marseille","lat":43.28423,"lon":5.37541,"is_reserved":false,"is_disabled":false,"rental_uris":{"android":"levelo://app?vid=e2eeef0a-6097-43b2-ac9f-071e43b60347","ios":"levelo://app?vid=e2eeef0a-6097-43b2-ac9f-071e43b60347"},"vehicle_type_id":"4","last_reported":1742065570,"current_range_meters":12000,"station_id":"ce4bh412rcd13ifvqds0","pricing_plan_id":"cebpf4jnsgd1na2vs0mg"},{"bike_id":"fc071de1-2cc0-488a-a43e-f8037a5a9a49","system_id":"levelo_inurba_marseille","lat":43.23072,"lon":5.35493,"is_reserved":false,"is_disabled":false,"rental_uris":{"android":"levelo://app?vid=fc071de1-2cc0-488a-a43e-f8037a5a9a49","ios":"levelo://app?vid=fc071de1-2cc0-488a-a43e-f8037a5a9a49"},"vehicle_type_id":"4","last_reported":1742065570,"current_range_meters":12000,"station_id":"cpo3342slgdg3j2ifvpg","pricing_plan_id":"cebpf4jnsgd1na2vs0mg"},{"bike_id":"b7793e78-3a25-4f8e-982f-d11f9efb184b","system_id":"levelo_inurba_marseille","lat":43.28696,"lon":5.37397,"is_reserved":false,"is_disabled":false,"rental_uris":{"android":"levelo://app?vid=b7793e78-3a25-4f8e-982f-d11f9efb184b","ios":"levelo://app?vid=b7793e78-3a25-4f8e-982f-d11f9efb184b"},"vehicle_type_id":"4","last_reported":1742065570,"current_range_meters":12000,"station_id":"ce4bh3p2rcd13ifvqdq0","pricing_plan_id":"cebpf4jnsgd1na2vs0mg"},{"bike_id":"59fabd73-c806-41b6-bcf9-f66a2e415d54","system_id":"levelo_inurba_marseille","lat":43.26224,"lon":5.40453,"is_reserved":false,"is_disabled":false,"rental_uris":{"android":"levelo://app?vid=59fabd73-c806-41b6-bcf9-f66a2e415d54","ios":"levelo://app?vid=59fabd73-c806-41b6-bcf9-f66a2e415d54"},"vehicle_type_id":"4","last_reported":1742065570,"current_range_meters":12000,"station_id":"ce4bhmh2rcd13ifvqgmg","pricing_plan_id":"cebpf4jnsgd1na2vs0mg"},{"bike_id":"a3da2e7c-abd3-4dd9-8699-e91a0886a8b6","system_id":"levelo_inurba_marseille","lat":43.26503,"lon":5.39546,"is_reserved":false,"is_disabled":false,"rental_uris":{"android":"levelo://app?vid=a3da2e7c-abd3-4dd9-8699-e91a0886a8b6","ios":"levelo://app?vid=a3da2e7c-abd3-4dd9-8699-e91a0886a8b6"},"vehicle_type_id":"4","last_reported":1742065570,"current_range_meters":12400,"station_id":"ce4bhi12rcd13ifvqfq0","pricing_plan_id":"cebpf4jnsgd1na2vs0mg"},{"bike_id":"e3fb0c16-21b7-4eaf-855c-96791517b956","system_id":"levelo_inurba_marseille","lat":43.26957,"lon":5.38633,"is_reserved":false,"is_disabled":false,"rental_uris":{"android":"levelo://app?vid=e3fb0c16-21b7-4eaf-855c-96791517b956","ios":"levelo://app?vid=e3fb0c16-21b7-4eaf-855c-96791517b956"},"vehicle_type_id":"4","last_reported":1742065570,"current_range_meters":12000,"station_id":"ce4bhh92rcd13ifvqfh0","pricing_plan_id":"cebpf4jnsgd1na2vs0mg"},{"bike_id":"8778d468-9b6c-4224-a814-764b272e2d1b","system_id":"levelo_inurba_marseille","lat":43.29536,"lon":5.3903,"is_reserved":false,"is_disabled":false,"rental_uris":{"android":"levelo://app?vid=8778d468-9b6c-4224-a814-764b272e2d1b","ios":"levelo://app?vid=8778d468-9b6c-4224-a814-764b272e2d1b"},"vehicle_type_id":"4","last_reported":1742065570,"current_range_meters":12000,"station_id":"ce4bh3p2rcd13ifvqdp0","pricing_plan_id":"cebpf4jnsgd1na2vs0mg"},{"bike_id":"c47eae7e-31fc-4133-a841-bd83372cebc9","system_id":"levelo_inurba_marseille","lat":43.298772,"lon":5.397409,"is_reserved":false,"is_disabled":false,"rental_uris":{"android":"levelo://app?vid=c47eae7e-31fc-4133-a841-bd83372cebc9","ios":"levelo://app?vid=c47eae7e-31fc-4133-a841-bd83372cebc9"},"vehicle_type_id":"4","last_reported":1742065570,"current_range_meters":12000,"station_id":"ce4bh0h2rcd13ifvqd50","pricing_plan_id":"cebpf4jnsgd1na2vs0mg"},{"bike_id":"428982ea-da13-451a-ab22-7dd19cb0992b","system_id":"levelo_inurba_marseille","lat":43.29527,"lon":5.39434,"is_reserved":false,"is_disabled":false,"rental_uris":{"android":"levelo://app?vid=428982ea-da13-451a-ab22-7dd19cb0992b","ios":"levelo://app?vid=428982ea-da13-451a-ab22-7dd19cb0992b"},"vehicle_type_id":"4","last_reported":1742065570,"current_range_meters":12000,"station_id":"ce4bh292rcd13ifvqdf0","pricing_plan_id":"cebpf4jnsgd1na2vs0mg"},{"bike_id":"0102a975-ca16-4d1e-8694-d919e87a2584","system_id":"levelo_inurba_marseille","lat":43.29559,"lon":5.42287,"is_reserved":false,"is_disabled":false,"rental_uris":{"android":"levelo://app?vid=0102a975-ca16-4d1e-8694-d919e87a2584","ios":"levelo://app?vid=0102a975-ca16-4d1e-8694-d919e87a2584"},"vehicle_type_id":"4","last_reported":1742065570,"current_range_meters":12400,"station_id":"ce4bhph2rcd13ifvqhdg","pricing_plan_id":"cebpf4jnsgd1na2vs0mg"},{"bike_id":"71b342b8-694b-40d5-99e8-310baf77a970","system_id":"levelo_inurba_marseille","lat":43.23057,"lon":5.35489,"is_reserved":false,"is_disabled":false,"rental_uris":{"android":"levelo://app?vid=71b342b8-694b-40d5-99e8-310baf77a970","ios":"levelo://app?vid=71b342b8-694b-40d5-99e8-310baf77a970"},"vehicle_type_id":"4","last_reported":1742065570,"current_range_meters":12400,"station_id":"cpo3342slgdg3j2ifvpg","pricing_plan_id":"cebpf4jnsgd1na2vs0mg"},{"bike_id":"90c707aa-0edc-4e94-a911-252e6bd4d4c2","system_id":"levelo_inurba_marseille","lat":43.28624,"lon":5.35105,"is_reserved":false,"is_disabled":false,"rental_uris":{"android":"levelo://app?vid=90c707aa-0edc-4e94-a911-252e6bd4d4c2","ios":"levelo://app?vid=90c707aa-0edc-4e94-a911-252e6bd4d4c2"},"vehicle_type_id":"4","last_reported":1742065570,"current_range_meters":12400,"station_id":"ce4bhch2rcd13ifvqeug","pricing_plan_id":"cebpf4jnsgd1na2vs0mg"},{"bike_id":"eafadd14-748e-4c3c-8896-2ea58909eaee","system_id":"levelo_inurba_marseille","lat":43.2782,"lon":5.39206,"is_reserved":false,"is_disabled":false,"rental_uris":{"android":"levelo://app?vid=eafadd14-748e-4c3c-8896-2ea58909eaee","ios":"levelo://app?vid=eafadd14-748e-4c3c-8896-2ea58909eaee"},"vehicle_type_id":"4","last_reported":1742065570,"current_range_meters":12400,"station_id":"ce4bhjp2rcd13ifvqga0","pricing_plan_id":"cebpf4jnsgd1na2vs0mg"},{"bike_id":"174c9c66-b172-484e-b7f9-5752aa18aabf","system_id":"levelo_inurba_marseille","lat":43.23078,"lon":5.35498,"is_reserved":false,"is_disabled":false,"rental_uris":{"android":"levelo://app?vid=174c9c66-b172-484e-b7f9-5752aa18aabf","ios":"levelo://app?vid=174c9c66-b172-484e-b7f9-5752aa18aabf"},"vehicle_type_id":"4","last_reported":1742065570,"current_range_meters":12400,"station_id":"cpo3342slgdg3j2ifvpg","pricing_plan_id":"cebpf4jnsgd1na2vs0mg"},{"bike_id":"e1bc5517-89cc-4fbd-afdb-e8d3c61b8e55","system_id":"levelo_inurba_marseille","lat":43.32371,"lon":5.36708,"is_reserved":false,"is_disabled":false,"rental_uris":{"android":"levelo://app?vid=e1bc5517-89cc-4fbd-afdb-e8d3c61b8e55","ios":"levelo://app?vid=e1bc5517-89cc-4fbd-afdb-e8d3c61b8e55"},"vehicle_type_id":"4","last_reported":1742065570,"current_range_meters":12400,"station_id":"","pricing_plan_id":"cebpf4jnsgd1na2vs0mg"},{"bike_id":"c79bb127-8198-4096-96ea-1444569e00c1","system_id":"levelo_inurba_marseille","lat":43.23959,"lon":5.36633,"is_reserved":false,"is_disabled":true,"rental_uris":{"android":"levelo://app?vid=c79bb127-8198-4096-96ea-1444569e00c1","ios":"levelo://app?vid=c79bb127-8198-4096-96ea-1444569e00c1"},"vehicle_type_id":"4","last_reported":1742065570,"current_range_meters":12400,"station_id":"ce4bhi12rcd13ifvqfp0","pricing_plan_id":"cebpf4jnsgd1na2vs0mg"},{"bike_id":"0162ff87-7148-49d2-82e1-db37eca7d49d","system_id":"levelo_inurba_marseille","lat":43.28623,"lon":5.35112,"is_reserved":false,"is_disabled":false,"rental_uris":{"android":"levelo://app?vid=0162ff87-7148-49d2-82e1-db37eca7d49d","ios":"levelo://app?vid=0162ff87-7148-49d2-82e1-db37eca7d49d"},"vehicle_type_id":"4","last_reported":1742065570,"current_range_meters":12400,"station_id":"ce4bhch2rcd13ifvqeug","pricing_plan_id":"cebpf4jnsgd1na2vs0mg"},{"bike_id":"dabc5740-01e5-4dfd-b5c3-33816c157c08","system_id":"levelo_inurba_marseille","lat":43.230993,"lon":5.354783,"is_reserved":false,"is_disabled":false,"rental_uris":{"android":"levelo://app?vid=dabc5740-01e5-4dfd-b5c3-33816c157c08","ios":"levelo://app?vid=dabc5740-01e5-4dfd-b5c3-33816c157c08"},"vehicle_type_id":"4","last_reported":1742065570,"current_range_meters":12800,"station_id":"","pricing_plan_id":"cebpf4jnsgd1na2vs0mg"},{"bike_id":"1d94c08b-8f2b-46ba-a293-11c24d682e4e","system_id":"levelo_inurba_marseille","lat":43.28437,"lon":5.37549,"is_reserved":false,"is_disabled":false,"rental_uris":{"android":"levelo://app?vid=1d94c08b-8f2b-46ba-a293-11c24d682e4e","ios":"levelo://app?vid=1d94c08b-8f2b-46ba-a293-11c24d682e4e"},"vehicle_type_id":"4","last_reported":1742065570,"current_range_meters":12800,"station_id":"","pricing_plan_id":"cebpf4jnsgd1na2vs0mg"},{"bike_id":"e45b0fd7-4e87-4303-b524-8302e30de230","system_id":"levelo_inurba_marseille","lat":43.24665,"lon":5.3817,"is_reserved":false,"is_disabled":false,"rental_uris":{"android":"levelo://app?vid=e45b0fd7-4e87-4303-b524-8302e30de230","ios":"levelo://app?vid=e45b0fd7-4e87-4303-b524-8302e30de230"},"vehicle_type_id":"4","last_reported":1742065570,"current_range_meters":12800,"station_id":"ce4bhih2rcd13ifvqfr0","pricing_plan_id":"cebpf4jnsgd1na2vs0mg"},{"bike_id":"8477f3f3-c98c-4eb1-921e-f5f0f9eb62b2","system_id":"levelo_inurba_marseille","lat":43.25152,"lon":5.39506,"is_reserved":false,"is_disabled":false,"rental_uris":{"android":"levelo://app?vid=8477f3f3-c98c-4eb1-921e-f5f0f9eb62b2","ios":"levelo://app?vid=8477f3f3-c98c-4eb1-921e-f5f0f9eb62b2"},"vehicle_type_id":"4","last_reported":1742065570,"current_range_meters":12400,"station_id":"ce4bhm12rcd13ifvqgkg","pricing_plan_id":"cebpf4jnsgd1na2vs0mg"},{"bike_id":"d29954b9-94a9-4d4b-8f2a-4f834cdcd24e","system_id":"levelo_inurba_marseille","lat":43.30593,"lon":5.40106,"is_reserved":false,"is_disabled":false,"rental_uris":{"android":"levelo://app?vid=d29954b9-94a9-4d4b-8f2a-4f834cdcd24e","ios":"levelo://app?vid=d29954b9-94a9-4d4b-8f2a-4f834cdcd24e"},"vehicle_type_id":"4","last_reported":1742065570,"current_range_meters":12800,"station_id":"","pricing_plan_id":"cebpf4jnsgd1na2vs0mg"},{"bike_id":"b2a9d6a0-4c39-4344-9cc9-3b250f7b0712","system_id":"levelo_inurba_marseille","lat":43.28956,"lon":5.36401,"is_reserved":false,"is_disabled":false,"rental_uris":{"android":"levelo://app?vid=b2a9d6a0-4c39-4344-9cc9-3b250f7b0712","ios":"levelo://app?vid=b2a9d6a0-4c39-4344-9cc9-3b250f7b0712"},"vehicle_type_id":"4","last_reported":1742065570,"current_range_meters":12800,"station_id":"ce4bhc92rcd13ifvqetg","pricing_plan_id":"cebpf4jnsgd1na2vs0mg"},{"bike_id":"1ce69257-9fdb-4677-84b5-31d22ae86b4f","system_id":"levelo_inurba_marseille","lat":43.29301,"lon":5.37429,"is_reserved":false,"is_disabled":false,"rental_uris":{"android":"levelo://app?vid=1ce69257-9fdb-4677-84b5-31d22ae86b4f","ios":"levelo://app?vid=1ce69257-9fdb-4677-84b5-31d22ae86b4f"},"vehicle_type_id":"4","last_reported":1742065570,"current_range_meters":12800,"station_id":"ce4bgi12rcd13ifvqb70","pricing_plan_id":"cebpf4jnsgd1na2vs0mg"},{"bike_id":"8f2a6709-e4a5-4909-963a-0ada2de997ba","system_id":"levelo_inurba_marseille","lat":43.31379,"lon":5.38501,"is_reserved":false,"is_disabled":false,"rental_uris":{"android":"levelo://app?vid=8f2a6709-e4a5-4909-963a-0ada2de997ba","ios":"levelo://app?vid=8f2a6709-e4a5-4909-963a-0ada2de997ba"},"vehicle_type_id":"4","last_reported":1742065570,"current_range_meters":12800,"station_id":"ce4bgt92rcd13ifvqcf0","pricing_plan_id":"cebpf4jnsgd1na2vs0mg"},{"bike_id":"8f834772-de54-433a-b9c5-04b6550e4230","system_id":"levelo_inurba_marseille","lat":43.29208,"lon":5.39327,"is_reserved":false,"is_disabled":false,"rental_uris":{"android":"levelo://app?vid=8f834772-de54-433a-b9c5-04b6550e4230","ios":"levelo://app?vid=8f834772-de54-433a-b9c5-04b6550e4230"},"vehicle_type_id":"4","last_reported":1742065570,"current_range_meters":12800,"station_id":"ce4bh192rcd13ifvqdd0","pricing_plan_id":"cebpf4jnsgd1na2vs0mg"},{"bike_id":"084e9cd0-ba7b-4410-911b-bd29122b16f6","system_id":"levelo_inurba_marseille","lat":43.24161,"lon":5.36438,"is_reserved":false,"is_disabled":false,"rental_uris":{"android":"levelo://app?vid=084e9cd0-ba7b-4410-911b-bd29122b16f6","ios":"levelo://app?vid=084e9cd0-ba7b-4410-911b-bd29122b16f6"},"vehicle_type_id":"4","last_reported":1742065570,"current_range_meters":12800,"station_id":"cpo36qri1sfpv3e86is0","pricing_plan_id":"cebpf4jnsgd1na2vs0mg"},{"bike_id":"e9fd1231-3227-4ba9-b5af-f8d9ceab9681","system_id":"levelo_inurba_marseille","lat":43.25121,"lon":5.40317,"is_reserved":false,"is_disabled":false,"rental_uris":{"android":"levelo://app?vid=e9fd1231-3227-4ba9-b5af-f8d9ceab9681","ios":"levelo://app?vid=e9fd1231-3227-4ba9-b5af-f8d9ceab9681"},