{"last_updated":1744412965,"ttl":60,"version":"2.2","data":{"bikes":[{"bike_id":"e4e32f79-e3d5-4c80-b12e-b2044b675fdd","system_id":"levelo_inurba_marseille","lat":43.30462,"lon":5.37917,"is_reserved":false,"is_disabled":false,"rental_uris":{"android":"levelo://app?vid=e4e32f79-e3d5-4c80-b12e-b2044b675fdd","ios":"levelo://app?vid=e4e32f79-e3d5-4c80-b12e-b2044b675fdd"},"vehicle_type_id":"4","last_reported":1744412965,"current_range_meters":2000,"station_id":"ce4bgup2rcd13ifvqcn0","pricing_plan_id":"cebpf4jnsgd1na2vs0mg"},{"bike_id":"a2f108d1-17f4-403a-9df9-f2d925ed8bc6","system_id":"levelo_inurba_marseille","lat":43.27844,"lon":5.39221,"is_reserved":false,"is_disabled":true,"rental_uris":{"android":"levelo://app?vid=a2f108d1-17f4-403a-9df9-f2d925ed8bc6","ios":"levelo://app?vid=a2f108d1-17f4-403a-9df9-f2d925ed8bc6"},"vehicle_type_id":"4","last_reported":1744412965,"current_range_meters":2800,"station_id":"ce4bhjp2rcd13ifvqga0","pricing_plan_id":"cebpf4jnsgd1na2vs0mg"},{"bike_id":"cf5b9f69-f62c-469a-9c4b-befe7ca438c6","system_id":"levelo_inurba_marseille","lat":43.27965,"lon":5.41708,"is_reserved":false,"is_disabled":true,"rental_uris":{"android":"levelo://app?vid=cf5b9f69-f62c-469a-9c4b-befe7ca438c6","ios":"levelo://app?vid=cf5b9f69-f62c-469a-9c4b-befe7ca438c6"},"vehicle_type_id":"4","last_reported":1744412965,"current_range_meters":2800,"station_id":"","pricing_plan_id":"cebpf4jnsgd1na2vs0mg"},{"bike_id":"9fa1da7d-3e41-4d1d-b9e2-fed271a00817","system_id":"levelo_inurba_marseille","lat":43.24801,"lon":5.37455,"is_reserved":false,"is_disabled":false,"rental_uris":{"android":"levelo://app?vid=9fa1da7d-3e41-4d1d-b9e2-fed271a00817","ios":"levelo://app?vid=9fa1da7d-3e41-4d1d-b9e2-fed271a00817"},"vehicle_type_id":"4","last_reported":1744412965,"current_range_meters":2800,"station_id":"ce4bhgh2rcd13ifvqfb0","pricing_plan_id":"cebpf4jnsgd1na2vs0mg"},{"bike_id":"c7e68575-2d3d-40e9-8b91-6a4c776ef7a6","system_id":"levelo_inurba_marseille","lat":43.2587,"lon":5.39915,"is_reserved":false,"is_disabled":false,"rental_uris":{"android":"levelo://app?vid=c7e68575-2d3d-40e9-8b91-6a4c776ef7a6","ios":"levelo://app?vid=c7e68575-2d3d-40e9-8b91-6a4c776ef7a6"},"vehicle_type_id":"4","last_reported":1744412965,"current_range_meters":2800,"station_id":"ce4bhl92rcd13ifvqghg","pricing_plan_id":"cebpf4jnsgd1na2vs0mg"},{"bike_id":"a4357c94-12de-4270-aed7-78e35682ba2a","system_id":"levelo_inurba_marseille","lat":43.29268,"lon":5.3843,"is_reserved":false,"is_disabled":false,"rental_uris":{"android":"levelo://app?vid=a4357c94-12de-4270-aed7-78e35682ba2a","ios":"levelo://app?vid=a4357c94-12de-4270-aed7-78e35682ba2a"},"vehicle_type_id":"4","last_reported":1744412965,"current_range_meters":2800,"station_id":"ce4bh692rcd13ifvqea0","pricing_plan_id":"cebpf4jnsgd1na2vs0mg"},{"bike_id":"392f53ad-e8dc-49ed-9f1a-c92f9bc3d277","system_id":"levelo_inurba_marseille","lat":43.292703,"lon":5.401244,"is_reserved":false,"is_disabled":false,"rental_uris":{"android":"levelo://app?vid=392f53ad-e8dc-49ed-9f1a-c92f9bc3d277","ios":"levelo://app?vid=392f53ad-e8dc-49ed-9f1a-c92f9bc3d277"},"vehicle_type_id":"4","last_reported":1744412965,"current_range_meters":3200,"station_id":"ce4bh312rcd13ifvqdk0","pricing_plan_id":"cebpf4jnsgd1na2vs0mg"},{"bike_id":"a1eddba8-4f1a-4458-9228-f789eef1880c","system_id":"levelo_inurba_marseille","lat":43.302602,"lon":5.400883,"is_reserved":false,"is_disabled":false,"rental_uris":{"android":"levelo://app?vid=a1eddba8-4f1a-4458-9228-f789eef1880c","ios":"levelo://app?vid=a1eddba8-4f1a-4458-9228-f789eef1880c"},"vehicle_type_id":"4","last_reported":1744412965,"current_range_meters":3200,"station_id":"ce4bgvh2rcd13ifvqcs0","pricing_plan_id":"cebpf4jnsgd1na2vs0mg"},{"bike_id":"3348fd97-e68a-4408-941d-c95dbccb85d7","system_id":"levelo_inurba_marseille","lat":43.23183,"lon":5.39982,"is_reserved":false,"is_disabled":false,"rental_uris":{"android":"levelo://app?vid=3348fd97-e68a-4408-941d-c95dbccb85d7","ios":"levelo://app?vid=3348fd97-e68a-4408-941d-c95dbccb85d7"},"vehicle_type_id":"4","last_reported":1744412965,"current_range_meters":3200,"station_id":"ce4bhn12rcd13ifvqgqg","pricing_plan_id":"cebpf4jnsgd1na2vs0mg"},{"bike_id":"2ecbe8ab-2a9c-4993-b3a7-dd5d137a50ff","system_id":"levelo_inurba_marseille","lat":43.28038,"lon":5.36944,"is_reserved":false,"is_disabled":false,"rental_uris":{"android":"levelo://app?vid=2ecbe8ab-2a9c-4993-b3a7-dd5d137a50ff","ios":"levelo://app?vid=2ecbe8ab-2a9c-4993-b3a7-dd5d137a50ff"},"vehicle_type_id":"4","last_reported":1744412965,"current_range_meters":3200,"station_id":"ce4bha12rcd13ifvqef0","pricing_plan_id":"cebpf4jnsgd1na2vs0mg"},{"bike_id":"651398ac-c70b-4ad0-95aa-14f7c75e7554","system_id":"levelo_inurba_marseille","lat":43.27989,"lon":5.41648,"is_reserved":false,"is_disabled":true,"rental_uris":{"android":"levelo://app?vid=651398ac-c70b-4ad0-95aa-14f7c75e7554","ios":"levelo://app?vid=651398ac-c70b-4ad0-95aa-14f7c75e7554"},"vehicle_type_id":"4","last_reported":1744412965,"current_range_meters":3200,"station_id":"ce4bho12rcd13ifvqh1g","pricing_plan_id":"cebpf4jnsgd1na2vs0mg"},{"bike_id":"2e210568-2e56-4e6f-89cf-84011e57e36a","system_id":"levelo_inurba_marseille","lat":43.3015,"lon":5.38786,"is_reserved":false,"is_disabled":false,"rental_uris":{"android":"levelo://app?vid=2e210568-2e56-4e6f-89cf-84011e57e36a","ios":"levelo://app?vid=2e210568-2e56-4e6f-89cf-84011e57e36a"},"vehicle_type_id":"4","last_reported":1744412965,"current_range_meters":3200,"station_id":"ce4bghh2rcd13ifvqb60","pricing_plan_id":"cebpf4jnsgd1na2vs0mg"},{"bike_id":"15a886b8-b75e-455f-9abf-bee346b9677f","system_id":"levelo_inurba_marseille","lat":43.29255,"lon":5.40146,"is_reserved":false,"is_disabled":false,"rental_uris":{"android":"levelo://app?vid=15a886b8-b75e-455f-9abf-bee346b9677f","ios":"levelo://app?vid=15a886b8-b75e-455f-9abf-bee346b9677f"},"vehicle_type_id":"4","last_reported":1744412965,"current_range_meters":3200,"station_id":"ce4bh312rcd13ifvqdk0","pricing_plan_id":"cebpf4jnsgd1na2vs0mg"},{"bike_id":"d15a550b-ef49-4a95-9324-49a84969b834","system_id":"levelo_inurba_marseille","lat":43.29508,"lon":5.39372,"is_reserved":false,"is_disabled":false,"rental_uris":{"android":"levelo://app?vid=d15a550b-ef49-4a95-9324-49a84969b834","ios":"levelo://app?vid=d15a550b-ef49-4a95-9324-49a84969b834"},"vehicle_type_id":"4","last_reported":1744412965,"current_range_meters":3200,"station_id":"ce4bh292rcd13ifvqdf0","pricing_plan_id":"cebpf4jnsgd1na2vs0mg"},{"bike_id":"9acb0c63-d119-4810-94aa-e306fdcee828","system_id":"levelo_inurba_marseille","lat":43.24169,"lon":5.36419,"is_reserved":false,"is_disabled":false,"rental_uris":{"android":"levelo://app?vid=9acb0c63-d119-4810-94aa-e306fdcee828","ios":"levelo://app?vid=9acb0c63-d119-4810-94aa-e306fdcee828"},"vehicle_type_id":"4","last_reported":1744412965,"current_range_meters":3600,"station_id":"cpo36qri1sfpv3e86is0","pricing_plan_id":"cebpf4jnsgd1na2vs0mg"},{"bike_id":"39e12ad0-a537-4d4f-b918-8ea60f8a4bb2","system_id":"levelo_inurba_marseille","lat":43.25722,"lon":5.41111,"is_reserved":false,"is_disabled":false,"rental_uris":{"android":"levelo://app?vid=39e12ad0-a537-4d4f-b918-8ea60f8a4bb2","ios":"levelo://app?vid=39e12ad0-a537-4d4f-b918-8ea60f8a4bb2"},"vehicle_type_id":"4","last_reported":1744412965,"current_range_meters":3600,"station_id":"ce4bhkp2rcd13ifvqgd0","pricing_plan_id":"cebpf4jnsgd1na2vs0mg"},{"bike_id":"fddfd75b-4075-4e80-9efd-8b126dedafa3","system_id":"levelo_inurba_marseille","lat":43.28658,"lon":5.36355,"is_reserved":false,"is_disabled":false,"rental_uris":{"android":"levelo://app?vid=fddfd75b-4075-4e80-9efd-8b126dedafa3","ios":"levelo://app?vid=fddfd75b-4075-4e80-9efd-8b126dedafa3"},"vehicle_type_id":"4","last_reported":1744412965,"current_range_meters":3600,"station_id":"ce4bhah2rcd13ifvqej0","pricing_plan_id":"cebpf4jnsgd1na2vs0mg"},{"bike_id":"3125eb05-cd4c-49a6-8fd5-04f9c651db02","system_id":"levelo_inurba_marseille","lat":43.29434,"lon":5.44191,"is_reserved":false,"is_disabled":false,"rental_uris":{"android":"levelo://app?vid=3125eb05-cd4c-49a6-8fd5-04f9c651db02","ios":"levelo://app?vid=3125eb05-cd4c-49a6-8fd5-04f9c651db02"},"vehicle_type_id":"4","last_reported":1744412965,"current_range_meters":3600,"station_id":"","pricing_plan_id":"cebpf4jnsgd1na2vs0mg"},{"bike_id":"02b7d167-579c-49ee-b5ab-7afb9bc2f0ef","system_id":"levelo_inurba_marseille","lat":43.28466,"lon":5.35888,"is_reserved":false,"is_disabled":false,"rental_uris":{"android":"levelo://app?vid=02b7d167-579c-49ee-b5ab-7afb9bc2f0ef","ios":"levelo://app?vid=02b7d167-579c-49ee-b5ab-7afb9bc2f0ef"},"vehicle_type_id":"4","last_reported":1744412965,"current_range_meters":4000,"station_id":"ce4bhah2rcd13ifvqei0","pricing_plan_id":"cebpf4jnsgd1na2vs0mg"},{"bike_id":"f7861707-f4a1-4181-b8bb-bb530b9d38f2","system_id":"levelo_inurba_marseille","lat":43.298013,"lon":5.403787,"is_reserved":false,"is_disabled":false,"rental_uris":{"android":"levelo://app?vid=f7861707-f4a1-4181-b8bb-bb530b9d38f2","ios":"levelo://app?vid=f7861707-f4a1-4181-b8bb-bb530b9d38f2"},"vehicle_type_id":"4","last_reported":1744412965,"current_range_meters":4000,"station_id":"ce4bh112rcd13ifvqd90","pricing_plan_id":"cebpf4jnsgd1na2vs0mg"},{"bike_id":"d9f03e2f-e300-4ff1-8edd-a1d25e99979a","system_id":"levelo_inurba_marseille","lat":43.31361,"lon":5.385,"is_reserved":false,"is_disabled":true,"rental_uris":{"android":"levelo://app?vid=d9f03e2f-e300-4ff1-8edd-a1d25e99979a","ios":"levelo://app?vid=d9f03e2f-e300-4ff1-8edd-a1d25e99979a"},"vehicle_type_id":"4","last_reported":1744412965,"current_range_meters":4000,"station_id":"ce4bgt92rcd13ifvqcf0","pricing_plan_id":"cebpf4jnsgd1na2vs0mg"},{"bike_id":"8bd1ae59-e793-478c-80e6-cd66158df9b3","system_id":"levelo_inurba_marseille","lat":43.2926,"lon":5.4012,"is_reserved":false,"is_disabled":false,"rental_uris":{"android":"levelo://app?vid=8bd1ae59-e793-478c-80e6-cd66158df9b3","ios":"levelo://app?vid=8bd1ae59-e793-478c-80e6-cd66158df9b3"},"vehicle_type_id":"4","last_reported":1744412965,"current_range_meters":4400,"station_id":"ce4bh312rcd13ifvqdk0","pricing_plan_id":"cebpf4jnsgd1na2vs0mg"},{"bike_id":"dd3b1f88-ca40-4571-b894-f436ffeff290","system_id":"levelo_inurba_marseille","lat":43.27174,"lon":5.40999,"is_reserved":false,"is_disabled":false,"rental_uris":{"android":"levelo://app?vid=dd3b1f88-ca40-4571-b894-f436ffeff290","ios":"levelo://app?vid=dd3b1f88-ca40-4571-b894-f436ffeff290"},"vehicle_type_id":"4","last_reported":1744412965,"current_range_meters":4400,"station_id":"ce4bhl12rcd13ifvqgf0","pricing_plan_id":"cebpf4jnsgd1na2vs0mg"},{"bike_id":"2a7b6b6f-329b-47b8-b04a-41daafd7cfef","system_id":"levelo_inurba_marseille","lat":43.31072,"lon":5.38347,"is_reserved":false,"is_disabled":false,"rental_uris":{"android":"levelo://app?vid=2a7b6b6f-329b-47b8-b04a-41daafd7cfef","ios":"levelo://app?vid=2a7b6b6f-329b-47b8-b04a-41daafd7cfef"},"vehicle_type_id":"4","last_reported":1744412965,"current_range_meters":4400,"station_id":"ce4bgv92rcd13ifvqcr0","pricing_plan_id":"cebpf4jnsgd1na2vs0mg"},{"bike_id":"91235465-481b-497a-9233-b3a6841ea60a","system_id":"levelo_inurba_marseille","lat":43.31356,"lon":5.38493,"is_reserved":false,"is_disabled":false,"rental_uris":{"android":"levelo://app?vid=91235465-481b-497a-9233-b3a6841ea60a","ios":"levelo://app?vid=91235465-481b-497a-9233-b3a6841ea60a"},"vehicle_type_id":"4","last_reported":1744412965,"current_range_meters":4400,"station_id":"ce4bgt92rcd13ifvqcf0","pricing_plan_id":"cebpf4jnsgd1na2vs0mg"},{"bike_id":"9633f1f7-3f5a-43c9-8d27-a5ecf91dd66d","system_id":"levelo_inurba_marseille","lat":43.24654,"lon":5.38898,"is_reserved":false,"is_disabled":false,"rental_uris":{"android":"levelo://app?vid=9633f1f7-3f5a-43c9-8d27-a5ecf91dd66d","ios":"levelo://app?vid=9633f1f7-3f5a-43c9-8d27-a5ecf91dd66d"},"vehicle_type_id":"4","last_reported":1744412965,"current_range_meters":4400,"station_id":"ce4bhg12rcd13ifvqf60","pricing_plan_id":"cebpf4jnsgd1na2vs0mg"},{"bike_id":"2bda1f83-8232-4a9f-9f0c-73f1c2c5bc7d","system_id":"levelo_inurba_marseille","lat":43.313795,"lon":5.382346,"is_reserved":false,"is_disabled":false,"rental_uris":{"android":"levelo://app?vid=2bda1f83-8232-4a9f-9f0c-73f1c2c5bc7d","ios":"levelo://app?vid=2bda1f83-8232-4a9f-9f0c-73f1c2c5bc7d"},"vehicle_type_id":"4","last_reported":1744412965,"current_range_meters":4400,"station_id":"ce4bhsp2rcd13ifvqi50","pricing_plan_id":"cebpf4jnsgd1na2vs0mg"},{"bike_id":"1f1931dc-ca45-43df-bb99-8ca2d278bd56","system_id":"levelo_inurba_marseille","lat":43.2417,"lon":5.364,"is_reserved":false,"is_disabled":false,"rental_uris":{"android":"levelo://app?vid=1f1931dc-ca45-43df-bb99-8ca2d278bd56","ios":"levelo://app?vid=1f1931dc-ca45-43df-bb99-8ca2d278bd56"},"vehicle_type_id":"4","last_reported":1744412965,"current_range_meters":5600,"station_id":"cpo36qri1sfpv3e86is0","pricing_plan_id":"cebpf4jnsgd1na2vs0mg"},{"bike_id":"38682804-f3e9-4669-b2ec-4efeb899e65b","system_id":"levelo_inurba_marseille","lat":43.27373,"lon":5.36247,"is_reserved":false,"is_disabled":false,"rental_uris":{"android":"levelo://app?vid=38682804-f3e9-4669-b2ec-4efeb899e65b","ios":"levelo://app?vid=38682804-f3e9-4669-b2ec-4efeb899e65b"},"vehicle_type_id":"4","last_reported":1744412965,"current_range_meters":5600,"station_id":"ce4bhbh2rcd13ifvqeo0","pricing_plan_id":"cebpf4jnsgd1na2vs0mg"},{"bike_id":"fc182799-aed6-42ab-b663-17d43275f774","system_id":"levelo_inurba_marseille","lat":43.25104,"lon":5.40322,"is_reserved":false,"is_disabled":false,"rental_uris":{"android":"levelo://app?vid=fc182799-aed6-42ab-b663-17d43275f774","ios":"levelo://app?vid=fc182799-aed6-42ab-b663-17d43275f774"},"vehicle_type_id":"4","last_reported":1744412965,"current_range_meters":5600,"station_id":"ce4bhlh2rcd13ifvqgig","pricing_plan_id":"cebpf4jnsgd1na2vs0mg"},{"bike_id":"76624b63-c948-4621-9e44-12162d131d6e","system_id":"levelo_inurba_marseille","lat":43.290232,"lon":5.386385,"is_reserved":false,"is_disabled":false,"rental_uris":{"android":"levelo://app?vid=76624b63-c948-4621-9e44-12162d131d6e","ios":"levelo://app?vid=76624b63-c948-4621-9e44-12162d131d6e"},"vehicle_type_id":"4","last_reported":1744412965,"current_range_meters":5600,"station_id":"ce4bh4p2rcd13ifvqe0g","pricing_plan_id":"cebpf4jnsgd1na2vs0mg"},{"bike_id":"3c49dd59-1c2a-429e-96cb-990cecf56097","system_id":"levelo_inurba_marseille","lat":43.29713,"lon":5.36606,"is_reserved":false,"is_disabled":false,"rental_uris":{"android":"levelo://app?vid=3c49dd59-1c2a-429e-96cb-990cecf56097","ios":"levelo://app?vid=3c49dd59-1c2a-429e-96cb-990cecf56097"},"vehicle_type_id":"4","last_reported":1744412965,"current_range_meters":5600,"station_id":"ce4bgn12rcd13ifvqbt0","pricing_plan_id":"cebpf4jnsgd1na2vs0mg"},{"bike_id":"aaf0bea2-a073-4f6c-a7b6-3956f84fd9d6","system_id":"levelo_inurba_marseille","lat":43.30158,"lon":5.36767,"is_reserved":false,"is_disabled":false,"rental_uris":{"android":"levelo://app?vid=aaf0bea2-a073-4f6c-a7b6-3956f84fd9d6","ios":"levelo://app?vid=aaf0bea2-a073-4f6c-a7b6-3956f84fd9d6"},"vehicle_type_id":"4","last_reported":1744412965,"current_range_meters":5600,"station_id":"","pricing_plan_id":"cebpf4jnsgd1na2vs0mg"},{"bike_id":"d163dd79-23a0-4b90-aa1d-74471b5669df","system_id":"levelo_inurba_marseille","lat":43.24649,"lon":5.38163,"is_reserved":false,"is_disabled":false,"rental_uris":{"android":"levelo://app?vid=d163dd79-23a0-4b90-aa1d-74471b5669df","ios":"levelo://app?vid=d163dd79-23a0-4b90-aa1d-74471b5669df"},"vehicle_type_id":"4","last_reported":1744412965,"current_range_meters":5600,"station_id":"ce4bhih2rcd13ifvqfr0","pricing_plan_id":"cebpf4jnsgd1na2vs0mg"},{"bike_id":"852cb3ef-f89e-49b9-98bc-69fc110588a1","system_id":"levelo_inurba_marseille","lat":43.3193,"lon":5.42909,"is_reserved":false,"is_disabled":false,"rental_uris":{"android":"levelo://app?vid=852cb3ef-f89e-49b9-98bc-69fc110588a1","ios":"levelo://app?vid=852cb3ef-f89e-49b9-98bc-69fc110588a1"},"vehicle_type_id":"4","last_reported":1744412965,"current_range_meters":6000,"station_id":"","pricing_plan_id":"cebpf4jnsgd1na2vs0mg"},{"bike_id":"4ff1679e-bc8e-4761-91df-0343ca65d83d","system_id":"levelo_inurba_marseille","lat":43.24812,"lon":5.374564,"is_reserved":false,"is_disabled":false,"rental_uris":{"android":"levelo://app?vid=4ff1679e-bc8e-4761-91df-0343ca65d83d","ios":"levelo://app?vid=4ff1679e-bc8e-4761-91df-0343ca65d83d"},"vehicle_type_id":"4","last_reported":1744412965,"current_range_meters":6000,"station_id":"ce4bhgh2rcd13ifvqfb0","pricing_plan_id":"cebpf4jnsgd1na2vs0mg"},{"bike_id":"9b124832-5aac-48fc-ab26-489a32057271","system_id":"levelo_inurba_marseille","lat":43.254997,"lon":5.376386,"is_reserved":false,"is_disabled":true,"rental_uris":{"android":"levelo://app?vid=9b124832-5aac-48fc-ab26-489a32057271","ios":"levelo://app?vid=9b124832-5aac-48fc-ab26-489a32057271"},"vehicle_type_id":"4","last_reported":1744412965,"current_range_meters":6000,"station_id":"ce4bhh12rcd13ifvqff0","pricing_plan_id":"cebpf4jnsgd1na2vs0mg"},{"bike_id":"e99f5290-1466-47b7-987b-c1ba64057cd2","system_id":"levelo_inurba_marseille","lat":43.24695,"lon":5.41184,"is_reserved":false,"is_disabled":false,"rental_uris":{"android":"levelo://app?vid=e99f5290-1466-47b7-987b-c1ba64057cd2","ios":"levelo://app?vid=e99f5290-1466-47b7-987b-c1ba64057cd2"},"vehicle_type_id":"4","last_reported":1744412965,"current_range_meters":6000,"station_id":"","pricing_plan_id":"cebpf4jnsgd1na2vs0mg"},{"bike_id":"460b2ebc-000e-4ea6-86da-9cfcf42a52fd","system_id":"levelo_inurba_marseille","lat":43.24669,"lon":5.38156,"is_reserved":false,"is_disabled":false,"rental_uris":{"android":"levelo://app?vid=460b2ebc-000e-4ea6-86da-9cfcf42a52fd","ios":"levelo://app?vid=460b2ebc-000e-4ea6-86da-9cfcf42a52fd"},"vehicle_type_id":"4","last_reported":1744412965,"current_range_meters":6000,"station_id":"ce4bhih2rcd13ifvqfr0","pricing_plan_id":"cebpf4jnsgd1na2vs0mg"},{"bike_id":"746882f3-3ca4-4d59-b993-6b1f5c3920bf","system_id":"levelo_inurba_marseille","lat":43.29257,"lon":5.4092,"is_reserved":false,"is_disabled":true,"rental_uris":{"android":"levelo://app?vid=746882f3-3ca4-4d59-b993-6b1f5c3920bf","ios":"levelo://app?vid=746882f3-3ca4-4d59-b993-6b1f5c3920bf"},"vehicle_type_id":"4","last_reported":1744412965,"current_range_meters":6000,"station_id":"ce4bh192rcd13ifvqdc0","pricing_plan_id":"cebpf4jnsgd1na2vs0mg"},{"bike_id":"d747244a-44b0-4e15-8153-27ce7831917f","system_id":"levelo_inurba_marseille","lat":43.28464,"lon":5.35894,"is_reserved":false,"is_disabled":false,"rental_uris":{"android":"levelo://app?vid=d747244a-44b0-4e15-8153-27ce7831917f","ios":"levelo://app?vid=d747244a-44b0-4e15-8153-27ce7831917f"},"vehicle_type_id":"4","last_reported":1744412965,"current_range_meters":6400,"station_id":"ce4bhah2rcd13ifvqei0","pricing_plan_id":"cebpf4jnsgd1na2vs0mg"},{"bike_id":"0bf2e17b-de76-43af-a911-86674f1ad492","system_id":"levelo_inurba_marseille","lat":43.29791,"lon":5.39346,"is_reserved":false,"is_disabled":false,"rental_uris":{"android":"levelo://app?vid=0bf2e17b-de76-43af-a911-86674f1ad492","ios":"levelo://app?vid=0bf2e17b-de76-43af-a911-86674f1ad492"},"vehicle_type_id":"4","last_reported":1744412965,"current_range_meters":6400,"station_id":"chh1huq6cuj3fo74tm60","pricing_plan_id":"cebpf4jnsgd1na2vs0mg"},{"bike_id":"8952236b-fba8-4f4f-af46-a72ded437dd1","system_id":"levelo_inurba_marseille","lat":43.309271,"lon":5.401541,"is_reserved":false,"is_disabled":false,"rental_uris":{"android":"levelo://app?vid=8952236b-fba8-4f4f-af46-a72ded437dd1","ios":"levelo://app?vid=8952236b-fba8-4f4f-af46-a72ded437dd1"},"vehicle_type_id":"4","last_reported":1744412965,"current_range_meters":6400,"station_id":"ce4bgvp2rcd13ifvqct0","pricing_plan_id":"cebpf4jnsgd1na2vs0mg"},{"bike_id":"32726013-757e-4d24-9225-04536f20d299","system_id":"levelo_inurba_marseille","lat":43.26199,"lon":5.37447,"is_reserved":false,"is_disabled":true,"rental_uris":{"android":"levelo://app?vid=32726013-757e-4d24-9225-04536f20d299","ios":"levelo://app?vid=32726013-757e-4d24-9225-04536f20d299"},"vehicle_type_id":"4","last_reported":1744412965,"current_range_meters":6400,"station_id":"ce4bhgp2rcd13ifvqfc0","pricing_plan_id":"cebpf4jnsgd1na2vs0mg"},{"bike_id":"31f4f6b2-376b-4f22-8d18-58216cd26f9b","system_id":"levelo_inurba_marseille","lat":43.29513,"lon":5.39407,"is_reserved":false,"is_disabled":false,"rental_uris":{"android":"levelo://app?vid=31f4f6b2-376b-4f22-8d18-58216cd26f9b","ios":"levelo://app?vid=31f4f6b2-376b-4f22-8d18-58216cd26f9b"},"vehicle_type_id":"4","last_reported":1744412965,"current_range_meters":6000,"station_id":"ce4bh292rcd13ifvqdf0","pricing_plan_id":"cebpf4jnsgd1na2vs0mg"},{"bike_id":"98c1cc8d-7484-4d27-b4cd-5dce5dd5d9db","system_id":"levelo_inurba_marseille","lat":43.28852,"lon":5.39309,"is_reserved":false,"is_disabled":false,"rental_uris":{"android":"levelo://app?vid=98c1cc8d-7484-4d27-b4cd-5dce5dd5d9db","ios":"levelo://app?vid=98c1cc8d-7484-4d27-b4cd-5dce5dd5d9db"},"vehicle_type_id":"4","last_reported":1744412965,"current_range_meters":6400,"station_id":"ce4bh2p2rcd13ifvqdi0","pricing_plan_id":"cebpf4jnsgd1na2vs0mg"},{"bike_id":"a7b22e2e-0c80-4693-ad23-d6caf4917341","system_id":"levelo_inurba_marseille","lat":43.30862,"lon":5.37314,"is_reserved":false,"is_disabled":false,"rental_uris":{"android":"levelo://app?vid=a7b22e2e-0c80-4693-ad23-d6caf4917341","ios":"levelo://app?vid=a7b22e2e-0c80-4693-ad23-d6caf4917341"},"vehicle_type_id":"4","last_reported":1744412965,"current_range_meters":6400,"station_id":"","pricing_plan_id":"cebpf4jnsgd1na2vs0mg"},{"bike_id":"78a71266-aa81-4412-be33-fdd2588deaf6","system_id":"levelo_inurba_marseille","lat":43.25582,"lon":5.38228,"is_reserved":false,"is_disabled":false,"rental_uris":{"android":"levelo://app?vid=78a71266-aa81-4412-be33-fdd2588deaf6","ios":"levelo://app?vid=78a71266-aa81-4412-be33-fdd2588deaf6"},"vehicle_type_id":"4","last_reported":1744412965,"current_range_meters":6400,"station_id":"ce4bhih2rcd13ifvqfs0","pricing_plan_id":"cebpf4jnsgd1na2vs0mg"},{"bike_id":"c0478c87-f1e0-4868-83cb-84ec281be2b8","system_id":"levelo_inurba_marseille","lat":43.33614,"lon":5.41016,"is_reserved":false,"is_disabled":false,"rental_uris":{"android":"levelo://app?vid=c0478c87-f1e0-4868-83cb-84ec281be2b8","ios":"levelo://app?vid=c0478c87-f1e0-4868-83cb-84ec281be2b8"},"vehicle_type_id":"4","last_reported":1744412965,"current_range_meters":6400,"station_id":"ce4bhqh2rcd13ifvqhmg","pricing_plan_id":"cebpf4jnsgd1na2vs0mg"},{"bike_id":"27eaf97a-c667-4a38-a652-e12edcac1818","system_id":"levelo_inurba_marseille","lat":43.25491,"lon":5.3764,"is_reserved":false,"is_disabled":false,"rental_uris":{"android":"levelo://app?vid=27eaf97a-c667-4a38-a652-e12edcac1818","ios":"levelo://app?vid=27eaf97a-c667-4a38-a652-e12edcac1818"},"vehicle_type_id":"4","last_reported":1744412965,"current_range_meters":6400,"station_id":"ce4bhh12rcd13ifvqff0","pricing_plan_id":"cebpf4jnsgd1na2vs0mg"},{"bike_id":"1e74c35d-edab-46de-b30b-75592fb1e2f4","system_id":"levelo_inurba_marseille","lat":43.2742,"lon":5.39412,"is_reserved":false,"is_disabled":false,"rental_uris":{"android":"levelo://app?vid=1e74c35d-edab-46de-b30b-75592fb1e2f4","ios":"levelo://app?vid=1e74c35d-edab-46de-b30b-75592fb1e2f4"},"vehicle_type_id":"4","last_reported":1744412965,"current_range_meters":6800,"station_id":"ce4bhdp2rcd13ifvqf20","pricing_plan_id":"cebpf4jnsgd1na2vs0mg"},{"bike_id":"1553226d-53dd-4d95-8c2c-83d1af1ad6b5","system_id":"levelo_inurba_marseille","lat":43.25485,"lon":5.37649,"is_reserved":false,"is_disabled":false,"rental_uris":{"android":"levelo://app?vid=1553226d-53dd-4d95-8c2c-83d1af1ad6b5","ios":"levelo://app?vid=1553226d-53dd-4d95-8c2c-83d1af1ad6b5"},"vehicle_type_id":"4","last_reported":1744412965,"current_range_meters":6800,"station_id":"ce4bhh12rcd13ifvqff0","pricing_plan_id":"cebpf4jnsgd1na2vs0mg"},{"bike_id":"62c1f836-7b45-44f7-9721-a260943a8081","system_id":"levelo_inurba_marseille","lat":43.27478,"lon":5.42448,"is_reserved":false,"is_disabled":false,"rental_uris":{"android":"levelo://app?vid=62c1f836-7b45-44f7-9721-a260943a8081","ios":"levelo://app?vid=62c1f836-7b45-44f7-9721-a260943a8081"},"vehicle_type_id":"4","last_reported":1744412965,"current_range_meters":6800,"station_id":"ce4bhn92rcd13ifvqgrg","pricing_plan_id":"cebpf4jnsgd1na2vs0mg"},{"bike_id":"eae2e4d5-9303-4790-a33d-0c0fb82ba20d","system_id":"levelo_inurba_marseille","lat":43.31373,"lon":5.38494,"is_reserved":false,"is_disabled":false,"rental_uris":{"android":"levelo://app?vid=eae2e4d5-9303-4790-a33d-0c0fb82ba20d","ios":"levelo://app?vid=eae2e4d5-9303-4790-a33d-0c0fb82ba20d"},"vehicle_type_id":"4","last_reported":1744412965,"current_range_meters":6800,"station_id":"ce4bgt92rcd13ifvqcf0","pricing_plan_id":"cebpf4jnsgd1na2vs0mg"},{"bike_id":"0f00dd8a-a45a-43f4-bb34-8b1a72554db3","system_id":"levelo_inurba_marseille","lat":43.29519,"lon":5.39041,"is_reserved":false,"is_disabled":false,"rental_uris":{"android":"levelo://app?vid=0f00dd8a-a45a-43f4-bb34-8b1a72554db3","ios":"levelo://app?vid=0f00dd8a-a45a-43f4-bb34-8b1a72554db3"},"vehicle_type_id":"4","last_reported":1744412965,"current_range_meters":6800,"station_id":"ce4bh3p2rcd13ifvqdp0","pricing_plan_id":"cebpf4jnsgd1na2vs0mg"},{"bike_id":"a8827283-5cb2-4c69-8f92-cabeabffb47c","system_id":"levelo_inurba_marseille","lat":43.241631,"lon":5.363993,"is_reserved":false,"is_disabled":false,"rental_uris":{"android":"levelo://app?vid=a8827283-5cb2-4c69-8f92-cabeabffb47c","ios":"levelo://app?vid=a8827283-5cb2-4c69-8f92-cabeabffb47c"},"vehicle_type_id":"4","last_reported":1744412965,"current_range_meters":6800,"station_id":"cpo36qri1sfpv3e86is0","pricing_plan_id":"cebpf4jnsgd1na2vs0mg"},{"bike_id":"984bb2aa-d82a-4281-90f1-1529bbc61000","system_id":"levelo_inurba_marseille","lat":43.29907,"lon":5.39272,"is_reserved":false,"is_disabled":false,"rental_uris":{"android":"levelo://app?vid=984bb2aa-d82a-4281-90f1-1529bbc61000","ios":"levelo://app?vid=984bb2aa-d82a-4281-90f1-1529bbc61000"},"vehicle_type_id":"4","last_reported":1744412965,"current_range_meters":6800,"station_id":"","pricing_plan_id":"cebpf4jnsgd1na2vs0mg"},{"bike_id":"457be3cf-e1e1-4d11-8d7c-377dc0cb03e9","system_id":"levelo_inurba_marseille","lat":43.30873,"lon":5.36855,"is_reserved":false,"is_disabled":false,"rental_uris":{"android":"levelo://app?vid=457be3cf-e1e1-4d11-8d7c-377dc0cb03e9","ios":"levelo://app?vid=457be3cf-e1e1-4d11-8d7c-377dc0cb03e9"},"vehicle_type_id":"4","last_reported":1744412965,"current_range_meters":6800,"station_id":"ce4bgn92rcd13ifvqbvg","pricing_plan_id":"cebpf4jnsgd1na2vs0mg"},{"bike_id":"a9f344a9-b5c4-4c6f-adc4-6177f6c8159a","system_id":"levelo_inurba_marseille","lat":43.32818,"lon":5.39766,"is_reserved":false,"is_disabled":false,"rental_uris":{"android":"levelo://app?vid=a9f344a9-b5c4-4c6f-adc4-6177f6c8159a","ios":"levelo://app?vid=a9f344a9-b5c4-4c6f-adc4-6177f6c8159a"},"vehicle_type_id":"4","last_reported":1744412965,"current_range_meters":6800,"station_id":"","pricing_plan_id":"cebpf4jnsgd1na2vs0mg"},{"bike_id":"5fdd3298-d376-47aa-b5b3-d838ecbf8db4","system_id":"levelo_inurba_marseille","lat":43.27989,"lon":5.40025,"is_reserved":false,"is_disabled":false,"rental_uris":{"android":"levelo://app?vid=5fdd3298-d376-47aa-b5b3-d838ecbf8db4","ios":"levelo://app?vid=5fdd3298-d376-47aa-b5b3-d838ecbf8db4"},"vehicle_type_id":"4","last_reported":1744412965,"current_range_meters":7200,"station_id":"ce4bho92rcd13ifvqh4g","pricing_plan_id":"cebpf4jnsgd1na2vs0mg"},{"bike_id":"87a24e9d-7861-4f40-9465-51ec61c9e47e","system_id":"levelo_inurba_marseille","lat":43.27814,"lon":5.4072,"is_reserved":false,"is_disabled":false,"rental_uris":{"android":"levelo://app?vid=87a24e9d-7861-4f40-9465-51ec61c9e47e","ios":"levelo://app?vid=87a24e9d-7861-4f40-9465-51ec61c9e47e"},"vehicle_type_id":"4","last_reported":1744412965,"current_range_meters":7200,"station_id":"ce4bhnh2rcd13ifvqgtg","pricing_plan_id":"cebpf4jnsgd1na2vs0mg"},{"bike_id":"7a6ccf65-2a8c-44ea-9b00-69370d6c9c96","system_id":"levelo_inurba_marseille","lat":43.31493,"lon":5.37307,"is_reserved":false,"is_disabled":false,"rental_uris":{"android":"levelo://app?vid=7a6ccf65-2a8c-44ea-9b00-69370d6c9c96","ios":"levelo://app?vid=7a6ccf65-2a8c-44ea-9b00-69370d6c9c96"},"vehicle_type_id":"4","last_reported":1744412965,"current_range_meters":7200,"station_id":"ce4bgt12rcd13ifvqcd0","pricing_plan_id":"cebpf4jnsgd1na2vs0mg"},{"bike_id":"26623fb2-7216-4b3a-8662-22d09d94084a","system_id":"levelo_inurba_marseille","lat":43.2466,"lon":5.38166,"is_reserved":false,"is_disabled":false,"rental_uris":{"android":"levelo://app?vid=26623fb2-7216-4b3a-8662-22d09d94084a","ios":"levelo://app?vid=26623fb2-7216-4b3a-8662-22d09d94084a"},"vehicle_type_id":"4","last_reported":1744412965,"current_range_meters":7200,"station_id":"ce4bhih2rcd13ifvqfr0","pricing_plan_id":"cebpf4jnsgd1na2vs0mg"},{"bike_id":"424918f8-5f88-4460-8130-e88891f40869","system_id":"levelo_inurba_marseille","lat":43.24845,"lon":5.37445,"is_reserved":false,"is_disabled":false,"rental_uris":{"android":"levelo://app?vid=424918f8-5f88-4460-8130-e88891f40869","ios":"levelo://app?vid=424918f8-5f88-4460-8130-e88891f40869"},"vehicle_type_id":"4","last_reported":1744412965,"current_range_meters":7200,"station_id":"","pricing_plan_id":"cebpf4jnsgd1na2vs0mg"},{"bike_id":"3c79d7e0-9630-42ba-86c1-c8b7b373d6de","system_id":"levelo_inurba_marseille","lat":43.3042,"lon":5.41276,"is_reserved":false,"is_disabled":false,"rental_uris":{"android":"levelo://app?vid=3c79d7e0-9630-42ba-86c1-c8b7b373d6de","ios":"levelo://app?vid=3c79d7e0-9630-42ba-86c1-c8b7b373d6de"},"vehicle_type_id":"4","last_reported":1744412965,"current_range_meters":7200,"station_id":"ce4bhop2rcd13ifvqh8g","pricing_plan_id":"cebpf4jnsgd1na2vs0mg"},{"bike_id":"926fb0a7-820c-4f62-bd23-584e294815aa","system_id":"levelo_inurba_marseille","lat":43.24188,"lon":5.39724,"is_reserved":false,"is_disabled":false,"rental_uris":{"android":"levelo://app?vid=926fb0a7-820c-4f62-bd23-584e294815aa","ios":"levelo://app?vid=926fb0a7-820c-4f62-bd23-584e294815aa"},"vehicle_type_id":"4","last_reported":1744412965,"current_range_meters":7200,"station_id":"ce4bhn12rcd13ifvqgpg","pricing_plan_id":"cebpf4jnsgd1na2vs0mg"},{"bike_id":"744d9e13-4644-4443-baa0-d58aa61dc002","system_id":"levelo_inurba_marseille","lat":43.2482,"lon":5.37483,"is_reserved":false,"is_disabled":false,"rental_uris":{"android":"levelo://app?vid=744d9e13-4644-4443-baa0-d58aa61dc002","ios":"levelo://app?vid=744d9e13-4644-4443-baa0-d58aa61dc002"},"vehicle_type_id":"4","last_reported":1744412965,"current_range_meters":8000,"station_id":"ce4bhgh2rcd13ifvqfb0","pricing_plan_id":"cebpf4jnsgd1na2vs0mg"},{"bike_id":"48ce90a6-ad06-48b8-8a50-53394a4d9dc1","system_id":"levelo_inurba_marseille","lat":43.31473,"lon":5.37292,"is_reserved":false,"is_disabled":false,"rental_uris":{"android":"levelo://app?vid=48ce90a6-ad06-48b8-8a50-53394a4d9dc1","ios":"levelo://app?vid=48ce90a6-ad06-48b8-8a50-53394a4d9dc1"},"vehicle_type_id":"4","last_reported":1744412965,"current_range_meters":8000,"station_id":"ce4bgt12rcd13ifvqcd0","pricing_plan_id":"cebpf4jnsgd1na2vs0mg"},{"bike_id":"f973a48a-93d7-4351-ac20-4f62d6298af7","system_id":"levelo_inurba_marseille","lat":43.25722,"lon":5.41086,"is_reserved":false,"is_disabled":false,"rental_uris":{"android":"levelo://app?vid=f973a48a-93d7-4351-ac20-4f62d6298af7","ios":"levelo://app?vid=f973a48a-93d7-4351-ac20-4f62d6298af7"},"vehicle_type_id":"4","last_reported":1744412965,"current_range_meters":8000,"station_id":"ce4bhkp2rcd13ifvqgd0","pricing_plan_id":"cebpf4jnsgd1na2vs0mg"},{"bike_id":"683a3c3f-958e-4040-ad3d-30d5423ecd5d","system_id":"levelo_inurba_marseille","lat":43.29576,"lon":5.39981,"is_reserved":false,"is_disabled":false,"rental_uris":{"android":"levelo://app?vid=683a3c3f-958e-4040-ad3d-30d5423ecd5d","ios":"levelo://app?vid=683a3c3f-958e-4040-ad3d-30d5423ecd5d"},"vehicle_type_id":"4","last_reported":1744412965,"current_range_meters":8000,"station_id":"ce4bh312rcd13ifvqdj0","pricing_plan_id":"cebpf4jnsgd1na2vs0mg"},{"bike_id":"ce1b1142-9327-4d65-9036-d543a43b1fdc","system_id":"levelo_inurba_marseille","lat":43.29809,"lon":5.40406,"is_reserved":false,"is_disabled":false,"rental_uris":{"android":"levelo://app?vid=ce1b1142-9327-4d65-9036-d543a43b1fdc","ios":"levelo://app?vid=ce1b1142-9327-4d65-9036-d543a43b1fdc"},"vehicle_type_id":"4","last_reported":1744412965,"current_range_meters":8000,"station_id":"ce4bh112rcd13ifvqd90","pricing_plan_id":"cebpf4jnsgd1na2vs0mg"},{"bike_id":"eab6cbfa-cb8e-47d7-b0d6-226ab7facec7","system_id":"levelo_inurba_marseille","lat":43.31718,"lon":5.42399,"is_reserved":false,"is_disabled":true,"rental_uris":{"android":"levelo://app?vid=eab6cbfa-cb8e-47d7-b0d6-226ab7facec7","ios":"levelo://app?vid=eab6cbfa-cb8e-47d7-b0d6-226ab7facec7"},"vehicle_type_id":"4","last_reported":1744412965,"current_range_meters":8000,"station_id":"ce4bhp92rcd13ifvqhbg","pricing_plan_id":"cebpf4jnsgd1na2vs0mg"},{"bike_id":"820eae00-4001-4b93-98cd-bfbd5fc6ebfe","system_id":"levelo_inurba_marseille","lat":43.26802,"lon":5.4027,"is_reserved":false,"is_disabled":false,"rental_uris":{"android":"levelo://app?vid=820eae00-4001-4b93-98cd-bfbd5fc6ebfe","ios":"levelo://app?vid=820eae00-4001-4b93-98cd-bfbd5fc6ebfe"},"vehicle_type_id":"4","last_reported":1744412965,"current_range_meters":8000,"station_id":"ce501612rcd8frsf0b60","pricing_plan_id":"cebpf4jnsgd1na2vs0mg"},{"bike_id":"5a745208-2db7-4b93-b18e-ee599d2192b6","system_id":"levelo_inurba_marseille","lat":43.25721,"lon":5.41106,"is_reserved":false,"is_disabled":false,"rental_uris":{"android":"levelo://app?vid=5a745208-2db7-4b93-b18e-ee599d2192b6","ios":"levelo://app?vid=5a745208-2db7-4b93-b18e-ee599d2192b6"},"vehicle_type_id":"4","last_reported":1744412965,"current_range_meters":8000,"station_id":"ce4bhkp2rcd13ifvqgd0","pricing_plan_id":"cebpf4jnsgd1na2vs0mg"},{"bike_id":"dee958f8-d40c-446d-a76e-03c7e8652123","system_id":"levelo_inurba_marseille","lat":43.253349,"lon":5.380594,"is_reserved":false,"is_disabled":false,"rental_uris":{"android":"levelo://app?vid=dee958f8-d40c-446d-a76e-03c7e8652123","ios":"levelo://app?vid=dee958f8-d40c-446d-a76e-03c7e8652123"},"vehicle_type_id":"4","last_reported":1744412965,"current_range_meters":8400,"station_id":"","pricing_plan_id":"cebpf4jnsgd1na2vs0mg"},{"bike_id":"20c1c1a2-47a0-44d7-91e2-5b362316d47a","system_id":"levelo_inurba_marseille","lat":43.28414,"lon":5.34984,"is_reserved":false,"is_disabled":false,"rental_uris":{"android":"levelo://app?vid=20c1c1a2-47a0-44d7-91e2-5b362316d47a","ios":"levelo://app?vid=20c1c1a2-47a0-44d7-91e2-5b362316d47a"},"vehicle_type_id":"4","last_reported":1744412965,"current_range_meters":8400,"station_id":"ce4bhbh2rcd13ifvqepg","pricing_plan_id":"cebpf4jnsgd1na2vs0mg"},{"bike_id":"d334824f-7d21-463a-98af-4ab8281df10e","system_id":"levelo_inurba_marseille","lat":43.24162,"lon":5.36392,"is_reserved":false,"is_disabled":false,"rental_uris":{"android":"levelo://app?vid=d334824f-7d21-463a-98af-4ab8281df10e","ios":"levelo://app?vid=d334824f-7d21-463a-98af-4ab8281df10e"},"vehicle_type_id":"4","last_reported":1744412965,"current_range_meters":8400,"station_id":"cpo36qri1sfpv3e86is0","pricing_plan_id":"cebpf4jnsgd1na2vs0mg"},{"bike_id":"284a9ff6-8515-4c01-b689-70b96ba9e05f","system_id":"levelo_inurba_marseille","lat":43.31382,"lon":5.38494,"is_reserved":false,"is_disabled":false,"rental_uris":{"android":"levelo://app?vid=284a9ff6-8515-4c01-b689-70b96ba9e05f","ios":"levelo://app?vid=284a9ff6-8515-4c01-b689-70b96ba9e05f"},"vehicle_type_id":"4","last_reported":1744412965,"current_range_meters":8400,"station_id":"ce4bgt92rcd13ifvqcf0","pricing_plan_id":"cebpf4jnsgd1na2vs0mg"},{"bike_id":"a6dcfa75-306a-4b90-a8ff-900c590ff9ac","system_id":"levelo_inurba_marseille","lat":43.29568,"lon":5.39973,"is_reserved":false,"is_disabled":false,"rental_uris":{"android":"levelo://app?vid=a6dcfa75-306a-4b90-a8ff-900c590ff9ac","ios":"levelo://app?vid=a6dcfa75-306a-4b90-a8ff-900c590ff9ac"},"vehicle_type_id":"4","last_reported":1744412965,"current_range_meters":8400,"station_id":"ce4bh312rcd13ifvqdj0","pricing_plan_id":"cebpf4jnsgd1na2vs0mg"},{"bike_id":"1f5d743d-2bf1-45aa-9f52-7b86530413ea","system_id":"levelo_inurba_marseille","lat":43.31114,"lon":5.37769,"is_reserved":false,"is_disabled":false,"rental_uris":{"android":"levelo://app?vid=1f5d743d-2bf1-45aa-9f52-7b86530413ea","ios":"levelo://app?vid=1f5d743d-2bf1-45aa-9f52-7b86530413ea"},"vehicle_type_id":"4","last_reported":1744412965,"current_range_meters":8400,"station_id":"ce4bgt92rcd13ifvqcg0","pricing_plan_id":"cebpf4jnsgd1na2vs0mg"},{"bike_id":"731d3b2c-5dcf-4e0f-8ace-f77c2823dabd","system_id":"levelo_inurba_marseille","lat":43.30297,"lon":5.392,"is_reserved":false,"is_disabled":false,"rental_uris":{"android":"levelo://app?vid=731d3b2c-5dcf-4e0f-8ace-f77c2823dabd","ios":"levelo://app?vid=731d3b2c-5dcf-4e0f-8ace-f77c2823dabd"},"vehicle_type_id":"4","last_reported":1744412965,"current_range_meters":8400,"station_id":"ce4bgkh2rcd13ifvqbk0","pricing_plan_id":"cebpf4jnsgd1na2vs0mg"},{"bike_id":"0929d61e-ea4c-44e2-bffa-7baf9701e463","system_id":"levelo_inurba_marseille","lat":43.287585,"lon":5.366016,"is_reserved":false,"is_disabled":false,"rental_uris":{"android":"levelo://app?vid=0929d61e-ea4c-44e2-bffa-7baf9701e463","ios":"levelo://app?vid=0929d61e-ea4c-44e2-bffa-7baf9701e463"},"vehicle_type_id":"4","last_reported":1744412965,"current_range_meters":8800,"station_id":"ce4bhah2rcd13ifvqej0","pricing_plan_id":"cebpf4jnsgd1na2vs0mg"},{"bike_id":"239cd42d-c71b-476e-b191-9537348c4160","system_id":"levelo_inurba_marseille","lat":43.2737,"lon":5.36246,"is_reserved":false,"is_disabled":false,"rental_uris":{"android":"levelo://app?vid=239cd42d-c71b-476e-b191-9537348c4160","ios":"levelo://app?vid=239cd42d-c71b-476e-b191-9537348c4160"},"vehicle_type_id":"4","last_reported":1744412965,"current_range_meters":8800,"station_id":"ce4bhbh2rcd13ifvqeo0","pricing_plan_id":"cebpf4jnsgd1na2vs0mg"},{"bike_id":"3bbb74ad-d656-406a-b153-f2f275de884d","system_id":"levelo_inurba_marseille","lat":43.27554,"lon":5.38442,"is_reserved":false,"is_disabled":false,"rental_uris":{"android":"levelo://app?vid=3bbb74ad-d656-406a-b153-f2f275de884d","ios":"levelo://app?vid=3bbb74ad-d656-406a-b153-f2f275de884d"},"vehicle_type_id":"4","last_reported":1744412965,"current_range_meters":8800,"station_id":"ce4bhh92rcd13ifvqfi0","pricing_plan_id":"cebpf4jnsgd1na2vs0mg"},{"bike_id":"10d7317a-220c-4500-9539-bba6e5c8946b","system_id":"levelo_inurba_marseille","lat":43.30467,"lon":5.37905,"is_reserved":false,"is_disabled":false,"rental_uris":{"android":"levelo://app?vid=10d7317a-220c-4500-9539-bba6e5c8946b","ios":"levelo://app?vid=10d7317a-220c-4500-9539-bba6e5c8946b"},"vehicle_type_id":"4","last_reported":1744412965,"current_range_meters":8800,"station_id":"ce4bgup2rcd13ifvqcn0","pricing_plan_id":"cebpf4jnsgd1na2vs0mg"},{"bike_id":"9e128e8c-c526-4301-bc99-6fdaa04a15c9","system_id":"levelo_inurba_marseille","lat":43.27572,"lon":5.38412,"is_reserved":false,"is_disabled":false,"rental_uris":{"android":"levelo://app?vid=9e128e8c-c526-4301-bc99-6fdaa04a15c9","ios":"levelo://app?vid=9e128e8c-c526-4301-bc99-6fdaa04a15c9"},"vehicle_type_id":"4","last_reported":1744412965,"current_range_meters":8800,"station_id":"ce4bhh92rcd13ifvqfi0","pricing_plan_id":"cebpf4jnsgd1na2vs0mg"},{"bike_id":"5ebb2ac6-5b3a-4fce-a265-72912648d806","system_id":"levelo_inurba_marseille","lat":43.29255,"lon":5.38451,"is_reserved":false,"is_disabled":false,"rental_uris":{"android":"levelo://app?vid=5ebb2ac6-5b3a-4fce-a265-72912648d806","ios":"levelo://app?vid=5ebb2ac6-5b3a-4fce-a265-72912648d806"},"vehicle_type_id":"4","last_reported":1744412965,"current_range_meters":8800,"station_id":"ce4bh692rcd13ifvqea0","pricing_plan_id":"cebpf4jnsgd1na2vs0mg"},{"bike_id":"eb113507-1b5d-4d7a-b91c-d596662895e6","system_id":"levelo_inurba_marseille","lat":43.29551,"lon":5.39386,"is_reserved":false,"is_disabled":false,"rental_uris":{"android":"levelo://app?vid=eb113507-1b5d-4d7a-b91c-d596662895e6","ios":"levelo://app?vid=eb113507-1b5d-4d7a-b91c-d596662895e6"},"vehicle_type_id":"4","last_reported":1744412965,"current_range_meters":8800,"station_id":"ce4bh292rcd13ifvqdf0","pricing_plan_id":"cebpf4jnsgd1na2vs0mg"},{"bike_id":"f76d12dc-ebdf-46e3-89d0-897a377cfadf","system_id":"levelo_inurba_marseille","lat":43.29262,"lon":5.38436,"is_reserved":false,"is_disabled":true,"rental_uris":{"android":"levelo://app?vid=f76d12dc-ebdf-46e3-89d0-897a377cfadf","ios":"levelo://app?vid=f76d12dc-ebdf-46e3-89d0-897a377cfadf"},"vehicle_type_id":"4","last_reported":1744412965,"current_range_meters":8800,"station_id":"ce4bh692rcd13ifvqea0","pricing_plan_id":"cebpf4jnsgd1na2vs0mg"},{"bike_id":"de6ecc39-1534-4d0a-9a75-8bc5077ae536","system_id":"levelo_inurba_marseille","lat":43.254955,"lon":5.376536,"is_reserved":false,"is_disabled":false,"rental_uris":{"android":"levelo://app?vid=de6ecc39-1534-4d0a-9a75-8bc5077ae536","ios":"levelo://app?vid=de6ecc39-1534-4d0a-9a75-8bc5077ae536"},"vehicle_type_id":"4","last_reported":1744412965,"current_range_meters":8800,"station_id":"ce4bhh12rcd13ifvqff0","pricing_plan_id":"cebpf4jnsgd1na2vs0mg"},{"bike_id":"8b4c8d12-5212-410c-bdd4-63122234f668","system_id":"levelo_inurba_marseille","lat":43.22978,"lon":5.35336,"is_reserved":false,"is_disabled":false,"rental_uris":{"android":"levelo://app?vid=8b4c8d12-5212-410c-bdd4-63122234f668","ios":"levelo://app?vid=8b4c8d12-5212-410c-bdd4-63122234f668"},"vehicle_type_id":"4","last_reported":1744412965,"current_range_meters":8800,"station_id":"cpo3532slgdg3j2ikp40","pricing_plan_id":"cebpf4jnsgd1na2vs0mg"},{"bike_id":"7e0ffe9d-35a0-4d50-b784-ab4fc938da33","system_id":"levelo_inurba_marseille","lat":43.30321,"lon":5.391943,"is_reserved":false,"is_disabled":false,"rental_uris":{"android":"levelo://app?vid=7e0ffe9d-35a0-4d50-b784-ab4fc938da33","ios":"levelo://app?vid=7e0ffe9d-35a0-4d50-b784-ab4fc938da33"},"vehicle_type_id":"4","last_reported":1744412965,"current_range_meters":9200,"station_id":"ce4bgkh2rcd13ifvqbk0","pricing_plan_id":"cebpf4jnsgd1na2vs0mg"},{"bike_id":"c013d600-5e08-48f0-830e-8c965978436b","system_id":"levelo_inurba_marseille","lat":43.304248,"lon":5.388926,"is_reserved":false,"is_disabled":false,"rental_uris":{"android":"levelo://app?vid=c013d600-5e08-48f0-830e-8c965978436b","ios":"levelo://app?vid=c013d600-5e08-48f0-830e-8c965978436b"},"vehicle_type_id":"4","last_reported":1744412965,"current_range_meters":9200,"station_id":"ce4bgk12rcd13ifvqbi0","pricing_plan_id":"cebpf4jnsgd1na2vs0mg"},{"bike_id":"9b8881c4-144a-4a43-8359-4343f9129181","system_id":"levelo_inurba_marseille","lat":43.27196,"lon":5.39157,"is_reserved":false,"is_disabled":false,"rental_uris":{"android":"levelo://app?vid=9b8881c4-144a-4a43-8359-4343f9129181","ios":"levelo://app?vid=9b8881c4-144a-4a43-8359-4343f9129181"},"vehicle_type_id":"4","last_reported":1744412965,"current_range_meters":9200,"station_id":"ce4bhhp2rcd13ifvqfm0","pricing_plan_id":"cebpf4jnsgd1na2vs0mg"},{"bike_id":"bdcaf67d-c9e8-4801-b7cd-56cc56f2f8f2","system_id":"levelo_inurba_marseille","lat":43.303,"lon":5.3921,"is_reserved":false,"is_disabled":false,"rental_uris":{"android":"levelo://app?vid=bdcaf67d-c9e8-4801-b7cd-56cc56f2f8f2","ios":"levelo://app?vid=bdcaf67d-c9e8-4801-b7cd-56cc56f2f8f2"},"vehicle_type_id":"4","last_reported":1744412965,"current_range_meters":9200,"station_id":"ce4bgkh2rcd13ifvqbk0","pricing_plan_id":"cebpf4jnsgd1na2vs0mg"},{"bike_id":"f7411208-4c40-456b-a946-e9edc1577719","system_id":"levelo_inurba_marseille","lat":43.289185,"lon":5.357941,"is_reserved":false,"is_disabled":false,"rental_uris":{"android":"levelo://app?vid=f7411208-4c40-456b-a946-e9edc1577719","ios":"levelo://app?vid=f7411208-4c40-456b-a946-e9edc1577719"},"vehicle_type_id":"4","last_reported":1744412965,"current_range_meters":8800,"station_id":"ce4bgqh2rcd13ifvqc4g","pricing_plan_id":"cebpf4jnsgd1na2vs0mg"},{"bike_id":"24791479-1948-4db8-9a5a-73f4f3b14081","system_id":"levelo_inurba_marseille","lat":43.29006,"lon":5.35614,"is_reserved":false,"is_disabled":false,"rental_uris":{"android":"levelo://app?vid=24791479-1948-4db8-9a5a-73f4f3b14081","ios":"levelo://app?vid=24791479-1948-4db8-9a5a-73f4f3b14081"},"vehicle_type_id":"4","last_reported":1744412965,"current_range_meters":8800,"station_id":"ce4bhb92rcd13ifvqen0","pricing_plan_id":"cebpf4jnsgd1na2vs0mg"},{"bike_id":"0fc3f824-79a3-4f56-849c-bc1fbdc69fee","system_id":"levelo_inurba_marseille","lat":43.28471,"lon":5.38412,"is_reserved":false,"is_disabled":false,"rental_uris":{"android":"levelo://app?vid=0fc3f824-79a3-4f56-849c-bc1fbdc69fee","ios":"levelo://app?vid=0fc3f824-79a3-4f56-849c-bc1fbdc69fee"},"vehicle_type_id":"4","last_reported":1744412965,"current_range_meters":9200,"station_id":"ce4bh512rcd13ifvqe3g","pricing_plan_id":"cebpf4jnsgd1na2vs0mg"},{"bike_id":"6d239a60-5c37-4036-b60e-d60628d139cf","system_id":"levelo_inurba_marseille","lat":43.28681,"lon":5.37382,"is_reserved":false,"is_disabled":false,"rental_uris":{"android":"levelo://app?vid=6d239a60-5c37-4036-b60e-d60628d139cf","ios":"levelo://app?vid=6d239a60-5c37-4036-b60e-d60628d139cf"},"vehicle_type_id":"4","last_reported":1744412965,"current_range_meters":9600,"station_id":"ce4bh3p2rcd13ifvqdq0","pricing_plan_id":"cebpf4jnsgd1na2vs0mg"},{"bike_id":"cc83a7aa-57a1-4769-9137-8531613b4691","system_id":"levelo_inurba_marseille","lat":43.31229,"lon":5.3729,"is_reserved":false,"is_disabled":false,"rental_uris":{"android":"levelo://app?vid=cc83a7aa-57a1-4769-9137-8531613b4691","ios":"levelo://app?vid=cc83a7aa-57a1-4769-9137-8531613b4691"},"vehicle_type_id":"4","last_reported":1744412965,"current_range_meters":10000,"station_id":"","pricing_plan_id":"cebpf4jnsgd1na2vs0mg"},{"bike_id":"01094058-5f6e-4806-8468-5742bf0d03b2","system_id":"levelo_inurba_marseille","lat":43.30596,"lon":5.39351,"is_reserved":false,"is_disabled":false,"rental_uris":{"android":"levelo://app?vid=01094058-5f6e-4806-8468-5742bf0d03b2","ios":"levelo://app?vid=01094058-5f6e-4806-8468-5742bf0d03b2"},"vehicle_type_id":"4","last_reported":1744412965,"current_range_meters":9600,"station_id":"ce4bh0p2rcd13ifvqd80","pricing_plan_id":"cebpf4jnsgd1na2vs0mg"},{"bike_id":"ceaef095-e9eb-483a-91e3-b2a98f4b4ca5","system_id":"levelo_inurba_marseille","lat":43.27319,"lon":5.39084,"is_reserved":false,"is_disabled":false,"rental_uris":{"android":"levelo://app?vid=ceaef095-e9eb-483a-91e3-b2a98f4b4ca5","ios":"levelo://app?vid=ceaef095-e9eb-483a-91e3-b2a98f4b4ca5"},"vehicle_type_id":"4","last_reported":1744412965,"current_range_meters":9600,"station_id":"ce4bhgp2rcd13ifvqfe0","pricing_plan_id":"cebpf4jnsgd1na2vs0mg"},{"bike_id":"67b6e210-fc1d-4f60-bfed-dd88e8dba9f1","system_id":"levelo_inurba_marseille","lat":43.25827,"lon":5.39404,"is_reserved":false,"is_disabled":false,"rental_uris":{"android":"levelo://app?vid=67b6e210-fc1d-4f60-bfed-dd88e8dba9f1","ios":"levelo://app?vid=67b6e210-fc1d-4f60-bfed-dd88e8dba9f1"},"vehicle_type_id":"4","last_reported":1744412965,"current_range_meters":9600,"station_id":"ce4bhip2rcd13ifvqft0","pricing_plan_id":"cebpf4jnsgd1na2vs0mg"},{"bike_id":"20eb53d5-dc7b-4fbe-a6da-7e0a348438c0","system_id":"levelo_inurba_marseille","lat":43.279173,"lon":5.395956,"is_reserved":false,"is_disabled":true,"rental_uris":{"android":"levelo://app?vid=20eb53d5-dc7b-4fbe-a6da-7e0a348438c0","ios":"levelo://app?vid=20eb53d5-dc7b-4fbe-a6da-7e0a348438c0"},"vehicle_type_id":"4","last_reported":1744412965,"current_range_meters":9600,"station_id":"ce4bhf92rcd13ifvqf40","pricing_plan_id":"cebpf4jnsgd1na2vs0mg"},{"bike_id":"94455896-0f19-4fae-bd72-9879f01fcd6e","system_id":"levelo_inurba_marseille","lat":43.29578,"lon":5.42319,"is_reserved":false,"is_disabled":true,"rental_uris":{"android":"levelo://app?vid=94455896-0f19-4fae-bd72-9879f01fcd6e","ios":"levelo://app?vid=94455896-0f19-4fae-bd72-9879f01fcd6e"},"vehicle_type_id":"4","last_reported":1744412965,"current_range_meters":9600,"station_id":"ce4bhph2rcd13ifvqhdg","pricing_plan_id":"cebpf4jnsgd1na2vs0mg"},{"bike_id":"5b676444-e401-45e0-9c55-559a08a6e5c3","system_id":"levelo_inurba_marseille","lat":43.29975,"lon":5.38496,"is_reserved":false,"is_disabled":false,"rental_uris":{"android":"levelo://app?vid=5b676444-e401-45e0-9c55-559a08a6e5c3","ios":"levelo://app?vid=5b676444-e401-45e0-9c55-559a08a6e5c3"},"vehicle_type_id":"4","last_reported":1744412965,"current_range_meters":9600,"station_id":"ce4bgj92rcd13ifvqbd0","pricing_plan_id":"cebpf4jnsgd1na2vs0mg"},{"bike_id":"e0487cbb-6aa7-4fe8-9aa7-7b771d7aec2a","system_id":"levelo_inurba_marseille","lat":43.26227,"lon":5.40463,"is_reserved":false,"is_disabled":false,"rental_uris":{"android":"levelo://app?vid=e0487cbb-6aa7-4fe8-9aa7-7b771d7aec2a","ios":"levelo://app?vid=e0487cbb-6aa7-4fe8-9aa7-7b771d7aec2a"},"vehicle_type_id":"4","last_reported":1744412965,"current_range_meters":9600,"station_id":"ce4bhmh2rcd13ifvqgmg","pricing_plan_id":"cebpf4jnsgd1na2vs0mg"},{"bike_id":"a91984a3-a6ce-4421-8b70-93389255e88f","system_id":"levelo_inurba_marseille","lat":43.32991,"lon":5.43852,"is_reserved":false,"is_disabled":false,"rental_uris":{"android":"levelo://app?vid=a91984a3-a6ce-4421-8b70-93389255e88f","ios":"levelo://app?vid=a91984a3-a6ce-4421-8b70-93389255e88f"},"vehicle_type_id":"4","last_reported":1744412965,"current_range_meters":10000,"station_id":"","pricing_plan_id":"cebpf4jnsgd1na2vs0mg"},{"bike_id":"8862917b-7516-454b-9eb8-b658f0f3663d","system_id":"levelo_inurba_marseille","lat":43.29261,"lon":5.38455,"is_reserved":false,"is_disabled":false,"rental_uris":{"android":"levelo://app?vid=8862917b-7516-454b-9eb8-b658f0f3663d","ios":"levelo://app?vid=8862917b-7516-454b-9eb8-b658f0f3663d"},"vehicle_type_id":"4","last_reported":1744412965,"current_range_meters":10000,"station_id":"ce4bh692rcd13ifvqea0","pricing_plan_id":"cebpf4jnsgd1na2vs0mg"},{"bike_id":"173bc9a4-de98-43a8-b692-4fbb90439da0","system_id":"levelo_inurba_marseille","lat":43.31991,"lon":5.38159,"is_reserved":false,"is_disabled":false,"rental_uris":{"android":"levelo://app?vid=173bc9a4-de98-43a8-b692-4fbb90439da0","ios":"levelo://app?vid=173bc9a4-de98-43a8-b692-4fbb90439da0"},"vehicle_type_id":"4","last_reported":1744412965,"current_range_meters":10000,"station_id":"ce4bhr12rcd13ifvqhpg","pricing_plan_id":"cebpf4jnsgd1na2vs0mg"},{"bike_id":"5cd11f78-30e5-4350-a00c-3f350eaebc07","system_id":"levelo_inurba_marseille","lat":43.30524,"lon":5.38433,"is_reserved":false,"is_disabled":false,"rental_uris":{"android":"levelo://app?vid=5cd11f78-30e5-4350-a00c-3f350eaebc07","ios":"levelo://app?vid=5cd11f78-30e5-4350-a00c-3f350eaebc07"},"vehicle_type_id":"4","last_reported":1744412965,"current_range_meters":10000,"station_id":"ce4bgg92rcd13ifvqb30","pricing_plan_id":"cebpf4jnsgd1na2vs0mg"},{"bike_id":"76f6ae46-bcbb-427e-8cee-b48737d41b2b","system_id":"levelo_inurba_marseille","lat":43.29961,"lon":5.38494,"is_reserved":false,"is_disabled":false,"rental_uris":{"android":"levelo://app?vid=76f6ae46-bcbb-427e-8cee-b48737d41b2b","ios":"levelo://app?vid=76f6ae46-bcbb-427e-8cee-b48737d41b2b"},"vehicle_type_id":"4","last_reported":1744412965,"current_range_meters":10000,"station_id":"ce4bgj92rcd13ifvqbd0","pricing_plan_id":"cebpf4jnsgd1na2vs0mg"},{"bike_id":"83559f3c-7c75-49fb-ab96-692538053b38","system_id":"levelo_inurba_marseille","lat":43.26557,"lon":5.37283,"is_reserved":false,"is_disabled":false,"rental_uris":{"android":"levelo://app?vid=83559f3c-7c75-49fb-ab96-692538053b38","ios":"levelo://app?vid=83559f3c-7c75-49fb-ab96-692538053b38"},"vehicle_type_id":"4","last_reported":1744412965,"current_range_meters":10000,"station_id":"ce4bhg12rcd13ifvqf70","pricing_plan_id":"cebpf4jnsgd1na2vs0mg"},{"bike_id":"3f08cc69-711e-4264-b923-68891203ffa4","system_id":"levelo_inurba_marseille","lat":43.32285,"lon":5.38243,"is_reserved":false,"is_disabled":false,"rental_uris":{"android":"levelo://app?vid=3f08cc69-711e-4264-b923-68891203ffa4","ios":"levelo://app?vid=3f08cc69-711e-4264-b923-68891203ffa4"},"vehicle_type_id":"4","last_reported":1744412965,"current_range_meters":10000,"station_id":"ce4bhr12rcd13ifvqhqg","pricing_plan_id":"cebpf4jnsgd1na2vs0mg"},{"bike_id":"61d05422-38c9-4401-a1fc-453cfa3ee1f7","system_id":"levelo_inurba_marseille","lat":43.24815,"lon":5.37448,"is_reserved":false,"is_disabled":false,"rental_uris":{"android":"levelo://app?vid=61d05422-38c9-4401-a1fc-453cfa3ee1f7","ios":"levelo://app?vid=61d05422-38c9-4401-a1fc-453cfa3ee1f7"},"vehicle_type_id":"4","last_reported":1744412965,"current_range_meters":10000,"station_id":"ce4bhgh2rcd13ifvqfb0","pricing_plan_id":"cebpf4jnsgd1na2vs0mg"},{"bike_id":"4614ddd5-5aac-42b1-b3d4-905343369df1","system_id":"levelo_inurba_marseille","lat":43.27938,"lon":5.41045,"is_reserved":false,"is_disabled":false,"rental_uris":{"android":"levelo://app?vid=4614ddd5-5aac-42b1-b3d4-905343369df1","ios":"levelo://app?vid=4614ddd5-5aac-42b1-b3d4-905343369df1"},"vehicle_type_id":"4","last_reported":1744412965,"current_range_meters":10000,"station_id":"ce4bhnp2rcd13ifvqh0g","pricing_plan_id":"cebpf4jnsgd1na2vs0mg"},{"bike_id":"9b0093a9-79e0-4880-82c2-96b353b4de72","system_id":"levelo_inurba_marseille","lat":43.30319,"lon":5.40436,"is_reserved":false,"is_disabled":true,"rental_uris":{"android":"levelo://app?vid=9b0093a9-79e0-4880-82c2-96b353b4de72","ios":"levelo://app?vid=9b0093a9-79e0-4880-82c2-96b353b4de72"},"vehicle_type_id":"4","last_reported":1744412965,"current_range_meters":10000,"station_id":"ce4bh012rcd13ifvqd10","pricing_plan_id":"cebpf4jnsgd1na2vs0mg"},{"bike_id":"c659e7c3-9ff1-45a2-a39e-9154274620b0","system_id":"levelo_inurba_marseille","lat":43.30926,"lon":5.40149,"is_reserved":false,"is_disabled":false,"rental_uris":{"android":"levelo://app?vid=c659e7c3-9ff1-45a2-a39e-9154274620b0","ios":"levelo://app?vid=c659e7c3-9ff1-45a2-a39e-9154274620b0"},"vehicle_type_id":"4","last_reported":1744412965,"current_range_meters":10800,"station_id":"ce4bgvp2rcd13ifvqct0","pricing_plan_id":"cebpf4jnsgd1na2vs0mg"},{"bike_id":"d6c423ad-693a-42e8-bcad-89087df9e68f","system_id":"levelo_inurba_marseille","lat":43.2418,"lon":5.39733,"is_reserved":false,"is_disabled":false,"rental_uris":{"android":"levelo://app?vid=d6c423ad-693a-42e8-bcad-89087df9e68f","ios":"levelo://app?vid=d6c423ad-693a-42e8-bcad-89087df9e68f"},"vehicle_type_id":"4","last_reported":1744412965,"current_range_meters":10800,"station_id":"ce4bhn12rcd13ifvqgpg","pricing_plan_id":"cebpf4jnsgd1na2vs0mg"},{"bike_id":"463b41fd-37bb-48c0-a6e4-12f737a3d7cf","system_id":"levelo_inurba_marseille","lat":43.26935,"lon":5.40263,"is_reserved":false,"is_disabled":true,"rental_uris":{"android":"levelo://app?vid=463b41fd-37bb-48c0-a6e4-12f737a3d7cf","ios":"levelo://app?vid=463b41fd-37bb-48c0-a6e4-12f737a3d7cf"},"vehicle_type_id":"4","last_reported":1744412965,"current_range_meters":10800,"station_id":"cjm6bp8fraef2m0cb0m0","pricing_plan_id":"cebpf4jnsgd1na2vs0mg"},{"bike_id":"80f5992c-b183-460d-8d1b-4c42a2b4d72f","system_id":"levelo_inurba_marseille","lat":43.2418,"lon":5.39727,"is_reserved":false,"is_disabled":false,"rental_uris":{"android":"levelo://app?vid=80f5992c-b183-460d-8d1b-4c42a2b4d72f","ios":"levelo://app?vid=80f5992c-b183-460d-8d1b-4c42a2b4d72f"},"vehicle_type_id":"4","last_reported":1744412965,"current_range_meters":10800,"station_id":"ce4bhn12rcd13ifvqgpg","pricing_plan_id":"cebpf4jnsgd1na2vs0mg"},{"bike_id":"b105010c-b749-48b7-8743-e65c5024e2fe","system_id":"levelo_inurba_marseille","lat":43.25116,"lon":5.40323,"is_reserved":false,"is_disabled":false,"rental_uris":{"android":"levelo://app?vid=b105010c-b749-48b7-8743-e65c5024e2fe","ios":"levelo://app?vid=b105010c-b749-48b7-8743-e65c5024e2fe"},"vehicle_type_id":"4","last_reported":1744412965,"current_range_meters":10800,"station_id":"ce4bhlh2rcd13ifvqgig","pricing_plan_id":"cebpf4jnsgd1na2vs0mg"},{"bike_id":"72adaa87-94dc-4774-aca0-5147bc57bd16","system_id":"levelo_inurba_marseille","lat":43.26033,"lon":5.41737,"is_reserved":false,"is_disabled":false,"rental_uris":{"android":"levelo://app?vid=72adaa87-94dc-4774-aca0-5147bc57bd16","ios":"levelo://app?vid=72adaa87-94dc-4774-aca0-5147bc57bd16"},"vehicle_type_id":"4","last_reported":1744412965,"current_range_meters":10800,"station_id":"","pricing_plan_id":"cebpf4jnsgd1na2vs0mg"},{"bike_id":"2097b575-9749-484d-b896-693003e69a57","system_id":"levelo_inurba_marseille","lat":43.270721,"lon":5.42281,"is_reserved":false,"is_disabled":false,"rental_uris":{"android":"levelo://app?vid=2097b575-9749-484d-b896-693003e69a57","ios":"levelo://app?vid=2097b575-9749-484d-b896-693003e69a57"},"vehicle_type_id":"4","last_reported":1744412965,"current_range_meters":11200,"station_id":"ce4bhk92rcd13ifvqgb0","pricing_plan_id":"cebpf4jnsgd1na2vs0mg"},{"bike_id":"beb91320-a0db-44de-9b8a-20a46790e92e","system_id":"levelo_inurba_marseille","lat":43.32109,"lon":5.3677,"is_reserved":false,"is_disabled":false,"rental_uris":{"android":"levelo://app?vid=beb91320-a0db-44de-9b8a-20a46790e92e","ios":"levelo://app?vid=beb91320-a0db-44de-9b8a-20a46790e92e"},"vehicle_type_id":"4","last_reported":1744412965,"current_range_meters":11200,"station_id":"ce4bhrh2rcd13ifvqhug","pricing_plan_id":"cebpf4jnsgd1na2vs0mg"},{"bike_id":"4960becb-28b3-4f61-8e2b-c71212163784","system_id":"levelo_inurba_marseille","lat":43.29792,"lon":5.38117,"is_reserved":false,"is_disabled":false,"rental_uris":{"android":"levelo://app?vid=4960becb-28b3-4f61-8e2b-c71212163784","ios":"levelo://app?vid=4960becb-28b3-4f61-8e2b-c71212163784"},"vehicle_type_id":"4","last_reported":1744412965,"current_range_meters":11200,"station_id":"ce4bgip2rcd13ifvqbb0","pricing_plan_id":"cebpf4jnsgd1na2vs0mg"},{"bike_id":"4526f96d-098a-4353-bcda-363f1f8f1080","system_id":"levelo_inurba_marseille","lat":43.31361,"lon":5.38493,"is_reserved":false,"is_disabled":false,"rental_uris":{"android":"levelo://app?vid=4526f96d-098a-4353-bcda-363f1f8f1080","ios":"levelo://app?vid=4526f96d-098a-4353-bcda-363f1f8f1080"},"vehicle_type_id":"4","last_reported":1744412965,"current_range_meters":11200,"station_id":"ce4bgt92rcd13ifvqcf0","pricing_plan_id":"cebpf4jnsgd1na2vs0mg"},{"bike_id":"9a048efe-3f5b-45ef-bee6-80524b1147f3","system_id":"levelo_inurba_marseille","lat":43.33069,"lon":5.40824,"is_reserved":false,"is_disabled":false,"rental_uris":{"android":"levelo://app?vid=9a048efe-3f5b-45ef-bee6-80524b1147f3","ios":"levelo://app?vid=9a048efe-3f5b-45ef-bee6-80524b1147f3"},"vehicle_type_id":"4","last_reported":1744412965,"current_range_meters":11600,"station_id":"","pricing_plan_id":"cebpf4jnsgd1na2vs0mg"},{"bike_id":"f21cce43-7e86-42c4-8a4d-3c922080ab5c","system_id":"levelo_inurba_marseille","lat":43.289493,"lon":5.366263,"is_reserved":false,"is_disabled":true,"rental_uris":{"android":"levelo://app?vid=f21cce43-7e86-42c4-8a4d-3c922080ab5c","ios":"levelo://app?vid=f21cce43-7e86-42c4-8a4d-3c922080ab5c"},"vehicle_type_id":"4","last_reported":1744412965,"current_range_meters":11600,"station_id":"ce4bhap2rcd13ifvqek0","pricing_plan_id":"cebpf4jnsgd1na2vs0mg"},{"bike_id":"4bcdcc82-d58d-4172-b626-a8c82408681c","system_id":"levelo_inurba_marseille","lat":43.31263,"lon":5.36798,"is_reserved":false,"is_disabled":true,"rental_uris":{"android":"levelo://app?vid=4bcdcc82-d58d-4172-b626-a8c82408681c","ios":"levelo://app?vid=4bcdcc82-d58d-4172-b626-a8c82408681c"},"vehicle_type_id":"4","last_reported":1744412965,"current_range_meters":11600,"station_id":"ce4bgl92rcd13ifvqbq0","pricing_plan_id":"cebpf4jnsgd1na2vs0mg"},{"bike_id":"411f282c-b696-41a4-888f-752e1134c529","system_id":"levelo_inurba_marseille","lat":43.26201,"lon":5.37446,"is_reserved":false,"is_disabled":true,"rental_uris":{"android":"levelo://app?vid=411f282c-b696-41a4-888f-752e1134c529","ios":"levelo://app?vid=411f282c-b696-41a4-888f-752e1134c529"},"vehicle_type_id":"4","last_reported":1744412965,"current_range_meters":11600,"station_id":"ce4bhgp2rcd13ifvqfc0","pricing_plan_id":"cebpf4jnsgd1na2vs0mg"},{"bike_id":"9d32057d-6fc8-4b8e-a024-4de160840cb8","system_id":"levelo_inurba_marseille","lat":43.31173,"lon":5.3872,"is_reserved":false,"is_disabled":false,"rental_uris":{"android":"levelo://app?vid=9d32057d-6fc8-4b8e-a024-4de160840cb8","ios":"levelo://app?vid=9d32057d-6fc8-4b8e-a024-4de160840cb8"},"vehicle_type_id":"4","last_reported":1744412965,"current_range_meters":11600,"station_id":"ce4bgv12rcd13ifvqcp0","pricing_plan_id":"cebpf4jnsgd1na2vs0mg"},{"bike_id":"750597eb-e194-44cb-8c79-1ffe82614dbc","system_id":"levelo_inurba_marseille","lat":43.28614,"lon":5.37055,"is_reserved":false,"is_disabled":false,"rental_uris":{"android":"levelo://app?vid=750597eb-e194-44cb-8c79-1ffe82614dbc","ios":"levelo://app?vid=750597eb-e194-44cb-8c79-1ffe82614dbc"},"vehicle_type_id":"4","last_reported":1744412965,"current_range_meters":11600,"station_id":"ce4bht12rcd13ifvqi60","pricing_plan_id":"cebpf4jnsgd1na2vs0mg"},{"bike_id":"23259ef2-badd-48f2-a7c8-5bd7ac1c2fc8","system_id":"levelo_inurba_marseille","lat":43.30263,"lon":5.40058,"is_reserved":false,"is_disabled":false,"rental_uris":{"android":"levelo://app?vid=23259ef2-badd-48f2-a7c8-5bd7ac1c2fc8","ios":"levelo://app?vid=23259ef2-badd-48f2-a7c8-5bd7ac1c2fc8"},"vehicle_type_id":"4","last_reported":1744412965,"current_range_meters":12000,"station_id":"ce4bgvh2rcd13ifvqcs0","pricing_plan_id":"cebpf4jnsgd1na2vs0mg"},{"bike_id":"410850f2-1428-4146-a9ea-774d4a6e4e85","system_id":"levelo_inurba_marseille","lat":43.32345,"lon":5.38894,"is_reserved":false,"is_disabled":false,"rental_uris":{"android":"levelo://app?vid=410850f2-1428-4146-a9ea-774d4a6e4e85","ios":"levelo://app?vid=410850f2-1428-4146-a9ea-774d4a6e4e85"},"vehicle_type_id":"4","last_reported":1744412965,"current_range_meters":12000,"station_id":"ce4bhqp2rcd13ifvqhog","pricing_plan_id":"cebpf4jnsgd1na2vs0mg"},{"bike_id":"3ac73e63-1619-4c1b-a7d0-7311424e94ef","system_id":"levelo_inurba_marseille","lat":43.29006,"lon":5.37631,"is_reserved":false,"is_disabled":false,"rental_uris":{"android":"levelo://app?vid=3ac73e63-1619-4c1b-a7d0-7311424e94ef","ios":"levelo://app?vid=3ac73e63-1619-4c1b-a7d0-7311424e94ef"},"vehicle_type_id":"4","last_reported":1744412965,"current_range_meters":12000,"station_id":"","pricing_plan_id":"cebpf4jnsgd1na2vs0mg"},{"bike_id":"c514ba15-983b-4a4f-8fca-12d0f738471e","system_id":"levelo_inurba_marseille","lat":43.30946,"lon":5.39031,"is_reserved":false,"is_disabled":false,"rental_uris":{"android":"levelo://app?vid=c514ba15-983b-4a4f-8fca-12d0f738471e","ios":"levelo://app?vid=c514ba15-983b-4a4f-8fca-12d0f738471e"},"vehicle_type_id":"4","last_reported":1744412965,"current_range_meters":12000,"station_id":"ce4bgup2rcd13ifvqco0","pricing_plan_id":"cebpf4jnsgd1na2vs0mg"},{"bike_id":"0c00ca95-3429-45f6-a550-7818d229058c","system_id":"levelo_inurba_marseille","lat":43.24662,"lon":5.38158,"is_reserved":false,"is_disabled":false,"rental_uris":{"android":"levelo://app?vid=0c00ca95-3429-45f6-a550-7818d229058c","ios":"levelo://app?vid=0c00ca95-3429-45f6-a550-7818d229058c"},"vehicle_type_id":"4","last_reported":1744412965,"current_range_meters":12000,"station_id":"ce4bhih2rcd13ifvqfr0","pricing_plan_id":"cebpf4jnsgd1na2vs0mg"},{"bike_id":"8c58f2fa-99e1-41f8-bf90-9c1648b679b1","system_id":"levelo_inurba_marseille","lat":43.27309,"lon":5.41453,"is_reserved":false,"is_disabled":false,"rental_uris":{"android":"levelo://app?vid=8c58f2fa-99e1-41f8-bf90-9c1648b679b1","ios":"levelo://app?vid=8c58f2fa-99e1-41f8-bf90-9c1648b679b1"},"vehicle_type_id":"4","last_reported":1744412965,"current_range_meters":12000,"station_id":"","pricing_plan_id":"cebpf4jnsgd1na2vs0mg"},{"bike_id":"df7dcc93-da1a-4854-9050-cdf37f9f7fc2","system_id":"levelo_inurba_marseille","lat":43.29249,"lon":5.38446,"is_reserved":false,"is_disabled":false,"rental_uris":{"android":"levelo://app?vid=df7dcc93-da1a-4854-9050-cdf37f9f7fc2","ios":"levelo://app?vid=df7dcc93-da1a-4854-9050-cdf37f9f7fc2"},"vehicle_type_id":"4","last_reported":1744412965,"current_range_meters":12000,"station_id":"ce4bh692rcd13ifvqea0","pricing_plan_id":"cebpf4jnsgd1na2vs0mg"},{"bike_id":"2cfb504e-dd8a-48d7-8083-a15427a35bfc","system_id":"levelo_inurba_marseille","lat":43.30947,"lon":5.39035,"is_reserved":false,"is_disabled":false,"rental_uris":{"android":"levelo://app?vid=2cfb504e-dd8a-48d7-8083-a15427a35bfc","ios":"levelo://app?vid=2cfb504e-dd8a-48d7-8083-a15427a35bfc"},"vehicle_type_id":"4","last_reported":1744412965,"current_range_meters":12400,"station_id":"ce4bgup2rcd13ifvqco0","pricing_plan_id":"cebpf4jnsgd1na2vs0mg"},{"bike_id":"1db3f027-3907-4a6a-880b-45e50db5828b","system_id":"levelo_inurba_marseille","lat":43.25511,"lon":5.37668,"is_reserved":false,"is_disabled":false,"rental_uris":{"android":"levelo://app?vid=1db3f027-3907-4a6a-880b-45e50db5828b","ios":"levelo://app?vid=1db3f027-3907-4a6a-880b-45e50db5828b"},"vehicle_type_id":"4","last_reported":1744412965,"current_range_meters":12400,"station_id":"ce4bhh12rcd13ifvqff0","pricing_plan_id":"cebpf4jnsgd1na2vs0mg"},{"bike_id":"4c893399-b4ed-40ed-a49f-713da320f269","system_id":"levelo_inurba_marseille","lat":43.29861,"lon":5.37841,"is_reserved":false,"is_disabled":false,"rental_uris":{"android":"levelo://app?vid=4c893399-b4ed-40ed-a49f-713da320f269","ios":"levelo://app?vid=4c893399-b4ed-40ed-a49f-713da320f269"},"vehicle_type_id":"4","last_reported":1744412965,"current_range_meters":12400,"station_id":"","pricing_plan_id":"cebpf4jnsgd1na2vs0mg"},{"bike_id":"4a0973b0-92a0-41e8-9b0d-a99e944bafe0","system_id":"levelo_inurba_marseille","lat":43.3448,"lon":5.41287,"is_reserved":false,"is_disabled":false,"rental_uris":{"android":"levelo://app?vid=4a0973b0-92a0-41e8-9b0d-a99e944bafe0","ios":"levelo://app?vid=4a0973b0-92a0-41e8-9b0d-a99e944bafe0"},"vehicle_type_id":"4","last_reported":1744412965,"current_range_meters":12400,"station_id":"","pricing_plan_id":"cebpf4jnsgd1na2vs0mg"},{"bike_id":"4ae7308d-d029-46ff-912b-416e8194cbc5","system_id":"levelo_inurba_marseille","lat":43.30143,"lon":5.37424,"is_reserved":false,"is_disabled":false,"rental_uris":{"android":"levelo://app?vid=4ae7308d-d029-46ff-912b-416e8194cbc5","ios":"levelo://app?vid=4ae7308d-d029-46ff-912b-416e8194cbc5"},"vehicle_type_id":"4","last_reported":1744412965,"current_range_meters":12000,"station_id":"ce4bgs92rcd13ifvqcc0","pricing_plan_id":"cebpf4jnsgd1na2vs0mg"},{"bike_id":"1c5ba1d6-4b0d-4d40-87ac-26304179263f","system_id":"levelo_inurba_marseille","lat":43.33603,"lon":5.4103,"is_reserved":false,"is_disabled":false,"rental_uris":{"android":"levelo://app?vid=1c5ba1d6-4b0d-4d40-87ac-26304179263f","ios":"levelo://app?vid=1c5ba1d6-4b0d-4d40-87ac-26304179263f"},"vehicle_type_id":"4","last_reported":1744412965,"current_range_meters":12000,"station_id":"ce4bhqh2rcd13ifvqhmg","pricing_plan_id":"cebpf4jnsgd1na2vs0mg"},{"bike_id":"a9e88e5d-c9a4-47bb-b35b-7c2c677d09d9","system_id":"levelo_inurba_marseille","lat":43.292688,"lon":5.384326,"is_reserved":false,"is_disabled":false,"rental_uris":{"android":"levelo://app?vid=a9e88e5d-c9a4-47bb-b35b-7c2c677d09d9","ios":"levelo://app?vid=a9e88e5d-c9a4-47bb-b35b-7c2c677d09d9"},"vehicle_type_id":"4","last_reported":1744412965,"current_range_meters":12000,"station_id":"ce4bh112rcd13ifvqd90","pricing_plan_id":"cebpf4jnsgd1na2vs0mg"},{"bike_id":"ff4c4eda-fba5-48e0-a454-681d1935dae0","system_id":"levelo_inurba_marseille","lat":43.30794,"lon":5.38147,"is_reserved":false,"is_disabled":false,"rental_uris":{"android":"levelo://app?vid=ff4c4eda-fba5-48e0-a454-681d1935dae0","ios":"levelo://app?vid=ff4c4eda-fba5-48e0-a454-681d1935dae0"},"vehicle_type_id":"4","last_reported":1744412965,"current_range_meters":12800,"station_id":"ce4bgt12rcd13ifvqce0","pricing_plan_id":"cebpf4jnsgd1na2vs0mg"},{"bike_id":"b98b5712-911d-4b6d-8f0d-ec1a7fc6f61e","system_id":"levelo_inurba_marseille","lat":43.25868,"lon":5.39894,"is_reserved":false,"is_disabled":false,"rental_uris":{"android":"levelo://app?vid=b98b5712-911d-4b6d-8f0d-ec1a7fc6f61e","ios":"levelo://app?vid=b98b5712-911d-4b6d-8f0d-ec1a7fc6f61e"},"vehicle_type_id":"4","last_reported":1744412965,"current_range_meters":12800,"station_id":"ce4bhl92rcd13ifvqghg","pricing_plan_id":"cebpf4jnsgd1na2vs0mg"},{"bike_id":"1cb849f5-4018-4c76-a075-268f516482d1","system_id":"levelo_inurba_marseille","lat":43.29258,"lon":5.40135,"is_reserved":false,"is_disabled":false,"rental_uris":{"android":"levelo://app?vid=1cb849f5-4018-4c76-a075-268f516482d1","ios":"levelo://app?vid=1cb849f5-4018-4c76-a075-268f516482d1"},"vehicle_type_id":"4","last_reported":1744412965,"current_range_meters":12800,"station_id":"ce4bh312rcd13ifvqdk0","pricing_plan_id":"cebpf4jnsgd1na2vs0mg"},{"bike_id":"ff66026a-95c7-4911-ae8a-4658b6feadb1","system_id":"levelo_inurba_marseille","lat":43.31168,"lon":5.38717,"is_reserved":false,"is_disabled":false,"rental_uris":{"android":"levelo://app?vid=ff66026a-95c7-4911-ae8a-4658b6feadb1","ios":"levelo://app?vid=ff66026a-95c7-4911-ae8a-4658b6feadb1"},"vehicle_type_id":"4","last_reported":1744412965,"current_range_meters":12800,"station_id":"ce4bgv12rcd13ifvqcp0","pricing_plan_id":"cebpf4jnsgd1na2vs0mg"},{"bike_id":"4651fc10-fe57-460e-89c6-9ba891098581","system_id":"levelo_inurba_marseille","lat":43.241681,"lon":5.363834,"is_reserved":false,"is_disabled":false,"rental_uris":{"android":"levelo://app?vid=4651fc10-fe57-460e-89c6-9ba891098581","ios":"levelo://app?vid=4651fc10-fe57-460e-89c6-9ba891098581"},"vehicle_type_id":"4","last_reported":1744412965,"current_range_meters":12800,"station_id":"cpo36qri1sfpv3e86is0","pricing_plan_id":"cebpf4jnsgd1na2vs0mg"},{"bike_id":"18606129-1f46-4387-94fd-b9b77f87f6a9","system_id":"levelo_inurba_marseille","lat":43.231862,"lon":5.399798,"is_reserved":false,"is_disabled":false,"rental_uris":{"android":"levelo://app?vid=18606129-1f46-4387-94fd-b9b77f87f6a9","ios":"levelo://app?vid=18606129-1f46-4387-94fd-b9b77f87f6a9"},"vehicle_type_id":"4","last_reported":1744412965,"current_range_meters":12800,"station_id":"ce4bhn12rcd13ifvqgqg","pricing_plan_id":"cebpf4jnsgd1na2vs0mg"},{"bike_id":"16fd30b1-cad6-4fc5-9de5-c7170be035f0","system_id":"levelo_inurba_marseille","lat":43.25709,"lon":5.4111,"is_reserved":false,"is_disabled":false,"rental_uris":{"android":"levelo://app?vid=16fd30b1-cad6-4fc5-9de5-c7170be035f0","ios":"levelo://app?vid=16fd30b1-cad6-4fc5-9de5-c7170be035f0"},"vehicle_type_id":"4","last_reported":1744412965,"current_range_meters":12800,"station_id":"ce4bhkp2rcd13ifvqgd0","pricing_plan_id":"cebpf4jnsgd1na2vs0mg"},{"bike_id":"b787a13f-7452-4e43-8aaa-d73fdb97c798","system_id":"levelo_inurba_marseille","lat":43.32119,"lon":5.36767,"is_reserved":false,"is_disabled":false,"rental_uris":{"android":"levelo://app?vid=b787a13f-7452-4e43-8aaa-d73fdb97c798","ios":"levelo://app?vid=b787a13f-7452-4e43-8aaa-d73fdb97c798"},"vehicle_type_id":"4","last_reported":1744412965,"current_range_meters":13600,"station_id":"ce4bhrh2rcd13ifvqhug","pricing_plan_id":"cebpf4jnsgd1na2vs0mg"},{"bike_id":"d3b81292-1f57-4c82-b54b-4fc5027688e4","system_id":"levelo_inurba_marseille","lat":43.28921,"lon":5.38402,"is_reserved":false,"is_disabled":false,"rental_uris":{"android":"levelo://app?vid=d3b81292-1f57-4c82-b54b-4fc5027688e4","ios":"levelo://app?vid=d3b81292-1f57-4c82-b54b-4fc5027688e4"},"vehicle_type_id":"4","last_reported":1744412965,"current_range_meters":12800,"station_id":"ce4bh612rcd13ifvqe6g","pricing_plan_id":"cebpf4jnsgd1na2vs0mg"},{"bike_id":"9145946e-59e1-420d-9f32-4fce0d813211","system_id":"levelo_inurba_marseille","lat":43.25727,"lon":5.41106,"is_reserved":false,"is_disabled":false,"rental_uris":{"android":"levelo://app?vid=9145946e-59e1-420d-9f32-4fce0d813211","ios":"levelo://app?vid=9145946e-59e1-420d-9f32-4fce0d813211"},"vehicle_type_id":"4","last_reported":1744412965,"current_range_meters":13600,"station_id":"ce4bhkp2rcd13ifvqgd0","pricing_plan_id":"cebpf4jnsgd1na2vs0mg"},{"bike_id":"030557c9-ced9-4a18-acec-4eff8c4972ce","system_id":"levelo_inurba_marseille","lat":43.29434,"lon":5.38893,"is_reserved":false,"is_disabled":false,"rental_uris":{"android":"levelo://app?vid=030557c9-ced9-4a18-acec-4eff8c4972ce","ios":"levelo://app?vid=030557c9-ced9-4a18-acec-4eff8c4972ce"},"vehicle_type_id":"4","last_reported":1744412965,"current_range_meters":13600,"station_id":"","pricing_plan_id":"cebpf4jnsgd1na2vs0mg"},{"bike_id":"d38e0e5e-1441-423a-9774-3196b1a1cb17","system_id":"levelo_inurba_marseille","lat":43.30027,"lon":5.39981,"is_reserved":false,"is_disabled":false,"rental_uris":{"android":"levelo://app?vid=d38e0e5e-1441-423a-9774-3196b1a1cb17","ios":"levelo://app?vid=d38e0e5e-1441-423a-9774-3196b1a1cb17"},"vehicle_type_id":"4","last_reported":1744412965,"current_range_meters":13600,"station_id":"","pricing_plan_id":"cebpf4jnsgd1na2vs0mg"},{"bike_id":"e854defc-8e33-40ed-a4f3-45bab2707a87","system_id":"levelo_inurba_marseille","lat":43.309394,"lon":5.401404,"is_reserved":false,"is_disabled":false,"rental_uris":{"android":"levelo://app?vid=e854defc-8e33-40ed-a4f3-45bab2707a87","ios":"levelo://app?vid=e854defc-8e33-40ed-a4f3-45bab2707a87"},"vehicle_type_id":"4","last_reported":1744412965,"current_range_meters":13600,"station_id":"ce4bgvp2rcd13ifvqct0","pricing_plan_id":"cebpf4jnsgd1na2vs0mg"},{"bike_id":"dc0fc37b-245c-4040-8686-f32b8a543409","system_id":"levelo_inurba_marseille","lat":43.24387,"lon":5.3706,"is_reserved":false,"is_disabled":false,"rental_uris":{"android":"levelo://app?vid=dc0fc37b-245c-4040-8686-f32b8a543409","ios":"levelo://app?vid=dc0fc37b-245c-4040-8686-f32b8a543409"},"vehicle_type_id":"4","last_reported":1744412965,"current_range_meters":14000,"station_id":"ce4bhhh2rcd13ifvqfk0","pricing_plan_id":"cebpf4jnsgd1na2vs0mg"},{"bike_id":"275105d5-fc78-47da-8cbd-06869c2e36d2","system_id":"levelo_inurba_marseille","lat":43.254985,"lon":5.376438,"is_reserved":false,"is_disabled":false,"rental_uris":{"android":"levelo://app?vid=275105d5-fc78-47da-8cbd-06869c2e36d2","ios":"levelo://app?vid=275105d5-fc78-47da-8cbd-06869c2e36d2"},"vehicle_type_id":"4","last_reported":1744412965,"current_range_meters":14000,"station_id":"ce4bhh12rcd13ifvqff0","pricing_plan_id":"cebpf4jnsgd1na2vs0mg"},{"bike_id":"ef291804-1477-432e-b153-82ea15725418","system_id":"levelo_inurba_marseille","lat":43.33742,"lon":5.37454,"is_reserved":false,"is_disabled":false,"rental_uris":{"android":"levelo://app?vid=ef291804-1477-432e-b153-82ea15725418","ios":"levelo://app?vid=ef291804-1477-432e-b153-82ea15725418"},"vehicle_type_id":"4","last_reported":1744412965,"current_range_meters":14000,"station_id":"","pricing_plan_id":"cebpf4jnsgd1na2vs0mg"},{"bike_id":"fada94ee-4770-424e-ae84-99e0a30f0067","system_id":"levelo_inurba_marseille","lat":43.24822,"lon":5.37443,"is_reserved":false,"is_disabled":false,"rental_uris":{"android":"levelo://app?vid=fada94ee-4770-424e-ae84-99e0a30f0067","ios":"levelo://app?vid=fada94ee-4770-424e-ae84-99e0a30f0067"},"vehicle_type_id":"4","last_reported":1744412965,"current_range_meters":14000,"station_id":"ce4bhgh2rcd13ifvqfb0","pricing_plan_id":"cebpf4jnsgd1na2vs0mg"},{"bike_id":"2581bd89-e9df-4d04-ae56-730cdabc7786","system_id":"levelo_inurba_marseille","lat":43.308838,"lon":5.39637,"is_reserved":false,"is_disabled":false,"rental_uris":{"android":"levelo://app?vid=2581bd89-e9df-4d04-ae56-730cdabc7786","ios":"levelo://app?vid=2581bd89-e9df-4d04-ae56-730cdabc7786"},"vehicle_type_id":"4","last_reported":1744412965,"current_range_meters":14000,"station_id":"ce4bh012rcd13ifvqcv0","pricing_plan_id":"cebpf4jnsgd1na2vs0mg"},{"bike_id":"dd64c0e7-64e0-4f92-a620-7a2c964a0050","system_id":"levelo_inurba_marseille","lat":43.32153,"lon":5.36748,"is_reserved":false,"is_disabled":false,"rental_uris":{"android":"levelo://app?vid=dd64c0e7-64e0-4f92-a620-7a2c964a0050","ios":"levelo://app?vid=dd64c0e7-64e0-4f92-a620-7a2c964a0050"},"vehicle_type_id":"4","last_reported":1744412965,"current_range_meters":14400,"station_id":"ce4bhrh2rcd13ifvqhug","pricing_plan_id":"cebpf4jnsgd1na2vs0mg"},{"bike_id":"2e845506-0ec9-43b5-9c91-deaab92936dd","system_id":"levelo_inurba_marseille","lat":43.257152,"lon":5.411151,"is_reserved":false,"is_disabled":false,"rental_uris":{"android":"levelo://app?vid=2e845506-0ec9-43b5-9c91-deaab92936dd","ios":"levelo://app?vid=2e845506-0ec9-43b5-9c91-deaab92936dd"},"vehicle_type_id":"4","last_reported":1744412965,"current_range_meters":14400,"station_id":"ce4bhkp2rcd13ifvqgd0","pricing_plan_id":"cebpf4jnsgd1na2vs0mg"},{"bike_id":"cfa05593-02c0-4361-b7cb-d147d92b27a4","system_id":"levelo_inurba_marseille","lat":43.24172,"lon":5.36396,"is_reserved":false,"is_disabled":false,"rental_uris":{"android":"levelo://app?vid=cfa05593-02c0-4361-b7cb-d147d92b27a4","ios":"levelo://app?vid=cfa05593-02c0-4361-b7cb-d147d92b27a4"},"vehicle_type_id":"4","last_reported":1744412965,"current_range_meters":14800,"station_id":"cpo36qri1sfpv3e86is0","pricing_plan_id":"cebpf4jnsgd1na2vs0mg"},{"bike_id":"c9aa49b6-dfff-45a5-aada-a9b66a79c5ac","system_id":"levelo_inurba_marseille","lat":43.24657,"lon":5.38178,"is_reserved":false,"is_disabled":false,"rental_uris":{"android":"levelo://app?vid=c9aa49b6-dfff-45a5-aada-a9b66a79c5ac","ios":"levelo://app?vid=c9aa49b6-dfff-45a5-aada-a9b66a79c5ac"},"vehicle_type_id":"4","last_reported":1744412965,"current_range_meters":14800,"station_id":"ce4bhih2rcd13ifvqfr0","pricing_plan_id":"cebpf4jnsgd1na2vs0mg"},{"bike_id":"fdf0c959-920f-454c-a18e-376100b9d38b","system_id":"levelo_inurba_marseille","lat":43.27837,"lon":5.39207,"is_reserved":false,"is_disabled":false,"rental_uris":{"android":"levelo://app?vid=fdf0c959-920f-454c-a18e-376100b9d38b","ios":"levelo://app?vid=fdf0c959-920f-454c-a18e-376100b9d38b"},"vehicle_type_id":"4","last_reported":1744412965,"current_range_meters":14800,"station_id":"ce4bhjp2rcd13ifvqga0","pricing_plan_id":"cebpf4jnsgd1na2vs0mg"},{"bike_id":"dd53e328-218b-45e2-952f-c1636d498367","system_id":"levelo_inurba_marseille","lat":43.309508,"lon":5.390395,"is_reserved":false,"is_disabled":false,"rental_uris":{"android":"levelo://app?vid=dd53e328-218b-45e2-952f-c1636d498367","ios":"levelo://app?vid=dd53e328-218b-45e2-952f-c1636d498367"},"vehicle_type_id":"4","last_reported":1744412965,"current_range_meters":14800,"station_id":"ce4bgup2rcd13ifvqco0","pricing_plan_id":"cebpf4jnsgd1na2vs0mg"},{"bike_id":"2779c37c-ba2d-4a70-8e08-2359cf7c7a38","system_id":"levelo_inurba_marseille","lat":43.27815,"lon":5.40707,"is_reserved":false,"is_disabled":false,"rental_uris":{"android":"levelo://app?vid=2779c37c-ba2d-4a70-8e08-2359cf7c7a38","ios":"levelo://app?vid=2779c37c-ba2d-4a70-8e08-2359cf7c7a38"},"vehicle_type_id":"4","last_reported":1744412965,"current_range_meters":14400,"station_id":"ce4bhnh2rcd13ifvqgtg","pricing_plan_id":"cebpf4jnsgd1na2vs0mg"},{"bike_id":"94c4086f-9db5-4b0a-a9c9-621dc6ffc65e","system_id":"levelo_inurba_marseille","lat":43.23154,"lon":5.43707,"is_reserved":false,"is_disabled":false,"rental_uris":{"android":"levelo://app?vid=94c4086f-9db5-4b0a-a9c9-621dc6ffc65e","ios":"levelo://app?vid=94c4086f-9db5-4b0a-a9c9-621dc6ffc65e"},"vehicle_type_id":"4","last_reported":1744412965,"current_range_meters":14400,"station_id":"ce4bhmp2rcd13ifvqgog","pricing_plan_id":"cebpf4jnsgd1na2vs0mg"},{"bike_id":"d8e558ce-15a1-461c-a13c-5a4143c3cd65","system_id":"levelo_inurba_marseille","lat":43.29846,"lon":5.36272,"is_reserved":false,"is_disabled":false,"rental_uris":{"android":"levelo://app?vid=d8e558ce-15a1-461c-a13c-5a4143c3cd65","ios":"levelo://app?vid=d8e558ce-15a1-461c-a13c-5a4143c3cd65"},"vehicle_type_id":"4","last_reported":1744412965,"current_range_meters":14800,"station_id":"ce4bgpp2rcd13ifvqc3g","pricing_plan_id":"cebpf4jnsgd1na2vs0mg"},{"bike_id":"5b77a833-8185-45c2-9fe3-07eb40df54ca","system_id":"levelo_inurba_marseille","lat":43.33995,"lon":5.38057,"is_reserved":false,"is_disabled":false,"rental_uris":{"android":"levelo://app?vid=5b77a833-8185-45c2-9fe3-07eb40df54ca","ios":"levelo://app?vid=5b77a833-8185-45c2-9fe3-07eb40df54ca"},"vehicle_type_id":"4","last_reported":1744412965,"current_range_meters":14800,"station_id":"","pricing_plan_id":"cebpf4jnsgd1na2vs0mg"},{"bike_id":"f7d1eee0-1715-419d-beac-1b98ec9e62ed","system_id":"levelo_inurba_marseille","lat":43.30953,"lon":5.39032,"is_reserved":false,"is_disabled":true,"rental_uris":{"android":"levelo://app?vid=f7d1eee0-1715-419d-beac-1b98ec9e62ed","ios":"levelo://app?vid=f7d1eee0-1715-419d-beac-1b98ec9e62ed"},"vehicle_type_id":"4","last_reported":1744412965,"current_range_meters":15200,"station_id":"ce4bgup2rcd13ifvqco0","pricing_plan_id":"cebpf4jnsgd1na2vs0mg"},{"bike_id":"503203d3-1e0d-41e7-9876-10c94ae677ff","system_id":"levelo_inurba_marseille","lat":43.32092,"lon":5.36769,"is_reserved":false,"is_disabled":false,"rental_uris":{"android":"levelo://app?vid=503203d3-1e0d-41e7-9876-10c94ae677ff","ios":"levelo://app?vid=503203d3-1e0d-41e7-9876-10c94ae677ff"},"vehicle_type_id":"4","last_reported":1744412965,"current_range_meters":15200,"station_id":"ce4bhrh2rcd13ifvqhug","pricing_plan_id":"cebpf4jnsgd1na2vs0mg"},{"bike_id":"fafcb012-009e-41ce-8903-9f7671685dd4","system_id":"levelo_inurba_marseille","lat":43.30139,"lon":5.39874,"is_reserved":false,"is_disabled":false,"rental_uris":{"android":"levelo://app?vid=fafcb012-009e-41ce-8903-9f7671685dd4","ios":"levelo://app?vid=fafcb012-009e-41ce-8903-9f7671685dd4"},"vehicle_type_id":"4","last_reported":1744412965,"current_range_meters":15200,"station_id":"ce4bh0h2rcd13ifvqd40","pricing_plan_id":"cebpf4jnsgd1na2vs0mg"},{"bike_id":"b1e7f30f-0e98-4045-ab31-a659ab637c18","system_id":"levelo_inurba_marseille","lat":43.323613,"lon":5.36751,"is_reserved":false,"is_disabled":false,"rental_uris":{"android":"levelo://app?vid=b1e7f30f-0e98-4045-ab31-a659ab637c18","ios":"levelo://app?vid=b1e7f30f-0e98-4045-ab31-a659ab637c18"},"vehicle_type_id":"4","last_reported":1744412965,"current_range_meters":15200,"station_id":"ce4bhsh2rcd13ifvqi2g","pricing_plan_id":"cebpf4jnsgd1na2vs0mg"},{"bike_id":"0e7bf4ae-5aed-4055-a1f8-96debbb9847e","system_id":"levelo_inurba_marseille","lat":43.24172,"lon":5.36406,"is_reserved":false,"is_disabled":false,"rental_uris":{"android":"levelo://app?vid=0e7bf4ae-5aed-4055-a1f8-96debbb9847e","ios":"levelo://app?vid=0e7bf4ae-5aed-4055-a1f8-96debbb9847e"},"vehicle_type_id":"4","last_reported":1744412965,"current_range_meters":15200,"station_id":"cpo36qri1sfpv3e86is0","pricing_plan_id":"cebpf4jnsgd1na2vs0mg"},{"bike_id":"ae731e93-0a16-4444-85f7-f0c3ec1da14b","system_id":"levelo_inurba_marseille","lat":43.30784,"lon":5.37654,"is_reserved":false,"is_disabled":false,"rental_uris":{"android":"levelo://app?vid=ae731e93-0a16-4444-85f7-f0c3ec1da14b","ios":"levelo://app?vid=ae731e93-0a16-4444-85f7-f0c3ec1da14b"},"vehicle_type_id":"4","last_reported":1744412965,"current_range_meters":15200,"station_id":"ce4bgv92rcd13ifvqcq0","pricing_plan_id":"cebpf4jnsgd1na2vs0mg"},{"bike_id":"777b227c-7abb-4d62-9994-ac7b6072751a","system_id":"levelo_inurba_marseille","lat":43.31123,"lon":5.37757,"is_reserved":false,"is_disabled":false,"rental_uris":{"android":"levelo://app?vid=777b227c-7abb-4d62-9994-ac7b6072751a","ios":"levelo://app?vid=777b227c-7abb-4d62-9994-ac7b6072751a"},"vehicle_type_id":"4","last_reported":1744412965,"current_range_meters":15200,"station_id":"ce4bgt92rcd13ifvqcg0","pricing_plan_id":"cebpf4jnsgd1na2vs0mg"},{"bike_id":"d8f603cd-3b83-4148-bab8-3a185ad2a59f","system_id":"levelo_inurba_marseille","lat":43.32374,"lon":5.38876,"is_reserved":false,"is_disabled":false,"rental_uris":{"android":"levelo://app?vid=d8f603cd-3b83-4148-bab8-3a185ad2a59f","ios":"levelo://app?vid=d8f603cd-3b83-4148-bab8-3a185ad2a59f"},"vehicle_type_id":"4","last_reported":1744412965,"current_range_meters":16000,"station_id":"ce4bhqp2rcd13ifvqhog","pricing_plan_id":"cebpf4jnsgd1na2vs0mg"},{"bike_id":"8b2782bb-d0c9-4ea4-a075-841213e692f9","system_id":"levelo_inurba_marseille","lat":43.24807,"lon":5.37457,"is_reserved":false,"is_disabled":false,"rental_uris":{"android":"levelo://app?vid=8b2782bb-d0c9-4ea4-a075-841213e692f9","ios":"levelo://app?vid=8b2782bb-d0c9-4ea4-a075-841213e692f9"},"vehicle_type_id":"4","last_reported":1744412965,"current_range_meters":16000,"station_id":"ce4bhgh2rcd13ifvqfb0","pricing_plan_id":"cebpf4jnsgd1na2vs0mg"},{"bike_id":"1aee9583-5366-44f3-b676-d22249623869","system_id":"levelo_inurba_marseille","lat":43.30947,"lon":5.39052,"is_reserved":false,"is_disabled":false,"rental_uris":{"android":"levelo://app?vid=1aee9583-5366-44f3-b676-d22249623869","ios":"levelo://app?vid=1aee9583-5366-44f3-b676-d22249623869"},"vehicle_type_id":"4","last_reported":1744412965,"current_range_meters":16000,"station_id":"ce4bgup2rcd13ifvqco0","pricing_plan_id":"cebpf4jnsgd1na2vs0mg"},{"bike_id":"3e2b2508-0f7b-47c0-a0eb-df46134c73dd","system_id":"levelo_inurba_marseille","lat":43.330187,"lon":5.390523,"is_reserved":false,"is_disabled":false,"rental_uris":{"android":"levelo://app?vid=3e2b2508-0f7b-47c0-a0eb-df46134c73dd","ios":"levelo://app?vid=3e2b2508-0f7b-47c0-a0eb-df46134c73dd"},"vehicle_type_id":"4","last_reported":1744412965,"current_range_meters":16000,"station_id":"ce4bhr92rcd13ifvqhrg","pricing_plan_id":"cebpf4jnsgd1na2vs0mg"},{"bike_id":"3383469d-bf04-4b83-befe-8d91b97ef6f7","system_id":"levelo_inurba_marseille","lat":43.32156,"lon":5.3794,"is_reserved":false,"is_disabled":false,"rental_uris":{"android":"levelo://app?vid=3383469d-bf04-4b83-befe-8d91b97ef6f7","ios":"levelo://app?vid=3383469d-bf04-4b83-befe-8d91b97ef6f7"},"vehicle_type_id":"4","last_reported":1744412965,"current_range_meters":16000,"station_id":"","pricing_plan_id":"cebpf4jnsgd1na2vs0mg"},{"bike_id":"97882d19-e3c6-4c4e-aef0-31eef25a5318","system_id":"levelo_inurba_marseille","lat":43.30783,"lon":5.37636,"is_reserved":false,"is_disabled":false,"rental_uris":{"android":"levelo://app?vid=97882d19-e3c6-4c4e-aef0-31eef25a5318","ios":"levelo://app?vid=97882d19-e3c6-4c4e-aef0-31eef25a5318"},"vehicle_type_id":"4","last_reported":1744412965,"current_range_meters":16000,"station_id":"ce4bgv92rcd13ifvqcq0","pricing_plan_id":"cebpf4jnsgd1na2vs0mg"},{"bike_id":"3a420300-f4cc-45d8-95de-583ae218387e","system_id":"levelo_inurba_marseille","lat":43.26218,"lon":5.37438,"is_reserved":false,"is_disabled":false,"rental_uris":{"android":"levelo://app?vid=3a420300-f4cc-45d8-95de-583ae218387e","ios":"levelo://app?vid=3a420300-f4cc-45d8-95de-583ae218387e"},"vehicle_type_id":"4","last_reported":1744412965,"current_range_meters":16400,"station_id":"ce4bhgp2rcd13ifvqfc0","pricing_plan_id":"cebpf4jnsgd1na2vs0mg"},{"bike_id":"24d73de8-9b9d-45d5-befa-88e089d9173b","system_id":"levelo_inurba_marseille","lat":43.298803,"lon":5.389099,"is_reserved":false,"is_disabled":false,"rental_uris":{"android":"levelo://app?vid=24d73de8-9b9d-45d5-befa-88e089d9173b","ios":"levelo://app?vid=24d73de8-9b9d-45d5-befa-88e089d9173b"},"vehicle_type_id":"4","last_reported":1744412965,"current_range_meters":16400,"station_id":"ce4bh392rcd13ifvqdl0","pricing_plan_id":"cebpf4jnsgd1na2vs0mg"},{"bike_id":"e91fceae-d0be-4cc4-b1c6-ccc01ea33e64","system_id":"levelo_inurba_marseille","lat":43.308948,"lon":5.401234,"is_reserved":false,"is_disabled":false,"rental_uris":{"android":"levelo://app?vid=e91fceae-d0be-4cc4-b1c6-ccc01ea33e64","ios":"levelo://app?vid=e91fceae-d0be-4cc4-b1c6-ccc01ea33e64"},"vehicle_type_id":"4","last_reported":1744412965,"current_range_meters":16400,"station_id":"","pricing_plan_id":"cebpf4jnsgd1na2vs0mg"},{"bike_id":"91a9f3c6-f21a-4b64-9795-548509a6f1ff","system_id":"levelo_inurba_marseille","lat":43.30135,"lon":5.39859,"is_reserved":false,"is_disabled":false,"rental_uris":{"android":"levelo://app?vid=91a9f3c6-f21a-4b64-9795-548509a6f1ff","ios":"levelo://app?vid=91a9f3c6-f21a-4b64-9795-548509a6f1ff"},"vehicle_type_id":"4","last_reported":1744412965,"current_range_meters":16000,"station_id":"ce4bh0h2rcd13ifvqd40","pricing_plan_id":"cebpf4jnsgd1na2vs0mg"},{"bike_id":"faa47fa3-4737-426d-a021-4b787008aea9","system_id":"levelo_inurba_marseille","lat":43.31278,"lon":5.40168,"is_reserved":false,"is_disabled":false,"rental_uris":{"android":"levelo://app?vid=faa47fa3-4737-426d-a021-4b787008aea9","ios":"levelo://app?vid=faa47fa3-4737-426d-a021-4b787008aea9"},"vehicle_type_id":"4","last_reported":1744412965,"current_range_meters":16400,"station_id":"ce4bh092rcd13ifvqd30","pricing_plan_id":"cebpf4jnsgd1na2vs0mg"},{"bike_id":"c09876cd-28e6-462c-99fd-41d0b43e1f46","system_id":"levelo_inurba_marseille","lat":43.313576,"lon":5.384909,"is_reserved":false,"is_disabled":false,"rental_uris":{"android":"levelo://app?vid=c09876cd-28e6-462c-99fd-41d0b43e1f46","ios":"levelo://app?vid=c09876cd-28e6-462c-99fd-41d0b43e1f46"},"vehicle_type_id":"4","last_reported":1744412965,"current_range_meters":16400,"station_id":"ce4bgt92rcd13ifvqcf0","pricing_plan_id":"cebpf4jnsgd1na2vs0mg"},{"bike_id":"9c705812-db1f-4a36-bf92-d2c945b0edd1","system_id":"levelo_inurba_marseille","lat":43.31366,"lon":5.38488,"is_reserved":false,"is_disabled":false,"rental_uris":{"android":"levelo://app?vid=9c705812-db1f-4a36-bf92-d2c945b0edd1","ios":"levelo://app?vid=9c705812-db1f-4a36-bf92-d2c945b0edd1"},"vehicle_type_id":"4","last_reported":1744412965,"current_range_meters":16400,"station_id":"ce4bgt92rcd13ifvqcf0","pricing_plan_id":"cebpf4jnsgd1na2vs0mg"},{"bike_id":"c8c5f05d-e654-4c6f-a2bb-a63089f71a26","system_id":"levelo_inurba_marseille","lat":43.2807,"lon":5.39636,"is_reserved":false,"is_disabled":false,"rental_uris":{"android":"levelo://app?vid=c8c5f05d-e654-4c6f-a2bb-a63089f71a26","ios":"levelo://app?vid=c8c5f05d-e654-4c6f-a2bb-a63089f71a26"},"vehicle_type_id":"4","last_reported":1744412965,"current_range_meters":16400,"station_id":"ce4bho12rcd13ifvqh2g","pricing_plan_id":"cebpf4jnsgd1na2vs0mg"},{"bike_id":"a8d99482-a057-469f-bd2e-b289d8ded2a5","system_id":"levelo_inurba_marseille","lat":43.29812,"lon":5.404,"is_reserved":false,"is_disabled":false,"rental_uris":{"android":"levelo://app?vid=a8d99482-a057-469f-bd2e-b289d8ded2a5","ios":"levelo://app?vid=a8d99482-a057-469f-bd2e-b289d8ded2a5"},"vehicle_type_id":"4","last_reported":1744412965,"current_range_meters":16400,"station_id":"ce4bh112rcd13ifvqd90","pricing_plan_id":"cebpf4jnsgd1na2vs0mg"},{"bike_id":"90cddebc-2506-42ee-9df1-36a6154dff75","system_id":"levelo_inurba_marseille","lat":43.241629,"lon":5.363963,"is_reserved":false,"is_disabled":false,"rental_uris":{"android":"levelo://app?vid=90cddebc-2506-42ee-9df1-36a6154dff75","ios":"levelo://app?vid=90cddebc-2506-42ee-9df1-36a6154dff75"},"vehicle_type_id":"4","last_reported":1744412965,"current_range_meters":16400,"station_id":"cpo36qri1sfpv3e86is0","pricing_plan_id":"cebpf4jnsgd1na2vs0mg"},{"bike_id":"9fb728fc-435b-4cd5-982a-a85dc3a313d0","system_id":"levelo_inurba_marseille","lat":43.30808,"lon":5.3813,"is_reserved":false,"is_disabled":false,"rental_uris":{"android":"levelo://app?vid=9fb728fc-435b-4cd5-982a-a85dc3a313d0","ios":"levelo://app?vid=9fb728fc-435b-4cd5-982a-a85dc3a313d0"},"vehicle_type_id":"4","last_reported":1744412965,"current_range_meters":16800,"station_id":"ce4bgt12rcd13ifvqce0","pricing_plan_id":"cebpf4jnsgd1na2vs0mg"},{"bike_id":"9525c3ab-968c-4727-84cd-7360011d8609","system_id":"levelo_inurba_marseille","lat":43.311755,"lon":5.38717,"is_reserved":false,"is_disabled":false,"rental_uris":{"android":"levelo://app?vid=9525c3ab-968c-4727-84cd-7360011d8609","ios":"levelo://app?vid=9525c3ab-968c-4727-84cd-7360011d8609"},"vehicle_type_id":"4","last_reported":1744412965,"current_range_meters":16800,"station_id":"ce4bgv12rcd13ifvqcp0","pricing_plan_id":"cebpf4jnsgd1na2vs0mg"},{"bike_id":"2f5bc015-0a98-4a0d-a50f-f7181e1d6abe","system_id":"levelo_inurba_marseille","lat":43.23387,"lon":5.41238,"is_reserved":false,"is_disabled":false,"rental_uris":{"android":"levelo://app?vid=2f5bc015-0a98-4a0d-a50f-f7181e1d6abe","ios":"levelo://app?vid=2f5bc015-0a98-4a0d-a50f-f7181e1d6abe"},"vehicle_type_id":"4","last_reported":1744412965,"current_range_meters":16800,"station_id":"","pricing_plan_id":"cebpf4jnsgd1na2vs0mg"},{"bike_id":"fa2c78af-7442-435a-b59d-ecb3191bfe19","system_id":"levelo_inurba_marseille","lat":43.26586,"lon":5.37348,"is_reserved":false,"is_disabled":false,"rental_uris":{"android":"levelo://app?vid=fa2c78af-7442-435a-b59d-ecb3191bfe19","ios":"levelo://app?vid=fa2c78af-7442-435a-b59d-ecb3191bfe19"},"vehicle_type_id":"4","last_reported":1744412965,"current_range_meters":16800,"station_id":"","pricing_plan_id":"cebpf4jnsgd1na2vs0mg"},{"bike_id":"61f746e5-4129-4675-8183-02fd35314a4e","system_id":"levelo_inurba_marseille","lat":43.30931,"lon":5.4014,"is_reserved":false,"is_disabled":false,"rental_uris":{"android":"levelo://app?vid=61f746e5-4129-4675-8183-02fd35314a4e","ios":"levelo://app?vid=61f746e5-4129-4675-8183-02fd35314a4e"},"vehicle_type_id":"4","last_reported":1744412965,"current_range_meters":16800,"station_id":"ce4bgvp2rcd13ifvqct0","pricing_plan_id":"cebpf4jnsgd1na2vs0mg"},{"bike_id":"ac16ff27-3363-48fa-a1b2-4d5ee0c0efac","system_id":"levelo_inurba_marseille","lat":43.29709,"lon":5.36607,"is_reserved":false,"is_disabled":false,"rental_uris":{"android":"levelo://app?vid=ac16ff27-3363-48fa-a1b2-4d5ee0c0efac","ios":"levelo://app?vid=ac16ff27-3363-48fa-a1b2-4d5ee0c0efac"},"vehicle_type_id":"4","last_reported":1744412965,"current_range_meters":16800,"station_id":"ce4bgn12rcd13ifvqbt0","pricing_plan_id":"cebpf4jnsgd1na2vs0mg"},{"bike_id":"651b23e9-8487-401a-9557-a8853d9035f2","system_id":"levelo_inurba_marseille","lat":43.27621,"lon":5.36107,"is_reserved":false,"is_disabled":false,"rental_uris":{"android":"levelo://app?vid=651b23e9-8487-401a-9557-a8853d9035f2","ios":"levelo://app?vid=651b23e9-8487-401a-9557-a8853d9035f2"},"vehicle_type_id":"4","last_reported":1744412965,"current_range_meters":16400,"station_id":"ce4bgj92rcd13ifvqbe0","pricing_plan_id":"cebpf4jnsgd1na2vs0mg"},{"bike_id":"13422442-ef39-496d-a289-cb4c3a76811c","system_id":"levelo_inurba_marseille","lat":43.27827,"lon":5.39214,"is_reserved":false,"is_disabled":false,"rental_uris":{"android":"levelo://app?vid=13422442-ef39-496d-a289-cb4c3a76811c","ios":"levelo://app?vid=13422442-ef39-496d-a289-cb4c3a76811c"},"vehicle_type_id":"4","last_reported":1744412965,"current_range_meters":16800,"station_id":"ce4bhjp2rcd13ifvqga0","pricing_plan_id":"cebpf4jnsgd1na2vs0mg"},{"bike_id":"505a91c0-9c18-43a0-9896-347a45607362","system_id":"levelo_inurba_marseille","lat":43.30594,"lon":5.3721,"is_reserved":false,"is_disabled":false,"rental_uris":{"android":"levelo://app?vid=505a91c0-9c18-43a0-9896-347a45607362","ios":"levelo://app?vid=505a91c0-9c18-43a0-9896-347a45607362"},"vehicle_type_id":"4","last_reported":1744412965,"current_range_meters":17200,"station_id":"ce4bgqh2rcd13ifvqc4g","pricing_plan_id":"cebpf4jnsgd1na2vs0mg"},{"bike_id":"024220f2-a761-4680-8879-7ca1b967d725","system_id":"levelo_inurba_marseille","lat":43.27985,"lon":5.4164,"is_reserved":false,"is_disabled":false,"rental_uris":{"android":"levelo://app?vid=024220f2-a761-4680-8879-7ca1b967d725","ios":"levelo://app?vid=024220f2-a761-4680-8879-7ca1b967d725"},"vehicle_type_id":"4","last_reported":1744412965,"current_range_meters":17200,"station_id":"ce4bho12rcd13ifvqh1g","pricing_plan_id":"cebpf4jnsgd1na2vs0mg"},{"bike_id":"493cde9e-7859-4c26-a2e6-f744ee5d8553","system_id":"levelo_inurba_marseille","lat":43.31805,"lon":5.36838,"is_reserved":false,"is_disabled":false,"rental_uris":{"android":"levelo://app?vid=493cde9e-7859-4c26-a2e6-f744ee5d8553","ios":"levelo://app?vid=493cde9e-7859-4c26-a2e6-f744ee5d8553"},"vehicle_type_id":"4","last_reported":1744412965,"current_range_meters":17200,"station_id":"","pricing_plan_id":"cebpf4jnsgd1na2vs0mg"},{"bike_id":"04697f1c-f402-4cec-ad92-d8e40094fc77","system_id":"levelo_inurba_marseille","lat":43.31279,"lon":5.40162,"is_reserved":false,"is_disabled":false,"rental_uris":{"android":"levelo://app?vid=04697f1c-f402-4cec-ad92-d8e40094fc77","ios":"levelo://app?vid=04697f1c-f402-4cec-ad92-d8e40094fc77"},"vehicle_type_id":"4","last_reported":1744412965,"current_range_meters":17200,"station_id":"ce4bh092rcd13ifvqd30","pricing_plan_id":"cebpf4jnsgd1na2vs0mg"},{"bike_id":"e1433b0a-8e5d-4cc6-a777-af1576df4faf","system_id":"levelo_inurba_marseille","lat":43.28722,"lon":5.39971,"is_reserved":false,"is_disabled":false,"rental_uris":{"android":"levelo://app?vid=e1433b0a-8e5d-4cc6-a777-af1576df4faf","ios":"levelo://app?vid=e1433b0a-8e5d-4cc6-a777-af1576df4faf"},"vehicle_type_id":"4","last_reported":1744412965,"current_range_meters":17200,"station_id":"ce4bho92rcd13ifvqh3g","pricing_plan_id":"cebpf4jnsgd1na2vs0mg"},{"bike_id":"00aafc42-3d20-4f0b-ab53-b588e1d8f500","system_id":"levelo_inurba_marseille","lat":43.25487,"lon":5.37642,"is_reserved":false,"is_disabled":false,"rental_uris":{"android":"levelo://app?vid=00aafc42-3d20-4f0b-ab53-b588e1d8f500","ios":"levelo://app?vid=00aafc42-3d20-4f0b-ab53-b588e1d8f500"},"vehicle_type_id":"4","last_reported":1744412965,"current_range_meters":17200,"station_id":"ce4bhh12rcd13ifvqff0","pricing_plan_id":"cebpf4jnsgd1na2vs0mg"},{"bike_id":"2c4948ed-2521-4cb9-8a6a-0591f4f9a06a","system_id":"levelo_inurba_marseille","lat":43.31055,"lon":5.38372,"is_reserved":false,"is_disabled":false,"rental_uris":{"android":"levelo://app?vid=2c4948ed-2521-4cb9-8a6a-0591f4f9a06a","ios":"levelo://app?vid=2c4948ed-2521-4cb9-8a6a-0591f4f9a06a"},"vehicle_type_id":"4","last_reported":1744412965,"current_range_meters":17200,"station_id":"ce4bgv92rcd13ifvqcr0","pricing_plan_id":"cebpf4jnsgd1na2vs0mg"},{"bike_id":"3e64ba0d-bb65-4d6e-9f9c-8236f65520bd","system_id":"levelo_inurba_marseille","lat":43.3035,"lon":5.38587,"is_reserved":false,"is_disabled":false,"rental_uris":{"android":"levelo://app?vid=3e64ba0d-bb65-4d6e-9f9c-8236f65520bd","ios":"levelo://app?vid=3e64ba0d-bb65-4d6e-9f9c-8236f65520bd"},"vehicle_type_id":"4","last_reported":1744412965,"current_range_meters":17200,"station_id":"","pricing_plan_id":"cebpf4jnsgd1na2vs0mg"},{"bike_id":"2a768501-9320-4bc9-a417-15b58706b922","system_id":"levelo_inurba_marseille","lat":43.27563,"lon":5.384141,"is_reserved":false,"is_disabled":false,"rental_uris":{"android":"levelo://app?vid=2a768501-9320-4bc9-a417-15b58706b922","ios":"levelo://app?vid=2a768501-9320-4bc9-a417-15b58706b922"},"vehicle_type_id":"4","last_reported":1744412965,"current_range_meters":17200,"station_id":"ce4bhh92rcd13ifvqfi0","pricing_plan_id":"cebpf4jnsgd1na2vs0mg"},{"bike_id":"e88a1fc3-a242-4ef5-90d9-2e9abc8d2acd","system_id":"levelo_inurba_marseille","lat":43.30936,"lon":5.40143,"is_reserved":false,"is_disabled":false,"rental_uris":{"android":"levelo://app?vid=e88a1fc3-a242-4ef5-90d9-2e9abc8d2acd","ios":"levelo://app?vid=e88a1fc3-a242-4ef5-90d9-2e9abc8d2acd"},"vehicle_type_id":"4","last_reported":1744412965,"current_range_meters":17600,"station_id":"ce4bgvp2rcd13ifvqct0","pricing_plan_id":"cebpf4jnsgd1na2vs0mg"},{"bike_id":"e5675cf0-1364-42fd-9193-fe1a526ac881","system_id":"levelo_inurba_marseille","lat":43.25501,"lon":5.37659,"is_reserved":false,"is_disabled":false,"rental_uris":{"android":"levelo://app?vid=e5675cf0-1364-42fd-9193-fe1a526ac881","ios":"levelo://app?vid=e5675cf0-1364-42fd-9193-fe1a526ac881"},"vehicle_type_id":"4","last_reported":1744412965,"current_range_meters":17600,"station_id":"ce4bhh12rcd13ifvqff0","pricing_plan_id":"cebpf4jnsgd1na2vs0mg"},{"bike_id":"96b23522-000c-40e6-adc6-3eb838a0a125","system_id":"levelo_inurba_marseille","lat":43.2407,"lon":5.37761,"is_reserved":false,"is_disabled":false,"rental_uris":{"android":"levelo://app?vid=96b23522-000c-40e6-adc6-3eb838a0a125","ios":"levelo://app?vid=96b23522-000c-40e6-adc6-3eb838a0a125"},"vehicle_type_id":"4","last_reported":1744412965,"current_range_meters":17600,"station_id":"ce4bhnp2rcd13ifvqgvg","pricing_plan_id":"cebpf4jnsgd1na2vs0mg"},{"bike_id":"03e60ad2-482f-4db6-ad4b-e0c44a248f9d","system_id":"levelo_inurba_marseille","lat":43.29529,"lon":5.38545,"is_reserved":false,"is_disabled":false,"rental_uris":{"android":"levelo://app?vid=03e60ad2-482f-4db6-ad4b-e0c44a248f9d","ios":"levelo://app?vid=03e60ad2-482f-4db6-ad4b-e0c44a248f9d"},"vehicle_type_id":"4","last_reported":1744412965,"current_range_meters":17600,"station_id":"ce4bgih2rcd13ifvqba0","pricing_plan_id":"cebpf4jnsgd1na2vs0mg"},{"bike_id":"8b4e639f-96f8-4cf5-9709-929a75e95231","system_id":"levelo_inurba_marseille","lat":43.30432,"lon":5.3888,"is_reserved":false,"is_disabled":false,"rental_uris":{"android":"levelo://app?vid=8b4e639f-96f8-4cf5-9709-929a75e95231","ios":"levelo://app?vid=8b4e639f-96f8-4cf5-9709-929a75e95231"},"vehicle_type_id":"4","last_reported":1744412965,"current_range_meters":17600,"station_id":"ce4bgk12rcd13ifvqbi0","pricing_plan_id":"cebpf4jnsgd1na2vs0mg"},