{"last_updated":1741241653,"ttl":60,"version":"2.2","data":{"bikes":[{"bike_id":"dd321bc4-8440-47e6-8fbe-00b7e1a81900","system_id":"levelo_inurba_marseille","lat":43.25077,"lon":5.39527,"is_reserved":false,"is_disabled":false,"rental_uris":{"android":"levelo://app?vid=dd321bc4-8440-47e6-8fbe-00b7e1a81900","ios":"levelo://app?vid=dd321bc4-8440-47e6-8fbe-00b7e1a81900"},"vehicle_type_id":"4","last_reported":1741241653,"current_range_meters":2800,"station_id":"ce4bhm12rcd13ifvqgkg","pricing_plan_id":"cebpf4jnsgd1na2vs0mg"},{"bike_id":"8fe93df6-2fe6-41ee-aeb3-48d22ff05290","system_id":"levelo_inurba_marseille","lat":43.29173,"lon":5.38603,"is_reserved":false,"is_disabled":false,"rental_uris":{"android":"levelo://app?vid=8fe93df6-2fe6-41ee-aeb3-48d22ff05290","ios":"levelo://app?vid=8fe93df6-2fe6-41ee-aeb3-48d22ff05290"},"vehicle_type_id":"4","last_reported":1741241653,"current_range_meters":3200,"station_id":"","pricing_plan_id":"cebpf4jnsgd1na2vs0mg"},{"bike_id":"c95430ac-dd11-4fa2-a2ad-82b48573bf5b","system_id":"levelo_inurba_marseille","lat":43.295723,"lon":5.399675,"is_reserved":false,"is_disabled":false,"rental_uris":{"android":"levelo://app?vid=c95430ac-dd11-4fa2-a2ad-82b48573bf5b","ios":"levelo://app?vid=c95430ac-dd11-4fa2-a2ad-82b48573bf5b"},"vehicle_type_id":"4","last_reported":1741241653,"current_range_meters":3200,"station_id":"ce4bh312rcd13ifvqdj0","pricing_plan_id":"cebpf4jnsgd1na2vs0mg"},{"bike_id":"1dfd9dc3-4ac7-4246-bb53-a5c1cb36f26a","system_id":"levelo_inurba_marseille","lat":43.285647,"lon":5.394971,"is_reserved":false,"is_disabled":false,"rental_uris":{"android":"levelo://app?vid=1dfd9dc3-4ac7-4246-bb53-a5c1cb36f26a","ios":"levelo://app?vid=1dfd9dc3-4ac7-4246-bb53-a5c1cb36f26a"},"vehicle_type_id":"4","last_reported":1741241653,"current_range_meters":3200,"station_id":"ce4bh292rcd13ifvqdg0","pricing_plan_id":"cebpf4jnsgd1na2vs0mg"},{"bike_id":"60125d3e-76e6-4ad7-80aa-f6fc969d5612","system_id":"levelo_inurba_marseille","lat":43.31265,"lon":5.40148,"is_reserved":false,"is_disabled":false,"rental_uris":{"android":"levelo://app?vid=60125d3e-76e6-4ad7-80aa-f6fc969d5612","ios":"levelo://app?vid=60125d3e-76e6-4ad7-80aa-f6fc969d5612"},"vehicle_type_id":"4","last_reported":1741241653,"current_range_meters":3200,"station_id":"ce4bh092rcd13ifvqd30","pricing_plan_id":"cebpf4jnsgd1na2vs0mg"},{"bike_id":"dfcf7507-41d1-4d8b-b298-9685f03bd643","system_id":"levelo_inurba_marseille","lat":43.26498,"lon":5.39588,"is_reserved":false,"is_disabled":false,"rental_uris":{"android":"levelo://app?vid=dfcf7507-41d1-4d8b-b298-9685f03bd643","ios":"levelo://app?vid=dfcf7507-41d1-4d8b-b298-9685f03bd643"},"vehicle_type_id":"4","last_reported":1741241653,"current_range_meters":3200,"station_id":"ce4bhi12rcd13ifvqfq0","pricing_plan_id":"cebpf4jnsgd1na2vs0mg"},{"bike_id":"8698972e-96ac-456d-a00f-04447f94932f","system_id":"levelo_inurba_marseille","lat":43.28405,"lon":5.37498,"is_reserved":false,"is_disabled":false,"rental_uris":{"android":"levelo://app?vid=8698972e-96ac-456d-a00f-04447f94932f","ios":"levelo://app?vid=8698972e-96ac-456d-a00f-04447f94932f"},"vehicle_type_id":"4","last_reported":1741241653,"current_range_meters":3200,"station_id":"ce4bh412rcd13ifvqds0","pricing_plan_id":"cebpf4jnsgd1na2vs0mg"},{"bike_id":"ee1d2ad1-36ca-49dd-a328-f2a9a9994ecb","system_id":"levelo_inurba_marseille","lat":43.31079,"lon":5.3811,"is_reserved":false,"is_disabled":false,"rental_uris":{"android":"levelo://app?vid=ee1d2ad1-36ca-49dd-a328-f2a9a9994ecb","ios":"levelo://app?vid=ee1d2ad1-36ca-49dd-a328-f2a9a9994ecb"},"vehicle_type_id":"4","last_reported":1741241653,"current_range_meters":3600,"station_id":"","pricing_plan_id":"cebpf4jnsgd1na2vs0mg"},{"bike_id":"54991513-f878-4116-a08f-541b88281cf9","system_id":"levelo_inurba_marseille","lat":43.27995,"lon":5.39993,"is_reserved":false,"is_disabled":true,"rental_uris":{"android":"levelo://app?vid=54991513-f878-4116-a08f-541b88281cf9","ios":"levelo://app?vid=54991513-f878-4116-a08f-541b88281cf9"},"vehicle_type_id":"4","last_reported":1741241653,"current_range_meters":3600,"station_id":"ce4bho92rcd13ifvqh4g","pricing_plan_id":"cebpf4jnsgd1na2vs0mg"},{"bike_id":"6920cc25-12b6-43e4-86fe-9bf628407024","system_id":"levelo_inurba_marseille","lat":43.30154,"lon":5.38081,"is_reserved":false,"is_disabled":false,"rental_uris":{"android":"levelo://app?vid=6920cc25-12b6-43e4-86fe-9bf628407024","ios":"levelo://app?vid=6920cc25-12b6-43e4-86fe-9bf628407024"},"vehicle_type_id":"4","last_reported":1741241653,"current_range_meters":4000,"station_id":"ce4bgjp2rcd13ifvqbh0","pricing_plan_id":"cebpf4jnsgd1na2vs0mg"},{"bike_id":"d6a7690f-05a2-45bc-bfc1-fc5ae56e7bff","system_id":"levelo_inurba_marseille","lat":43.30203,"lon":5.39487,"is_reserved":false,"is_disabled":false,"rental_uris":{"android":"levelo://app?vid=d6a7690f-05a2-45bc-bfc1-fc5ae56e7bff","ios":"levelo://app?vid=d6a7690f-05a2-45bc-bfc1-fc5ae56e7bff"},"vehicle_type_id":"4","last_reported":1741241653,"current_range_meters":4000,"station_id":"ce4bh0p2rcd13ifvqd70","pricing_plan_id":"cebpf4jnsgd1na2vs0mg"},{"bike_id":"98c1dba0-a5ae-4c3d-9368-039209b928be","system_id":"levelo_inurba_marseille","lat":43.240755,"lon":5.37751,"is_reserved":false,"is_disabled":false,"rental_uris":{"android":"levelo://app?vid=98c1dba0-a5ae-4c3d-9368-039209b928be","ios":"levelo://app?vid=98c1dba0-a5ae-4c3d-9368-039209b928be"},"vehicle_type_id":"4","last_reported":1741241653,"current_range_meters":4400,"station_id":"ce4bhnp2rcd13ifvqgvg","pricing_plan_id":"cebpf4jnsgd1na2vs0mg"},{"bike_id":"c3e12cd0-5b55-4fa8-9b46-bb2eb8bd5487","system_id":"levelo_inurba_marseille","lat":43.30917,"lon":5.40174,"is_reserved":false,"is_disabled":true,"rental_uris":{"android":"levelo://app?vid=c3e12cd0-5b55-4fa8-9b46-bb2eb8bd5487","ios":"levelo://app?vid=c3e12cd0-5b55-4fa8-9b46-bb2eb8bd5487"},"vehicle_type_id":"4","last_reported":1741241653,"current_range_meters":4400,"station_id":"ce4bgvp2rcd13ifvqct0","pricing_plan_id":"cebpf4jnsgd1na2vs0mg"},{"bike_id":"f6662bde-1632-4b0f-a966-f86b33b7c3b9","system_id":"levelo_inurba_marseille","lat":43.33746,"lon":5.37489,"is_reserved":false,"is_disabled":false,"rental_uris":{"android":"levelo://app?vid=f6662bde-1632-4b0f-a966-f86b33b7c3b9","ios":"levelo://app?vid=f6662bde-1632-4b0f-a966-f86b33b7c3b9"},"vehicle_type_id":"4","last_reported":1741241653,"current_range_meters":4800,"station_id":"","pricing_plan_id":"cebpf4jnsgd1na2vs0mg"},{"bike_id":"172bbbdd-4a99-4187-9a69-6d6e66a5b2dc","system_id":"levelo_inurba_marseille","lat":43.270529,"lon":5.402631,"is_reserved":false,"is_disabled":false,"rental_uris":{"android":"levelo://app?vid=172bbbdd-4a99-4187-9a69-6d6e66a5b2dc","ios":"levelo://app?vid=172bbbdd-4a99-4187-9a69-6d6e66a5b2dc"},"vehicle_type_id":"4","last_reported":1741241653,"current_range_meters":4800,"station_id":"ce4bhk92rcd13ifvqgc0","pricing_plan_id":"cebpf4jnsgd1na2vs0mg"},{"bike_id":"de44d09a-d4db-4ce3-a2dd-62f4dc2e96ab","system_id":"levelo_inurba_marseille","lat":43.28172,"lon":5.42805,"is_reserved":false,"is_disabled":false,"rental_uris":{"android":"levelo://app?vid=de44d09a-d4db-4ce3-a2dd-62f4dc2e96ab","ios":"levelo://app?vid=de44d09a-d4db-4ce3-a2dd-62f4dc2e96ab"},"vehicle_type_id":"4","last_reported":1741241653,"current_range_meters":4800,"station_id":"","pricing_plan_id":"cebpf4jnsgd1na2vs0mg"},{"bike_id":"5d327b88-d8a2-4c59-9a43-4a7a4b07402a","system_id":"levelo_inurba_marseille","lat":43.29536,"lon":5.39056,"is_reserved":false,"is_disabled":true,"rental_uris":{"android":"levelo://app?vid=5d327b88-d8a2-4c59-9a43-4a7a4b07402a","ios":"levelo://app?vid=5d327b88-d8a2-4c59-9a43-4a7a4b07402a"},"vehicle_type_id":"4","last_reported":1741241653,"current_range_meters":4800,"station_id":"ce4bh3p2rcd13ifvqdp0","pricing_plan_id":"cebpf4jnsgd1na2vs0mg"},{"bike_id":"37245f92-27b0-4d71-94ad-9f00978bde25","system_id":"levelo_inurba_marseille","lat":43.27988,"lon":5.40022,"is_reserved":false,"is_disabled":true,"rental_uris":{"android":"levelo://app?vid=37245f92-27b0-4d71-94ad-9f00978bde25","ios":"levelo://app?vid=37245f92-27b0-4d71-94ad-9f00978bde25"},"vehicle_type_id":"4","last_reported":1741241653,"current_range_meters":4800,"station_id":"ce4bho92rcd13ifvqh4g","pricing_plan_id":"cebpf4jnsgd1na2vs0mg"},{"bike_id":"a00e1ce6-254a-4bb1-a996-2f404856539a","system_id":"levelo_inurba_marseille","lat":43.280838,"lon":5.396516,"is_reserved":false,"is_disabled":false,"rental_uris":{"android":"levelo://app?vid=a00e1ce6-254a-4bb1-a996-2f404856539a","ios":"levelo://app?vid=a00e1ce6-254a-4bb1-a996-2f404856539a"},"vehicle_type_id":"4","last_reported":1741241653,"current_range_meters":5600,"station_id":"ce4bho12rcd13ifvqh2g","pricing_plan_id":"cebpf4jnsgd1na2vs0mg"},{"bike_id":"541b7efd-860a-4d8b-831a-30746bc829c1","system_id":"levelo_inurba_marseille","lat":43.323539,"lon":5.388782,"is_reserved":false,"is_disabled":false,"rental_uris":{"android":"levelo://app?vid=541b7efd-860a-4d8b-831a-30746bc829c1","ios":"levelo://app?vid=541b7efd-860a-4d8b-831a-30746bc829c1"},"vehicle_type_id":"4","last_reported":1741241653,"current_range_meters":5600,"station_id":"ce4bhqp2rcd13ifvqhog","pricing_plan_id":"cebpf4jnsgd1na2vs0mg"},{"bike_id":"2f617cd9-3efc-47a3-a843-17ede9fd2cdf","system_id":"levelo_inurba_marseille","lat":43.30669,"lon":5.39522,"is_reserved":false,"is_disabled":false,"rental_uris":{"android":"levelo://app?vid=2f617cd9-3efc-47a3-a843-17ede9fd2cdf","ios":"levelo://app?vid=2f617cd9-3efc-47a3-a843-17ede9fd2cdf"},"vehicle_type_id":"4","last_reported":1741241653,"current_range_meters":5600,"station_id":"","pricing_plan_id":"cebpf4jnsgd1na2vs0mg"},{"bike_id":"44a7153b-0fd7-4509-836b-676bbf84fb06","system_id":"levelo_inurba_marseille","lat":43.23203,"lon":5.35585,"is_reserved":false,"is_disabled":false,"rental_uris":{"android":"levelo://app?vid=44a7153b-0fd7-4509-836b-676bbf84fb06","ios":"levelo://app?vid=44a7153b-0fd7-4509-836b-676bbf84fb06"},"vehicle_type_id":"4","last_reported":1741241653,"current_range_meters":5600,"station_id":"ce4bhu92rcd13ifvqi70","pricing_plan_id":"cebpf4jnsgd1na2vs0mg"},{"bike_id":"21bc0f69-103c-4890-8f89-c802d95848d7","system_id":"levelo_inurba_marseille","lat":43.2439,"lon":5.37066,"is_reserved":false,"is_disabled":false,"rental_uris":{"android":"levelo://app?vid=21bc0f69-103c-4890-8f89-c802d95848d7","ios":"levelo://app?vid=21bc0f69-103c-4890-8f89-c802d95848d7"},"vehicle_type_id":"4","last_reported":1741241653,"current_range_meters":6000,"station_id":"ce4bhhh2rcd13ifvqfk0","pricing_plan_id":"cebpf4jnsgd1na2vs0mg"},{"bike_id":"637cfd8c-56ac-4671-96a5-3767f3275b3b","system_id":"levelo_inurba_marseille","lat":43.30154,"lon":5.38081,"is_reserved":false,"is_disabled":false,"rental_uris":{"android":"levelo://app?vid=637cfd8c-56ac-4671-96a5-3767f3275b3b","ios":"levelo://app?vid=637cfd8c-56ac-4671-96a5-3767f3275b3b"},"vehicle_type_id":"4","last_reported":1741241653,"current_range_meters":6000,"station_id":"ce4bgjp2rcd13ifvqbh0","pricing_plan_id":"cebpf4jnsgd1na2vs0mg"},{"bike_id":"beb3e6eb-0a2a-4b02-b21b-1804c07aaa14","system_id":"levelo_inurba_marseille","lat":43.30464,"lon":5.37917,"is_reserved":false,"is_disabled":false,"rental_uris":{"android":"levelo://app?vid=beb3e6eb-0a2a-4b02-b21b-1804c07aaa14","ios":"levelo://app?vid=beb3e6eb-0a2a-4b02-b21b-1804c07aaa14"},"vehicle_type_id":"4","last_reported":1741241653,"current_range_meters":6400,"station_id":"ce4bgup2rcd13ifvqcn0","pricing_plan_id":"cebpf4jnsgd1na2vs0mg"},{"bike_id":"b0603f8c-190f-4853-a7e5-0d0ca367341f","system_id":"levelo_inurba_marseille","lat":43.281597,"lon":5.42673,"is_reserved":false,"is_disabled":false,"rental_uris":{"android":"levelo://app?vid=b0603f8c-190f-4853-a7e5-0d0ca367341f","ios":"levelo://app?vid=b0603f8c-190f-4853-a7e5-0d0ca367341f"},"vehicle_type_id":"4","last_reported":1741241653,"current_range_meters":6000,"station_id":"ce4bhnh2rcd13ifvqgug","pricing_plan_id":"cebpf4jnsgd1na2vs0mg"},{"bike_id":"e778a858-6f27-41db-856a-e4a074959665","system_id":"levelo_inurba_marseille","lat":43.2848,"lon":5.38572,"is_reserved":false,"is_disabled":false,"rental_uris":{"android":"levelo://app?vid=e778a858-6f27-41db-856a-e4a074959665","ios":"levelo://app?vid=e778a858-6f27-41db-856a-e4a074959665"},"vehicle_type_id":"4","last_reported":1741241653,"current_range_meters":6400,"station_id":"ce4bh8p2rcd13ifvqeb0","pricing_plan_id":"cebpf4jnsgd1na2vs0mg"},{"bike_id":"ed663efe-074b-4aba-b0e9-f846e4bd3747","system_id":"levelo_inurba_marseille","lat":43.29289,"lon":5.40933,"is_reserved":false,"is_disabled":false,"rental_uris":{"android":"levelo://app?vid=ed663efe-074b-4aba-b0e9-f846e4bd3747","ios":"levelo://app?vid=ed663efe-074b-4aba-b0e9-f846e4bd3747"},"vehicle_type_id":"4","last_reported":1741241653,"current_range_meters":6400,"station_id":"ce4bh192rcd13ifvqdc0","pricing_plan_id":"cebpf4jnsgd1na2vs0mg"},{"bike_id":"7f3767e1-0b9d-4bb2-883f-156510d457d1","system_id":"levelo_inurba_marseille","lat":43.279,"lon":5.38028,"is_reserved":false,"is_disabled":false,"rental_uris":{"android":"levelo://app?vid=7f3767e1-0b9d-4bb2-883f-156510d457d1","ios":"levelo://app?vid=7f3767e1-0b9d-4bb2-883f-156510d457d1"},"vehicle_type_id":"4","last_reported":1741241653,"current_range_meters":6400,"station_id":"ce4bhf92rcd13ifvqf50","pricing_plan_id":"cebpf4jnsgd1na2vs0mg"},{"bike_id":"55f3137e-de59-4df3-bc43-34575a42bfd9","system_id":"levelo_inurba_marseille","lat":43.24119,"lon":5.37687,"is_reserved":false,"is_disabled":false,"rental_uris":{"android":"levelo://app?vid=55f3137e-de59-4df3-bc43-34575a42bfd9","ios":"levelo://app?vid=55f3137e-de59-4df3-bc43-34575a42bfd9"},"vehicle_type_id":"4","last_reported":1741241653,"current_range_meters":6800,"station_id":"","pricing_plan_id":"cebpf4jnsgd1na2vs0mg"},{"bike_id":"8d9ccc4a-1011-4c35-8110-21069259a7d9","system_id":"levelo_inurba_marseille","lat":43.29098,"lon":5.38162,"is_reserved":false,"is_disabled":true,"rental_uris":{"android":"levelo://app?vid=8d9ccc4a-1011-4c35-8110-21069259a7d9","ios":"levelo://app?vid=8d9ccc4a-1011-4c35-8110-21069259a7d9"},"vehicle_type_id":"4","last_reported":1741241653,"current_range_meters":6800,"station_id":"ce4bh512rcd13ifvqe2g","pricing_plan_id":"cebpf4jnsgd1na2vs0mg"},{"bike_id":"97399946-e3e6-4c82-9064-b3472fe1a6d0","system_id":"levelo_inurba_marseille","lat":43.26209,"lon":5.40453,"is_reserved":false,"is_disabled":true,"rental_uris":{"android":"levelo://app?vid=97399946-e3e6-4c82-9064-b3472fe1a6d0","ios":"levelo://app?vid=97399946-e3e6-4c82-9064-b3472fe1a6d0"},"vehicle_type_id":"4","last_reported":1741241653,"current_range_meters":6800,"station_id":"","pricing_plan_id":"cebpf4jnsgd1na2vs0mg"},{"bike_id":"9506e6a0-a2d5-4881-a618-ef7e215e5225","system_id":"levelo_inurba_marseille","lat":43.30866,"lon":5.39682,"is_reserved":false,"is_disabled":false,"rental_uris":{"android":"levelo://app?vid=9506e6a0-a2d5-4881-a618-ef7e215e5225","ios":"levelo://app?vid=9506e6a0-a2d5-4881-a618-ef7e215e5225"},"vehicle_type_id":"4","last_reported":1741241653,"current_range_meters":6800,"station_id":"ce4bh012rcd13ifvqcv0","pricing_plan_id":"cebpf4jnsgd1na2vs0mg"},{"bike_id":"466033f8-ea52-4086-be4d-613149ddf7f7","system_id":"levelo_inurba_marseille","lat":43.26191,"lon":5.40443,"is_reserved":false,"is_disabled":false,"rental_uris":{"android":"levelo://app?vid=466033f8-ea52-4086-be4d-613149ddf7f7","ios":"levelo://app?vid=466033f8-ea52-4086-be4d-613149ddf7f7"},"vehicle_type_id":"4","last_reported":1741241653,"current_range_meters":6800,"station_id":"ce4bhmh2rcd13ifvqgmg","pricing_plan_id":"cebpf4jnsgd1na2vs0mg"},{"bike_id":"ec97ed30-026a-4a69-90ce-bf9a866b544b","system_id":"levelo_inurba_marseille","lat":43.26552,"lon":5.3903,"is_reserved":false,"is_disabled":false,"rental_uris":{"android":"levelo://app?vid=ec97ed30-026a-4a69-90ce-bf9a866b544b","ios":"levelo://app?vid=ec97ed30-026a-4a69-90ce-bf9a866b544b"},"vehicle_type_id":"4","last_reported":1741241653,"current_range_meters":6800,"station_id":"ce4bhe12rcd13ifvqf30","pricing_plan_id":"cebpf4jnsgd1na2vs0mg"},{"bike_id":"3439a580-4b13-4596-bc3a-9d40342307f1","system_id":"levelo_inurba_marseille","lat":43.32097,"lon":5.36785,"is_reserved":false,"is_disabled":false,"rental_uris":{"android":"levelo://app?vid=3439a580-4b13-4596-bc3a-9d40342307f1","ios":"levelo://app?vid=3439a580-4b13-4596-bc3a-9d40342307f1"},"vehicle_type_id":"4","last_reported":1741241653,"current_range_meters":6800,"station_id":"ce4bhrh2rcd13ifvqhug","pricing_plan_id":"cebpf4jnsgd1na2vs0mg"},{"bike_id":"6f9f418f-eed5-442f-9d63-d94181e20d2b","system_id":"levelo_inurba_marseille","lat":43.30885,"lon":5.39656,"is_reserved":false,"is_disabled":false,"rental_uris":{"android":"levelo://app?vid=6f9f418f-eed5-442f-9d63-d94181e20d2b","ios":"levelo://app?vid=6f9f418f-eed5-442f-9d63-d94181e20d2b"},"vehicle_type_id":"4","last_reported":1741241653,"current_range_meters":7200,"station_id":"ce4bh012rcd13ifvqcv0","pricing_plan_id":"cebpf4jnsgd1na2vs0mg"},{"bike_id":"74966194-e3ff-4430-818d-3b37e8800a21","system_id":"levelo_inurba_marseille","lat":43.27924,"lon":5.38755,"is_reserved":false,"is_disabled":false,"rental_uris":{"android":"levelo://app?vid=74966194-e3ff-4430-818d-3b37e8800a21","ios":"levelo://app?vid=74966194-e3ff-4430-818d-3b37e8800a21"},"vehicle_type_id":"4","last_reported":1741241653,"current_range_meters":7200,"station_id":"ce4bhg12rcd13ifvqf80","pricing_plan_id":"cebpf4jnsgd1na2vs0mg"},{"bike_id":"7d0376fc-3863-49a9-b6cd-b6d78ab7d7d0","system_id":"levelo_inurba_marseille","lat":43.28097,"lon":5.37839,"is_reserved":false,"is_disabled":false,"rental_uris":{"android":"levelo://app?vid=7d0376fc-3863-49a9-b6cd-b6d78ab7d7d0","ios":"levelo://app?vid=7d0376fc-3863-49a9-b6cd-b6d78ab7d7d0"},"vehicle_type_id":"4","last_reported":1741241653,"current_range_meters":7200,"station_id":"ce4bha12rcd13ifvqee0","pricing_plan_id":"cebpf4jnsgd1na2vs0mg"},{"bike_id":"ff22ac5f-4107-4c43-91dd-83932ff30650","system_id":"levelo_inurba_marseille","lat":43.26681,"lon":5.3828,"is_reserved":false,"is_disabled":true,"rental_uris":{"android":"levelo://app?vid=ff22ac5f-4107-4c43-91dd-83932ff30650","ios":"levelo://app?vid=ff22ac5f-4107-4c43-91dd-83932ff30650"},"vehicle_type_id":"4","last_reported":1741241653,"current_range_meters":7200,"station_id":"ce4bhg92rcd13ifvqf90","pricing_plan_id":"cebpf4jnsgd1na2vs0mg"},{"bike_id":"695828ba-2cea-49da-8d0e-3782d691adc5","system_id":"levelo_inurba_marseille","lat":43.27188,"lon":5.40997,"is_reserved":false,"is_disabled":false,"rental_uris":{"android":"levelo://app?vid=695828ba-2cea-49da-8d0e-3782d691adc5","ios":"levelo://app?vid=695828ba-2cea-49da-8d0e-3782d691adc5"},"vehicle_type_id":"4","last_reported":1741241653,"current_range_meters":7200,"station_id":"ce4bhl12rcd13ifvqgf0","pricing_plan_id":"cebpf4jnsgd1na2vs0mg"},{"bike_id":"ebd6a47a-14eb-49ff-bb63-84d8c6e531ce","system_id":"levelo_inurba_marseille","lat":43.24809,"lon":5.37451,"is_reserved":false,"is_disabled":false,"rental_uris":{"android":"levelo://app?vid=ebd6a47a-14eb-49ff-bb63-84d8c6e531ce","ios":"levelo://app?vid=ebd6a47a-14eb-49ff-bb63-84d8c6e531ce"},"vehicle_type_id":"4","last_reported":1741241653,"current_range_meters":7200,"station_id":"ce4bhgh2rcd13ifvqfb0","pricing_plan_id":"cebpf4jnsgd1na2vs0mg"},{"bike_id":"67bea12d-33fd-4eac-b275-4a5b5dd193e3","system_id":"levelo_inurba_marseille","lat":43.27178,"lon":5.40981,"is_reserved":false,"is_disabled":false,"rental_uris":{"android":"levelo://app?vid=67bea12d-33fd-4eac-b275-4a5b5dd193e3","ios":"levelo://app?vid=67bea12d-33fd-4eac-b275-4a5b5dd193e3"},"vehicle_type_id":"4","last_reported":1741241653,"current_range_meters":8000,"station_id":"ce4bhl12rcd13ifvqgf0","pricing_plan_id":"cebpf4jnsgd1na2vs0mg"},{"bike_id":"c55557ad-1ed5-4997-aee7-ac92107f14b6","system_id":"levelo_inurba_marseille","lat":43.264671,"lon":5.374949,"is_reserved":false,"is_disabled":false,"rental_uris":{"android":"levelo://app?vid=c55557ad-1ed5-4997-aee7-ac92107f14b6","ios":"levelo://app?vid=c55557ad-1ed5-4997-aee7-ac92107f14b6"},"vehicle_type_id":"4","last_reported":1741241653,"current_range_meters":8000,"station_id":"","pricing_plan_id":"cebpf4jnsgd1na2vs0mg"},{"bike_id":"931dbda0-5b3f-48fa-8441-4dcb748976d6","system_id":"levelo_inurba_marseille","lat":43.295695,"lon":5.39974,"is_reserved":false,"is_disabled":false,"rental_uris":{"android":"levelo://app?vid=931dbda0-5b3f-48fa-8441-4dcb748976d6","ios":"levelo://app?vid=931dbda0-5b3f-48fa-8441-4dcb748976d6"},"vehicle_type_id":"4","last_reported":1741241653,"current_range_meters":8000,"station_id":"ce4bh312rcd13ifvqdj0","pricing_plan_id":"cebpf4jnsgd1na2vs0mg"},{"bike_id":"04602ea3-ac36-4387-91cd-683c524f904f","system_id":"levelo_inurba_marseille","lat":43.27986,"lon":5.40006,"is_reserved":false,"is_disabled":true,"rental_uris":{"android":"levelo://app?vid=04602ea3-ac36-4387-91cd-683c524f904f","ios":"levelo://app?vid=04602ea3-ac36-4387-91cd-683c524f904f"},"vehicle_type_id":"4","last_reported":1741241653,"current_range_meters":8000,"station_id":"ce4bho92rcd13ifvqh4g","pricing_plan_id":"cebpf4jnsgd1na2vs0mg"},{"bike_id":"c73f0761-02a2-4297-9e89-092909cdf69b","system_id":"levelo_inurba_marseille","lat":43.3096,"lon":5.39081,"is_reserved":false,"is_disabled":false,"rental_uris":{"android":"levelo://app?vid=c73f0761-02a2-4297-9e89-092909cdf69b","ios":"levelo://app?vid=c73f0761-02a2-4297-9e89-092909cdf69b"},"vehicle_type_id":"4","last_reported":1741241653,"current_range_meters":10000,"station_id":"ce4bgup2rcd13ifvqco0","pricing_plan_id":"cebpf4jnsgd1na2vs0mg"},{"bike_id":"c3c9ecad-94db-4438-9fd2-f695a5cc6950","system_id":"levelo_inurba_marseille","lat":43.26222,"lon":5.40456,"is_reserved":false,"is_disabled":false,"rental_uris":{"android":"levelo://app?vid=c3c9ecad-94db-4438-9fd2-f695a5cc6950","ios":"levelo://app?vid=c3c9ecad-94db-4438-9fd2-f695a5cc6950"},"vehicle_type_id":"4","last_reported":1741241653,"current_range_meters":8000,"station_id":"ce4bhmh2rcd13ifvqgmg","pricing_plan_id":"cebpf4jnsgd1na2vs0mg"},{"bike_id":"d6ba82be-90e6-4543-b298-a7d041946b68","system_id":"levelo_inurba_marseille","lat":43.31168,"lon":5.38723,"is_reserved":false,"is_disabled":false,"rental_uris":{"android":"levelo://app?vid=d6ba82be-90e6-4543-b298-a7d041946b68","ios":"levelo://app?vid=d6ba82be-90e6-4543-b298-a7d041946b68"},"vehicle_type_id":"4","last_reported":1741241653,"current_range_meters":8000,"station_id":"ce4bgv12rcd13ifvqcp0","pricing_plan_id":"cebpf4jnsgd1na2vs0mg"},{"bike_id":"61a6adcd-dca9-42c7-a4d3-4975e7039d7e","system_id":"levelo_inurba_marseille","lat":43.2807,"lon":5.39642,"is_reserved":false,"is_disabled":false,"rental_uris":{"android":"levelo://app?vid=61a6adcd-dca9-42c7-a4d3-4975e7039d7e","ios":"levelo://app?vid=61a6adcd-dca9-42c7-a4d3-4975e7039d7e"},"vehicle_type_id":"4","last_reported":1741241653,"current_range_meters":8000,"station_id":"ce4bho12rcd13ifvqh2g","pricing_plan_id":"cebpf4jnsgd1na2vs0mg"},{"bike_id":"b14e61c0-b102-40bc-8ab8-4b6b40a5b831","system_id":"levelo_inurba_marseille","lat":43.25129,"lon":5.39528,"is_reserved":false,"is_disabled":false,"rental_uris":{"android":"levelo://app?vid=b14e61c0-b102-40bc-8ab8-4b6b40a5b831","ios":"levelo://app?vid=b14e61c0-b102-40bc-8ab8-4b6b40a5b831"},"vehicle_type_id":"4","last_reported":1741241653,"current_range_meters":8000,"station_id":"ce4bhm12rcd13ifvqgkg","pricing_plan_id":"cebpf4jnsgd1na2vs0mg"},{"bike_id":"35a63d3f-3cf5-4e65-898f-16f1f00b237d","system_id":"levelo_inurba_marseille","lat":43.3117,"lon":5.387118,"is_reserved":false,"is_disabled":false,"rental_uris":{"android":"levelo://app?vid=35a63d3f-3cf5-4e65-898f-16f1f00b237d","ios":"levelo://app?vid=35a63d3f-3cf5-4e65-898f-16f1f00b237d"},"vehicle_type_id":"4","last_reported":1741241653,"current_range_meters":8000,"station_id":"ce4bgv12rcd13ifvqcp0","pricing_plan_id":"cebpf4jnsgd1na2vs0mg"},{"bike_id":"2559b77d-c845-4f4b-b064-1a5e15203c14","system_id":"levelo_inurba_marseille","lat":43.308819,"lon":5.396293,"is_reserved":false,"is_disabled":false,"rental_uris":{"android":"levelo://app?vid=2559b77d-c845-4f4b-b064-1a5e15203c14","ios":"levelo://app?vid=2559b77d-c845-4f4b-b064-1a5e15203c14"},"vehicle_type_id":"4","last_reported":1741241653,"current_range_meters":8400,"station_id":"ce4bh012rcd13ifvqcv0","pricing_plan_id":"cebpf4jnsgd1na2vs0mg"},{"bike_id":"1491f781-a73e-4cda-9d45-779c1be45f56","system_id":"levelo_inurba_marseille","lat":43.28422,"lon":5.34993,"is_reserved":false,"is_disabled":false,"rental_uris":{"android":"levelo://app?vid=1491f781-a73e-4cda-9d45-779c1be45f56","ios":"levelo://app?vid=1491f781-a73e-4cda-9d45-779c1be45f56"},"vehicle_type_id":"4","last_reported":1741241653,"current_range_meters":8400,"station_id":"ce4bhbh2rcd13ifvqepg","pricing_plan_id":"cebpf4jnsgd1na2vs0mg"},{"bike_id":"be74d6e7-9922-4500-b00d-d407c7efd950","system_id":"levelo_inurba_marseille","lat":43.29211,"lon":5.3932,"is_reserved":false,"is_disabled":false,"rental_uris":{"android":"levelo://app?vid=be74d6e7-9922-4500-b00d-d407c7efd950","ios":"levelo://app?vid=be74d6e7-9922-4500-b00d-d407c7efd950"},"vehicle_type_id":"4","last_reported":1741241653,"current_range_meters":8400,"station_id":"ce4bh192rcd13ifvqdd0","pricing_plan_id":"cebpf4jnsgd1na2vs0mg"},{"bike_id":"f8a818ec-b7e9-4d1f-9bec-510cc5e6b980","system_id":"levelo_inurba_marseille","lat":43.2728,"lon":5.3921,"is_reserved":false,"is_disabled":true,"rental_uris":{"android":"levelo://app?vid=f8a818ec-b7e9-4d1f-9bec-510cc5e6b980","ios":"levelo://app?vid=f8a818ec-b7e9-4d1f-9bec-510cc5e6b980"},"vehicle_type_id":"4","last_reported":1741241653,"current_range_meters":8400,"station_id":"","pricing_plan_id":"cebpf4jnsgd1na2vs0mg"},{"bike_id":"82cfcb7e-a676-4400-b17b-48fb6d49c6fd","system_id":"levelo_inurba_marseille","lat":43.30878,"lon":5.39651,"is_reserved":false,"is_disabled":false,"rental_uris":{"android":"levelo://app?vid=82cfcb7e-a676-4400-b17b-48fb6d49c6fd","ios":"levelo://app?vid=82cfcb7e-a676-4400-b17b-48fb6d49c6fd"},"vehicle_type_id":"4","last_reported":1741241653,"current_range_meters":8400,"station_id":"ce4bh012rcd13ifvqcv0","pricing_plan_id":"cebpf4jnsgd1na2vs0mg"},{"bike_id":"7b4f8cff-ffb9-4dae-8741-5123a474b481","system_id":"levelo_inurba_marseille","lat":43.27897,"lon":5.39589,"is_reserved":false,"is_disabled":false,"rental_uris":{"android":"levelo://app?vid=7b4f8cff-ffb9-4dae-8741-5123a474b481","ios":"levelo://app?vid=7b4f8cff-ffb9-4dae-8741-5123a474b481"},"vehicle_type_id":"4","last_reported":1741241653,"current_range_meters":8400,"station_id":"ce4bhf92rcd13ifvqf40","pricing_plan_id":"cebpf4jnsgd1na2vs0mg"},{"bike_id":"983eb5f5-44ab-41a8-b99b-2892fcb7622b","system_id":"levelo_inurba_marseille","lat":43.29188,"lon":5.39337,"is_reserved":false,"is_disabled":false,"rental_uris":{"android":"levelo://app?vid=983eb5f5-44ab-41a8-b99b-2892fcb7622b","ios":"levelo://app?vid=983eb5f5-44ab-41a8-b99b-2892fcb7622b"},"vehicle_type_id":"4","last_reported":1741241653,"current_range_meters":8400,"station_id":"ce4bh192rcd13ifvqdd0","pricing_plan_id":"cebpf4jnsgd1na2vs0mg"},{"bike_id":"a3e68f67-a016-4853-b449-983ecd5c8454","system_id":"levelo_inurba_marseille","lat":43.25003,"lon":5.38932,"is_reserved":false,"is_disabled":false,"rental_uris":{"android":"levelo://app?vid=a3e68f67-a016-4853-b449-983ecd5c8454","ios":"levelo://app?vid=a3e68f67-a016-4853-b449-983ecd5c8454"},"vehicle_type_id":"4","last_reported":1741241653,"current_range_meters":8400,"station_id":"ce4bhgp2rcd13ifvqfd0","pricing_plan_id":"cebpf4jnsgd1na2vs0mg"},{"bike_id":"8eb96d8f-b81c-493a-a83e-4688a5f2c4db","system_id":"levelo_inurba_marseille","lat":43.30252,"lon":5.40056,"is_reserved":false,"is_disabled":false,"rental_uris":{"android":"levelo://app?vid=8eb96d8f-b81c-493a-a83e-4688a5f2c4db","ios":"levelo://app?vid=8eb96d8f-b81c-493a-a83e-4688a5f2c4db"},"vehicle_type_id":"4","last_reported":1741241653,"current_range_meters":8800,"station_id":"ce4bgvh2rcd13ifvqcs0","pricing_plan_id":"cebpf4jnsgd1na2vs0mg"},{"bike_id":"50d5929c-1fb5-401e-9d25-d9d9a5fc00bd","system_id":"levelo_inurba_marseille","lat":43.31349,"lon":5.38522,"is_reserved":false,"is_disabled":false,"rental_uris":{"android":"levelo://app?vid=50d5929c-1fb5-401e-9d25-d9d9a5fc00bd","ios":"levelo://app?vid=50d5929c-1fb5-401e-9d25-d9d9a5fc00bd"},"vehicle_type_id":"4","last_reported":1741241653,"current_range_meters":8800,"station_id":"ce4bgt92rcd13ifvqcf0","pricing_plan_id":"cebpf4jnsgd1na2vs0mg"},{"bike_id":"dd77cf1f-213c-4462-b964-b64fe4e4eb17","system_id":"levelo_inurba_marseille","lat":43.29782,"lon":5.37104,"is_reserved":false,"is_disabled":false,"rental_uris":{"android":"levelo://app?vid=dd77cf1f-213c-4462-b964-b64fe4e4eb17","ios":"levelo://app?vid=dd77cf1f-213c-4462-b964-b64fe4e4eb17"},"vehicle_type_id":"4","last_reported":1741241653,"current_range_meters":8800,"station_id":"ce4bgop2rcd13ifvqc1g","pricing_plan_id":"cebpf4jnsgd1na2vs0mg"},{"bike_id":"ecb30204-856e-4551-b122-313eabd56e36","system_id":"levelo_inurba_marseille","lat":43.26942,"lon":5.38672,"is_reserved":false,"is_disabled":false,"rental_uris":{"android":"levelo://app?vid=ecb30204-856e-4551-b122-313eabd56e36","ios":"levelo://app?vid=ecb30204-856e-4551-b122-313eabd56e36"},"vehicle_type_id":"4","last_reported":1741241653,"current_range_meters":8800,"station_id":"ce4bhh92rcd13ifvqfh0","pricing_plan_id":"cebpf4jnsgd1na2vs0mg"},{"bike_id":"67a86198-a3ee-4779-8045-74ddf30f3228","system_id":"levelo_inurba_marseille","lat":43.31112,"lon":5.37795,"is_reserved":false,"is_disabled":false,"rental_uris":{"android":"levelo://app?vid=67a86198-a3ee-4779-8045-74ddf30f3228","ios":"levelo://app?vid=67a86198-a3ee-4779-8045-74ddf30f3228"},"vehicle_type_id":"4","last_reported":1741241653,"current_range_meters":9200,"station_id":"ce4bgt92rcd13ifvqcg0","pricing_plan_id":"cebpf4jnsgd1na2vs0mg"},{"bike_id":"8e67c6c2-1f86-420e-855b-676e159ed831","system_id":"levelo_inurba_marseille","lat":43.23055,"lon":5.355,"is_reserved":false,"is_disabled":false,"rental_uris":{"android":"levelo://app?vid=8e67c6c2-1f86-420e-855b-676e159ed831","ios":"levelo://app?vid=8e67c6c2-1f86-420e-855b-676e159ed831"},"vehicle_type_id":"4","last_reported":1741241653,"current_range_meters":9200,"station_id":"cpo3342slgdg3j2ifvpg","pricing_plan_id":"cebpf4jnsgd1na2vs0mg"},{"bike_id":"57819f2e-c11d-4af4-b1ed-8e2e148b37e7","system_id":"levelo_inurba_marseille","lat":43.29275,"lon":5.40128,"is_reserved":false,"is_disabled":false,"rental_uris":{"android":"levelo://app?vid=57819f2e-c11d-4af4-b1ed-8e2e148b37e7","ios":"levelo://app?vid=57819f2e-c11d-4af4-b1ed-8e2e148b37e7"},"vehicle_type_id":"4","last_reported":1741241653,"current_range_meters":9200,"station_id":"ce4bh312rcd13ifvqdk0","pricing_plan_id":"cebpf4jnsgd1na2vs0mg"},{"bike_id":"bbe58264-4058-4d85-bc53-412f697f7416","system_id":"levelo_inurba_marseille","lat":43.30156,"lon":5.38082,"is_reserved":false,"is_disabled":false,"rental_uris":{"android":"levelo://app?vid=bbe58264-4058-4d85-bc53-412f697f7416","ios":"levelo://app?vid=bbe58264-4058-4d85-bc53-412f697f7416"},"vehicle_type_id":"4","last_reported":1741241653,"current_range_meters":9200,"station_id":"ce4bgjp2rcd13ifvqbh0","pricing_plan_id":"cebpf4jnsgd1na2vs0mg"},{"bike_id":"41fc5ccf-7cae-4a19-ab3c-a6c8d7cf741a","system_id":"levelo_inurba_marseille","lat":43.240691,"lon":5.377585,"is_reserved":false,"is_disabled":false,"rental_uris":{"android":"levelo://app?vid=41fc5ccf-7cae-4a19-ab3c-a6c8d7cf741a","ios":"levelo://app?vid=41fc5ccf-7cae-4a19-ab3c-a6c8d7cf741a"},"vehicle_type_id":"4","last_reported":1741241653,"current_range_meters":9200,"station_id":"ce4bhnp2rcd13ifvqgvg","pricing_plan_id":"cebpf4jnsgd1na2vs0mg"},{"bike_id":"20a6bdbd-65c6-4950-9704-b68c9f02327b","system_id":"levelo_inurba_marseille","lat":43.30633,"lon":5.40049,"is_reserved":false,"is_disabled":false,"rental_uris":{"android":"levelo://app?vid=20a6bdbd-65c6-4950-9704-b68c9f02327b","ios":"levelo://app?vid=20a6bdbd-65c6-4950-9704-b68c9f02327b"},"vehicle_type_id":"4","last_reported":1741241653,"current_range_meters":9200,"station_id":"ce4bh112rcd13ifvqda0","pricing_plan_id":"cebpf4jnsgd1na2vs0mg"},{"bike_id":"9167ef72-f974-46cb-834f-0a29c07fbf59","system_id":"levelo_inurba_marseille","lat":43.28405,"lon":5.37518,"is_reserved":false,"is_disabled":false,"rental_uris":{"android":"levelo://app?vid=9167ef72-f974-46cb-834f-0a29c07fbf59","ios":"levelo://app?vid=9167ef72-f974-46cb-834f-0a29c07fbf59"},"vehicle_type_id":"4","last_reported":1741241653,"current_range_meters":9200,"station_id":"ce4bh412rcd13ifvqds0","pricing_plan_id":"cebpf4jnsgd1na2vs0mg"},{"bike_id":"f5ab078c-c311-4a25-add4-3bfb14ea2791","system_id":"levelo_inurba_marseille","lat":43.298884,"lon":5.38809,"is_reserved":false,"is_disabled":false,"rental_uris":{"android":"levelo://app?vid=f5ab078c-c311-4a25-add4-3bfb14ea2791","ios":"levelo://app?vid=f5ab078c-c311-4a25-add4-3bfb14ea2791"},"vehicle_type_id":"4","last_reported":1741241653,"current_range_meters":9200,"station_id":"ce4bgvh2rcd13ifvqcs0","pricing_plan_id":"cebpf4jnsgd1na2vs0mg"},{"bike_id":"c0567e46-6f69-42f2-b49a-efa7de7ce564","system_id":"levelo_inurba_marseille","lat":43.2927,"lon":5.38465,"is_reserved":false,"is_disabled":false,"rental_uris":{"android":"levelo://app?vid=c0567e46-6f69-42f2-b49a-efa7de7ce564","ios":"levelo://app?vid=c0567e46-6f69-42f2-b49a-efa7de7ce564"},"vehicle_type_id":"4","last_reported":1741241653,"current_range_meters":9200,"station_id":"ce4bh692rcd13ifvqea0","pricing_plan_id":"cebpf4jnsgd1na2vs0mg"},{"bike_id":"45d42749-bb1f-4519-afb3-ca4cc8cb8a67","system_id":"levelo_inurba_marseille","lat":43.3065,"lon":5.40062,"is_reserved":false,"is_disabled":false,"rental_uris":{"android":"levelo://app?vid=45d42749-bb1f-4519-afb3-ca4cc8cb8a67","ios":"levelo://app?vid=45d42749-bb1f-4519-afb3-ca4cc8cb8a67"},"vehicle_type_id":"4","last_reported":1741241653,"current_range_meters":9200,"station_id":"ce4bh112rcd13ifvqda0","pricing_plan_id":"cebpf4jnsgd1na2vs0mg"},{"bike_id":"2065d1a1-e18b-449c-9fe3-978a1c3bd96e","system_id":"levelo_inurba_marseille","lat":43.309247,"lon":5.401422,"is_reserved":false,"is_disabled":false,"rental_uris":{"android":"levelo://app?vid=2065d1a1-e18b-449c-9fe3-978a1c3bd96e","ios":"levelo://app?vid=2065d1a1-e18b-449c-9fe3-978a1c3bd96e"},"vehicle_type_id":"4","last_reported":1741241653,"current_range_meters":9200,"station_id":"ce4bgvp2rcd13ifvqct0","pricing_plan_id":"cebpf4jnsgd1na2vs0mg"},{"bike_id":"c83f8419-a8fa-497a-adc8-6cf7f975a06c","system_id":"levelo_inurba_marseille","lat":43.30886,"lon":5.396274,"is_reserved":false,"is_disabled":false,"rental_uris":{"android":"levelo://app?vid=c83f8419-a8fa-497a-adc8-6cf7f975a06c","ios":"levelo://app?vid=c83f8419-a8fa-497a-adc8-6cf7f975a06c"},"vehicle_type_id":"4","last_reported":1741241653,"current_range_meters":9200,"station_id":"ce4bh012rcd13ifvqcv0","pricing_plan_id":"cebpf4jnsgd1na2vs0mg"},{"bike_id":"cdb3f317-3e6f-4519-a3e2-a7e6f00f166d","system_id":"levelo_inurba_marseille","lat":43.31152,"lon":5.38761,"is_reserved":false,"is_disabled":false,"rental_uris":{"android":"levelo://app?vid=cdb3f317-3e6f-4519-a3e2-a7e6f00f166d","ios":"levelo://app?vid=cdb3f317-3e6f-4519-a3e2-a7e6f00f166d"},"vehicle_type_id":"4","last_reported":1741241653,"current_range_meters":9600,"station_id":"ce4bgv12rcd13ifvqcp0","pricing_plan_id":"cebpf4jnsgd1na2vs0mg"},{"bike_id":"4b37d7b2-e4f0-4881-ae4a-14e74b2ab8e7","system_id":"levelo_inurba_marseille","lat":43.294484,"lon":5.397446,"is_reserved":false,"is_disabled":true,"rental_uris":{"android":"levelo://app?vid=4b37d7b2-e4f0-4881-ae4a-14e74b2ab8e7","ios":"levelo://app?vid=4b37d7b2-e4f0-4881-ae4a-14e74b2ab8e7"},"vehicle_type_id":"4","last_reported":1741241653,"current_range_meters":9600,"station_id":"ce4bh3h2rcd13ifvqdo0","pricing_plan_id":"cebpf4jnsgd1na2vs0mg"},{"bike_id":"5b9116fe-0eda-4e2c-8f48-26d3c7135734","system_id":"levelo_inurba_marseille","lat":43.28706,"lon":5.37951,"is_reserved":false,"is_disabled":false,"rental_uris":{"android":"levelo://app?vid=5b9116fe-0eda-4e2c-8f48-26d3c7135734","ios":"levelo://app?vid=5b9116fe-0eda-4e2c-8f48-26d3c7135734"},"vehicle_type_id":"4","last_reported":1741241653,"current_range_meters":9600,"station_id":"ce4bh9p2rcd13ifvqec0","pricing_plan_id":"cebpf4jnsgd1na2vs0mg"},{"bike_id":"7be10eac-e616-4904-8cdc-c543b04d589f","system_id":"levelo_inurba_marseille","lat":43.24132,"lon":5.36423,"is_reserved":false,"is_disabled":false,"rental_uris":{"android":"levelo://app?vid=7be10eac-e616-4904-8cdc-c543b04d589f","ios":"levelo://app?vid=7be10eac-e616-4904-8cdc-c543b04d589f"},"vehicle_type_id":"4","last_reported":1741241653,"current_range_meters":9600,"station_id":"cpo36qri1sfpv3e86is0","pricing_plan_id":"cebpf4jnsgd1na2vs0mg"},{"bike_id":"ea54a6b9-c1cb-4481-ace5-3653e43c8665","system_id":"levelo_inurba_marseille","lat":43.31144,"lon":5.38758,"is_reserved":false,"is_disabled":false,"rental_uris":{"android":"levelo://app?vid=ea54a6b9-c1cb-4481-ace5-3653e43c8665","ios":"levelo://app?vid=ea54a6b9-c1cb-4481-ace5-3653e43c8665"},"vehicle_type_id":"4","last_reported":1741241653,"current_range_meters":9600,"station_id":"ce4bgv12rcd13ifvqcp0","pricing_plan_id":"cebpf4jnsgd1na2vs0mg"},{"bike_id":"19707f4e-57a0-487d-a0fd-b6e158a12fa5","system_id":"levelo_inurba_marseille","lat":43.28117,"lon":5.37851,"is_reserved":false,"is_disabled":false,"rental_uris":{"android":"levelo://app?vid=19707f4e-57a0-487d-a0fd-b6e158a12fa5","ios":"levelo://app?vid=19707f4e-57a0-487d-a0fd-b6e158a12fa5"},"vehicle_type_id":"4","last_reported":1741241653,"current_range_meters":9600,"station_id":"ce4bha12rcd13ifvqee0","pricing_plan_id":"cebpf4jnsgd1na2vs0mg"},{"bike_id":"5cd6b5e3-002f-4ae9-b761-daca7d0be569","system_id":"levelo_inurba_marseille","lat":43.248039,"lon":5.374543,"is_reserved":false,"is_disabled":false,"rental_uris":{"android":"levelo://app?vid=5cd6b5e3-002f-4ae9-b761-daca7d0be569","ios":"levelo://app?vid=5cd6b5e3-002f-4ae9-b761-daca7d0be569"},"vehicle_type_id":"4","last_reported":1741241653,"current_range_meters":9600,"station_id":"ce4bhgh2rcd13ifvqfb0","pricing_plan_id":"cebpf4jnsgd1na2vs0mg"},{"bike_id":"0c435379-2d96-40d9-86a6-885a9070a563","system_id":"levelo_inurba_marseille","lat":43.30662,"lon":5.401,"is_reserved":false,"is_disabled":false,"rental_uris":{"android":"levelo://app?vid=0c435379-2d96-40d9-86a6-885a9070a563","ios":"levelo://app?vid=0c435379-2d96-40d9-86a6-885a9070a563"},"vehicle_type_id":"4","last_reported":1741241653,"current_range_meters":9600,"station_id":"ce4bh112rcd13ifvqda0","pricing_plan_id":"cebpf4jnsgd1na2vs0mg"},{"bike_id":"7b44e3cd-57b2-4c5e-b4d8-901f8267e2a2","system_id":"levelo_inurba_marseille","lat":43.30907,"lon":5.36886,"is_reserved":false,"is_disabled":false,"rental_uris":{"android":"levelo://app?vid=7b44e3cd-57b2-4c5e-b4d8-901f8267e2a2","ios":"levelo://app?vid=7b44e3cd-57b2-4c5e-b4d8-901f8267e2a2"},"vehicle_type_id":"4","last_reported":1741241653,"current_range_meters":9600,"station_id":"ce4bgn92rcd13ifvqbvg","pricing_plan_id":"cebpf4jnsgd1na2vs0mg"},{"bike_id":"8c48da4b-9328-4edb-ad72-2503b82997d8","system_id":"levelo_inurba_marseille","lat":43.31985,"lon":5.38145,"is_reserved":false,"is_disabled":false,"rental_uris":{"android":"levelo://app?vid=8c48da4b-9328-4edb-ad72-2503b82997d8","ios":"levelo://app?vid=8c48da4b-9328-4edb-ad72-2503b82997d8"},"vehicle_type_id":"4","last_reported":1741241653,"current_range_meters":9600,"station_id":"ce4bhr12rcd13ifvqhpg","pricing_plan_id":"cebpf4jnsgd1na2vs0mg"},{"bike_id":"fa98af60-ad58-4ccc-a5a0-6ebd1ae22394","system_id":"levelo_inurba_marseille","lat":43.28102,"lon":5.37834,"is_reserved":false,"is_disabled":false,"rental_uris":{"android":"levelo://app?vid=fa98af60-ad58-4ccc-a5a0-6ebd1ae22394","ios":"levelo://app?vid=fa98af60-ad58-4ccc-a5a0-6ebd1ae22394"},"vehicle_type_id":"4","last_reported":1741241653,"current_range_meters":9600,"station_id":"ce4bha12rcd13ifvqee0","pricing_plan_id":"cebpf4jnsgd1na2vs0mg"},{"bike_id":"ed2d92a4-3310-4acf-ba6a-75330413c190","system_id":"levelo_inurba_marseille","lat":43.248012,"lon":5.37458,"is_reserved":false,"is_disabled":false,"rental_uris":{"android":"levelo://app?vid=ed2d92a4-3310-4acf-ba6a-75330413c190","ios":"levelo://app?vid=ed2d92a4-3310-4acf-ba6a-75330413c190"},"vehicle_type_id":"4","last_reported":1741241653,"current_range_meters":9600,"station_id":"ce4bhgh2rcd13ifvqfb0","pricing_plan_id":"cebpf4jnsgd1na2vs0mg"},{"bike_id":"a91949e8-ceed-4f64-874e-98e204602e93","system_id":"levelo_inurba_marseille","lat":43.279913,"lon":5.416606,"is_reserved":false,"is_disabled":false,"rental_uris":{"android":"levelo://app?vid=a91949e8-ceed-4f64-874e-98e204602e93","ios":"levelo://app?vid=a91949e8-ceed-4f64-874e-98e204602e93"},"vehicle_type_id":"4","last_reported":1741241653,"current_range_meters":10000,"station_id":"ce4bho12rcd13ifvqh1g","pricing_plan_id":"cebpf4jnsgd1na2vs0mg"},{"bike_id":"f1969ae6-398f-4ca1-9c4a-74f3b1e55c0e","system_id":"levelo_inurba_marseille","lat":43.308852,"lon":5.396258,"is_reserved":false,"is_disabled":true,"rental_uris":{"android":"levelo://app?vid=f1969ae6-398f-4ca1-9c4a-74f3b1e55c0e","ios":"levelo://app?vid=f1969ae6-398f-4ca1-9c4a-74f3b1e55c0e"},"vehicle_type_id":"4","last_reported":1741241653,"current_range_meters":10000,"station_id":"ce4bh012rcd13ifvqcv0","pricing_plan_id":"cebpf4jnsgd1na2vs0mg"},{"bike_id":"54f1730f-8217-492c-9fff-91b949c67a5b","system_id":"levelo_inurba_marseille","lat":43.289944,"lon":5.356116,"is_reserved":false,"is_disabled":false,"rental_uris":{"android":"levelo://app?vid=54f1730f-8217-492c-9fff-91b949c67a5b","ios":"levelo://app?vid=54f1730f-8217-492c-9fff-91b949c67a5b"},"vehicle_type_id":"4","last_reported":1741241653,"current_range_meters":10000,"station_id":"ce4bhb92rcd13ifvqen0","pricing_plan_id":"cebpf4jnsgd1na2vs0mg"},{"bike_id":"4021a9aa-38f4-4748-8267-f103ee2c1a8e","system_id":"levelo_inurba_marseille","lat":43.27987,"lon":5.41663,"is_reserved":false,"is_disabled":false,"rental_uris":{"android":"levelo://app?vid=4021a9aa-38f4-4748-8267-f103ee2c1a8e","ios":"levelo://app?vid=4021a9aa-38f4-4748-8267-f103ee2c1a8e"},"vehicle_type_id":"4","last_reported":1741241653,"current_range_meters":10000,"station_id":"ce4bho12rcd13ifvqh1g","pricing_plan_id":"cebpf4jnsgd1na2vs0mg"},{"bike_id":"d2c86759-c403-4c7c-88f9-b29ee0f9435b","system_id":"levelo_inurba_marseille","lat":43.309268,"lon":5.401444,"is_reserved":false,"is_disabled":false,"rental_uris":{"android":"levelo://app?vid=d2c86759-c403-4c7c-88f9-b29ee0f9435b","ios":"levelo://app?vid=d2c86759-c403-4c7c-88f9-b29ee0f9435b"},"vehicle_type_id":"4","last_reported":1741241653,"current_range_meters":10000,"station_id":"ce4bgvp2rcd13ifvqct0","pricing_plan_id":"cebpf4jnsgd1na2vs0mg"},{"bike_id":"fe5a97f8-2f20-4434-9f3c-92f9784fd408","system_id":"levelo_inurba_marseille","lat":43.27203,"lon":5.39188,"is_reserved":false,"is_disabled":false,"rental_uris":{"android":"levelo://app?vid=fe5a97f8-2f20-4434-9f3c-92f9784fd408","ios":"levelo://app?vid=fe5a97f8-2f20-4434-9f3c-92f9784fd408"},"vehicle_type_id":"4","last_reported":1741241653,"current_range_meters":12400,"station_id":"ce4bhhp2rcd13ifvqfm0","pricing_plan_id":"cebpf4jnsgd1na2vs0mg"},{"bike_id":"3acabc1e-11c2-491e-bc5d-b11d8884d3d4","system_id":"levelo_inurba_marseille","lat":43.28684,"lon":5.38664,"is_reserved":false,"is_disabled":false,"rental_uris":{"android":"levelo://app?vid=3acabc1e-11c2-491e-bc5d-b11d8884d3d4","ios":"levelo://app?vid=3acabc1e-11c2-491e-bc5d-b11d8884d3d4"},"vehicle_type_id":"4","last_reported":1741241653,"current_range_meters":10800,"station_id":"ce4bh492rcd13ifvqdug","pricing_plan_id":"cebpf4jnsgd1na2vs0mg"},{"bike_id":"ee66fa00-5e3e-4f40-8479-381855f5cd2f","system_id":"levelo_inurba_marseille","lat":43.31285,"lon":5.40202,"is_reserved":false,"is_disabled":false,"rental_uris":{"android":"levelo://app?vid=ee66fa00-5e3e-4f40-8479-381855f5cd2f","ios":"levelo://app?vid=ee66fa00-5e3e-4f40-8479-381855f5cd2f"},"vehicle_type_id":"4","last_reported":1741241653,"current_range_meters":10800,"station_id":"ce4bh092rcd13ifvqd30","pricing_plan_id":"cebpf4jnsgd1na2vs0mg"},{"bike_id":"dd954463-fdb8-41f4-a1e9-16c7fbdbf765","system_id":"levelo_inurba_marseille","lat":43.24805,"lon":5.37466,"is_reserved":false,"is_disabled":false,"rental_uris":{"android":"levelo://app?vid=dd954463-fdb8-41f4-a1e9-16c7fbdbf765","ios":"levelo://app?vid=dd954463-fdb8-41f4-a1e9-16c7fbdbf765"},"vehicle_type_id":"4","last_reported":1741241653,"current_range_meters":10800,"station_id":"ce4bhgh2rcd13ifvqfb0","pricing_plan_id":"cebpf4jnsgd1na2vs0mg"},{"bike_id":"42f3fd83-d5cd-45ba-afcf-0a822294d812","system_id":"levelo_inurba_marseille","lat":43.285796,"lon":5.429895,"is_reserved":false,"is_disabled":true,"rental_uris":{"android":"levelo://app?vid=42f3fd83-d5cd-45ba-afcf-0a822294d812","ios":"levelo://app?vid=42f3fd83-d5cd-45ba-afcf-0a822294d812"},"vehicle_type_id":"4","last_reported":1741241653,"current_range_meters":10800,"station_id":"","pricing_plan_id":"cebpf4jnsgd1na2vs0mg"},{"bike_id":"68ef834d-889d-4e9d-a3ec-8ff7b2ee7906","system_id":"levelo_inurba_marseille","lat":43.269397,"lon":5.402562,"is_reserved":false,"is_disabled":false,"rental_uris":{"android":"levelo://app?vid=68ef834d-889d-4e9d-a3ec-8ff7b2ee7906","ios":"levelo://app?vid=68ef834d-889d-4e9d-a3ec-8ff7b2ee7906"},"vehicle_type_id":"4","last_reported":1741241653,"current_range_meters":10800,"station_id":"cjm6bp8fraef2m0cb0m0","pricing_plan_id":"cebpf4jnsgd1na2vs0mg"},{"bike_id":"700b2955-d031-4ce5-81ee-c686335ff530","system_id":"levelo_inurba_marseille","lat":43.30153,"lon":5.38089,"is_reserved":false,"is_disabled":false,"rental_uris":{"android":"levelo://app?vid=700b2955-d031-4ce5-81ee-c686335ff530","ios":"levelo://app?vid=700b2955-d031-4ce5-81ee-c686335ff530"},"vehicle_type_id":"4","last_reported":1741241653,"current_range_meters":10800,"station_id":"ce4bgjp2rcd13ifvqbh0","pricing_plan_id":"cebpf4jnsgd1na2vs0mg"},{"bike_id":"a04945a2-f46f-4a31-934c-e5afa1784de6","system_id":"levelo_inurba_marseille","lat":43.28738,"lon":5.36329,"is_reserved":false,"is_disabled":false,"rental_uris":{"android":"levelo://app?vid=a04945a2-f46f-4a31-934c-e5afa1784de6","ios":"levelo://app?vid=a04945a2-f46f-4a31-934c-e5afa1784de6"},"vehicle_type_id":"4","last_reported":1741241653,"current_range_meters":10800,"station_id":"","pricing_plan_id":"cebpf4jnsgd1na2vs0mg"},{"bike_id":"fa793503-34be-4099-bcaf-634c852293fa","system_id":"levelo_inurba_marseille","lat":43.29245,"lon":5.40937,"is_reserved":false,"is_disabled":false,"rental_uris":{"android":"levelo://app?vid=fa793503-34be-4099-bcaf-634c852293fa","ios":"levelo://app?vid=fa793503-34be-4099-bcaf-634c852293fa"},"vehicle_type_id":"4","last_reported":1741241653,"current_range_meters":10800,"station_id":"ce4bh192rcd13ifvqdc0","pricing_plan_id":"cebpf4jnsgd1na2vs0mg"},{"bike_id":"deccb326-0579-4f88-8ded-8a796f163b88","system_id":"levelo_inurba_marseille","lat":43.31417,"lon":5.37613,"is_reserved":false,"is_disabled":false,"rental_uris":{"android":"levelo://app?vid=deccb326-0579-4f88-8ded-8a796f163b88","ios":"levelo://app?vid=deccb326-0579-4f88-8ded-8a796f163b88"},"vehicle_type_id":"4","last_reported":1741241653,"current_range_meters":10800,"station_id":"","pricing_plan_id":"cebpf4jnsgd1na2vs0mg"},{"bike_id":"bc1ff28f-0226-4fe1-bb42-0a1e2869659e","system_id":"levelo_inurba_marseille","lat":43.32366,"lon":5.38898,"is_reserved":false,"is_disabled":false,"rental_uris":{"android":"levelo://app?vid=bc1ff28f-0226-4fe1-bb42-0a1e2869659e","ios":"levelo://app?vid=bc1ff28f-0226-4fe1-bb42-0a1e2869659e"},"vehicle_type_id":"4","last_reported":1741241653,"current_range_meters":10800,"station_id":"ce4bhqp2rcd13ifvqhog","pricing_plan_id":"cebpf4jnsgd1na2vs0mg"},{"bike_id":"e0c0bec3-454a-410d-a60f-3aed516ec149","system_id":"levelo_inurba_marseille","lat":43.23188,"lon":5.3554,"is_reserved":false,"is_disabled":false,"rental_uris":{"android":"levelo://app?vid=e0c0bec3-454a-410d-a60f-3aed516ec149","ios":"levelo://app?vid=e0c0bec3-454a-410d-a60f-3aed516ec149"},"vehicle_type_id":"4","last_reported":1741241653,"current_range_meters":11200,"station_id":"ce4bhu92rcd13ifvqi70","pricing_plan_id":"cebpf4jnsgd1na2vs0mg"},{"bike_id":"6bb40379-a505-4b1d-9282-b739c69ec956","system_id":"levelo_inurba_marseille","lat":43.286159,"lon":5.350949,"is_reserved":false,"is_disabled":false,"rental_uris":{"android":"levelo://app?vid=6bb40379-a505-4b1d-9282-b739c69ec956","ios":"levelo://app?vid=6bb40379-a505-4b1d-9282-b739c69ec956"},"vehicle_type_id":"4","last_reported":1741241653,"current_range_meters":11200,"station_id":"ce4bhch2rcd13ifvqeug","pricing_plan_id":"cebpf4jnsgd1na2vs0mg"},{"bike_id":"81abd46f-88a5-433e-b996-c4028ce46154","system_id":"levelo_inurba_marseille","lat":43.304717,"lon":5.379305,"is_reserved":false,"is_disabled":false,"rental_uris":{"android":"levelo://app?vid=81abd46f-88a5-433e-b996-c4028ce46154","ios":"levelo://app?vid=81abd46f-88a5-433e-b996-c4028ce46154"},"vehicle_type_id":"4","last_reported":1741241653,"current_range_meters":11200,"station_id":"ce4bgup2rcd13ifvqcn0","pricing_plan_id":"cebpf4jnsgd1na2vs0mg"},{"bike_id":"7f1905bf-da4d-4f13-af14-c5d46804e585","system_id":"levelo_inurba_marseille","lat":43.231897,"lon":5.355528,"is_reserved":false,"is_disabled":false,"rental_uris":{"android":"levelo://app?vid=7f1905bf-da4d-4f13-af14-c5d46804e585","ios":"levelo://app?vid=7f1905bf-da4d-4f13-af14-c5d46804e585"},"vehicle_type_id":"4","last_reported":1741241653,"current_range_meters":11200,"station_id":"ce4bhu92rcd13ifvqi70","pricing_plan_id":"cebpf4jnsgd1na2vs0mg"},{"bike_id":"a0d8f949-6ee3-4689-9b5f-0c06c75b65f6","system_id":"levelo_inurba_marseille","lat":43.28095,"lon":5.39688,"is_reserved":false,"is_disabled":false,"rental_uris":{"android":"levelo://app?vid=a0d8f949-6ee3-4689-9b5f-0c06c75b65f6","ios":"levelo://app?vid=a0d8f949-6ee3-4689-9b5f-0c06c75b65f6"},"vehicle_type_id":"4","last_reported":1741241653,"current_range_meters":11200,"station_id":"ce4bho12rcd13ifvqh2g","pricing_plan_id":"cebpf4jnsgd1na2vs0mg"},{"bike_id":"c2a45155-d339-4f3d-9e25-80702a98b3f2","system_id":"levelo_inurba_marseille","lat":43.32476,"lon":5.36569,"is_reserved":false,"is_disabled":false,"rental_uris":{"android":"levelo://app?vid=c2a45155-d339-4f3d-9e25-80702a98b3f2","ios":"levelo://app?vid=c2a45155-d339-4f3d-9e25-80702a98b3f2"},"vehicle_type_id":"4","last_reported":1741241653,"current_range_meters":11600,"station_id":"ce4bhs12rcd13ifvqhvg","pricing_plan_id":"cebpf4jnsgd1na2vs0mg"},{"bike_id":"88f1cdf8-d5f9-4bd1-9807-7495f7918208","system_id":"levelo_inurba_marseille","lat":43.31248,"lon":5.36861,"is_reserved":false,"is_disabled":false,"rental_uris":{"android":"levelo://app?vid=88f1cdf8-d5f9-4bd1-9807-7495f7918208","ios":"levelo://app?vid=88f1cdf8-d5f9-4bd1-9807-7495f7918208"},"vehicle_type_id":"4","last_reported":1741241653,"current_range_meters":11600,"station_id":"ce4bgl92rcd13ifvqbq0","pricing_plan_id":"cebpf4jnsgd1na2vs0mg"},{"bike_id":"0b3cb245-c1ab-4265-9e03-36f6b9bfa685","system_id":"levelo_inurba_marseille","lat":43.23065,"lon":5.35493,"is_reserved":false,"is_disabled":false,"rental_uris":{"android":"levelo://app?vid=0b3cb245-c1ab-4265-9e03-36f6b9bfa685","ios":"levelo://app?vid=0b3cb245-c1ab-4265-9e03-36f6b9bfa685"},"vehicle_type_id":"4","last_reported":1741241653,"current_range_meters":11600,"station_id":"cpo3342slgdg3j2ifvpg","pricing_plan_id":"cebpf4jnsgd1na2vs0mg"},{"bike_id":"ff51cf58-fb92-49b3-99ce-0d368460e499","system_id":"levelo_inurba_marseille","lat":43.28723,"lon":5.36093,"is_reserved":false,"is_disabled":false,"rental_uris":{"android":"levelo://app?vid=ff51cf58-fb92-49b3-99ce-0d368460e499","ios":"levelo://app?vid=ff51cf58-fb92-49b3-99ce-0d368460e499"},"vehicle_type_id":"4","last_reported":1741241653,"current_range_meters":11600,"station_id":"cki0cbj6b192h4jlfktg","pricing_plan_id":"cebpf4jnsgd1na2vs0mg"},{"bike_id":"9109bf38-4e22-4f79-95b6-2d4197ce8722","system_id":"levelo_inurba_marseille","lat":43.24062,"lon":5.37784,"is_reserved":false,"is_disabled":false,"rental_uris":{"android":"levelo://app?vid=9109bf38-4e22-4f79-95b6-2d4197ce8722","ios":"levelo://app?vid=9109bf38-4e22-4f79-95b6-2d4197ce8722"},"vehicle_type_id":"4","last_reported":1741241653,"current_range_meters":11600,"station_id":"ce4bhnp2rcd13ifvqgvg","pricing_plan_id":"cebpf4jnsgd1na2vs0mg"},{"bike_id":"4a0bd736-57eb-4c56-a8a7-96515f09f9d3","system_id":"levelo_inurba_marseille","lat":43.24382,"lon":5.37086,"is_reserved":false,"is_disabled":false,"rental_uris":{"android":"levelo://app?vid=4a0bd736-57eb-4c56-a8a7-96515f09f9d3","ios":"levelo://app?vid=4a0bd736-57eb-4c56-a8a7-96515f09f9d3"},"vehicle_type_id":"4","last_reported":1741241653,"current_range_meters":11600,"station_id":"ce4bhhh2rcd13ifvqfk0","pricing_plan_id":"cebpf4jnsgd1na2vs0mg"},{"bike_id":"a96d7960-9bdf-423e-844a-233c572ec0a9","system_id":"levelo_inurba_marseille","lat":43.302229,"lon":5.394671,"is_reserved":false,"is_disabled":false,"rental_uris":{"android":"levelo://app?vid=a96d7960-9bdf-423e-844a-233c572ec0a9","ios":"levelo://app?vid=a96d7960-9bdf-423e-844a-233c572ec0a9"},"vehicle_type_id":"4","last_reported":1741241653,"current_range_meters":12000,"station_id":"ce4bh0p2rcd13ifvqd70","pricing_plan_id":"cebpf4jnsgd1na2vs0mg"},{"bike_id":"05b7a77f-864d-45f8-b8fe-50b708b2e2ed","system_id":"levelo_inurba_marseille","lat":43.29571,"lon":5.39977,"is_reserved":false,"is_disabled":false,"rental_uris":{"android":"levelo://app?vid=05b7a77f-864d-45f8-b8fe-50b708b2e2ed","ios":"levelo://app?vid=05b7a77f-864d-45f8-b8fe-50b708b2e2ed"},"vehicle_type_id":"4","last_reported":1741241653,"current_range_meters":12000,"station_id":"ce4bh312rcd13ifvqdj0","pricing_plan_id":"cebpf4jnsgd1na2vs0mg"},{"bike_id":"a6986653-9a29-434f-b37d-f8e616dbd551","system_id":"levelo_inurba_marseille","lat":43.296265,"lon":5.406199,"is_reserved":false,"is_disabled":false,"rental_uris":{"android":"levelo://app?vid=a6986653-9a29-434f-b37d-f8e616dbd551","ios":"levelo://app?vid=a6986653-9a29-434f-b37d-f8e616dbd551"},"vehicle_type_id":"4","last_reported":1741241653,"current_range_meters":11600,"station_id":"ce4bh0h2rcd13ifvqd60","pricing_plan_id":"cebpf4jnsgd1na2vs0mg"},{"bike_id":"6a10ab3a-3ca6-4b1f-815c-473ed184eb58","system_id":"levelo_inurba_marseille","lat":43.29716,"lon":5.37704,"is_reserved":false,"is_disabled":true,"rental_uris":{"android":"levelo://app?vid=6a10ab3a-3ca6-4b1f-815c-473ed184eb58","ios":"levelo://app?vid=6a10ab3a-3ca6-4b1f-815c-473ed184eb58"},"vehicle_type_id":"4","last_reported":1741241653,"current_range_meters":12400,"station_id":"ce4bgkh2rcd13ifvqbl0","pricing_plan_id":"cebpf4jnsgd1na2vs0mg"},{"bike_id":"742e49a2-0f9a-4fce-973e-fd6c568cf9f9","system_id":"levelo_inurba_marseille","lat":43.29904,"lon":5.38048,"is_reserved":false,"is_disabled":false,"rental_uris":{"android":"levelo://app?vid=742e49a2-0f9a-4fce-973e-fd6c568cf9f9","ios":"levelo://app?vid=742e49a2-0f9a-4fce-973e-fd6c568cf9f9"},"vehicle_type_id":"4","last_reported":1741241653,"current_range_meters":12400,"station_id":"","pricing_plan_id":"cebpf4jnsgd1na2vs0mg"},{"bike_id":"4e1cdc49-af7b-47c8-9d94-cfe80a7f541e","system_id":"levelo_inurba_marseille","lat":43.289409,"lon":5.363902,"is_reserved":false,"is_disabled":false,"rental_uris":{"android":"levelo://app?vid=4e1cdc49-af7b-47c8-9d94-cfe80a7f541e","ios":"levelo://app?vid=4e1cdc49-af7b-47c8-9d94-cfe80a7f541e"},"vehicle_type_id":"4","last_reported":1741241653,"current_range_meters":12400,"station_id":"ce4bhc92rcd13ifvqetg","pricing_plan_id":"cebpf4jnsgd1na2vs0mg"},{"bike_id":"256ec39e-52a0-462f-859c-5a80cf63590f","system_id":"levelo_inurba_marseille","lat":43.281556,"lon":5.426436,"is_reserved":false,"is_disabled":false,"rental_uris":{"android":"levelo://app?vid=256ec39e-52a0-462f-859c-5a80cf63590f","ios":"levelo://app?vid=256ec39e-52a0-462f-859c-5a80cf63590f"},"vehicle_type_id":"4","last_reported":1741241653,"current_range_meters":12400,"station_id":"ce4bhnh2rcd13ifvqgug","pricing_plan_id":"cebpf4jnsgd1na2vs0mg"},{"bike_id":"7cb5d2b6-f1df-489c-aae3-6fd46b81c378","system_id":"levelo_inurba_marseille","lat":43.307985,"lon":5.435203,"is_reserved":false,"is_disabled":false,"rental_uris":{"android":"levelo://app?vid=7cb5d2b6-f1df-489c-aae3-6fd46b81c378","ios":"levelo://app?vid=7cb5d2b6-f1df-489c-aae3-6fd46b81c378"},"vehicle_type_id":"4","last_reported":1741241653,"current_range_meters":12400,"station_id":"ce4bhph2rcd13ifvqheg","pricing_plan_id":"cebpf4jnsgd1na2vs0mg"},{"bike_id":"5767adce-4b87-4fa6-ab5a-cd6bc1f79831","system_id":"levelo_inurba_marseille","lat":43.2957,"lon":5.40249,"is_reserved":false,"is_disabled":false,"rental_uris":{"android":"levelo://app?vid=5767adce-4b87-4fa6-ab5a-cd6bc1f79831","ios":"levelo://app?vid=5767adce-4b87-4fa6-ab5a-cd6bc1f79831"},"vehicle_type_id":"4","last_reported":1741241653,"current_range_meters":12400,"station_id":"","pricing_plan_id":"cebpf4jnsgd1na2vs0mg"},{"bike_id":"724e87ed-cb25-4934-9e86-2688c0a65c03","system_id":"levelo_inurba_marseille","lat":43.3088,"lon":5.39647,"is_reserved":false,"is_disabled":false,"rental_uris":{"android":"levelo://app?vid=724e87ed-cb25-4934-9e86-2688c0a65c03","ios":"levelo://app?vid=724e87ed-cb25-4934-9e86-2688c0a65c03"},"vehicle_type_id":"4","last_reported":1741241653,"current_range_meters":12800,"station_id":"ce4bh012rcd13ifvqcv0","pricing_plan_id":"cebpf4jnsgd1na2vs0mg"},{"bike_id":"acf20595-7755-43d3-8c8f-296b234b0f1b","system_id":"levelo_inurba_marseille","lat":43.25088,"lon":5.41078,"is_reserved":false,"is_disabled":false,"rental_uris":{"android":"levelo://app?vid=acf20595-7755-43d3-8c8f-296b234b0f1b","ios":"levelo://app?vid=acf20595-7755-43d3-8c8f-296b234b0f1b"},"vehicle_type_id":"4","last_reported":1741241653,"current_range_meters":12800,"station_id":"","pricing_plan_id":"cebpf4jnsgd1na2vs0mg"},{"bike_id":"2aee36d8-e3be-4251-b015-57c48e5d8fb7","system_id":"levelo_inurba_marseille","lat":43.257151,"lon":5.411219,"is_reserved":false,"is_disabled":false,"rental_uris":{"android":"levelo://app?vid=2aee36d8-e3be-4251-b015-57c48e5d8fb7","ios":"levelo://app?vid=2aee36d8-e3be-4251-b015-57c48e5d8fb7"},"vehicle_type_id":"4","last_reported":1741241653,"current_range_meters":12800,"station_id":"ce4bhkp2rcd13ifvqgd0","pricing_plan_id":"cebpf4jnsgd1na2vs0mg"},{"bike_id":"da38c14a-341c-4fc5-aa1c-82689deb0dae","system_id":"levelo_inurba_marseille","lat":43.279148,"lon":5.395791,"is_reserved":false,"is_disabled":false,"rental_uris":{"android":"levelo://app?vid=da38c14a-341c-4fc5-aa1c-82689deb0dae","ios":"levelo://app?vid=da38c14a-341c-4fc5-aa1c-82689deb0dae"},"vehicle_type_id":"4","last_reported":1741241653,"current_range_meters":12800,"station_id":"ce4bhf92rcd13ifvqf40","pricing_plan_id":"cebpf4jnsgd1na2vs0mg"},{"bike_id":"6b0ab485-d469-4369-87d5-d8a589ffc853","system_id":"levelo_inurba_marseille","lat":43.3117,"lon":5.38731,"is_reserved":false,"is_disabled":false,"rental_uris":{"android":"levelo://app?vid=6b0ab485-d469-4369-87d5-d8a589ffc853","ios":"levelo://app?vid=6b0ab485-d469-4369-87d5-d8a589ffc853"},"vehicle_type_id":"4","last_reported":1741241653,"current_range_meters":13600,"station_id":"ce4bgv12rcd13ifvqcp0","pricing_plan_id":"cebpf4jnsgd1na2vs0mg"},{"bike_id":"e968ab12-e24e-4ebd-b6f9-fd2efbd300aa","system_id":"levelo_inurba_marseille","lat":43.28419,"lon":5.37544,"is_reserved":false,"is_disabled":false,"rental_uris":{"android":"levelo://app?vid=e968ab12-e24e-4ebd-b6f9-fd2efbd300aa","ios":"levelo://app?vid=e968ab12-e24e-4ebd-b6f9-fd2efbd300aa"},"vehicle_type_id":"4","last_reported":1741241653,"current_range_meters":13600,"station_id":"ce4bh412rcd13ifvqds0","pricing_plan_id":"cebpf4jnsgd1na2vs0mg"},{"bike_id":"d38d2814-fddd-4741-82cf-424351788984","system_id":"levelo_inurba_marseille","lat":43.30868,"lon":5.39637,"is_reserved":false,"is_disabled":false,"rental_uris":{"android":"levelo://app?vid=d38d2814-fddd-4741-82cf-424351788984","ios":"levelo://app?vid=d38d2814-fddd-4741-82cf-424351788984"},"vehicle_type_id":"4","last_reported":1741241653,"current_range_meters":13600,"station_id":"ce4bh012rcd13ifvqcv0","pricing_plan_id":"cebpf4jnsgd1na2vs0mg"},{"bike_id":"cf9eaa3d-76b1-45cf-ad18-68aab86374f5","system_id":"levelo_inurba_marseille","lat":43.25575,"lon":5.38247,"is_reserved":false,"is_disabled":false,"rental_uris":{"android":"levelo://app?vid=cf9eaa3d-76b1-45cf-ad18-68aab86374f5","ios":"levelo://app?vid=cf9eaa3d-76b1-45cf-ad18-68aab86374f5"},"vehicle_type_id":"4","last_reported":1741241653,"current_range_meters":13600,"station_id":"ce4bhih2rcd13ifvqfs0","pricing_plan_id":"cebpf4jnsgd1na2vs0mg"},{"bike_id":"c70eb9b9-6298-4221-9ef7-c3cac70a59e9","system_id":"levelo_inurba_marseille","lat":43.31117,"lon":5.3778,"is_reserved":false,"is_disabled":false,"rental_uris":{"android":"levelo://app?vid=c70eb9b9-6298-4221-9ef7-c3cac70a59e9","ios":"levelo://app?vid=c70eb9b9-6298-4221-9ef7-c3cac70a59e9"},"vehicle_type_id":"4","last_reported":1741241653,"current_range_meters":13600,"station_id":"ce4bgt92rcd13ifvqcg0","pricing_plan_id":"cebpf4jnsgd1na2vs0mg"},{"bike_id":"d86f8736-019e-42bc-8e26-7fa7feba3e20","system_id":"levelo_inurba_marseille","lat":43.311648,"lon":5.387141,"is_reserved":false,"is_disabled":false,"rental_uris":{"android":"levelo://app?vid=d86f8736-019e-42bc-8e26-7fa7feba3e20","ios":"levelo://app?vid=d86f8736-019e-42bc-8e26-7fa7feba3e20"},"vehicle_type_id":"4","last_reported":1741241653,"current_range_meters":13600,"station_id":"ce4bgv12rcd13ifvqcp0","pricing_plan_id":"cebpf4jnsgd1na2vs0mg"},{"bike_id":"753bb1e7-e84f-4011-955c-177bff1b92fa","system_id":"levelo_inurba_marseille","lat":43.27224,"lon":5.39207,"is_reserved":false,"is_disabled":false,"rental_uris":{"android":"levelo://app?vid=753bb1e7-e84f-4011-955c-177bff1b92fa","ios":"levelo://app?vid=753bb1e7-e84f-4011-955c-177bff1b92fa"},"vehicle_type_id":"4","last_reported":1741241653,"current_range_meters":16000,"station_id":"ce4bhhp2rcd13ifvqfm0","pricing_plan_id":"cebpf4jnsgd1na2vs0mg"},{"bike_id":"802b43c6-5d88-4b4d-a6cb-b145221d4110","system_id":"levelo_inurba_marseille","lat":43.281,"lon":5.398838,"is_reserved":false,"is_disabled":false,"rental_uris":{"android":"levelo://app?vid=802b43c6-5d88-4b4d-a6cb-b145221d4110","ios":"levelo://app?vid=802b43c6-5d88-4b4d-a6cb-b145221d4110"},"vehicle_type_id":"4","last_reported":1741241653,"current_range_meters":13600,"station_id":"","pricing_plan_id":"cebpf4jnsgd1na2vs0mg"},{"bike_id":"2c4b72f9-e647-4fd3-91da-cf17b9f18912","system_id":"levelo_inurba_marseille","lat":43.28451,"lon":5.35908,"is_reserved":false,"is_disabled":false,"rental_uris":{"android":"levelo://app?vid=2c4b72f9-e647-4fd3-91da-cf17b9f18912","ios":"levelo://app?vid=2c4b72f9-e647-4fd3-91da-cf17b9f18912"},"vehicle_type_id":"4","last_reported":1741241653,"current_range_meters":14000,"station_id":"ce4bhah2rcd13ifvqei0","pricing_plan_id":"cebpf4jnsgd1na2vs0mg"},{"bike_id":"98a1abc3-601b-4576-b2df-57cfbfeb024d","system_id":"levelo_inurba_marseille","lat":43.28101,"lon":5.37923,"is_reserved":false,"is_disabled":false,"rental_uris":{"android":"levelo://app?vid=98a1abc3-601b-4576-b2df-57cfbfeb024d","ios":"levelo://app?vid=98a1abc3-601b-4576-b2df-57cfbfeb024d"},"vehicle_type_id":"4","last_reported":1741241653,"current_range_meters":14000,"station_id":"","pricing_plan_id":"cebpf4jnsgd1na2vs0mg"},{"bike_id":"f927a9c8-5d84-472f-b8fd-88f2fc3bc3e6","system_id":"levelo_inurba_marseille","lat":43.299,"lon":5.43665,"is_reserved":false,"is_disabled":false,"rental_uris":{"android":"levelo://app?vid=f927a9c8-5d84-472f-b8fd-88f2fc3bc3e6","ios":"levelo://app?vid=f927a9c8-5d84-472f-b8fd-88f2fc3bc3e6"},"vehicle_type_id":"4","last_reported":1741241653,"current_range_meters":14400,"station_id":"ce4bhpp2rcd13ifvqhfg","pricing_plan_id":"cebpf4jnsgd1na2vs0mg"},{"bike_id":"534f692f-ad8d-4728-8091-3677e2e78a71","system_id":"levelo_inurba_marseille","lat":43.31268,"lon":5.40181,"is_reserved":false,"is_disabled":false,"rental_uris":{"android":"levelo://app?vid=534f692f-ad8d-4728-8091-3677e2e78a71","ios":"levelo://app?vid=534f692f-ad8d-4728-8091-3677e2e78a71"},"vehicle_type_id":"4","last_reported":1741241653,"current_range_meters":14800,"station_id":"ce4bh092rcd13ifvqd30","pricing_plan_id":"cebpf4jnsgd1na2vs0mg"},{"bike_id":"eb349d4a-0d99-4439-8882-617b17acaea4","system_id":"levelo_inurba_marseille","lat":43.29195,"lon":5.35803,"is_reserved":false,"is_disabled":false,"rental_uris":{"android":"levelo://app?vid=eb349d4a-0d99-4439-8882-617b17acaea4","ios":"levelo://app?vid=eb349d4a-0d99-4439-8882-617b17acaea4"},"vehicle_type_id":"4","last_reported":1741241653,"current_range_meters":14800,"station_id":"ce4bhb12rcd13ifvqel0","pricing_plan_id":"cebpf4jnsgd1na2vs0mg"},{"bike_id":"c0b7ddde-74bf-4be4-b818-5eb6dcd58992","system_id":"levelo_inurba_marseille","lat":43.30471,"lon":5.36887,"is_reserved":false,"is_disabled":false,"rental_uris":{"android":"levelo://app?vid=c0b7ddde-74bf-4be4-b818-5eb6dcd58992","ios":"levelo://app?vid=c0b7ddde-74bf-4be4-b818-5eb6dcd58992"},"vehicle_type_id":"4","last_reported":1741241653,"current_range_meters":14800,"station_id":"","pricing_plan_id":"cebpf4jnsgd1na2vs0mg"},{"bike_id":"1bc0c6d0-7e10-4b8d-a0c9-084dbeb3f1f3","system_id":"levelo_inurba_marseille","lat":43.30872,"lon":5.39715,"is_reserved":false,"is_disabled":false,"rental_uris":{"android":"levelo://app?vid=1bc0c6d0-7e10-4b8d-a0c9-084dbeb3f1f3","ios":"levelo://app?vid=1bc0c6d0-7e10-4b8d-a0c9-084dbeb3f1f3"},"vehicle_type_id":"4","last_reported":1741241653,"current_range_meters":14800,"station_id":"ce4bh012rcd13ifvqcv0","pricing_plan_id":"cebpf4jnsgd1na2vs0mg"},{"bike_id":"dae77719-96f1-4615-ae17-b42ddec1f9e5","system_id":"levelo_inurba_marseille","lat":43.30927,"lon":5.40141,"is_reserved":false,"is_disabled":false,"rental_uris":{"android":"levelo://app?vid=dae77719-96f1-4615-ae17-b42ddec1f9e5","ios":"levelo://app?vid=dae77719-96f1-4615-ae17-b42ddec1f9e5"},"vehicle_type_id":"4","last_reported":1741241653,"current_range_meters":14800,"station_id":"ce4bgvp2rcd13ifvqct0","pricing_plan_id":"cebpf4jnsgd1na2vs0mg"},{"bike_id":"e6990386-06c3-4397-8da9-81e5924527f9","system_id":"levelo_inurba_marseille","lat":43.30864,"lon":5.3963,"is_reserved":false,"is_disabled":false,"rental_uris":{"android":"levelo://app?vid=e6990386-06c3-4397-8da9-81e5924527f9","ios":"levelo://app?vid=e6990386-06c3-4397-8da9-81e5924527f9"},"vehicle_type_id":"4","last_reported":1741241653,"current_range_meters":14800,"station_id":"ce4bh012rcd13ifvqcv0","pricing_plan_id":"cebpf4jnsgd1na2vs0mg"},{"bike_id":"46bc0538-243a-4833-99ab-4d86481afe8a","system_id":"levelo_inurba_marseille","lat":43.295624,"lon":5.375141,"is_reserved":false,"is_disabled":false,"rental_uris":{"android":"levelo://app?vid=46bc0538-243a-4833-99ab-4d86481afe8a","ios":"levelo://app?vid=46bc0538-243a-4833-99ab-4d86481afe8a"},"vehicle_type_id":"4","last_reported":1741241653,"current_range_meters":14000,"station_id":"ce4bgop2rcd13ifvqc1g","pricing_plan_id":"cebpf4jnsgd1na2vs0mg"},{"bike_id":"23714e89-8ebe-4845-b4cd-a367dd2ec934","system_id":"levelo_inurba_marseille","lat":43.28038,"lon":5.36968,"is_reserved":false,"is_disabled":false,"rental_uris":{"android":"levelo://app?vid=23714e89-8ebe-4845-b4cd-a367dd2ec934","ios":"levelo://app?vid=23714e89-8ebe-4845-b4cd-a367dd2ec934"},"vehicle_type_id":"4","last_reported":1741241653,"current_range_meters":15200,"station_id":"ce4bha12rcd13ifvqef0","pricing_plan_id":"cebpf4jnsgd1na2vs0mg"},{"bike_id":"070f0b28-933a-491f-9593-eed632e613d2","system_id":"levelo_inurba_marseille","lat":43.33727,"lon":5.39191,"is_reserved":false,"is_disabled":false,"rental_uris":{"android":"levelo://app?vid=070f0b28-933a-491f-9593-eed632e613d2","ios":"levelo://app?vid=070f0b28-933a-491f-9593-eed632e613d2"},"vehicle_type_id":"4","last_reported":1741241653,"current_range_meters":15200,"station_id":"ce4bhr92rcd13ifvqhsg","pricing_plan_id":"cebpf4jnsgd1na2vs0mg"},{"bike_id":"7b03c6e1-c2ef-42d4-aa33-4839f4aab7d8","system_id":"levelo_inurba_marseille","lat":43.3118,"lon":5.38726,"is_reserved":false,"is_disabled":false,"rental_uris":{"android":"levelo://app?vid=7b03c6e1-c2ef-42d4-aa33-4839f4aab7d8","ios":"levelo://app?vid=7b03c6e1-c2ef-42d4-aa33-4839f4aab7d8"},"vehicle_type_id":"4","last_reported":1741241653,"current_range_meters":16000,"station_id":"ce4bgv12rcd13ifvqcp0","pricing_plan_id":"cebpf4jnsgd1na2vs0mg"},{"bike_id":"f2896ecd-b24b-46c4-8d75-7e3bebc05adf","system_id":"levelo_inurba_marseille","lat":43.295374,"lon":5.385423,"is_reserved":false,"is_disabled":true,"rental_uris":{"android":"levelo://app?vid=f2896ecd-b24b-46c4-8d75-7e3bebc05adf","ios":"levelo://app?vid=f2896ecd-b24b-46c4-8d75-7e3bebc05adf"},"vehicle_type_id":"4","last_reported":1741241653,"current_range_meters":16000,"station_id":"ce4bgih2rcd13ifvqba0","pricing_plan_id":"cebpf4jnsgd1na2vs0mg"},{"bike_id":"e0954015-a7a6-4b57-aae3-24a6e2b0aa77","system_id":"levelo_inurba_marseille","lat":43.31183,"lon":5.38737,"is_reserved":false,"is_disabled":false,"rental_uris":{"android":"levelo://app?vid=e0954015-a7a6-4b57-aae3-24a6e2b0aa77","ios":"levelo://app?vid=e0954015-a7a6-4b57-aae3-24a6e2b0aa77"},"vehicle_type_id":"4","last_reported":1741241653,"current_range_meters":16000,"station_id":"ce4bgv12rcd13ifvqcp0","pricing_plan_id":"cebpf4jnsgd1na2vs0mg"},{"bike_id":"7940066d-cd24-41b6-836e-1355fc2b9e03","system_id":"levelo_inurba_marseille","lat":43.23194,"lon":5.35564,"is_reserved":false,"is_disabled":false,"rental_uris":{"android":"levelo://app?vid=7940066d-cd24-41b6-836e-1355fc2b9e03","ios":"levelo://app?vid=7940066d-cd24-41b6-836e-1355fc2b9e03"},"vehicle_type_id":"4","last_reported":1741241653,"current_range_meters":16000,"station_id":"ce4bhu92rcd13ifvqi70","pricing_plan_id":"cebpf4jnsgd1na2vs0mg"},{"bike_id":"5d8f97c1-37e7-4fec-9109-7a661427c571","system_id":"levelo_inurba_marseille","lat":43.258577,"lon":5.399073,"is_reserved":false,"is_disabled":false,"rental_uris":{"android":"levelo://app?vid=5d8f97c1-37e7-4fec-9109-7a661427c571","ios":"levelo://app?vid=5d8f97c1-37e7-4fec-9109-7a661427c571"},"vehicle_type_id":"4","last_reported":1741241653,"current_range_meters":16000,"station_id":"ce4bhl92rcd13ifvqghg","pricing_plan_id":"cebpf4jnsgd1na2vs0mg"},{"bike_id":"b4eca92e-f557-43df-a620-caa0a4c6d751","system_id":"levelo_inurba_marseille","lat":43.28342,"lon":5.381,"is_reserved":false,"is_disabled":false,"rental_uris":{"android":"levelo://app?vid=b4eca92e-f557-43df-a620-caa0a4c6d751","ios":"levelo://app?vid=b4eca92e-f557-43df-a620-caa0a4c6d751"},"vehicle_type_id":"4","last_reported":1741241653,"current_range_meters":16000,"station_id":"ce4bh412rcd13ifvqdr0","pricing_plan_id":"cebpf4jnsgd1na2vs0mg"},{"bike_id":"559455e8-8bf3-4d72-8a6f-807575181c13","system_id":"levelo_inurba_marseille","lat":43.30788,"lon":5.37664,"is_reserved":false,"is_disabled":false,"rental_uris":{"android":"levelo://app?vid=559455e8-8bf3-4d72-8a6f-807575181c13","ios":"levelo://app?vid=559455e8-8bf3-4d72-8a6f-807575181c13"},"vehicle_type_id":"4","last_reported":1741241653,"current_range_meters":16000,"station_id":"ce4bgv92rcd13ifvqcq0","pricing_plan_id":"cebpf4jnsgd1na2vs0mg"},{"bike_id":"00c9bea9-7d78-4435-8261-fa49c68fd27f","system_id":"levelo_inurba_marseille","lat":43.26026,"lon":5.41787,"is_reserved":false,"is_disabled":false,"rental_uris":{"android":"levelo://app?vid=00c9bea9-7d78-4435-8261-fa49c68fd27f","ios":"levelo://app?vid=00c9bea9-7d78-4435-8261-fa49c68fd27f"},"vehicle_type_id":"4","last_reported":1741241653,"current_range_meters":16000,"station_id":"","pricing_plan_id":"cebpf4jnsgd1na2vs0mg"},{"bike_id":"52b19b0a-896e-4508-971e-9b8862ef11d0","system_id":"levelo_inurba_marseille","lat":43.230607,"lon":5.354959,"is_reserved":false,"is_disabled":false,"rental_uris":{"android":"levelo://app?vid=52b19b0a-896e-4508-971e-9b8862ef11d0","ios":"levelo://app?vid=52b19b0a-896e-4508-971e-9b8862ef11d0"},"vehicle_type_id":"4","last_reported":1741241653,"current_range_meters":16400,"station_id":"cpo3342slgdg3j2ifvpg","pricing_plan_id":"cebpf4jnsgd1na2vs0mg"},{"bike_id":"447a92bd-7842-4c48-8dad-f4fb79ddf924","system_id":"levelo_inurba_marseille","lat":43.29165,"lon":5.37176,"is_reserved":false,"is_disabled":false,"rental_uris":{"android":"levelo://app?vid=447a92bd-7842-4c48-8dad-f4fb79ddf924","ios":"levelo://app?vid=447a92bd-7842-4c48-8dad-f4fb79ddf924"},"vehicle_type_id":"4","last_reported":1741241653,"current_range_meters":16000,"station_id":"ce4bha92rcd13ifvqeh0","pricing_plan_id":"cebpf4jnsgd1na2vs0mg"},{"bike_id":"594cc1b1-cc9e-4a36-b127-5c66c54f3649","system_id":"levelo_inurba_marseille","lat":43.280966,"lon":5.378476,"is_reserved":false,"is_disabled":false,"rental_uris":{"android":"levelo://app?vid=594cc1b1-cc9e-4a36-b127-5c66c54f3649","ios":"levelo://app?vid=594cc1b1-cc9e-4a36-b127-5c66c54f3649"},"vehicle_type_id":"4","last_reported":1741241653,"current_range_meters":16400,"station_id":"ce4bha12rcd13ifvqee0","pricing_plan_id":"cebpf4jnsgd1na2vs0mg"},{"bike_id":"ed0a1c87-782b-4da6-8bf9-56d35209e4f5","system_id":"levelo_inurba_marseille","lat":43.309326,"lon":5.401505,"is_reserved":false,"is_disabled":false,"rental_uris":{"android":"levelo://app?vid=ed0a1c87-782b-4da6-8bf9-56d35209e4f5","ios":"levelo://app?vid=ed0a1c87-782b-4da6-8bf9-56d35209e4f5"},"vehicle_type_id":"4","last_reported":1741241653,"current_range_meters":16400,"station_id":"ce4bgvp2rcd13ifvqct0","pricing_plan_id":"cebpf4jnsgd1na2vs0mg"},{"bike_id":"f3ebaab3-470b-494d-91aa-9a14d4c7b5fa","system_id":"levelo_inurba_marseille","lat":43.282699,"lon":5.350774,"is_reserved":false,"is_disabled":false,"rental_uris":{"android":"levelo://app?vid=f3ebaab3-470b-494d-91aa-9a14d4c7b5fa","ios":"levelo://app?vid=f3ebaab3-470b-494d-91aa-9a14d4c7b5fa"},"vehicle_type_id":"4","last_reported":1741241653,"current_range_meters":16400,"station_id":"ce4bhbp2rcd13ifvqerg","pricing_plan_id":"cebpf4jnsgd1na2vs0mg"},{"bike_id":"3f7e1898-1d54-4ce7-a547-bcb5663df7fe","system_id":"levelo_inurba_marseille","lat":43.25108,"lon":5.40333,"is_reserved":false,"is_disabled":false,"rental_uris":{"android":"levelo://app?vid=3f7e1898-1d54-4ce7-a547-bcb5663df7fe","ios":"levelo://app?vid=3f7e1898-1d54-4ce7-a547-bcb5663df7fe"},"vehicle_type_id":"4","last_reported":1741241653,"current_range_meters":12800,"station_id":"ce4bhlh2rcd13ifvqgig","pricing_plan_id":"cebpf4jnsgd1na2vs0mg"},{"bike_id":"d0975067-6820-4c9b-8967-2dcd7378fd4f","system_id":"levelo_inurba_marseille","lat":43.3049,"lon":5.37871,"is_reserved":false,"is_disabled":false,"rental_uris":{"android":"levelo://app?vid=d0975067-6820-4c9b-8967-2dcd7378fd4f","ios":"levelo://app?vid=d0975067-6820-4c9b-8967-2dcd7378fd4f"},"vehicle_type_id":"4","last_reported":1741241653,"current_range_meters":16400,"station_id":"ce4bgup2rcd13ifvqcn0","pricing_plan_id":"cebpf4jnsgd1na2vs0mg"},{"bike_id":"d61b0e05-07ad-495c-8b81-ddc5d0307d04","system_id":"levelo_inurba_marseille","lat":43.30209,"lon":5.39493,"is_reserved":false,"is_disabled":false,"rental_uris":{"android":"levelo://app?vid=d61b0e05-07ad-495c-8b81-ddc5d0307d04","ios":"levelo://app?vid=d61b0e05-07ad-495c-8b81-ddc5d0307d04"},"vehicle_type_id":"4","last_reported":1741241653,"current_range_meters":16400,"station_id":"ce4bh0p2rcd13ifvqd70","pricing_plan_id":"cebpf4jnsgd1na2vs0mg"},{"bike_id":"f7336e5a-04ed-4c03-9d25-b8e9e2da06c5","system_id":"levelo_inurba_marseille","lat":43.30923,"lon":5.40167,"is_reserved":false,"is_disabled":false,"rental_uris":{"android":"levelo://app?vid=f7336e5a-04ed-4c03-9d25-b8e9e2da06c5","ios":"levelo://app?vid=f7336e5a-04ed-4c03-9d25-b8e9e2da06c5"},"vehicle_type_id":"4","last_reported":1741241653,"current_range_meters":16800,"station_id":"ce4bgvp2rcd13ifvqct0","pricing_plan_id":"cebpf4jnsgd1na2vs0mg"},{"bike_id":"5f2ddb45-c527-40e0-a86d-ac468676d5da","system_id":"levelo_inurba_marseille","lat":43.29049,"lon":5.35939,"is_reserved":false,"is_disabled":false,"rental_uris":{"android":"levelo://app?vid=5f2ddb45-c527-40e0-a86d-ac468676d5da","ios":"levelo://app?vid=5f2ddb45-c527-40e0-a86d-ac468676d5da"},"vehicle_type_id":"4","last_reported":1741241653,"current_range_meters":16800,"station_id":"ce4bha92rcd13ifvqeg0","pricing_plan_id":"cebpf4jnsgd1na2vs0mg"},{"bike_id":"96dc0f48-2896-436c-8466-a121faff54f7","system_id":"levelo_inurba_marseille","lat":43.2509,"lon":5.39539,"is_reserved":false,"is_disabled":false,"rental_uris":{"android":"levelo://app?vid=96dc0f48-2896-436c-8466-a121faff54f7","ios":"levelo://app?vid=96dc0f48-2896-436c-8466-a121faff54f7"},"vehicle_type_id":"4","last_reported":1741241653,"current_range_meters":16800,"station_id":"ce4bhm12rcd13ifvqgkg","pricing_plan_id":"cebpf4jnsgd1na2vs0mg"},{"bike_id":"d9ff3617-2120-408e-a9c1-1c1d3bb9c3b6","system_id":"levelo_inurba_marseille","lat":43.27913,"lon":5.39608,"is_reserved":false,"is_disabled":false,"rental_uris":{"android":"levelo://app?vid=d9ff3617-2120-408e-a9c1-1c1d3bb9c3b6","ios":"levelo://app?vid=d9ff3617-2120-408e-a9c1-1c1d3bb9c3b6"},"vehicle_type_id":"4","last_reported":1741241653,"current_range_meters":16800,"station_id":"ce4bhf92rcd13ifvqf40","pricing_plan_id":"cebpf4jnsgd1na2vs0mg"},{"bike_id":"3821e707-c1b9-44eb-a389-e819447ce33f","system_id":"levelo_inurba_marseille","lat":43.29553,"lon":5.39984,"is_reserved":false,"is_disabled":false,"rental_uris":{"android":"levelo://app?vid=3821e707-c1b9-44eb-a389-e819447ce33f","ios":"levelo://app?vid=3821e707-c1b9-44eb-a389-e819447ce33f"},"vehicle_type_id":"4","last_reported":1741241653,"current_range_meters":16800,"station_id":"ce4bh312rcd13ifvqdj0","pricing_plan_id":"cebpf4jnsgd1na2vs0mg"},{"bike_id":"724c5348-33ed-4db7-9ad0-9a1f4ce43d05","system_id":"levelo_inurba_marseille","lat":43.28949,"lon":5.36426,"is_reserved":false,"is_disabled":true,"rental_uris":{"android":"levelo://app?vid=724c5348-33ed-4db7-9ad0-9a1f4ce43d05","ios":"levelo://app?vid=724c5348-33ed-4db7-9ad0-9a1f4ce43d05"},"vehicle_type_id":"4","last_reported":1741241653,"current_range_meters":16800,"station_id":"ce4bhc92rcd13ifvqetg","pricing_plan_id":"cebpf4jnsgd1na2vs0mg"},{"bike_id":"1ddf4caf-2dd3-4ed4-ad88-58ec421e613e","system_id":"levelo_inurba_marseille","lat":43.28103,"lon":5.37825,"is_reserved":false,"is_disabled":false,"rental_uris":{"android":"levelo://app?vid=1ddf4caf-2dd3-4ed4-ad88-58ec421e613e","ios":"levelo://app?vid=1ddf4caf-2dd3-4ed4-ad88-58ec421e613e"},"vehicle_type_id":"4","last_reported":1741241653,"current_range_meters":16800,"station_id":"ce4bha12rcd13ifvqee0","pricing_plan_id":"cebpf4jnsgd1na2vs0mg"},{"bike_id":"a5c3b538-be82-4a26-aeba-688246823df6","system_id":"levelo_inurba_marseille","lat":43.31274,"lon":5.40158,"is_reserved":false,"is_disabled":false,"rental_uris":{"android":"levelo://app?vid=a5c3b538-be82-4a26-aeba-688246823df6","ios":"levelo://app?vid=a5c3b538-be82-4a26-aeba-688246823df6"},"vehicle_type_id":"4","last_reported":1741241653,"current_range_meters":16800,"station_id":"ce4bh092rcd13ifvqd30","pricing_plan_id":"cebpf4jnsgd1na2vs0mg"},{"bike_id":"f6886864-24d9-446e-843a-3a8c7cbefacd","system_id":"levelo_inurba_marseille","lat":43.278186,"lon":5.407301,"is_reserved":false,"is_disabled":false,"rental_uris":{"android":"levelo://app?vid=f6886864-24d9-446e-843a-3a8c7cbefacd","ios":"levelo://app?vid=f6886864-24d9-446e-843a-3a8c7cbefacd"},"vehicle_type_id":"4","last_reported":1741241653,"current_range_meters":16800,"station_id":"ce4bhnh2rcd13ifvqgtg","pricing_plan_id":"cebpf4jnsgd1na2vs0mg"},{"bike_id":"94512417-7e3b-48f9-b4db-2d349dac6212","system_id":"levelo_inurba_marseille","lat":43.31532,"lon":5.3806,"is_reserved":false,"is_disabled":false,"rental_uris":{"android":"levelo://app?vid=94512417-7e3b-48f9-b4db-2d349dac6212","ios":"levelo://app?vid=94512417-7e3b-48f9-b4db-2d349dac6212"},"vehicle_type_id":"4","last_reported":1741241653,"current_range_meters":16800,"station_id":"ce4bhsp2rcd13ifvqi50","pricing_plan_id":"cebpf4jnsgd1na2vs0mg"},{"bike_id":"b085439e-cb6b-496a-a8f4-7c0b0e3f5ec0","system_id":"levelo_inurba_marseille","lat":43.33731,"lon":5.3558,"is_reserved":false,"is_disabled":false,"rental_uris":{"android":"levelo://app?vid=b085439e-cb6b-496a-a8f4-7c0b0e3f5ec0","ios":"levelo://app?vid=b085439e-cb6b-496a-a8f4-7c0b0e3f5ec0"},"vehicle_type_id":"4","last_reported":1741241653,"current_range_meters":16800,"station_id":"","pricing_plan_id":"cebpf4jnsgd1na2vs0mg"},{"bike_id":"e5fadbdb-1897-4cfa-a43d-1c237c9d192a","system_id":"levelo_inurba_marseille","lat":43.310684,"lon":5.383521,"is_reserved":false,"is_disabled":false,"rental_uris":{"android":"levelo://app?vid=e5fadbdb-1897-4cfa-a43d-1c237c9d192a","ios":"levelo://app?vid=e5fadbdb-1897-4cfa-a43d-1c237c9d192a"},"vehicle_type_id":"4","last_reported":1741241653,"current_range_meters":17200,"station_id":"ce4bgv92rcd13ifvqcr0","pricing_plan_id":"cebpf4jnsgd1na2vs0mg"},{"bike_id":"322f7df7-77ff-4e80-85a1-2d36ed5507f3","system_id":"levelo_inurba_marseille","lat":43.289339,"lon":5.384047,"is_reserved":false,"is_disabled":false,"rental_uris":{"android":"levelo://app?vid=322f7df7-77ff-4e80-85a1-2d36ed5507f3","ios":"levelo://app?vid=322f7df7-77ff-4e80-85a1-2d36ed5507f3"},"vehicle_type_id":"4","last_reported":1741241653,"current_range_meters":17200,"station_id":"ce4bh612rcd13ifvqe6g","pricing_plan_id":"cebpf4jnsgd1na2vs0mg"},{"bike_id":"54833c0a-a9a7-4c42-873b-474bce89055b","system_id":"levelo_inurba_marseille","lat":43.23051,"lon":5.35499,"is_reserved":false,"is_disabled":false,"rental_uris":{"android":"levelo://app?vid=54833c0a-a9a7-4c42-873b-474bce89055b","ios":"levelo://app?vid=54833c0a-a9a7-4c42-873b-474bce89055b"},"vehicle_type_id":"4","last_reported":1741241653,"current_range_meters":17200,"station_id":"cpo3342slgdg3j2ifvpg","pricing_plan_id":"cebpf4jnsgd1na2vs0mg"},{"bike_id":"44c7cb72-93cd-4026-80af-ec50fb7941a7","system_id":"levelo_inurba_marseille","lat":43.30809,"lon":5.43545,"is_reserved":false,"is_disabled":false,"rental_uris":{"android":"levelo://app?vid=44c7cb72-93cd-4026-80af-ec50fb7941a7","ios":"levelo://app?vid=44c7cb72-93cd-4026-80af-ec50fb7941a7"},"vehicle_type_id":"4","last_reported":1741241653,"current_range_meters":17200,"station_id":"ce4bhph2rcd13ifvqheg","pricing_plan_id":"cebpf4jnsgd1na2vs0mg"},{"bike_id":"b33a5090-bc4a-4b67-9a3e-d7e636cff1f7","system_id":"levelo_inurba_marseille","lat":43.251065,"lon":5.403291,"is_reserved":false,"is_disabled":false,"rental_uris":{"android":"levelo://app?vid=b33a5090-bc4a-4b67-9a3e-d7e636cff1f7","ios":"levelo://app?vid=b33a5090-bc4a-4b67-9a3e-d7e636cff1f7"},"vehicle_type_id":"4","last_reported":1741241653,"current_range_meters":17200,"station_id":"ce4bhlh2rcd13ifvqgig","pricing_plan_id":"cebpf4jnsgd1na2vs0mg"},{"bike_id":"c7b54c7b-0e0f-49e2-a9e1-63c95c9661ab","system_id":"levelo_inurba_marseille","lat":43.28854,"lon":5.35849,"is_reserved":false,"is_disabled":false,"rental_uris":{"android":"levelo://app?vid=c7b54c7b-0e0f-49e2-a9e1-63c95c9661ab","ios":"levelo://app?vid=c7b54c7b-0e0f-49e2-a9e1-63c95c9661ab"},"vehicle_type_id":"4","last_reported":1741241653,"current_range_meters":17200,"station_id":"ce4bhb12rcd13ifvqem0","pricing_plan_id":"cebpf4jnsgd1na2vs0mg"},{"bike_id":"07b43907-4592-44ed-b234-f88481cf00c2","system_id":"levelo_inurba_marseille","lat":43.28418,"lon":5.35001,"is_reserved":false,"is_disabled":false,"rental_uris":{"android":"levelo://app?vid=07b43907-4592-44ed-b234-f88481cf00c2","ios":"levelo://app?vid=07b43907-4592-44ed-b234-f88481cf00c2"},"vehicle_type_id":"4","last_reported":1741241653,"current_range_meters":17200,"station_id":"ce4bhbh2rcd13ifvqepg","pricing_plan_id":"cebpf4jnsgd1na2vs0mg"},{"bike_id":"193032e0-b668-4499-9ca7-5b3d4a792e7a","system_id":"levelo_inurba_marseille","lat":43.278361,"lon":5.391979,"is_reserved":false,"is_disabled":false,"rental_uris":{"android":"levelo://app?vid=193032e0-b668-4499-9ca7-5b3d4a792e7a","ios":"levelo://app?vid=193032e0-b668-4499-9ca7-5b3d4a792e7a"},"vehicle_type_id":"4","last_reported":1741241653,"current_range_meters":17200,"station_id":"ce4bhjp2rcd13ifvqga0","pricing_plan_id":"cebpf4jnsgd1na2vs0mg"},{"bike_id":"706348fe-ee5b-4e7e-9c72-3877ff9f0f30","system_id":"levelo_inurba_marseille","lat":43.30796,"lon":5.37674,"is_reserved":false,"is_disabled":false,"rental_uris":{"android":"levelo://app?vid=706348fe-ee5b-4e7e-9c72-3877ff9f0f30","ios":"levelo://app?vid=706348fe-ee5b-4e7e-9c72-3877ff9f0f30"},"vehicle_type_id":"4","last_reported":1741241653,"current_range_meters":17200,"station_id":"ce4bgv92rcd13ifvqcq0","pricing_plan_id":"cebpf4jnsgd1na2vs0mg"},{"bike_id":"43bf0e86-1072-4836-816e-dbe642614423","system_id":"levelo_inurba_marseille","lat":43.30466,"lon":5.37915,"is_reserved":false,"is_disabled":false,"rental_uris":{"android":"levelo://app?vid=43bf0e86-1072-4836-816e-dbe642614423","ios":"levelo://app?vid=43bf0e86-1072-4836-816e-dbe642614423"},"vehicle_type_id":"4","last_reported":1741241653,"current_range_meters":17600,"station_id":"ce4bgup2rcd13ifvqcn0","pricing_plan_id":"cebpf4jnsgd1na2vs0mg"},{"bike_id":"459ed71f-fb70-4100-aa95-83a472c1824f","system_id":"levelo_inurba_marseille","lat":43.301437,"lon":5.37411,"is_reserved":false,"is_disabled":false,"rental_uris":{"android":"levelo://app?vid=459ed71f-fb70-4100-aa95-83a472c1824f","ios":"levelo://app?vid=459ed71f-fb70-4100-aa95-83a472c1824f"},"vehicle_type_id":"4","last_reported":1741241653,"current_range_meters":17600,"station_id":"ce4bgs92rcd13ifvqcc0","pricing_plan_id":"cebpf4jnsgd1na2vs0mg"},{"bike_id":"b82a4310-faa0-49cc-ac88-47512c5fe680","system_id":"levelo_inurba_marseille","lat":43.30886,"lon":5.39668,"is_reserved":false,"is_disabled":false,"rental_uris":{"android":"levelo://app?vid=b82a4310-faa0-49cc-ac88-47512c5fe680","ios":"levelo://app?vid=b82a4310-faa0-49cc-ac88-47512c5fe680"},"vehicle_type_id":"4","last_reported":1741241653,"current_range_meters":17600,"station_id":"ce4bh012rcd13ifvqcv0","pricing_plan_id":"cebpf4jnsgd1na2vs0mg"},{"bike_id":"65bf6ee4-49b5-43c9-9c8a-bc88e0255f25","system_id":"levelo_inurba_marseille","lat":43.277134,"lon":5.407048,"is_reserved":false,"is_disabled":false,"rental_uris":{"android":"levelo://app?vid=65bf6ee4-49b5-43c9-9c8a-bc88e0255f25","ios":"levelo://app?vid=65bf6ee4-49b5-43c9-9c8a-bc88e0255f25"},"vehicle_type_id":"4","last_reported":1741241653,"current_range_meters":17600,"station_id":"","pricing_plan_id":"cebpf4jnsgd1na2vs0mg"},{"bike_id":"0897192a-786a-47a3-a26a-331f0f70deb2","system_id":"levelo_inurba_marseille","lat":43.23186,"lon":5.39998,"is_reserved":false,"is_disabled":false,"rental_uris":{"android":"levelo://app?vid=0897192a-786a-47a3-a26a-331f0f70deb2","ios":"levelo://app?vid=0897192a-786a-47a3-a26a-331f0f70deb2"},"vehicle_type_id":"4","last_reported":1741241653,"current_range_meters":17600,"station_id":"ce4bhn12rcd13ifvqgqg","pricing_plan_id":"cebpf4jnsgd1na2vs0mg"},{"bike_id":"345df5a7-fb0f-497e-9d5b-7d22ac7f8c03","system_id":"levelo_inurba_marseille","lat":43.30928,"lon":5.4016,"is_reserved":false,"is_disabled":false,"rental_uris":{"android":"levelo://app?vid=345df5a7-fb0f-497e-9d5b-7d22ac7f8c03","ios":"levelo://app?vid=345df5a7-fb0f-497e-9d5b-7d22ac7f8c03"},"vehicle_type_id":"4","last_reported":1741241653,"current_range_meters":17600,"station_id":"ce4bgvp2rcd13ifvqct0","pricing_plan_id":"cebpf4jnsgd1na2vs0mg"},{"bike_id":"6ec12166-7b33-49ef-82f1-61e25b9f165f","system_id":"levelo_inurba_marseille","lat":43.3031,"lon":5.40446,"is_reserved":false,"is_disabled":false,"rental_uris":{"android":"levelo://app?vid=6ec12166-7b33-49ef-82f1-61e25b9f165f","ios":"levelo://app?vid=6ec12166-7b33-49ef-82f1-61e25b9f165f"},"vehicle_type_id":"4","last_reported":1741241653,"current_range_meters":17600,"station_id":"ce4bh012rcd13ifvqd10","pricing_plan_id":"cebpf4jnsgd1na2vs0mg"},{"bike_id":"d0a9e0b6-7460-48af-b167-fa241d6b44c3","system_id":"levelo_inurba_marseille","lat":43.32101,"lon":5.36804,"is_reserved":false,"is_disabled":false,"rental_uris":{"android":"levelo://app?vid=d0a9e0b6-7460-48af-b167-fa241d6b44c3","ios":"levelo://app?vid=d0a9e0b6-7460-48af-b167-fa241d6b44c3"},"vehicle_type_id":"4","last_reported":1741241653,"current_range_meters":17600,"station_id":"ce4bhrh2rcd13ifvqhug","pricing_plan_id":"cebpf4jnsgd1na2vs0mg"},{"bike_id":"30e8d7a5-69a6-44bb-b100-15ca3fbb311d","system_id":"levelo_inurba_marseille","lat":43.31305,"lon":5.40182,"is_reserved":false,"is_disabled":false,"rental_uris":{"android":"levelo://app?vid=30e8d7a5-69a6-44bb-b100-15ca3fbb311d","ios":"levelo://app?vid=30e8d7a5-69a6-44bb-b100-15ca3fbb311d"},"vehicle_type_id":"4","last_reported":1741241653,"current_range_meters":18000,"station_id":"","pricing_plan_id":"cebpf4jnsgd1na2vs0mg"},{"bike_id":"319d1c71-d439-40f9-9c3f-da1a01d1d6d9","system_id":"levelo_inurba_marseille","lat":43.3093,"lon":5.40142,"is_reserved":false,"is_disabled":false,"rental_uris":{"android":"levelo://app?vid=319d1c71-d439-40f9-9c3f-da1a01d1d6d9","ios":"levelo://app?vid=319d1c71-d439-40f9-9c3f-da1a01d1d6d9"},"vehicle_type_id":"4","last_reported":1741241653,"current_range_meters":18000,"station_id":"ce4bgvp2rcd13ifvqct0","pricing_plan_id":"cebpf4jnsgd1na2vs0mg"},{"bike_id":"8f8ffd82-d094-4076-99ce-302d87adc130","system_id":"levelo_inurba_marseille","lat":43.30948,"lon":5.39043,"is_reserved":false,"is_disabled":true,"rental_uris":{"android":"levelo://app?vid=8f8ffd82-d094-4076-99ce-302d87adc130","ios":"levelo://app?vid=8f8ffd82-d094-4076-99ce-302d87adc130"},"vehicle_type_id":"4","last_reported":1741241653,"current_range_meters":18000,"station_id":"ce4bgup2rcd13ifvqco0","pricing_plan_id":"cebpf4jnsgd1na2vs0mg"},{"bike_id":"b51d70fe-d7d1-4798-9940-8a3ef427e13a","system_id":"levelo_inurba_marseille","lat":43.30202,"lon":5.39467,"is_reserved":false,"is_disabled":false,"rental_uris":{"android":"levelo://app?vid=b51d70fe-d7d1-4798-9940-8a3ef427e13a","ios":"levelo://app?vid=b51d70fe-d7d1-4798-9940-8a3ef427e13a"},"vehicle_type_id":"4","last_reported":1741241653,"current_range_meters":18000,"station_id":"ce4bh0p2rcd13ifvqd70","pricing_plan_id":"cebpf4jnsgd1na2vs0mg"},{"bike_id":"51b68840-8d47-4300-b40d-f0c7ad03beed","system_id":"levelo_inurba_marseille","lat":43.24677,"lon":5.38163,"is_reserved":false,"is_disabled":false,"rental_uris":{"android":"levelo://app?vid=51b68840-8d47-4300-b40d-f0c7ad03beed","ios":"levelo://app?vid=51b68840-8d47-4300-b40d-f0c7ad03beed"},"vehicle_type_id":"4","last_reported":1741241653,"current_range_meters":18000,"station_id":"ce4bhih2rcd13ifvqfr0","pricing_plan_id":"cebpf4jnsgd1na2vs0mg"},{"bike_id":"3b6cf2e6-733b-424f-b3d7-58418e2eccfd","system_id":"levelo_inurba_marseille","lat":43.32974,"lon":5.38898,"is_reserved":false,"is_disabled":false,"rental_uris":{"android":"levelo://app?vid=3b6cf2e6-733b-424f-b3d7-58418e2eccfd","ios":"levelo://app?vid=3b6cf2e6-733b-424f-b3d7-58418e2eccfd"},"vehicle_type_id":"4","last_reported":1741241653,"current_range_meters":18000,"station_id":"","pricing_plan_id":"cebpf4jnsgd1na2vs0mg"},{"bike_id":"2425cece-fb41-44e0-a843-4346c4855cd5","system_id":"levelo_inurba_marseille","lat":43.29838,"lon":5.36268,"is_reserved":false,"is_disabled":false,"rental_uris":{"android":"levelo://app?vid=2425cece-fb41-44e0-a843-4346c4855cd5","ios":"levelo://app?vid=2425cece-fb41-44e0-a843-4346c4855cd5"},"vehicle_type_id":"4","last_reported":1741241653,"current_range_meters":18000,"station_id":"ce4bgpp2rcd13ifvqc3g","pricing_plan_id":"cebpf4jnsgd1na2vs0mg"},{"bike_id":"1baecbd8-cbe4-442a-b057-d93857883888","system_id":"levelo_inurba_marseille","lat":43.24613,"lon":5.40818,"is_reserved":false,"is_disabled":false,"rental_uris":{"android":"levelo://app?vid=1baecbd8-cbe4-442a-b057-d93857883888","ios":"levelo://app?vid=1baecbd8-cbe4-442a-b057-d93857883888"},"vehicle_type_id":"4","last_reported":1741241653,"current_range_meters":18000,"station_id":"","pricing_plan_id":"cebpf4jnsgd1na2vs0mg"},{"bike_id":"e5ed8e38-e43c-46c9-8775-31e68c42a0a9","system_id":"levelo_inurba_marseille","lat":43.295203,"lon":5.390478,"is_reserved":false,"is_disabled":false,"rental_uris":{"android":"levelo://app?vid=e5ed8e38-e43c-46c9-8775-31e68c42a0a9","ios":"levelo://app?vid=e5ed8e38-e43c-46c9-8775-31e68c42a0a9"},"vehicle_type_id":"4","last_reported":1741241653,"current_range_meters":18000,"station_id":"ce4bh3p2rcd13ifvqdp0","pricing_plan_id":"cebpf4jnsgd1na2vs0mg"},{"bike_id":"6a452d88-2004-453e-ba9e-afaba91cc966","system_id":"levelo_inurba_marseille","lat":43.30863,"lon":5.39647,"is_reserved":false,"is_disabled":false,"rental_uris":{"android":"levelo://app?vid=6a452d88-2004-453e-ba9e-afaba91cc966","ios":"levelo://app?vid=6a452d88-2004-453e-ba9e-afaba91cc966"},"vehicle_type_id":"4","last_reported":1741241653,"current_range_meters":18000,"station_id":"ce4bh012rcd13ifvqcv0","pricing_plan_id":"cebpf4jnsgd1na2vs0mg"},{"bike_id":"307f52f6-a436-410e-a47f-1cefab8456ff","system_id":"levelo_inurba_marseille","lat":43.323614,"lon":5.388876,"is_reserved":false,"is_disabled":false,"rental_uris":{"android":"levelo://app?vid=307f52f6-a436-410e-a47f-1cefab8456ff","ios":"levelo://app?vid=307f52f6-a436-410e-a47f-1cefab8456ff"},"vehicle_type_id":"4","last_reported":1741241653,"current_range_meters":18000,"station_id":"ce4bhqp2rcd13ifvqhog","pricing_plan_id":"cebpf4jnsgd1na2vs0mg"},{"bike_id":"39536716-8903-49fd-80c2-c649c01de277","system_id":"levelo_inurba_marseille","lat":43.30803,"lon":5.43531,"is_reserved":false,"is_disabled":false,"rental_uris":{"android":"levelo://app?vid=39536716-8903-49fd-80c2-c649c01de277","ios":"levelo://app?vid=39536716-8903-49fd-80c2-c649c01de277"},"vehicle_type_id":"4","last_reported":1741241653,"current_range_meters":18000,"station_id":"ce4bhph2rcd13ifvqheg","pricing_plan_id":"cebpf4jnsgd1na2vs0mg"},{"bike_id":"cb23fa5e-5019-40d7-a239-c075baf0c85b","system_id":"levelo_inurba_marseille","lat":43.28934,"lon":5.36616,"is_reserved":false,"is_disabled":false,"rental_uris":{"android":"levelo://app?vid=cb23fa5e-5019-40d7-a239-c075baf0c85b","ios":"levelo://app?vid=cb23fa5e-5019-40d7-a239-c075baf0c85b"},"vehicle_type_id":"4","last_reported":1741241653,"current_range_meters":18000,"station_id":"ce4bhap2rcd13ifvqek0","pricing_plan_id":"cebpf4jnsgd1na2vs0mg"},{"bike_id":"951f894d-5090-486b-9c98-f391f995f5d7","system_id":"levelo_inurba_marseille","lat":43.28248,"lon":5.35066,"is_reserved":false,"is_disabled":false,"rental_uris":{"android":"levelo://app?vid=951f894d-5090-486b-9c98-f391f995f5d7","ios":"levelo://app?vid=951f894d-5090-486b-9c98-f391f995f5d7"},"vehicle_type_id":"4","last_reported":1741241653,"current_range_meters":18800,"station_id":"ce4bhbp2rcd13ifvqerg","pricing_plan_id":"cebpf4jnsgd1na2vs0mg"},{"bike_id":"d0bf5353-7693-4fd0-a45f-503153bcd9d1","system_id":"levelo_inurba_marseille","lat":43.307216,"lon":5.375468,"is_reserved":false,"is_disabled":false,"rental_uris":{"android":"levelo://app?vid=d0bf5353-7693-4fd0-a45f-503153bcd9d1","ios":"levelo://app?vid=d0bf5353-7693-4fd0-a45f-503153bcd9d1"},"vehicle_type_id":"4","last_reported":1741241653,"current_range_meters":18800,"station_id":"ce4bgn92rcd13ifvqbvg","pricing_plan_id":"cebpf4jnsgd1na2vs0mg"},{"bike_id":"a5360ae0-ea96-4dcc-8b01-df2decc0375b","system_id":"levelo_inurba_marseille","lat":43.31984,"lon":5.38136,"is_reserved":false,"is_disabled":false,"rental_uris":{"android":"levelo://app?vid=a5360ae0-ea96-4dcc-8b01-df2decc0375b","ios":"levelo://app?vid=a5360ae0-ea96-4dcc-8b01-df2decc0375b"},"vehicle_type_id":"4","last_reported":1741241653,"current_range_meters":18800,"station_id":"ce4bhr12rcd13ifvqhpg","pricing_plan_id":"cebpf4jnsgd1na2vs0mg"},{"bike_id":"13d2401c-c2b1-4c69-83f1-e9cb49846672","system_id":"levelo_inurba_marseille","lat":43.30476,"lon":5.37909,"is_reserved":false,"is_disabled":false,"rental_uris":{"android":"levelo://app?vid=13d2401c-c2b1-4c69-83f1-e9cb49846672","ios":"levelo://app?vid=13d2401c-c2b1-4c69-83f1-e9cb49846672"},"vehicle_type_id":"4","last_reported":1741241653,"current_range_meters":18800,"station_id":"ce4bgup2rcd13ifvqcn0","pricing_plan_id":"cebpf4jnsgd1na2vs0mg"},{"bike_id":"10b74c6d-04bc-43c8-b892-4a1d3e03c2bd","system_id":"levelo_inurba_marseille","lat":43.230648,"lon":5.354854,"is_reserved":false,"is_disabled":false,"rental_uris":{"android":"levelo://app?vid=10b74c6d-04bc-43c8-b892-4a1d3e03c2bd","ios":"levelo://app?vid=10b74c6d-04bc-43c8-b892-4a1d3e03c2bd"},"vehicle_type_id":"4","last_reported":1741241653,"current_range_meters":18800,"station_id":"cpo3342slgdg3j2ifvpg","pricing_plan_id":"cebpf4jnsgd1na2vs0mg"},{"bike_id":"761f8d61-869a-4031-abac-b74b42447e9b","system_id":"levelo_inurba_marseille","lat":43.31119,"lon":5.3779,"is_reserved":false,"is_disabled":false,"rental_uris":{"android":"levelo://app?vid=761f8d61-869a-4031-abac-b74b42447e9b","ios":"levelo://app?vid=761f8d61-869a-4031-abac-b74b42447e9b"},"vehicle_type_id":"4","last_reported":1741241653,"current_range_meters":18800,"station_id":"ce4bgt92rcd13ifvqcg0","pricing_plan_id":"cebpf4jnsgd1na2vs0mg"},{"bike_id":"d422ad76-48eb-4ee5-a760-5a4f329df338","system_id":"levelo_inurba_marseille","lat":43.29619,"lon":5.406,"is_reserved":false,"is_disabled":false,"rental_uris":{"android":"levelo://app?vid=d422ad76-48eb-4ee5-a760-5a4f329df338","ios":"levelo://app?vid=d422ad76-48eb-4ee5-a760-5a4f329df338"},"vehicle_type_id":"4","last_reported":1741241653,"current_range_meters":18800,"station_id":"ce4bh0h2rcd13ifvqd60","pricing_plan_id":"cebpf4jnsgd1na2vs0mg"},{"bike_id":"3ec7b312-fe8c-4093-9ada-4b24e22ddc43","system_id":"levelo_inurba_marseille","lat":43.291901,"lon":5.393201,"is_reserved":false,"is_disabled":false,"rental_uris":{"android":"levelo://app?vid=3ec7b312-fe8c-4093-9ada-4b24e22ddc43","ios":"levelo://app?vid=3ec7b312-fe8c-4093-9ada-4b24e22ddc43"},"vehicle_type_id":"4","last_reported":1741241653,"current_range_meters":18800,"station_id":"ce4bh192rcd13ifvqdd0","pricing_plan_id":"cebpf4jnsgd1na2vs0mg"},{"bike_id":"96effe73-85e8-4e89-8bfb-70b0e1c469f7","system_id":"levelo_inurba_marseille","lat":43.312756,"lon":5.401665,"is_reserved":false,"is_disabled":false,"rental_uris":{"android":"levelo://app?vid=96effe73-85e8-4e89-8bfb-70b0e1c469f7","ios":"levelo://app?vid=96effe73-85e8-4e89-8bfb-70b0e1c469f7"},"vehicle_type_id":"4","last_reported":1741241653,"current_range_meters":18800,"station_id":"ce4bh092rcd13ifvqd30","pricing_plan_id":"cebpf4jnsgd1na2vs0mg"},{"bike_id":"1a6ca591-bf26-416e-86db-f86cbedf466c","system_id":"levelo_inurba_marseille","lat":43.30787,"lon":5.3766,"is_reserved":false,"is_disabled":false,"rental_uris":{"android":"levelo://app?vid=1a6ca591-bf26-416e-86db-f86cbedf466c","ios":"levelo://app?vid=1a6ca591-bf26-416e-86db-f86cbedf466c"},"vehicle_type_id":"4","last_reported":1741241653,"current_range_meters":18800,"station_id":"ce4bgv92rcd13ifvqcq0","pricing_plan_id":"cebpf4jnsgd1na2vs0mg"},{"bike_id":"09605d6d-100a-43ad-8760-fd3ff7c9af77","system_id":"levelo_inurba_marseille","lat":43.24078,"lon":5.37759,"is_reserved":false,"is_disabled":false,"rental_uris":{"android":"levelo://app?vid=09605d6d-100a-43ad-8760-fd3ff7c9af77","ios":"levelo://app?vid=09605d6d-100a-43ad-8760-fd3ff7c9af77"},"vehicle_type_id":"4","last_reported":1741241653,"current_range_meters":19200,"station_id":"ce4bhnp2rcd13ifvqgvg","pricing_plan_id":"cebpf4jnsgd1na2vs0mg"},{"bike_id":"8606274a-9640-43c4-8cef-9c97f5dd6ff3","system_id":"levelo_inurba_marseille","lat":43.230634,"lon":5.354939,"is_reserved":false,"is_disabled":false,"rental_uris":{"android":"levelo://app?vid=8606274a-9640-43c4-8cef-9c97f5dd6ff3","ios":"levelo://app?vid=8606274a-9640-43c4-8cef-9c97f5dd6ff3"},"vehicle_type_id":"4","last_reported":1741241653,"current_range_meters":19200,"station_id":"cpo3342slgdg3j2ifvpg","pricing_plan_id":"cebpf4jnsgd1na2vs0mg"},{"bike_id":"2ffa218a-1588-40f8-9098-10e29458cb35","system_id":"levelo_inurba_marseille","lat":43.306407,"lon":5.400704,"is_reserved":false,"is_disabled":false,"rental_uris":{"android":"levelo://app?vid=2ffa218a-1588-40f8-9098-10e29458cb35","ios":"levelo://app?vid=2ffa218a-1588-40f8-9098-10e29458cb35"},"vehicle_type_id":"4","last_reported":1741241653,"current_range_meters":19200,"station_id":"ce4bh112rcd13ifvqda0","pricing_plan_id":"cebpf4jnsgd1na2vs0mg"},{"bike_id":"be8a6fcf-6a3a-4bba-b7ed-c5ca1e3d585c","system_id":"levelo_inurba_marseille","lat":43.265621,"lon":5.390171,"is_reserved":false,"is_disabled":false,"rental_uris":{"android":"levelo://app?vid=be8a6fcf-6a3a-4bba-b7ed-c5ca1e3d585c","ios":"levelo://app?vid=be8a6fcf-6a3a-4bba-b7ed-c5ca1e3d585c"},"vehicle_type_id":"4","last_reported":1741241653,"current_range_meters":19200,"station_id":"ce4bhe12rcd13ifvqf30","pricing_plan_id":"cebpf4jnsgd1na2vs0mg"},{"bike_id":"19c21701-040b-47e4-8d98-aec46b5341b5","system_id":"levelo_inurba_marseille","lat":43.29933,"lon":5.36535,"is_reserved":false,"is_disabled":true,"rental_uris":{"android":"levelo://app?vid=19c21701-040b-47e4-8d98-aec46b5341b5","ios":"levelo://app?vid=19c21701-040b-47e4-8d98-aec46b5341b5"},