{"last_updated":1732705697,"ttl":60,"version":"2.2","data":{"bikes":[{"bike_id":"c6a7d785-3704-497f-a4a1-3b79a59f06ec","system_id":"levelo_inurba_marseille","lat":43.25728,"lon":5.41109,"is_reserved":false,"is_disabled":false,"rental_uris":{"android":"levelo://app?vid=c6a7d785-3704-497f-a4a1-3b79a59f06ec","ios":"levelo://app?vid=c6a7d785-3704-497f-a4a1-3b79a59f06ec"},"vehicle_type_id":"4","last_reported":1732705697,"current_range_meters":28000,"station_id":"ce4bhkp2rcd13ifvqgd0","pricing_plan_id":"cebpf4jnsgd1na2vs0mg"},{"bike_id":"bf2cd157-98d0-4e6e-818c-0734b30a6a82","system_id":"levelo_inurba_marseille","lat":43.27812,"lon":5.40717,"is_reserved":false,"is_disabled":false,"rental_uris":{"android":"levelo://app?vid=bf2cd157-98d0-4e6e-818c-0734b30a6a82","ios":"levelo://app?vid=bf2cd157-98d0-4e6e-818c-0734b30a6a82"},"vehicle_type_id":"4","last_reported":1732705697,"current_range_meters":38800,"station_id":"ce4bhnh2rcd13ifvqgtg","pricing_plan_id":"cebpf4jnsgd1na2vs0mg"},{"bike_id":"f63a2a00-2c2b-41cf-9bf2-46b189bba93c","system_id":"levelo_inurba_marseille","lat":43.25936,"lon":5.40901,"is_reserved":false,"is_disabled":false,"rental_uris":{"android":"levelo://app?vid=f63a2a00-2c2b-41cf-9bf2-46b189bba93c","ios":"levelo://app?vid=f63a2a00-2c2b-41cf-9bf2-46b189bba93c"},"vehicle_type_id":"4","last_reported":1732705697,"current_range_meters":22000,"station_id":"ce4bhm92rcd13ifvqglg","pricing_plan_id":"cebpf4jnsgd1na2vs0mg"},{"bike_id":"b856c8b4-412d-4c25-bdd4-e6b29aed04cb","system_id":"levelo_inurba_marseille","lat":43.22939,"lon":5.35375,"is_reserved":false,"is_disabled":false,"rental_uris":{"android":"levelo://app?vid=b856c8b4-412d-4c25-bdd4-e6b29aed04cb","ios":"levelo://app?vid=b856c8b4-412d-4c25-bdd4-e6b29aed04cb"},"vehicle_type_id":"4","last_reported":1732705697,"current_range_meters":38800,"station_id":"cpo3532slgdg3j2ikp40","pricing_plan_id":"cebpf4jnsgd1na2vs0mg"},{"bike_id":"0d410fde-b765-4093-b20b-b740bc0bc4ad","system_id":"levelo_inurba_marseille","lat":43.29933,"lon":5.36556,"is_reserved":false,"is_disabled":false,"rental_uris":{"android":"levelo://app?vid=0d410fde-b765-4093-b20b-b740bc0bc4ad","ios":"levelo://app?vid=0d410fde-b765-4093-b20b-b740bc0bc4ad"},"vehicle_type_id":"4","last_reported":1732705697,"current_range_meters":11200,"station_id":"ce4bgm92rcd13ifvqbr0","pricing_plan_id":"cebpf4jnsgd1na2vs0mg"},{"bike_id":"b51d31e3-b561-4c0d-b4c9-74c74d6a4aa9","system_id":"levelo_inurba_marseille","lat":43.33026,"lon":5.39042,"is_reserved":false,"is_disabled":false,"rental_uris":{"android":"levelo://app?vid=b51d31e3-b561-4c0d-b4c9-74c74d6a4aa9","ios":"levelo://app?vid=b51d31e3-b561-4c0d-b4c9-74c74d6a4aa9"},"vehicle_type_id":"4","last_reported":1732705697,"current_range_meters":37600,"station_id":"ce4bhr92rcd13ifvqhrg","pricing_plan_id":"cebpf4jnsgd1na2vs0mg"},{"bike_id":"13b69a4c-c9d5-4b43-b76b-633ca739dbed","system_id":"levelo_inurba_marseille","lat":43.31347,"lon":5.36705,"is_reserved":false,"is_disabled":false,"rental_uris":{"android":"levelo://app?vid=13b69a4c-c9d5-4b43-b76b-633ca739dbed","ios":"levelo://app?vid=13b69a4c-c9d5-4b43-b76b-633ca739dbed"},"vehicle_type_id":"4","last_reported":1732705697,"current_range_meters":11200,"station_id":"ce4bgr92rcd13ifvqc6g","pricing_plan_id":"cebpf4jnsgd1na2vs0mg"},{"bike_id":"1eef9eb7-b5ee-4a03-83fc-d6b138454ce3","system_id":"levelo_inurba_marseille","lat":43.29705,"lon":5.36595,"is_reserved":false,"is_disabled":false,"rental_uris":{"android":"levelo://app?vid=1eef9eb7-b5ee-4a03-83fc-d6b138454ce3","ios":"levelo://app?vid=1eef9eb7-b5ee-4a03-83fc-d6b138454ce3"},"vehicle_type_id":"4","last_reported":1732705697,"current_range_meters":13600,"station_id":"ce4bgn12rcd13ifvqbt0","pricing_plan_id":"cebpf4jnsgd1na2vs0mg"},{"bike_id":"d2cf7a78-7eb1-4d32-aa77-ae8ed51e3e3f","system_id":"levelo_inurba_marseille","lat":43.33792,"lon":5.37418,"is_reserved":false,"is_disabled":false,"rental_uris":{"android":"levelo://app?vid=d2cf7a78-7eb1-4d32-aa77-ae8ed51e3e3f","ios":"levelo://app?vid=d2cf7a78-7eb1-4d32-aa77-ae8ed51e3e3f"},"vehicle_type_id":"4","last_reported":1732705697,"current_range_meters":19200,"station_id":"","pricing_plan_id":"cebpf4jnsgd1na2vs0mg"},{"bike_id":"0fa82e23-4a3f-460a-a0a9-6383841fe087","system_id":"levelo_inurba_marseille","lat":43.27996,"lon":5.40024,"is_reserved":false,"is_disabled":false,"rental_uris":{"android":"levelo://app?vid=0fa82e23-4a3f-460a-a0a9-6383841fe087","ios":"levelo://app?vid=0fa82e23-4a3f-460a-a0a9-6383841fe087"},"vehicle_type_id":"4","last_reported":1732705697,"current_range_meters":38400,"station_id":"ce4bho92rcd13ifvqh4g","pricing_plan_id":"cebpf4jnsgd1na2vs0mg"},{"bike_id":"8032568c-5562-4291-a13f-2cd7bc5d78af","system_id":"levelo_inurba_marseille","lat":43.337444,"lon":5.374475,"is_reserved":false,"is_disabled":false,"rental_uris":{"android":"levelo://app?vid=8032568c-5562-4291-a13f-2cd7bc5d78af","ios":"levelo://app?vid=8032568c-5562-4291-a13f-2cd7bc5d78af"},"vehicle_type_id":"4","last_reported":1732705697,"current_range_meters":33600,"station_id":"","pricing_plan_id":"cebpf4jnsgd1na2vs0mg"},{"bike_id":"522f5c9a-37f2-4533-9aa9-c80c579cb6b6","system_id":"levelo_inurba_marseille","lat":43.30148,"lon":5.38083,"is_reserved":false,"is_disabled":false,"rental_uris":{"android":"levelo://app?vid=522f5c9a-37f2-4533-9aa9-c80c579cb6b6","ios":"levelo://app?vid=522f5c9a-37f2-4533-9aa9-c80c579cb6b6"},"vehicle_type_id":"4","last_reported":1732705697,"current_range_meters":9600,"station_id":"ce4bgjp2rcd13ifvqbh0","pricing_plan_id":"cebpf4jnsgd1na2vs0mg"},{"bike_id":"8f548a11-2807-4982-9d1f-01a23722d8cb","system_id":"levelo_inurba_marseille","lat":43.29891,"lon":5.38895,"is_reserved":false,"is_disabled":false,"rental_uris":{"android":"levelo://app?vid=8f548a11-2807-4982-9d1f-01a23722d8cb","ios":"levelo://app?vid=8f548a11-2807-4982-9d1f-01a23722d8cb"},"vehicle_type_id":"4","last_reported":1732705697,"current_range_meters":30800,"station_id":"ce4bh392rcd13ifvqdl0","pricing_plan_id":"cebpf4jnsgd1na2vs0mg"},{"bike_id":"e7d61961-f2fb-44c4-9ee3-a227626b507f","system_id":"levelo_inurba_marseille","lat":43.23068,"lon":5.35493,"is_reserved":false,"is_disabled":false,"rental_uris":{"android":"levelo://app?vid=e7d61961-f2fb-44c4-9ee3-a227626b507f","ios":"levelo://app?vid=e7d61961-f2fb-44c4-9ee3-a227626b507f"},"vehicle_type_id":"4","last_reported":1732705697,"current_range_meters":38000,"station_id":"cpo3342slgdg3j2ifvpg","pricing_plan_id":"cebpf4jnsgd1na2vs0mg"},{"bike_id":"71530bb8-1d87-4adf-a770-ee5a1e0f0333","system_id":"levelo_inurba_marseille","lat":43.29275,"lon":5.36841,"is_reserved":false,"is_disabled":false,"rental_uris":{"android":"levelo://app?vid=71530bb8-1d87-4adf-a770-ee5a1e0f0333","ios":"levelo://app?vid=71530bb8-1d87-4adf-a770-ee5a1e0f0333"},"vehicle_type_id":"4","last_reported":1732705697,"current_range_meters":19200,"station_id":"ce4bhbp2rcd13ifvqesg","pricing_plan_id":"cebpf4jnsgd1na2vs0mg"},{"bike_id":"5001b96f-ace4-4327-b393-f63896afcda6","system_id":"levelo_inurba_marseille","lat":43.29631,"lon":5.40594,"is_reserved":false,"is_disabled":false,"rental_uris":{"android":"levelo://app?vid=5001b96f-ace4-4327-b393-f63896afcda6","ios":"levelo://app?vid=5001b96f-ace4-4327-b393-f63896afcda6"},"vehicle_type_id":"4","last_reported":1732705697,"current_range_meters":32400,"station_id":"ce4bh0h2rcd13ifvqd60","pricing_plan_id":"cebpf4jnsgd1na2vs0mg"},{"bike_id":"a88b504e-d59c-4298-a7e4-29e526c3bd13","system_id":"levelo_inurba_marseille","lat":43.31529,"lon":5.38023,"is_reserved":false,"is_disabled":false,"rental_uris":{"android":"levelo://app?vid=a88b504e-d59c-4298-a7e4-29e526c3bd13","ios":"levelo://app?vid=a88b504e-d59c-4298-a7e4-29e526c3bd13"},"vehicle_type_id":"4","last_reported":1732705697,"current_range_meters":38000,"station_id":"ce4bhsp2rcd13ifvqi50","pricing_plan_id":"cebpf4jnsgd1na2vs0mg"},{"bike_id":"f8701991-8c40-432f-accb-db30a9ac6844","system_id":"levelo_inurba_marseille","lat":43.31349,"lon":5.36724,"is_reserved":false,"is_disabled":false,"rental_uris":{"android":"levelo://app?vid=f8701991-8c40-432f-accb-db30a9ac6844","ios":"levelo://app?vid=f8701991-8c40-432f-accb-db30a9ac6844"},"vehicle_type_id":"4","last_reported":1732705697,"current_range_meters":36800,"station_id":"ce4bgr92rcd13ifvqc6g","pricing_plan_id":"cebpf4jnsgd1na2vs0mg"},{"bike_id":"3e74510c-d86b-4186-a956-0b286b8b0c60","system_id":"levelo_inurba_marseille","lat":43.24682,"lon":5.38147,"is_reserved":false,"is_disabled":false,"rental_uris":{"android":"levelo://app?vid=3e74510c-d86b-4186-a956-0b286b8b0c60","ios":"levelo://app?vid=3e74510c-d86b-4186-a956-0b286b8b0c60"},"vehicle_type_id":"4","last_reported":1732705697,"current_range_meters":38800,"station_id":"ce4bhih2rcd13ifvqfr0","pricing_plan_id":"cebpf4jnsgd1na2vs0mg"},{"bike_id":"b5533476-8cbe-405c-a4fd-2be9c55df1ae","system_id":"levelo_inurba_marseille","lat":43.27434,"lon":5.39425,"is_reserved":false,"is_disabled":false,"rental_uris":{"android":"levelo://app?vid=b5533476-8cbe-405c-a4fd-2be9c55df1ae","ios":"levelo://app?vid=b5533476-8cbe-405c-a4fd-2be9c55df1ae"},"vehicle_type_id":"4","last_reported":1732705697,"current_range_meters":40000,"station_id":"ce4bhdp2rcd13ifvqf20","pricing_plan_id":"cebpf4jnsgd1na2vs0mg"},{"bike_id":"6f7949e1-de87-4a49-8620-fec27e04447f","system_id":"levelo_inurba_marseille","lat":43.33726,"lon":5.39189,"is_reserved":false,"is_disabled":false,"rental_uris":{"android":"levelo://app?vid=6f7949e1-de87-4a49-8620-fec27e04447f","ios":"levelo://app?vid=6f7949e1-de87-4a49-8620-fec27e04447f"},"vehicle_type_id":"4","last_reported":1732705697,"current_range_meters":38800,"station_id":"ce4bhr92rcd13ifvqhsg","pricing_plan_id":"cebpf4jnsgd1na2vs0mg"},{"bike_id":"64c32c12-6135-4609-9367-8c88c6ffc2a1","system_id":"levelo_inurba_marseille","lat":43.31355,"lon":5.36731,"is_reserved":false,"is_disabled":false,"rental_uris":{"android":"levelo://app?vid=64c32c12-6135-4609-9367-8c88c6ffc2a1","ios":"levelo://app?vid=64c32c12-6135-4609-9367-8c88c6ffc2a1"},"vehicle_type_id":"4","last_reported":1732705697,"current_range_meters":17200,"station_id":"ce4bgr92rcd13ifvqc6g","pricing_plan_id":"cebpf4jnsgd1na2vs0mg"},{"bike_id":"e217d5e7-1236-4a81-b77e-8ced163fc58c","system_id":"levelo_inurba_marseille","lat":43.30545,"lon":5.36539,"is_reserved":false,"is_disabled":false,"rental_uris":{"android":"levelo://app?vid=e217d5e7-1236-4a81-b77e-8ced163fc58c","ios":"levelo://app?vid=e217d5e7-1236-4a81-b77e-8ced163fc58c"},"vehicle_type_id":"4","last_reported":1732705697,"current_range_meters":24400,"station_id":"ce4bgs12rcd13ifvqcag","pricing_plan_id":"cebpf4jnsgd1na2vs0mg"},{"bike_id":"b7a5ba08-0df7-41f9-ad5a-ea7e176429d7","system_id":"levelo_inurba_marseille","lat":43.24673,"lon":5.38158,"is_reserved":false,"is_disabled":false,"rental_uris":{"android":"levelo://app?vid=b7a5ba08-0df7-41f9-ad5a-ea7e176429d7","ios":"levelo://app?vid=b7a5ba08-0df7-41f9-ad5a-ea7e176429d7"},"vehicle_type_id":"4","last_reported":1732705697,"current_range_meters":6400,"station_id":"ce4bhih2rcd13ifvqfr0","pricing_plan_id":"cebpf4jnsgd1na2vs0mg"},{"bike_id":"4bbfa212-ba0e-46de-b434-deac6495027b","system_id":"levelo_inurba_marseille","lat":43.31999,"lon":5.38159,"is_reserved":false,"is_disabled":false,"rental_uris":{"android":"levelo://app?vid=4bbfa212-ba0e-46de-b434-deac6495027b","ios":"levelo://app?vid=4bbfa212-ba0e-46de-b434-deac6495027b"},"vehicle_type_id":"4","last_reported":1732705697,"current_range_meters":30800,"station_id":"ce4bhr12rcd13ifvqhpg","pricing_plan_id":"cebpf4jnsgd1na2vs0mg"},{"bike_id":"88c0a23c-decf-469d-95fc-e70f9cd8eb3b","system_id":"levelo_inurba_marseille","lat":43.3376,"lon":5.37439,"is_reserved":false,"is_disabled":false,"rental_uris":{"android":"levelo://app?vid=88c0a23c-decf-469d-95fc-e70f9cd8eb3b","ios":"levelo://app?vid=88c0a23c-decf-469d-95fc-e70f9cd8eb3b"},"vehicle_type_id":"4","last_reported":1732705697,"current_range_meters":36400,"station_id":"","pricing_plan_id":"cebpf4jnsgd1na2vs0mg"},{"bike_id":"05ad44e5-d7ad-40e4-b78e-31a67af522c0","system_id":"levelo_inurba_marseille","lat":43.25718,"lon":5.4111,"is_reserved":false,"is_disabled":false,"rental_uris":{"android":"levelo://app?vid=05ad44e5-d7ad-40e4-b78e-31a67af522c0","ios":"levelo://app?vid=05ad44e5-d7ad-40e4-b78e-31a67af522c0"},"vehicle_type_id":"4","last_reported":1732705697,"current_range_meters":36000,"station_id":"ce4bhkp2rcd13ifvqgd0","pricing_plan_id":"cebpf4jnsgd1na2vs0mg"},{"bike_id":"947b4ae5-6d27-48cd-83df-1d5aa4a4dc55","system_id":"levelo_inurba_marseille","lat":43.24664,"lon":5.38154,"is_reserved":false,"is_disabled":false,"rental_uris":{"android":"levelo://app?vid=947b4ae5-6d27-48cd-83df-1d5aa4a4dc55","ios":"levelo://app?vid=947b4ae5-6d27-48cd-83df-1d5aa4a4dc55"},"vehicle_type_id":"4","last_reported":1732705697,"current_range_meters":30000,"station_id":"ce4bhih2rcd13ifvqfr0","pricing_plan_id":"cebpf4jnsgd1na2vs0mg"},{"bike_id":"56c274dd-4f5a-4b98-8d47-37c968183c52","system_id":"levelo_inurba_marseille","lat":43.29615,"lon":5.3773,"is_reserved":false,"is_disabled":false,"rental_uris":{"android":"levelo://app?vid=56c274dd-4f5a-4b98-8d47-37c968183c52","ios":"levelo://app?vid=56c274dd-4f5a-4b98-8d47-37c968183c52"},"vehicle_type_id":"4","last_reported":1732705697,"current_range_meters":24000,"station_id":"ce4bgi92rcd13ifvqb90","pricing_plan_id":"cebpf4jnsgd1na2vs0mg"},{"bike_id":"6b7ccf7e-484a-4f22-baf0-4737914f5815","system_id":"levelo_inurba_marseille","lat":43.29853,"lon":5.36291,"is_reserved":false,"is_disabled":false,"rental_uris":{"android":"levelo://app?vid=6b7ccf7e-484a-4f22-baf0-4737914f5815","ios":"levelo://app?vid=6b7ccf7e-484a-4f22-baf0-4737914f5815"},"vehicle_type_id":"4","last_reported":1732705697,"current_range_meters":31200,"station_id":"ce4bgpp2rcd13ifvqc3g","pricing_plan_id":"cebpf4jnsgd1na2vs0mg"},{"bike_id":"a55c6f12-65cb-4ae6-ac80-319ec8553925","system_id":"levelo_inurba_marseille","lat":43.27061,"lon":5.40252,"is_reserved":false,"is_disabled":false,"rental_uris":{"android":"levelo://app?vid=a55c6f12-65cb-4ae6-ac80-319ec8553925","ios":"levelo://app?vid=a55c6f12-65cb-4ae6-ac80-319ec8553925"},"vehicle_type_id":"4","last_reported":1732705697,"current_range_meters":38800,"station_id":"ce4bhk92rcd13ifvqgc0","pricing_plan_id":"cebpf4jnsgd1na2vs0mg"},{"bike_id":"e0c961bb-3054-4cc0-b997-7f2f52b9a9c0","system_id":"levelo_inurba_marseille","lat":43.26948,"lon":5.40245,"is_reserved":false,"is_disabled":false,"rental_uris":{"android":"levelo://app?vid=e0c961bb-3054-4cc0-b997-7f2f52b9a9c0","ios":"levelo://app?vid=e0c961bb-3054-4cc0-b997-7f2f52b9a9c0"},"vehicle_type_id":"4","last_reported":1732705697,"current_range_meters":16400,"station_id":"cjm6bp8fraef2m0cb0m0","pricing_plan_id":"cebpf4jnsgd1na2vs0mg"},{"bike_id":"59798445-8d70-4aa0-82ea-c70c3f2d0df4","system_id":"levelo_inurba_marseille","lat":43.24648,"lon":5.38886,"is_reserved":false,"is_disabled":false,"rental_uris":{"android":"levelo://app?vid=59798445-8d70-4aa0-82ea-c70c3f2d0df4","ios":"levelo://app?vid=59798445-8d70-4aa0-82ea-c70c3f2d0df4"},"vehicle_type_id":"4","last_reported":1732705697,"current_range_meters":24800,"station_id":"ce4bhg12rcd13ifvqf60","pricing_plan_id":"cebpf4jnsgd1na2vs0mg"},{"bike_id":"450ecd21-f4be-4a7b-b50b-6570dbf71196","system_id":"levelo_inurba_marseille","lat":43.29019,"lon":5.35595,"is_reserved":false,"is_disabled":false,"rental_uris":{"android":"levelo://app?vid=450ecd21-f4be-4a7b-b50b-6570dbf71196","ios":"levelo://app?vid=450ecd21-f4be-4a7b-b50b-6570dbf71196"},"vehicle_type_id":"4","last_reported":1732705697,"current_range_meters":36800,"station_id":"ce4bhb92rcd13ifvqen0","pricing_plan_id":"cebpf4jnsgd1na2vs0mg"},{"bike_id":"835a170b-9333-4a62-9af0-a89a87c1a309","system_id":"levelo_inurba_marseille","lat":43.24651,"lon":5.38156,"is_reserved":false,"is_disabled":false,"rental_uris":{"android":"levelo://app?vid=835a170b-9333-4a62-9af0-a89a87c1a309","ios":"levelo://app?vid=835a170b-9333-4a62-9af0-a89a87c1a309"},"vehicle_type_id":"4","last_reported":1732705697,"current_range_meters":6800,"station_id":"ce4bhih2rcd13ifvqfr0","pricing_plan_id":"cebpf4jnsgd1na2vs0mg"},{"bike_id":"e6b551c6-657a-41fd-a8c1-332733442bfd","system_id":"levelo_inurba_marseille","lat":43.30087,"lon":5.39091,"is_reserved":false,"is_disabled":false,"rental_uris":{"android":"levelo://app?vid=e6b551c6-657a-41fd-a8c1-332733442bfd","ios":"levelo://app?vid=e6b551c6-657a-41fd-a8c1-332733442bfd"},"vehicle_type_id":"4","last_reported":1732705697,"current_range_meters":11600,"station_id":"ce4bh192rcd13ifvqdb0","pricing_plan_id":"cebpf4jnsgd1na2vs0mg"},{"bike_id":"6dfcb08d-2515-4f50-bb77-97697ce8e122","system_id":"levelo_inurba_marseille","lat":43.29853,"lon":5.36267,"is_reserved":false,"is_disabled":false,"rental_uris":{"android":"levelo://app?vid=6dfcb08d-2515-4f50-bb77-97697ce8e122","ios":"levelo://app?vid=6dfcb08d-2515-4f50-bb77-97697ce8e122"},"vehicle_type_id":"4","last_reported":1732705697,"current_range_meters":38800,"station_id":"ce4bgpp2rcd13ifvqc3g","pricing_plan_id":"cebpf4jnsgd1na2vs0mg"},{"bike_id":"71b78d7b-dda5-4267-b684-532542b7b394","system_id":"levelo_inurba_marseille","lat":43.2842,"lon":5.34978,"is_reserved":false,"is_disabled":false,"rental_uris":{"android":"levelo://app?vid=71b78d7b-dda5-4267-b684-532542b7b394","ios":"levelo://app?vid=71b78d7b-dda5-4267-b684-532542b7b394"},"vehicle_type_id":"4","last_reported":1732705697,"current_range_meters":9600,"station_id":"ce4bhbh2rcd13ifvqepg","pricing_plan_id":"cebpf4jnsgd1na2vs0mg"},{"bike_id":"9f495fb6-a313-4fc5-81d8-0a7894225cfe","system_id":"levelo_inurba_marseille","lat":43.29571,"lon":5.39968,"is_reserved":false,"is_disabled":true,"rental_uris":{"android":"levelo://app?vid=9f495fb6-a313-4fc5-81d8-0a7894225cfe","ios":"levelo://app?vid=9f495fb6-a313-4fc5-81d8-0a7894225cfe"},"vehicle_type_id":"4","last_reported":1732705697,"current_range_meters":30000,"station_id":"ce4bh312rcd13ifvqdj0","pricing_plan_id":"cebpf4jnsgd1na2vs0mg"},{"bike_id":"8e46b2c9-0288-44ad-a5dd-399cf4cb50ae","system_id":"levelo_inurba_marseille","lat":43.33609,"lon":5.41029,"is_reserved":false,"is_disabled":false,"rental_uris":{"android":"levelo://app?vid=8e46b2c9-0288-44ad-a5dd-399cf4cb50ae","ios":"levelo://app?vid=8e46b2c9-0288-44ad-a5dd-399cf4cb50ae"},"vehicle_type_id":"4","last_reported":1732705697,"current_range_meters":8000,"station_id":"ce4bhqh2rcd13ifvqhmg","pricing_plan_id":"cebpf4jnsgd1na2vs0mg"},{"bike_id":"958ae39c-ac6d-4685-adb6-01dd774c93e1","system_id":"levelo_inurba_marseille","lat":43.30313,"lon":5.36905,"is_reserved":false,"is_disabled":false,"rental_uris":{"android":"levelo://app?vid=958ae39c-ac6d-4685-adb6-01dd774c93e1","ios":"levelo://app?vid=958ae39c-ac6d-4685-adb6-01dd774c93e1"},"vehicle_type_id":"4","last_reported":1732705697,"current_range_meters":26800,"station_id":"ce4bgqh2rcd13ifvqc5g","pricing_plan_id":"cebpf4jnsgd1na2vs0mg"},{"bike_id":"a6a7a918-1329-43a3-b75e-e559ca6a9d9a","system_id":"levelo_inurba_marseille","lat":43.30545,"lon":5.36694,"is_reserved":false,"is_disabled":false,"rental_uris":{"android":"levelo://app?vid=a6a7a918-1329-43a3-b75e-e559ca6a9d9a","ios":"levelo://app?vid=a6a7a918-1329-43a3-b75e-e559ca6a9d9a"},"vehicle_type_id":"4","last_reported":1732705697,"current_range_meters":37600,"station_id":"ce4bgrp2rcd13ifvqc9g","pricing_plan_id":"cebpf4jnsgd1na2vs0mg"},{"bike_id":"a4f5ec09-594b-4d89-bf3e-08aaf07da9b6","system_id":"levelo_inurba_marseille","lat":43.30142,"lon":5.38084,"is_reserved":false,"is_disabled":false,"rental_uris":{"android":"levelo://app?vid=a4f5ec09-594b-4d89-bf3e-08aaf07da9b6","ios":"levelo://app?vid=a4f5ec09-594b-4d89-bf3e-08aaf07da9b6"},"vehicle_type_id":"4","last_reported":1732705697,"current_range_meters":37600,"station_id":"ce4bgjp2rcd13ifvqbh0","pricing_plan_id":"cebpf4jnsgd1na2vs0mg"},{"bike_id":"7769fb04-bd3b-4063-9dfc-479ffb41c925","system_id":"levelo_inurba_marseille","lat":43.28457,"lon":5.35886,"is_reserved":false,"is_disabled":false,"rental_uris":{"android":"levelo://app?vid=7769fb04-bd3b-4063-9dfc-479ffb41c925","ios":"levelo://app?vid=7769fb04-bd3b-4063-9dfc-479ffb41c925"},"vehicle_type_id":"4","last_reported":1732705697,"current_range_meters":30000,"station_id":"ce4bhah2rcd13ifvqei0","pricing_plan_id":"cebpf4jnsgd1na2vs0mg"},{"bike_id":"7d93fd60-b8d7-46a8-b162-5641b5ce3bda","system_id":"levelo_inurba_marseille","lat":43.25,"lon":5.38954,"is_reserved":false,"is_disabled":false,"rental_uris":{"android":"levelo://app?vid=7d93fd60-b8d7-46a8-b162-5641b5ce3bda","ios":"levelo://app?vid=7d93fd60-b8d7-46a8-b162-5641b5ce3bda"},"vehicle_type_id":"4","last_reported":1732705697,"current_range_meters":30800,"station_id":"ce4bhgp2rcd13ifvqfd0","pricing_plan_id":"cebpf4jnsgd1na2vs0mg"},{"bike_id":"91383959-ad9c-4a43-901e-2e1af0cb87bd","system_id":"levelo_inurba_marseille","lat":43.25104,"lon":5.40322,"is_reserved":false,"is_disabled":false,"rental_uris":{"android":"levelo://app?vid=91383959-ad9c-4a43-901e-2e1af0cb87bd","ios":"levelo://app?vid=91383959-ad9c-4a43-901e-2e1af0cb87bd"},"vehicle_type_id":"4","last_reported":1732705697,"current_range_meters":11600,"station_id":"ce4bhlh2rcd13ifvqgig","pricing_plan_id":"cebpf4jnsgd1na2vs0mg"},{"bike_id":"bdf7cdd5-b944-4076-96a8-e3c71b31059b","system_id":"levelo_inurba_marseille","lat":43.25116,"lon":5.40317,"is_reserved":false,"is_disabled":false,"rental_uris":{"android":"levelo://app?vid=bdf7cdd5-b944-4076-96a8-e3c71b31059b","ios":"levelo://app?vid=bdf7cdd5-b944-4076-96a8-e3c71b31059b"},"vehicle_type_id":"4","last_reported":1732705697,"current_range_meters":12400,"station_id":"ce4bhlh2rcd13ifvqgig","pricing_plan_id":"cebpf4jnsgd1na2vs0mg"},{"bike_id":"c6323cc4-3a8d-4794-8c5c-c47ccfb2ec44","system_id":"levelo_inurba_marseille","lat":43.305496,"lon":5.366942,"is_reserved":false,"is_disabled":false,"rental_uris":{"android":"levelo://app?vid=c6323cc4-3a8d-4794-8c5c-c47ccfb2ec44","ios":"levelo://app?vid=c6323cc4-3a8d-4794-8c5c-c47ccfb2ec44"},"vehicle_type_id":"4","last_reported":1732705697,"current_range_meters":33200,"station_id":"ce4bgrp2rcd13ifvqc9g","pricing_plan_id":"cebpf4jnsgd1na2vs0mg"},{"bike_id":"90132e08-b504-464b-ae2f-07d98edee517","system_id":"levelo_inurba_marseille","lat":43.33015,"lon":5.39031,"is_reserved":false,"is_disabled":false,"rental_uris":{"android":"levelo://app?vid=90132e08-b504-464b-ae2f-07d98edee517","ios":"levelo://app?vid=90132e08-b504-464b-ae2f-07d98edee517"},"vehicle_type_id":"4","last_reported":1732705697,"current_range_meters":4400,"station_id":"ce4bhr92rcd13ifvqhrg","pricing_plan_id":"cebpf4jnsgd1na2vs0mg"},{"bike_id":"b6df706b-8a11-4fb1-814d-c19eff907861","system_id":"levelo_inurba_marseille","lat":43.28614,"lon":5.35101,"is_reserved":false,"is_disabled":false,"rental_uris":{"android":"levelo://app?vid=b6df706b-8a11-4fb1-814d-c19eff907861","ios":"levelo://app?vid=b6df706b-8a11-4fb1-814d-c19eff907861"},"vehicle_type_id":"4","last_reported":1732705697,"current_range_meters":8400,"station_id":"ce4bhch2rcd13ifvqeug","pricing_plan_id":"cebpf4jnsgd1na2vs0mg"},{"bike_id":"4d4c884f-6933-49c0-8899-f9856d90f44d","system_id":"levelo_inurba_marseille","lat":43.29738,"lon":5.37968,"is_reserved":false,"is_disabled":true,"rental_uris":{"android":"levelo://app?vid=4d4c884f-6933-49c0-8899-f9856d90f44d","ios":"levelo://app?vid=4d4c884f-6933-49c0-8899-f9856d90f44d"},"vehicle_type_id":"4","last_reported":1732705697,"current_range_meters":0,"station_id":"","pricing_plan_id":"cebpf4jnsgd1na2vs0mg"},{"bike_id":"2ac61c25-49e6-4f37-ac8c-8b2e88ab0b5e","system_id":"levelo_inurba_marseille","lat":43.29224,"lon":5.36049,"is_reserved":false,"is_disabled":true,"rental_uris":{"android":"levelo://app?vid=2ac61c25-49e6-4f37-ac8c-8b2e88ab0b5e","ios":"levelo://app?vid=2ac61c25-49e6-4f37-ac8c-8b2e88ab0b5e"},"vehicle_type_id":"4","last_reported":1732705697,"current_range_meters":30000,"station_id":"ce4bhbh2rcd13ifvqeqg","pricing_plan_id":"cebpf4jnsgd1na2vs0mg"},{"bike_id":"43e60175-b97e-4e64-9a5a-2bf86d2f77ca","system_id":"levelo_inurba_marseille","lat":43.30273,"lon":5.37704,"is_reserved":false,"is_disabled":false,"rental_uris":{"android":"levelo://app?vid=43e60175-b97e-4e64-9a5a-2bf86d2f77ca","ios":"levelo://app?vid=43e60175-b97e-4e64-9a5a-2bf86d2f77ca"},"vehicle_type_id":"4","last_reported":1732705697,"current_range_meters":32800,"station_id":"ce4bguh2rcd13ifvqcj0","pricing_plan_id":"cebpf4jnsgd1na2vs0mg"},{"bike_id":"20b3d934-42a7-42b9-bb49-0833cf2f0412","system_id":"levelo_inurba_marseille","lat":43.29305,"lon":5.3719,"is_reserved":false,"is_disabled":true,"rental_uris":{"android":"levelo://app?vid=20b3d934-42a7-42b9-bb49-0833cf2f0412","ios":"levelo://app?vid=20b3d934-42a7-42b9-bb49-0833cf2f0412"},"vehicle_type_id":"4","last_reported":1732705697,"current_range_meters":38000,"station_id":"ce4bgh92rcd13ifvqb40","pricing_plan_id":"cebpf4jnsgd1na2vs0mg"},{"bike_id":"b7ba038b-e90a-4d61-8e90-33ee64093693","system_id":"levelo_inurba_marseille","lat":43.29305,"lon":5.37175,"is_reserved":false,"is_disabled":false,"rental_uris":{"android":"levelo://app?vid=b7ba038b-e90a-4d61-8e90-33ee64093693","ios":"levelo://app?vid=b7ba038b-e90a-4d61-8e90-33ee64093693"},"vehicle_type_id":"4","last_reported":1732705697,"current_range_meters":38800,"station_id":"ce4bgh92rcd13ifvqb40","pricing_plan_id":"cebpf4jnsgd1na2vs0mg"},{"bike_id":"4d809776-4d2b-4bf5-8aa6-666b5b1fd18f","system_id":"levelo_inurba_marseille","lat":43.33724,"lon":5.39176,"is_reserved":false,"is_disabled":false,"rental_uris":{"android":"levelo://app?vid=4d809776-4d2b-4bf5-8aa6-666b5b1fd18f","ios":"levelo://app?vid=4d809776-4d2b-4bf5-8aa6-666b5b1fd18f"},"vehicle_type_id":"4","last_reported":1732705697,"current_range_meters":38000,"station_id":"ce4bhr92rcd13ifvqhsg","pricing_plan_id":"cebpf4jnsgd1na2vs0mg"},{"bike_id":"ac2065e8-117f-4650-80e7-7ffdaa3881b2","system_id":"levelo_inurba_marseille","lat":43.2735,"lon":5.39084,"is_reserved":false,"is_disabled":false,"rental_uris":{"android":"levelo://app?vid=ac2065e8-117f-4650-80e7-7ffdaa3881b2","ios":"levelo://app?vid=ac2065e8-117f-4650-80e7-7ffdaa3881b2"},"vehicle_type_id":"4","last_reported":1732705697,"current_range_meters":28800,"station_id":"ce4bhgp2rcd13ifvqfe0","pricing_plan_id":"cebpf4jnsgd1na2vs0mg"},{"bike_id":"08571444-34a6-4f0a-96dc-983ecce96969","system_id":"levelo_inurba_marseille","lat":43.2808,"lon":5.39655,"is_reserved":false,"is_disabled":false,"rental_uris":{"android":"levelo://app?vid=08571444-34a6-4f0a-96dc-983ecce96969","ios":"levelo://app?vid=08571444-34a6-4f0a-96dc-983ecce96969"},"vehicle_type_id":"4","last_reported":1732705697,"current_range_meters":22800,"station_id":"ce4bho12rcd13ifvqh2g","pricing_plan_id":"cebpf4jnsgd1na2vs0mg"},{"bike_id":"7267bf40-2aba-4a80-98b4-313459e6b8f1","system_id":"levelo_inurba_marseille","lat":43.27901,"lon":5.38008,"is_reserved":false,"is_disabled":false,"rental_uris":{"android":"levelo://app?vid=7267bf40-2aba-4a80-98b4-313459e6b8f1","ios":"levelo://app?vid=7267bf40-2aba-4a80-98b4-313459e6b8f1"},"vehicle_type_id":"4","last_reported":1732705697,"current_range_meters":31200,"station_id":"ce4bhf92rcd13ifvqf50","pricing_plan_id":"cebpf4jnsgd1na2vs0mg"},{"bike_id":"97cfd512-cb61-4011-b02c-ff43d99f1352","system_id":"levelo_inurba_marseille","lat":43.33605,"lon":5.41046,"is_reserved":false,"is_disabled":false,"rental_uris":{"android":"levelo://app?vid=97cfd512-cb61-4011-b02c-ff43d99f1352","ios":"levelo://app?vid=97cfd512-cb61-4011-b02c-ff43d99f1352"},"vehicle_type_id":"4","last_reported":1732705697,"current_range_meters":32400,"station_id":"ce4bhqh2rcd13ifvqhmg","pricing_plan_id":"cebpf4jnsgd1na2vs0mg"},{"bike_id":"7dccca16-9c81-46ba-8ec7-8ac114550316","system_id":"levelo_inurba_marseille","lat":43.337444,"lon":5.374475,"is_reserved":false,"is_disabled":false,"rental_uris":{"android":"levelo://app?vid=7dccca16-9c81-46ba-8ec7-8ac114550316","ios":"levelo://app?vid=7dccca16-9c81-46ba-8ec7-8ac114550316"},"vehicle_type_id":"4","last_reported":1732705697,"current_range_meters":38000,"station_id":"","pricing_plan_id":"cebpf4jnsgd1na2vs0mg"},{"bike_id":"339850c3-d6a6-49d9-9bea-bb2f74b15c16","system_id":"levelo_inurba_marseille","lat":43.29534,"lon":5.38546,"is_reserved":false,"is_disabled":true,"rental_uris":{"android":"levelo://app?vid=339850c3-d6a6-49d9-9bea-bb2f74b15c16","ios":"levelo://app?vid=339850c3-d6a6-49d9-9bea-bb2f74b15c16"},"vehicle_type_id":"4","last_reported":1732705697,"current_range_meters":33200,"station_id":"ce4bgih2rcd13ifvqba0","pricing_plan_id":"cebpf4jnsgd1na2vs0mg"},{"bike_id":"eefd6031-3a1b-46b3-8ddc-fce4e182bdf3","system_id":"levelo_inurba_marseille","lat":43.2884,"lon":5.35846,"is_reserved":false,"is_disabled":false,"rental_uris":{"android":"levelo://app?vid=eefd6031-3a1b-46b3-8ddc-fce4e182bdf3","ios":"levelo://app?vid=eefd6031-3a1b-46b3-8ddc-fce4e182bdf3"},"vehicle_type_id":"4","last_reported":1732705697,"current_range_meters":31200,"station_id":"ce4bhb12rcd13ifvqem0","pricing_plan_id":"cebpf4jnsgd1na2vs0mg"},{"bike_id":"094eaa82-3b8c-4de6-a34a-b6b8772829db","system_id":"levelo_inurba_marseille","lat":43.30546,"lon":5.36557,"is_reserved":false,"is_disabled":false,"rental_uris":{"android":"levelo://app?vid=094eaa82-3b8c-4de6-a34a-b6b8772829db","ios":"levelo://app?vid=094eaa82-3b8c-4de6-a34a-b6b8772829db"},"vehicle_type_id":"4","last_reported":1732705697,"current_range_meters":38000,"station_id":"ce4bgs12rcd13ifvqcag","pricing_plan_id":"cebpf4jnsgd1na2vs0mg"},{"bike_id":"65626e0e-4ef0-4cbd-a32b-7c59fc818707","system_id":"levelo_inurba_marseille","lat":43.29811,"lon":5.38105,"is_reserved":false,"is_disabled":false,"rental_uris":{"android":"levelo://app?vid=65626e0e-4ef0-4cbd-a32b-7c59fc818707","ios":"levelo://app?vid=65626e0e-4ef0-4cbd-a32b-7c59fc818707"},"vehicle_type_id":"4","last_reported":1732705697,"current_range_meters":5600,"station_id":"ce4bgip2rcd13ifvqbb0","pricing_plan_id":"cebpf4jnsgd1na2vs0mg"},{"bike_id":"834fa57d-9857-4cdc-bc18-1867eaf6f20a","system_id":"levelo_inurba_marseille","lat":43.30551,"lon":5.36534,"is_reserved":false,"is_disabled":false,"rental_uris":{"android":"levelo://app?vid=834fa57d-9857-4cdc-bc18-1867eaf6f20a","ios":"levelo://app?vid=834fa57d-9857-4cdc-bc18-1867eaf6f20a"},"vehicle_type_id":"4","last_reported":1732705697,"current_range_meters":14000,"station_id":"ce4bgs12rcd13ifvqcag","pricing_plan_id":"cebpf4jnsgd1na2vs0mg"},{"bike_id":"349db698-ee4a-434e-a337-04488ab4e426","system_id":"levelo_inurba_marseille","lat":43.24663,"lon":5.38162,"is_reserved":false,"is_disabled":false,"rental_uris":{"android":"levelo://app?vid=349db698-ee4a-434e-a337-04488ab4e426","ios":"levelo://app?vid=349db698-ee4a-434e-a337-04488ab4e426"},"vehicle_type_id":"4","last_reported":1732705697,"current_range_meters":30800,"station_id":"ce4bhih2rcd13ifvqfr0","pricing_plan_id":"cebpf4jnsgd1na2vs0mg"},{"bike_id":"e88fbd84-38b6-4526-aa38-d2d2278eda79","system_id":"levelo_inurba_marseille","lat":43.26498,"lon":5.39543,"is_reserved":false,"is_disabled":false,"rental_uris":{"android":"levelo://app?vid=e88fbd84-38b6-4526-aa38-d2d2278eda79","ios":"levelo://app?vid=e88fbd84-38b6-4526-aa38-d2d2278eda79"},"vehicle_type_id":"4","last_reported":1732705697,"current_range_meters":9200,"station_id":"ce4bhi12rcd13ifvqfq0","pricing_plan_id":"cebpf4jnsgd1na2vs0mg"},{"bike_id":"9b6e5772-c83c-4dcd-bff1-c5985b118375","system_id":"levelo_inurba_marseille","lat":43.33024,"lon":5.39034,"is_reserved":false,"is_disabled":false,"rental_uris":{"android":"levelo://app?vid=9b6e5772-c83c-4dcd-bff1-c5985b118375","ios":"levelo://app?vid=9b6e5772-c83c-4dcd-bff1-c5985b118375"},"vehicle_type_id":"4","last_reported":1732705697,"current_range_meters":38800,"station_id":"ce4bhr92rcd13ifvqhrg","pricing_plan_id":"cebpf4jnsgd1na2vs0mg"},{"bike_id":"3a66af88-0d5b-49a3-aa2e-aa9eb7017729","system_id":"levelo_inurba_marseille","lat":43.337444,"lon":5.374475,"is_reserved":false,"is_disabled":false,"rental_uris":{"android":"levelo://app?vid=3a66af88-0d5b-49a3-aa2e-aa9eb7017729","ios":"levelo://app?vid=3a66af88-0d5b-49a3-aa2e-aa9eb7017729"},"vehicle_type_id":"4","last_reported":1732705697,"current_range_meters":24400,"station_id":"ce4bho12rcd13ifvqh2g","pricing_plan_id":"cebpf4jnsgd1na2vs0mg"},{"bike_id":"c1d4c091-46b7-4f2e-aeb5-6518b8354ca5","system_id":"levelo_inurba_marseille","lat":43.27172,"lon":5.40991,"is_reserved":false,"is_disabled":false,"rental_uris":{"android":"levelo://app?vid=c1d4c091-46b7-4f2e-aeb5-6518b8354ca5","ios":"levelo://app?vid=c1d4c091-46b7-4f2e-aeb5-6518b8354ca5"},"vehicle_type_id":"4","last_reported":1732705697,"current_range_meters":28400,"station_id":"ce4bhl12rcd13ifvqgf0","pricing_plan_id":"cebpf4jnsgd1na2vs0mg"},{"bike_id":"ef8fb3cc-7d24-4ab9-bc53-e2e3dcae106a","system_id":"levelo_inurba_marseille","lat":43.30544,"lon":5.36704,"is_reserved":false,"is_disabled":false,"rental_uris":{"android":"levelo://app?vid=ef8fb3cc-7d24-4ab9-bc53-e2e3dcae106a","ios":"levelo://app?vid=ef8fb3cc-7d24-4ab9-bc53-e2e3dcae106a"},"vehicle_type_id":"4","last_reported":1732705697,"current_range_meters":30800,"station_id":"ce4bgrp2rcd13ifvqc9g","pricing_plan_id":"cebpf4jnsgd1na2vs0mg"},{"bike_id":"6a243988-d267-4e1e-bafc-c091870de6a8","system_id":"levelo_inurba_marseille","lat":43.24157,"lon":5.3642,"is_reserved":false,"is_disabled":false,"rental_uris":{"android":"levelo://app?vid=6a243988-d267-4e1e-bafc-c091870de6a8","ios":"levelo://app?vid=6a243988-d267-4e1e-bafc-c091870de6a8"},"vehicle_type_id":"4","last_reported":1732705697,"current_range_meters":35600,"station_id":"cpo36qri1sfpv3e86is0","pricing_plan_id":"cebpf4jnsgd1na2vs0mg"},{"bike_id":"890f7a37-ab07-46ae-af45-5b0dde3ebd40","system_id":"levelo_inurba_marseille","lat":43.2583,"lon":5.3944,"is_reserved":false,"is_disabled":false,"rental_uris":{"android":"levelo://app?vid=890f7a37-ab07-46ae-af45-5b0dde3ebd40","ios":"levelo://app?vid=890f7a37-ab07-46ae-af45-5b0dde3ebd40"},"vehicle_type_id":"4","last_reported":1732705697,"current_range_meters":35200,"station_id":"ce4bhip2rcd13ifvqft0","pricing_plan_id":"cebpf4jnsgd1na2vs0mg"},{"bike_id":"73e79c68-7a90-47f8-9922-2353c41d96e7","system_id":"levelo_inurba_marseille","lat":43.28443,"lon":5.39543,"is_reserved":false,"is_disabled":false,"rental_uris":{"android":"levelo://app?vid=73e79c68-7a90-47f8-9922-2353c41d96e7","ios":"levelo://app?vid=73e79c68-7a90-47f8-9922-2353c41d96e7"},"vehicle_type_id":"4","last_reported":1732705697,"current_range_meters":6800,"station_id":"","pricing_plan_id":"cebpf4jnsgd1na2vs0mg"},{"bike_id":"39b04c21-6a6a-40a7-a489-741c2b67c9bd","system_id":"levelo_inurba_marseille","lat":43.33718,"lon":5.39186,"is_reserved":false,"is_disabled":false,"rental_uris":{"android":"levelo://app?vid=39b04c21-6a6a-40a7-a489-741c2b67c9bd","ios":"levelo://app?vid=39b04c21-6a6a-40a7-a489-741c2b67c9bd"},"vehicle_type_id":"4","last_reported":1732705697,"current_range_meters":10800,"station_id":"ce4bhr92rcd13ifvqhsg","pricing_plan_id":"cebpf4jnsgd1na2vs0mg"},{"bike_id":"e465c5d0-0923-4e47-9eed-14fbda58d8e8","system_id":"levelo_inurba_marseille","lat":43.262,"lon":5.37926,"is_reserved":false,"is_disabled":false,"rental_uris":{"android":"levelo://app?vid=e465c5d0-0923-4e47-9eed-14fbda58d8e8","ios":"levelo://app?vid=e465c5d0-0923-4e47-9eed-14fbda58d8e8"},"vehicle_type_id":"4","last_reported":1732705697,"current_range_meters":30400,"station_id":"ce4bhjp2rcd13ifvqg90","pricing_plan_id":"cebpf4jnsgd1na2vs0mg"},{"bike_id":"fed165e5-8382-4dd2-865b-69f1cdb3e32b","system_id":"levelo_inurba_marseille","lat":43.31346,"lon":5.36723,"is_reserved":false,"is_disabled":false,"rental_uris":{"android":"levelo://app?vid=fed165e5-8382-4dd2-865b-69f1cdb3e32b","ios":"levelo://app?vid=fed165e5-8382-4dd2-865b-69f1cdb3e32b"},"vehicle_type_id":"4","last_reported":1732705697,"current_range_meters":20800,"station_id":"ce4bgr92rcd13ifvqc6g","pricing_plan_id":"cebpf4jnsgd1na2vs0mg"},{"bike_id":"6399fd12-8aa7-4c62-b7cd-b0948e694e6d","system_id":"levelo_inurba_marseille","lat":43.3014,"lon":5.3741,"is_reserved":false,"is_disabled":false,"rental_uris":{"android":"levelo://app?vid=6399fd12-8aa7-4c62-b7cd-b0948e694e6d","ios":"levelo://app?vid=6399fd12-8aa7-4c62-b7cd-b0948e694e6d"},"vehicle_type_id":"4","last_reported":1732705697,"current_range_meters":9200,"station_id":"ce4bgs92rcd13ifvqcc0","pricing_plan_id":"cebpf4jnsgd1na2vs0mg"},{"bike_id":"30be578e-888b-4671-be07-0b798a35e425","system_id":"levelo_inurba_marseille","lat":43.25584,"lon":5.3823,"is_reserved":false,"is_disabled":false,"rental_uris":{"android":"levelo://app?vid=30be578e-888b-4671-be07-0b798a35e425","ios":"levelo://app?vid=30be578e-888b-4671-be07-0b798a35e425"},"vehicle_type_id":"4","last_reported":1732705697,"current_range_meters":38800,"station_id":"ce4bhih2rcd13ifvqfs0","pricing_plan_id":"cebpf4jnsgd1na2vs0mg"},{"bike_id":"685b8597-3071-4298-b4ce-2333f0925819","system_id":"levelo_inurba_marseille","lat":43.27211,"lon":5.39189,"is_reserved":false,"is_disabled":false,"rental_uris":{"android":"levelo://app?vid=685b8597-3071-4298-b4ce-2333f0925819","ios":"levelo://app?vid=685b8597-3071-4298-b4ce-2333f0925819"},"vehicle_type_id":"4","last_reported":1732705697,"current_range_meters":35200,"station_id":"ce4bhhp2rcd13ifvqfm0","pricing_plan_id":"cebpf4jnsgd1na2vs0mg"},{"bike_id":"f3b2cf9b-41cc-4bae-8991-d9221e0e0cfc","system_id":"levelo_inurba_marseille","lat":43.28286,"lon":5.35073,"is_reserved":false,"is_disabled":false,"rental_uris":{"android":"levelo://app?vid=f3b2cf9b-41cc-4bae-8991-d9221e0e0cfc","ios":"levelo://app?vid=f3b2cf9b-41cc-4bae-8991-d9221e0e0cfc"},"vehicle_type_id":"4","last_reported":1732705697,"current_range_meters":38800,"station_id":"ce4bhbp2rcd13ifvqerg","pricing_plan_id":"cebpf4jnsgd1na2vs0mg"},{"bike_id":"36296f5c-0176-4be0-97c8-7930cda9c369","system_id":"levelo_inurba_marseille","lat":43.32105,"lon":5.3678,"is_reserved":false,"is_disabled":false,"rental_uris":{"android":"levelo://app?vid=36296f5c-0176-4be0-97c8-7930cda9c369","ios":"levelo://app?vid=36296f5c-0176-4be0-97c8-7930cda9c369"},"vehicle_type_id":"4","last_reported":1732705697,"current_range_meters":16800,"station_id":"ce4bhrh2rcd13ifvqhug","pricing_plan_id":"cebpf4jnsgd1na2vs0mg"},{"bike_id":"2015b399-7b63-48fc-9f8f-3dc77f0f11c3","system_id":"levelo_inurba_marseille","lat":43.23957,"lon":5.36644,"is_reserved":false,"is_disabled":false,"rental_uris":{"android":"levelo://app?vid=2015b399-7b63-48fc-9f8f-3dc77f0f11c3","ios":"levelo://app?vid=2015b399-7b63-48fc-9f8f-3dc77f0f11c3"},"vehicle_type_id":"4","last_reported":1732705697,"current_range_meters":38800,"station_id":"ce4bhi12rcd13ifvqfp0","pricing_plan_id":"cebpf4jnsgd1na2vs0mg"},{"bike_id":"d7128478-ad8e-4218-8169-acb1ef2b25da","system_id":"levelo_inurba_marseille","lat":43.29785,"lon":5.38101,"is_reserved":false,"is_disabled":false,"rental_uris":{"android":"levelo://app?vid=d7128478-ad8e-4218-8169-acb1ef2b25da","ios":"levelo://app?vid=d7128478-ad8e-4218-8169-acb1ef2b25da"},"vehicle_type_id":"4","last_reported":1732705697,"current_range_meters":28000,"station_id":"ce4bgip2rcd13ifvqbb0","pricing_plan_id":"cebpf4jnsgd1na2vs0mg"},{"bike_id":"374e6c41-7d95-43f7-adc6-08ffe5731c13","system_id":"levelo_inurba_marseille","lat":43.2572,"lon":5.41111,"is_reserved":false,"is_disabled":false,"rental_uris":{"android":"levelo://app?vid=374e6c41-7d95-43f7-adc6-08ffe5731c13","ios":"levelo://app?vid=374e6c41-7d95-43f7-adc6-08ffe5731c13"},"vehicle_type_id":"4","last_reported":1732705697,"current_range_meters":19200,"station_id":"ce4bhkp2rcd13ifvqgd0","pricing_plan_id":"cebpf4jnsgd1na2vs0mg"},{"bike_id":"31647841-3a41-42b3-9b41-120f2c141ef3","system_id":"levelo_inurba_marseille","lat":43.3015,"lon":5.38072,"is_reserved":false,"is_disabled":false,"rental_uris":{"android":"levelo://app?vid=31647841-3a41-42b3-9b41-120f2c141ef3","ios":"levelo://app?vid=31647841-3a41-42b3-9b41-120f2c141ef3"},"vehicle_type_id":"4","last_reported":1732705697,"current_range_meters":30800,"station_id":"ce4bgjp2rcd13ifvqbh0","pricing_plan_id":"cebpf4jnsgd1na2vs0mg"},{"bike_id":"3fb4bf40-3244-4e47-8fea-9dc5b0fd98ab","system_id":"levelo_inurba_marseille","lat":43.3414,"lon":5.40905,"is_reserved":false,"is_disabled":false,"rental_uris":{"android":"levelo://app?vid=3fb4bf40-3244-4e47-8fea-9dc5b0fd98ab","ios":"levelo://app?vid=3fb4bf40-3244-4e47-8fea-9dc5b0fd98ab"},"vehicle_type_id":"4","last_reported":1732705697,"current_range_meters":26800,"station_id":"ce4bhqh2rcd13ifvqhlg","pricing_plan_id":"cebpf4jnsgd1na2vs0mg"},{"bike_id":"668dc0c8-866b-4e8b-9906-bdc1436f5ca9","system_id":"levelo_inurba_marseille","lat":43.2952,"lon":5.37512,"is_reserved":false,"is_disabled":false,"rental_uris":{"android":"levelo://app?vid=668dc0c8-866b-4e8b-9906-bdc1436f5ca9","ios":"levelo://app?vid=668dc0c8-866b-4e8b-9906-bdc1436f5ca9"},"vehicle_type_id":"4","last_reported":1732705697,"current_range_meters":17600,"station_id":"ce4bgkp2rcd13ifvqbmg","pricing_plan_id":"cebpf4jnsgd1na2vs0mg"},{"bike_id":"18830488-d9e3-436c-91df-d574eaa7bdd7","system_id":"levelo_inurba_marseille","lat":43.29512,"lon":5.39027,"is_reserved":false,"is_disabled":true,"rental_uris":{"android":"levelo://app?vid=18830488-d9e3-436c-91df-d574eaa7bdd7","ios":"levelo://app?vid=18830488-d9e3-436c-91df-d574eaa7bdd7"},"vehicle_type_id":"4","last_reported":1732705697,"current_range_meters":38800,"station_id":"ce4bh3p2rcd13ifvqdp0","pricing_plan_id":"cebpf4jnsgd1na2vs0mg"},{"bike_id":"699a92ef-9bdf-44a5-b698-21e6b9fa89fb","system_id":"levelo_inurba_marseille","lat":43.29899,"lon":5.38138,"is_reserved":false,"is_disabled":true,"rental_uris":{"android":"levelo://app?vid=699a92ef-9bdf-44a5-b698-21e6b9fa89fb","ios":"levelo://app?vid=699a92ef-9bdf-44a5-b698-21e6b9fa89fb"},"vehicle_type_id":"4","last_reported":1732705697,"current_range_meters":38400,"station_id":"ce4bgj12rcd13ifvqbc0","pricing_plan_id":"cebpf4jnsgd1na2vs0mg"},{"bike_id":"604dd96f-5e5b-41a0-9904-5b7d85d376d6","system_id":"levelo_inurba_marseille","lat":43.29572,"lon":5.37514,"is_reserved":false,"is_disabled":true,"rental_uris":{"android":"levelo://app?vid=604dd96f-5e5b-41a0-9904-5b7d85d376d6","ios":"levelo://app?vid=604dd96f-5e5b-41a0-9904-5b7d85d376d6"},"vehicle_type_id":"4","last_reported":1732705697,"current_range_meters":9200,"station_id":"ce4bgh92rcd13ifvqb50","pricing_plan_id":"cebpf4jnsgd1na2vs0mg"},{"bike_id":"1cd78e3c-eca2-430e-a00b-3450b52eb373","system_id":"levelo_inurba_marseille","lat":43.22928,"lon":5.3538,"is_reserved":false,"is_disabled":false,"rental_uris":{"android":"levelo://app?vid=1cd78e3c-eca2-430e-a00b-3450b52eb373","ios":"levelo://app?vid=1cd78e3c-eca2-430e-a00b-3450b52eb373"},"vehicle_type_id":"4","last_reported":1732705697,"current_range_meters":37600,"station_id":"cpo3532slgdg3j2ikp40","pricing_plan_id":"cebpf4jnsgd1na2vs0mg"},{"bike_id":"3384cba6-44e1-4691-9025-2f078c945faf","system_id":"levelo_inurba_marseille","lat":43.24672,"lon":5.38161,"is_reserved":false,"is_disabled":false,"rental_uris":{"android":"levelo://app?vid=3384cba6-44e1-4691-9025-2f078c945faf","ios":"levelo://app?vid=3384cba6-44e1-4691-9025-2f078c945faf"},"vehicle_type_id":"4","last_reported":1732705697,"current_range_meters":24000,"station_id":"ce4bhih2rcd13ifvqfr0","pricing_plan_id":"cebpf4jnsgd1na2vs0mg"},{"bike_id":"28915062-1464-41e4-bc41-88c2d611d1e3","system_id":"levelo_inurba_marseille","lat":43.27989,"lon":5.40019,"is_reserved":false,"is_disabled":false,"rental_uris":{"android":"levelo://app?vid=28915062-1464-41e4-bc41-88c2d611d1e3","ios":"levelo://app?vid=28915062-1464-41e4-bc41-88c2d611d1e3"},"vehicle_type_id":"4","last_reported":1732705697,"current_range_meters":37600,"station_id":"ce4bho92rcd13ifvqh4g","pricing_plan_id":"cebpf4jnsgd1na2vs0mg"},{"bike_id":"b56b1539-7db7-4fcc-b08d-253af0756063","system_id":"levelo_inurba_marseille","lat":43.280816,"lon":5.396626,"is_reserved":false,"is_disabled":false,"rental_uris":{"android":"levelo://app?vid=b56b1539-7db7-4fcc-b08d-253af0756063","ios":"levelo://app?vid=b56b1539-7db7-4fcc-b08d-253af0756063"},"vehicle_type_id":"4","last_reported":1732705697,"current_range_meters":17200,"station_id":"ce4bho12rcd13ifvqh2g","pricing_plan_id":"cebpf4jnsgd1na2vs0mg"},{"bike_id":"6a391aae-96f8-4c1b-aad8-816e21ee8300","system_id":"levelo_inurba_marseille","lat":43.29003,"lon":5.35601,"is_reserved":false,"is_disabled":false,"rental_uris":{"android":"levelo://app?vid=6a391aae-96f8-4c1b-aad8-816e21ee8300","ios":"levelo://app?vid=6a391aae-96f8-4c1b-aad8-816e21ee8300"},"vehicle_type_id":"4","last_reported":1732705697,"current_range_meters":25200,"station_id":"ce4bhb92rcd13ifvqen0","pricing_plan_id":"cebpf4jnsgd1na2vs0mg"},{"bike_id":"f1b41902-7b26-496c-8015-7bbf805aeb52","system_id":"levelo_inurba_marseille","lat":43.29284,"lon":5.36854,"is_reserved":false,"is_disabled":false,"rental_uris":{"android":"levelo://app?vid=f1b41902-7b26-496c-8015-7bbf805aeb52","ios":"levelo://app?vid=f1b41902-7b26-496c-8015-7bbf805aeb52"},"vehicle_type_id":"4","last_reported":1732705697,"current_range_meters":35600,"station_id":"ce4bhbp2rcd13ifvqesg","pricing_plan_id":"cebpf4jnsgd1na2vs0mg"},{"bike_id":"27074f86-8114-4ab2-b60a-9152cbfbc906","system_id":"levelo_inurba_marseille","lat":43.2992,"lon":5.37484,"is_reserved":false,"is_disabled":false,"rental_uris":{"android":"levelo://app?vid=27074f86-8114-4ab2-b60a-9152cbfbc906","ios":"levelo://app?vid=27074f86-8114-4ab2-b60a-9152cbfbc906"},"vehicle_type_id":"4","last_reported":1732705697,"current_range_meters":36400,"station_id":"ce4bgjh2rcd13ifvqbg0","pricing_plan_id":"cebpf4jnsgd1na2vs0mg"},{"bike_id":"7661e34e-ac55-4dca-b4c7-31a506d67932","system_id":"levelo_inurba_marseille","lat":43.2594,"lon":5.40903,"is_reserved":false,"is_disabled":false,"rental_uris":{"android":"levelo://app?vid=7661e34e-ac55-4dca-b4c7-31a506d67932","ios":"levelo://app?vid=7661e34e-ac55-4dca-b4c7-31a506d67932"},"vehicle_type_id":"4","last_reported":1732705697,"current_range_meters":11200,"station_id":"ce4bhm92rcd13ifvqglg","pricing_plan_id":"cebpf4jnsgd1na2vs0mg"},{"bike_id":"e07af2c5-3c4d-41fa-b4a9-8376136eeeb0","system_id":"levelo_inurba_marseille","lat":43.30545,"lon":5.36539,"is_reserved":false,"is_disabled":false,"rental_uris":{"android":"levelo://app?vid=e07af2c5-3c4d-41fa-b4a9-8376136eeeb0","ios":"levelo://app?vid=e07af2c5-3c4d-41fa-b4a9-8376136eeeb0"},"vehicle_type_id":"4","last_reported":1732705697,"current_range_meters":30400,"station_id":"ce4bgs12rcd13ifvqcag","pricing_plan_id":"cebpf4jnsgd1na2vs0mg"},{"bike_id":"13b87533-53c5-44d9-a1ef-335c3ecbd5b5","system_id":"levelo_inurba_marseille","lat":43.33608,"lon":5.41037,"is_reserved":false,"is_disabled":false,"rental_uris":{"android":"levelo://app?vid=13b87533-53c5-44d9-a1ef-335c3ecbd5b5","ios":"levelo://app?vid=13b87533-53c5-44d9-a1ef-335c3ecbd5b5"},"vehicle_type_id":"4","last_reported":1732705697,"current_range_meters":35600,"station_id":"ce4bhqh2rcd13ifvqhmg","pricing_plan_id":"cebpf4jnsgd1na2vs0mg"},{"bike_id":"2e95a691-d7d8-426b-8dba-47b6b56c6a41","system_id":"levelo_inurba_marseille","lat":43.28153,"lon":5.42639,"is_reserved":false,"is_disabled":true,"rental_uris":{"android":"levelo://app?vid=2e95a691-d7d8-426b-8dba-47b6b56c6a41","ios":"levelo://app?vid=2e95a691-d7d8-426b-8dba-47b6b56c6a41"},"vehicle_type_id":"4","last_reported":1732705697,"current_range_meters":2000,"station_id":"ce4bhnh2rcd13ifvqgug","pricing_plan_id":"cebpf4jnsgd1na2vs0mg"},{"bike_id":"cbc9f954-8758-40c7-a093-276daeb1d283","system_id":"levelo_inurba_marseille","lat":43.31357,"lon":5.36717,"is_reserved":false,"is_disabled":false,"rental_uris":{"android":"levelo://app?vid=cbc9f954-8758-40c7-a093-276daeb1d283","ios":"levelo://app?vid=cbc9f954-8758-40c7-a093-276daeb1d283"},"vehicle_type_id":"4","last_reported":1732705697,"current_range_meters":21600,"station_id":"ce4bgr92rcd13ifvqc6g","pricing_plan_id":"cebpf4jnsgd1na2vs0mg"},{"bike_id":"fba1ceb6-3cef-4b3a-8f1d-cb2909f800c4","system_id":"levelo_inurba_marseille","lat":43.31359,"lon":5.36697,"is_reserved":false,"is_disabled":false,"rental_uris":{"android":"levelo://app?vid=fba1ceb6-3cef-4b3a-8f1d-cb2909f800c4","ios":"levelo://app?vid=fba1ceb6-3cef-4b3a-8f1d-cb2909f800c4"},"vehicle_type_id":"4","last_reported":1732705697,"current_range_meters":38000,"station_id":"ce4bgr92rcd13ifvqc6g","pricing_plan_id":"cebpf4jnsgd1na2vs0mg"},{"bike_id":"a5848fc1-9c38-4c0f-8cd3-7a1f74903e08","system_id":"levelo_inurba_marseille","lat":43.2318,"lon":5.39984,"is_reserved":false,"is_disabled":false,"rental_uris":{"android":"levelo://app?vid=a5848fc1-9c38-4c0f-8cd3-7a1f74903e08","ios":"levelo://app?vid=a5848fc1-9c38-4c0f-8cd3-7a1f74903e08"},"vehicle_type_id":"4","last_reported":1732705697,"current_range_meters":23200,"station_id":"ce4bhn12rcd13ifvqgqg","pricing_plan_id":"cebpf4jnsgd1na2vs0mg"},{"bike_id":"bf85c0ae-48e0-4e50-a503-48187d5c9650","system_id":"levelo_inurba_marseille","lat":43.30142,"lon":5.37412,"is_reserved":false,"is_disabled":false,"rental_uris":{"android":"levelo://app?vid=bf85c0ae-48e0-4e50-a503-48187d5c9650","ios":"levelo://app?vid=bf85c0ae-48e0-4e50-a503-48187d5c9650"},"vehicle_type_id":"4","last_reported":1732705697,"current_range_meters":39200,"station_id":"ce4bgs92rcd13ifvqcc0","pricing_plan_id":"cebpf4jnsgd1na2vs0mg"},{"bike_id":"16ad57bb-ba2e-4d25-96f6-bb956c61e82c","system_id":"levelo_inurba_marseille","lat":43.23153,"lon":5.43704,"is_reserved":false,"is_disabled":false,"rental_uris":{"android":"levelo://app?vid=16ad57bb-ba2e-4d25-96f6-bb956c61e82c","ios":"levelo://app?vid=16ad57bb-ba2e-4d25-96f6-bb956c61e82c"},"vehicle_type_id":"4","last_reported":1732705697,"current_range_meters":24800,"station_id":"ce4bhmp2rcd13ifvqgog","pricing_plan_id":"cebpf4jnsgd1na2vs0mg"},{"bike_id":"1606c510-b735-4fc8-8ac9-1879292672fd","system_id":"levelo_inurba_marseille","lat":43.25866,"lon":5.39898,"is_reserved":false,"is_disabled":true,"rental_uris":{"android":"levelo://app?vid=1606c510-b735-4fc8-8ac9-1879292672fd","ios":"levelo://app?vid=1606c510-b735-4fc8-8ac9-1879292672fd"},"vehicle_type_id":"4","last_reported":1732705697,"current_range_meters":7200,"station_id":"ce4bhl92rcd13ifvqghg","pricing_plan_id":"cebpf4jnsgd1na2vs0mg"},{"bike_id":"858b65e1-94fc-4151-a71e-8b168cb19dcb","system_id":"levelo_inurba_marseille","lat":43.32249,"lon":5.39241,"is_reserved":false,"is_disabled":true,"rental_uris":{"android":"levelo://app?vid=858b65e1-94fc-4151-a71e-8b168cb19dcb","ios":"levelo://app?vid=858b65e1-94fc-4151-a71e-8b168cb19dcb"},"vehicle_type_id":"4","last_reported":1732705697,"current_range_meters":0,"station_id":"","pricing_plan_id":"cebpf4jnsgd1na2vs0mg"},{"bike_id":"02c559f3-423a-4496-aa44-51d2fc858b99","system_id":"levelo_inurba_marseille","lat":43.28405,"lon":5.37516,"is_reserved":false,"is_disabled":true,"rental_uris":{"android":"levelo://app?vid=02c559f3-423a-4496-aa44-51d2fc858b99","ios":"levelo://app?vid=02c559f3-423a-4496-aa44-51d2fc858b99"},"vehicle_type_id":"4","last_reported":1732705697,"current_range_meters":17600,"station_id":"ce4bh412rcd13ifvqds0","pricing_plan_id":"cebpf4jnsgd1na2vs0mg"},{"bike_id":"e51b2acb-d883-446b-9ce9-347608453ece","system_id":"levelo_inurba_marseille","lat":43.2293,"lon":5.35372,"is_reserved":false,"is_disabled":false,"rental_uris":{"android":"levelo://app?vid=e51b2acb-d883-446b-9ce9-347608453ece","ios":"levelo://app?vid=e51b2acb-d883-446b-9ce9-347608453ece"},"vehicle_type_id":"4","last_reported":1732705697,"current_range_meters":36800,"station_id":"cpo3532slgdg3j2ikp40","pricing_plan_id":"cebpf4jnsgd1na2vs0mg"},{"bike_id":"92c6c2b8-814a-4a18-ba1a-e771f58bc8ef","system_id":"levelo_inurba_marseille","lat":43.24091,"lon":5.3772,"is_reserved":false,"is_disabled":false,"rental_uris":{"android":"levelo://app?vid=92c6c2b8-814a-4a18-ba1a-e771f58bc8ef","ios":"levelo://app?vid=92c6c2b8-814a-4a18-ba1a-e771f58bc8ef"},"vehicle_type_id":"4","last_reported":1732705697,"current_range_meters":39200,"station_id":"ce4bhnp2rcd13ifvqgvg","pricing_plan_id":"cebpf4jnsgd1na2vs0mg"},{"bike_id":"56426cf3-51f3-4b04-a2da-b55bfcad1071","system_id":"levelo_inurba_marseille","lat":43.2971,"lon":5.36611,"is_reserved":false,"is_disabled":true,"rental_uris":{"android":"levelo://app?vid=56426cf3-51f3-4b04-a2da-b55bfcad1071","ios":"levelo://app?vid=56426cf3-51f3-4b04-a2da-b55bfcad1071"},"vehicle_type_id":"4","last_reported":1732705697,"current_range_meters":17600,"station_id":"ce4bgn12rcd13ifvqbt0","pricing_plan_id":"cebpf4jnsgd1na2vs0mg"},{"bike_id":"19f333bd-7585-4bf3-98e8-f60dbfde10fd","system_id":"levelo_inurba_marseille","lat":43.28445,"lon":5.392,"is_reserved":false,"is_disabled":false,"rental_uris":{"android":"levelo://app?vid=19f333bd-7585-4bf3-98e8-f60dbfde10fd","ios":"levelo://app?vid=19f333bd-7585-4bf3-98e8-f60dbfde10fd"},"vehicle_type_id":"4","last_reported":1732705697,"current_range_meters":12000,"station_id":"ce4bhoh2rcd13ifvqh5g","pricing_plan_id":"cebpf4jnsgd1na2vs0mg"},{"bike_id":"6a84fe5c-81fa-4ede-b74d-0690303fc0a8","system_id":"levelo_inurba_marseille","lat":43.30569,"lon":5.36526,"is_reserved":false,"is_disabled":false,"rental_uris":{"android":"levelo://app?vid=6a84fe5c-81fa-4ede-b74d-0690303fc0a8","ios":"levelo://app?vid=6a84fe5c-81fa-4ede-b74d-0690303fc0a8"},"vehicle_type_id":"4","last_reported":1732705697,"current_range_meters":39200,"station_id":"ce4bgs12rcd13ifvqcag","pricing_plan_id":"cebpf4jnsgd1na2vs0mg"},{"bike_id":"4a5edd1c-4bfe-4fd8-af74-a6a894c0c2cb","system_id":"levelo_inurba_marseille","lat":43.25861,"lon":5.39896,"is_reserved":false,"is_disabled":false,"rental_uris":{"android":"levelo://app?vid=4a5edd1c-4bfe-4fd8-af74-a6a894c0c2cb","ios":"levelo://app?vid=4a5edd1c-4bfe-4fd8-af74-a6a894c0c2cb"},"vehicle_type_id":"4","last_reported":1732705697,"current_range_meters":36400,"station_id":"ce4bhl92rcd13ifvqghg","pricing_plan_id":"cebpf4jnsgd1na2vs0mg"},{"bike_id":"f7f3756c-1ec7-4782-9c87-6273f87b6774","system_id":"levelo_inurba_marseille","lat":43.337444,"lon":5.374475,"is_reserved":false,"is_disabled":true,"rental_uris":{"android":"levelo://app?vid=f7f3756c-1ec7-4782-9c87-6273f87b6774","ios":"levelo://app?vid=f7f3756c-1ec7-4782-9c87-6273f87b6774"},"vehicle_type_id":"4","last_reported":1732705697,"current_range_meters":15200,"station_id":"","pricing_plan_id":"cebpf4jnsgd1na2vs0mg"},{"bike_id":"9a7fc65c-a473-4df1-8da8-b97e38cbdb89","system_id":"levelo_inurba_marseille","lat":43.23147,"lon":5.43722,"is_reserved":false,"is_disabled":false,"rental_uris":{"android":"levelo://app?vid=9a7fc65c-a473-4df1-8da8-b97e38cbdb89","ios":"levelo://app?vid=9a7fc65c-a473-4df1-8da8-b97e38cbdb89"},"vehicle_type_id":"4","last_reported":1732705697,"current_range_meters":7200,"station_id":"ce4bhmp2rcd13ifvqgog","pricing_plan_id":"cebpf4jnsgd1na2vs0mg"},{"bike_id":"5ad94f11-d0cb-4d81-815c-d14c511fb2a1","system_id":"levelo_inurba_marseille","lat":43.24154,"lon":5.39714,"is_reserved":false,"is_disabled":true,"rental_uris":{"android":"levelo://app?vid=5ad94f11-d0cb-4d81-815c-d14c511fb2a1","ios":"levelo://app?vid=5ad94f11-d0cb-4d81-815c-d14c511fb2a1"},"vehicle_type_id":"4","last_reported":1732705697,"current_range_meters":18000,"station_id":"ce4bhn12rcd13ifvqgpg","pricing_plan_id":"cebpf4jnsgd1na2vs0mg"},{"bike_id":"5ac84619-8500-415b-9629-5dc640523aaa","system_id":"levelo_inurba_marseille","lat":43.29529,"lon":5.37493,"is_reserved":false,"is_disabled":true,"rental_uris":{"android":"levelo://app?vid=5ac84619-8500-415b-9629-5dc640523aaa","ios":"levelo://app?vid=5ac84619-8500-415b-9629-5dc640523aaa"},"vehicle_type_id":"4","last_reported":1732705697,"current_range_meters":11600,"station_id":"ce4bgkp2rcd13ifvqbmg","pricing_plan_id":"cebpf4jnsgd1na2vs0mg"},{"bike_id":"79248b71-e381-4425-958e-44a988ca2b76","system_id":"levelo_inurba_marseille","lat":43.23151,"lon":5.43717,"is_reserved":false,"is_disabled":true,"rental_uris":{"android":"levelo://app?vid=79248b71-e381-4425-958e-44a988ca2b76","ios":"levelo://app?vid=79248b71-e381-4425-958e-44a988ca2b76"},"vehicle_type_id":"4","last_reported":1732705697,"current_range_meters":0,"station_id":"ce4bhmp2rcd13ifvqgog","pricing_plan_id":"cebpf4jnsgd1na2vs0mg"},{"bike_id":"28d6967f-046a-461c-a6d1-c946ec18eef5","system_id":"levelo_inurba_marseille","lat":43.25873,"lon":5.399,"is_reserved":false,"is_disabled":false,"rental_uris":{"android":"levelo://app?vid=28d6967f-046a-461c-a6d1-c946ec18eef5","ios":"levelo://app?vid=28d6967f-046a-461c-a6d1-c946ec18eef5"},"vehicle_type_id":"4","last_reported":1732705697,"current_range_meters":26800,"station_id":"ce4bhl92rcd13ifvqghg","pricing_plan_id":"cebpf4jnsgd1na2vs0mg"},{"bike_id":"aafa7b12-3750-47ea-ad34-1e9e60140baa","system_id":"levelo_inurba_marseille","lat":43.3054,"lon":5.3654,"is_reserved":false,"is_disabled":false,"rental_uris":{"android":"levelo://app?vid=aafa7b12-3750-47ea-ad34-1e9e60140baa","ios":"levelo://app?vid=aafa7b12-3750-47ea-ad34-1e9e60140baa"},"vehicle_type_id":"4","last_reported":1732705697,"current_range_meters":27200,"station_id":"ce4bgs12rcd13ifvqcag","pricing_plan_id":"cebpf4jnsgd1na2vs0mg"},{"bike_id":"5beeafd9-fc35-4444-8f38-3d5aae2d23a8","system_id":"levelo_inurba_marseille","lat":43.3248,"lon":5.36561,"is_reserved":false,"is_disabled":false,"rental_uris":{"android":"levelo://app?vid=5beeafd9-fc35-4444-8f38-3d5aae2d23a8","ios":"levelo://app?vid=5beeafd9-fc35-4444-8f38-3d5aae2d23a8"},"vehicle_type_id":"4","last_reported":1732705697,"current_range_meters":14400,"station_id":"ce4bhs12rcd13ifvqhvg","pricing_plan_id":"cebpf4jnsgd1na2vs0mg"},{"bike_id":"c83b132a-d9eb-4c48-8e36-2b1986ba56e7","system_id":"levelo_inurba_marseille","lat":43.27906,"lon":5.39585,"is_reserved":false,"is_disabled":false,"rental_uris":{"android":"levelo://app?vid=c83b132a-d9eb-4c48-8e36-2b1986ba56e7","ios":"levelo://app?vid=c83b132a-d9eb-4c48-8e36-2b1986ba56e7"},"vehicle_type_id":"4","last_reported":1732705697,"current_range_meters":36400,"station_id":"ce4bhf92rcd13ifvqf40","pricing_plan_id":"cebpf4jnsgd1na2vs0mg"},{"bike_id":"c87d933d-4ef2-4709-8918-ec2d85365e86","system_id":"levelo_inurba_marseille","lat":43.30315,"lon":5.3689,"is_reserved":false,"is_disabled":false,"rental_uris":{"android":"levelo://app?vid=c87d933d-4ef2-4709-8918-ec2d85365e86","ios":"levelo://app?vid=c87d933d-4ef2-4709-8918-ec2d85365e86"},"vehicle_type_id":"4","last_reported":1732705697,"current_range_meters":15200,"station_id":"ce4bgqh2rcd13ifvqc5g","pricing_plan_id":"cebpf4jnsgd1na2vs0mg"},{"bike_id":"a5909545-3e09-4859-9fda-9ffe4e6e4883","system_id":"levelo_inurba_marseille","lat":43.23065,"lon":5.35491,"is_reserved":false,"is_disabled":false,"rental_uris":{"android":"levelo://app?vid=a5909545-3e09-4859-9fda-9ffe4e6e4883","ios":"levelo://app?vid=a5909545-3e09-4859-9fda-9ffe4e6e4883"},"vehicle_type_id":"4","last_reported":1732705697,"current_range_meters":27600,"station_id":"cpo3342slgdg3j2ifvpg","pricing_plan_id":"cebpf4jnsgd1na2vs0mg"},{"bike_id":"25d969bd-1673-4ce9-b5e4-4e443f43c31d","system_id":"levelo_inurba_marseille","lat":43.29446,"lon":5.39744,"is_reserved":false,"is_disabled":false,"rental_uris":{"android":"levelo://app?vid=25d969bd-1673-4ce9-b5e4-4e443f43c31d","ios":"levelo://app?vid=25d969bd-1673-4ce9-b5e4-4e443f43c31d"},"vehicle_type_id":"4","last_reported":1732705697,"current_range_meters":38800,"station_id":"ce4bh3h2rcd13ifvqdo0","pricing_plan_id":"cebpf4jnsgd1na2vs0mg"},{"bike_id":"7601b5c2-4e91-4aba-a9d9-534c7498f96b","system_id":"levelo_inurba_marseille","lat":43.2847,"lon":5.3842,"is_reserved":false,"is_disabled":false,"rental_uris":{"android":"levelo://app?vid=7601b5c2-4e91-4aba-a9d9-534c7498f96b","ios":"levelo://app?vid=7601b5c2-4e91-4aba-a9d9-534c7498f96b"},"vehicle_type_id":"4","last_reported":1732705697,"current_range_meters":32800,"station_id":"ce4bh512rcd13ifvqe3g","pricing_plan_id":"cebpf4jnsgd1na2vs0mg"},{"bike_id":"945df11d-ba9a-4aab-a3f2-fbf39aa3c1d6","system_id":"levelo_inurba_marseille","lat":43.23182,"lon":5.39984,"is_reserved":false,"is_disabled":false,"rental_uris":{"android":"levelo://app?vid=945df11d-ba9a-4aab-a3f2-fbf39aa3c1d6","ios":"levelo://app?vid=945df11d-ba9a-4aab-a3f2-fbf39aa3c1d6"},"vehicle_type_id":"4","last_reported":1732705697,"current_range_meters":12000,"station_id":"ce4bhn12rcd13ifvqgqg","pricing_plan_id":"cebpf4jnsgd1na2vs0mg"},{"bike_id":"e5951ee3-4a5a-4ebb-b469-096c5188dfa3","system_id":"levelo_inurba_marseille","lat":43.231875,"lon":5.355575,"is_reserved":false,"is_disabled":false,"rental_uris":{"android":"levelo://app?vid=e5951ee3-4a5a-4ebb-b469-096c5188dfa3","ios":"levelo://app?vid=e5951ee3-4a5a-4ebb-b469-096c5188dfa3"},"vehicle_type_id":"4","last_reported":1732705697,"current_range_meters":32400,"station_id":"ce4bhu92rcd13ifvqi70","pricing_plan_id":"cebpf4jnsgd1na2vs0mg"},{"bike_id":"f5ced30d-226f-4346-bf62-37f37846f9d7","system_id":"levelo_inurba_marseille","lat":43.29793,"lon":5.38093,"is_reserved":false,"is_disabled":true,"rental_uris":{"android":"levelo://app?vid=f5ced30d-226f-4346-bf62-37f37846f9d7","ios":"levelo://app?vid=f5ced30d-226f-4346-bf62-37f37846f9d7"},"vehicle_type_id":"4","last_reported":1732705697,"current_range_meters":14000,"station_id":"ce4bgip2rcd13ifvqbb0","pricing_plan_id":"cebpf4jnsgd1na2vs0mg"},{"bike_id":"8b90e280-1859-48e5-8cc1-f1521436ad0b","system_id":"levelo_inurba_marseille","lat":43.2558,"lon":5.38223,"is_reserved":false,"is_disabled":false,"rental_uris":{"android":"levelo://app?vid=8b90e280-1859-48e5-8cc1-f1521436ad0b","ios":"levelo://app?vid=8b90e280-1859-48e5-8cc1-f1521436ad0b"},"vehicle_type_id":"4","last_reported":1732705697,"current_range_meters":16400,"station_id":"ce4bhih2rcd13ifvqfs0","pricing_plan_id":"cebpf4jnsgd1na2vs0mg"},{"bike_id":"3379f44f-c07d-4ec3-b622-4c7ff9c0b74e","system_id":"levelo_inurba_marseille","lat":43.23189,"lon":5.35562,"is_reserved":false,"is_disabled":true,"rental_uris":{"android":"levelo://app?vid=3379f44f-c07d-4ec3-b622-4c7ff9c0b74e","ios":"levelo://app?vid=3379f44f-c07d-4ec3-b622-4c7ff9c0b74e"},"vehicle_type_id":"4","last_reported":1732705697,"current_range_meters":6400,"station_id":"ce4bhu92rcd13ifvqi70","pricing_plan_id":"cebpf4jnsgd1na2vs0mg"},{"bike_id":"6c948e9c-d5b3-4fe5-a918-1bd2f7c83b02","system_id":"levelo_inurba_marseille","lat":43.32111,"lon":5.3677,"is_reserved":false,"is_disabled":false,"rental_uris":{"android":"levelo://app?vid=6c948e9c-d5b3-4fe5-a918-1bd2f7c83b02","ios":"levelo://app?vid=6c948e9c-d5b3-4fe5-a918-1bd2f7c83b02"},"vehicle_type_id":"4","last_reported":1732705697,"current_range_meters":12800,"station_id":"ce4bhrh2rcd13ifvqhug","pricing_plan_id":"cebpf4jnsgd1na2vs0mg"},{"bike_id":"4212ff09-0c92-4828-8add-9eb7bf7305ba","system_id":"levelo_inurba_marseille","lat":43.29809,"lon":5.38082,"is_reserved":false,"is_disabled":true,"rental_uris":{"android":"levelo://app?vid=4212ff09-0c92-4828-8add-9eb7bf7305ba","ios":"levelo://app?vid=4212ff09-0c92-4828-8add-9eb7bf7305ba"},"vehicle_type_id":"4","last_reported":1732705697,"current_range_meters":37600,"station_id":"ce4bgip2rcd13ifvqbb0","pricing_plan_id":"cebpf4jnsgd1na2vs0mg"},{"bike_id":"319db8f6-ad1c-4b46-ad57-5033d5ed25eb","system_id":"levelo_inurba_marseille","lat":43.25727,"lon":5.41102,"is_reserved":false,"is_disabled":false,"rental_uris":{"android":"levelo://app?vid=319db8f6-ad1c-4b46-ad57-5033d5ed25eb","ios":"levelo://app?vid=319db8f6-ad1c-4b46-ad57-5033d5ed25eb"},"vehicle_type_id":"4","last_reported":1732705697,"current_range_meters":19200,"station_id":"ce4bhkp2rcd13ifvqgd0","pricing_plan_id":"cebpf4jnsgd1na2vs0mg"},{"bike_id":"5c53cfbd-2547-413a-b79a-f8cc3b1ca992","system_id":"levelo_inurba_marseille","lat":43.3211,"lon":5.3678,"is_reserved":false,"is_disabled":false,"rental_uris":{"android":"levelo://app?vid=5c53cfbd-2547-413a-b79a-f8cc3b1ca992","ios":"levelo://app?vid=5c53cfbd-2547-413a-b79a-f8cc3b1ca992"},"vehicle_type_id":"4","last_reported":1732705697,"current_range_meters":28000,"station_id":"ce4bhrh2rcd13ifvqhug","pricing_plan_id":"cebpf4jnsgd1na2vs0mg"},{"bike_id":"579facde-334f-493a-99b8-076f2ddc010f","system_id":"levelo_inurba_marseille","lat":43.29679,"lon":5.37283,"is_reserved":false,"is_disabled":false,"rental_uris":{"android":"levelo://app?vid=579facde-334f-493a-99b8-076f2ddc010f","ios":"levelo://app?vid=579facde-334f-493a-99b8-076f2ddc010f"},"vehicle_type_id":"4","last_reported":1732705697,"current_range_meters":38800,"station_id":"ce4bgk12rcd13ifvqbj0","pricing_plan_id":"cebpf4jnsgd1na2vs0mg"},{"bike_id":"d857c7ff-0eae-417a-a283-d08c196b617c","system_id":"levelo_inurba_marseille","lat":43.23162,"lon":5.43705,"is_reserved":false,"is_disabled":false,"rental_uris":{"android":"levelo://app?vid=d857c7ff-0eae-417a-a283-d08c196b617c","ios":"levelo://app?vid=d857c7ff-0eae-417a-a283-d08c196b617c"},"vehicle_type_id":"4","last_reported":1732705697,"current_range_meters":38800,"station_id":"ce4bhmp2rcd13ifvqgog","pricing_plan_id":"cebpf4jnsgd1na2vs0mg"},{"bike_id":"606f1b59-dfdf-4061-9b9b-42db383c3d38","system_id":"levelo_inurba_marseille","lat":43.30785,"lon":5.37652,"is_reserved":false,"is_disabled":false,"rental_uris":{"android":"levelo://app?vid=606f1b59-dfdf-4061-9b9b-42db383c3d38","ios":"levelo://app?vid=606f1b59-dfdf-4061-9b9b-42db383c3d38"},"vehicle_type_id":"4","last_reported":1732705697,"current_range_meters":38400,"station_id":"ce4bgv92rcd13ifvqcq0","pricing_plan_id":"cebpf4jnsgd1na2vs0mg"},{"bike_id":"d7d3efe9-1788-45c6-bd51-33c58ae43549","system_id":"levelo_inurba_marseille","lat":43.30538,"lon":5.36535,"is_reserved":false,"is_disabled":false,"rental_uris":{"android":"levelo://app?vid=d7d3efe9-1788-45c6-bd51-33c58ae43549","ios":"levelo://app?vid=d7d3efe9-1788-45c6-bd51-33c58ae43549"},"vehicle_type_id":"4","last_reported":1732705697,"current_range_meters":22800,"station_id":"ce4bgs12rcd13ifvqcag","pricing_plan_id":"cebpf4jnsgd1na2vs0mg"},{"bike_id":"c32aafd8-8905-4559-a1d0-f74aa7efcf0e","system_id":"levelo_inurba_marseille","lat":43.338,"lon":5.37474,"is_reserved":false,"is_disabled":false,"rental_uris":{"android":"levelo://app?vid=c32aafd8-8905-4559-a1d0-f74aa7efcf0e","ios":"levelo://app?vid=c32aafd8-8905-4559-a1d0-f74aa7efcf0e"},"vehicle_type_id":"4","last_reported":1732705697,"current_range_meters":38000,"station_id":"","pricing_plan_id":"cebpf4jnsgd1na2vs0mg"},{"bike_id":"731439ac-1f9e-4230-a11d-053ca709af4f","system_id":"levelo_inurba_marseille","lat":43.30146,"lon":5.37423,"is_reserved":false,"is_disabled":true,"rental_uris":{"android":"levelo://app?vid=731439ac-1f9e-4230-a11d-053ca709af4f","ios":"levelo://app?vid=731439ac-1f9e-4230-a11d-053ca709af4f"},"vehicle_type_id":"4","last_reported":1732705697,"current_range_meters":0,"station_id":"ce4bgs92rcd13ifvqcc0","pricing_plan_id":"cebpf4jnsgd1na2vs0mg"},{"bike_id":"fc17c41a-b334-4870-ae03-e7b919a2d987","system_id":"levelo_inurba_marseille","lat":43.3014,"lon":5.37428,"is_reserved":false,"is_disabled":false,"rental_uris":{"android":"levelo://app?vid=fc17c41a-b334-4870-ae03-e7b919a2d987","ios":"levelo://app?vid=fc17c41a-b334-4870-ae03-e7b919a2d987"},"vehicle_type_id":"4","last_reported":1732705697,"current_range_meters":34000,"station_id":"ce4bgs92rcd13ifvqcc0","pricing_plan_id":"cebpf4jnsgd1na2vs0mg"},{"bike_id":"11a86bf9-117a-46ac-b681-21bc71457ffd","system_id":"levelo_inurba_marseille","lat":43.24651,"lon":5.3889,"is_reserved":false,"is_disabled":false,"rental_uris":{"android":"levelo://app?vid=11a86bf9-117a-46ac-b681-21bc71457ffd","ios":"levelo://app?vid=11a86bf9-117a-46ac-b681-21bc71457ffd"},"vehicle_type_id":"4","last_reported":1732705697,"current_range_meters":23200,"station_id":"ce4bhg12rcd13ifvqf60","pricing_plan_id":"cebpf4jnsgd1na2vs0mg"},{"bike_id":"0dbf4a25-0b81-4076-980f-2de46488ffa7","system_id":"levelo_inurba_marseille","lat":43.28614,"lon":5.35101,"is_reserved":false,"is_disabled":true,"rental_uris":{"android":"levelo://app?vid=0dbf4a25-0b81-4076-980f-2de46488ffa7","ios":"levelo://app?vid=0dbf4a25-0b81-4076-980f-2de46488ffa7"},"vehicle_type_id":"4","last_reported":1732705697,"current_range_meters":14000,"station_id":"","pricing_plan_id":"cebpf4jnsgd1na2vs0mg"},{"bike_id":"43746d86-8a13-4845-9faf-ae69b548d714","system_id":"levelo_inurba_marseille","lat":43.29459,"lon":5.37917,"is_reserved":false,"is_disabled":true,"rental_uris":{"android":"levelo://app?vid=43746d86-8a13-4845-9faf-ae69b548d714","ios":"levelo://app?vid=43746d86-8a13-4845-9faf-ae69b548d714"},"vehicle_type_id":"4","last_reported":1732705697,"current_range_meters":0,"station_id":"","pricing_plan_id":"cebpf4jnsgd1na2vs0mg"},{"bike_id":"49ad9574-b0d7-498d-8456-68bdd40aec93","system_id":"levelo_inurba_marseille","lat":43.24673,"lon":5.38158,"is_reserved":false,"is_disabled":false,"rental_uris":{"android":"levelo://app?vid=49ad9574-b0d7-498d-8456-68bdd40aec93","ios":"levelo://app?vid=49ad9574-b0d7-498d-8456-68bdd40aec93"},"vehicle_type_id":"4","last_reported":1732705697,"current_range_meters":35200,"station_id":"ce4bhih2rcd13ifvqfr0","pricing_plan_id":"cebpf4jnsgd1na2vs0mg"},{"bike_id":"df76b7bf-b879-4e94-9796-439ee296ef0a","system_id":"levelo_inurba_marseille","lat":43.22925,"lon":5.35381,"is_reserved":false,"is_disabled":false,"rental_uris":{"android":"levelo://app?vid=df76b7bf-b879-4e94-9796-439ee296ef0a","ios":"levelo://app?vid=df76b7bf-b879-4e94-9796-439ee296ef0a"},"vehicle_type_id":"4","last_reported":1732705697,"current_range_meters":38000,"station_id":"cpo3532slgdg3j2ikp40","pricing_plan_id":"cebpf4jnsgd1na2vs0mg"},{"bike_id":"bb079e97-5287-4d2e-98e5-c2c44945d341","system_id":"levelo_inurba_marseille","lat":43.305408,"lon":5.365313,"is_reserved":false,"is_disabled":false,"rental_uris":{"android":"levelo://app?vid=bb079e97-5287-4d2e-98e5-c2c44945d341","ios":"levelo://app?vid=bb079e97-5287-4d2e-98e5-c2c44945d341"},"vehicle_type_id":"4","last_reported":1732705697,"current_range_meters":36400,"station_id":"ce4bgs12rcd13ifvqcag","pricing_plan_id":"cebpf4jnsgd1na2vs0mg"},{"bike_id":"f971abee-70f8-43dc-afe4-4050ccc8c3f7","system_id":"levelo_inurba_marseille","lat":43.25873,"lon":5.39892,"is_reserved":false,"is_disabled":false,"rental_uris":{"android":"levelo://app?vid=f971abee-70f8-43dc-afe4-4050ccc8c3f7","ios":"levelo://app?vid=f971abee-70f8-43dc-afe4-4050ccc8c3f7"},"vehicle_type_id":"4","last_reported":1732705697,"current_range_meters":38800,"station_id":"ce4bhl92rcd13ifvqghg","pricing_plan_id":"cebpf4jnsgd1na2vs0mg"},{"bike_id":"e429a23d-08fa-43bc-a99f-41dd20232034","system_id":"levelo_inurba_marseille","lat":43.26312,"lon":5.39858,"is_reserved":false,"is_disabled":true,"rental_uris":{"android":"levelo://app?vid=e429a23d-08fa-43bc-a99f-41dd20232034","ios":"levelo://app?vid=e429a23d-08fa-43bc-a99f-41dd20232034"},"vehicle_type_id":"4","last_reported":1732705697,"current_range_meters":0,"station_id":"","pricing_plan_id":"cebpf4jnsgd1na2vs0mg"},{"bike_id":"433594dd-3143-4e7f-a22e-08a0d43cb146","system_id":"levelo_inurba_marseille","lat":43.26946,"lon":5.40249,"is_reserved":false,"is_disabled":false,"rental_uris":{"android":"levelo://app?vid=433594dd-3143-4e7f-a22e-08a0d43cb146","ios":"levelo://app?vid=433594dd-3143-4e7f-a22e-08a0d43cb146"},"vehicle_type_id":"4","last_reported":1732705697,"current_range_meters":38800,"station_id":"cjm6bp8fraef2m0cb0m0","pricing_plan_id":"cebpf4jnsgd1na2vs0mg"},{"bike_id":"3faf8b2f-845f-4fd3-8bc7-04d1158d9692","system_id":"levelo_inurba_marseille","lat":43.33019,"lon":5.39032,"is_reserved":false,"is_disabled":false,"rental_uris":{"android":"levelo://app?vid=3faf8b2f-845f-4fd3-8bc7-04d1158d9692","ios":"levelo://app?vid=3faf8b2f-845f-4fd3-8bc7-04d1158d9692"},"vehicle_type_id":"4","last_reported":1732705697,"current_range_meters":24000,"station_id":"ce4bhr92rcd13ifvqhrg","pricing_plan_id":"cebpf4jnsgd1na2vs0mg"},{"bike_id":"c38bafd9-d2ff-4d8a-8bf3-f36a7e655c1d","system_id":"levelo_inurba_marseille","lat":43.24646,"lon":5.389,"is_reserved":false,"is_disabled":false,"rental_uris":{"android":"levelo://app?vid=c38bafd9-d2ff-4d8a-8bf3-f36a7e655c1d","ios":"levelo://app?vid=c38bafd9-d2ff-4d8a-8bf3-f36a7e655c1d"},"vehicle_type_id":"4","last_reported":1732705697,"current_range_meters":28000,"station_id":"ce4bhg12rcd13ifvqf60","pricing_plan_id":"cebpf4jnsgd1na2vs0mg"},{"bike_id":"925d9d68-1b01-45a4-af19-d1a58d7476b9","system_id":"levelo_inurba_marseille","lat":43.312042,"lon":5.367348,"is_reserved":false,"is_disabled":true,"rental_uris":{"android":"levelo://app?vid=925d9d68-1b01-45a4-af19-d1a58d7476b9","ios":"levelo://app?vid=925d9d68-1b01-45a4-af19-d1a58d7476b9"},"vehicle_type_id":"4","last_reported":1732705697,"current_range_meters":0,"station_id":"","pricing_plan_id":"cebpf4jnsgd1na2vs0mg"},{"bike_id":"cf298d8c-a0c9-4883-b341-ff4459ca7832","system_id":"levelo_inurba_marseille","lat":43.22932,"lon":5.35378,"is_reserved":false,"is_disabled":false,"rental_uris":{"android":"levelo://app?vid=cf298d8c-a0c9-4883-b341-ff4459ca7832","ios":"levelo://app?vid=cf298d8c-a0c9-4883-b341-ff4459ca7832"},"vehicle_type_id":"4","last_reported":1732705697,"current_range_meters":38000,"station_id":"cpo3532slgdg3j2ikp40","pricing_plan_id":"cebpf4jnsgd1na2vs0mg"},{"bike_id":"3b050881-aa79-44c8-a1f1-1691f61ce8a2","system_id":"levelo_inurba_marseille","lat":43.26785,"lon":5.39411,"is_reserved":false,"is_disabled":false,"rental_uris":{"android":"levelo://app?vid=3b050881-aa79-44c8-a1f1-1691f61ce8a2","ios":"levelo://app?vid=3b050881-aa79-44c8-a1f1-1691f61ce8a2"},"vehicle_type_id":"4","last_reported":1732705697,"current_range_meters":8800,"station_id":"ce4bhh12rcd13ifvqfg0","pricing_plan_id":"cebpf4jnsgd1na2vs0mg"},{"bike_id":"eab1f542-11da-482a-a42e-8c2a8f4da854","system_id":"levelo_inurba_marseille","lat":43.29571,"lon":5.37515,"is_reserved":false,"is_disabled":false,"rental_uris":{"android":"levelo://app?vid=eab1f542-11da-482a-a42e-8c2a8f4da854","ios":"levelo://app?vid=eab1f542-11da-482a-a42e-8c2a8f4da854"},"vehicle_type_id":"4","last_reported":1732705697,"current_range_meters":9600,"station_id":"ce4bgh92rcd13ifvqb50","pricing_plan_id":"cebpf4jnsgd1na2vs0mg"},{"bike_id":"d9ef5ed5-65f4-4a4b-8dbb-274b0e908852","system_id":"levelo_inurba_marseille","lat":43.24171,"lon":5.36396,"is_reserved":false,"is_disabled":false,"rental_uris":{"android":"levelo://app?vid=d9ef5ed5-65f4-4a4b-8dbb-274b0e908852","ios":"levelo://app?vid=d9ef5ed5-65f4-4a4b-8dbb-274b0e908852"},"vehicle_type_id":"4","last_reported":1732705697,"current_range_meters":25200,"station_id":"cpo36qri1sfpv3e86is0","pricing_plan_id":"cebpf4jnsgd1na2vs0mg"},{"bike_id":"66132751-c0dc-4e27-8cb1-86ddd363280c","system_id":"levelo_inurba_marseille","lat":43.337444,"lon":5.374475,"is_reserved":false,"is_disabled":false,"rental_uris":{"android":"levelo://app?vid=66132751-c0dc-4e27-8cb1-86ddd363280c","ios":"levelo://app?vid=66132751-c0dc-4e27-8cb1-86ddd363280c"},"vehicle_type_id":"4","last_reported":1732705697,"current_range_meters":38400,"station_id":"","pricing_plan_id":"cebpf4jnsgd1na2vs0mg"},{"bike_id":"835b8644-8eb5-432a-a7e5-6db42e504b1f","system_id":"levelo_inurba_marseille","lat":43.24181,"lon":5.39723,"is_reserved":false,"is_disabled":false,"rental_uris":{"android":"levelo://app?vid=835b8644-8eb5-432a-a7e5-6db42e504b1f","ios":"levelo://app?vid=835b8644-8eb5-432a-a7e5-6db42e504b1f"},"vehicle_type_id":"4","last_reported":1732705697,"current_range_meters":8000,"station_id":"ce4bhn12rcd13ifvqgpg","pricing_plan_id":"cebpf4jnsgd1na2vs0mg"},{"bike_id":"3d7b3159-7cf7-4f96-9b7e-e7cb8499ce61","system_id":"levelo_inurba_marseille","lat":43.27205,"lon":5.39187,"is_reserved":false,"is_disabled":false,"rental_uris":{"android":"levelo://app?vid=3d7b3159-7cf7-4f96-9b7e-e7cb8499ce61","ios":"levelo://app?vid=3d7b3159-7cf7-4f96-9b7e-e7cb8499ce61"},"vehicle_type_id":"4","last_reported":1732705697,"current_range_meters":25200,"station_id":"ce4bhhp2rcd13ifvqfm0","pricing_plan_id":"cebpf4jnsgd1na2vs0mg"},{"bike_id":"0473e25a-aacf-4a52-947c-6dc304b28f57","system_id":"levelo_inurba_marseille","lat":43.30151,"lon":5.38082,"is_reserved":false,"is_disabled":false,"rental_uris":{"android":"levelo://app?vid=0473e25a-aacf-4a52-947c-6dc304b28f57","ios":"levelo://app?vid=0473e25a-aacf-4a52-947c-6dc304b28f57"},"vehicle_type_id":"4","last_reported":1732705697,"current_range_meters":29600,"station_id":"ce4bgjp2rcd13ifvqbh0","pricing_plan_id":"cebpf4jnsgd1na2vs0mg"},{"bike_id":"1d491570-34a1-4266-9dd8-096aad79ce71","system_id":"levelo_inurba_marseille","lat":43.28427,"lon":5.34977,"is_reserved":false,"is_disabled":false,"rental_uris":{"android":"levelo://app?vid=1d491570-34a1-4266-9dd8-096aad79ce71","ios":"levelo://app?vid=1d491570-34a1-4266-9dd8-096aad79ce71"},"vehicle_type_id":"4","last_reported":1732705697,"current_range_meters":30800,"station_id":"ce4bhbh2rcd13ifvqepg","pricing_plan_id":"cebpf4jnsgd1na2vs0mg"},{"bike_id":"006b9058-6efe-481f-aea3-cd4a774043f3","system_id":"levelo_inurba_marseille","lat":43.27812,"lon":5.40701,"is_reserved":false,"is_disabled":false,"rental_uris":{"android":"levelo://app?vid=006b9058-6efe-481f-aea3-cd4a774043f3","ios":"levelo://app?vid=006b9058-6efe-481f-aea3-cd4a774043f3"},"vehicle_type_id":"4","last_reported":1732705697,"current_range_meters":38800,"station_id":"ce4bhnh2rcd13ifvqgtg","pricing_plan_id":"cebpf4jnsgd1na2vs0mg"},{"bike_id":"a53f9114-9795-4006-9fde-e66fbbe29373","system_id":"levelo_inurba_marseille","lat":43.337444,"lon":5.374475,"is_reserved":false,"is_disabled":false,"rental_uris":{"android":"levelo://app?vid=a53f9114-9795-4006-9fde-e66fbbe29373","ios":"levelo://app?vid=a53f9114-9795-4006-9fde-e66fbbe29373"},"vehicle_type_id":"4","last_reported":1732705697,"current_range_meters":28400,"station_id":"ce4bhf92rcd13ifvqf40","pricing_plan_id":"cebpf4jnsgd1na2vs0mg"},{"bike_id":"be91d1fe-f564-4b9d-8b7c-55bf938ff166","system_id":"levelo_inurba_marseille","lat":43.29009,"lon":5.35614,"is_reserved":false,"is_disabled":false,"rental_uris":{"android":"levelo://app?vid=be91d1fe-f564-4b9d-8b7c-55bf938ff166","ios":"levelo://app?vid=be91d1fe-f564-4b9d-8b7c-55bf938ff166"},"vehicle_type_id":"4","last_reported":1732705697,"current_range_meters":36800,"station_id":"ce4bhb92rcd13ifvqen0","pricing_plan_id":"cebpf4jnsgd1na2vs0mg"},{"bike_id":"831bf014-3f98-46c0-b5e5-5ce4a89b4f98","system_id":"levelo_inurba_marseille","lat":43.33604,"lon":5.41035,"is_reserved":false,"is_disabled":false,"rental_uris":{"android":"levelo://app?vid=831bf014-3f98-46c0-b5e5-5ce4a89b4f98","ios":"levelo://app?vid=831bf014-3f98-46c0-b5e5-5ce4a89b4f98"},"vehicle_type_id":"4","last_reported":1732705697,"current_range_meters":35200,"station_id":"ce4bhqh2rcd13ifvqhmg","pricing_plan_id":"cebpf4jnsgd1na2vs0mg"},{"bike_id":"07166161-57d3-4ee1-aa7a-80001a63ee93","system_id":"levelo_inurba_marseille","lat":43.23177,"lon":5.3998,"is_reserved":false,"is_disabled":false,"rental_uris":{"android":"levelo://app?vid=07166161-57d3-4ee1-aa7a-80001a63ee93","ios":"levelo://app?vid=07166161-57d3-4ee1-aa7a-80001a63ee93"},"vehicle_type_id":"4","last_reported":1732705697,"current_range_meters":38800,"station_id":"ce4bhn12rcd13ifvqgqg","pricing_plan_id":"cebpf4jnsgd1na2vs0mg"},{"bike_id":"9cff0f21-ab59-48fd-b4fc-1b94e8b79a41","system_id":"levelo_inurba_marseille","lat":43.29549,"lon":5.42285,"is_reserved":false,"is_disabled":false,"rental_uris":{"android":"levelo://app?vid=9cff0f21-ab59-48fd-b4fc-1b94e8b79a41","ios":"levelo://app?vid=9cff0f21-ab59-48fd-b4fc-1b94e8b79a41"},"vehicle_type_id":"4","last_reported":1732705697,"current_range_meters":38400,"station_id":"ce4bhph2rcd13ifvqhdg","pricing_plan_id":"cebpf4jnsgd1na2vs0mg"},{"bike_id":"ee05ac60-a365-4a07-8df9-f1d6a7c1f3f4","system_id":"levelo_inurba_marseille","lat":43.30149,"lon":5.38083,"is_reserved":false,"is_disabled":false,"rental_uris":{"android":"levelo://app?vid=ee05ac60-a365-4a07-8df9-f1d6a7c1f3f4","ios":"levelo://app?vid=ee05ac60-a365-4a07-8df9-f1d6a7c1f3f4"},"vehicle_type_id":"4","last_reported":1732705697,"current_range_meters":34000,"station_id":"ce4bgjp2rcd13ifvqbh0","pricing_plan_id":"cebpf4jnsgd1na2vs0mg"},{"bike_id":"c0a03619-2a05-45c6-80fe-ea5187c716d5","system_id":"levelo_inurba_marseille","lat":43.31692,"lon":5.40467,"is_reserved":false,"is_disabled":false,"rental_uris":{"android":"levelo://app?vid=c0a03619-2a05-45c6-80fe-ea5187c716d5","ios":"levelo://app?vid=c0a03619-2a05-45c6-80fe-ea5187c716d5"},"vehicle_type_id":"4","last_reported":1732705697,"current_range_meters":5600,"station_id":"ce4bh012rcd13ifvqd00","pricing_plan_id":"cebpf4jnsgd1na2vs0mg"},{"bike_id":"e9c17faa-0a50-4311-9b95-9e8911926bd0","system_id":"levelo_inurba_marseille","lat":43.30541,"lon":5.36694,"is_reserved":false,"is_disabled":false,"rental_uris":{"android":"levelo://app?vid=e9c17faa-0a50-4311-9b95-9e8911926bd0","ios":"levelo://app?vid=e9c17faa-0a50-4311-9b95-9e8911926bd0"},"vehicle_type_id":"4","last_reported":1732705697,"current_range_meters":15200,"station_id":"ce4bgrp2rcd13ifvqc9g","pricing_plan_id":"cebpf4jnsgd1na2vs0mg"},{"bike_id":"f09078ce-07c9-4905-874a-31b9ebcc4e45","system_id":"levelo_inurba_marseille","lat":43.29922,"lon":5.37485,"is_reserved":false,"is_disabled":false,"rental_uris":{"android":"levelo://app?vid=f09078ce-07c9-4905-874a-31b9ebcc4e45","ios":"levelo://app?vid=f09078ce-07c9-4905-874a-31b9ebcc4e45"},"vehicle_type_id":"4","last_reported":1732705697,"current_range_meters":37600,"station_id":"ce4bgjh2rcd13ifvqbg0","pricing_plan_id":"cebpf4jnsgd1na2vs0mg"},{"bike_id":"434327ea-7d74-45db-85f5-2ca24098f0ce","system_id":"levelo_inurba_marseille","lat":43.24997,"lon":5.38931,"is_reserved":false,"is_disabled":false,"rental_uris":{"android":"levelo://app?vid=434327ea-7d74-45db-85f5-2ca24098f0ce","ios":"levelo://app?vid=434327ea-7d74-45db-85f5-2ca24098f0ce"},"vehicle_type_id":"4","last_reported":1732705697,"current_range_meters":32400,"station_id":"ce4bhgp2rcd13ifvqfd0","pricing_plan_id":"cebpf4jnsgd1na2vs0mg"},{"bike_id":"820497e3-7943-4778-b0ef-51ed90221c19","system_id":"levelo_inurba_marseille","lat":43.29682,"lon":5.37304,"is_reserved":false,"is_disabled":false,"rental_uris":{"android":"levelo://app?vid=820497e3-7943-4778-b0ef-51ed90221c19","ios":"levelo://app?vid=820497e3-7943-4778-b0ef-51ed90221c19"},"vehicle_type_id":"4","last_reported":1732705697,"current_range_meters":38400,"station_id":"ce4bgk12rcd13ifvqbj0","pricing_plan_id":"cebpf4jnsgd1na2vs0mg"},{"bike_id":"9e001124-a5af-4971-88ef-0ce675620918","system_id":"levelo_inurba_marseille","lat":43.27967,"lon":5.38711,"is_reserved":false,"is_disabled":true,"rental_uris":{"android":"levelo://app?vid=9e001124-a5af-4971-88ef-0ce675620918","ios":"levelo://app?vid=9e001124-a5af-4971-88ef-0ce675620918"},"vehicle_type_id":"4","last_reported":1732705697,"current_range_meters":0,"station_id":"ce4bhg12rcd13ifvqf80","pricing_plan_id":"cebpf4jnsgd1na2vs0mg"},{"bike_id":"ddfc40d7-f1dc-4fba-ad92-f1cb84dbec8b","system_id":"levelo_inurba_marseille","lat":43.27059,"lon":5.40257,"is_reserved":false,"is_disabled":false,"rental_uris":{"android":"levelo://app?vid=ddfc40d7-f1dc-4fba-ad92-f1cb84dbec8b","ios":"levelo://app?vid=ddfc40d7-f1dc-4fba-ad92-f1cb84dbec8b"},"vehicle_type_id":"4","last_reported":1732705697,"current_range_meters":23200,"station_id":"ce4bhk92rcd13ifvqgc0","pricing_plan_id":"cebpf4jnsgd1na2vs0mg"},{"bike_id":"9957db75-618f-4fa8-9bb6-4dbc799dce9a","system_id":"levelo_inurba_marseille","lat":43.2953,"lon":5.3751,"is_reserved":false,"is_disabled":false,"rental_uris":{"android":"levelo://app?vid=9957db75-618f-4fa8-9bb6-4dbc799dce9a","ios":"levelo://app?vid=9957db75-618f-4fa8-9bb6-4dbc799dce9a"},"vehicle_type_id":"4","last_reported":1732705697,"current_range_meters":10800,"station_id":"ce4bgkp2rcd13ifvqbmg","pricing_plan_id":"cebpf4jnsgd1na2vs0mg"},{"bike_id":"562a76b4-6ab9-4ff0-9faf-2020d86f5e9a","system_id":"levelo_inurba_marseille","lat":43.24167,"lon":5.39727,"is_reserved":false,"is_disabled":true,"rental_uris":{"android":"levelo://app?vid=562a76b4-6ab9-4ff0-9faf-2020d86f5e9a","ios":"levelo://app?vid=562a76b4-6ab9-4ff0-9faf-2020d86f5e9a"},"vehicle_type_id":"4","last_reported":1732705697,"current_range_meters":0,"station_id":"ce4bhn12rcd13ifvqgpg","pricing_plan_id":"cebpf4jnsgd1na2vs0mg"},{"bike_id":"abcc3c82-6c01-4f46-ad93-c1d25b42613e","system_id":"levelo_inurba_marseille","lat":43.32475,"lon":5.3655,"is_reserved":false,"is_disabled":false,"rental_uris":{"android":"levelo://app?vid=abcc3c82-6c01-4f46-ad93-c1d25b42613e","ios":"levelo://app?vid=abcc3c82-6c01-4f46-ad93-c1d25b42613e"},"vehicle_type_id":"4","last_reported":1732705697,"current_range_meters":15200,"station_id":"ce4bhs12rcd13ifvqhvg","pricing_plan_id":"cebpf4jnsgd1na2vs0mg"},{"bike_id":"0b6fd622-0a97-4fbe-a987-f23968795d13","system_id":"levelo_inurba_marseille","lat":43.3006,"lon":5.37055,"is_reserved":false,"is_disabled":false,"rental_uris":{"android":"levelo://app?vid=0b6fd622-0a97-4fbe-a987-f23968795d13","ios":"levelo://app?vid=0b6fd622-0a97-4fbe-a987-f23968795d13"},"vehicle_type_id":"4","last_reported":1732705697,"current_range_meters":16800,"station_id":"ce4bgr92rcd13ifvqc7g","pricing_plan_id":"cebpf4jnsgd1na2vs0mg"},{"bike_id":"bdd51559-1c46-46e3-81da-d8886117bb3d","system_id":"levelo_inurba_marseille","lat":43.25936,"lon":5.40903,"is_reserved":false,"is_disabled":true,"rental_uris":{"android":"levelo://app?vid=bdd51559-1c46-46e3-81da-d8886117bb3d","ios":"levelo://app?vid=bdd51559-1c46-46e3-81da-d8886117bb3d"},"vehicle_type_id":"4","last_reported":1732705697,"current_range_meters":32000,"station_id":"ce4bhm92rcd13ifvqglg","pricing_plan_id":"cebpf4jnsgd1na2vs0mg"},{"bike_id":"e8c3745d-4b9e-400a-bc7a-0764243f0800","system_id":"levelo_inurba_marseille","lat":43.26557,"lon":5.37281,"is_reserved":false,"is_disabled":true,"rental_uris":{"android":"levelo://app?vid=e8c3745d-4b9e-400a-bc7a-0764243f0800","ios":"levelo://app?vid=e8c3745d-4b9e-400a-bc7a-0764243f0800"},"vehicle_type_id":"4","last_reported":1732705697,"current_range_meters":0,"station_id":"ce4bhg12rcd13ifvqf70","pricing_plan_id":"cebpf4jnsgd1na2vs0mg"},{"bike_id":"68f0f38c-0696-47ca-af9f-31a74c497ce9","system_id":"levelo_inurba_marseille","lat":43.30545,"lon":5.36547,"is_reserved":false,"is_disabled":false,"rental_uris":{"android":"levelo://app?vid=68f0f38c-0696-47ca-af9f-31a74c497ce9","ios":"levelo://app?vid=68f0f38c-0696-47ca-af9f-31a74c497ce9"},"vehicle_type_id":"4","last_reported":1732705697,"current_range_meters":8800,"station_id":"ce4bgs12rcd13ifvqcag","pricing_plan_id":"cebpf4jnsgd1na2vs0mg"},{"bike_id":"9e944db9-d48e-4848-b5fa-4af701aee80b","system_id":"levelo_inurba_marseille","lat":43.337444,"lon":5.374475,"is_reserved":false,"is_disabled":true,"rental_uris":{"android":"levelo://app?vid=9e944db9-d48e-4848-b5fa-4af701aee80b","ios":"levelo://app?vid=9e944db9-d48e-4848-b5fa-4af701aee80b"},"vehicle_type_id":"4","last_reported":1732705697,"current_range_meters":0,"station_id":"","pricing_plan_id":"cebpf4jnsgd1na2vs0mg"},{"bike_id":"1c904766-d668-43ef-b46c-8a8c67c87660","system_id":"levelo_inurba_marseille","lat":43.23194,"lon":5.35556,"is_reserved":false,"is_disabled":false,"rental_uris":{"android":"levelo://app?vid=1c904766-d668-43ef-b46c-8a8c67c87660","ios":"levelo://app?vid=1c904766-d668-43ef-b46c-8a8c67c87660"},"vehicle_type_id":"4","last_reported":1732705697,"current_range_meters":38800,"station_id":"ce4bhu92rcd13ifvqi70","pricing_plan_id":"cebpf4jnsgd1na2vs0mg"},{"bike_id":"e532cef9-f62c-4172-b640-6cc754af59ea","system_id":"levelo_inurba_marseille","lat":43.28,"lon":5.40018,"is_reserved":false,"is_disabled":false,"rental_uris":{"android":"levelo://app?vid=e532cef9-f62c-4172-b640-6cc754af59ea","ios":"levelo://app?vid=e532cef9-f62c-4172-b640-6cc754af59ea"},"vehicle_type_id":"4","last_reported":1732705697,"current_range_meters":36400,"station_id":"ce4bho92rcd13ifvqh4g","pricing_plan_id":"cebpf4jnsgd1na2vs0mg"},{"bike_id":"65f556a5-f748-4cb7-854e-d6aa943dbf1e","system_id":"levelo_inurba_marseille","lat":43.24166,"lon":5.39729,"is_reserved":false,"is_disabled":false,"rental_uris":{"android":"levelo://app?vid=65f556a5-f748-4cb7-854e-d6aa943dbf1e","ios":"levelo://app?vid=65f556a5-f748-4cb7-854e-d6aa943dbf1e"},"vehicle_type_id":"4","last_reported":1732705697,"current_range_meters":27200,"station_id":"ce4bhn12rcd13ifvqgpg","pricing_plan_id":"cebpf4jnsgd1na2vs0mg"},{"bike_id":"6b9f8c2d-dccb-4d2f-b9d5-af00f8f81d6b","system_id":"levelo_inurba_marseille","lat":43.24185,"lon":5.39732,"is_reserved":false,"is_disabled":false,"rental_uris":{"android":"levelo://app?vid=6b9f8c2d-dccb-4d2f-b9d5-af00f8f81d6b","ios":"levelo://app?vid=6b9f8c2d-dccb-4d2f-b9d5-af00f8f81d6b"},"vehicle_type_id":"4","last_reported":1732705697,"current_range_meters":33200,"station_id":"ce4bhn12rcd13ifvqgpg","pricing_plan_id":"cebpf4jnsgd1na2vs0mg"},{"bike_id":"8adb64fd-678a-4fae-9151-e67de55498ee","system_id":"levelo_inurba_marseille","lat":43.30159,"lon":5.38073,"is_reserved":false,"is_disabled":false,"rental_uris":{"android":"levelo://app?vid=8adb64fd-678a-4fae-9151-e67de55498ee","ios":"levelo://app?vid=8adb64fd-678a-4fae-9151-e67de55498ee"},"vehicle_type_id":"4","last_reported":1732705697,"current_range_meters":26800,"station_id":"ce4bgjp2rcd13ifvqbh0","pricing_plan_id":"cebpf4jnsgd1na2vs0mg"},{"bike_id":"d508c87b-d628-4480-9f47-745f24ebe6f4","system_id":"levelo_inurba_marseille","lat":43.27069,"lon":5.42273,"is_reserved":false,"is_disabled":false,"rental_uris":{"android":"levelo://app?vid=d508c87b-d628-4480-9f47-745f24ebe6f4","ios":"levelo://app?vid=d508c87b-d628-4480-9f47-745f24ebe6f4"},"vehicle_type_id":"4","last_reported":1732705697,"current_range_meters":36800,"station_id":"ce4bhk92rcd13ifvqgb0","pricing_plan_id":"cebpf4jnsgd1na2vs0mg"},{"bike_id":"789e6326-7087-4b97-bf04-8cb6b3c03ceb","system_id":"levelo_inurba_marseille","lat":43.22933,"lon":5.35374,"is_reserved":false,"is_disabled":false,"rental_uris":{"android":"levelo://app?vid=789e6326-7087-4b97-bf04-8cb6b3c03ceb","ios":"levelo://app?vid=789e6326-7087-4b97-bf04-8cb6b3c03ceb"},"vehicle_type_id":"4","last_reported":1732705697,"current_range_meters":36800,"station_id":"cpo3532slgdg3j2ikp40","pricing_plan_id":"cebpf4jnsgd1na2vs0mg"},{"bike_id":"7d19b05c-20a9-48bf-8ce7-a6557ac3e756","system_id":"levelo_inurba_marseille","lat":43.31332,"lon":5.3969,"is_reserved":false,"is_disabled":true,"rental_uris":{"android":"levelo://app?vid=7d19b05c-20a9-48bf-8ce7-a6557ac3e756","ios":"levelo://app?vid=7d19b05c-20a9-48bf-8ce7-a6557ac3e756"},"vehicle_type_id":"4","last_reported":1732705697,"current_range_meters":23200,"station_id":"ce4bgvp2rcd13ifvqcu0","pricing_plan_id":"cebpf4jnsgd1na2vs0mg"},{"bike_id":"75ad0475-f7b0-49ce-b9f3-aecc12dd80e9","system_id":"levelo_inurba_marseille","lat":43.31322,"lon":5.39698,"is_reserved":false,"is_disabled":false,"rental_uris":{"android":"levelo://app?vid=75ad0475-f7b0-49ce-b9f3-aecc12dd80e9","ios":"levelo://app?vid=75ad0475-f7b0-49ce-b9f3-aecc12dd80e9"},"vehicle_type_id":"4","last_reported":1732705697,"current_range_meters":34800,"station_id":"ce4bgvp2rcd13ifvqcu0","pricing_plan_id":"cebpf4jnsgd1na2vs0mg"},{"bike_id":"f70a42c2-81c2-4c1a-9db7-a24ce0d50628","system_id":"levelo_inurba_marseille","lat":43.25105,"lon":5.40327,"is_reserved":false,"is_disabled":false,"rental_uris":{"android":"levelo://app?vid=f70a42c2-81c2-4c1a-9db7-a24ce0d50628","ios":"levelo://app?vid=f70a42c2-81c2-4c1a-9db7-a24ce0d50628"},"vehicle_type_id":"4","last_reported":1732705697,"current_range_meters":12800,"station_id":"ce4bhlh2rcd13ifvqgig","pricing_plan_id":"cebpf4jnsgd1na2vs0mg"},{"bike_id":"e90518ef-5cf2-4e67-9525-b8f5e2b9c3a2","system_id":"levelo_inurba_marseille","lat":43.27375,"lon":5.36254,"is_reserved":false,"is_disabled":true,"rental_uris":{"android":"levelo://app?vid=e90518ef-5cf2-4e67-9525-b8f5e2b9c3a2","ios":"levelo://app?vid=e90518ef-5cf2-4e67-9525-b8f5e2b9c3a2"},"vehicle_type_id":"4","last_reported":1732705697,"current_range_meters":1200,"station_id":"ce4bhbh2rcd13ifvqeo0","pricing_plan_id":"cebpf4jnsgd1na2vs0mg"},{"bike_id":"dcf1f276-d5bd-438d-8581-477ea0668208","system_id":"levelo_inurba_marseille","lat":43.29911,"lon":5.38123,"is_reserved":false,"is_disabled":true,"rental_uris":{"android":"levelo://app?vid=dcf1f276-d5bd-438d-8581-477ea0668208","ios":"levelo://app?vid=dcf1f276-d5bd-438d-8581-477ea0668208"},"vehicle_type_id":"4","last_reported":1732705697,"current_range_meters":38800,"station_id":"ce4bgj12rcd13ifvqbc0","pricing_plan_id":"cebpf4jnsgd1na2vs0mg"},{"bike_id":"cbfb860d-5baf-4ea0-be2c-529708ed3a75","system_id":"levelo_inurba_marseille","lat":43.30152,"lon":5.3808,"is_reserved":false,"is_disabled":false,"rental_uris":{"android":"levelo://app?vid=cbfb860d-5baf-4ea0-be2c-529708ed3a75","ios":"levelo://app?vid=cbfb860d-5baf-4ea0-be2c-529708ed3a75"},"vehicle_type_id":"4","last_reported":1732705697,"current_range_meters":32000,"station_id":"ce4bgjp2rcd13ifvqbh0","pricing_plan_id":"cebpf4jnsgd1na2vs0mg"},{"bike_id":"ebfa704b-0207-4e24-b597-7cf34f3ed26c","system_id":"levelo_inurba_marseille","lat":43.29682,"lon":5.37286,"is_reserved":false,"is_disabled":false,"rental_uris":{"android":"levelo://app?vid=ebfa704b-0207-4e24-b597-7cf34f3ed26c","ios":"levelo://app?vid=ebfa704b-0207-4e24-b597-7cf34f3ed26c"},"vehicle_type_id":"4","last_reported":1732705697,"current_range_meters":22000,"station_id":"ce4bgk12rcd13ifvqbj0","pricing_plan_id":"cebpf4jnsgd1na2vs0mg"},{"bike_id":"0784baa3-e4bd-406e-a574-8ff5f5f20684","system_id":"levelo_inurba_marseille","lat":43.27177,"lon":5.40989,"is_reserved":false,"is_disabled":false,"rental_uris":{"android":"levelo://app?vid=0784baa3-e4bd-406e-a574-8ff5f5f20684","ios":"levelo://app?vid=0784baa3-e4bd-406e-a574-8ff5f5f20684"},"vehicle_type_id":"4","last_reported":1732705697,"current_range_meters":32400,"station_id":"ce4bhl12rcd13ifvqgf0","pricing_plan_id":"cebpf4jnsgd1na2vs0mg"},{"bike_id":"e03877c2-c2c0-499d-837f-f63464b39f16","system_id":"levelo_inurba_marseille","lat":43.293182,"lon":5.404614,"is_reserved":false,"is_disabled":true,"rental_uris":{"android":"levelo://app?vid=e03877c2-c2c0-499d-837f-f63464b39f16","ios":"levelo://app?vid=e03877c2-c2c0-499d-837f-f63464b39f16"},"vehicle_type_id":"4","last_reported":1732705697,"current_range_meters":31200,"station_id":"","pricing_plan_id":"cebpf4jnsgd1na2vs0mg"},{"bike_id":"219448f6-ca6a-4ed3-b66c-53ecc22efae1","system_id":"levelo_inurba_marseille","lat":43.30137,"lon":5.3986,"is_reserved":false,"is_disabled":false,"rental_uris":{"android":"levelo://app?vid=219448f6-ca6a-4ed3-b66c-53ecc22efae1","ios":"levelo://app?vid=219448f6-ca6a-4ed3-b66c-53ecc22efae1"},"vehicle_type_id":"4","last_reported":1732705697,"current_range_meters":27200,"station_id":"ce4bh0h2rcd13ifvqd40","pricing_plan_id":"cebpf4jnsgd1na2vs0mg"},{"bike_id":"a5fa6461-445b-49d6-bac6-a57c72c77d47","system_id":"levelo_inurba_marseille","lat":43.24999,"lon":5.38927,"is_reserved":false,"is_disabled":false,"rental_uris":{"android":"levelo://app?vid=a5fa6461-445b-49d6-bac6-a57c72c77d47","ios":"levelo://app?vid=a5fa6461-445b-49d6-bac6-a57c72c77d47"},"vehicle_type_id":"4","last_reported":1732705697,"current_range_meters":12400,"station_id":"ce4bhgp2rcd13ifvqfd0","pricing_plan_id":"cebpf4jnsgd1na2vs0mg"},{"bike_id":"079a56ea-a5c6-4f34-9ffb-df41cc003648","system_id":"levelo_inurba_marseille","lat":43.26918,"lon":5.40258,"is_reserved":false,"is_disabled":false,"rental_uris":{"android":"levelo://app?vid=079a56ea-a5c6-4f34-9ffb-df41cc003648","ios":"levelo://app?vid=079a56ea-a5c6-4f34-9ffb-df41cc003648"},"vehicle_type_id":"4","last_reported":1732705697,"current_range_meters":21600,"station_id":"cjm6bp8fraef2m0cb0m0","pricing_plan_id":"cebpf4jnsgd1na2vs0mg"},{"bike_id":"a7cbc1dc-f0f8-4875-bbb5-195f6fbe1dd8","system_id":"levelo_inurba_marseille","lat":43.33762,"lon":5.37438,"is_reserved":false,"is_disabled":false,"rental_uris":{"android":"levelo://app?vid=a7cbc1dc-f0f8-4875-bbb5-195f6fbe1dd8","ios":"levelo://app?vid=a7cbc1dc-f0f8-4875-bbb5-195f6fbe1dd8"},"vehicle_type_id":"4","last_reported":1732705697,"current_range_meters":34800,"station_id":"","pricing_plan_id":"cebpf4jnsgd1na2vs0mg"},{"bike_id":"37823fb4-c1d6-48d9-aa52-e40e570ad233","system_id":"levelo_inurba_marseille","lat":43.29298,"lon":5.37184,"is_reserved":false,"is_disabled":false,"rental_uris":{"android":"levelo://app?vid=37823fb4-c1d6-48d9-aa52-e40e570ad233","ios":"levelo://app?vid=37823fb4-c1d6-48d9-aa52-e40e570ad233"},"vehicle_type_id":"4","last_reported":1732705697,"current_range_meters":36000,"station_id":"ce4bgh92rcd13ifvqb40","pricing_plan_id":"cebpf4jnsgd1na2vs0mg"},{"bike_id":"6f1f8dda-57ee-4778-a172-f1293520ef6e","system_id":"levelo_inurba_marseille","lat":43.322905,"lon":5.382739,"is_reserved":false,"is_disabled":false,"rental_uris":{"android":"levelo://app?vid=6f1f8dda-57ee-4778-a172-f1293520ef6e","ios":"levelo://app?vid=6f1f8dda-57ee-4778-a172-f1293520ef6e"},"vehicle_type_id":"4","last_reported":1732705697,"current_range_meters":38800,"station_id":"ce4bhr12rcd13ifvqhqg","pricing_plan_id":"cebpf4jnsgd1na2vs0mg"},{"bike_id":"1d7b29f5-36ca-4b60-b201-8dea87404f09","system_id":"levelo_inurba_marseille","lat":43.27814,"lon":5.40711,"is_reserved":false,"is_disabled":false,"rental_uris":{"android":"levelo://app?vid=1d7b29f5-36ca-4b60-b201-8dea87404f09","ios":"levelo://app?vid=1d7b29f5-36ca-4b60-b201-8dea87404f09"},"vehicle_type_id":"4","last_reported":1732705697,"current_range_meters":38800,"station_id":"ce4bhnh2rcd13ifvqgtg","pricing_plan_id":"cebpf4jnsgd1na2vs0mg"},{"bike_id":"3caaf744-1626-406c-af3b-62fe74415830","system_id":"levelo_inurba_marseille","lat":43.31351,"lon":5.3673,"is_reserved":false,"is_disabled":false,"rental_uris":{"android":"levelo://app?vid=3caaf744-1626-406c-af3b-62fe74415830","ios":"levelo://app?vid=3caaf744-1626-406c-af3b-62fe74415830"},"vehicle_type_id":"4","last_reported":1732705697,"current_range_meters":8800,"station_id":"ce4bgr92rcd13ifvqc6g","pricing_plan_id":"cebpf4jnsgd1na2vs0mg"},{"bike_id":"0c82d68e-7c93-4d2e-aff2-b990061d770e","system_id":"levelo_inurba_marseille","lat":43.32479,"lon":5.3654,"is_reserved":false,"is_disabled":false,"rental_uris":{"android":"levelo://app?vid=0c82d68e-7c93-4d2e-aff2-b990061d770e","ios":"levelo://app?vid=0c82d68e-7c93-4d2e-aff2-b990061d770e"},"vehicle_type_id":"4","last_reported":1732705697,"current_range_meters":38000,"station_id":"ce4bhs12rcd13ifvqhvg","pricing_plan_id":"cebpf4jnsgd1na2vs0mg"},{"bike_id":"391bcdca-15c1-4266-b618-df5d738bf3ca","system_id":"levelo_inurba_marseille","lat":43.28728,"lon":5.36094,"is_reserved":false,"is_disabled":false,"rental_uris":{"android":"levelo://app?vid=391bcdca-15c1-4266-b618-df5d738bf3ca","ios":"levelo://app?vid=391bcdca-15c1-4266-b618-df5d738bf3ca"},"vehicle_type_id":"4","last_reported":1732705697,"current_range_meters":38000,"station_id":"cki0cbj6b192h4jlfktg","pricing_plan_id":"cebpf4jnsgd1na2vs0mg"},{"bike_id":"e7084dc3-7f68-4c1b-abb0-1b8ecceefd7c","system_id":"levelo_inurba_marseille","lat":43.27175,"lon":5.40991,"is_reserved":false,"is_disabled":false,"rental_uris":{"android":"levelo://app?vid=e7084dc3-7f68-4c1b-abb0-1b8ecceefd7c","ios":"levelo://app?vid=e7084dc3-7f68-4c1b-abb0-1b8ecceefd7c"},"vehicle_type_id":"4","last_reported":1732705697,"current_range_meters":39200,"station_id":"ce4bhl12rcd13ifvqgf0","pricing_plan_id":"cebpf4jnsgd1na2vs0mg"},{"bike_id":"25a8b65d-9267-48fc-8b96-38676bce3299","system_id":"levelo_inurba_marseille","lat":43.2799,"lon":5.41665,"is_reserved":false,"is_disabled":false,"rental_uris":{"android":"levelo://app?vid=25a8b65d-9267-48fc-8b96-38676bce3299","ios":"levelo://app?vid=25a8b65d-9267-48fc-8b96-38676bce3299"},"vehicle_type_id":"4","last_reported":1732705697,"current_range_meters":22800,"station_id":"ce4bho12rcd13ifvqh1g","pricing_plan_id":"cebpf4jnsgd1na2vs0mg"},{"bike_id":"eddf8a75-39aa-405a-8cfe-1db5fd0c581f","system_id":"levelo_inurba_marseille","lat":43.29847,"lon":5.36265,"is_reserved":false,"is_disabled":false,"rental_uris":{"android":"levelo://app?vid=eddf8a75-39aa-405a-8cfe-1db5fd0c581f","ios":"levelo://app?vid=eddf8a75-39aa-405a-8cfe-1db5fd0c581f"},"vehicle_type_id":"4","last_reported":1732705697,"current_range_meters":23200,"station_id":"ce4bgpp2rcd13ifvqc3g","pricing_plan_id":"cebpf4jnsgd1na2vs0mg"},{"bike_id":"19d15acd-2011-4f27-b78c-ab43bf81225a","system_id":"levelo_inurba_marseille","lat":43.26557,"lon":5.37283,"is_reserved":false,"is_disabled":true,"rental_uris":{"android":"levelo://app?vid=19d15acd-2011-4f27-b78c-ab43bf81225a","ios":"levelo://app?vid=19d15acd-2011-4f27-b78c-ab43bf81225a"},"vehicle_type_id":"4","last_reported":1732705697,"current_range_meters":0,"station_id":"ce4bhg12rcd13ifvqf70","pricing_plan_id":"cebpf4jnsgd1na2vs0mg"},{"bike_id":"ff48d038-d7f5-43f0-a6fa-243d7a2691d9","system_id":"levelo_inurba_marseille","lat":43.24994,"lon":5.38941,"is_reserved":false,"is_disabled":false,"rental_uris":{"android":"levelo://app?vid=ff48d038-d7f5-43f0-a6fa-243d7a2691d9","ios":"levelo://app?vid=ff48d038-d7f5-43f0-a6fa-243d7a2691d9"},