{"last_updated":1740136086,"ttl":60,"version":"2.2","data":{"bikes":[{"bike_id":"d938e1f0-039d-4b80-b796-5608ebf5fac9","system_id":"levelo_inurba_marseille","lat":43.28946,"lon":5.39636,"is_reserved":false,"is_disabled":true,"rental_uris":{"android":"levelo://app?vid=d938e1f0-039d-4b80-b796-5608ebf5fac9","ios":"levelo://app?vid=d938e1f0-039d-4b80-b796-5608ebf5fac9"},"vehicle_type_id":"4","last_reported":1740136086,"current_range_meters":2800,"station_id":"","pricing_plan_id":"cebpf4jnsgd1na2vs0mg"},{"bike_id":"ddd9832d-a832-43f1-aead-b1afe4bb10df","system_id":"levelo_inurba_marseille","lat":43.29272,"lon":5.36847,"is_reserved":false,"is_disabled":false,"rental_uris":{"android":"levelo://app?vid=ddd9832d-a832-43f1-aead-b1afe4bb10df","ios":"levelo://app?vid=ddd9832d-a832-43f1-aead-b1afe4bb10df"},"vehicle_type_id":"4","last_reported":1740136086,"current_range_meters":3200,"station_id":"ce4bhbp2rcd13ifvqesg","pricing_plan_id":"cebpf4jnsgd1na2vs0mg"},{"bike_id":"6dfdcef1-8a90-4cce-82db-5e9ba94c06ec","system_id":"levelo_inurba_marseille","lat":43.27056,"lon":5.40259,"is_reserved":false,"is_disabled":false,"rental_uris":{"android":"levelo://app?vid=6dfdcef1-8a90-4cce-82db-5e9ba94c06ec","ios":"levelo://app?vid=6dfdcef1-8a90-4cce-82db-5e9ba94c06ec"},"vehicle_type_id":"4","last_reported":1740136086,"current_range_meters":3200,"station_id":"ce4bhk92rcd13ifvqgc0","pricing_plan_id":"cebpf4jnsgd1na2vs0mg"},{"bike_id":"2a6c5be6-b83f-4b03-8d5a-afb46f513bf3","system_id":"levelo_inurba_marseille","lat":43.22928,"lon":5.35388,"is_reserved":false,"is_disabled":false,"rental_uris":{"android":"levelo://app?vid=2a6c5be6-b83f-4b03-8d5a-afb46f513bf3","ios":"levelo://app?vid=2a6c5be6-b83f-4b03-8d5a-afb46f513bf3"},"vehicle_type_id":"4","last_reported":1740136086,"current_range_meters":3200,"station_id":"cpo3532slgdg3j2ikp40","pricing_plan_id":"cebpf4jnsgd1na2vs0mg"},{"bike_id":"1a2698f5-b21e-4a2c-813c-9a485beaa55e","system_id":"levelo_inurba_marseille","lat":43.31178,"lon":5.3935,"is_reserved":false,"is_disabled":false,"rental_uris":{"android":"levelo://app?vid=1a2698f5-b21e-4a2c-813c-9a485beaa55e","ios":"levelo://app?vid=1a2698f5-b21e-4a2c-813c-9a485beaa55e"},"vehicle_type_id":"4","last_reported":1740136086,"current_range_meters":3200,"station_id":"ce4bgqh2rcd13ifvqc4g","pricing_plan_id":"cebpf4jnsgd1na2vs0mg"},{"bike_id":"12b3e4eb-4c37-461e-a50a-913ddaf5edb8","system_id":"levelo_inurba_marseille","lat":43.2761,"lon":5.36109,"is_reserved":false,"is_disabled":false,"rental_uris":{"android":"levelo://app?vid=12b3e4eb-4c37-461e-a50a-913ddaf5edb8","ios":"levelo://app?vid=12b3e4eb-4c37-461e-a50a-913ddaf5edb8"},"vehicle_type_id":"4","last_reported":1740136086,"current_range_meters":3200,"station_id":"ce4bgj92rcd13ifvqbe0","pricing_plan_id":"cebpf4jnsgd1na2vs0mg"},{"bike_id":"db041e8d-4c01-4fa9-80d2-564af19c0ebc","system_id":"levelo_inurba_marseille","lat":43.26212,"lon":5.37445,"is_reserved":false,"is_disabled":false,"rental_uris":{"android":"levelo://app?vid=db041e8d-4c01-4fa9-80d2-564af19c0ebc","ios":"levelo://app?vid=db041e8d-4c01-4fa9-80d2-564af19c0ebc"},"vehicle_type_id":"4","last_reported":1740136086,"current_range_meters":4000,"station_id":"ce4bhgp2rcd13ifvqfc0","pricing_plan_id":"cebpf4jnsgd1na2vs0mg"},{"bike_id":"35812829-c2bd-4459-9a67-f156a996b21c","system_id":"levelo_inurba_marseille","lat":43.26684,"lon":5.38265,"is_reserved":false,"is_disabled":false,"rental_uris":{"android":"levelo://app?vid=35812829-c2bd-4459-9a67-f156a996b21c","ios":"levelo://app?vid=35812829-c2bd-4459-9a67-f156a996b21c"},"vehicle_type_id":"4","last_reported":1740136086,"current_range_meters":4000,"station_id":"ce4bhg92rcd13ifvqf90","pricing_plan_id":"cebpf4jnsgd1na2vs0mg"},{"bike_id":"9f8a35eb-f494-46e4-97f9-f4a515a11b66","system_id":"levelo_inurba_marseille","lat":43.2841,"lon":5.34986,"is_reserved":false,"is_disabled":true,"rental_uris":{"android":"levelo://app?vid=9f8a35eb-f494-46e4-97f9-f4a515a11b66","ios":"levelo://app?vid=9f8a35eb-f494-46e4-97f9-f4a515a11b66"},"vehicle_type_id":"4","last_reported":1740136086,"current_range_meters":4400,"station_id":"","pricing_plan_id":"cebpf4jnsgd1na2vs0mg"},{"bike_id":"a9de0a12-1fb2-4331-b0b7-83cf6987555f","system_id":"levelo_inurba_marseille","lat":43.28407,"lon":5.37522,"is_reserved":false,"is_disabled":false,"rental_uris":{"android":"levelo://app?vid=a9de0a12-1fb2-4331-b0b7-83cf6987555f","ios":"levelo://app?vid=a9de0a12-1fb2-4331-b0b7-83cf6987555f"},"vehicle_type_id":"4","last_reported":1740136086,"current_range_meters":4800,"station_id":"ce4bh412rcd13ifvqds0","pricing_plan_id":"cebpf4jnsgd1na2vs0mg"},{"bike_id":"1ec919ae-2b25-4afb-8056-850644e69f35","system_id":"levelo_inurba_marseille","lat":43.2936,"lon":5.37973,"is_reserved":false,"is_disabled":false,"rental_uris":{"android":"levelo://app?vid=1ec919ae-2b25-4afb-8056-850644e69f35","ios":"levelo://app?vid=1ec919ae-2b25-4afb-8056-850644e69f35"},"vehicle_type_id":"4","last_reported":1740136086,"current_range_meters":4800,"station_id":"","pricing_plan_id":"cebpf4jnsgd1na2vs0mg"},{"bike_id":"2750091f-cd30-4698-bfd5-fe878960fb52","system_id":"levelo_inurba_marseille","lat":43.30317,"lon":5.36682,"is_reserved":false,"is_disabled":false,"rental_uris":{"android":"levelo://app?vid=2750091f-cd30-4698-bfd5-fe878960fb52","ios":"levelo://app?vid=2750091f-cd30-4698-bfd5-fe878960fb52"},"vehicle_type_id":"4","last_reported":1740136086,"current_range_meters":4800,"station_id":"","pricing_plan_id":"cebpf4jnsgd1na2vs0mg"},{"bike_id":"7ed3595e-8755-4a70-8d64-c1b14dd80b02","system_id":"levelo_inurba_marseille","lat":43.28411,"lon":5.34983,"is_reserved":false,"is_disabled":false,"rental_uris":{"android":"levelo://app?vid=7ed3595e-8755-4a70-8d64-c1b14dd80b02","ios":"levelo://app?vid=7ed3595e-8755-4a70-8d64-c1b14dd80b02"},"vehicle_type_id":"4","last_reported":1740136086,"current_range_meters":5600,"station_id":"ce4bhbh2rcd13ifvqepg","pricing_plan_id":"cebpf4jnsgd1na2vs0mg"},{"bike_id":"b17a8686-6cd7-46ab-a8e5-3014be3b0765","system_id":"levelo_inurba_marseille","lat":43.23062,"lon":5.35502,"is_reserved":false,"is_disabled":false,"rental_uris":{"android":"levelo://app?vid=b17a8686-6cd7-46ab-a8e5-3014be3b0765","ios":"levelo://app?vid=b17a8686-6cd7-46ab-a8e5-3014be3b0765"},"vehicle_type_id":"4","last_reported":1740136086,"current_range_meters":5600,"station_id":"cpo3342slgdg3j2ifvpg","pricing_plan_id":"cebpf4jnsgd1na2vs0mg"},{"bike_id":"570ca427-4ebb-4e6e-ac7c-bf43daf98d1b","system_id":"levelo_inurba_marseille","lat":43.25936,"lon":5.40903,"is_reserved":false,"is_disabled":false,"rental_uris":{"android":"levelo://app?vid=570ca427-4ebb-4e6e-ac7c-bf43daf98d1b","ios":"levelo://app?vid=570ca427-4ebb-4e6e-ac7c-bf43daf98d1b"},"vehicle_type_id":"4","last_reported":1740136086,"current_range_meters":6000,"station_id":"ce4bhm92rcd13ifvqglg","pricing_plan_id":"cebpf4jnsgd1na2vs0mg"},{"bike_id":"2d641f25-305f-4315-b1e4-661f31cff5a2","system_id":"levelo_inurba_marseille","lat":43.24091,"lon":5.38682,"is_reserved":false,"is_disabled":false,"rental_uris":{"android":"levelo://app?vid=2d641f25-305f-4315-b1e4-661f31cff5a2","ios":"levelo://app?vid=2d641f25-305f-4315-b1e4-661f31cff5a2"},"vehicle_type_id":"4","last_reported":1740136086,"current_range_meters":6000,"station_id":"","pricing_plan_id":"cebpf4jnsgd1na2vs0mg"},{"bike_id":"98f3d8df-34da-45df-b4e5-0b4748e700e4","system_id":"levelo_inurba_marseille","lat":43.26214,"lon":5.37438,"is_reserved":false,"is_disabled":false,"rental_uris":{"android":"levelo://app?vid=98f3d8df-34da-45df-b4e5-0b4748e700e4","ios":"levelo://app?vid=98f3d8df-34da-45df-b4e5-0b4748e700e4"},"vehicle_type_id":"4","last_reported":1740136086,"current_range_meters":6000,"station_id":"ce4bhgp2rcd13ifvqfc0","pricing_plan_id":"cebpf4jnsgd1na2vs0mg"},{"bike_id":"0006b5fa-8ad1-430f-9b98-af8c1f3be4c8","system_id":"levelo_inurba_marseille","lat":43.24994,"lon":5.38936,"is_reserved":false,"is_disabled":false,"rental_uris":{"android":"levelo://app?vid=0006b5fa-8ad1-430f-9b98-af8c1f3be4c8","ios":"levelo://app?vid=0006b5fa-8ad1-430f-9b98-af8c1f3be4c8"},"vehicle_type_id":"4","last_reported":1740136086,"current_range_meters":6000,"station_id":"ce4bhgp2rcd13ifvqfd0","pricing_plan_id":"cebpf4jnsgd1na2vs0mg"},{"bike_id":"2f0e63e7-b1df-4612-a21a-2e62e44dabf1","system_id":"levelo_inurba_marseille","lat":43.2481,"lon":5.37456,"is_reserved":false,"is_disabled":false,"rental_uris":{"android":"levelo://app?vid=2f0e63e7-b1df-4612-a21a-2e62e44dabf1","ios":"levelo://app?vid=2f0e63e7-b1df-4612-a21a-2e62e44dabf1"},"vehicle_type_id":"4","last_reported":1740136086,"current_range_meters":6000,"station_id":"ce4bhgh2rcd13ifvqfb0","pricing_plan_id":"cebpf4jnsgd1na2vs0mg"},{"bike_id":"ca726b34-b6ae-47d7-85a7-2d80b8b50572","system_id":"levelo_inurba_marseille","lat":43.23197,"lon":5.35551,"is_reserved":false,"is_disabled":false,"rental_uris":{"android":"levelo://app?vid=ca726b34-b6ae-47d7-85a7-2d80b8b50572","ios":"levelo://app?vid=ca726b34-b6ae-47d7-85a7-2d80b8b50572"},"vehicle_type_id":"4","last_reported":1740136086,"current_range_meters":6000,"station_id":"ce4bhu92rcd13ifvqi70","pricing_plan_id":"cebpf4jnsgd1na2vs0mg"},{"bike_id":"0555ed46-e79c-4f7f-991f-9acdd94e87da","system_id":"levelo_inurba_marseille","lat":43.26805,"lon":5.40268,"is_reserved":false,"is_disabled":false,"rental_uris":{"android":"levelo://app?vid=0555ed46-e79c-4f7f-991f-9acdd94e87da","ios":"levelo://app?vid=0555ed46-e79c-4f7f-991f-9acdd94e87da"},"vehicle_type_id":"4","last_reported":1740136086,"current_range_meters":6400,"station_id":"ce501612rcd8frsf0b60","pricing_plan_id":"cebpf4jnsgd1na2vs0mg"},{"bike_id":"843c8993-eb89-48c0-bc46-978aec656ac8","system_id":"levelo_inurba_marseille","lat":43.27951,"lon":5.40865,"is_reserved":false,"is_disabled":false,"rental_uris":{"android":"levelo://app?vid=843c8993-eb89-48c0-bc46-978aec656ac8","ios":"levelo://app?vid=843c8993-eb89-48c0-bc46-978aec656ac8"},"vehicle_type_id":"4","last_reported":1740136086,"current_range_meters":6400,"station_id":"","pricing_plan_id":"cebpf4jnsgd1na2vs0mg"},{"bike_id":"6590af62-1b49-4a60-8a8e-09ecd0365f42","system_id":"levelo_inurba_marseille","lat":43.26195,"lon":5.37448,"is_reserved":false,"is_disabled":false,"rental_uris":{"android":"levelo://app?vid=6590af62-1b49-4a60-8a8e-09ecd0365f42","ios":"levelo://app?vid=6590af62-1b49-4a60-8a8e-09ecd0365f42"},"vehicle_type_id":"4","last_reported":1740136086,"current_range_meters":6400,"station_id":"ce4bhgp2rcd13ifvqfc0","pricing_plan_id":"cebpf4jnsgd1na2vs0mg"},{"bike_id":"5516853e-78cf-4be2-9f26-f0cbb736d267","system_id":"levelo_inurba_marseille","lat":43.29897,"lon":5.43659,"is_reserved":false,"is_disabled":false,"rental_uris":{"android":"levelo://app?vid=5516853e-78cf-4be2-9f26-f0cbb736d267","ios":"levelo://app?vid=5516853e-78cf-4be2-9f26-f0cbb736d267"},"vehicle_type_id":"4","last_reported":1740136086,"current_range_meters":6400,"station_id":"ce4bhpp2rcd13ifvqhfg","pricing_plan_id":"cebpf4jnsgd1na2vs0mg"},{"bike_id":"8dda7c17-f7b7-4aa8-89fb-0c6c4fc63908","system_id":"levelo_inurba_marseille","lat":43.29932,"lon":5.36544,"is_reserved":false,"is_disabled":false,"rental_uris":{"android":"levelo://app?vid=8dda7c17-f7b7-4aa8-89fb-0c6c4fc63908","ios":"levelo://app?vid=8dda7c17-f7b7-4aa8-89fb-0c6c4fc63908"},"vehicle_type_id":"4","last_reported":1740136086,"current_range_meters":6400,"station_id":"ce4bgm92rcd13ifvqbr0","pricing_plan_id":"cebpf4jnsgd1na2vs0mg"},{"bike_id":"10f14cdd-976f-4036-affd-35be4beb171e","system_id":"levelo_inurba_marseille","lat":43.27056,"lon":5.4026,"is_reserved":false,"is_disabled":false,"rental_uris":{"android":"levelo://app?vid=10f14cdd-976f-4036-affd-35be4beb171e","ios":"levelo://app?vid=10f14cdd-976f-4036-affd-35be4beb171e"},"vehicle_type_id":"4","last_reported":1740136086,"current_range_meters":6800,"station_id":"ce4bhk92rcd13ifvqgc0","pricing_plan_id":"cebpf4jnsgd1na2vs0mg"},{"bike_id":"77ff63e8-b5ae-48d0-8725-3fc2e7c2e786","system_id":"levelo_inurba_marseille","lat":43.32106,"lon":5.36782,"is_reserved":false,"is_disabled":false,"rental_uris":{"android":"levelo://app?vid=77ff63e8-b5ae-48d0-8725-3fc2e7c2e786","ios":"levelo://app?vid=77ff63e8-b5ae-48d0-8725-3fc2e7c2e786"},"vehicle_type_id":"4","last_reported":1740136086,"current_range_meters":6800,"station_id":"ce4bhrh2rcd13ifvqhug","pricing_plan_id":"cebpf4jnsgd1na2vs0mg"},{"bike_id":"dd689e94-f6cc-4e77-a7ee-8ebbcac329c6","system_id":"levelo_inurba_marseille","lat":43.27822,"lon":5.40704,"is_reserved":false,"is_disabled":false,"rental_uris":{"android":"levelo://app?vid=dd689e94-f6cc-4e77-a7ee-8ebbcac329c6","ios":"levelo://app?vid=dd689e94-f6cc-4e77-a7ee-8ebbcac329c6"},"vehicle_type_id":"4","last_reported":1740136086,"current_range_meters":6800,"station_id":"ce4bhnh2rcd13ifvqgtg","pricing_plan_id":"cebpf4jnsgd1na2vs0mg"},{"bike_id":"e07d7381-9639-4623-a587-7fbd840bfc02","system_id":"levelo_inurba_marseille","lat":43.23185,"lon":5.35551,"is_reserved":false,"is_disabled":false,"rental_uris":{"android":"levelo://app?vid=e07d7381-9639-4623-a587-7fbd840bfc02","ios":"levelo://app?vid=e07d7381-9639-4623-a587-7fbd840bfc02"},"vehicle_type_id":"4","last_reported":1740136086,"current_range_meters":7200,"station_id":"","pricing_plan_id":"cebpf4jnsgd1na2vs0mg"},{"bike_id":"a7bccb85-b7ed-4465-b8f2-155b4c233edc","system_id":"levelo_inurba_marseille","lat":43.27903,"lon":5.3802,"is_reserved":false,"is_disabled":false,"rental_uris":{"android":"levelo://app?vid=a7bccb85-b7ed-4465-b8f2-155b4c233edc","ios":"levelo://app?vid=a7bccb85-b7ed-4465-b8f2-155b4c233edc"},"vehicle_type_id":"4","last_reported":1740136086,"current_range_meters":7200,"station_id":"ce4bhf92rcd13ifvqf50","pricing_plan_id":"cebpf4jnsgd1na2vs0mg"},{"bike_id":"9a89ec4f-27cd-463c-b8c9-538174167982","system_id":"levelo_inurba_marseille","lat":43.27987,"lon":5.40027,"is_reserved":false,"is_disabled":false,"rental_uris":{"android":"levelo://app?vid=9a89ec4f-27cd-463c-b8c9-538174167982","ios":"levelo://app?vid=9a89ec4f-27cd-463c-b8c9-538174167982"},"vehicle_type_id":"4","last_reported":1740136086,"current_range_meters":7200,"station_id":"ce4bho92rcd13ifvqh4g","pricing_plan_id":"cebpf4jnsgd1na2vs0mg"},{"bike_id":"7d932747-8fa4-4a65-94af-ec8450f17c5c","system_id":"levelo_inurba_marseille","lat":43.27055,"lon":5.40263,"is_reserved":false,"is_disabled":false,"rental_uris":{"android":"levelo://app?vid=7d932747-8fa4-4a65-94af-ec8450f17c5c","ios":"levelo://app?vid=7d932747-8fa4-4a65-94af-ec8450f17c5c"},"vehicle_type_id":"4","last_reported":1740136086,"current_range_meters":7200,"station_id":"ce4bhk92rcd13ifvqgc0","pricing_plan_id":"cebpf4jnsgd1na2vs0mg"},{"bike_id":"d4ac9080-89f9-4d04-ab03-22b0f0a4e5be","system_id":"levelo_inurba_marseille","lat":43.23187,"lon":5.35535,"is_reserved":false,"is_disabled":false,"rental_uris":{"android":"levelo://app?vid=d4ac9080-89f9-4d04-ab03-22b0f0a4e5be","ios":"levelo://app?vid=d4ac9080-89f9-4d04-ab03-22b0f0a4e5be"},"vehicle_type_id":"4","last_reported":1740136086,"current_range_meters":7200,"station_id":"ce4bhu92rcd13ifvqi70","pricing_plan_id":"cebpf4jnsgd1na2vs0mg"},{"bike_id":"f83b2c94-935b-4f89-91d0-3edbca3de1db","system_id":"levelo_inurba_marseille","lat":43.27049,"lon":5.40268,"is_reserved":false,"is_disabled":false,"rental_uris":{"android":"levelo://app?vid=f83b2c94-935b-4f89-91d0-3edbca3de1db","ios":"levelo://app?vid=f83b2c94-935b-4f89-91d0-3edbca3de1db"},"vehicle_type_id":"4","last_reported":1740136086,"current_range_meters":7200,"station_id":"ce4bhk92rcd13ifvqgc0","pricing_plan_id":"cebpf4jnsgd1na2vs0mg"},{"bike_id":"2cc78811-d06e-4226-9ec7-9c015897109b","system_id":"levelo_inurba_marseille","lat":43.23058,"lon":5.35493,"is_reserved":false,"is_disabled":false,"rental_uris":{"android":"levelo://app?vid=2cc78811-d06e-4226-9ec7-9c015897109b","ios":"levelo://app?vid=2cc78811-d06e-4226-9ec7-9c015897109b"},"vehicle_type_id":"4","last_reported":1740136086,"current_range_meters":8000,"station_id":"cpo3342slgdg3j2ifvpg","pricing_plan_id":"cebpf4jnsgd1na2vs0mg"},{"bike_id":"96a1fcc0-1023-4a4d-be7c-4b21f83028aa","system_id":"levelo_inurba_marseille","lat":43.23198,"lon":5.35552,"is_reserved":false,"is_disabled":false,"rental_uris":{"android":"levelo://app?vid=96a1fcc0-1023-4a4d-be7c-4b21f83028aa","ios":"levelo://app?vid=96a1fcc0-1023-4a4d-be7c-4b21f83028aa"},"vehicle_type_id":"4","last_reported":1740136086,"current_range_meters":8000,"station_id":"ce4bhu92rcd13ifvqi70","pricing_plan_id":"cebpf4jnsgd1na2vs0mg"},{"bike_id":"6bc1cdde-507a-4c37-a1b6-563130b77e32","system_id":"levelo_inurba_marseille","lat":43.30568,"lon":5.38434,"is_reserved":false,"is_disabled":true,"rental_uris":{"android":"levelo://app?vid=6bc1cdde-507a-4c37-a1b6-563130b77e32","ios":"levelo://app?vid=6bc1cdde-507a-4c37-a1b6-563130b77e32"},"vehicle_type_id":"4","last_reported":1740136086,"current_range_meters":8000,"station_id":"ce4bgg92rcd13ifvqb30","pricing_plan_id":"cebpf4jnsgd1na2vs0mg"},{"bike_id":"41e31ff8-8b2b-4285-b54c-e894b56e2865","system_id":"levelo_inurba_marseille","lat":43.26679,"lon":5.38275,"is_reserved":false,"is_disabled":false,"rental_uris":{"android":"levelo://app?vid=41e31ff8-8b2b-4285-b54c-e894b56e2865","ios":"levelo://app?vid=41e31ff8-8b2b-4285-b54c-e894b56e2865"},"vehicle_type_id":"4","last_reported":1740136086,"current_range_meters":8000,"station_id":"ce4bhg92rcd13ifvqf90","pricing_plan_id":"cebpf4jnsgd1na2vs0mg"},{"bike_id":"9f82f25b-35a5-44c6-a875-636378dd41a6","system_id":"levelo_inurba_marseille","lat":43.25822,"lon":5.39435,"is_reserved":false,"is_disabled":false,"rental_uris":{"android":"levelo://app?vid=9f82f25b-35a5-44c6-a875-636378dd41a6","ios":"levelo://app?vid=9f82f25b-35a5-44c6-a875-636378dd41a6"},"vehicle_type_id":"4","last_reported":1740136086,"current_range_meters":8000,"station_id":"ce4bhip2rcd13ifvqft0","pricing_plan_id":"cebpf4jnsgd1na2vs0mg"},{"bike_id":"a4d5a3dd-9ce2-42f5-8bca-cb06544b0b81","system_id":"levelo_inurba_marseille","lat":43.23065,"lon":5.35494,"is_reserved":false,"is_disabled":false,"rental_uris":{"android":"levelo://app?vid=a4d5a3dd-9ce2-42f5-8bca-cb06544b0b81","ios":"levelo://app?vid=a4d5a3dd-9ce2-42f5-8bca-cb06544b0b81"},"vehicle_type_id":"4","last_reported":1740136086,"current_range_meters":8000,"station_id":"cpo3342slgdg3j2ifvpg","pricing_plan_id":"cebpf4jnsgd1na2vs0mg"},{"bike_id":"e501be99-a171-4e91-9e5b-ac547e4c06f2","system_id":"levelo_inurba_marseille","lat":43.23192,"lon":5.35548,"is_reserved":false,"is_disabled":false,"rental_uris":{"android":"levelo://app?vid=e501be99-a171-4e91-9e5b-ac547e4c06f2","ios":"levelo://app?vid=e501be99-a171-4e91-9e5b-ac547e4c06f2"},"vehicle_type_id":"4","last_reported":1740136086,"current_range_meters":8400,"station_id":"ce4bhu92rcd13ifvqi70","pricing_plan_id":"cebpf4jnsgd1na2vs0mg"},{"bike_id":"948ca15e-dd0e-4b24-9dae-3803d237a65d","system_id":"levelo_inurba_marseille","lat":43.23951,"lon":5.36648,"is_reserved":false,"is_disabled":false,"rental_uris":{"android":"levelo://app?vid=948ca15e-dd0e-4b24-9dae-3803d237a65d","ios":"levelo://app?vid=948ca15e-dd0e-4b24-9dae-3803d237a65d"},"vehicle_type_id":"4","last_reported":1740136086,"current_range_meters":8800,"station_id":"ce4bhi12rcd13ifvqfp0","pricing_plan_id":"cebpf4jnsgd1na2vs0mg"},{"bike_id":"beebcc6e-4c5e-47d8-8160-c9024ef0c558","system_id":"levelo_inurba_marseille","lat":43.2781,"lon":5.40717,"is_reserved":false,"is_disabled":false,"rental_uris":{"android":"levelo://app?vid=beebcc6e-4c5e-47d8-8160-c9024ef0c558","ios":"levelo://app?vid=beebcc6e-4c5e-47d8-8160-c9024ef0c558"},"vehicle_type_id":"4","last_reported":1740136086,"current_range_meters":8800,"station_id":"ce4bhnh2rcd13ifvqgtg","pricing_plan_id":"cebpf4jnsgd1na2vs0mg"},{"bike_id":"45528c36-0352-462f-a5df-dcf6e64ae67e","system_id":"levelo_inurba_marseille","lat":43.27375,"lon":5.36253,"is_reserved":false,"is_disabled":false,"rental_uris":{"android":"levelo://app?vid=45528c36-0352-462f-a5df-dcf6e64ae67e","ios":"levelo://app?vid=45528c36-0352-462f-a5df-dcf6e64ae67e"},"vehicle_type_id":"4","last_reported":1740136086,"current_range_meters":8800,"station_id":"ce4bhbh2rcd13ifvqeo0","pricing_plan_id":"cebpf4jnsgd1na2vs0mg"},{"bike_id":"7e4267bc-bf82-40ff-bec1-d1864901c315","system_id":"levelo_inurba_marseille","lat":43.26217,"lon":5.37442,"is_reserved":false,"is_disabled":false,"rental_uris":{"android":"levelo://app?vid=7e4267bc-bf82-40ff-bec1-d1864901c315","ios":"levelo://app?vid=7e4267bc-bf82-40ff-bec1-d1864901c315"},"vehicle_type_id":"4","last_reported":1740136086,"current_range_meters":8800,"station_id":"ce4bhgp2rcd13ifvqfc0","pricing_plan_id":"cebpf4jnsgd1na2vs0mg"},{"bike_id":"87590419-9431-46cd-a562-7648976d855a","system_id":"levelo_inurba_marseille","lat":43.2791,"lon":5.41206,"is_reserved":false,"is_disabled":false,"rental_uris":{"android":"levelo://app?vid=87590419-9431-46cd-a562-7648976d855a","ios":"levelo://app?vid=87590419-9431-46cd-a562-7648976d855a"},"vehicle_type_id":"4","last_reported":1740136086,"current_range_meters":8800,"station_id":"","pricing_plan_id":"cebpf4jnsgd1na2vs0mg"},{"bike_id":"256456b4-dd00-4a7b-89d2-e6e4e8fe9ac4","system_id":"levelo_inurba_marseille","lat":43.24073,"lon":5.37767,"is_reserved":false,"is_disabled":false,"rental_uris":{"android":"levelo://app?vid=256456b4-dd00-4a7b-89d2-e6e4e8fe9ac4","ios":"levelo://app?vid=256456b4-dd00-4a7b-89d2-e6e4e8fe9ac4"},"vehicle_type_id":"4","last_reported":1740136086,"current_range_meters":8800,"station_id":"ce4bhnp2rcd13ifvqgvg","pricing_plan_id":"cebpf4jnsgd1na2vs0mg"},{"bike_id":"6b6e1059-5264-45b9-9cb9-d24cf5205f2a","system_id":"levelo_inurba_marseille","lat":43.23971,"lon":5.36647,"is_reserved":false,"is_disabled":true,"rental_uris":{"android":"levelo://app?vid=6b6e1059-5264-45b9-9cb9-d24cf5205f2a","ios":"levelo://app?vid=6b6e1059-5264-45b9-9cb9-d24cf5205f2a"},"vehicle_type_id":"4","last_reported":1740136086,"current_range_meters":9200,"station_id":"","pricing_plan_id":"cebpf4jnsgd1na2vs0mg"},{"bike_id":"49701fc1-520f-4e71-a64c-114f0e1205d5","system_id":"levelo_inurba_marseille","lat":43.29271,"lon":5.40096,"is_reserved":false,"is_disabled":false,"rental_uris":{"android":"levelo://app?vid=49701fc1-520f-4e71-a64c-114f0e1205d5","ios":"levelo://app?vid=49701fc1-520f-4e71-a64c-114f0e1205d5"},"vehicle_type_id":"4","last_reported":1740136086,"current_range_meters":9200,"station_id":"ce4bh312rcd13ifvqdk0","pricing_plan_id":"cebpf4jnsgd1na2vs0mg"},{"bike_id":"19884315-f9bd-4438-b9fb-5c3e9bc50f18","system_id":"levelo_inurba_marseille","lat":43.26217,"lon":5.374663,"is_reserved":false,"is_disabled":false,"rental_uris":{"android":"levelo://app?vid=19884315-f9bd-4438-b9fb-5c3e9bc50f18","ios":"levelo://app?vid=19884315-f9bd-4438-b9fb-5c3e9bc50f18"},"vehicle_type_id":"4","last_reported":1740136086,"current_range_meters":9200,"station_id":"ce4bhgp2rcd13ifvqfc0","pricing_plan_id":"cebpf4jnsgd1na2vs0mg"},{"bike_id":"1e1a9f5a-456a-4b1a-b466-ec294a3db06d","system_id":"levelo_inurba_marseille","lat":43.28611,"lon":5.37064,"is_reserved":false,"is_disabled":false,"rental_uris":{"android":"levelo://app?vid=1e1a9f5a-456a-4b1a-b466-ec294a3db06d","ios":"levelo://app?vid=1e1a9f5a-456a-4b1a-b466-ec294a3db06d"},"vehicle_type_id":"4","last_reported":1740136086,"current_range_meters":9200,"station_id":"ce4bht12rcd13ifvqi60","pricing_plan_id":"cebpf4jnsgd1na2vs0mg"},{"bike_id":"d5e7b54b-e932-4925-b97c-360094f3da64","system_id":"levelo_inurba_marseille","lat":43.27386,"lon":5.3627,"is_reserved":false,"is_disabled":false,"rental_uris":{"android":"levelo://app?vid=d5e7b54b-e932-4925-b97c-360094f3da64","ios":"levelo://app?vid=d5e7b54b-e932-4925-b97c-360094f3da64"},"vehicle_type_id":"4","last_reported":1740136086,"current_range_meters":9600,"station_id":"","pricing_plan_id":"cebpf4jnsgd1na2vs0mg"},{"bike_id":"15777cec-7f6a-4847-b05e-8f58b31af8a7","system_id":"levelo_inurba_marseille","lat":43.27056,"lon":5.40265,"is_reserved":false,"is_disabled":false,"rental_uris":{"android":"levelo://app?vid=15777cec-7f6a-4847-b05e-8f58b31af8a7","ios":"levelo://app?vid=15777cec-7f6a-4847-b05e-8f58b31af8a7"},"vehicle_type_id":"4","last_reported":1740136086,"current_range_meters":9600,"station_id":"ce4bhk92rcd13ifvqgc0","pricing_plan_id":"cebpf4jnsgd1na2vs0mg"},{"bike_id":"e6cea176-2e14-4bbe-903f-252ea1001696","system_id":"levelo_inurba_marseille","lat":43.26954,"lon":5.38636,"is_reserved":false,"is_disabled":false,"rental_uris":{"android":"levelo://app?vid=e6cea176-2e14-4bbe-903f-252ea1001696","ios":"levelo://app?vid=e6cea176-2e14-4bbe-903f-252ea1001696"},"vehicle_type_id":"4","last_reported":1740136086,"current_range_meters":9600,"station_id":"ce4bhh92rcd13ifvqfh0","pricing_plan_id":"cebpf4jnsgd1na2vs0mg"},{"bike_id":"da0a95cf-c49c-4abf-bf0b-2a82c2baa559","system_id":"levelo_inurba_marseille","lat":43.30318,"lon":5.36906,"is_reserved":false,"is_disabled":false,"rental_uris":{"android":"levelo://app?vid=da0a95cf-c49c-4abf-bf0b-2a82c2baa559","ios":"levelo://app?vid=da0a95cf-c49c-4abf-bf0b-2a82c2baa559"},"vehicle_type_id":"4","last_reported":1740136086,"current_range_meters":9600,"station_id":"ce4bgqh2rcd13ifvqc5g","pricing_plan_id":"cebpf4jnsgd1na2vs0mg"},{"bike_id":"0a3ad3a8-492f-4d81-aff9-583be6f45de1","system_id":"levelo_inurba_marseille","lat":43.29535,"lon":5.3751,"is_reserved":false,"is_disabled":false,"rental_uris":{"android":"levelo://app?vid=0a3ad3a8-492f-4d81-aff9-583be6f45de1","ios":"levelo://app?vid=0a3ad3a8-492f-4d81-aff9-583be6f45de1"},"vehicle_type_id":"4","last_reported":1740136086,"current_range_meters":9600,"station_id":"ce4bgkp2rcd13ifvqbmg","pricing_plan_id":"cebpf4jnsgd1na2vs0mg"},{"bike_id":"097686fc-b08a-40a8-aaaf-539cdfdb8c4a","system_id":"levelo_inurba_marseille","lat":43.27812,"lon":5.40745,"is_reserved":false,"is_disabled":false,"rental_uris":{"android":"levelo://app?vid=097686fc-b08a-40a8-aaaf-539cdfdb8c4a","ios":"levelo://app?vid=097686fc-b08a-40a8-aaaf-539cdfdb8c4a"},"vehicle_type_id":"4","last_reported":1740136086,"current_range_meters":10000,"station_id":"ce4bhnh2rcd13ifvqgtg","pricing_plan_id":"cebpf4jnsgd1na2vs0mg"},{"bike_id":"77209652-0476-453b-b278-89989e56149a","system_id":"levelo_inurba_marseille","lat":43.31712,"lon":5.40465,"is_reserved":false,"is_disabled":false,"rental_uris":{"android":"levelo://app?vid=77209652-0476-453b-b278-89989e56149a","ios":"levelo://app?vid=77209652-0476-453b-b278-89989e56149a"},"vehicle_type_id":"4","last_reported":1740136086,"current_range_meters":10000,"station_id":"ce4bh012rcd13ifvqd00","pricing_plan_id":"cebpf4jnsgd1na2vs0mg"},{"bike_id":"a353155d-ba8c-4e70-8c02-5b20fc502456","system_id":"levelo_inurba_marseille","lat":43.30528,"lon":5.36544,"is_reserved":false,"is_disabled":false,"rental_uris":{"android":"levelo://app?vid=a353155d-ba8c-4e70-8c02-5b20fc502456","ios":"levelo://app?vid=a353155d-ba8c-4e70-8c02-5b20fc502456"},"vehicle_type_id":"4","last_reported":1740136086,"current_range_meters":10000,"station_id":"ce4bgs12rcd13ifvqcag","pricing_plan_id":"cebpf4jnsgd1na2vs0mg"},{"bike_id":"10061aa3-2574-4b7f-8982-f740cd807e23","system_id":"levelo_inurba_marseille","lat":43.2573,"lon":5.41118,"is_reserved":false,"is_disabled":false,"rental_uris":{"android":"levelo://app?vid=10061aa3-2574-4b7f-8982-f740cd807e23","ios":"levelo://app?vid=10061aa3-2574-4b7f-8982-f740cd807e23"},"vehicle_type_id":"4","last_reported":1740136086,"current_range_meters":10000,"station_id":"ce4bhkp2rcd13ifvqgd0","pricing_plan_id":"cebpf4jnsgd1na2vs0mg"},{"bike_id":"e080c45a-a05d-4297-8995-86678422b056","system_id":"levelo_inurba_marseille","lat":43.34422,"lon":5.38084,"is_reserved":false,"is_disabled":false,"rental_uris":{"android":"levelo://app?vid=e080c45a-a05d-4297-8995-86678422b056","ios":"levelo://app?vid=e080c45a-a05d-4297-8995-86678422b056"},"vehicle_type_id":"4","last_reported":1740136086,"current_range_meters":10000,"station_id":"","pricing_plan_id":"cebpf4jnsgd1na2vs0mg"},{"bike_id":"3bdb59ba-4c56-4dfd-901d-8699a921f785","system_id":"levelo_inurba_marseille","lat":43.23063,"lon":5.35501,"is_reserved":false,"is_disabled":false,"rental_uris":{"android":"levelo://app?vid=3bdb59ba-4c56-4dfd-901d-8699a921f785","ios":"levelo://app?vid=3bdb59ba-4c56-4dfd-901d-8699a921f785"},"vehicle_type_id":"4","last_reported":1740136086,"current_range_meters":10800,"station_id":"cpo3342slgdg3j2ifvpg","pricing_plan_id":"cebpf4jnsgd1na2vs0mg"},{"bike_id":"39943710-b25e-471f-bb7d-dc35908615dc","system_id":"levelo_inurba_marseille","lat":43.24073,"lon":5.37747,"is_reserved":false,"is_disabled":false,"rental_uris":{"android":"levelo://app?vid=39943710-b25e-471f-bb7d-dc35908615dc","ios":"levelo://app?vid=39943710-b25e-471f-bb7d-dc35908615dc"},"vehicle_type_id":"4","last_reported":1740136086,"current_range_meters":10800,"station_id":"ce4bhnp2rcd13ifvqgvg","pricing_plan_id":"cebpf4jnsgd1na2vs0mg"},{"bike_id":"847a739b-d56f-49aa-b392-b1164c55c21b","system_id":"levelo_inurba_marseille","lat":43.23154,"lon":5.43713,"is_reserved":false,"is_disabled":false,"rental_uris":{"android":"levelo://app?vid=847a739b-d56f-49aa-b392-b1164c55c21b","ios":"levelo://app?vid=847a739b-d56f-49aa-b392-b1164c55c21b"},"vehicle_type_id":"4","last_reported":1740136086,"current_range_meters":10800,"station_id":"ce4bhmp2rcd13ifvqgog","pricing_plan_id":"cebpf4jnsgd1na2vs0mg"},{"bike_id":"2b75ea07-0f06-4c1b-9cad-59681ae1184a","system_id":"levelo_inurba_marseille","lat":43.24996,"lon":5.38929,"is_reserved":false,"is_disabled":false,"rental_uris":{"android":"levelo://app?vid=2b75ea07-0f06-4c1b-9cad-59681ae1184a","ios":"levelo://app?vid=2b75ea07-0f06-4c1b-9cad-59681ae1184a"},"vehicle_type_id":"4","last_reported":1740136086,"current_range_meters":10800,"station_id":"ce4bhgp2rcd13ifvqfd0","pricing_plan_id":"cebpf4jnsgd1na2vs0mg"},{"bike_id":"849d245a-be14-47ff-9742-f234bf067745","system_id":"levelo_inurba_marseille","lat":43.29751,"lon":5.3791,"is_reserved":false,"is_disabled":false,"rental_uris":{"android":"levelo://app?vid=849d245a-be14-47ff-9742-f234bf067745","ios":"levelo://app?vid=849d245a-be14-47ff-9742-f234bf067745"},"vehicle_type_id":"4","last_reported":1740136086,"current_range_meters":10800,"station_id":"ce4bguh2rcd13ifvqckg","pricing_plan_id":"cebpf4jnsgd1na2vs0mg"},{"bike_id":"e2605be6-729f-4263-a772-380592b3879d","system_id":"levelo_inurba_marseille","lat":43.30457,"lon":5.38094,"is_reserved":false,"is_disabled":false,"rental_uris":{"android":"levelo://app?vid=e2605be6-729f-4263-a772-380592b3879d","ios":"levelo://app?vid=e2605be6-729f-4263-a772-380592b3879d"},"vehicle_type_id":"4","last_reported":1740136086,"current_range_meters":10800,"station_id":"","pricing_plan_id":"cebpf4jnsgd1na2vs0mg"},{"bike_id":"b1f84cab-4478-466e-a5e3-234c4ee88914","system_id":"levelo_inurba_marseille","lat":43.230783,"lon":5.354931,"is_reserved":false,"is_disabled":false,"rental_uris":{"android":"levelo://app?vid=b1f84cab-4478-466e-a5e3-234c4ee88914","ios":"levelo://app?vid=b1f84cab-4478-466e-a5e3-234c4ee88914"},"vehicle_type_id":"4","last_reported":1740136086,"current_range_meters":10800,"station_id":"ce4bh312rcd13ifvqdj0","pricing_plan_id":"cebpf4jnsgd1na2vs0mg"},{"bike_id":"5c24a800-a337-4061-8236-708b58a81e50","system_id":"levelo_inurba_marseille","lat":43.298947,"lon":5.43662,"is_reserved":false,"is_disabled":false,"rental_uris":{"android":"levelo://app?vid=5c24a800-a337-4061-8236-708b58a81e50","ios":"levelo://app?vid=5c24a800-a337-4061-8236-708b58a81e50"},"vehicle_type_id":"4","last_reported":1740136086,"current_range_meters":11200,"station_id":"ce4bhpp2rcd13ifvqhfg","pricing_plan_id":"cebpf4jnsgd1na2vs0mg"},{"bike_id":"c6382a13-3522-48f4-9151-dc96b3e8709f","system_id":"levelo_inurba_marseille","lat":43.29971,"lon":5.38494,"is_reserved":false,"is_disabled":false,"rental_uris":{"android":"levelo://app?vid=c6382a13-3522-48f4-9151-dc96b3e8709f","ios":"levelo://app?vid=c6382a13-3522-48f4-9151-dc96b3e8709f"},"vehicle_type_id":"4","last_reported":1740136086,"current_range_meters":11200,"station_id":"ce4bgj92rcd13ifvqbd0","pricing_plan_id":"cebpf4jnsgd1na2vs0mg"},{"bike_id":"5f966b2f-bd72-4c3d-9459-34c621af0b94","system_id":"levelo_inurba_marseille","lat":43.29008,"lon":5.35608,"is_reserved":false,"is_disabled":false,"rental_uris":{"android":"levelo://app?vid=5f966b2f-bd72-4c3d-9459-34c621af0b94","ios":"levelo://app?vid=5f966b2f-bd72-4c3d-9459-34c621af0b94"},"vehicle_type_id":"4","last_reported":1740136086,"current_range_meters":11600,"station_id":"ce4bhb92rcd13ifvqen0","pricing_plan_id":"cebpf4jnsgd1na2vs0mg"},{"bike_id":"d0109f8e-c695-44b8-83b5-050518c2c6c9","system_id":"levelo_inurba_marseille","lat":43.23066,"lon":5.35508,"is_reserved":false,"is_disabled":false,"rental_uris":{"android":"levelo://app?vid=d0109f8e-c695-44b8-83b5-050518c2c6c9","ios":"levelo://app?vid=d0109f8e-c695-44b8-83b5-050518c2c6c9"},"vehicle_type_id":"4","last_reported":1740136086,"current_range_meters":11600,"station_id":"cpo3342slgdg3j2ifvpg","pricing_plan_id":"cebpf4jnsgd1na2vs0mg"},{"bike_id":"9a252ea3-9ef1-4231-8ed0-d2412de62ddc","system_id":"levelo_inurba_marseille","lat":43.2749,"lon":5.42468,"is_reserved":false,"is_disabled":false,"rental_uris":{"android":"levelo://app?vid=9a252ea3-9ef1-4231-8ed0-d2412de62ddc","ios":"levelo://app?vid=9a252ea3-9ef1-4231-8ed0-d2412de62ddc"},"vehicle_type_id":"4","last_reported":1740136086,"current_range_meters":11600,"station_id":"ce4bhn92rcd13ifvqgrg","pricing_plan_id":"cebpf4jnsgd1na2vs0mg"},{"bike_id":"e91efd72-92d6-462f-a344-2eb040c36db7","system_id":"levelo_inurba_marseille","lat":43.32068,"lon":5.4154,"is_reserved":false,"is_disabled":false,"rental_uris":{"android":"levelo://app?vid=e91efd72-92d6-462f-a344-2eb040c36db7","ios":"levelo://app?vid=e91efd72-92d6-462f-a344-2eb040c36db7"},"vehicle_type_id":"4","last_reported":1740136086,"current_range_meters":11600,"station_id":"ce4bhq92rcd13ifvqhkg","pricing_plan_id":"cebpf4jnsgd1na2vs0mg"},{"bike_id":"c5785b31-89ec-44a3-bac5-308672aa531a","system_id":"levelo_inurba_marseille","lat":43.31997,"lon":5.3816,"is_reserved":false,"is_disabled":false,"rental_uris":{"android":"levelo://app?vid=c5785b31-89ec-44a3-bac5-308672aa531a","ios":"levelo://app?vid=c5785b31-89ec-44a3-bac5-308672aa531a"},"vehicle_type_id":"4","last_reported":1740136086,"current_range_meters":11600,"station_id":"ce4bhr12rcd13ifvqhpg","pricing_plan_id":"cebpf4jnsgd1na2vs0mg"},{"bike_id":"f3feea2e-5bf7-41f6-a6d2-c494ec11d6a2","system_id":"levelo_inurba_marseille","lat":43.23056,"lon":5.35489,"is_reserved":false,"is_disabled":false,"rental_uris":{"android":"levelo://app?vid=f3feea2e-5bf7-41f6-a6d2-c494ec11d6a2","ios":"levelo://app?vid=f3feea2e-5bf7-41f6-a6d2-c494ec11d6a2"},"vehicle_type_id":"4","last_reported":1740136086,"current_range_meters":11600,"station_id":"cpo3342slgdg3j2ifvpg","pricing_plan_id":"cebpf4jnsgd1na2vs0mg"},{"bike_id":"5b05aaff-2ce3-418c-bec4-28a1dbd57374","system_id":"levelo_inurba_marseille","lat":43.28078,"lon":5.39672,"is_reserved":false,"is_disabled":false,"rental_uris":{"android":"levelo://app?vid=5b05aaff-2ce3-418c-bec4-28a1dbd57374","ios":"levelo://app?vid=5b05aaff-2ce3-418c-bec4-28a1dbd57374"},"vehicle_type_id":"4","last_reported":1740136086,"current_range_meters":12000,"station_id":"ce4bho12rcd13ifvqh2g","pricing_plan_id":"cebpf4jnsgd1na2vs0mg"},{"bike_id":"b684c206-6b20-486d-babf-1d8fa27e7731","system_id":"levelo_inurba_marseille","lat":43.30298,"lon":5.36911,"is_reserved":false,"is_disabled":false,"rental_uris":{"android":"levelo://app?vid=b684c206-6b20-486d-babf-1d8fa27e7731","ios":"levelo://app?vid=b684c206-6b20-486d-babf-1d8fa27e7731"},"vehicle_type_id":"4","last_reported":1740136086,"current_range_meters":12000,"station_id":"ce4bgqh2rcd13ifvqc5g","pricing_plan_id":"cebpf4jnsgd1na2vs0mg"},{"bike_id":"8d7cc3d2-9cf2-41ff-b592-023f2ec7d75d","system_id":"levelo_inurba_marseille","lat":43.24668,"lon":5.38156,"is_reserved":false,"is_disabled":false,"rental_uris":{"android":"levelo://app?vid=8d7cc3d2-9cf2-41ff-b592-023f2ec7d75d","ios":"levelo://app?vid=8d7cc3d2-9cf2-41ff-b592-023f2ec7d75d"},"vehicle_type_id":"4","last_reported":1740136086,"current_range_meters":12000,"station_id":"ce4bhih2rcd13ifvqfr0","pricing_plan_id":"cebpf4jnsgd1na2vs0mg"},{"bike_id":"3ee4ee73-4101-43ba-8adc-33df28381417","system_id":"levelo_inurba_marseille","lat":43.2621,"lon":5.37443,"is_reserved":false,"is_disabled":false,"rental_uris":{"android":"levelo://app?vid=3ee4ee73-4101-43ba-8adc-33df28381417","ios":"levelo://app?vid=3ee4ee73-4101-43ba-8adc-33df28381417"},"vehicle_type_id":"4","last_reported":1740136086,"current_range_meters":12000,"station_id":"ce4bhgp2rcd13ifvqfc0","pricing_plan_id":"cebpf4jnsgd1na2vs0mg"},{"bike_id":"c8a48179-6f76-43ed-9140-7f3179dbfb5f","system_id":"levelo_inurba_marseille","lat":43.27819,"lon":5.40723,"is_reserved":false,"is_disabled":false,"rental_uris":{"android":"levelo://app?vid=c8a48179-6f76-43ed-9140-7f3179dbfb5f","ios":"levelo://app?vid=c8a48179-6f76-43ed-9140-7f3179dbfb5f"},"vehicle_type_id":"4","last_reported":1740136086,"current_range_meters":12000,"station_id":"ce4bhnh2rcd13ifvqgtg","pricing_plan_id":"cebpf4jnsgd1na2vs0mg"},{"bike_id":"fcfcda64-5c86-4e16-8799-042361f095a3","system_id":"levelo_inurba_marseille","lat":43.33067,"lon":5.39021,"is_reserved":false,"is_disabled":false,"rental_uris":{"android":"levelo://app?vid=fcfcda64-5c86-4e16-8799-042361f095a3","ios":"levelo://app?vid=fcfcda64-5c86-4e16-8799-042361f095a3"},"vehicle_type_id":"4","last_reported":1740136086,"current_range_meters":12400,"station_id":"","pricing_plan_id":"cebpf4jnsgd1na2vs0mg"},{"bike_id":"9dfaef71-530c-449d-9e52-1d65e830b17a","system_id":"levelo_inurba_marseille","lat":43.29715,"lon":5.36609,"is_reserved":false,"is_disabled":false,"rental_uris":{"android":"levelo://app?vid=9dfaef71-530c-449d-9e52-1d65e830b17a","ios":"levelo://app?vid=9dfaef71-530c-449d-9e52-1d65e830b17a"},"vehicle_type_id":"4","last_reported":1740136086,"current_range_meters":12400,"station_id":"ce4bgn12rcd13ifvqbt0","pricing_plan_id":"cebpf4jnsgd1na2vs0mg"},{"bike_id":"07e466fb-1901-4303-9134-932bb5cf5462","system_id":"levelo_inurba_marseille","lat":43.30085,"lon":5.39073,"is_reserved":false,"is_disabled":false,"rental_uris":{"android":"levelo://app?vid=07e466fb-1901-4303-9134-932bb5cf5462","ios":"levelo://app?vid=07e466fb-1901-4303-9134-932bb5cf5462"},"vehicle_type_id":"4","last_reported":1740136086,"current_range_meters":12400,"station_id":"ce4bh192rcd13ifvqdb0","pricing_plan_id":"cebpf4jnsgd1na2vs0mg"},{"bike_id":"2f82afc4-d1b7-4a7b-8d57-445b43e15d74","system_id":"levelo_inurba_marseille","lat":43.28078,"lon":5.39645,"is_reserved":false,"is_disabled":false,"rental_uris":{"android":"levelo://app?vid=2f82afc4-d1b7-4a7b-8d57-445b43e15d74","ios":"levelo://app?vid=2f82afc4-d1b7-4a7b-8d57-445b43e15d74"},"vehicle_type_id":"4","last_reported":1740136086,"current_range_meters":12800,"station_id":"ce4bho12rcd13ifvqh2g","pricing_plan_id":"cebpf4jnsgd1na2vs0mg"},{"bike_id":"66023030-f689-4300-9ecf-d7b148b70c3c","system_id":"levelo_inurba_marseille","lat":43.26557,"lon":5.37291,"is_reserved":false,"is_disabled":false,"rental_uris":{"android":"levelo://app?vid=66023030-f689-4300-9ecf-d7b148b70c3c","ios":"levelo://app?vid=66023030-f689-4300-9ecf-d7b148b70c3c"},"vehicle_type_id":"4","last_reported":1740136086,"current_range_meters":12800,"station_id":"ce4bhg12rcd13ifvqf70","pricing_plan_id":"cebpf4jnsgd1na2vs0mg"},{"bike_id":"7603a7c6-1a26-4405-92e4-99bedd6ad4bd","system_id":"levelo_inurba_marseille","lat":43.23063,"lon":5.35492,"is_reserved":false,"is_disabled":false,"rental_uris":{"android":"levelo://app?vid=7603a7c6-1a26-4405-92e4-99bedd6ad4bd","ios":"levelo://app?vid=7603a7c6-1a26-4405-92e4-99bedd6ad4bd"},"vehicle_type_id":"4","last_reported":1740136086,"current_range_meters":13600,"station_id":"cpo3342slgdg3j2ifvpg","pricing_plan_id":"cebpf4jnsgd1na2vs0mg"},{"bike_id":"ae0d7d72-07c1-4e04-bc42-c3889a9748ca","system_id":"levelo_inurba_marseille","lat":43.33603,"lon":5.4101,"is_reserved":false,"is_disabled":false,"rental_uris":{"android":"levelo://app?vid=ae0d7d72-07c1-4e04-bc42-c3889a9748ca","ios":"levelo://app?vid=ae0d7d72-07c1-4e04-bc42-c3889a9748ca"},"vehicle_type_id":"4","last_reported":1740136086,"current_range_meters":14000,"station_id":"ce4bhqh2rcd13ifvqhmg","pricing_plan_id":"cebpf4jnsgd1na2vs0mg"},{"bike_id":"ece000d4-661c-4b73-9213-ce0ed97eff8c","system_id":"levelo_inurba_marseille","lat":43.26999,"lon":5.40193,"is_reserved":false,"is_disabled":false,"rental_uris":{"android":"levelo://app?vid=ece000d4-661c-4b73-9213-ce0ed97eff8c","ios":"levelo://app?vid=ece000d4-661c-4b73-9213-ce0ed97eff8c"},"vehicle_type_id":"4","last_reported":1740136086,"current_range_meters":14000,"station_id":"","pricing_plan_id":"cebpf4jnsgd1na2vs0mg"},{"bike_id":"a789eb26-fae4-4740-a757-3143b47df60d","system_id":"levelo_inurba_marseille","lat":43.25821,"lon":5.39437,"is_reserved":false,"is_disabled":false,"rental_uris":{"android":"levelo://app?vid=a789eb26-fae4-4740-a757-3143b47df60d","ios":"levelo://app?vid=a789eb26-fae4-4740-a757-3143b47df60d"},"vehicle_type_id":"4","last_reported":1740136086,"current_range_meters":14000,"station_id":"ce4bhip2rcd13ifvqft0","pricing_plan_id":"cebpf4jnsgd1na2vs0mg"},{"bike_id":"1445e25f-9332-44f5-8183-e6d6a71cd6ce","system_id":"levelo_inurba_marseille","lat":43.266415,"lon":5.403068,"is_reserved":false,"is_disabled":false,"rental_uris":{"android":"levelo://app?vid=1445e25f-9332-44f5-8183-e6d6a71cd6ce","ios":"levelo://app?vid=1445e25f-9332-44f5-8183-e6d6a71cd6ce"},"vehicle_type_id":"4","last_reported":1740136086,"current_range_meters":14000,"station_id":"ce501612rcd8frsf0b60","pricing_plan_id":"cebpf4jnsgd1na2vs0mg"},{"bike_id":"b9b5f85d-2c82-4a44-8075-a6ef91188503","system_id":"levelo_inurba_marseille","lat":43.29618,"lon":5.37734,"is_reserved":false,"is_disabled":false,"rental_uris":{"android":"levelo://app?vid=b9b5f85d-2c82-4a44-8075-a6ef91188503","ios":"levelo://app?vid=b9b5f85d-2c82-4a44-8075-a6ef91188503"},"vehicle_type_id":"4","last_reported":1740136086,"current_range_meters":14400,"station_id":"ce4bgi92rcd13ifvqb90","pricing_plan_id":"cebpf4jnsgd1na2vs0mg"},{"bike_id":"a404738f-d592-4923-bb7f-8cad6bf8fec4","system_id":"levelo_inurba_marseille","lat":43.27949,"lon":5.38495,"is_reserved":false,"is_disabled":false,"rental_uris":{"android":"levelo://app?vid=a404738f-d592-4923-bb7f-8cad6bf8fec4","ios":"levelo://app?vid=a404738f-d592-4923-bb7f-8cad6bf8fec4"},"vehicle_type_id":"4","last_reported":1740136086,"current_range_meters":14400,"station_id":"","pricing_plan_id":"cebpf4jnsgd1na2vs0mg"},{"bike_id":"4db2f778-1140-4e43-911f-73f9bae9eda9","system_id":"levelo_inurba_marseille","lat":43.30308,"lon":5.37705,"is_reserved":false,"is_disabled":false,"rental_uris":{"android":"levelo://app?vid=4db2f778-1140-4e43-911f-73f9bae9eda9","ios":"levelo://app?vid=4db2f778-1140-4e43-911f-73f9bae9eda9"},"vehicle_type_id":"4","last_reported":1740136086,"current_range_meters":14400,"station_id":"ce4bguh2rcd13ifvqcj0","pricing_plan_id":"cebpf4jnsgd1na2vs0mg"},{"bike_id":"d8104e74-858a-433d-a3e0-a0b41769f4af","system_id":"levelo_inurba_marseille","lat":43.28293,"lon":5.35084,"is_reserved":false,"is_disabled":false,"rental_uris":{"android":"levelo://app?vid=d8104e74-858a-433d-a3e0-a0b41769f4af","ios":"levelo://app?vid=d8104e74-858a-433d-a3e0-a0b41769f4af"},"vehicle_type_id":"4","last_reported":1740136086,"current_range_meters":14400,"station_id":"ce4bhbp2rcd13ifvqerg","pricing_plan_id":"cebpf4jnsgd1na2vs0mg"},{"bike_id":"63ab23de-9360-4147-bbc1-5153b12bbe56","system_id":"levelo_inurba_marseille","lat":43.29366,"lon":5.37862,"is_reserved":false,"is_disabled":true,"rental_uris":{"android":"levelo://app?vid=63ab23de-9360-4147-bbc1-5153b12bbe56","ios":"levelo://app?vid=63ab23de-9360-4147-bbc1-5153b12bbe56"},"vehicle_type_id":"4","last_reported":1740136086,"current_range_meters":14400,"station_id":"ce4bgjh2rcd13ifvqbf0","pricing_plan_id":"cebpf4jnsgd1na2vs0mg"},{"bike_id":"9677d307-3090-4120-a598-26c59a01cf41","system_id":"levelo_inurba_marseille","lat":43.26234,"lon":5.40456,"is_reserved":false,"is_disabled":false,"rental_uris":{"android":"levelo://app?vid=9677d307-3090-4120-a598-26c59a01cf41","ios":"levelo://app?vid=9677d307-3090-4120-a598-26c59a01cf41"},"vehicle_type_id":"4","last_reported":1740136086,"current_range_meters":14800,"station_id":"ce4bhmh2rcd13ifvqgmg","pricing_plan_id":"cebpf4jnsgd1na2vs0mg"},{"bike_id":"78ccc1b5-e05d-4c30-bc5b-473f9d97e2cd","system_id":"levelo_inurba_marseille","lat":43.30119,"lon":5.37827,"is_reserved":false,"is_disabled":false,"rental_uris":{"android":"levelo://app?vid=78ccc1b5-e05d-4c30-bc5b-473f9d97e2cd","ios":"levelo://app?vid=78ccc1b5-e05d-4c30-bc5b-473f9d97e2cd"},"vehicle_type_id":"4","last_reported":1740136086,"current_range_meters":14800,"station_id":"","pricing_plan_id":"cebpf4jnsgd1na2vs0mg"},{"bike_id":"88308f40-028b-4a49-834b-9ff5be01fc4d","system_id":"levelo_inurba_marseille","lat":43.308302,"lon":5.381212,"is_reserved":false,"is_disabled":false,"rental_uris":{"android":"levelo://app?vid=88308f40-028b-4a49-834b-9ff5be01fc4d","ios":"levelo://app?vid=88308f40-028b-4a49-834b-9ff5be01fc4d"},"vehicle_type_id":"4","last_reported":1740136086,"current_range_meters":14800,"station_id":"ce4bgv92rcd13ifvqcr0","pricing_plan_id":"cebpf4jnsgd1na2vs0mg"},{"bike_id":"54b45f3b-f685-44dd-8b79-1a758bf759d2","system_id":"levelo_inurba_marseille","lat":43.337444,"lon":5.374475,"is_reserved":false,"is_disabled":true,"rental_uris":{"android":"levelo://app?vid=54b45f3b-f685-44dd-8b79-1a758bf759d2","ios":"levelo://app?vid=54b45f3b-f685-44dd-8b79-1a758bf759d2"},"vehicle_type_id":"4","last_reported":1740136086,"current_range_meters":14800,"station_id":"","pricing_plan_id":"cebpf4jnsgd1na2vs0mg"},{"bike_id":"6c8aec7c-5ec4-42e9-9909-2991a86d2322","system_id":"levelo_inurba_marseille","lat":43.28452,"lon":5.34965,"is_reserved":false,"is_disabled":false,"rental_uris":{"android":"levelo://app?vid=6c8aec7c-5ec4-42e9-9909-2991a86d2322","ios":"levelo://app?vid=6c8aec7c-5ec4-42e9-9909-2991a86d2322"},"vehicle_type_id":"4","last_reported":1740136086,"current_range_meters":14800,"station_id":"ce4bhbh2rcd13ifvqepg","pricing_plan_id":"cebpf4jnsgd1na2vs0mg"},{"bike_id":"b985ad1f-1942-453b-b5eb-7462cafd1e31","system_id":"levelo_inurba_marseille","lat":43.23191,"lon":5.35551,"is_reserved":false,"is_disabled":false,"rental_uris":{"android":"levelo://app?vid=b985ad1f-1942-453b-b5eb-7462cafd1e31","ios":"levelo://app?vid=b985ad1f-1942-453b-b5eb-7462cafd1e31"},"vehicle_type_id":"4","last_reported":1740136086,"current_range_meters":14800,"station_id":"ce4bhu92rcd13ifvqi70","pricing_plan_id":"cebpf4jnsgd1na2vs0mg"},{"bike_id":"38d30ec7-5f39-49b6-a510-fa390809d779","system_id":"levelo_inurba_marseille","lat":43.27174,"lon":5.41003,"is_reserved":false,"is_disabled":false,"rental_uris":{"android":"levelo://app?vid=38d30ec7-5f39-49b6-a510-fa390809d779","ios":"levelo://app?vid=38d30ec7-5f39-49b6-a510-fa390809d779"},"vehicle_type_id":"4","last_reported":1740136086,"current_range_meters":15200,"station_id":"ce4bhl12rcd13ifvqgf0","pricing_plan_id":"cebpf4jnsgd1na2vs0mg"},{"bike_id":"1026b335-ac75-43d2-a001-c779aee6e264","system_id":"levelo_inurba_marseille","lat":43.2926,"lon":5.4091,"is_reserved":false,"is_disabled":false,"rental_uris":{"android":"levelo://app?vid=1026b335-ac75-43d2-a001-c779aee6e264","ios":"levelo://app?vid=1026b335-ac75-43d2-a001-c779aee6e264"},"vehicle_type_id":"4","last_reported":1740136086,"current_range_meters":16000,"station_id":"ce4bh192rcd13ifvqdc0","pricing_plan_id":"cebpf4jnsgd1na2vs0mg"},{"bike_id":"89422cca-9616-4f20-8fc8-0eb52dfd4d48","system_id":"levelo_inurba_marseille","lat":43.29521,"lon":5.39038,"is_reserved":false,"is_disabled":false,"rental_uris":{"android":"levelo://app?vid=89422cca-9616-4f20-8fc8-0eb52dfd4d48","ios":"levelo://app?vid=89422cca-9616-4f20-8fc8-0eb52dfd4d48"},"vehicle_type_id":"4","last_reported":1740136086,"current_range_meters":16000,"station_id":"ce4bh3p2rcd13ifvqdp0","pricing_plan_id":"cebpf4jnsgd1na2vs0mg"},{"bike_id":"c7cc806f-a194-442e-9ded-3072db1e6762","system_id":"levelo_inurba_marseille","lat":43.28265,"lon":5.37276,"is_reserved":false,"is_disabled":false,"rental_uris":{"android":"levelo://app?vid=c7cc806f-a194-442e-9ded-3072db1e6762","ios":"levelo://app?vid=c7cc806f-a194-442e-9ded-3072db1e6762"},"vehicle_type_id":"4","last_reported":1740136086,"current_range_meters":16000,"station_id":"","pricing_plan_id":"cebpf4jnsgd1na2vs0mg"},{"bike_id":"bbf625f9-d17e-438d-91bc-e83e057d96a7","system_id":"levelo_inurba_marseille","lat":43.27817,"lon":5.40712,"is_reserved":false,"is_disabled":false,"rental_uris":{"android":"levelo://app?vid=bbf625f9-d17e-438d-91bc-e83e057d96a7","ios":"levelo://app?vid=bbf625f9-d17e-438d-91bc-e83e057d96a7"},"vehicle_type_id":"4","last_reported":1740136086,"current_range_meters":16000,"station_id":"ce4bhnh2rcd13ifvqgtg","pricing_plan_id":"cebpf4jnsgd1na2vs0mg"},{"bike_id":"ba35fed7-04e2-43fe-b63c-dba53e6c4e88","system_id":"levelo_inurba_marseille","lat":43.28419,"lon":5.34984,"is_reserved":false,"is_disabled":true,"rental_uris":{"android":"levelo://app?vid=ba35fed7-04e2-43fe-b63c-dba53e6c4e88","ios":"levelo://app?vid=ba35fed7-04e2-43fe-b63c-dba53e6c4e88"},"vehicle_type_id":"4","last_reported":1740136086,"current_range_meters":16000,"station_id":"ce4bhbh2rcd13ifvqepg","pricing_plan_id":"cebpf4jnsgd1na2vs0mg"},{"bike_id":"339b9aa5-1d29-462b-83c8-560bd24ece67","system_id":"levelo_inurba_marseille","lat":43.30153,"lon":5.38081,"is_reserved":false,"is_disabled":false,"rental_uris":{"android":"levelo://app?vid=339b9aa5-1d29-462b-83c8-560bd24ece67","ios":"levelo://app?vid=339b9aa5-1d29-462b-83c8-560bd24ece67"},"vehicle_type_id":"4","last_reported":1740136086,"current_range_meters":16000,"station_id":"ce4bgjp2rcd13ifvqbh0","pricing_plan_id":"cebpf4jnsgd1na2vs0mg"},{"bike_id":"ee3f51cc-c363-458f-9fcb-875a75b965cd","system_id":"levelo_inurba_marseille","lat":43.2925,"lon":5.38284,"is_reserved":false,"is_disabled":false,"rental_uris":{"android":"levelo://app?vid=ee3f51cc-c363-458f-9fcb-875a75b965cd","ios":"levelo://app?vid=ee3f51cc-c363-458f-9fcb-875a75b965cd"},"vehicle_type_id":"4","last_reported":1740136086,"current_range_meters":16400,"station_id":"","pricing_plan_id":"cebpf4jnsgd1na2vs0mg"},{"bike_id":"60411cef-e155-45f0-8abb-78ef890f38dc","system_id":"levelo_inurba_marseille","lat":43.3015,"lon":5.37415,"is_reserved":false,"is_disabled":false,"rental_uris":{"android":"levelo://app?vid=60411cef-e155-45f0-8abb-78ef890f38dc","ios":"levelo://app?vid=60411cef-e155-45f0-8abb-78ef890f38dc"},"vehicle_type_id":"4","last_reported":1740136086,"current_range_meters":16400,"station_id":"ce4bgs92rcd13ifvqcc0","pricing_plan_id":"cebpf4jnsgd1na2vs0mg"},{"bike_id":"4a2ec1d4-a0c1-4c71-9643-95422eb1b89b","system_id":"levelo_inurba_marseille","lat":43.31331,"lon":5.367,"is_reserved":false,"is_disabled":false,"rental_uris":{"android":"levelo://app?vid=4a2ec1d4-a0c1-4c71-9643-95422eb1b89b","ios":"levelo://app?vid=4a2ec1d4-a0c1-4c71-9643-95422eb1b89b"},"vehicle_type_id":"4","last_reported":1740136086,"current_range_meters":16400,"station_id":"ce4bgr92rcd13ifvqc6g","pricing_plan_id":"cebpf4jnsgd1na2vs0mg"},{"bike_id":"c0432d37-42ae-4d89-b2b5-acacb21e5f5c","system_id":"levelo_inurba_marseille","lat":43.2656,"lon":5.37286,"is_reserved":false,"is_disabled":false,"rental_uris":{"android":"levelo://app?vid=c0432d37-42ae-4d89-b2b5-acacb21e5f5c","ios":"levelo://app?vid=c0432d37-42ae-4d89-b2b5-acacb21e5f5c"},"vehicle_type_id":"4","last_reported":1740136086,"current_range_meters":16400,"station_id":"ce4bhg12rcd13ifvqf70","pricing_plan_id":"cebpf4jnsgd1na2vs0mg"},{"bike_id":"0c970e41-363b-4b06-ba71-5a86d20b3fa2","system_id":"levelo_inurba_marseille","lat":43.27059,"lon":5.40261,"is_reserved":false,"is_disabled":false,"rental_uris":{"android":"levelo://app?vid=0c970e41-363b-4b06-ba71-5a86d20b3fa2","ios":"levelo://app?vid=0c970e41-363b-4b06-ba71-5a86d20b3fa2"},"vehicle_type_id":"4","last_reported":1740136086,"current_range_meters":16400,"station_id":"ce4bhk92rcd13ifvqgc0","pricing_plan_id":"cebpf4jnsgd1na2vs0mg"},{"bike_id":"e16477d4-027c-4ddc-91bb-09caba8f7aa3","system_id":"levelo_inurba_marseille","lat":43.29037,"lon":5.38644,"is_reserved":false,"is_disabled":false,"rental_uris":{"android":"levelo://app?vid=e16477d4-027c-4ddc-91bb-09caba8f7aa3","ios":"levelo://app?vid=e16477d4-027c-4ddc-91bb-09caba8f7aa3"},"vehicle_type_id":"4","last_reported":1740136086,"current_range_meters":16800,"station_id":"ce4bh4p2rcd13ifvqe0g","pricing_plan_id":"cebpf4jnsgd1na2vs0mg"},{"bike_id":"661fdff0-f0ad-4cb8-b5b0-dc2395fe1e67","system_id":"levelo_inurba_marseille","lat":43.30525,"lon":5.36769,"is_reserved":false,"is_disabled":false,"rental_uris":{"android":"levelo://app?vid=661fdff0-f0ad-4cb8-b5b0-dc2395fe1e67","ios":"levelo://app?vid=661fdff0-f0ad-4cb8-b5b0-dc2395fe1e67"},"vehicle_type_id":"4","last_reported":1740136086,"current_range_meters":16800,"station_id":"ce4bgrp2rcd13ifvqc9g","pricing_plan_id":"cebpf4jnsgd1na2vs0mg"},{"bike_id":"34fc9ca7-e7a1-4e7a-9213-441ac0a88aec","system_id":"levelo_inurba_marseille","lat":43.27822,"lon":5.40727,"is_reserved":false,"is_disabled":false,"rental_uris":{"android":"levelo://app?vid=34fc9ca7-e7a1-4e7a-9213-441ac0a88aec","ios":"levelo://app?vid=34fc9ca7-e7a1-4e7a-9213-441ac0a88aec"},"vehicle_type_id":"4","last_reported":1740136086,"current_range_meters":16800,"station_id":"ce4bhnh2rcd13ifvqgtg","pricing_plan_id":"cebpf4jnsgd1na2vs0mg"},{"bike_id":"8e73348d-2ac3-4f12-9042-0bc436195ceb","system_id":"levelo_inurba_marseille","lat":43.27183,"lon":5.40985,"is_reserved":false,"is_disabled":false,"rental_uris":{"android":"levelo://app?vid=8e73348d-2ac3-4f12-9042-0bc436195ceb","ios":"levelo://app?vid=8e73348d-2ac3-4f12-9042-0bc436195ceb"},"vehicle_type_id":"4","last_reported":1740136086,"current_range_meters":16800,"station_id":"ce4bhl12rcd13ifvqgf0","pricing_plan_id":"cebpf4jnsgd1na2vs0mg"},{"bike_id":"8916baab-e77f-433e-9ea0-b9bbc2b73d58","system_id":"levelo_inurba_marseille","lat":43.26231,"lon":5.40455,"is_reserved":false,"is_disabled":false,"rental_uris":{"android":"levelo://app?vid=8916baab-e77f-433e-9ea0-b9bbc2b73d58","ios":"levelo://app?vid=8916baab-e77f-433e-9ea0-b9bbc2b73d58"},"vehicle_type_id":"4","last_reported":1740136086,"current_range_meters":17200,"station_id":"ce4bhmh2rcd13ifvqgmg","pricing_plan_id":"cebpf4jnsgd1na2vs0mg"},{"bike_id":"5226079c-a5a4-4e95-8485-4758d9a33b1e","system_id":"levelo_inurba_marseille","lat":43.313545,"lon":5.367205,"is_reserved":false,"is_disabled":false,"rental_uris":{"android":"levelo://app?vid=5226079c-a5a4-4e95-8485-4758d9a33b1e","ios":"levelo://app?vid=5226079c-a5a4-4e95-8485-4758d9a33b1e"},"vehicle_type_id":"4","last_reported":1740136086,"current_range_meters":17200,"station_id":"ce4bgr92rcd13ifvqc6g","pricing_plan_id":"cebpf4jnsgd1na2vs0mg"},{"bike_id":"579d939e-497a-4abe-9c9b-71732bee178b","system_id":"levelo_inurba_marseille","lat":43.30891,"lon":5.39651,"is_reserved":false,"is_disabled":false,"rental_uris":{"android":"levelo://app?vid=579d939e-497a-4abe-9c9b-71732bee178b","ios":"levelo://app?vid=579d939e-497a-4abe-9c9b-71732bee178b"},"vehicle_type_id":"4","last_reported":1740136086,"current_range_meters":17200,"station_id":"ce4bh012rcd13ifvqcv0","pricing_plan_id":"cebpf4jnsgd1na2vs0mg"},{"bike_id":"687f7614-ccb3-48f3-b3ec-05daac1517e2","system_id":"levelo_inurba_marseille","lat":43.27811,"lon":5.40715,"is_reserved":false,"is_disabled":false,"rental_uris":{"android":"levelo://app?vid=687f7614-ccb3-48f3-b3ec-05daac1517e2","ios":"levelo://app?vid=687f7614-ccb3-48f3-b3ec-05daac1517e2"},"vehicle_type_id":"4","last_reported":1740136086,"current_range_meters":17200,"station_id":"ce4bhnh2rcd13ifvqgtg","pricing_plan_id":"cebpf4jnsgd1na2vs0mg"},{"bike_id":"9740c594-f347-4434-9d61-30cfda4dec71","system_id":"levelo_inurba_marseille","lat":43.26509,"lon":5.39555,"is_reserved":false,"is_disabled":true,"rental_uris":{"android":"levelo://app?vid=9740c594-f347-4434-9d61-30cfda4dec71","ios":"levelo://app?vid=9740c594-f347-4434-9d61-30cfda4dec71"},"vehicle_type_id":"4","last_reported":1740136086,"current_range_meters":17200,"station_id":"ce4bhi12rcd13ifvqfq0","pricing_plan_id":"cebpf4jnsgd1na2vs0mg"},{"bike_id":"519226f1-5c42-4ada-bc31-ddae4409cb52","system_id":"levelo_inurba_marseille","lat":43.31999,"lon":5.38143,"is_reserved":false,"is_disabled":false,"rental_uris":{"android":"levelo://app?vid=519226f1-5c42-4ada-bc31-ddae4409cb52","ios":"levelo://app?vid=519226f1-5c42-4ada-bc31-ddae4409cb52"},"vehicle_type_id":"4","last_reported":1740136086,"current_range_meters":17200,"station_id":"ce4bhr12rcd13ifvqhpg","pricing_plan_id":"cebpf4jnsgd1na2vs0mg"},{"bike_id":"35331f57-b06c-41f1-8224-4eb3668702eb","system_id":"levelo_inurba_marseille","lat":43.23067,"lon":5.35481,"is_reserved":false,"is_disabled":false,"rental_uris":{"android":"levelo://app?vid=35331f57-b06c-41f1-8224-4eb3668702eb","ios":"levelo://app?vid=35331f57-b06c-41f1-8224-4eb3668702eb"},"vehicle_type_id":"4","last_reported":1740136086,"current_range_meters":17200,"station_id":"cpo3342slgdg3j2ifvpg","pricing_plan_id":"cebpf4jnsgd1na2vs0mg"},{"bike_id":"74737b82-f4b2-4f32-af49-0fafdab44b40","system_id":"levelo_inurba_marseille","lat":43.26787,"lon":5.394156,"is_reserved":false,"is_disabled":false,"rental_uris":{"android":"levelo://app?vid=74737b82-f4b2-4f32-af49-0fafdab44b40","ios":"levelo://app?vid=74737b82-f4b2-4f32-af49-0fafdab44b40"},"vehicle_type_id":"4","last_reported":1740136086,"current_range_meters":17600,"station_id":"ce4bho12rcd13ifvqh2g","pricing_plan_id":"cebpf4jnsgd1na2vs0mg"},{"bike_id":"2f1a4110-f8a2-48ac-badb-fd29e7276179","system_id":"levelo_inurba_marseille","lat":43.30456,"lon":5.37905,"is_reserved":false,"is_disabled":false,"rental_uris":{"android":"levelo://app?vid=2f1a4110-f8a2-48ac-badb-fd29e7276179","ios":"levelo://app?vid=2f1a4110-f8a2-48ac-badb-fd29e7276179"},"vehicle_type_id":"4","last_reported":1740136086,"current_range_meters":17600,"station_id":"ce4bgup2rcd13ifvqcn0","pricing_plan_id":"cebpf4jnsgd1na2vs0mg"},{"bike_id":"73db42ac-8d37-4cd6-97d2-0998f93eba33","system_id":"levelo_inurba_marseille","lat":43.29561,"lon":5.37521,"is_reserved":false,"is_disabled":false,"rental_uris":{"android":"levelo://app?vid=73db42ac-8d37-4cd6-97d2-0998f93eba33","ios":"levelo://app?vid=73db42ac-8d37-4cd6-97d2-0998f93eba33"},"vehicle_type_id":"4","last_reported":1740136086,"current_range_meters":17600,"station_id":"ce4bgh92rcd13ifvqb50","pricing_plan_id":"cebpf4jnsgd1na2vs0mg"},{"bike_id":"e97c492f-72f7-4a18-84ad-42abe478baa9","system_id":"levelo_inurba_marseille","lat":43.25247,"lon":5.38614,"is_reserved":false,"is_disabled":false,"rental_uris":{"android":"levelo://app?vid=e97c492f-72f7-4a18-84ad-42abe478baa9","ios":"levelo://app?vid=e97c492f-72f7-4a18-84ad-42abe478baa9"},"vehicle_type_id":"4","last_reported":1740136086,"current_range_meters":17600,"station_id":"ce4bhlp2rcd13ifvqgjg","pricing_plan_id":"cebpf4jnsgd1na2vs0mg"},{"bike_id":"bad5beda-7e14-4c52-9685-bc6d72d159de","system_id":"levelo_inurba_marseille","lat":43.3012,"lon":5.39854,"is_reserved":false,"is_disabled":false,"rental_uris":{"android":"levelo://app?vid=bad5beda-7e14-4c52-9685-bc6d72d159de","ios":"levelo://app?vid=bad5beda-7e14-4c52-9685-bc6d72d159de"},"vehicle_type_id":"4","last_reported":1740136086,"current_range_meters":17600,"station_id":"ce4bh0h2rcd13ifvqd40","pricing_plan_id":"cebpf4jnsgd1na2vs0mg"},{"bike_id":"b66e04eb-e32c-4b17-94b8-5ced5b18cea6","system_id":"levelo_inurba_marseille","lat":43.298403,"lon":5.362693,"is_reserved":false,"is_disabled":false,"rental_uris":{"android":"levelo://app?vid=b66e04eb-e32c-4b17-94b8-5ced5b18cea6","ios":"levelo://app?vid=b66e04eb-e32c-4b17-94b8-5ced5b18cea6"},"vehicle_type_id":"4","last_reported":1740136086,"current_range_meters":17600,"station_id":"ce4bhbp2rcd13ifvqerg","pricing_plan_id":"cebpf4jnsgd1na2vs0mg"},{"bike_id":"e776853d-0662-466e-b6c8-aece83517590","system_id":"levelo_inurba_marseille","lat":43.2407,"lon":5.37763,"is_reserved":false,"is_disabled":false,"rental_uris":{"android":"levelo://app?vid=e776853d-0662-466e-b6c8-aece83517590","ios":"levelo://app?vid=e776853d-0662-466e-b6c8-aece83517590"},"vehicle_type_id":"4","last_reported":1740136086,"current_range_meters":18000,"station_id":"","pricing_plan_id":"cebpf4jnsgd1na2vs0mg"},{"bike_id":"0b35ef10-1d1d-4e8a-949e-c3122c5e3874","system_id":"levelo_inurba_marseille","lat":43.239564,"lon":5.366265,"is_reserved":false,"is_disabled":false,"rental_uris":{"android":"levelo://app?vid=0b35ef10-1d1d-4e8a-949e-c3122c5e3874","ios":"levelo://app?vid=0b35ef10-1d1d-4e8a-949e-c3122c5e3874"},"vehicle_type_id":"4","last_reported":1740136086,"current_range_meters":18000,"station_id":"ce4bhi12rcd13ifvqfp0","pricing_plan_id":"cebpf4jnsgd1na2vs0mg"},{"bike_id":"0fda5a08-e86c-49a0-86f8-dab925e4c5e7","system_id":"levelo_inurba_marseille","lat":43.27617,"lon":5.36107,"is_reserved":false,"is_disabled":false,"rental_uris":{"android":"levelo://app?vid=0fda5a08-e86c-49a0-86f8-dab925e4c5e7","ios":"levelo://app?vid=0fda5a08-e86c-49a0-86f8-dab925e4c5e7"},"vehicle_type_id":"4","last_reported":1740136086,"current_range_meters":18000,"station_id":"","pricing_plan_id":"cebpf4jnsgd1na2vs0mg"},{"bike_id":"33696121-39e1-4240-8e76-b5f69908c503","system_id":"levelo_inurba_marseille","lat":43.27317,"lon":5.39116,"is_reserved":false,"is_disabled":false,"rental_uris":{"android":"levelo://app?vid=33696121-39e1-4240-8e76-b5f69908c503","ios":"levelo://app?vid=33696121-39e1-4240-8e76-b5f69908c503"},"vehicle_type_id":"4","last_reported":1740136086,"current_range_meters":18000,"station_id":"ce4bhgp2rcd13ifvqfe0","pricing_plan_id":"cebpf4jnsgd1na2vs0mg"},{"bike_id":"d11825b8-23fc-47b2-84b9-7b315e040508","system_id":"levelo_inurba_marseille","lat":43.30315,"lon":5.36889,"is_reserved":false,"is_disabled":false,"rental_uris":{"android":"levelo://app?vid=d11825b8-23fc-47b2-84b9-7b315e040508","ios":"levelo://app?vid=d11825b8-23fc-47b2-84b9-7b315e040508"},"vehicle_type_id":"4","last_reported":1740136086,"current_range_meters":18800,"station_id":"ce4bgqh2rcd13ifvqc5g","pricing_plan_id":"cebpf4jnsgd1na2vs0mg"},{"bike_id":"7c8f3d05-5401-4545-847e-9fcee9ea83d5","system_id":"levelo_inurba_marseille","lat":43.26572,"lon":5.39872,"is_reserved":false,"is_disabled":false,"rental_uris":{"android":"levelo://app?vid=7c8f3d05-5401-4545-847e-9fcee9ea83d5","ios":"levelo://app?vid=7c8f3d05-5401-4545-847e-9fcee9ea83d5"},"vehicle_type_id":"4","last_reported":1740136086,"current_range_meters":18800,"station_id":"","pricing_plan_id":"cebpf4jnsgd1na2vs0mg"},{"bike_id":"dbf77936-3d95-4b2b-9e33-d60d28c207cd","system_id":"levelo_inurba_marseille","lat":43.337444,"lon":5.374475,"is_reserved":false,"is_disabled":false,"rental_uris":{"android":"levelo://app?vid=dbf77936-3d95-4b2b-9e33-d60d28c207cd","ios":"levelo://app?vid=dbf77936-3d95-4b2b-9e33-d60d28c207cd"},"vehicle_type_id":"4","last_reported":1740136086,"current_range_meters":18800,"station_id":"","pricing_plan_id":"cebpf4jnsgd1na2vs0mg"},{"bike_id":"39940612-fe23-4001-9207-6b95c3963a35","system_id":"levelo_inurba_marseille","lat":43.27184,"lon":5.40979,"is_reserved":false,"is_disabled":false,"rental_uris":{"android":"levelo://app?vid=39940612-fe23-4001-9207-6b95c3963a35","ios":"levelo://app?vid=39940612-fe23-4001-9207-6b95c3963a35"},"vehicle_type_id":"4","last_reported":1740136086,"current_range_meters":18800,"station_id":"ce4bhl12rcd13ifvqgf0","pricing_plan_id":"cebpf4jnsgd1na2vs0mg"},{"bike_id":"36400c0c-bbf6-4f43-a26d-5528c3a027a2","system_id":"levelo_inurba_marseille","lat":43.298468,"lon":5.362852,"is_reserved":false,"is_disabled":false,"rental_uris":{"android":"levelo://app?vid=36400c0c-bbf6-4f43-a26d-5528c3a027a2","ios":"levelo://app?vid=36400c0c-bbf6-4f43-a26d-5528c3a027a2"},"vehicle_type_id":"4","last_reported":1740136086,"current_range_meters":18000,"station_id":"ce4bgpp2rcd13ifvqc3g","pricing_plan_id":"cebpf4jnsgd1na2vs0mg"},{"bike_id":"1a29a9b1-916e-4504-ac8f-d70a26d335c2","system_id":"levelo_inurba_marseille","lat":43.27992,"lon":5.4002,"is_reserved":false,"is_disabled":false,"rental_uris":{"android":"levelo://app?vid=1a29a9b1-916e-4504-ac8f-d70a26d335c2","ios":"levelo://app?vid=1a29a9b1-916e-4504-ac8f-d70a26d335c2"},"vehicle_type_id":"4","last_reported":1740136086,"current_range_meters":18800,"station_id":"ce4bho92rcd13ifvqh4g","pricing_plan_id":"cebpf4jnsgd1na2vs0mg"},{"bike_id":"92bd76ce-ce31-42d0-9687-90e68ee5b087","system_id":"levelo_inurba_marseille","lat":43.30267,"lon":5.40049,"is_reserved":false,"is_disabled":false,"rental_uris":{"android":"levelo://app?vid=92bd76ce-ce31-42d0-9687-90e68ee5b087","ios":"levelo://app?vid=92bd76ce-ce31-42d0-9687-90e68ee5b087"},"vehicle_type_id":"4","last_reported":1740136086,"current_range_meters":19200,"station_id":"ce4bgvh2rcd13ifvqcs0","pricing_plan_id":"cebpf4jnsgd1na2vs0mg"},{"bike_id":"6afdc8bf-2502-41d9-8133-018b65809a9a","system_id":"levelo_inurba_marseille","lat":43.27821,"lon":5.4073,"is_reserved":false,"is_disabled":false,"rental_uris":{"android":"levelo://app?vid=6afdc8bf-2502-41d9-8133-018b65809a9a","ios":"levelo://app?vid=6afdc8bf-2502-41d9-8133-018b65809a9a"},"vehicle_type_id":"4","last_reported":1740136086,"current_range_meters":19200,"station_id":"ce4bhnh2rcd13ifvqgtg","pricing_plan_id":"cebpf4jnsgd1na2vs0mg"},{"bike_id":"0f910bff-014d-4866-9d84-26e3f822630a","system_id":"levelo_inurba_marseille","lat":43.29677,"lon":5.37715,"is_reserved":false,"is_disabled":false,"rental_uris":{"android":"levelo://app?vid=0f910bff-014d-4866-9d84-26e3f822630a","ios":"levelo://app?vid=0f910bff-014d-4866-9d84-26e3f822630a"},"vehicle_type_id":"4","last_reported":1740136086,"current_range_meters":19200,"station_id":"ce4bgkh2rcd13ifvqbl0","pricing_plan_id":"cebpf4jnsgd1na2vs0mg"},{"bike_id":"648d35dd-bc76-4921-b979-b83d8b644d07","system_id":"levelo_inurba_marseille","lat":43.279,"lon":5.38018,"is_reserved":false,"is_disabled":false,"rental_uris":{"android":"levelo://app?vid=648d35dd-bc76-4921-b979-b83d8b644d07","ios":"levelo://app?vid=648d35dd-bc76-4921-b979-b83d8b644d07"},"vehicle_type_id":"4","last_reported":1740136086,"current_range_meters":19200,"station_id":"ce4bhf92rcd13ifvqf50","pricing_plan_id":"cebpf4jnsgd1na2vs0mg"},{"bike_id":"d8641aa9-8129-4fd8-a343-932779154079","system_id":"levelo_inurba_marseille","lat":43.28085,"lon":5.35231,"is_reserved":false,"is_disabled":false,"rental_uris":{"android":"levelo://app?vid=d8641aa9-8129-4fd8-a343-932779154079","ios":"levelo://app?vid=d8641aa9-8129-4fd8-a343-932779154079"},"vehicle_type_id":"4","last_reported":1740136086,"current_range_meters":19200,"station_id":"","pricing_plan_id":"cebpf4jnsgd1na2vs0mg"},{"bike_id":"574ca673-2e52-4562-b630-0e1220ae6e31","system_id":"levelo_inurba_marseille","lat":43.30281,"lon":5.37687,"is_reserved":false,"is_disabled":false,"rental_uris":{"android":"levelo://app?vid=574ca673-2e52-4562-b630-0e1220ae6e31","ios":"levelo://app?vid=574ca673-2e52-4562-b630-0e1220ae6e31"},"vehicle_type_id":"4","last_reported":1740136086,"current_range_meters":19200,"station_id":"ce4bguh2rcd13ifvqcj0","pricing_plan_id":"cebpf4jnsgd1na2vs0mg"},{"bike_id":"afb5b0df-aa6a-4a0f-b560-f954b8e0b31f","system_id":"levelo_inurba_marseille","lat":43.25831,"lon":5.39434,"is_reserved":false,"is_disabled":false,"rental_uris":{"android":"levelo://app?vid=afb5b0df-aa6a-4a0f-b560-f954b8e0b31f","ios":"levelo://app?vid=afb5b0df-aa6a-4a0f-b560-f954b8e0b31f"},"vehicle_type_id":"4","last_reported":1740136086,"current_range_meters":19200,"station_id":"ce4bhip2rcd13ifvqft0","pricing_plan_id":"cebpf4jnsgd1na2vs0mg"},{"bike_id":"46bfb48e-1bd6-4675-8665-fe5c6b1cdb8e","system_id":"levelo_inurba_marseille","lat":43.25108,"lon":5.4033,"is_reserved":false,"is_disabled":false,"rental_uris":{"android":"levelo://app?vid=46bfb48e-1bd6-4675-8665-fe5c6b1cdb8e","ios":"levelo://app?vid=46bfb48e-1bd6-4675-8665-fe5c6b1cdb8e"},"vehicle_type_id":"4","last_reported":1740136086,"current_range_meters":19600,"station_id":"","pricing_plan_id":"cebpf4jnsgd1na2vs0mg"},{"bike_id":"e6f40cbd-265d-4568-97a6-8d3f5b1c12cb","system_id":"levelo_inurba_marseille","lat":43.2306,"lon":5.355,"is_reserved":false,"is_disabled":false,"rental_uris":{"android":"levelo://app?vid=e6f40cbd-265d-4568-97a6-8d3f5b1c12cb","ios":"levelo://app?vid=e6f40cbd-265d-4568-97a6-8d3f5b1c12cb"},"vehicle_type_id":"4","last_reported":1740136086,"current_range_meters":19600,"station_id":"cpo3342slgdg3j2ifvpg","pricing_plan_id":"cebpf4jnsgd1na2vs0mg"},{"bike_id":"467a0ac7-872c-4bb6-8ee3-3c6f458a51d9","system_id":"levelo_inurba_marseille","lat":43.27954,"lon":5.41236,"is_reserved":false,"is_disabled":false,"rental_uris":{"android":"levelo://app?vid=467a0ac7-872c-4bb6-8ee3-3c6f458a51d9","ios":"levelo://app?vid=467a0ac7-872c-4bb6-8ee3-3c6f458a51d9"},"vehicle_type_id":"4","last_reported":1740136086,"current_range_meters":19600,"station_id":"","pricing_plan_id":"cebpf4jnsgd1na2vs0mg"},{"bike_id":"ecb792ba-e590-4d62-97cc-1e9b429064df","system_id":"levelo_inurba_marseille","lat":43.25002,"lon":5.38917,"is_reserved":false,"is_disabled":false,"rental_uris":{"android":"levelo://app?vid=ecb792ba-e590-4d62-97cc-1e9b429064df","ios":"levelo://app?vid=ecb792ba-e590-4d62-97cc-1e9b429064df"},"vehicle_type_id":"4","last_reported":1740136086,"current_range_meters":19600,"station_id":"ce4bhgp2rcd13ifvqfd0","pricing_plan_id":"cebpf4jnsgd1na2vs0mg"},{"bike_id":"dac81839-53e1-4cda-a0e4-4f4fac8013a4","system_id":"levelo_inurba_marseille","lat":43.2901,"lon":5.35611,"is_reserved":false,"is_disabled":false,"rental_uris":{"android":"levelo://app?vid=dac81839-53e1-4cda-a0e4-4f4fac8013a4","ios":"levelo://app?vid=dac81839-53e1-4cda-a0e4-4f4fac8013a4"},"vehicle_type_id":"4","last_reported":1740136086,"current_range_meters":19600,"station_id":"ce4bhb92rcd13ifvqen0","pricing_plan_id":"cebpf4jnsgd1na2vs0mg"},{"bike_id":"9eb76a76-4d91-4fa9-8be0-964eb6834628","system_id":"levelo_inurba_marseille","lat":43.29567,"lon":5.42276,"is_reserved":false,"is_disabled":false,"rental_uris":{"android":"levelo://app?vid=9eb76a76-4d91-4fa9-8be0-964eb6834628","ios":"levelo://app?vid=9eb76a76-4d91-4fa9-8be0-964eb6834628"},"vehicle_type_id":"4","last_reported":1740136086,"current_range_meters":19600,"station_id":"ce4bhph2rcd13ifvqhdg","pricing_plan_id":"cebpf4jnsgd1na2vs0mg"},{"bike_id":"dab960d9-1ede-46dd-ade3-a5360c9021cf","system_id":"levelo_inurba_marseille","lat":43.2319,"lon":5.35562,"is_reserved":false,"is_disabled":false,"rental_uris":{"android":"levelo://app?vid=dab960d9-1ede-46dd-ade3-a5360c9021cf","ios":"levelo://app?vid=dab960d9-1ede-46dd-ade3-a5360c9021cf"},"vehicle_type_id":"4","last_reported":1740136086,"current_range_meters":19600,"station_id":"ce4bhu92rcd13ifvqi70","pricing_plan_id":"cebpf4jnsgd1na2vs0mg"},{"bike_id":"4d8a26e5-8617-425b-92ac-4fc969f57842","system_id":"levelo_inurba_marseille","lat":43.33739,"lon":5.3919,"is_reserved":false,"is_disabled":false,"rental_uris":{"android":"levelo://app?vid=4d8a26e5-8617-425b-92ac-4fc969f57842","ios":"levelo://app?vid=4d8a26e5-8617-425b-92ac-4fc969f57842"},"vehicle_type_id":"4","last_reported":1740136086,"current_range_meters":19600,"station_id":"ce4bhr92rcd13ifvqhsg","pricing_plan_id":"cebpf4jnsgd1na2vs0mg"},{"bike_id":"3fd77a94-3c88-4191-a1d0-f971d9c34746","system_id":"levelo_inurba_marseille","lat":43.26211,"lon":5.37439,"is_reserved":false,"is_disabled":false,"rental_uris":{"android":"levelo://app?vid=3fd77a94-3c88-4191-a1d0-f971d9c34746","ios":"levelo://app?vid=3fd77a94-3c88-4191-a1d0-f971d9c34746"},"vehicle_type_id":"4","last_reported":1740136086,"current_range_meters":19600,"station_id":"ce4bhgp2rcd13ifvqfc0","pricing_plan_id":"cebpf4jnsgd1na2vs0mg"},{"bike_id":"330d64ce-5713-4328-9727-7f6f0bc2e963","system_id":"levelo_inurba_marseille","lat":43.24074,"lon":5.37735,"is_reserved":false,"is_disabled":false,"rental_uris":{"android":"levelo://app?vid=330d64ce-5713-4328-9727-7f6f0bc2e963","ios":"levelo://app?vid=330d64ce-5713-4328-9727-7f6f0bc2e963"},"vehicle_type_id":"4","last_reported":1740136086,"current_range_meters":19600,"station_id":"ce4bhnp2rcd13ifvqgvg","pricing_plan_id":"cebpf4jnsgd1na2vs0mg"},{"bike_id":"84e364eb-0bd3-4a3c-8233-6ea88f117d5c","system_id":"levelo_inurba_marseille","lat":43.30138,"lon":5.38091,"is_reserved":false,"is_disabled":false,"rental_uris":{"android":"levelo://app?vid=84e364eb-0bd3-4a3c-8233-6ea88f117d5c","ios":"levelo://app?vid=84e364eb-0bd3-4a3c-8233-6ea88f117d5c"},"vehicle_type_id":"4","last_reported":1740136086,"current_range_meters":19600,"station_id":"ce4bgjp2rcd13ifvqbh0","pricing_plan_id":"cebpf4jnsgd1na2vs0mg"},{"bike_id":"af04c52e-64bc-4b40-9c5d-f4b0968fc255","system_id":"levelo_inurba_marseille","lat":43.24099,"lon":5.37737,"is_reserved":false,"is_disabled":false,"rental_uris":{"android":"levelo://app?vid=af04c52e-64bc-4b40-9c5d-f4b0968fc255","ios":"levelo://app?vid=af04c52e-64bc-4b40-9c5d-f4b0968fc255"},"vehicle_type_id":"4","last_reported":1740136086,"current_range_meters":19600,"station_id":"ce4bhnp2rcd13ifvqgvg","pricing_plan_id":"cebpf4jnsgd1na2vs0mg"},{"bike_id":"e507a6c6-913b-4b6d-9598-299b4f05a641","system_id":"levelo_inurba_marseille","lat":43.29902,"lon":5.37478,"is_reserved":false,"is_disabled":false,"rental_uris":{"android":"levelo://app?vid=e507a6c6-913b-4b6d-9598-299b4f05a641","ios":"levelo://app?vid=e507a6c6-913b-4b6d-9598-299b4f05a641"},"vehicle_type_id":"4","last_reported":1740136086,"current_range_meters":19600,"station_id":"ce4bgjh2rcd13ifvqbg0","pricing_plan_id":"cebpf4jnsgd1na2vs0mg"},{"bike_id":"a8980d0a-0287-4f56-a6f1-232182caf3dd","system_id":"levelo_inurba_marseille","lat":43.28616,"lon":5.35106,"is_reserved":false,"is_disabled":false,"rental_uris":{"android":"levelo://app?vid=a8980d0a-0287-4f56-a6f1-232182caf3dd","ios":"levelo://app?vid=a8980d0a-0287-4f56-a6f1-232182caf3dd"},"vehicle_type_id":"4","last_reported":1740136086,"current_range_meters":20000,"station_id":"ce4bhch2rcd13ifvqeug","pricing_plan_id":"cebpf4jnsgd1na2vs0mg"},{"bike_id":"ba0bce3c-2f0f-4319-a7aa-4f3727bd81ea","system_id":"levelo_inurba_marseille","lat":43.32107,"lon":5.36782,"is_reserved":false,"is_disabled":false,"rental_uris":{"android":"levelo://app?vid=ba0bce3c-2f0f-4319-a7aa-4f3727bd81ea","ios":"levelo://app?vid=ba0bce3c-2f0f-4319-a7aa-4f3727bd81ea"},"vehicle_type_id":"4","last_reported":1740136086,"current_range_meters":20000,"station_id":"ce4bhrh2rcd13ifvqhug","pricing_plan_id":"cebpf4jnsgd1na2vs0mg"},{"bike_id":"66839306-6e2f-4071-b703-b181f60a9c55","system_id":"levelo_inurba_marseille","lat":43.30951,"lon":5.3905,"is_reserved":false,"is_disabled":false,"rental_uris":{"android":"levelo://app?vid=66839306-6e2f-4071-b703-b181f60a9c55","ios":"levelo://app?vid=66839306-6e2f-4071-b703-b181f60a9c55"},"vehicle_type_id":"4","last_reported":1740136086,"current_range_meters":20000,"station_id":"ce4bgup2rcd13ifvqco0","pricing_plan_id":"cebpf4jnsgd1na2vs0mg"},{"bike_id":"d5566d2e-78e8-488f-b3e7-c9c338cd491f","system_id":"levelo_inurba_marseille","lat":43.27482,"lon":5.42461,"is_reserved":false,"is_disabled":false,"rental_uris":{"android":"levelo://app?vid=d5566d2e-78e8-488f-b3e7-c9c338cd491f","ios":"levelo://app?vid=d5566d2e-78e8-488f-b3e7-c9c338cd491f"},"vehicle_type_id":"4","last_reported":1740136086,"current_range_meters":20000,"station_id":"ce4bhn92rcd13ifvqgrg","pricing_plan_id":"cebpf4jnsgd1na2vs0mg"},{"bike_id":"088f442f-c534-4bb3-8df4-ecc0208160c2","system_id":"levelo_inurba_marseille","lat":43.28698,"lon":5.3997,"is_reserved":false,"is_disabled":false,"rental_uris":{"android":"levelo://app?vid=088f442f-c534-4bb3-8df4-ecc0208160c2","ios":"levelo://app?vid=088f442f-c534-4bb3-8df4-ecc0208160c2"},"vehicle_type_id":"4","last_reported":1740136086,"current_range_meters":20000,"station_id":"ce4bho92rcd13ifvqh3g","pricing_plan_id":"cebpf4jnsgd1na2vs0mg"},{"bike_id":"1deaa002-5243-48d8-8779-82891264a102","system_id":"levelo_inurba_marseille","lat":43.24802,"lon":5.37462,"is_reserved":false,"is_disabled":false,"rental_uris":{"android":"levelo://app?vid=1deaa002-5243-48d8-8779-82891264a102","ios":"levelo://app?vid=1deaa002-5243-48d8-8779-82891264a102"},"vehicle_type_id":"4","last_reported":1740136086,"current_range_meters":20000,"station_id":"ce4bhgh2rcd13ifvqfb0","pricing_plan_id":"cebpf4jnsgd1na2vs0mg"},{"bike_id":"5d71be34-7b6f-4978-a770-c4929f77e0e7","system_id":"levelo_inurba_marseille","lat":43.25109,"lon":5.40324,"is_reserved":false,"is_disabled":false,"rental_uris":{"android":"levelo://app?vid=5d71be34-7b6f-4978-a770-c4929f77e0e7","ios":"levelo://app?vid=5d71be34-7b6f-4978-a770-c4929f77e0e7"},"vehicle_type_id":"4","last_reported":1740136086,"current_range_meters":20000,"station_id":"ce4bhlh2rcd13ifvqgig","pricing_plan_id":"cebpf4jnsgd1na2vs0mg"},{"bike_id":"bd73b3b6-c7a4-472b-b1a8-5df32becdb0d","system_id":"levelo_inurba_marseille","lat":43.29611,"lon":5.37729,"is_reserved":false,"is_disabled":false,"rental_uris":{"android":"levelo://app?vid=bd73b3b6-c7a4-472b-b1a8-5df32becdb0d","ios":"levelo://app?vid=bd73b3b6-c7a4-472b-b1a8-5df32becdb0d"},"vehicle_type_id":"4","last_reported":1740136086,"current_range_meters":20000,"station_id":"ce4bgi92rcd13ifvqb90","pricing_plan_id":"cebpf4jnsgd1na2vs0mg"},{"bike_id":"0daab1db-2adc-48c2-abb5-f1105e2f1c15","system_id":"levelo_inurba_marseille","lat":43.337444,"lon":5.374475,"is_reserved":false,"is_disabled":true,"rental_uris":{"android":"levelo://app?vid=0daab1db-2adc-48c2-abb5-f1105e2f1c15","ios":"levelo://app?vid=0daab1db-2adc-48c2-abb5-f1105e2f1c15"},"vehicle_type_id":"4","last_reported":1740136086,"current_range_meters":20400,"station_id":"","pricing_plan_id":"cebpf4jnsgd1na2vs0mg"},{"bike_id":"8b52c24a-60e9-4f95-8f6d-a404db75239c","system_id":"levelo_inurba_marseille","lat":43.27378,"lon":5.3625,"is_reserved":false,"is_disabled":false,"rental_uris":{"android":"levelo://app?vid=8b52c24a-60e9-4f95-8f6d-a404db75239c","ios":"levelo://app?vid=8b52c24a-60e9-4f95-8f6d-a404db75239c"},"vehicle_type_id":"4","last_reported":1740136086,"current_range_meters":20400,"station_id":"ce4bhbh2rcd13ifvqeo0","pricing_plan_id":"cebpf4jnsgd1na2vs0mg"},{"bike_id":"e63cbd10-cd77-4ed0-a39a-9be005a5c0e8","system_id":"levelo_inurba_marseille","lat":43.33609,"lon":5.41026,"is_reserved":false,"is_disabled":false,"rental_uris":{"android":"levelo://app?vid=e63cbd10-cd77-4ed0-a39a-9be005a5c0e8","ios":"levelo://app?vid=e63cbd10-cd77-4ed0-a39a-9be005a5c0e8"},"vehicle_type_id":"4","last_reported":1740136086,"current_range_meters":20400,"station_id":"ce4bhqh2rcd13ifvqhmg","pricing_plan_id":"cebpf4jnsgd1na2vs0mg"},{"bike_id":"364f3e51-fd29-4ae7-837e-e9b95d49470c","system_id":"levelo_inurba_marseille","lat":43.3015,"lon":5.38091,"is_reserved":false,"is_disabled":false,"rental_uris":{"android":"levelo://app?vid=364f3e51-fd29-4ae7-837e-e9b95d49470c","ios":"levelo://app?vid=364f3e51-fd29-4ae7-837e-e9b95d49470c"},"vehicle_type_id":"4","last_reported":1740136086,"current_range_meters":20400,"station_id":"ce4bgjp2rcd13ifvqbh0","pricing_plan_id":"cebpf4jnsgd1na2vs0mg"},{"bike_id":"8c20ab15-f04e-4e58-be71-0abf1d05d250","system_id":"levelo_inurba_marseille","lat":43.23956,"lon":5.36632,"is_reserved":false,"is_disabled":false,"rental_uris":{"android":"levelo://app?vid=8c20ab15-f04e-4e58-be71-0abf1d05d250","ios":"levelo://app?vid=8c20ab15-f04e-4e58-be71-0abf1d05d250"},"vehicle_type_id":"4","last_reported":1740136086,"current_range_meters":20400,"station_id":"ce4bhi12rcd13ifvqfp0","pricing_plan_id":"cebpf4jnsgd1na2vs0mg"},{"bike_id":"5551f3c2-9160-4844-8615-be58fb828ca9","system_id":"levelo_inurba_marseille","lat":43.26223,"lon":5.40444,"is_reserved":false,"is_disabled":false,"rental_uris":{"android":"levelo://app?vid=5551f3c2-9160-4844-8615-be58fb828ca9","ios":"levelo://app?vid=5551f3c2-9160-4844-8615-be58fb828ca9"},"vehicle_type_id":"4","last_reported":1740136086,"current_range_meters":20400,"station_id":"ce4bhmh2rcd13ifvqgmg","pricing_plan_id":"cebpf4jnsgd1na2vs0mg"},{"bike_id":"38f9bc40-639e-4f64-87e9-15092cc7344e","system_id":"levelo_inurba_marseille","lat":43.34418,"lon":5.38155,"is_reserved":false,"is_disabled":false,"rental_uris":{"android":"levelo://app?vid=38f9bc40-639e-4f64-87e9-15092cc7344e","ios":"levelo://app?vid=38f9bc40-639e-4f64-87e9-15092cc7344e"},"vehicle_type_id":"4","last_reported":1740136086,"current_range_meters":20400,"station_id":"","pricing_plan_id":"cebpf4jnsgd1na2vs0mg"},{"bike_id":"ab46b189-6bae-4129-a7fd-10b3ccd5a48e","system_id":"levelo_inurba_marseille","lat":43.27203,"lon":5.4001,"is_reserved":false,"is_disabled":false,"rental_uris":{"android":"levelo://app?vid=ab46b189-6bae-4129-a7fd-10b3ccd5a48e","ios":"levelo://app?vid=ab46b189-6bae-4129-a7fd-10b3ccd5a48e"},"vehicle_type_id":"4","last_reported":1740136086,"current_range_meters":20400,"station_id":"","pricing_plan_id":"cebpf4jnsgd1na2vs0mg"},{"bike_id":"df97eaf1-00f5-402b-8081-743483997707","system_id":"levelo_inurba_marseille","lat":43.31485,"lon":5.37309,"is_reserved":false,"is_disabled":false,"rental_uris":{"android":"levelo://app?vid=df97eaf1-00f5-402b-8081-743483997707","ios":"levelo://app?vid=df97eaf1-00f5-402b-8081-743483997707"},"vehicle_type_id":"4","last_reported":1740136086,"current_range_meters":20400,"station_id":"ce4bgt12rcd13ifvqcd0","pricing_plan_id":"cebpf4jnsgd1na2vs0mg"},{"bike_id":"141c1c4a-b159-4e45-a75c-360c6e051ad9","system_id":"levelo_inurba_marseille","lat":43.29876,"lon":5.39746,"is_reserved":false,"is_disabled":false,"rental_uris":{"android":"levelo://app?vid=141c1c4a-b159-4e45-a75c-360c6e051ad9","ios":"levelo://app?vid=141c1c4a-b159-4e45-a75c-360c6e051ad9"},"vehicle_type_id":"4","last_reported":1740136086,"current_range_meters":20400,"station_id":"ce4bh0h2rcd13ifvqd50","pricing_plan_id":"cebpf4jnsgd1na2vs0mg"},{"bike_id":"6897935d-90c4-4aaa-81bd-a334d1112cb3","system_id":"levelo_inurba_marseille","lat":43.24684,"lon":5.38171,"is_reserved":false,"is_disabled":false,"rental_uris":{"android":"levelo://app?vid=6897935d-90c4-4aaa-81bd-a334d1112cb3","ios":"levelo://app?vid=6897935d-90c4-4aaa-81bd-a334d1112cb3"},"vehicle_type_id":"4","last_reported":1740136086,"current_range_meters":20800,"station_id":"ce4bhih2rcd13ifvqfr0","pricing_plan_id":"cebpf4jnsgd1na2vs0mg"},{"bike_id":"8aadb2f9-c764-4f67-91cc-8b767f8f31b6","system_id":"levelo_inurba_marseille","lat":43.26808,"lon":5.40257,"is_reserved":false,"is_disabled":false,"rental_uris":{"android":"levelo://app?vid=8aadb2f9-c764-4f67-91cc-8b767f8f31b6","ios":"levelo://app?vid=8aadb2f9-c764-4f67-91cc-8b767f8f31b6"},"vehicle_type_id":"4","last_reported":1740136086,"current_range_meters":20800,"station_id":"ce501612rcd8frsf0b60","pricing_plan_id":"cebpf4jnsgd1na2vs0mg"},{"bike_id":"3c1cb79f-aaf5-462d-8b1f-bdb14c92805b","system_id":"levelo_inurba_marseille","lat":43.27844,"lon":5.40721,"is_reserved":false,"is_disabled":false,"rental_uris":{"android":"levelo://app?vid=3c1cb79f-aaf5-462d-8b1f-bdb14c92805b","ios":"levelo://app?vid=3c1cb79f-aaf5-462d-8b1f-bdb14c92805b"},"vehicle_type_id":"4","last_reported":1740136086,"current_range_meters":20800,"station_id":"ce4bhnh2rcd13ifvqgtg","pricing_plan_id":"cebpf4jnsgd1na2vs0mg"},{"bike_id":"72d27ecd-2d6d-4c04-a1c6-e315b1d841e4","system_id":"levelo_inurba_marseille","lat":43.30067,"lon":5.39084,"is_reserved":false,"is_disabled":false,"rental_uris":{"android":"levelo://app?vid=72d27ecd-2d6d-4c04-a1c6-e315b1d841e4","ios":"levelo://app?vid=72d27ecd-2d6d-4c04-a1c6-e315b1d841e4"},"vehicle_type_id":"4","last_reported":1740136086,"current_range_meters":20800,"station_id":"ce4bh192rcd13ifvqdb0","pricing_plan_id":"cebpf4jnsgd1na2vs0mg"},{"bike_id":"709ac384-e595-4e64-89e3-d5343191236c","system_id":"levelo_inurba_marseille","lat":43.27808,"lon":5.40715,"is_reserved":false,"is_disabled":false,"rental_uris":{"android":"levelo://app?vid=709ac384-e595-4e64-89e3-d5343191236c","ios":"levelo://app?vid=709ac384-e595-4e64-89e3-d5343191236c"},"vehicle_type_id":"4","last_reported":1740136086,"current_range_meters":20800,"station_id":"ce4bhnh2rcd13ifvqgtg","pricing_plan_id":"cebpf4jnsgd1na2vs0mg"},{"bike_id":"522deade-2596-4a48-b761-5ad7b70093cd","system_id":"levelo_inurba_marseille","lat":43.23957,"lon":5.36627,"is_reserved":false,"is_disabled":false,"rental_uris":{"android":"levelo://app?vid=522deade-2596-4a48-b761-5ad7b70093cd","ios":"levelo://app?vid=522deade-2596-4a48-b761-5ad7b70093cd"},"vehicle_type_id":"4","last_reported":1740136086,"current_range_meters":20800,"station_id":"ce4bhi12rcd13ifvqfp0","pricing_plan_id":"cebpf4jnsgd1na2vs0mg"},{"bike_id":"3307539e-16e5-457c-9daf-1311bdad1b6a","system_id":"levelo_inurba_marseille","lat":43.299,"lon":5.43675,"is_reserved":false,"is_disabled":false,"rental_uris":{"android":"levelo://app?vid=3307539e-16e5-457c-9daf-1311bdad1b6a","ios":"levelo://app?vid=3307539e-16e5-457c-9daf-1311bdad1b6a"},"vehicle_type_id":"4","last_reported":1740136086,"current_range_meters":20800,"station_id":"ce4bhpp2rcd13ifvqhfg","pricing_plan_id":"cebpf4jnsgd1na2vs0mg"},{"bike_id":"8480aa1a-41b2-4b30-a26a-23d81f818dda","system_id":"levelo_inurba_marseille","lat":43.2798,"lon":5.40048,"is_reserved":false,"is_disabled":false,"rental_uris":{"android":"levelo://app?vid=8480aa1a-41b2-4b30-a26a-23d81f818dda","ios":"levelo://app?vid=8480aa1a-41b2-4b30-a26a-23d81f818dda"},"vehicle_type_id":"4","last_reported":1740136086,"current_range_meters":21600,"station_id":"ce4bho92rcd13ifvqh4g","pricing_plan_id":"cebpf4jnsgd1na2vs0mg"},{"bike_id":"9c918f67-0023-4365-956f-8f558b82ac9a","system_id":"levelo_inurba_marseille","lat":43.28613,"lon":5.35107,"is_reserved":false,"is_disabled":false,"rental_uris":{"android":"levelo://app?vid=9c918f67-0023-4365-956f-8f558b82ac9a","ios":"levelo://app?vid=9c918f67-0023-4365-956f-8f558b82ac9a"},"vehicle_type_id":"4","last_reported":1740136086,"current_range_meters":21600,"station_id":"ce4bhch2rcd13ifvqeug","pricing_plan_id":"cebpf4jnsgd1na2vs0mg"},{"bike_id":"7600c1be-daa7-4357-b014-31140ddaa481","system_id":"levelo_inurba_marseille","lat":43.30259,"lon":5.40066,"is_reserved":false,"is_disabled":false,"rental_uris":{"android":"levelo://app?vid=7600c1be-daa7-4357-b014-31140ddaa481","ios":"levelo://app?vid=7600c1be-daa7-4357-b014-31140ddaa481"},"vehicle_type_id":"4","last_reported":1740136086,"current_range_meters":21600,"station_id":"ce4bgvh2rcd13ifvqcs0","pricing_plan_id":"cebpf4jnsgd1na2vs0mg"},{"bike_id":"d68ddab0-7025-4797-8675-7d1fd34b8329","system_id":"levelo_inurba_marseille","lat":43.30462,"lon":5.37908,"is_reserved":false,"is_disabled":false,"rental_uris":{"android":"levelo://app?vid=d68ddab0-7025-4797-8675-7d1fd34b8329","ios":"levelo://app?vid=d68ddab0-7025-4797-8675-7d1fd34b8329"},"vehicle_type_id":"4","last_reported":1740136086,"current_range_meters":21600,"station_id":"ce4bgup2rcd13ifvqcn0","pricing_plan_id":"cebpf4jnsgd1na2vs0mg"},{"bike_id":"2b701be1-5a29-45c0-9c7b-2cedba250b0c","system_id":"levelo_inurba_marseille","lat":43.24179,"lon":5.39738,"is_reserved":false,"is_disabled":false,"rental_uris":{"android":"levelo://app?vid=2b701be1-5a29-45c0-9c7b-2cedba250b0c","ios":"levelo://app?vid=2b701be1-5a29-45c0-9c7b-2cedba250b0c"},"vehicle_type_id":"4","last_reported":1740136086,"current_range_meters":21600,"station_id":"ce4bhn12rcd13ifvqgpg","pricing_plan_id":"cebpf4jnsgd1na2vs0mg"},{"bike_id":"a738a443-e23f-484f-b7ae-03021ce1b232","system_id":"levelo_inurba_marseille","lat":43.27062,"lon":5.40259,"is_reserved":false,"is_disabled":false,"rental_uris":{"android":"levelo://app?vid=a738a443-e23f-484f-b7ae-03021ce1b232","ios":"levelo://app?vid=a738a443-e23f-484f-b7ae-03021ce1b232"},"vehicle_type_id":"4","last_reported":1740136086,"current_range_meters":21600,"station_id":"ce4bhk92rcd13ifvqgc0","pricing_plan_id":"cebpf4jnsgd1na2vs0mg"},{"bike_id":"4351ab8f-102b-4040-9744-2d51484d7921","system_id":"levelo_inurba_marseille","lat":43.24395,"lon":5.37069,"is_reserved":false,"is_disabled":true,"rental_uris":{"android":"levelo://app?vid=4351ab8f-102b-4040-9744-2d51484d7921","ios":"levelo://app?vid=4351ab8f-102b-4040-9744-2d51484d7921"},"vehicle_type_id":"4","last_reported":1740136086,"current_range_meters":21600,"station_id":"ce4bhhh2rcd13ifvqfk0","pricing_plan_id":"cebpf4jnsgd1na2vs0mg"},{"bike_id":"5ec8b478-a38a-4ac6-8488-7221a89bd8e7","system_id":"levelo_inurba_marseille","lat":43.25575,"lon":5.38239,"is_reserved":false,"is_disabled":false,"rental_uris":{"android":"levelo://app?vid=5ec8b478-a38a-4ac6-8488-7221a89bd8e7","ios":"levelo://app?vid=5ec8b478-a38a-4ac6-8488-7221a89bd8e7"},"vehicle_type_id":"4","last_reported":1740136086,"current_range_meters":21600,"station_id":"ce4bhih2rcd13ifvqfs0","pricing_plan_id":"cebpf4jnsgd1na2vs0mg"},{"bike_id":"abb9c976-dcde-4edd-9ca4-79b3f8b65004","system_id":"levelo_inurba_marseille","lat":43.26557,"lon":5.39043,"is_reserved":false,"is_disabled":true,"rental_uris":{"android":"levelo://app?vid=abb9c976-dcde-4edd-9ca4-79b3f8b65004","ios":"levelo://app?vid=abb9c976-dcde-4edd-9ca4-79b3f8b65004"},"vehicle_type_id":"4","last_reported":1740136086,"current_range_meters":21600,"station_id":"ce4bhe12rcd13ifvqf30","pricing_plan_id":"cebpf4jnsgd1na2vs0mg"},{"bike_id":"c2a577a3-44a6-426d-aac1-5124994319eb","system_id":"levelo_inurba_marseille","lat":43.27988,"lon":5.40039,"is_reserved":false,"is_disabled":false,"rental_uris":{"android":"levelo://app?vid=c2a577a3-44a6-426d-aac1-5124994319eb","ios":"levelo://app?vid=c2a577a3-44a6-426d-aac1-5124994319eb"},"vehicle_type_id":"4","last_reported":1740136086,"current_range_meters":22000,"station_id":"ce4bho92rcd13ifvqh4g","pricing_plan_id":"cebpf4jnsgd1na2vs0mg"},{"bike_id":"21489318-d43e-4c5d-be7b-1f50adcb5eae","system_id":"levelo_inurba_marseille","lat":43.2749,"lon":5.42455,"is_reserved":false,"is_disabled":false,"rental_uris":{"android":"levelo://app?vid=21489318-d43e-4c5d-be7b-1f50adcb5eae","ios":"levelo://app?vid=21489318-d43e-4c5d-be7b-1f50adcb5eae"},"vehicle_type_id":"4","last_reported":1740136086,"current_range_meters":22000,"station_id":"ce4bhn92rcd13ifvqgrg","pricing_plan_id":"cebpf4jnsgd1na2vs0mg"},{"bike_id":"bb508178-b009-4536-8f81-fc716120a095","system_id":"levelo_inurba_marseille","lat":43.28093,"lon":5.36701,"is_reserved":false,"is_disabled":false,"rental_uris":{"android":"levelo://app?vid=bb508178-b009-4536-8f81-fc716120a095","ios":"levelo://app?vid=bb508178-b009-4536-8f81-fc716120a095"},"vehicle_type_id":"4","last_reported":1740136086,"current_range_meters":22000,"station_id":"ce4bgi12rcd13ifvqb70","pricing_plan_id":"cebpf4jnsgd1na2vs0mg"},{"bike_id":"d443ff14-13e2-4787-a2d7-cf61def33b1b","system_id":"levelo_inurba_marseille","lat":43.31104,"lon":5.37771,"is_reserved":false,"is_disabled":false,"rental_uris":{"android":"levelo://app?vid=d443ff14-13e2-4787-a2d7-cf61def33b1b","ios":"levelo://app?vid=d443ff14-13e2-4787-a2d7-cf61def33b1b"},"vehicle_type_id":"4","last_reported":1740136086,"current_range_meters":22000,"station_id":"ce4bgt92rcd13ifvqcg0","pricing_plan_id":"cebpf4jnsgd1na2vs0mg"},{"bike_id":"073518a5-4dc0-447e-9477-a67f73b2a5a2","system_id":"levelo_inurba_marseille","lat":43.32368,"lon":5.36777,"is_reserved":false,"is_disabled":false,"rental_uris":{"android":"levelo://app?vid=073518a5-4dc0-447e-9477-a67f73b2a5a2","ios":"levelo://app?vid=073518a5-4dc0-447e-9477-a67f73b2a5a2"},"vehicle_type_id":"4","last_reported":1740136086,"current_range_meters":22000,"station_id":"ce4bhsh2rcd13ifvqi2g","pricing_plan_id":"cebpf4jnsgd1na2vs0mg"},{"bike_id":"2e1610d5-b27f-46af-9714-d8f982808fa0","system_id":"levelo_inurba_marseille","lat":43.33716,"lon":5.39177,"is_reserved":false,"is_disabled":false,"rental_uris":{"android":"levelo://app?vid=2e1610d5-b27f-46af-9714-d8f982808fa0","ios":"levelo://app?vid=2e1610d5-b27f-46af-9714-d8f982808fa0"},"vehicle_type_id":"4","last_reported":1740136086,"current_range_meters":22400,"station_id":"ce4bhr92rcd13ifvqhsg","pricing_plan_id":"cebpf4jnsgd1na2vs0mg"},{"bike_id":"77716621-95da-4745-b51b-acce2700ea6b","system_id":"levelo_inurba_marseille","lat":43.30136,"lon":5.37422,"is_reserved":false,"is_disabled":false,"rental_uris":{"android":"levelo://app?vid=77716621-95da-4745-b51b-acce2700ea6b","ios":"levelo://app?vid=77716621-95da-4745-b51b-acce2700ea6b"},"vehicle_type_id":"4","last_reported":1740136086,"current_range_meters":22400,"station_id":"ce4bgs92rcd13ifvqcc0","pricing_plan_id":"cebpf4jnsgd1na2vs0mg"},{"bike_id":"105ea8ad-0d16-4875-9fde-e085311250f4","system_id":"levelo_inurba_marseille","lat":43.23203,"lon":5.3556,"is_reserved":false,"is_disabled":false,"rental_uris":{"android":"levelo://app?vid=105ea8ad-0d16-4875-9fde-e085311250f4","ios":"levelo://app?vid=105ea8ad-0d16-4875-9fde-e085311250f4"},"vehicle_type_id":"4","last_reported":1740136086,"current_range_meters":22400,"station_id":"ce4bhu92rcd13ifvqi70","pricing_plan_id":"cebpf4jnsgd1na2vs0mg"},{"bike_id":"7c41f61b-6a2f-4bf5-bad7-0e110ae5c4b0","system_id":"levelo_inurba_marseille","lat":43.278168,"lon":5.407284,"is_reserved":false,"is_disabled":false,"rental_uris":{"android":"levelo://app?vid=7c41f61b-6a2f-4bf5-bad7-0e110ae5c4b0","ios":"levelo://app?vid=7c41f61b-6a2f-4bf5-bad7-0e110ae5c4b0"},"vehicle_type_id":"4","last_reported":1740136086,"current_range_meters":22400,"station_id":"","pricing_plan_id":"cebpf4jnsgd1na2vs0mg"},{"bike_id":"503982b2-2ba7-4482-aa5e-307a7c3ca8e4","system_id":"levelo_inurba_marseille","lat":43.31732,"lon":5.40439,"is_reserved":false,"is_disabled":false,"rental_uris":{"android":"levelo://app?vid=503982b2-2ba7-4482-aa5e-307a7c3ca8e4","ios":"levelo://app?vid=503982b2-2ba7-4482-aa5e-307a7c3ca8e4"},"vehicle_type_id":"4","last_reported":1740136086,"current_range_meters":22400,"station_id":"","pricing_plan_id":"cebpf4jnsgd1na2vs0mg"},{"bike_id":"850c789f-646b-4ec4-8068-0304a1f14995","system_id":"levelo_inurba_marseille","lat":43.278119,"lon":5.407051,"is_reserved":false,"is_disabled":false,"rental_uris":{"android":"levelo://app?vid=850c789f-646b-4ec4-8068-0304a1f14995","ios":"levelo://app?vid=850c789f-646b-4ec4-8068-0304a1f14995"},"vehicle_type_id":"4","last_reported":1740136086,"current_range_meters":22400,"station_id":"ce4bhnh2rcd13ifvqgtg","pricing_plan_id":"cebpf4jnsgd1na2vs0mg"},{"bike_id":"760b2e1b-a5df-4b5d-8051-47bb37bfa549","system_id":"levelo_inurba_marseille","lat":43.32354,"lon":5.36735,"is_reserved":false,"is_disabled":false,"rental_uris":{"android":"levelo://app?vid=760b2e1b-a5df-4b5d-8051-47bb37bfa549","ios":"levelo://app?vid=760b2e1b-a5df-4b5d-8051-47bb37bfa549"},"vehicle_type_id":"4","last_reported":1740136086,"current_range_meters":22400,"station_id":"ce4bhsh2rcd13ifvqi2g","pricing_plan_id":"cebpf4jnsgd1na2vs0mg"},{"bike_id":"42e447f2-7459-4c50-bdb5-0d4a2fd1d18f","system_id":"levelo_inurba_marseille","lat":43.30559,"lon":5.36557,"is_reserved":false,"is_disabled":false,"rental_uris":{"android":"levelo://app?vid=42e447f2-7459-4c50-bdb5-0d4a2fd1d18f","ios":"levelo://app?vid=42e447f2-7459-4c50-bdb5-0d4a2fd1d18f"},"vehicle_type_id":"4","last_reported":1740136086,"current_range_meters":22800,"station_id":"ce4bgs12rcd13ifvqcag","pricing_plan_id":"cebpf4jnsgd1na2vs0mg"},{"bike_id":"bc871153-5b98-4690-a3d2-6a78c141fbaf","system_id":"levelo_inurba_marseille","lat":43.28277,"lon":5.35069,"is_reserved":false,"is_disabled":false,"rental_uris":{"android":"levelo://app?vid=bc871153-5b98-4690-a3d2-6a78c141fbaf","ios":"levelo://app?vid=bc871153-5b98-4690-a3d2-6a78c141fbaf"},"vehicle_type_id":"4","last_reported":1740136086,"current_range_meters":22800,"station_id":"ce4bhbp2rcd13ifvqerg","pricing_plan_id":"cebpf4jnsgd1na2vs0mg"},{"bike_id":"1697da22-6802-4209-9873-bbdc5e180e79","system_id":"levelo_inurba_marseille","lat":43.2955,"lon":5.37497,"is_reserved":false,"is_disabled":false,"rental_uris":{"android":"levelo://app?vid=1697da22-6802-4209-9873-bbdc5e180e79","ios":"levelo://app?vid=1697da22-6802-4209-9873-bbdc5e180e79"},"vehicle_type_id":"4","last_reported":1740136086,"current_range_meters":22800,"station_id":"ce4bgkp2rcd13ifvqbmg","pricing_plan_id":"cebpf4jnsgd1na2vs0mg"},{"bike_id":"fcfccb31-9a5b-4608-9581-aea3b1aa17f2","system_id":"levelo_inurba_marseille","lat":43.31386,"lon":5.37187,"is_reserved":false,"is_disabled":false,"rental_uris":{"android":"levelo://app?vid=fcfccb31-9a5b-4608-9581-aea3b1aa17f2","ios":"levelo://app?vid=fcfccb31-9a5b-4608-9581-aea3b1aa17f2"},"vehicle_type_id":"4","last_reported":1740136086,"current_range_meters":22800,"station_id":"","pricing_plan_id":"cebpf4jnsgd1na2vs0mg"},{"bike_id":"a392664c-f262-4c05-a791-080ca9c07429","system_id":"levelo_inurba_marseille","lat":43.23151,"lon":5.43713,"is_reserved":false,"is_disabled":false,"rental_uris":{"android":"levelo://app?vid=a392664c-f262-4c05-a791-080ca9c07429","ios":"levelo://app?vid=a392664c-f262-4c05-a791-080ca9c07429"},"vehicle_type_id":"4","last_reported":1740136086,"current_range_meters":22800,"station_id":"ce4bhmp2rcd13ifvqgog","pricing_plan_id":"cebpf4jnsgd1na2vs0mg"},{"bike_id":"f759df7c-d92a-4ede-b2c2-448bc94688c6","system_id":"levelo_inurba_marseille","lat":43.24661,"lon":5.38161,"is_reserved":false,"is_disabled":false,"rental_uris":{"android":"levelo://app?vid=f759df7c-d92a-4ede-b2c2-448bc94688c6","ios":"levelo://app?vid=f759df7c-d92a-4ede-b2c2-448bc94688c6"},"vehicle_type_id":"4","last_reported":1740136086,"current_range_meters":22800,"station_id":"ce4bhih2rcd13ifvqfr0","pricing_plan_id":"cebpf4jnsgd1na2vs0mg"},{"bike_id":"c4eb02bc-b3ce-4b5b-8fd3-50e6b547e2a0","system_id":"levelo_inurba_marseille","lat":43.27537,"lon":5.39586,"is_reserved":false,"is_disabled":false,"rental_uris":{"android":"levelo://app?vid=c4eb02bc-b3ce-4b5b-8fd3-50e6b547e2a0","ios":"levelo://app?vid=c4eb02bc-b3ce-4b5b-8fd3-50e6b547e2a0"},"vehicle_type_id":"4","last_reported":1740136086,"current_range_meters":22800,"station_id":"","pricing_plan_id":"cebpf4jnsgd1na2vs0mg"},{"bike_id":"1bbcf48f-d177-472f-87a0-864cc17b2803","system_id":"levelo_inurba_marseille","lat":43.25578,"lon":5.38248,"is_reserved":false,"is_disabled":false,"rental_uris":{"android":"levelo://app?vid=1bbcf48f-d177-472f-87a0-864cc17b2803","ios":"levelo://app?vid=1bbcf48f-d177-472f-87a0-864cc17b2803"},"vehicle_type_id":"4","last_reported":1740136086,"current_range_meters":22800,"station_id":"ce4bhih2rcd13ifvqfs0","pricing_plan_id":"cebpf4jnsgd1na2vs0mg"},{"bike_id":"620ece5f-8060-4e4d-b769-c3f308b140f1","system_id":"levelo_inurba_marseille","lat":43.25732,"lon":5.41108,"is_reserved":false,"is_disabled":false,"rental_uris":{"android":"levelo://app?vid=620ece5f-8060-4e4d-b769-c3f308b140f1","ios":"levelo://app?vid=620ece5f-8060-4e4d-b769-c3f308b140f1"},"vehicle_type_id":"4","last_reported":1740136086,"current_range_meters":22800,"station_id":"ce4bhkp2rcd13ifvqgd0","pricing_plan_id":"cebpf4jnsgd1na2vs0mg"},{"bike_id":"92efe6c3-a3bd-480a-8ae2-e9c37ebb6d92","system_id":"levelo_inurba_marseille","lat":43.26233,"lon":5.40453,"is_reserved":false,"is_disabled":false,"rental_uris":{"android":"levelo://app?vid=92efe6c3-a3bd-480a-8ae2-e9c37ebb6d92","ios":"levelo://app?vid=92efe6c3-a3bd-480a-8ae2-e9c37ebb6d92"},"vehicle_type_id":"4","last_reported":1740136086,"current_range_meters":22800,"station_id":"ce4bhmh2rcd13ifvqgmg","pricing_plan_id":"cebpf4jnsgd1na2vs0mg"},{"bike_id":"33cc0fcb-f6e1-44bc-9328-d3f75a5791c5","system_id":"levelo_inurba_marseille","lat":43.23169,"lon":5.35569,"is_reserved":false,"is_disabled":false,"rental_uris":{"android":"levelo://app?vid=33cc0fcb-f6e1-44bc-9328-d3f75a5791c5","ios":"levelo://app?vid=33cc0fcb-f6e1-44bc-9328-d3f75a5791c5"},"vehicle_type_id":"4","last_reported":1740136086,"current_range_meters":22800,"station_id":"ce4bhu92rcd13ifvqi70","pricing_plan_id":"cebpf4jnsgd1na2vs0mg"},{"bike_id":"cb870eaa-b405-47a3-acd8-6a81a0163d47","system_id":"levelo_inurba_marseille","lat":43.30908,"lon":5.40155,"is_reserved":false,"is_disabled":false,"rental_uris":{"android":"levelo://app?vid=cb870eaa-b405-47a3-acd8-6a81a0163d47","ios":"levelo://app?vid=cb870eaa-b405-47a3-acd8-6a81a0163d47"},"vehicle_type_id":"4","last_reported":1740136086,"current_range_meters":22800,"station_id":"ce4bgvp2rcd13ifvqct0","pricing_plan_id":"cebpf4jnsgd1na2vs0mg"},{"bike_id":"81eb4d74-bb5b-43e8-976f-02f37b4cd8cb","system_id":"levelo_inurba_marseille","lat":43.27796,"lon":5.38298,"is_reserved":false,"is_disabled":true,"rental_uris":{"android":"levelo://app?vid=81eb4d74-bb5b-43e8-976f-02f37b4cd8cb","ios":"levelo://app?vid=81eb4d74-bb5b-43e8-976f-02f37b4cd8cb"},"vehicle_type_id":"4","last_reported":1740136086,"current_range_meters":22800,"station_id":"","pricing_plan_id":"cebpf4jnsgd1na2vs0mg"},