{"last_updated":1746310164,"ttl":60,"version":"2.2","data":{"bikes":[{"bike_id":"50547906-fcfe-49e0-99a3-02e1920a11db","system_id":"levelo_inurba_marseille","lat":43.30964,"lon":5.39036,"is_reserved":false,"is_disabled":true,"rental_uris":{"android":"levelo://app?vid=50547906-fcfe-49e0-99a3-02e1920a11db","ios":"levelo://app?vid=50547906-fcfe-49e0-99a3-02e1920a11db"},"vehicle_type_id":"4","last_reported":1746310164,"current_range_meters":2800,"station_id":"ce4bgup2rcd13ifvqco0","pricing_plan_id":"cebpf4jnsgd1na2vs0mg"},{"bike_id":"01094e35-d98b-459b-93b9-6eaae48ab681","system_id":"levelo_inurba_marseille","lat":43.30929,"lon":5.4014,"is_reserved":false,"is_disabled":true,"rental_uris":{"android":"levelo://app?vid=01094e35-d98b-459b-93b9-6eaae48ab681","ios":"levelo://app?vid=01094e35-d98b-459b-93b9-6eaae48ab681"},"vehicle_type_id":"4","last_reported":1746310164,"current_range_meters":2800,"station_id":"ce4bgvp2rcd13ifvqct0","pricing_plan_id":"cebpf4jnsgd1na2vs0mg"},{"bike_id":"5a8122b9-97f5-4e94-b954-193a46a808df","system_id":"levelo_inurba_marseille","lat":43.27614,"lon":5.360957,"is_reserved":false,"is_disabled":true,"rental_uris":{"android":"levelo://app?vid=5a8122b9-97f5-4e94-b954-193a46a808df","ios":"levelo://app?vid=5a8122b9-97f5-4e94-b954-193a46a808df"},"vehicle_type_id":"4","last_reported":1746310164,"current_range_meters":2800,"station_id":"ce4bgj92rcd13ifvqbe0","pricing_plan_id":"cebpf4jnsgd1na2vs0mg"},{"bike_id":"8437211e-1dcb-4700-a130-067f9953b6c5","system_id":"levelo_inurba_marseille","lat":43.305266,"lon":5.36696,"is_reserved":false,"is_disabled":false,"rental_uris":{"android":"levelo://app?vid=8437211e-1dcb-4700-a130-067f9953b6c5","ios":"levelo://app?vid=8437211e-1dcb-4700-a130-067f9953b6c5"},"vehicle_type_id":"4","last_reported":1746310164,"current_range_meters":2800,"station_id":"ce4bgrp2rcd13ifvqc9g","pricing_plan_id":"cebpf4jnsgd1na2vs0mg"},{"bike_id":"7a7f0eb2-e6dd-4386-af0b-d5e315fa2ddd","system_id":"levelo_inurba_marseille","lat":43.27979,"lon":5.3537,"is_reserved":false,"is_disabled":false,"rental_uris":{"android":"levelo://app?vid=7a7f0eb2-e6dd-4386-af0b-d5e315fa2ddd","ios":"levelo://app?vid=7a7f0eb2-e6dd-4386-af0b-d5e315fa2ddd"},"vehicle_type_id":"4","last_reported":1746310164,"current_range_meters":2800,"station_id":"","pricing_plan_id":"cebpf4jnsgd1na2vs0mg"},{"bike_id":"adda7ae0-c013-469f-aa0e-1c7cd365aa64","system_id":"levelo_inurba_marseille","lat":43.30324,"lon":5.40424,"is_reserved":false,"is_disabled":false,"rental_uris":{"android":"levelo://app?vid=adda7ae0-c013-469f-aa0e-1c7cd365aa64","ios":"levelo://app?vid=adda7ae0-c013-469f-aa0e-1c7cd365aa64"},"vehicle_type_id":"4","last_reported":1746310164,"current_range_meters":3200,"station_id":"ce4bh012rcd13ifvqd10","pricing_plan_id":"cebpf4jnsgd1na2vs0mg"},{"bike_id":"6a72580c-c76c-4721-b41b-47051e92ac98","system_id":"levelo_inurba_marseille","lat":43.2998,"lon":5.37177,"is_reserved":false,"is_disabled":true,"rental_uris":{"android":"levelo://app?vid=6a72580c-c76c-4721-b41b-47051e92ac98","ios":"levelo://app?vid=6a72580c-c76c-4721-b41b-47051e92ac98"},"vehicle_type_id":"4","last_reported":1746310164,"current_range_meters":3600,"station_id":"ce4bgr92rcd13ifvqc7g","pricing_plan_id":"cebpf4jnsgd1na2vs0mg"},{"bike_id":"da0ba578-0326-4a78-b567-1bda434a43d7","system_id":"levelo_inurba_marseille","lat":43.302124,"lon":5.389855,"is_reserved":false,"is_disabled":false,"rental_uris":{"android":"levelo://app?vid=da0ba578-0326-4a78-b567-1bda434a43d7","ios":"levelo://app?vid=da0ba578-0326-4a78-b567-1bda434a43d7"},"vehicle_type_id":"4","last_reported":1746310164,"current_range_meters":3600,"station_id":"ce4bh0p2rcd13ifvqd80","pricing_plan_id":"cebpf4jnsgd1na2vs0mg"},{"bike_id":"662b39d1-88ec-4f06-b732-0dc367247795","system_id":"levelo_inurba_marseille","lat":43.28458,"lon":5.35875,"is_reserved":false,"is_disabled":false,"rental_uris":{"android":"levelo://app?vid=662b39d1-88ec-4f06-b732-0dc367247795","ios":"levelo://app?vid=662b39d1-88ec-4f06-b732-0dc367247795"},"vehicle_type_id":"4","last_reported":1746310164,"current_range_meters":4000,"station_id":"ce4bhah2rcd13ifvqei0","pricing_plan_id":"cebpf4jnsgd1na2vs0mg"},{"bike_id":"3b3fcff0-a52c-4c0e-b349-4afde4776ddc","system_id":"levelo_inurba_marseille","lat":43.336179,"lon":5.410342,"is_reserved":false,"is_disabled":false,"rental_uris":{"android":"levelo://app?vid=3b3fcff0-a52c-4c0e-b349-4afde4776ddc","ios":"levelo://app?vid=3b3fcff0-a52c-4c0e-b349-4afde4776ddc"},"vehicle_type_id":"4","last_reported":1746310164,"current_range_meters":4000,"station_id":"ce4bhqh2rcd13ifvqhmg","pricing_plan_id":"cebpf4jnsgd1na2vs0mg"},{"bike_id":"23119e4f-0e29-493e-a873-544057f83776","system_id":"levelo_inurba_marseille","lat":43.26805,"lon":5.40272,"is_reserved":false,"is_disabled":true,"rental_uris":{"android":"levelo://app?vid=23119e4f-0e29-493e-a873-544057f83776","ios":"levelo://app?vid=23119e4f-0e29-493e-a873-544057f83776"},"vehicle_type_id":"4","last_reported":1746310164,"current_range_meters":4400,"station_id":"ce501612rcd8frsf0b60","pricing_plan_id":"cebpf4jnsgd1na2vs0mg"},{"bike_id":"c7bb30a3-7eaa-4224-a6d8-a67f5cd5783e","system_id":"levelo_inurba_marseille","lat":43.29197,"lon":5.35813,"is_reserved":false,"is_disabled":false,"rental_uris":{"android":"levelo://app?vid=c7bb30a3-7eaa-4224-a6d8-a67f5cd5783e","ios":"levelo://app?vid=c7bb30a3-7eaa-4224-a6d8-a67f5cd5783e"},"vehicle_type_id":"4","last_reported":1746310164,"current_range_meters":4400,"station_id":"ce4bhb12rcd13ifvqel0","pricing_plan_id":"cebpf4jnsgd1na2vs0mg"},{"bike_id":"78647f6c-5b39-4fc3-8ddc-922db495866f","system_id":"levelo_inurba_marseille","lat":43.27806,"lon":5.40714,"is_reserved":false,"is_disabled":true,"rental_uris":{"android":"levelo://app?vid=78647f6c-5b39-4fc3-8ddc-922db495866f","ios":"levelo://app?vid=78647f6c-5b39-4fc3-8ddc-922db495866f"},"vehicle_type_id":"4","last_reported":1746310164,"current_range_meters":4800,"station_id":"ce4bhnh2rcd13ifvqgtg","pricing_plan_id":"cebpf4jnsgd1na2vs0mg"},{"bike_id":"beb2536f-b95c-42a3-954e-a55ebb0abeec","system_id":"levelo_inurba_marseille","lat":43.30943,"lon":5.38237,"is_reserved":false,"is_disabled":false,"rental_uris":{"android":"levelo://app?vid=beb2536f-b95c-42a3-954e-a55ebb0abeec","ios":"levelo://app?vid=beb2536f-b95c-42a3-954e-a55ebb0abeec"},"vehicle_type_id":"4","last_reported":1746310164,"current_range_meters":4800,"station_id":"","pricing_plan_id":"cebpf4jnsgd1na2vs0mg"},{"bike_id":"c6d6d656-870c-41a1-acfe-981bbf37e38b","system_id":"levelo_inurba_marseille","lat":43.29534,"lon":5.3855,"is_reserved":false,"is_disabled":false,"rental_uris":{"android":"levelo://app?vid=c6d6d656-870c-41a1-acfe-981bbf37e38b","ios":"levelo://app?vid=c6d6d656-870c-41a1-acfe-981bbf37e38b"},"vehicle_type_id":"4","last_reported":1746310164,"current_range_meters":6000,"station_id":"ce4bgih2rcd13ifvqba0","pricing_plan_id":"cebpf4jnsgd1na2vs0mg"},{"bike_id":"df09e0dd-fa02-4c1b-b625-6281edbd6bda","system_id":"levelo_inurba_marseille","lat":43.2803,"lon":5.3695,"is_reserved":false,"is_disabled":false,"rental_uris":{"android":"levelo://app?vid=df09e0dd-fa02-4c1b-b625-6281edbd6bda","ios":"levelo://app?vid=df09e0dd-fa02-4c1b-b625-6281edbd6bda"},"vehicle_type_id":"4","last_reported":1746310164,"current_range_meters":6000,"station_id":"ce4bha12rcd13ifvqef0","pricing_plan_id":"cebpf4jnsgd1na2vs0mg"},{"bike_id":"a257f054-1d7f-4fae-a3c4-1088d6c15b72","system_id":"levelo_inurba_marseille","lat":43.29715,"lon":5.36605,"is_reserved":false,"is_disabled":false,"rental_uris":{"android":"levelo://app?vid=a257f054-1d7f-4fae-a3c4-1088d6c15b72","ios":"levelo://app?vid=a257f054-1d7f-4fae-a3c4-1088d6c15b72"},"vehicle_type_id":"4","last_reported":1746310164,"current_range_meters":6000,"station_id":"","pricing_plan_id":"cebpf4jnsgd1na2vs0mg"},{"bike_id":"d11b7274-ad1d-4343-a0b8-143798db8be1","system_id":"levelo_inurba_marseille","lat":43.22912,"lon":5.35385,"is_reserved":false,"is_disabled":true,"rental_uris":{"android":"levelo://app?vid=d11b7274-ad1d-4343-a0b8-143798db8be1","ios":"levelo://app?vid=d11b7274-ad1d-4343-a0b8-143798db8be1"},"vehicle_type_id":"4","last_reported":1746310164,"current_range_meters":6400,"station_id":"cpo3532slgdg3j2ikp40","pricing_plan_id":"cebpf4jnsgd1na2vs0mg"},{"bike_id":"4341dfab-438e-4d1a-8a6a-87a65b8fed8c","system_id":"levelo_inurba_marseille","lat":43.2991,"lon":5.38134,"is_reserved":false,"is_disabled":true,"rental_uris":{"android":"levelo://app?vid=4341dfab-438e-4d1a-8a6a-87a65b8fed8c","ios":"levelo://app?vid=4341dfab-438e-4d1a-8a6a-87a65b8fed8c"},"vehicle_type_id":"4","last_reported":1746310164,"current_range_meters":6400,"station_id":"ce4bgj12rcd13ifvqbc0","pricing_plan_id":"cebpf4jnsgd1na2vs0mg"},{"bike_id":"b24e1c00-6f34-4818-ab0a-32914331665c","system_id":"levelo_inurba_marseille","lat":43.30777,"lon":5.37659,"is_reserved":false,"is_disabled":false,"rental_uris":{"android":"levelo://app?vid=b24e1c00-6f34-4818-ab0a-32914331665c","ios":"levelo://app?vid=b24e1c00-6f34-4818-ab0a-32914331665c"},"vehicle_type_id":"4","last_reported":1746310164,"current_range_meters":6400,"station_id":"ce4bgv92rcd13ifvqcq0","pricing_plan_id":"cebpf4jnsgd1na2vs0mg"},{"bike_id":"7a465ed6-e072-4c53-9c8d-293f98289f5d","system_id":"levelo_inurba_marseille","lat":43.26196,"lon":5.37446,"is_reserved":false,"is_disabled":false,"rental_uris":{"android":"levelo://app?vid=7a465ed6-e072-4c53-9c8d-293f98289f5d","ios":"levelo://app?vid=7a465ed6-e072-4c53-9c8d-293f98289f5d"},"vehicle_type_id":"4","last_reported":1746310164,"current_range_meters":6800,"station_id":"ce4bhgp2rcd13ifvqfc0","pricing_plan_id":"cebpf4jnsgd1na2vs0mg"},{"bike_id":"b2be516e-2f32-4594-b4de-c3e58b68706d","system_id":"levelo_inurba_marseille","lat":43.29286,"lon":5.3685,"is_reserved":false,"is_disabled":true,"rental_uris":{"android":"levelo://app?vid=b2be516e-2f32-4594-b4de-c3e58b68706d","ios":"levelo://app?vid=b2be516e-2f32-4594-b4de-c3e58b68706d"},"vehicle_type_id":"4","last_reported":1746310164,"current_range_meters":6800,"station_id":"ce4bhbp2rcd13ifvqesg","pricing_plan_id":"cebpf4jnsgd1na2vs0mg"},{"bike_id":"909825d5-7ad2-409e-b0de-cec7d5b4fa06","system_id":"levelo_inurba_marseille","lat":43.24221,"lon":5.36722,"is_reserved":false,"is_disabled":false,"rental_uris":{"android":"levelo://app?vid=909825d5-7ad2-409e-b0de-cec7d5b4fa06","ios":"levelo://app?vid=909825d5-7ad2-409e-b0de-cec7d5b4fa06"},"vehicle_type_id":"4","last_reported":1746310164,"current_range_meters":6800,"station_id":"","pricing_plan_id":"cebpf4jnsgd1na2vs0mg"},{"bike_id":"d623e401-e476-4fca-8d01-9fe261904313","system_id":"levelo_inurba_marseille","lat":43.26944,"lon":5.38645,"is_reserved":false,"is_disabled":false,"rental_uris":{"android":"levelo://app?vid=d623e401-e476-4fca-8d01-9fe261904313","ios":"levelo://app?vid=d623e401-e476-4fca-8d01-9fe261904313"},"vehicle_type_id":"4","last_reported":1746310164,"current_range_meters":6800,"station_id":"ce4bhh92rcd13ifvqfh0","pricing_plan_id":"cebpf4jnsgd1na2vs0mg"},{"bike_id":"e341752c-8655-4500-bdaa-1fbfa4780079","system_id":"levelo_inurba_marseille","lat":43.29058,"lon":5.37164,"is_reserved":false,"is_disabled":true,"rental_uris":{"android":"levelo://app?vid=e341752c-8655-4500-bdaa-1fbfa4780079","ios":"levelo://app?vid=e341752c-8655-4500-bdaa-1fbfa4780079"},"vehicle_type_id":"4","last_reported":1746310164,"current_range_meters":7200,"station_id":"ce4bh5p2rcd13ifvqe4g","pricing_plan_id":"cebpf4jnsgd1na2vs0mg"},{"bike_id":"208c1a96-c46f-4193-b924-3bf7033ea14e","system_id":"levelo_inurba_marseille","lat":43.23187,"lon":5.35578,"is_reserved":false,"is_disabled":false,"rental_uris":{"android":"levelo://app?vid=208c1a96-c46f-4193-b924-3bf7033ea14e","ios":"levelo://app?vid=208c1a96-c46f-4193-b924-3bf7033ea14e"},"vehicle_type_id":"4","last_reported":1746310164,"current_range_meters":7200,"station_id":"ce4bhu92rcd13ifvqi70","pricing_plan_id":"cebpf4jnsgd1na2vs0mg"},{"bike_id":"7c00d611-3bf8-49f9-98f2-240e0ae7f105","system_id":"levelo_inurba_marseille","lat":43.30926,"lon":5.40143,"is_reserved":false,"is_disabled":false,"rental_uris":{"android":"levelo://app?vid=7c00d611-3bf8-49f9-98f2-240e0ae7f105","ios":"levelo://app?vid=7c00d611-3bf8-49f9-98f2-240e0ae7f105"},"vehicle_type_id":"4","last_reported":1746310164,"current_range_meters":7200,"station_id":"ce4bgvp2rcd13ifvqct0","pricing_plan_id":"cebpf4jnsgd1na2vs0mg"},{"bike_id":"39d83911-e17e-4776-b8f2-6450602c8696","system_id":"levelo_inurba_marseille","lat":43.298949,"lon":5.436552,"is_reserved":false,"is_disabled":false,"rental_uris":{"android":"levelo://app?vid=39d83911-e17e-4776-b8f2-6450602c8696","ios":"levelo://app?vid=39d83911-e17e-4776-b8f2-6450602c8696"},"vehicle_type_id":"4","last_reported":1746310164,"current_range_meters":8000,"station_id":"ce4bhpp2rcd13ifvqhfg","pricing_plan_id":"cebpf4jnsgd1na2vs0mg"},{"bike_id":"b8ccab62-e896-4ee6-8d04-221b97bf59a9","system_id":"levelo_inurba_marseille","lat":43.29195,"lon":5.357953,"is_reserved":false,"is_disabled":false,"rental_uris":{"android":"levelo://app?vid=b8ccab62-e896-4ee6-8d04-221b97bf59a9","ios":"levelo://app?vid=b8ccab62-e896-4ee6-8d04-221b97bf59a9"},"vehicle_type_id":"4","last_reported":1746310164,"current_range_meters":8000,"station_id":"","pricing_plan_id":"cebpf4jnsgd1na2vs0mg"},{"bike_id":"db9be0c1-80d5-4315-9367-2a96fca91123","system_id":"levelo_inurba_marseille","lat":43.30633,"lon":5.40043,"is_reserved":false,"is_disabled":false,"rental_uris":{"android":"levelo://app?vid=db9be0c1-80d5-4315-9367-2a96fca91123","ios":"levelo://app?vid=db9be0c1-80d5-4315-9367-2a96fca91123"},"vehicle_type_id":"4","last_reported":1746310164,"current_range_meters":8000,"station_id":"ce4bh112rcd13ifvqda0","pricing_plan_id":"cebpf4jnsgd1na2vs0mg"},{"bike_id":"f2b82d46-aa38-4e41-bdca-3656c46543c7","system_id":"levelo_inurba_marseille","lat":43.29309,"lon":5.38374,"is_reserved":false,"is_disabled":false,"rental_uris":{"android":"levelo://app?vid=f2b82d46-aa38-4e41-bdca-3656c46543c7","ios":"levelo://app?vid=f2b82d46-aa38-4e41-bdca-3656c46543c7"},"vehicle_type_id":"4","last_reported":1746310164,"current_range_meters":8000,"station_id":"","pricing_plan_id":"cebpf4jnsgd1na2vs0mg"},{"bike_id":"e27ce41e-d31e-4411-a762-387f29d91877","system_id":"levelo_inurba_marseille","lat":43.296,"lon":5.42228,"is_reserved":false,"is_disabled":false,"rental_uris":{"android":"levelo://app?vid=e27ce41e-d31e-4411-a762-387f29d91877","ios":"levelo://app?vid=e27ce41e-d31e-4411-a762-387f29d91877"},"vehicle_type_id":"4","last_reported":1746310164,"current_range_meters":8000,"station_id":"","pricing_plan_id":"cebpf4jnsgd1na2vs0mg"},{"bike_id":"415eea26-08ad-4234-b979-27b27a003b88","system_id":"levelo_inurba_marseille","lat":43.29963,"lon":5.38498,"is_reserved":false,"is_disabled":false,"rental_uris":{"android":"levelo://app?vid=415eea26-08ad-4234-b979-27b27a003b88","ios":"levelo://app?vid=415eea26-08ad-4234-b979-27b27a003b88"},"vehicle_type_id":"4","last_reported":1746310164,"current_range_meters":8000,"station_id":"ce4bgj92rcd13ifvqbd0","pricing_plan_id":"cebpf4jnsgd1na2vs0mg"},{"bike_id":"38a0dbcd-2be8-44bc-838b-f55006af8ebd","system_id":"levelo_inurba_marseille","lat":43.24813,"lon":5.37443,"is_reserved":false,"is_disabled":false,"rental_uris":{"android":"levelo://app?vid=38a0dbcd-2be8-44bc-838b-f55006af8ebd","ios":"levelo://app?vid=38a0dbcd-2be8-44bc-838b-f55006af8ebd"},"vehicle_type_id":"4","last_reported":1746310164,"current_range_meters":8400,"station_id":"ce4bhgh2rcd13ifvqfb0","pricing_plan_id":"cebpf4jnsgd1na2vs0mg"},{"bike_id":"e3bb8c53-9778-422e-96ea-7d06d72dda63","system_id":"levelo_inurba_marseille","lat":43.281847,"lon":5.403832,"is_reserved":false,"is_disabled":false,"rental_uris":{"android":"levelo://app?vid=e3bb8c53-9778-422e-96ea-7d06d72dda63","ios":"levelo://app?vid=e3bb8c53-9778-422e-96ea-7d06d72dda63"},"vehicle_type_id":"4","last_reported":1746310164,"current_range_meters":8400,"station_id":"","pricing_plan_id":"cebpf4jnsgd1na2vs0mg"},{"bike_id":"c7e47698-0020-47cf-94a4-404079760935","system_id":"levelo_inurba_marseille","lat":43.28422,"lon":5.37497,"is_reserved":false,"is_disabled":true,"rental_uris":{"android":"levelo://app?vid=c7e47698-0020-47cf-94a4-404079760935","ios":"levelo://app?vid=c7e47698-0020-47cf-94a4-404079760935"},"vehicle_type_id":"4","last_reported":1746310164,"current_range_meters":8400,"station_id":"ce4bh412rcd13ifvqds0","pricing_plan_id":"cebpf4jnsgd1na2vs0mg"},{"bike_id":"570b486c-50df-4f1f-97df-caa86c0d419e","system_id":"levelo_inurba_marseille","lat":43.33695,"lon":5.35573,"is_reserved":false,"is_disabled":false,"rental_uris":{"android":"levelo://app?vid=570b486c-50df-4f1f-97df-caa86c0d419e","ios":"levelo://app?vid=570b486c-50df-4f1f-97df-caa86c0d419e"},"vehicle_type_id":"4","last_reported":1746310164,"current_range_meters":8400,"station_id":"","pricing_plan_id":"cebpf4jnsgd1na2vs0mg"},{"bike_id":"e0e1e44f-9b10-4003-b912-fe9e547d6af9","system_id":"levelo_inurba_marseille","lat":43.2603,"lon":5.37554,"is_reserved":false,"is_disabled":false,"rental_uris":{"android":"levelo://app?vid=e0e1e44f-9b10-4003-b912-fe9e547d6af9","ios":"levelo://app?vid=e0e1e44f-9b10-4003-b912-fe9e547d6af9"},"vehicle_type_id":"4","last_reported":1746310164,"current_range_meters":8400,"station_id":"ce4bhgh2rcd13ifvqfa0","pricing_plan_id":"cebpf4jnsgd1na2vs0mg"},{"bike_id":"7d6d18ee-0ef8-4e14-ae57-24b20e7f5fed","system_id":"levelo_inurba_marseille","lat":43.32003,"lon":5.38146,"is_reserved":false,"is_disabled":false,"rental_uris":{"android":"levelo://app?vid=7d6d18ee-0ef8-4e14-ae57-24b20e7f5fed","ios":"levelo://app?vid=7d6d18ee-0ef8-4e14-ae57-24b20e7f5fed"},"vehicle_type_id":"4","last_reported":1746310164,"current_range_meters":8400,"station_id":"ce4bhr12rcd13ifvqhpg","pricing_plan_id":"cebpf4jnsgd1na2vs0mg"},{"bike_id":"dfb3396e-96f5-457c-af11-f6f27dad33e9","system_id":"levelo_inurba_marseille","lat":43.271982,"lon":5.364799,"is_reserved":false,"is_disabled":false,"rental_uris":{"android":"levelo://app?vid=dfb3396e-96f5-457c-af11-f6f27dad33e9","ios":"levelo://app?vid=dfb3396e-96f5-457c-af11-f6f27dad33e9"},"vehicle_type_id":"4","last_reported":1746310164,"current_range_meters":8800,"station_id":"","pricing_plan_id":"cebpf4jnsgd1na2vs0mg"},{"bike_id":"ef69e7cc-37df-4e66-bd4f-a85ef9d1ea7e","system_id":"levelo_inurba_marseille","lat":43.274916,"lon":5.424552,"is_reserved":false,"is_disabled":false,"rental_uris":{"android":"levelo://app?vid=ef69e7cc-37df-4e66-bd4f-a85ef9d1ea7e","ios":"levelo://app?vid=ef69e7cc-37df-4e66-bd4f-a85ef9d1ea7e"},"vehicle_type_id":"4","last_reported":1746310164,"current_range_meters":8800,"station_id":"ce4bhn92rcd13ifvqgrg","pricing_plan_id":"cebpf4jnsgd1na2vs0mg"},{"bike_id":"0ca2aeff-c10c-4be3-8c0b-3162193c983e","system_id":"levelo_inurba_marseille","lat":43.30778,"lon":5.37652,"is_reserved":false,"is_disabled":true,"rental_uris":{"android":"levelo://app?vid=0ca2aeff-c10c-4be3-8c0b-3162193c983e","ios":"levelo://app?vid=0ca2aeff-c10c-4be3-8c0b-3162193c983e"},"vehicle_type_id":"4","last_reported":1746310164,"current_range_meters":8800,"station_id":"","pricing_plan_id":"cebpf4jnsgd1na2vs0mg"},{"bike_id":"4bd926a1-2427-4f1d-a5fe-c77c16f0bca5","system_id":"levelo_inurba_marseille","lat":43.28452,"lon":5.35888,"is_reserved":false,"is_disabled":false,"rental_uris":{"android":"levelo://app?vid=4bd926a1-2427-4f1d-a5fe-c77c16f0bca5","ios":"levelo://app?vid=4bd926a1-2427-4f1d-a5fe-c77c16f0bca5"},"vehicle_type_id":"4","last_reported":1746310164,"current_range_meters":8800,"station_id":"ce4bhah2rcd13ifvqei0","pricing_plan_id":"cebpf4jnsgd1na2vs0mg"},{"bike_id":"721f19a3-6fc8-4aa3-b8d6-b74174066f05","system_id":"levelo_inurba_marseille","lat":43.32012,"lon":5.38125,"is_reserved":false,"is_disabled":false,"rental_uris":{"android":"levelo://app?vid=721f19a3-6fc8-4aa3-b8d6-b74174066f05","ios":"levelo://app?vid=721f19a3-6fc8-4aa3-b8d6-b74174066f05"},"vehicle_type_id":"4","last_reported":1746310164,"current_range_meters":8800,"station_id":"ce4bhr12rcd13ifvqhpg","pricing_plan_id":"cebpf4jnsgd1na2vs0mg"},{"bike_id":"fbd9eb5a-03ac-4861-a75e-d8b02fa3d54d","system_id":"levelo_inurba_marseille","lat":43.28614,"lon":5.35102,"is_reserved":false,"is_disabled":false,"rental_uris":{"android":"levelo://app?vid=fbd9eb5a-03ac-4861-a75e-d8b02fa3d54d","ios":"levelo://app?vid=fbd9eb5a-03ac-4861-a75e-d8b02fa3d54d"},"vehicle_type_id":"4","last_reported":1746310164,"current_range_meters":8800,"station_id":"ce4bhch2rcd13ifvqeug","pricing_plan_id":"cebpf4jnsgd1na2vs0mg"},{"bike_id":"544c84c5-5097-4b83-8f16-090bda6c04db","system_id":"levelo_inurba_marseille","lat":43.30158,"lon":5.38087,"is_reserved":false,"is_disabled":false,"rental_uris":{"android":"levelo://app?vid=544c84c5-5097-4b83-8f16-090bda6c04db","ios":"levelo://app?vid=544c84c5-5097-4b83-8f16-090bda6c04db"},"vehicle_type_id":"4","last_reported":1746310164,"current_range_meters":9200,"station_id":"ce4bgjp2rcd13ifvqbh0","pricing_plan_id":"cebpf4jnsgd1na2vs0mg"},{"bike_id":"d51bd1f8-5797-40a8-8b2d-1b322c3a66a4","system_id":"levelo_inurba_marseille","lat":43.30928,"lon":5.40149,"is_reserved":false,"is_disabled":false,"rental_uris":{"android":"levelo://app?vid=d51bd1f8-5797-40a8-8b2d-1b322c3a66a4","ios":"levelo://app?vid=d51bd1f8-5797-40a8-8b2d-1b322c3a66a4"},"vehicle_type_id":"4","last_reported":1746310164,"current_range_meters":9200,"station_id":"ce4bgvp2rcd13ifvqct0","pricing_plan_id":"cebpf4jnsgd1na2vs0mg"},{"bike_id":"3a6c1c4a-dd80-4e9d-9632-aaca59f6d0aa","system_id":"levelo_inurba_marseille","lat":43.323568,"lon":5.388954,"is_reserved":false,"is_disabled":false,"rental_uris":{"android":"levelo://app?vid=3a6c1c4a-dd80-4e9d-9632-aaca59f6d0aa","ios":"levelo://app?vid=3a6c1c4a-dd80-4e9d-9632-aaca59f6d0aa"},"vehicle_type_id":"4","last_reported":1746310164,"current_range_meters":9200,"station_id":"ce4bhqp2rcd13ifvqhog","pricing_plan_id":"cebpf4jnsgd1na2vs0mg"},{"bike_id":"f1ffd2b9-91e9-4bf5-a319-6e95940b0de6","system_id":"levelo_inurba_marseille","lat":43.29561,"lon":5.42284,"is_reserved":false,"is_disabled":false,"rental_uris":{"android":"levelo://app?vid=f1ffd2b9-91e9-4bf5-a319-6e95940b0de6","ios":"levelo://app?vid=f1ffd2b9-91e9-4bf5-a319-6e95940b0de6"},"vehicle_type_id":"4","last_reported":1746310164,"current_range_meters":9200,"station_id":"ce4bhph2rcd13ifvqhdg","pricing_plan_id":"cebpf4jnsgd1na2vs0mg"},{"bike_id":"8df6e310-0880-40a9-a691-cd475dfa3928","system_id":"levelo_inurba_marseille","lat":43.285878,"lon":5.442475,"is_reserved":false,"is_disabled":false,"rental_uris":{"android":"levelo://app?vid=8df6e310-0880-40a9-a691-cd475dfa3928","ios":"levelo://app?vid=8df6e310-0880-40a9-a691-cd475dfa3928"},"vehicle_type_id":"4","last_reported":1746310164,"current_range_meters":9200,"station_id":"","pricing_plan_id":"cebpf4jnsgd1na2vs0mg"},{"bike_id":"17bb867a-ff4b-4fc4-aef0-507aca66f5f8","system_id":"levelo_inurba_marseille","lat":43.26592,"lon":5.39023,"is_reserved":false,"is_disabled":false,"rental_uris":{"android":"levelo://app?vid=17bb867a-ff4b-4fc4-aef0-507aca66f5f8","ios":"levelo://app?vid=17bb867a-ff4b-4fc4-aef0-507aca66f5f8"},"vehicle_type_id":"4","last_reported":1746310164,"current_range_meters":9200,"station_id":"ce4bhe12rcd13ifvqf30","pricing_plan_id":"cebpf4jnsgd1na2vs0mg"},{"bike_id":"42b265ee-2f6e-42e6-be1a-7cd522f1be6f","system_id":"levelo_inurba_marseille","lat":43.278161,"lon":5.407194,"is_reserved":false,"is_disabled":false,"rental_uris":{"android":"levelo://app?vid=42b265ee-2f6e-42e6-be1a-7cd522f1be6f","ios":"levelo://app?vid=42b265ee-2f6e-42e6-be1a-7cd522f1be6f"},"vehicle_type_id":"4","last_reported":1746310164,"current_range_meters":9600,"station_id":"ce4bhnh2rcd13ifvqgtg","pricing_plan_id":"cebpf4jnsgd1na2vs0mg"},{"bike_id":"4466a348-ba1c-46d7-981b-a5e5602811c3","system_id":"levelo_inurba_marseille","lat":43.30938,"lon":5.40135,"is_reserved":false,"is_disabled":false,"rental_uris":{"android":"levelo://app?vid=4466a348-ba1c-46d7-981b-a5e5602811c3","ios":"levelo://app?vid=4466a348-ba1c-46d7-981b-a5e5602811c3"},"vehicle_type_id":"4","last_reported":1746310164,"current_range_meters":9600,"station_id":"ce4bgvp2rcd13ifvqct0","pricing_plan_id":"cebpf4jnsgd1na2vs0mg"},{"bike_id":"0655da73-de39-40e3-94f4-0d69de75e44b","system_id":"levelo_inurba_marseille","lat":43.30269,"lon":5.401,"is_reserved":false,"is_disabled":false,"rental_uris":{"android":"levelo://app?vid=0655da73-de39-40e3-94f4-0d69de75e44b","ios":"levelo://app?vid=0655da73-de39-40e3-94f4-0d69de75e44b"},"vehicle_type_id":"4","last_reported":1746310164,"current_range_meters":9600,"station_id":"ce4bgvh2rcd13ifvqcs0","pricing_plan_id":"cebpf4jnsgd1na2vs0mg"},{"bike_id":"cb70a2f8-b98f-4df9-8d25-becb1742ec7c","system_id":"levelo_inurba_marseille","lat":43.30909,"lon":5.36844,"is_reserved":false,"is_disabled":false,"rental_uris":{"android":"levelo://app?vid=cb70a2f8-b98f-4df9-8d25-becb1742ec7c","ios":"levelo://app?vid=cb70a2f8-b98f-4df9-8d25-becb1742ec7c"},"vehicle_type_id":"4","last_reported":1746310164,"current_range_meters":9200,"station_id":"ce4bgn92rcd13ifvqbvg","pricing_plan_id":"cebpf4jnsgd1na2vs0mg"},{"bike_id":"eca0c70f-2168-48b0-96be-1e019bae5ee4","system_id":"levelo_inurba_marseille","lat":43.30934,"lon":5.40136,"is_reserved":false,"is_disabled":false,"rental_uris":{"android":"levelo://app?vid=eca0c70f-2168-48b0-96be-1e019bae5ee4","ios":"levelo://app?vid=eca0c70f-2168-48b0-96be-1e019bae5ee4"},"vehicle_type_id":"4","last_reported":1746310164,"current_range_meters":9600,"station_id":"ce4bgvp2rcd13ifvqct0","pricing_plan_id":"cebpf4jnsgd1na2vs0mg"},{"bike_id":"0e34a68a-1e7e-4217-99de-5fd03012d1b6","system_id":"levelo_inurba_marseille","lat":43.23965,"lon":5.36623,"is_reserved":false,"is_disabled":false,"rental_uris":{"android":"levelo://app?vid=0e34a68a-1e7e-4217-99de-5fd03012d1b6","ios":"levelo://app?vid=0e34a68a-1e7e-4217-99de-5fd03012d1b6"},"vehicle_type_id":"4","last_reported":1746310164,"current_range_meters":9600,"station_id":"ce4bhi12rcd13ifvqfp0","pricing_plan_id":"cebpf4jnsgd1na2vs0mg"},{"bike_id":"c224a409-cddb-42db-8caa-96ea6f44d715","system_id":"levelo_inurba_marseille","lat":43.29526,"lon":5.39074,"is_reserved":false,"is_disabled":false,"rental_uris":{"android":"levelo://app?vid=c224a409-cddb-42db-8caa-96ea6f44d715","ios":"levelo://app?vid=c224a409-cddb-42db-8caa-96ea6f44d715"},"vehicle_type_id":"4","last_reported":1746310164,"current_range_meters":9600,"station_id":"ce4bh3p2rcd13ifvqdp0","pricing_plan_id":"cebpf4jnsgd1na2vs0mg"},{"bike_id":"f0259f55-382d-4317-a5a3-c63365a0d76b","system_id":"levelo_inurba_marseille","lat":43.25563,"lon":5.41758,"is_reserved":false,"is_disabled":false,"rental_uris":{"android":"levelo://app?vid=f0259f55-382d-4317-a5a3-c63365a0d76b","ios":"levelo://app?vid=f0259f55-382d-4317-a5a3-c63365a0d76b"},"vehicle_type_id":"4","last_reported":1746310164,"current_range_meters":10000,"station_id":"","pricing_plan_id":"cebpf4jnsgd1na2vs0mg"},{"bike_id":"c99436f9-8239-47d1-849f-3200a0b98988","system_id":"levelo_inurba_marseille","lat":43.28454,"lon":5.35883,"is_reserved":false,"is_disabled":false,"rental_uris":{"android":"levelo://app?vid=c99436f9-8239-47d1-849f-3200a0b98988","ios":"levelo://app?vid=c99436f9-8239-47d1-849f-3200a0b98988"},"vehicle_type_id":"4","last_reported":1746310164,"current_range_meters":9600,"station_id":"ce4bhah2rcd13ifvqei0","pricing_plan_id":"cebpf4jnsgd1na2vs0mg"},{"bike_id":"be9042c4-716a-416e-af52-c92d47776467","system_id":"levelo_inurba_marseille","lat":43.30914,"lon":5.40121,"is_reserved":false,"is_disabled":true,"rental_uris":{"android":"levelo://app?vid=be9042c4-716a-416e-af52-c92d47776467","ios":"levelo://app?vid=be9042c4-716a-416e-af52-c92d47776467"},"vehicle_type_id":"4","last_reported":1746310164,"current_range_meters":10000,"station_id":"ce4bgvp2rcd13ifvqct0","pricing_plan_id":"cebpf4jnsgd1na2vs0mg"},{"bike_id":"5d9a54ab-8ca5-45ce-9e8d-1ecc587fe2f3","system_id":"levelo_inurba_marseille","lat":43.29726,"lon":5.40726,"is_reserved":false,"is_disabled":false,"rental_uris":{"android":"levelo://app?vid=5d9a54ab-8ca5-45ce-9e8d-1ecc587fe2f3","ios":"levelo://app?vid=5d9a54ab-8ca5-45ce-9e8d-1ecc587fe2f3"},"vehicle_type_id":"4","last_reported":1746310164,"current_range_meters":10000,"station_id":"","pricing_plan_id":"cebpf4jnsgd1na2vs0mg"},{"bike_id":"d46ff476-7861-4508-852b-cd2e908638cd","system_id":"levelo_inurba_marseille","lat":43.28274,"lon":5.35066,"is_reserved":false,"is_disabled":false,"rental_uris":{"android":"levelo://app?vid=d46ff476-7861-4508-852b-cd2e908638cd","ios":"levelo://app?vid=d46ff476-7861-4508-852b-cd2e908638cd"},"vehicle_type_id":"4","last_reported":1746310164,"current_range_meters":10000,"station_id":"ce4bhbp2rcd13ifvqerg","pricing_plan_id":"cebpf4jnsgd1na2vs0mg"},{"bike_id":"6ae9068b-8534-47e2-832a-cb0e5255371d","system_id":"levelo_inurba_marseille","lat":43.337444,"lon":5.374475,"is_reserved":false,"is_disabled":false,"rental_uris":{"android":"levelo://app?vid=6ae9068b-8534-47e2-832a-cb0e5255371d","ios":"levelo://app?vid=6ae9068b-8534-47e2-832a-cb0e5255371d"},"vehicle_type_id":"4","last_reported":1746310164,"current_range_meters":10000,"station_id":"ce4bgvp2rcd13ifvqct0","pricing_plan_id":"cebpf4jnsgd1na2vs0mg"},{"bike_id":"5453d414-cef1-4589-be92-1374fcb92d09","system_id":"levelo_inurba_marseille","lat":43.31353,"lon":5.38504,"is_reserved":false,"is_disabled":false,"rental_uris":{"android":"levelo://app?vid=5453d414-cef1-4589-be92-1374fcb92d09","ios":"levelo://app?vid=5453d414-cef1-4589-be92-1374fcb92d09"},"vehicle_type_id":"4","last_reported":1746310164,"current_range_meters":10000,"station_id":"ce4bgt92rcd13ifvqcf0","pricing_plan_id":"cebpf4jnsgd1na2vs0mg"},{"bike_id":"fb582505-15b6-40c6-97cc-2feebea7d568","system_id":"levelo_inurba_marseille","lat":43.30417,"lon":5.39749,"is_reserved":false,"is_disabled":true,"rental_uris":{"android":"levelo://app?vid=fb582505-15b6-40c6-97cc-2feebea7d568","ios":"levelo://app?vid=fb582505-15b6-40c6-97cc-2feebea7d568"},"vehicle_type_id":"4","last_reported":1746310164,"current_range_meters":10800,"station_id":"ce4bh092rcd13ifvqd20","pricing_plan_id":"cebpf4jnsgd1na2vs0mg"},{"bike_id":"75fa9943-cbe0-4940-a9be-f80f8dede2da","system_id":"levelo_inurba_marseille","lat":43.22547,"lon":5.34766,"is_reserved":false,"is_disabled":false,"rental_uris":{"android":"levelo://app?vid=75fa9943-cbe0-4940-a9be-f80f8dede2da","ios":"levelo://app?vid=75fa9943-cbe0-4940-a9be-f80f8dede2da"},"vehicle_type_id":"4","last_reported":1746310164,"current_range_meters":10800,"station_id":"","pricing_plan_id":"cebpf4jnsgd1na2vs0mg"},{"bike_id":"82dd469d-6314-47d5-aef2-d4b46bf731d9","system_id":"levelo_inurba_marseille","lat":43.2732,"lon":5.39073,"is_reserved":false,"is_disabled":false,"rental_uris":{"android":"levelo://app?vid=82dd469d-6314-47d5-aef2-d4b46bf731d9","ios":"levelo://app?vid=82dd469d-6314-47d5-aef2-d4b46bf731d9"},"vehicle_type_id":"4","last_reported":1746310164,"current_range_meters":10000,"station_id":"ce4bhgp2rcd13ifvqfe0","pricing_plan_id":"cebpf4jnsgd1na2vs0mg"},{"bike_id":"59c05668-9a78-4683-b670-a7794c85b3b0","system_id":"levelo_inurba_marseille","lat":43.29375,"lon":5.37857,"is_reserved":false,"is_disabled":true,"rental_uris":{"android":"levelo://app?vid=59c05668-9a78-4683-b670-a7794c85b3b0","ios":"levelo://app?vid=59c05668-9a78-4683-b670-a7794c85b3b0"},"vehicle_type_id":"4","last_reported":1746310164,"current_range_meters":10800,"station_id":"ce4bgjh2rcd13ifvqbf0","pricing_plan_id":"cebpf4jnsgd1na2vs0mg"},{"bike_id":"2f2e2422-0ca9-4635-8561-f770e540dc91","system_id":"levelo_inurba_marseille","lat":43.29801,"lon":5.37035,"is_reserved":false,"is_disabled":false,"rental_uris":{"android":"levelo://app?vid=2f2e2422-0ca9-4635-8561-f770e540dc91","ios":"levelo://app?vid=2f2e2422-0ca9-4635-8561-f770e540dc91"},"vehicle_type_id":"4","last_reported":1746310164,"current_range_meters":10800,"station_id":"","pricing_plan_id":"cebpf4jnsgd1na2vs0mg"},{"bike_id":"c9667bec-b4e1-4aba-85da-6ad1e46c0b9d","system_id":"levelo_inurba_marseille","lat":43.27068,"lon":5.42267,"is_reserved":false,"is_disabled":false,"rental_uris":{"android":"levelo://app?vid=c9667bec-b4e1-4aba-85da-6ad1e46c0b9d","ios":"levelo://app?vid=c9667bec-b4e1-4aba-85da-6ad1e46c0b9d"},"vehicle_type_id":"4","last_reported":1746310164,"current_range_meters":10800,"station_id":"ce4bhk92rcd13ifvqgb0","pricing_plan_id":"cebpf4jnsgd1na2vs0mg"},{"bike_id":"d11ad4ed-5483-4abb-b8ae-c4e0f73880b4","system_id":"levelo_inurba_marseille","lat":43.31751,"lon":5.43691,"is_reserved":false,"is_disabled":false,"rental_uris":{"android":"levelo://app?vid=d11ad4ed-5483-4abb-b8ae-c4e0f73880b4","ios":"levelo://app?vid=d11ad4ed-5483-4abb-b8ae-c4e0f73880b4"},"vehicle_type_id":"4","last_reported":1746310164,"current_range_meters":10800,"station_id":"ce4bhp92rcd13ifvqhcg","pricing_plan_id":"cebpf4jnsgd1na2vs0mg"},{"bike_id":"1ee82596-11fd-4eed-82ca-94f154658541","system_id":"levelo_inurba_marseille","lat":43.29301,"lon":5.37462,"is_reserved":false,"is_disabled":false,"rental_uris":{"android":"levelo://app?vid=1ee82596-11fd-4eed-82ca-94f154658541","ios":"levelo://app?vid=1ee82596-11fd-4eed-82ca-94f154658541"},"vehicle_type_id":"4","last_reported":1746310164,"current_range_meters":10800,"station_id":"ce4bgi12rcd13ifvqb70","pricing_plan_id":"cebpf4jnsgd1na2vs0mg"},{"bike_id":"e141d286-5a2c-470e-8ce3-fc63bfe9226f","system_id":"levelo_inurba_marseille","lat":43.33786,"lon":5.41857,"is_reserved":false,"is_disabled":false,"rental_uris":{"android":"levelo://app?vid=e141d286-5a2c-470e-8ce3-fc63bfe9226f","ios":"levelo://app?vid=e141d286-5a2c-470e-8ce3-fc63bfe9226f"},"vehicle_type_id":"4","last_reported":1746310164,"current_range_meters":10800,"station_id":"","pricing_plan_id":"cebpf4jnsgd1na2vs0mg"},{"bike_id":"2d77ae15-6d78-4fac-bdbb-eaa814c527f4","system_id":"levelo_inurba_marseille","lat":43.28462,"lon":5.35898,"is_reserved":false,"is_disabled":false,"rental_uris":{"android":"levelo://app?vid=2d77ae15-6d78-4fac-bdbb-eaa814c527f4","ios":"levelo://app?vid=2d77ae15-6d78-4fac-bdbb-eaa814c527f4"},"vehicle_type_id":"4","last_reported":1746310164,"current_range_meters":10000,"station_id":"ce4bhah2rcd13ifvqei0","pricing_plan_id":"cebpf4jnsgd1na2vs0mg"},{"bike_id":"b8028bbc-e0b2-47d7-951d-2ca751c3d28a","system_id":"levelo_inurba_marseille","lat":43.27813,"lon":5.40714,"is_reserved":false,"is_disabled":false,"rental_uris":{"android":"levelo://app?vid=b8028bbc-e0b2-47d7-951d-2ca751c3d28a","ios":"levelo://app?vid=b8028bbc-e0b2-47d7-951d-2ca751c3d28a"},"vehicle_type_id":"4","last_reported":1746310164,"current_range_meters":10800,"station_id":"ce4bhnh2rcd13ifvqgtg","pricing_plan_id":"cebpf4jnsgd1na2vs0mg"},{"bike_id":"482f00aa-c3ee-446b-8f24-a1d4dffa2e19","system_id":"levelo_inurba_marseille","lat":43.29698,"lon":5.37695,"is_reserved":false,"is_disabled":true,"rental_uris":{"android":"levelo://app?vid=482f00aa-c3ee-446b-8f24-a1d4dffa2e19","ios":"levelo://app?vid=482f00aa-c3ee-446b-8f24-a1d4dffa2e19"},"vehicle_type_id":"4","last_reported":1746310164,"current_range_meters":10800,"station_id":"ce4bgkh2rcd13ifvqbl0","pricing_plan_id":"cebpf4jnsgd1na2vs0mg"},{"bike_id":"2b044811-5853-48c0-a0ed-d727992c9cfc","system_id":"levelo_inurba_marseille","lat":43.24649,"lon":5.38897,"is_reserved":false,"is_disabled":false,"rental_uris":{"android":"levelo://app?vid=2b044811-5853-48c0-a0ed-d727992c9cfc","ios":"levelo://app?vid=2b044811-5853-48c0-a0ed-d727992c9cfc"},"vehicle_type_id":"4","last_reported":1746310164,"current_range_meters":10800,"station_id":"ce4bhg12rcd13ifvqf60","pricing_plan_id":"cebpf4jnsgd1na2vs0mg"},{"bike_id":"973331b4-0ac3-4826-a349-2395352aeb67","system_id":"levelo_inurba_marseille","lat":43.29263,"lon":5.384393,"is_reserved":false,"is_disabled":false,"rental_uris":{"android":"levelo://app?vid=973331b4-0ac3-4826-a349-2395352aeb67","ios":"levelo://app?vid=973331b4-0ac3-4826-a349-2395352aeb67"},"vehicle_type_id":"4","last_reported":1746310164,"current_range_meters":11200,"station_id":"ce4bh692rcd13ifvqea0","pricing_plan_id":"cebpf4jnsgd1na2vs0mg"},{"bike_id":"d081efb5-0ddf-41ac-b976-c7944bd32c9e","system_id":"levelo_inurba_marseille","lat":43.30207,"lon":5.39472,"is_reserved":false,"is_disabled":false,"rental_uris":{"android":"levelo://app?vid=d081efb5-0ddf-41ac-b976-c7944bd32c9e","ios":"levelo://app?vid=d081efb5-0ddf-41ac-b976-c7944bd32c9e"},"vehicle_type_id":"4","last_reported":1746310164,"current_range_meters":11200,"station_id":"ce4bh0p2rcd13ifvqd70","pricing_plan_id":"cebpf4jnsgd1na2vs0mg"},{"bike_id":"ff85802d-0bcd-4a45-9f91-6d6fa0c2c4f0","system_id":"levelo_inurba_marseille","lat":43.30925,"lon":5.401502,"is_reserved":false,"is_disabled":false,"rental_uris":{"android":"levelo://app?vid=ff85802d-0bcd-4a45-9f91-6d6fa0c2c4f0","ios":"levelo://app?vid=ff85802d-0bcd-4a45-9f91-6d6fa0c2c4f0"},"vehicle_type_id":"4","last_reported":1746310164,"current_range_meters":11200,"station_id":"ce4bgvp2rcd13ifvqct0","pricing_plan_id":"cebpf4jnsgd1na2vs0mg"},{"bike_id":"a37779e7-3d8a-4c82-9997-3090313b05d7","system_id":"levelo_inurba_marseille","lat":43.22924,"lon":5.35375,"is_reserved":false,"is_disabled":true,"rental_uris":{"android":"levelo://app?vid=a37779e7-3d8a-4c82-9997-3090313b05d7","ios":"levelo://app?vid=a37779e7-3d8a-4c82-9997-3090313b05d7"},"vehicle_type_id":"4","last_reported":1746310164,"current_range_meters":11200,"station_id":"cpo3532slgdg3j2ikp40","pricing_plan_id":"cebpf4jnsgd1na2vs0mg"},{"bike_id":"2250d72f-2fab-4227-a6b9-ee459fd1aee7","system_id":"levelo_inurba_marseille","lat":43.28425,"lon":5.37515,"is_reserved":false,"is_disabled":false,"rental_uris":{"android":"levelo://app?vid=2250d72f-2fab-4227-a6b9-ee459fd1aee7","ios":"levelo://app?vid=2250d72f-2fab-4227-a6b9-ee459fd1aee7"},"vehicle_type_id":"4","last_reported":1746310164,"current_range_meters":11200,"station_id":"ce4bh412rcd13ifvqds0","pricing_plan_id":"cebpf4jnsgd1na2vs0mg"},{"bike_id":"4ba868f1-7884-4df1-931d-574bcb62eaf3","system_id":"levelo_inurba_marseille","lat":43.31372,"lon":5.38499,"is_reserved":false,"is_disabled":false,"rental_uris":{"android":"levelo://app?vid=4ba868f1-7884-4df1-931d-574bcb62eaf3","ios":"levelo://app?vid=4ba868f1-7884-4df1-931d-574bcb62eaf3"},"vehicle_type_id":"4","last_reported":1746310164,"current_range_meters":11200,"station_id":"ce4bgt92rcd13ifvqcf0","pricing_plan_id":"cebpf4jnsgd1na2vs0mg"},{"bike_id":"df7979e7-1d55-472f-bada-e16026cb4167","system_id":"levelo_inurba_marseille","lat":43.29308,"lon":5.37178,"is_reserved":false,"is_disabled":false,"rental_uris":{"android":"levelo://app?vid=df7979e7-1d55-472f-bada-e16026cb4167","ios":"levelo://app?vid=df7979e7-1d55-472f-bada-e16026cb4167"},"vehicle_type_id":"4","last_reported":1746310164,"current_range_meters":11200,"station_id":"ce4bgh92rcd13ifvqb40","pricing_plan_id":"cebpf4jnsgd1na2vs0mg"},{"bike_id":"c6063f25-88c2-4ee8-8b47-7eeebc20b14f","system_id":"levelo_inurba_marseille","lat":43.24826,"lon":5.37442,"is_reserved":false,"is_disabled":false,"rental_uris":{"android":"levelo://app?vid=c6063f25-88c2-4ee8-8b47-7eeebc20b14f","ios":"levelo://app?vid=c6063f25-88c2-4ee8-8b47-7eeebc20b14f"},"vehicle_type_id":"4","last_reported":1746310164,"current_range_meters":11200,"station_id":"ce4bhgh2rcd13ifvqfb0","pricing_plan_id":"cebpf4jnsgd1na2vs0mg"},{"bike_id":"c42d6fc4-22d2-4b20-b724-d98e4c8fa6ee","system_id":"levelo_inurba_marseille","lat":43.31365,"lon":5.38533,"is_reserved":false,"is_disabled":false,"rental_uris":{"android":"levelo://app?vid=c42d6fc4-22d2-4b20-b724-d98e4c8fa6ee","ios":"levelo://app?vid=c42d6fc4-22d2-4b20-b724-d98e4c8fa6ee"},"vehicle_type_id":"4","last_reported":1746310164,"current_range_meters":11200,"station_id":"ce4bgt92rcd13ifvqcf0","pricing_plan_id":"cebpf4jnsgd1na2vs0mg"},{"bike_id":"4d20eac1-6e10-415a-ba44-9463d913f12f","system_id":"levelo_inurba_marseille","lat":43.29782,"lon":5.39075,"is_reserved":false,"is_disabled":false,"rental_uris":{"android":"levelo://app?vid=4d20eac1-6e10-415a-ba44-9463d913f12f","ios":"levelo://app?vid=4d20eac1-6e10-415a-ba44-9463d913f12f"},"vehicle_type_id":"4","last_reported":1746310164,"current_range_meters":11200,"station_id":"","pricing_plan_id":"cebpf4jnsgd1na2vs0mg"},{"bike_id":"fd2c3c67-23a6-4380-b7ca-8f23c8f78921","system_id":"levelo_inurba_marseille","lat":43.32363,"lon":5.36752,"is_reserved":false,"is_disabled":false,"rental_uris":{"android":"levelo://app?vid=fd2c3c67-23a6-4380-b7ca-8f23c8f78921","ios":"levelo://app?vid=fd2c3c67-23a6-4380-b7ca-8f23c8f78921"},"vehicle_type_id":"4","last_reported":1746310164,"current_range_meters":11200,"station_id":"ce4bhsh2rcd13ifvqi2g","pricing_plan_id":"cebpf4jnsgd1na2vs0mg"},{"bike_id":"1f6ed0db-99e6-462e-a3dd-d2316ef597da","system_id":"levelo_inurba_marseille","lat":43.29268,"lon":5.38441,"is_reserved":false,"is_disabled":false,"rental_uris":{"android":"levelo://app?vid=1f6ed0db-99e6-462e-a3dd-d2316ef597da","ios":"levelo://app?vid=1f6ed0db-99e6-462e-a3dd-d2316ef597da"},"vehicle_type_id":"4","last_reported":1746310164,"current_range_meters":11200,"station_id":"ce4bh692rcd13ifvqea0","pricing_plan_id":"cebpf4jnsgd1na2vs0mg"},{"bike_id":"dde313c9-2956-4963-9e10-a6ae4348ff85","system_id":"levelo_inurba_marseille","lat":43.31482,"lon":5.37312,"is_reserved":false,"is_disabled":false,"rental_uris":{"android":"levelo://app?vid=dde313c9-2956-4963-9e10-a6ae4348ff85","ios":"levelo://app?vid=dde313c9-2956-4963-9e10-a6ae4348ff85"},"vehicle_type_id":"4","last_reported":1746310164,"current_range_meters":11600,"station_id":"ce4bgt12rcd13ifvqcd0","pricing_plan_id":"cebpf4jnsgd1na2vs0mg"},{"bike_id":"e4856e11-0139-477e-a022-4b979369719b","system_id":"levelo_inurba_marseille","lat":43.23941,"lon":5.36645,"is_reserved":false,"is_disabled":false,"rental_uris":{"android":"levelo://app?vid=e4856e11-0139-477e-a022-4b979369719b","ios":"levelo://app?vid=e4856e11-0139-477e-a022-4b979369719b"},"vehicle_type_id":"4","last_reported":1746310164,"current_range_meters":12000,"station_id":"ce4bhi12rcd13ifvqfp0","pricing_plan_id":"cebpf4jnsgd1na2vs0mg"},{"bike_id":"936e36fc-addc-4749-bc91-1ba4ca6c4068","system_id":"levelo_inurba_marseille","lat":43.24654,"lon":5.38894,"is_reserved":false,"is_disabled":false,"rental_uris":{"android":"levelo://app?vid=936e36fc-addc-4749-bc91-1ba4ca6c4068","ios":"levelo://app?vid=936e36fc-addc-4749-bc91-1ba4ca6c4068"},"vehicle_type_id":"4","last_reported":1746310164,"current_range_meters":12000,"station_id":"ce4bhg12rcd13ifvqf60","pricing_plan_id":"cebpf4jnsgd1na2vs0mg"},{"bike_id":"b974e2a7-fd62-468c-9689-7874ba99a33c","system_id":"levelo_inurba_marseille","lat":43.30587,"lon":5.39347,"is_reserved":false,"is_disabled":false,"rental_uris":{"android":"levelo://app?vid=b974e2a7-fd62-468c-9689-7874ba99a33c","ios":"levelo://app?vid=b974e2a7-fd62-468c-9689-7874ba99a33c"},"vehicle_type_id":"4","last_reported":1746310164,"current_range_meters":12000,"station_id":"ce4bh0p2rcd13ifvqd80","pricing_plan_id":"cebpf4jnsgd1na2vs0mg"},{"bike_id":"f8d00e22-0a13-4cc0-8f55-71982e5197df","system_id":"levelo_inurba_marseille","lat":43.292633,"lon":5.376216,"is_reserved":false,"is_disabled":false,"rental_uris":{"android":"levelo://app?vid=f8d00e22-0a13-4cc0-8f55-71982e5197df","ios":"levelo://app?vid=f8d00e22-0a13-4cc0-8f55-71982e5197df"},"vehicle_type_id":"4","last_reported":1746310164,"current_range_meters":12000,"station_id":"ce4bgjh2rcd13ifvqbf0","pricing_plan_id":"cebpf4jnsgd1na2vs0mg"},{"bike_id":"ea6b92fb-c0b2-4b25-a45e-34bc39c0c89f","system_id":"levelo_inurba_marseille","lat":43.3096,"lon":5.39043,"is_reserved":false,"is_disabled":false,"rental_uris":{"android":"levelo://app?vid=ea6b92fb-c0b2-4b25-a45e-34bc39c0c89f","ios":"levelo://app?vid=ea6b92fb-c0b2-4b25-a45e-34bc39c0c89f"},"vehicle_type_id":"4","last_reported":1746310164,"current_range_meters":12000,"station_id":"ce4bgup2rcd13ifvqco0","pricing_plan_id":"cebpf4jnsgd1na2vs0mg"},{"bike_id":"274ad913-cb5d-44ea-8484-26eae07424ea","system_id":"levelo_inurba_marseille","lat":43.25865,"lon":5.39913,"is_reserved":false,"is_disabled":true,"rental_uris":{"android":"levelo://app?vid=274ad913-cb5d-44ea-8484-26eae07424ea","ios":"levelo://app?vid=274ad913-cb5d-44ea-8484-26eae07424ea"},"vehicle_type_id":"4","last_reported":1746310164,"current_range_meters":12000,"station_id":"ce4bhl92rcd13ifvqghg","pricing_plan_id":"cebpf4jnsgd1na2vs0mg"},{"bike_id":"c2c5beff-ec8e-48ee-825a-e3cdf2e54b49","system_id":"levelo_inurba_marseille","lat":43.29228,"lon":5.4002,"is_reserved":false,"is_disabled":false,"rental_uris":{"android":"levelo://app?vid=c2c5beff-ec8e-48ee-825a-e3cdf2e54b49","ios":"levelo://app?vid=c2c5beff-ec8e-48ee-825a-e3cdf2e54b49"},"vehicle_type_id":"4","last_reported":1746310164,"current_range_meters":12000,"station_id":"","pricing_plan_id":"cebpf4jnsgd1na2vs0mg"},{"bike_id":"aedf206f-89f3-4f30-9da6-56fb7ff8915b","system_id":"levelo_inurba_marseille","lat":43.28139,"lon":5.40402,"is_reserved":false,"is_disabled":false,"rental_uris":{"android":"levelo://app?vid=aedf206f-89f3-4f30-9da6-56fb7ff8915b","ios":"levelo://app?vid=aedf206f-89f3-4f30-9da6-56fb7ff8915b"},"vehicle_type_id":"4","last_reported":1746310164,"current_range_meters":12400,"station_id":"","pricing_plan_id":"cebpf4jnsgd1na2vs0mg"},{"bike_id":"df4c09ff-3b4b-4a6f-8b71-a49eeeeceae3","system_id":"levelo_inurba_marseille","lat":43.30331,"lon":5.40445,"is_reserved":false,"is_disabled":false,"rental_uris":{"android":"levelo://app?vid=df4c09ff-3b4b-4a6f-8b71-a49eeeeceae3","ios":"levelo://app?vid=df4c09ff-3b4b-4a6f-8b71-a49eeeeceae3"},"vehicle_type_id":"4","last_reported":1746310164,"current_range_meters":12400,"station_id":"ce4bh012rcd13ifvqd10","pricing_plan_id":"cebpf4jnsgd1na2vs0mg"},{"bike_id":"cd610a96-6273-4883-84ac-22b6ba560ca0","system_id":"levelo_inurba_marseille","lat":43.3059,"lon":5.39356,"is_reserved":false,"is_disabled":false,"rental_uris":{"android":"levelo://app?vid=cd610a96-6273-4883-84ac-22b6ba560ca0","ios":"levelo://app?vid=cd610a96-6273-4883-84ac-22b6ba560ca0"},"vehicle_type_id":"4","last_reported":1746310164,"current_range_meters":12400,"station_id":"ce4bh0p2rcd13ifvqd80","pricing_plan_id":"cebpf4jnsgd1na2vs0mg"},{"bike_id":"8fa95404-53f8-470b-a4eb-ba0219b3b558","system_id":"levelo_inurba_marseille","lat":43.28416,"lon":5.37512,"is_reserved":false,"is_disabled":false,"rental_uris":{"android":"levelo://app?vid=8fa95404-53f8-470b-a4eb-ba0219b3b558","ios":"levelo://app?vid=8fa95404-53f8-470b-a4eb-ba0219b3b558"},"vehicle_type_id":"4","last_reported":1746310164,"current_range_meters":12400,"station_id":"ce4bh412rcd13ifvqds0","pricing_plan_id":"cebpf4jnsgd1na2vs0mg"},{"bike_id":"c6b10c6c-8f5e-467d-af37-9302548870f6","system_id":"levelo_inurba_marseille","lat":43.2998,"lon":5.37166,"is_reserved":false,"is_disabled":false,"rental_uris":{"android":"levelo://app?vid=c6b10c6c-8f5e-467d-af37-9302548870f6","ios":"levelo://app?vid=c6b10c6c-8f5e-467d-af37-9302548870f6"},"vehicle_type_id":"4","last_reported":1746310164,"current_range_meters":12400,"station_id":"ce4bgr92rcd13ifvqc7g","pricing_plan_id":"cebpf4jnsgd1na2vs0mg"},{"bike_id":"6338e318-2f80-4349-ae11-615c887b4fb9","system_id":"levelo_inurba_marseille","lat":43.25931,"lon":5.40875,"is_reserved":false,"is_disabled":false,"rental_uris":{"android":"levelo://app?vid=6338e318-2f80-4349-ae11-615c887b4fb9","ios":"levelo://app?vid=6338e318-2f80-4349-ae11-615c887b4fb9"},"vehicle_type_id":"4","last_reported":1746310164,"current_range_meters":12400,"station_id":"ce4bhm92rcd13ifvqglg","pricing_plan_id":"cebpf4jnsgd1na2vs0mg"},{"bike_id":"689ee2f4-244c-4b4b-a564-b1ff7b1864f0","system_id":"levelo_inurba_marseille","lat":43.298713,"lon":5.397353,"is_reserved":false,"is_disabled":false,"rental_uris":{"android":"levelo://app?vid=689ee2f4-244c-4b4b-a564-b1ff7b1864f0","ios":"levelo://app?vid=689ee2f4-244c-4b4b-a564-b1ff7b1864f0"},"vehicle_type_id":"4","last_reported":1746310164,"current_range_meters":12800,"station_id":"ce4bh0h2rcd13ifvqd50","pricing_plan_id":"cebpf4jnsgd1na2vs0mg"},{"bike_id":"15e1fe92-aaf8-4888-832f-7ec1c1776144","system_id":"levelo_inurba_marseille","lat":43.24806,"lon":5.37447,"is_reserved":false,"is_disabled":false,"rental_uris":{"android":"levelo://app?vid=15e1fe92-aaf8-4888-832f-7ec1c1776144","ios":"levelo://app?vid=15e1fe92-aaf8-4888-832f-7ec1c1776144"},"vehicle_type_id":"4","last_reported":1746310164,"current_range_meters":12800,"station_id":"ce4bhgh2rcd13ifvqfb0","pricing_plan_id":"cebpf4jnsgd1na2vs0mg"},{"bike_id":"fecbcd3d-380d-4b58-bc17-19b366f78aef","system_id":"levelo_inurba_marseille","lat":43.30376,"lon":5.42482,"is_reserved":false,"is_disabled":false,"rental_uris":{"android":"levelo://app?vid=fecbcd3d-380d-4b58-bc17-19b366f78aef","ios":"levelo://app?vid=fecbcd3d-380d-4b58-bc17-19b366f78aef"},"vehicle_type_id":"4","last_reported":1746310164,"current_range_meters":12800,"station_id":"ce4bhoh2rcd13ifvqh6g","pricing_plan_id":"cebpf4jnsgd1na2vs0mg"},{"bike_id":"1d59b5c9-cca4-43f9-a7f4-1bb7ebcfb8ae","system_id":"levelo_inurba_marseille","lat":43.27373,"lon":5.362545,"is_reserved":false,"is_disabled":true,"rental_uris":{"android":"levelo://app?vid=1d59b5c9-cca4-43f9-a7f4-1bb7ebcfb8ae","ios":"levelo://app?vid=1d59b5c9-cca4-43f9-a7f4-1bb7ebcfb8ae"},"vehicle_type_id":"4","last_reported":1746310164,"current_range_meters":12800,"station_id":"","pricing_plan_id":"cebpf4jnsgd1na2vs0mg"},{"bike_id":"3bd56796-a588-4245-b00a-65ccc252ae20","system_id":"levelo_inurba_marseille","lat":43.3234,"lon":5.40615,"is_reserved":false,"is_disabled":false,"rental_uris":{"android":"levelo://app?vid=3bd56796-a588-4245-b00a-65ccc252ae20","ios":"levelo://app?vid=3bd56796-a588-4245-b00a-65ccc252ae20"},"vehicle_type_id":"4","last_reported":1746310164,"current_range_meters":12800,"station_id":"ce4bhq92rcd13ifvqhjg","pricing_plan_id":"cebpf4jnsgd1na2vs0mg"},{"bike_id":"4cd32815-4894-41a0-9a3d-e6c837dcaeea","system_id":"levelo_inurba_marseille","lat":43.299732,"lon":5.38493,"is_reserved":false,"is_disabled":true,"rental_uris":{"android":"levelo://app?vid=4cd32815-4894-41a0-9a3d-e6c837dcaeea","ios":"levelo://app?vid=4cd32815-4894-41a0-9a3d-e6c837dcaeea"},"vehicle_type_id":"4","last_reported":1746310164,"current_range_meters":13600,"station_id":"ce4bgj92rcd13ifvqbd0","pricing_plan_id":"cebpf4jnsgd1na2vs0mg"},{"bike_id":"3e84121a-71ad-4261-b6a9-37316f8cbd59","system_id":"levelo_inurba_marseille","lat":43.29023,"lon":5.38645,"is_reserved":false,"is_disabled":true,"rental_uris":{"android":"levelo://app?vid=3e84121a-71ad-4261-b6a9-37316f8cbd59","ios":"levelo://app?vid=3e84121a-71ad-4261-b6a9-37316f8cbd59"},"vehicle_type_id":"4","last_reported":1746310164,"current_range_meters":13600,"station_id":"ce4bh4p2rcd13ifvqe0g","pricing_plan_id":"cebpf4jnsgd1na2vs0mg"},{"bike_id":"e4ca52ac-e588-445c-b0de-9cb1f1de67b4","system_id":"levelo_inurba_marseille","lat":43.28454,"lon":5.35889,"is_reserved":false,"is_disabled":false,"rental_uris":{"android":"levelo://app?vid=e4ca52ac-e588-445c-b0de-9cb1f1de67b4","ios":"levelo://app?vid=e4ca52ac-e588-445c-b0de-9cb1f1de67b4"},"vehicle_type_id":"4","last_reported":1746310164,"current_range_meters":13600,"station_id":"ce4bhah2rcd13ifvqei0","pricing_plan_id":"cebpf4jnsgd1na2vs0mg"},{"bike_id":"4cdc21ce-727b-44ef-95f6-40c8cc110d52","system_id":"levelo_inurba_marseille","lat":43.293734,"lon":5.376675,"is_reserved":false,"is_disabled":false,"rental_uris":{"android":"levelo://app?vid=4cdc21ce-727b-44ef-95f6-40c8cc110d52","ios":"levelo://app?vid=4cdc21ce-727b-44ef-95f6-40c8cc110d52"},"vehicle_type_id":"4","last_reported":1746310164,"current_range_meters":14000,"station_id":"ce4bgkh2rcd13ifvqbl0","pricing_plan_id":"cebpf4jnsgd1na2vs0mg"},{"bike_id":"b438fe04-4f44-4008-92b2-5a5e4696cd27","system_id":"levelo_inurba_marseille","lat":43.29797,"lon":5.40398,"is_reserved":false,"is_disabled":false,"rental_uris":{"android":"levelo://app?vid=b438fe04-4f44-4008-92b2-5a5e4696cd27","ios":"levelo://app?vid=b438fe04-4f44-4008-92b2-5a5e4696cd27"},"vehicle_type_id":"4","last_reported":1746310164,"current_range_meters":14400,"station_id":"ce4bh112rcd13ifvqd90","pricing_plan_id":"cebpf4jnsgd1na2vs0mg"},{"bike_id":"cfc6a7c1-96e7-4f7d-8a03-23f3e8d00dbc","system_id":"levelo_inurba_marseille","lat":43.27571,"lon":5.3841,"is_reserved":false,"is_disabled":false,"rental_uris":{"android":"levelo://app?vid=cfc6a7c1-96e7-4f7d-8a03-23f3e8d00dbc","ios":"levelo://app?vid=cfc6a7c1-96e7-4f7d-8a03-23f3e8d00dbc"},"vehicle_type_id":"4","last_reported":1746310164,"current_range_meters":14400,"station_id":"ce4bhh92rcd13ifvqfi0","pricing_plan_id":"cebpf4jnsgd1na2vs0mg"},{"bike_id":"a73ecc45-4ccc-4bd2-b0e7-06f42b9a8d8f","system_id":"levelo_inurba_marseille","lat":43.30949,"lon":5.39027,"is_reserved":false,"is_disabled":false,"rental_uris":{"android":"levelo://app?vid=a73ecc45-4ccc-4bd2-b0e7-06f42b9a8d8f","ios":"levelo://app?vid=a73ecc45-4ccc-4bd2-b0e7-06f42b9a8d8f"},"vehicle_type_id":"4","last_reported":1746310164,"current_range_meters":14400,"station_id":"ce4bgup2rcd13ifvqco0","pricing_plan_id":"cebpf4jnsgd1na2vs0mg"},{"bike_id":"70f013ec-ac75-4fa0-9a2c-50be870c77c0","system_id":"levelo_inurba_marseille","lat":43.290222,"lon":5.381293,"is_reserved":false,"is_disabled":false,"rental_uris":{"android":"levelo://app?vid=70f013ec-ac75-4fa0-9a2c-50be870c77c0","ios":"levelo://app?vid=70f013ec-ac75-4fa0-9a2c-50be870c77c0"},"vehicle_type_id":"4","last_reported":1746310164,"current_range_meters":14400,"station_id":"ce4bh4p2rcd13ifvqe1g","pricing_plan_id":"cebpf4jnsgd1na2vs0mg"},{"bike_id":"21d14db5-e8e8-493f-97aa-60c626aee1fe","system_id":"levelo_inurba_marseille","lat":43.23155,"lon":5.43715,"is_reserved":false,"is_disabled":false,"rental_uris":{"android":"levelo://app?vid=21d14db5-e8e8-493f-97aa-60c626aee1fe","ios":"levelo://app?vid=21d14db5-e8e8-493f-97aa-60c626aee1fe"},"vehicle_type_id":"4","last_reported":1746310164,"current_range_meters":30000,"station_id":"ce4bhmp2rcd13ifvqgog","pricing_plan_id":"cebpf4jnsgd1na2vs0mg"},{"bike_id":"ce27a5e3-1ab3-4959-b40b-a3fdbb9f2ee0","system_id":"levelo_inurba_marseille","lat":43.31371,"lon":5.38496,"is_reserved":false,"is_disabled":false,"rental_uris":{"android":"levelo://app?vid=ce27a5e3-1ab3-4959-b40b-a3fdbb9f2ee0","ios":"levelo://app?vid=ce27a5e3-1ab3-4959-b40b-a3fdbb9f2ee0"},"vehicle_type_id":"4","last_reported":1746310164,"current_range_meters":14800,"station_id":"ce4bgt92rcd13ifvqcf0","pricing_plan_id":"cebpf4jnsgd1na2vs0mg"},{"bike_id":"34b29936-0b71-4a85-b23a-dcd37ca7db1b","system_id":"levelo_inurba_marseille","lat":43.27979,"lon":5.38737,"is_reserved":false,"is_disabled":false,"rental_uris":{"android":"levelo://app?vid=34b29936-0b71-4a85-b23a-dcd37ca7db1b","ios":"levelo://app?vid=34b29936-0b71-4a85-b23a-dcd37ca7db1b"},"vehicle_type_id":"4","last_reported":1746310164,"current_range_meters":14800,"station_id":"ce4bhg12rcd13ifvqf80","pricing_plan_id":"cebpf4jnsgd1na2vs0mg"},{"bike_id":"ea828a45-c243-45d9-9d9a-fee286f2e709","system_id":"levelo_inurba_marseille","lat":43.25822,"lon":5.39429,"is_reserved":false,"is_disabled":false,"rental_uris":{"android":"levelo://app?vid=ea828a45-c243-45d9-9d9a-fee286f2e709","ios":"levelo://app?vid=ea828a45-c243-45d9-9d9a-fee286f2e709"},"vehicle_type_id":"4","last_reported":1746310164,"current_range_meters":14400,"station_id":"ce4bhip2rcd13ifvqft0","pricing_plan_id":"cebpf4jnsgd1na2vs0mg"},{"bike_id":"dc0a098d-3ec8-4af1-b924-759c0f05f982","system_id":"levelo_inurba_marseille","lat":43.2583,"lon":5.39437,"is_reserved":false,"is_disabled":false,"rental_uris":{"android":"levelo://app?vid=dc0a098d-3ec8-4af1-b924-759c0f05f982","ios":"levelo://app?vid=dc0a098d-3ec8-4af1-b924-759c0f05f982"},"vehicle_type_id":"4","last_reported":1746310164,"current_range_meters":14800,"station_id":"ce4bhip2rcd13ifvqft0","pricing_plan_id":"cebpf4jnsgd1na2vs0mg"},{"bike_id":"d3fdaadb-138e-44dd-a7b8-4ab57d01b98b","system_id":"levelo_inurba_marseille","lat":43.33729,"lon":5.39186,"is_reserved":false,"is_disabled":false,"rental_uris":{"android":"levelo://app?vid=d3fdaadb-138e-44dd-a7b8-4ab57d01b98b","ios":"levelo://app?vid=d3fdaadb-138e-44dd-a7b8-4ab57d01b98b"},"vehicle_type_id":"4","last_reported":1746310164,"current_range_meters":14800,"station_id":"ce4bhr92rcd13ifvqhsg","pricing_plan_id":"cebpf4jnsgd1na2vs0mg"},{"bike_id":"5c5a6e9b-42f4-45e3-8fc4-d07eb23525a5","system_id":"levelo_inurba_marseille","lat":43.28489,"lon":5.38416,"is_reserved":false,"is_disabled":false,"rental_uris":{"android":"levelo://app?vid=5c5a6e9b-42f4-45e3-8fc4-d07eb23525a5","ios":"levelo://app?vid=5c5a6e9b-42f4-45e3-8fc4-d07eb23525a5"},"vehicle_type_id":"4","last_reported":1746310164,"current_range_meters":14800,"station_id":"ce4bh512rcd13ifvqe3g","pricing_plan_id":"cebpf4jnsgd1na2vs0mg"},{"bike_id":"6e6bcf4b-b11e-4671-aea3-372d1e3f9d18","system_id":"levelo_inurba_marseille","lat":43.29525,"lon":5.38542,"is_reserved":false,"is_disabled":false,"rental_uris":{"android":"levelo://app?vid=6e6bcf4b-b11e-4671-aea3-372d1e3f9d18","ios":"levelo://app?vid=6e6bcf4b-b11e-4671-aea3-372d1e3f9d18"},"vehicle_type_id":"4","last_reported":1746310164,"current_range_meters":14800,"station_id":"ce4bgih2rcd13ifvqba0","pricing_plan_id":"cebpf4jnsgd1na2vs0mg"},{"bike_id":"62833c51-00b3-43f2-9ca0-3fb0b91c3c0a","system_id":"levelo_inurba_marseille","lat":43.3136,"lon":5.38497,"is_reserved":false,"is_disabled":false,"rental_uris":{"android":"levelo://app?vid=62833c51-00b3-43f2-9ca0-3fb0b91c3c0a","ios":"levelo://app?vid=62833c51-00b3-43f2-9ca0-3fb0b91c3c0a"},"vehicle_type_id":"4","last_reported":1746310164,"current_range_meters":15200,"station_id":"ce4bgt92rcd13ifvqcf0","pricing_plan_id":"cebpf4jnsgd1na2vs0mg"},{"bike_id":"e14f0e0b-57ce-42d5-80f6-e3d891b564d1","system_id":"levelo_inurba_marseille","lat":43.27069,"lon":5.42276,"is_reserved":false,"is_disabled":false,"rental_uris":{"android":"levelo://app?vid=e14f0e0b-57ce-42d5-80f6-e3d891b564d1","ios":"levelo://app?vid=e14f0e0b-57ce-42d5-80f6-e3d891b564d1"},"vehicle_type_id":"4","last_reported":1746310164,"current_range_meters":15200,"station_id":"ce4bhk92rcd13ifvqgb0","pricing_plan_id":"cebpf4jnsgd1na2vs0mg"},{"bike_id":"fb80c1da-d845-467b-9c3b-2f591f4d56ae","system_id":"levelo_inurba_marseille","lat":43.323406,"lon":5.37422,"is_reserved":false,"is_disabled":false,"rental_uris":{"android":"levelo://app?vid=fb80c1da-d845-467b-9c3b-2f591f4d56ae","ios":"levelo://app?vid=fb80c1da-d845-467b-9c3b-2f591f4d56ae"},"vehicle_type_id":"4","last_reported":1746310164,"current_range_meters":16000,"station_id":"","pricing_plan_id":"cebpf4jnsgd1na2vs0mg"},{"bike_id":"57b577a6-05e4-403f-8e08-8a8bb593ff51","system_id":"levelo_inurba_marseille","lat":43.28939,"lon":5.36626,"is_reserved":false,"is_disabled":true,"rental_uris":{"android":"levelo://app?vid=57b577a6-05e4-403f-8e08-8a8bb593ff51","ios":"levelo://app?vid=57b577a6-05e4-403f-8e08-8a8bb593ff51"},"vehicle_type_id":"4","last_reported":1746310164,"current_range_meters":16000,"station_id":"ce4bhap2rcd13ifvqek0","pricing_plan_id":"cebpf4jnsgd1na2vs0mg"},{"bike_id":"b51e8583-0fb2-49ca-9c11-9dbce28dfa5d","system_id":"levelo_inurba_marseille","lat":43.23195,"lon":5.35543,"is_reserved":false,"is_disabled":false,"rental_uris":{"android":"levelo://app?vid=b51e8583-0fb2-49ca-9c11-9dbce28dfa5d","ios":"levelo://app?vid=b51e8583-0fb2-49ca-9c11-9dbce28dfa5d"},"vehicle_type_id":"4","last_reported":1746310164,"current_range_meters":16000,"station_id":"ce4bhu92rcd13ifvqi70","pricing_plan_id":"cebpf4jnsgd1na2vs0mg"},{"bike_id":"844a0275-028c-4801-92a9-b5012b78a254","system_id":"levelo_inurba_marseille","lat":43.29029,"lon":5.39985,"is_reserved":false,"is_disabled":false,"rental_uris":{"android":"levelo://app?vid=844a0275-028c-4801-92a9-b5012b78a254","ios":"levelo://app?vid=844a0275-028c-4801-92a9-b5012b78a254"},"vehicle_type_id":"4","last_reported":1746310164,"current_range_meters":16000,"station_id":"ce4bh392rcd13ifvqdm0","pricing_plan_id":"cebpf4jnsgd1na2vs0mg"},{"bike_id":"afe26da8-c150-4841-946f-711e82647dd0","system_id":"levelo_inurba_marseille","lat":43.29262,"lon":5.3844,"is_reserved":false,"is_disabled":false,"rental_uris":{"android":"levelo://app?vid=afe26da8-c150-4841-946f-711e82647dd0","ios":"levelo://app?vid=afe26da8-c150-4841-946f-711e82647dd0"},"vehicle_type_id":"4","last_reported":1746310164,"current_range_meters":16000,"station_id":"ce4bh692rcd13ifvqea0","pricing_plan_id":"cebpf4jnsgd1na2vs0mg"},{"bike_id":"377a50af-940e-4162-b907-c8d8e911d094","system_id":"levelo_inurba_marseille","lat":43.29428,"lon":5.386,"is_reserved":false,"is_disabled":false,"rental_uris":{"android":"levelo://app?vid=377a50af-940e-4162-b907-c8d8e911d094","ios":"levelo://app?vid=377a50af-940e-4162-b907-c8d8e911d094"},"vehicle_type_id":"4","last_reported":1746310164,"current_range_meters":16000,"station_id":"ce4bh2h2rcd13ifvqdh0","pricing_plan_id":"cebpf4jnsgd1na2vs0mg"},{"bike_id":"ae576fa8-f121-4598-a386-5129d3c6dd9e","system_id":"levelo_inurba_marseille","lat":43.31363,"lon":5.38495,"is_reserved":false,"is_disabled":false,"rental_uris":{"android":"levelo://app?vid=ae576fa8-f121-4598-a386-5129d3c6dd9e","ios":"levelo://app?vid=ae576fa8-f121-4598-a386-5129d3c6dd9e"},"vehicle_type_id":"4","last_reported":1746310164,"current_range_meters":16000,"station_id":"ce4bgt92rcd13ifvqcf0","pricing_plan_id":"cebpf4jnsgd1na2vs0mg"},{"bike_id":"ed2bb2c0-0169-44b4-994e-e3a453cd8966","system_id":"levelo_inurba_marseille","lat":43.2478,"lon":5.37458,"is_reserved":false,"is_disabled":false,"rental_uris":{"android":"levelo://app?vid=ed2bb2c0-0169-44b4-994e-e3a453cd8966","ios":"levelo://app?vid=ed2bb2c0-0169-44b4-994e-e3a453cd8966"},"vehicle_type_id":"4","last_reported":1746310164,"current_range_meters":16000,"station_id":"ce4bhgh2rcd13ifvqfb0","pricing_plan_id":"cebpf4jnsgd1na2vs0mg"},{"bike_id":"2a1262f2-35d5-469b-9d0d-130c6876fe29","system_id":"levelo_inurba_marseille","lat":43.24076,"lon":5.37752,"is_reserved":false,"is_disabled":false,"rental_uris":{"android":"levelo://app?vid=2a1262f2-35d5-469b-9d0d-130c6876fe29","ios":"levelo://app?vid=2a1262f2-35d5-469b-9d0d-130c6876fe29"},"vehicle_type_id":"4","last_reported":1746310164,"current_range_meters":16000,"station_id":"ce4bhnp2rcd13ifvqgvg","pricing_plan_id":"cebpf4jnsgd1na2vs0mg"},{"bike_id":"2e0cdf94-4013-407c-9d30-98747eb6a0ba","system_id":"levelo_inurba_marseille","lat":43.29071,"lon":5.37165,"is_reserved":false,"is_disabled":false,"rental_uris":{"android":"levelo://app?vid=2e0cdf94-4013-407c-9d30-98747eb6a0ba","ios":"levelo://app?vid=2e0cdf94-4013-407c-9d30-98747eb6a0ba"},"vehicle_type_id":"4","last_reported":1746310164,"current_range_meters":16400,"station_id":"ce4bh5p2rcd13ifvqe4g","pricing_plan_id":"cebpf4jnsgd1na2vs0mg"},{"bike_id":"4c017ca9-1551-41d1-8ad8-c0bc717a91c5","system_id":"levelo_inurba_marseille","lat":43.31166,"lon":5.3872,"is_reserved":false,"is_disabled":false,"rental_uris":{"android":"levelo://app?vid=4c017ca9-1551-41d1-8ad8-c0bc717a91c5","ios":"levelo://app?vid=4c017ca9-1551-41d1-8ad8-c0bc717a91c5"},"vehicle_type_id":"4","last_reported":1746310164,"current_range_meters":16400,"station_id":"ce4bgv12rcd13ifvqcp0","pricing_plan_id":"cebpf4jnsgd1na2vs0mg"},{"bike_id":"2f253395-3465-4c2f-8f96-0677d9517199","system_id":"levelo_inurba_marseille","lat":43.2926,"lon":5.38439,"is_reserved":false,"is_disabled":false,"rental_uris":{"android":"levelo://app?vid=2f253395-3465-4c2f-8f96-0677d9517199","ios":"levelo://app?vid=2f253395-3465-4c2f-8f96-0677d9517199"},"vehicle_type_id":"4","last_reported":1746310164,"current_range_meters":16400,"station_id":"ce4bh692rcd13ifvqea0","pricing_plan_id":"cebpf4jnsgd1na2vs0mg"},{"bike_id":"ebb3d409-a942-472a-92de-d86c8cef9261","system_id":"levelo_inurba_marseille","lat":43.24391,"lon":5.37039,"is_reserved":false,"is_disabled":false,"rental_uris":{"android":"levelo://app?vid=ebb3d409-a942-472a-92de-d86c8cef9261","ios":"levelo://app?vid=ebb3d409-a942-472a-92de-d86c8cef9261"},"vehicle_type_id":"4","last_reported":1746310164,"current_range_meters":16400,"station_id":"ce4bhhh2rcd13ifvqfk0","pricing_plan_id":"cebpf4jnsgd1na2vs0mg"},{"bike_id":"7f94af4d-81ec-4f11-8ad5-90fb2fdafca2","system_id":"levelo_inurba_marseille","lat":43.28041,"lon":5.36959,"is_reserved":false,"is_disabled":false,"rental_uris":{"android":"levelo://app?vid=7f94af4d-81ec-4f11-8ad5-90fb2fdafca2","ios":"levelo://app?vid=7f94af4d-81ec-4f11-8ad5-90fb2fdafca2"},"vehicle_type_id":"4","last_reported":1746310164,"current_range_meters":16400,"station_id":"ce4bha12rcd13ifvqef0","pricing_plan_id":"cebpf4jnsgd1na2vs0mg"},{"bike_id":"a82e1b14-54e0-4bd4-b02f-692e7f71524b","system_id":"levelo_inurba_marseille","lat":43.29415,"lon":5.386,"is_reserved":false,"is_disabled":false,"rental_uris":{"android":"levelo://app?vid=a82e1b14-54e0-4bd4-b02f-692e7f71524b","ios":"levelo://app?vid=a82e1b14-54e0-4bd4-b02f-692e7f71524b"},"vehicle_type_id":"4","last_reported":1746310164,"current_range_meters":16400,"station_id":"ce4bh2h2rcd13ifvqdh0","pricing_plan_id":"cebpf4jnsgd1na2vs0mg"},{"bike_id":"4cc851da-e1ec-42ff-95e4-8b92ad8a1e2f","system_id":"levelo_inurba_marseille","lat":43.300375,"lon":5.40174,"is_reserved":false,"is_disabled":false,"rental_uris":{"android":"levelo://app?vid=4cc851da-e1ec-42ff-95e4-8b92ad8a1e2f","ios":"levelo://app?vid=4cc851da-e1ec-42ff-95e4-8b92ad8a1e2f"},"vehicle_type_id":"4","last_reported":1746310164,"current_range_meters":16400,"station_id":"","pricing_plan_id":"cebpf4jnsgd1na2vs0mg"},{"bike_id":"750de35d-d213-40d7-83b7-c359eb72b473","system_id":"levelo_inurba_marseille","lat":43.26212,"lon":5.37465,"is_reserved":false,"is_disabled":false,"rental_uris":{"android":"levelo://app?vid=750de35d-d213-40d7-83b7-c359eb72b473","ios":"levelo://app?vid=750de35d-d213-40d7-83b7-c359eb72b473"},"vehicle_type_id":"4","last_reported":1746310164,"current_range_meters":16800,"station_id":"ce4bhgp2rcd13ifvqfc0","pricing_plan_id":"cebpf4jnsgd1na2vs0mg"},{"bike_id":"d1b7232d-ecd4-4fac-afe5-df8266262141","system_id":"levelo_inurba_marseille","lat":43.30421,"lon":5.38895,"is_reserved":false,"is_disabled":false,"rental_uris":{"android":"levelo://app?vid=d1b7232d-ecd4-4fac-afe5-df8266262141","ios":"levelo://app?vid=d1b7232d-ecd4-4fac-afe5-df8266262141"},"vehicle_type_id":"4","last_reported":1746310164,"current_range_meters":16800,"station_id":"ce4bgk12rcd13ifvqbi0","pricing_plan_id":"cebpf4jnsgd1na2vs0mg"},{"bike_id":"2daf09ec-1696-4167-9e55-54a2898d3406","system_id":"levelo_inurba_marseille","lat":43.31376,"lon":5.38493,"is_reserved":false,"is_disabled":false,"rental_uris":{"android":"levelo://app?vid=2daf09ec-1696-4167-9e55-54a2898d3406","ios":"levelo://app?vid=2daf09ec-1696-4167-9e55-54a2898d3406"},"vehicle_type_id":"4","last_reported":1746310164,"current_range_meters":16800,"station_id":"ce4bgt92rcd13ifvqcf0","pricing_plan_id":"cebpf4jnsgd1na2vs0mg"},{"bike_id":"aa968411-97dd-4910-a329-e7b82d99bf19","system_id":"levelo_inurba_marseille","lat":43.30779,"lon":5.37648,"is_reserved":false,"is_disabled":false,"rental_uris":{"android":"levelo://app?vid=aa968411-97dd-4910-a329-e7b82d99bf19","ios":"levelo://app?vid=aa968411-97dd-4910-a329-e7b82d99bf19"},"vehicle_type_id":"4","last_reported":1746310164,"current_range_meters":16400,"station_id":"ce4bgv92rcd13ifvqcq0","pricing_plan_id":"cebpf4jnsgd1na2vs0mg"},{"bike_id":"13ac70ce-06a2-418a-9608-b7937c0c93aa","system_id":"levelo_inurba_marseille","lat":43.30637,"lon":5.40091,"is_reserved":false,"is_disabled":false,"rental_uris":{"android":"levelo://app?vid=13ac70ce-06a2-418a-9608-b7937c0c93aa","ios":"levelo://app?vid=13ac70ce-06a2-418a-9608-b7937c0c93aa"},"vehicle_type_id":"4","last_reported":1746310164,"current_range_meters":16800,"station_id":"ce4bh112rcd13ifvqda0","pricing_plan_id":"cebpf4jnsgd1na2vs0mg"},{"bike_id":"f0f88df4-916a-40a3-931a-95b5db28b2df","system_id":"levelo_inurba_marseille","lat":43.29504,"lon":5.39034,"is_reserved":false,"is_disabled":false,"rental_uris":{"android":"levelo://app?vid=f0f88df4-916a-40a3-931a-95b5db28b2df","ios":"levelo://app?vid=f0f88df4-916a-40a3-931a-95b5db28b2df"},"vehicle_type_id":"4","last_reported":1746310164,"current_range_meters":16800,"station_id":"ce4bh3p2rcd13ifvqdp0","pricing_plan_id":"cebpf4jnsgd1na2vs0mg"},{"bike_id":"39b66824-32e8-4e14-97a9-1519db792fae","system_id":"levelo_inurba_marseille","lat":43.312321,"lon":5.368681,"is_reserved":false,"is_disabled":false,"rental_uris":{"android":"levelo://app?vid=39b66824-32e8-4e14-97a9-1519db792fae","ios":"levelo://app?vid=39b66824-32e8-4e14-97a9-1519db792fae"},"vehicle_type_id":"4","last_reported":1746310164,"current_range_meters":16800,"station_id":"ce4bgl92rcd13ifvqbq0","pricing_plan_id":"cebpf4jnsgd1na2vs0mg"},{"bike_id":"0ecfd02f-f853-4362-9dcd-e959b1ad8321","system_id":"levelo_inurba_marseille","lat":43.24179,"lon":5.39734,"is_reserved":false,"is_disabled":false,"rental_uris":{"android":"levelo://app?vid=0ecfd02f-f853-4362-9dcd-e959b1ad8321","ios":"levelo://app?vid=0ecfd02f-f853-4362-9dcd-e959b1ad8321"},"vehicle_type_id":"4","last_reported":1746310164,"current_range_meters":16800,"station_id":"ce4bhn12rcd13ifvqgpg","pricing_plan_id":"cebpf4jnsgd1na2vs0mg"},{"bike_id":"3a9205d8-8e69-4279-83d2-def0f9054cf9","system_id":"levelo_inurba_marseille","lat":43.24809,"lon":5.37452,"is_reserved":false,"is_disabled":false,"rental_uris":{"android":"levelo://app?vid=3a9205d8-8e69-4279-83d2-def0f9054cf9","ios":"levelo://app?vid=3a9205d8-8e69-4279-83d2-def0f9054cf9"},"vehicle_type_id":"4","last_reported":1746310164,"current_range_meters":16800,"station_id":"ce4bhgh2rcd13ifvqfb0","pricing_plan_id":"cebpf4jnsgd1na2vs0mg"},{"bike_id":"a4f9e8d7-c60b-4569-9e6a-ca435fceed0a","system_id":"levelo_inurba_marseille","lat":43.27571,"lon":5.384255,"is_reserved":false,"is_disabled":false,"rental_uris":{"android":"levelo://app?vid=a4f9e8d7-c60b-4569-9e6a-ca435fceed0a","ios":"levelo://app?vid=a4f9e8d7-c60b-4569-9e6a-ca435fceed0a"},"vehicle_type_id":"4","last_reported":1746310164,"current_range_meters":16800,"station_id":"ce4bhh92rcd13ifvqfi0","pricing_plan_id":"cebpf4jnsgd1na2vs0mg"},{"bike_id":"8ffdb51b-723f-4ccf-bf41-5da3e3683448","system_id":"levelo_inurba_marseille","lat":43.27562,"lon":5.38434,"is_reserved":false,"is_disabled":false,"rental_uris":{"android":"levelo://app?vid=8ffdb51b-723f-4ccf-bf41-5da3e3683448","ios":"levelo://app?vid=8ffdb51b-723f-4ccf-bf41-5da3e3683448"},"vehicle_type_id":"4","last_reported":1746310164,"current_range_meters":17200,"station_id":"ce4bhh92rcd13ifvqfi0","pricing_plan_id":"cebpf4jnsgd1na2vs0mg"},{"bike_id":"84f8590e-e62c-455d-9352-00a5d95a85c5","system_id":"levelo_inurba_marseille","lat":43.30329,"lon":5.40437,"is_reserved":false,"is_disabled":false,"rental_uris":{"android":"levelo://app?vid=84f8590e-e62c-455d-9352-00a5d95a85c5","ios":"levelo://app?vid=84f8590e-e62c-455d-9352-00a5d95a85c5"},"vehicle_type_id":"4","last_reported":1746310164,"current_range_meters":17200,"station_id":"ce4bh012rcd13ifvqd10","pricing_plan_id":"cebpf4jnsgd1na2vs0mg"},{"bike_id":"0516159e-0f0e-4312-9019-f4486bf146eb","system_id":"levelo_inurba_marseille","lat":43.30891,"lon":5.39646,"is_reserved":false,"is_disabled":false,"rental_uris":{"android":"levelo://app?vid=0516159e-0f0e-4312-9019-f4486bf146eb","ios":"levelo://app?vid=0516159e-0f0e-4312-9019-f4486bf146eb"},"vehicle_type_id":"4","last_reported":1746310164,"current_range_meters":17200,"station_id":"ce4bh012rcd13ifvqcv0","pricing_plan_id":"cebpf4jnsgd1na2vs0mg"},{"bike_id":"46f42e40-f872-4063-b060-640456b3d6a0","system_id":"levelo_inurba_marseille","lat":43.29878,"lon":5.39725,"is_reserved":false,"is_disabled":false,"rental_uris":{"android":"levelo://app?vid=46f42e40-f872-4063-b060-640456b3d6a0","ios":"levelo://app?vid=46f42e40-f872-4063-b060-640456b3d6a0"},"vehicle_type_id":"4","last_reported":1746310164,"current_range_meters":17200,"station_id":"ce4bh0h2rcd13ifvqd50","pricing_plan_id":"cebpf4jnsgd1na2vs0mg"},{"bike_id":"d6e39ca9-6a65-477f-8e22-9780d1c049a2","system_id":"levelo_inurba_marseille","lat":43.29567,"lon":5.3998,"is_reserved":false,"is_disabled":false,"rental_uris":{"android":"levelo://app?vid=d6e39ca9-6a65-477f-8e22-9780d1c049a2","ios":"levelo://app?vid=d6e39ca9-6a65-477f-8e22-9780d1c049a2"},"vehicle_type_id":"4","last_reported":1746310164,"current_range_meters":17200,"station_id":"ce4bh312rcd13ifvqdj0","pricing_plan_id":"cebpf4jnsgd1na2vs0mg"},{"bike_id":"696b71f0-972e-4fa6-831c-b2001014ab23","system_id":"levelo_inurba_marseille","lat":43.25124,"lon":5.4032,"is_reserved":false,"is_disabled":false,"rental_uris":{"android":"levelo://app?vid=696b71f0-972e-4fa6-831c-b2001014ab23","ios":"levelo://app?vid=696b71f0-972e-4fa6-831c-b2001014ab23"},"vehicle_type_id":"4","last_reported":1746310164,"current_range_meters":17200,"station_id":"ce4bhlh2rcd13ifvqgig","pricing_plan_id":"cebpf4jnsgd1na2vs0mg"},{"bike_id":"fa54570d-4ded-4ba4-bb58-f98876f2ec05","system_id":"levelo_inurba_marseille","lat":43.29025,"lon":5.38617,"is_reserved":false,"is_disabled":false,"rental_uris":{"android":"levelo://app?vid=fa54570d-4ded-4ba4-bb58-f98876f2ec05","ios":"levelo://app?vid=fa54570d-4ded-4ba4-bb58-f98876f2ec05"},"vehicle_type_id":"4","last_reported":1746310164,"current_range_meters":17600,"station_id":"ce4bh4p2rcd13ifvqe0g","pricing_plan_id":"cebpf4jnsgd1na2vs0mg"},{"bike_id":"459e633a-9a5a-4d53-ae84-68a4b6105a86","system_id":"levelo_inurba_marseille","lat":43.30782,"lon":5.37648,"is_reserved":false,"is_disabled":false,"rental_uris":{"android":"levelo://app?vid=459e633a-9a5a-4d53-ae84-68a4b6105a86","ios":"levelo://app?vid=459e633a-9a5a-4d53-ae84-68a4b6105a86"},"vehicle_type_id":"4","last_reported":1746310164,"current_range_meters":17600,"station_id":"ce4bgv92rcd13ifvqcq0","pricing_plan_id":"cebpf4jnsgd1na2vs0mg"},{"bike_id":"8653f5bb-304d-4678-945b-48056d0f1779","system_id":"levelo_inurba_marseille","lat":43.30154,"lon":5.37411,"is_reserved":false,"is_disabled":false,"rental_uris":{"android":"levelo://app?vid=8653f5bb-304d-4678-945b-48056d0f1779","ios":"levelo://app?vid=8653f5bb-304d-4678-945b-48056d0f1779"},"vehicle_type_id":"4","last_reported":1746310164,"current_range_meters":17600,"station_id":"ce4bgs92rcd13ifvqcc0","pricing_plan_id":"cebpf4jnsgd1na2vs0mg"},{"bike_id":"8a1c92bd-6777-477a-9eaf-2b1631a1f0a6","system_id":"levelo_inurba_marseille","lat":43.30925,"lon":5.40147,"is_reserved":false,"is_disabled":false,"rental_uris":{"android":"levelo://app?vid=8a1c92bd-6777-477a-9eaf-2b1631a1f0a6","ios":"levelo://app?vid=8a1c92bd-6777-477a-9eaf-2b1631a1f0a6"},"vehicle_type_id":"4","last_reported":1746310164,"current_range_meters":17600,"station_id":"ce4bgvp2rcd13ifvqct0","pricing_plan_id":"cebpf4jnsgd1na2vs0mg"},{"bike_id":"bc96d4c9-3fd4-4d6e-bf39-588c87d40ec8","system_id":"levelo_inurba_marseille","lat":43.29261,"lon":5.40902,"is_reserved":false,"is_disabled":false,"rental_uris":{"android":"levelo://app?vid=bc96d4c9-3fd4-4d6e-bf39-588c87d40ec8","ios":"levelo://app?vid=bc96d4c9-3fd4-4d6e-bf39-588c87d40ec8"},"vehicle_type_id":"4","last_reported":1746310164,"current_range_meters":17600,"station_id":"ce4bh192rcd13ifvqdc0","pricing_plan_id":"cebpf4jnsgd1na2vs0mg"},{"bike_id":"ae97f59b-b48e-402b-9ac2-2eba71290cd1","system_id":"levelo_inurba_marseille","lat":43.30929,"lon":5.40129,"is_reserved":false,"is_disabled":false,"rental_uris":{"android":"levelo://app?vid=ae97f59b-b48e-402b-9ac2-2eba71290cd1","ios":"levelo://app?vid=ae97f59b-b48e-402b-9ac2-2eba71290cd1"},"vehicle_type_id":"4","last_reported":1746310164,"current_range_meters":17600,"station_id":"ce4bgvp2rcd13ifvqct0","pricing_plan_id":"cebpf4jnsgd1na2vs0mg"},{"bike_id":"cc39cdc5-0417-4f88-b75a-a7a63ab3f1d6","system_id":"levelo_inurba_marseille","lat":43.31393,"lon":5.38253,"is_reserved":false,"is_disabled":false,"rental_uris":{"android":"levelo://app?vid=cc39cdc5-0417-4f88-b75a-a7a63ab3f1d6","ios":"levelo://app?vid=cc39cdc5-0417-4f88-b75a-a7a63ab3f1d6"},"vehicle_type_id":"4","last_reported":1746310164,"current_range_meters":17600,"station_id":"","pricing_plan_id":"cebpf4jnsgd1na2vs0mg"},{"bike_id":"78b1727c-8690-403f-85e2-9f5e05076059","system_id":"levelo_inurba_marseille","lat":43.31536,"lon":5.38035,"is_reserved":false,"is_disabled":false,"rental_uris":{"android":"levelo://app?vid=78b1727c-8690-403f-85e2-9f5e05076059","ios":"levelo://app?vid=78b1727c-8690-403f-85e2-9f5e05076059"},"vehicle_type_id":"4","last_reported":1746310164,"current_range_meters":17200,"station_id":"ce4bhsp2rcd13ifvqi50","pricing_plan_id":"cebpf4jnsgd1na2vs0mg"},{"bike_id":"f465d441-dee5-4916-a2b2-63b707c25a24","system_id":"levelo_inurba_marseille","lat":43.31375,"lon":5.38505,"is_reserved":false,"is_disabled":false,"rental_uris":{"android":"levelo://app?vid=f465d441-dee5-4916-a2b2-63b707c25a24","ios":"levelo://app?vid=f465d441-dee5-4916-a2b2-63b707c25a24"},"vehicle_type_id":"4","last_reported":1746310164,"current_range_meters":17600,"station_id":"ce4bgt92rcd13ifvqcf0","pricing_plan_id":"cebpf4jnsgd1na2vs0mg"},{"bike_id":"52b2b11c-fa93-4c1e-a120-3fdc360b4a73","system_id":"levelo_inurba_marseille","lat":43.28031,"lon":5.36937,"is_reserved":false,"is_disabled":false,"rental_uris":{"android":"levelo://app?vid=52b2b11c-fa93-4c1e-a120-3fdc360b4a73","ios":"levelo://app?vid=52b2b11c-fa93-4c1e-a120-3fdc360b4a73"},"vehicle_type_id":"4","last_reported":1746310164,"current_range_meters":17600,"station_id":"ce4bha12rcd13ifvqef0","pricing_plan_id":"cebpf4jnsgd1na2vs0mg"},{"bike_id":"43f220ab-0408-46b3-abe5-60437ce3bc1e","system_id":"levelo_inurba_marseille","lat":43.23197,"lon":5.35549,"is_reserved":false,"is_disabled":false,"rental_uris":{"android":"levelo://app?vid=43f220ab-0408-46b3-abe5-60437ce3bc1e","ios":"levelo://app?vid=43f220ab-0408-46b3-abe5-60437ce3bc1e"},"vehicle_type_id":"4","last_reported":1746310164,"current_range_meters":18000,"station_id":"ce4bhu92rcd13ifvqi70","pricing_plan_id":"cebpf4jnsgd1na2vs0mg"},{"bike_id":"36ba41e4-71e5-4435-857e-58cb28890d47","system_id":"levelo_inurba_marseille","lat":43.27959,"lon":5.38702,"is_reserved":false,"is_disabled":false,"rental_uris":{"android":"levelo://app?vid=36ba41e4-71e5-4435-857e-58cb28890d47","ios":"levelo://app?vid=36ba41e4-71e5-4435-857e-58cb28890d47"},"vehicle_type_id":"4","last_reported":1746310164,"current_range_meters":18000,"station_id":"ce4bhg12rcd13ifvqf80","pricing_plan_id":"cebpf4jnsgd1na2vs0mg"},{"bike_id":"86b26b56-3573-42a8-ae99-1ff808ff1f63","system_id":"levelo_inurba_marseille","lat":43.30689,"lon":5.37371,"is_reserved":false,"is_disabled":false,"rental_uris":{"android":"levelo://app?vid=86b26b56-3573-42a8-ae99-1ff808ff1f63","ios":"levelo://app?vid=86b26b56-3573-42a8-ae99-1ff808ff1f63"},"vehicle_type_id":"4","last_reported":1746310164,"current_range_meters":18000,"station_id":"","pricing_plan_id":"cebpf4jnsgd1na2vs0mg"},{"bike_id":"b3fd8c63-3ea9-44da-9ec5-0344823bd979","system_id":"levelo_inurba_marseille","lat":43.29042,"lon":5.37569,"is_reserved":false,"is_disabled":false,"rental_uris":{"android":"levelo://app?vid=b3fd8c63-3ea9-44da-9ec5-0344823bd979","ios":"levelo://app?vid=b3fd8c63-3ea9-44da-9ec5-0344823bd979"},"vehicle_type_id":"4","last_reported":1746310164,"current_range_meters":18000,"station_id":"","pricing_plan_id":"cebpf4jnsgd1na2vs0mg"},{"bike_id":"0e0cf58b-d538-4d96-9ffc-8fcb60c28a32","system_id":"levelo_inurba_marseille","lat":43.3043,"lon":5.38886,"is_reserved":false,"is_disabled":false,"rental_uris":{"android":"levelo://app?vid=0e0cf58b-d538-4d96-9ffc-8fcb60c28a32","ios":"levelo://app?vid=0e0cf58b-d538-4d96-9ffc-8fcb60c28a32"},"vehicle_type_id":"4","last_reported":1746310164,"current_range_meters":18000,"station_id":"ce4bgk12rcd13ifvqbi0","pricing_plan_id":"cebpf4jnsgd1na2vs0mg"},{"bike_id":"83ac374c-b8f1-4572-bdb1-e1729e4aa079","system_id":"levelo_inurba_marseille","lat":43.31375,"lon":5.38503,"is_reserved":false,"is_disabled":false,"rental_uris":{"android":"levelo://app?vid=83ac374c-b8f1-4572-bdb1-e1729e4aa079","ios":"levelo://app?vid=83ac374c-b8f1-4572-bdb1-e1729e4aa079"},"vehicle_type_id":"4","last_reported":1746310164,"current_range_meters":18000,"station_id":"ce4bgt92rcd13ifvqcf0","pricing_plan_id":"cebpf4jnsgd1na2vs0mg"},{"bike_id":"8b1c668b-c591-41de-bc8b-2bcfb404eeea","system_id":"levelo_inurba_marseille","lat":43.27373,"lon":5.36258,"is_reserved":false,"is_disabled":false,"rental_uris":{"android":"levelo://app?vid=8b1c668b-c591-41de-bc8b-2bcfb404eeea","ios":"levelo://app?vid=8b1c668b-c591-41de-bc8b-2bcfb404eeea"},"vehicle_type_id":"4","last_reported":1746310164,"current_range_meters":17600,"station_id":"ce4bhbh2rcd13ifvqeo0","pricing_plan_id":"cebpf4jnsgd1na2vs0mg"},{"bike_id":"073ee896-7ffd-4eeb-ba0c-a255d4c8e537","system_id":"levelo_inurba_marseille","lat":43.25749,"lon":5.41088,"is_reserved":false,"is_disabled":false,"rental_uris":{"android":"levelo://app?vid=073ee896-7ffd-4eeb-ba0c-a255d4c8e537","ios":"levelo://app?vid=073ee896-7ffd-4eeb-ba0c-a255d4c8e537"},"vehicle_type_id":"4","last_reported":1746310164,"current_range_meters":18000,"station_id":"ce4bhkp2rcd13ifvqgd0","pricing_plan_id":"cebpf4jnsgd1na2vs0mg"},{"bike_id":"c627b57c-a364-4991-bf18-9b2dfa26592e","system_id":"levelo_inurba_marseille","lat":43.231481,"lon":5.437151,"is_reserved":false,"is_disabled":false,"rental_uris":{"android":"levelo://app?vid=c627b57c-a364-4991-bf18-9b2dfa26592e","ios":"levelo://app?vid=c627b57c-a364-4991-bf18-9b2dfa26592e"},"vehicle_type_id":"4","last_reported":1746310164,"current_range_meters":18800,"station_id":"","pricing_plan_id":"cebpf4jnsgd1na2vs0mg"},{"bike_id":"54c4832f-bd6b-4726-b0cf-718360d04ff5","system_id":"levelo_inurba_marseille","lat":43.2668,"lon":5.38268,"is_reserved":false,"is_disabled":false,"rental_uris":{"android":"levelo://app?vid=54c4832f-bd6b-4726-b0cf-718360d04ff5","ios":"levelo://app?vid=54c4832f-bd6b-4726-b0cf-718360d04ff5"},"vehicle_type_id":"4","last_reported":1746310164,"current_range_meters":18000,"station_id":"ce4bhg92rcd13ifvqf90","pricing_plan_id":"cebpf4jnsgd1na2vs0mg"},{"bike_id":"273a9bab-9d17-402a-836e-6867ae714193","system_id":"levelo_inurba_marseille","lat":43.29078,"lon":5.37169,"is_reserved":false,"is_disabled":false,"rental_uris":{"android":"levelo://app?vid=273a9bab-9d17-402a-836e-6867ae714193","ios":"levelo://app?vid=273a9bab-9d17-402a-836e-6867ae714193"},"vehicle_type_id":"4","last_reported":1746310164,"current_range_meters":18800,"station_id":"ce4bh5p2rcd13ifvqe4g","pricing_plan_id":"cebpf4jnsgd1na2vs0mg"},{"bike_id":"51235c2d-0e67-4d96-812f-18476e613e46","system_id":"levelo_inurba_marseille","lat":43.31666,"lon":5.40464,"is_reserved":false,"is_disabled":false,"rental_uris":{"android":"levelo://app?vid=51235c2d-0e67-4d96-812f-18476e613e46","ios":"levelo://app?vid=51235c2d-0e67-4d96-812f-18476e613e46"},"vehicle_type_id":"4","last_reported":1746310164,"current_range_meters":18800,"station_id":"ce4bh012rcd13ifvqd00","pricing_plan_id":"cebpf4jnsgd1na2vs0mg"},{"bike_id":"6765a444-8479-4f77-9826-524ed5f0b675","system_id":"levelo_inurba_marseille","lat":43.298687,"lon":5.39731,"is_reserved":false,"is_disabled":false,"rental_uris":{"android":"levelo://app?vid=6765a444-8479-4f77-9826-524ed5f0b675","ios":"levelo://app?vid=6765a444-8479-4f77-9826-524ed5f0b675"},"vehicle_type_id":"4","last_reported":1746310164,"current_range_meters":18800,"station_id":"ce4bh0h2rcd13ifvqd50","pricing_plan_id":"cebpf4jnsgd1na2vs0mg"},{"bike_id":"ed18508f-1431-4895-9241-da34b0a7ca80","system_id":"levelo_inurba_marseille","lat":43.313701,"lon":5.384961,"is_reserved":false,"is_disabled":false,"rental_uris":{"android":"levelo://app?vid=ed18508f-1431-4895-9241-da34b0a7ca80","ios":"levelo://app?vid=ed18508f-1431-4895-9241-da34b0a7ca80"},"vehicle_type_id":"4","last_reported":1746310164,"current_range_meters":18800,"station_id":"ce4bgt92rcd13ifvqcf0","pricing_plan_id":"cebpf4jnsgd1na2vs0mg"},{"bike_id":"dcfcea3e-9b1b-4d63-8605-b82ef7cd8e04","system_id":"levelo_inurba_marseille","lat":43.30784,"lon":5.37648,"is_reserved":false,"is_disabled":false,"rental_uris":{"android":"levelo://app?vid=dcfcea3e-9b1b-4d63-8605-b82ef7cd8e04","ios":"levelo://app?vid=dcfcea3e-9b1b-4d63-8605-b82ef7cd8e04"},"vehicle_type_id":"4","last_reported":1746310164,"current_range_meters":19200,"station_id":"ce4bgv92rcd13ifvqcq0","pricing_plan_id":"cebpf4jnsgd1na2vs0mg"},{"bike_id":"838953c0-5207-4dd4-a4c4-6cd84e5c58c8","system_id":"levelo_inurba_marseille","lat":43.28038,"lon":5.36951,"is_reserved":false,"is_disabled":false,"rental_uris":{"android":"levelo://app?vid=838953c0-5207-4dd4-a4c4-6cd84e5c58c8","ios":"levelo://app?vid=838953c0-5207-4dd4-a4c4-6cd84e5c58c8"},"vehicle_type_id":"4","last_reported":1746310164,"current_range_meters":19200,"station_id":"ce4bha12rcd13ifvqef0","pricing_plan_id":"cebpf4jnsgd1na2vs0mg"},{"bike_id":"1cb20923-3b0d-4df1-a3ee-be944d3f904f","system_id":"levelo_inurba_marseille","lat":43.32336,"lon":5.40618,"is_reserved":false,"is_disabled":false,"rental_uris":{"android":"levelo://app?vid=1cb20923-3b0d-4df1-a3ee-be944d3f904f","ios":"levelo://app?vid=1cb20923-3b0d-4df1-a3ee-be944d3f904f"},"vehicle_type_id":"4","last_reported":1746310164,"current_range_meters":19200,"station_id":"ce4bhq92rcd13ifvqhjg","pricing_plan_id":"cebpf4jnsgd1na2vs0mg"},{"bike_id":"0fee9db2-7271-4416-a8f5-d5074548a1a5","system_id":"levelo_inurba_marseille","lat":43.30314,"lon":5.39216,"is_reserved":false,"is_disabled":false,"rental_uris":{"android":"levelo://app?vid=0fee9db2-7271-4416-a8f5-d5074548a1a5","ios":"levelo://app?vid=0fee9db2-7271-4416-a8f5-d5074548a1a5"},"vehicle_type_id":"4","last_reported":1746310164,"current_range_meters":19200,"station_id":"ce4bgkh2rcd13ifvqbk0","pricing_plan_id":"cebpf4jnsgd1na2vs0mg"},{"bike_id":"de98497a-0445-4045-b883-e50311a6dc6c","system_id":"levelo_inurba_marseille","lat":43.3058,"lon":5.3934,"is_reserved":false,"is_disabled":false,"rental_uris":{"android":"levelo://app?vid=de98497a-0445-4045-b883-e50311a6dc6c","ios":"levelo://app?vid=de98497a-0445-4045-b883-e50311a6dc6c"},"vehicle_type_id":"4","last_reported":1746310164,"current_range_meters":19200,"station_id":"ce4bh0p2rcd13ifvqd80","pricing_plan_id":"cebpf4jnsgd1na2vs0mg"},{"bike_id":"03848bfd-762d-4444-ba9b-bc6bd21e0332","system_id":"levelo_inurba_marseille","lat":43.31112,"lon":5.37758,"is_reserved":false,"is_disabled":false,"rental_uris":{"android":"levelo://app?vid=03848bfd-762d-4444-ba9b-bc6bd21e0332","ios":"levelo://app?vid=03848bfd-762d-4444-ba9b-bc6bd21e0332"},"vehicle_type_id":"4","last_reported":1746310164,"current_range_meters":19200,"station_id":"ce4bgt92rcd13ifvqcg0","pricing_plan_id":"cebpf4jnsgd1na2vs0mg"},{"bike_id":"da86dbc1-1e83-43ca-9dfc-bf9622d5f196","system_id":"levelo_inurba_marseille","lat":43.30331,"lon":5.40421,"is_reserved":false,"is_disabled":false,"rental_uris":{"android":"levelo://app?vid=da86dbc1-1e83-43ca-9dfc-bf9622d5f196","ios":"levelo://app?vid=da86dbc1-1e83-43ca-9dfc-bf9622d5f196"},"vehicle_type_id":"4","last_reported":1746310164,"current_range_meters":19200,"station_id":"ce4bh012rcd13ifvqd10","pricing_plan_id":"cebpf4jnsgd1na2vs0mg"},{"bike_id":"2b44e6f2-5bd4-4a13-93f7-f9b3275649b0","system_id":"levelo_inurba_marseille","lat":43.24079,"lon":5.37757,"is_reserved":false,"is_disabled":false,"rental_uris":{"android":"levelo://app?vid=2b44e6f2-5bd4-4a13-93f7-f9b3275649b0","ios":"levelo://app?vid=2b44e6f2-5bd4-4a13-93f7-f9b3275649b0"},"vehicle_type_id":"4","last_reported":1746310164,"current_range_meters":19200,"station_id":"ce4bhnp2rcd13ifvqgvg","pricing_plan_id":"cebpf4jnsgd1na2vs0mg"},{"bike_id":"7d6c356d-55b9-4bb2-974a-1eac2abbd604","system_id":"levelo_inurba_marseille","lat":43.31687,"lon":5.40479,"is_reserved":false,"is_disabled":false,"rental_uris":{"android":"levelo://app?vid=7d6c356d-55b9-4bb2-974a-1eac2abbd604","ios":"levelo://app?vid=7d6c356d-55b9-4bb2-974a-1eac2abbd604"},"vehicle_type_id":"4","last_reported":1746310164,"current_range_meters":19200,"station_id":"ce4bh012rcd13ifvqd00","pricing_plan_id":"cebpf4jnsgd1na2vs0mg"},{"bike_id":"27d9be90-5e7e-478c-ad3e-6d8b6612afe1","system_id":"levelo_inurba_marseille","lat":43.29026,"lon":5.38638,"is_reserved":false,"is_disabled":false,"rental_uris":{"android":"levelo://app?vid=27d9be90-5e7e-478c-ad3e-6d8b6612afe1","ios":"levelo://app?vid=27d9be90-5e7e-478c-ad3e-6d8b6612afe1"},"vehicle_type_id":"4","last_reported":1746310164,"current_range_meters":19200,"station_id":"ce4bh4p2rcd13ifvqe0g","pricing_plan_id":"cebpf4jnsgd1na2vs0mg"},{"bike_id":"8e0a49c7-18ee-4bf6-98bc-be22935476ae","system_id":"levelo_inurba_marseille","lat":43.30313,"lon":5.39202,"is_reserved":false,"is_disabled":false,"rental_uris":{"android":"levelo://app?vid=8e0a49c7-18ee-4bf6-98bc-be22935476ae","ios":"levelo://app?vid=8e0a49c7-18ee-4bf6-98bc-be22935476ae"},"vehicle_type_id":"4","last_reported":1746310164,"current_range_meters":19600,"station_id":"ce4bgkh2rcd13ifvqbk0","pricing_plan_id":"cebpf4jnsgd1na2vs0mg"},{"bike_id":"5d8b520f-e341-4e39-83a9-96594f98caf8","system_id":"levelo_inurba_marseille","lat":43.295322,"lon":5.390378,"is_reserved":false,"is_disabled":false,"rental_uris":{"android":"levelo://app?vid=5d8b520f-e341-4e39-83a9-96594f98caf8","ios":"levelo://app?vid=5d8b520f-e341-4e39-83a9-96594f98caf8"},"vehicle_type_id":"4","last_reported":1746310164,"current_range_meters":19600,"station_id":"ce4bh3p2rcd13ifvqdp0","pricing_plan_id":"cebpf4jnsgd1na2vs0mg"},{"bike_id":"df4fc154-28b6-4a49-b9b2-97b8055bf27c","system_id":"levelo_inurba_marseille","lat":43.30952,"lon":5.39042,"is_reserved":false,"is_disabled":false,"rental_uris":{"android":"levelo://app?vid=df4fc154-28b6-4a49-b9b2-97b8055bf27c","ios":"levelo://app?vid=df4fc154-28b6-4a49-b9b2-97b8055bf27c"},"vehicle_type_id":"4","last_reported":1746310164,"current_range_meters":19600,"station_id":"ce4bgup2rcd13ifvqco0","pricing_plan_id":"cebpf4jnsgd1na2vs0mg"},{"bike_id":"ff9ad7c5-499b-41d7-afd7-753de1422db3","system_id":"levelo_inurba_marseille","lat":43.28421,"lon":5.39189,"is_reserved":false,"is_disabled":false,"rental_uris":{"android":"levelo://app?vid=ff9ad7c5-499b-41d7-afd7-753de1422db3","ios":"levelo://app?vid=ff9ad7c5-499b-41d7-afd7-753de1422db3"},"vehicle_type_id":"4","last_reported":1746310164,"current_range_meters":19600,"station_id":"ce4bhoh2rcd13ifvqh5g","pricing_plan_id":"cebpf4jnsgd1na2vs0mg"},{"bike_id":"4c2ec1d6-94a3-42b1-9c0b-805adc49f5ee","system_id":"levelo_inurba_marseille","lat":43.3023,"lon":5.39732,"is_reserved":false,"is_disabled":false,"rental_uris":{"android":"levelo://app?vid=4c2ec1d6-94a3-42b1-9c0b-805adc49f5ee","ios":"levelo://app?vid=4c2ec1d6-94a3-42b1-9c0b-805adc49f5ee"},"vehicle_type_id":"4","last_reported":1746310164,"current_range_meters":19600,"station_id":"","pricing_plan_id":"cebpf4jnsgd1na2vs0mg"},{"bike_id":"5e4a9501-f96e-4542-a973-579b7765470f","system_id":"levelo_inurba_marseille","lat":43.27207,"lon":5.39178,"is_reserved":false,"is_disabled":false,"rental_uris":{"android":"levelo://app?vid=5e4a9501-f96e-4542-a973-579b7765470f","ios":"levelo://app?vid=5e4a9501-f96e-4542-a973-579b7765470f"},"vehicle_type_id":"4","last_reported":1746310164,"current_range_meters":19600,"station_id":"ce4bhhp2rcd13ifvqfm0","pricing_plan_id":"cebpf4jnsgd1na2vs0mg"},{"bike_id":"a2f70bf7-42a3-42ef-b332-715d1dd3acec","system_id":"levelo_inurba_marseille","lat":43.296078,"lon":5.405964,"is_reserved":false,"is_disabled":false,"rental_uris":{"android":"levelo://app?vid=a2f70bf7-42a3-42ef-b332-715d1dd3acec","ios":"levelo://app?vid=a2f70bf7-42a3-42ef-b332-715d1dd3acec"},"vehicle_type_id":"4","last_reported":1746310164,"current_range_meters":20000,"station_id":"ce4bh112rcd13ifvqd90","pricing_plan_id":"cebpf4jnsgd1na2vs0mg"},{"bike_id":"3a0ee530-ff04-45e9-8322-2c3e199ea4b9","system_id":"levelo_inurba_marseille","lat":43.30212,"lon":5.39468,"is_reserved":false,"is_disabled":false,"rental_uris":{"android":"levelo://app?vid=3a0ee530-ff04-45e9-8322-2c3e199ea4b9","ios":"levelo://app?vid=3a0ee530-ff04-45e9-8322-2c3e199ea4b9"},"vehicle_type_id":"4","last_reported":1746310164,"current_range_meters":20000,"station_id":"ce4bh0p2rcd13ifvqd70","pricing_plan_id":"cebpf4jnsgd1na2vs0mg"},{"bike_id":"0abe7365-362a-4c2d-949a-e32faf9d4099","system_id":"levelo_inurba_marseille","lat":43.21213,"lon":5.35063,"is_reserved":false,"is_disabled":true,"rental_uris":{"android":"levelo://app?vid=0abe7365-362a-4c2d-949a-e32faf9d4099","ios":"levelo://app?vid=0abe7365-362a-4c2d-949a-e32faf9d4099"},"vehicle_type_id":"4","last_reported":1746310164,"current_range_meters":20000,"station_id":"st_cvj6sg6p6f1abm77japg","pricing_plan_id":"cebpf4jnsgd1na2vs0mg"},{"bike_id":"c934a038-999c-4097-b244-e68883d621e3","system_id":"levelo_inurba_marseille","lat":43.30536,"lon":5.36535,"is_reserved":false,"is_disabled":true,"rental_uris":{"android":"levelo://app?vid=c934a038-999c-4097-b244-e68883d621e3","ios":"levelo://app?vid=c934a038-999c-4097-b244-e68883d621e3"},"vehicle_type_id":"4","last_reported":1746310164,"current_range_meters":20000,"station_id":"ce4bgs12rcd13ifvqcag","pricing_plan_id":"cebpf4jnsgd1na2vs0mg"},{"bike_id":"ae43e540-4108-4c6d-87c5-913aa4323c4e","system_id":"levelo_inurba_marseille","lat":43.31374,"lon":5.38493,"is_reserved":false,"is_disabled":false,"rental_uris":{"android":"levelo://app?vid=ae43e540-4108-4c6d-87c5-913aa4323c4e","ios":"levelo://app?vid=ae43e540-4108-4c6d-87c5-913aa4323c4e"},"vehicle_type_id":"4","last_reported":1746310164,"current_range_meters":20000,"station_id":"ce4bgt92rcd13ifvqcf0","pricing_plan_id":"cebpf4jnsgd1na2vs0mg"},{"bike_id":"42aa5df6-7b6e-4ece-a165-d3a51389cf8a","system_id":"levelo_inurba_marseille","lat":43.280706,"lon":5.39643,"is_reserved":false,"is_disabled":false,"rental_uris":{"android":"levelo://app?vid=42aa5df6-7b6e-4ece-a165-d3a51389cf8a","ios":"levelo://app?vid=42aa5df6-7b6e-4ece-a165-d3a51389cf8a"},"vehicle_type_id":"4","last_reported":1746310164,"current_range_meters":20000,"station_id":"ce4bho12rcd13ifvqh2g","pricing_plan_id":"cebpf4jnsgd1na2vs0mg"},{"bike_id":"3d795f75-c682-4a9c-9824-3a4663c368e4","system_id":"levelo_inurba_marseille","lat":43.30782,"lon":5.37644,"is_reserved":false,"is_disabled":false,"rental_uris":{"android":"levelo://app?vid=3d795f75-c682-4a9c-9824-3a4663c368e4","ios":"levelo://app?vid=3d795f75-c682-4a9c-9824-3a4663c368e4"},"vehicle_type_id":"4","last_reported":1746310164,"current_range_meters":20000,"station_id":"ce4bgv92rcd13ifvqcq0","pricing_plan_id":"cebpf4jnsgd1na2vs0mg"},{"bike_id":"f6c1dcb0-1295-4680-af32-4dc24d6ef29b","system_id":"levelo_inurba_marseille","lat":43.27191,"lon":5.39206,"is_reserved":false,"is_disabled":true,"rental_uris":{"android":"levelo://app?vid=f6c1dcb0-1295-4680-af32-4dc24d6ef29b","ios":"levelo://app?vid=f6c1dcb0-1295-4680-af32-4dc24d6ef29b"},"vehicle_type_id":"4","last_reported":1746310164,"current_range_meters":20000,"station_id":"ce4bhhp2rcd13ifvqfm0","pricing_plan_id":"cebpf4jnsgd1na2vs0mg"},{"bike_id":"6fd9a4c0-6315-4d53-a18c-a692cd97a2bd","system_id":"levelo_inurba_marseille","lat":43.26925,"lon":5.38919,"is_reserved":false,"is_disabled":false,"rental_uris":{"android":"levelo://app?vid=6fd9a4c0-6315-4d53-a18c-a692cd97a2bd","ios":"levelo://app?vid=6fd9a4c0-6315-4d53-a18c-a692cd97a2bd"},"vehicle_type_id":"4","last_reported":1746310164,"current_range_meters":19600,"station_id":"ce4bhhh2rcd13ifvqfl0","pricing_plan_id":"cebpf4jnsgd1na2vs0mg"},{"bike_id":"ffed5df9-9158-4bc8-9118-308956cef2f4","system_id":"levelo_inurba_marseille","lat":43.27581,"lon":5.38424,"is_reserved":false,"is_disabled":false,"rental_uris":{"android":"levelo://app?vid=ffed5df9-9158-4bc8-9118-308956cef2f4","ios":"levelo://app?vid=ffed5df9-9158-4bc8-9118-308956cef2f4"},"vehicle_type_id":"4","last_reported":1746310164,"current_range_meters":20400,"station_id":"ce4bhh92rcd13ifvqfi0","pricing_plan_id":"cebpf4jnsgd1na2vs0mg"},{"bike_id":"8bc688e3-c00f-4cb9-b798-52d04aaa26ca","system_id":"levelo_inurba_marseille","lat":43.30884,"lon":5.39656,"is_reserved":false,"is_disabled":false,"rental_uris":{"android":"levelo://app?vid=8bc688e3-c00f-4cb9-b798-52d04aaa26ca","ios":"levelo://app?vid=8bc688e3-c00f-4cb9-b798-52d04aaa26ca"},"vehicle_type_id":"4","last_reported":1746310164,"current_range_meters":20400,"station_id":"ce4bh012rcd13ifvqcv0","pricing_plan_id":"cebpf4jnsgd1na2vs0mg"},{"bike_id":"65014fe7-d742-4de1-99b6-74954ce426d3","system_id":"levelo_inurba_marseille","lat":43.299826,"lon":5.371742,"is_reserved":false,"is_disabled":false,"rental_uris":{"android":"levelo://app?vid=65014fe7-d742-4de1-99b6-74954ce426d3","ios":"levelo://app?vid=65014fe7-d742-4de1-99b6-74954ce426d3"},"vehicle_type_id":"4","last_reported":1746310164,"current_range_meters":20800,"station_id":"","pricing_plan_id":"cebpf4jnsgd1na2vs0mg"},{"bike_id":"1885e4e4-787e-4399-a182-13afb5671e8f","system_id":"levelo_inurba_marseille","lat":43.31763,"lon":5.3901,"is_reserved":false,"is_disabled":false,"rental_uris":{"android":"levelo://app?vid=1885e4e4-787e-4399-a182-13afb5671e8f","ios":"levelo://app?vid=1885e4e4-787e-4399-a182-13afb5671e8f"},"vehicle_type_id":"4","last_reported":1746310164,"current_range_meters":20800,"station_id":"ce4bhqp2rcd13ifvqhng","pricing_plan_id":"cebpf4jnsgd1na2vs0mg"},{"bike_id":"96ee6694-a845-4d1f-b998-f6a71160ef90","system_id":"levelo_inurba_marseille","lat":43.28718,"lon":5.39974,"is_reserved":false,"is_disabled":false,"rental_uris":{"android":"levelo://app?vid=96ee6694-a845-4d1f-b998-f6a71160ef90","ios":"levelo://app?vid=96ee6694-a845-4d1f-b998-f6a71160ef90"},"vehicle_type_id":"4","last_reported":1746310164,"current_range_meters":20800,"station_id":"ce4bho92rcd13ifvqh3g","pricing_plan_id":"cebpf4jnsgd1na2vs0mg"},{"bike_id":"d20b8250-eb2d-4340-bafc-7ef704256abe","system_id":"levelo_inurba_marseille","lat":43.25124,"lon":5.40338,"is_reserved":false,"is_disabled":false,"rental_uris":{"android":"levelo://app?vid=d20b8250-eb2d-4340-bafc-7ef704256abe","ios":"levelo://app?vid=d20b8250-eb2d-4340-bafc-7ef704256abe"},"vehicle_type_id":"4","last_reported":1746310164,"current_range_meters":20800,"station_id":"ce4bhlh2rcd13ifvqgig","pricing_plan_id":"cebpf4jnsgd1na2vs0mg"},{"bike_id":"eb8dcc7b-c65f-4892-b76c-da4b40bb75c4","system_id":"levelo_inurba_marseille","lat":43.24803,"lon":5.37451,"is_reserved":false,"is_disabled":false,"rental_uris":{"android":"levelo://app?vid=eb8dcc7b-c65f-4892-b76c-da4b40bb75c4","ios":"levelo://app?vid=eb8dcc7b-c65f-4892-b76c-da4b40bb75c4"},"vehicle_type_id":"4","last_reported":1746310164,"current_range_meters":20800,"station_id":"ce4bhgh2rcd13ifvqfb0","pricing_plan_id":"cebpf4jnsgd1na2vs0mg"},{"bike_id":"8e69649f-d5a0-4ead-b212-c5b5612beda7","system_id":"levelo_inurba_marseille","lat":43.255,"lon":5.37679,"is_reserved":false,"is_disabled":true,"rental_uris":{"android":"levelo://app?vid=8e69649f-d5a0-4ead-b212-c5b5612beda7","ios":"levelo://app?vid=8e69649f-d5a0-4ead-b212-c5b5612beda7"},"vehicle_type_id":"4","last_reported":1746310164,"current_range_meters":20800,"station_id":"ce4bhh12rcd13ifvqff0","pricing_plan_id":"cebpf4jnsgd1na2vs0mg"},{"bike_id":"6ae1bcdd-14a9-46f6-80f0-fa169567001b","system_id":"levelo_inurba_marseille","lat":43.28079,"lon":5.3966,"is_reserved":false,"is_disabled":false,"rental_uris":{"android":"levelo://app?vid=6ae1bcdd-14a9-46f6-80f0-fa169567001b","ios":"levelo://app?vid=6ae1bcdd-14a9-46f6-80f0-fa169567001b"},"vehicle_type_id":"4","last_reported":1746310164,"current_range_meters":21600,"station_id":"ce4bho12rcd13ifvqh2g","pricing_plan_id":"cebpf4jnsgd1na2vs0mg"},{"bike_id":"1ce5faab-c057-44d0-b6f7-996b2962169c","system_id":"levelo_inurba_marseille","lat":43.32361,"lon":5.36741,"is_reserved":false,"is_disabled":false,"rental_uris":{"android":"levelo://app?vid=1ce5faab-c057-44d0-b6f7-996b2962169c","ios":"levelo://app?vid=1ce5faab-c057-44d0-b6f7-996b2962169c"},"vehicle_type_id":"4","last_reported":1746310164,"current_range_meters":21600,"station_id":"ce4bhsh2rcd13ifvqi2g","pricing_plan_id":"cebpf4jnsgd1na2vs0mg"},{"bike_id":"aab4f8a9-78d1-4cf0-a137-e5e604b1c3b6","system_id":"levelo_inurba_marseille","lat":43.317062,"lon":5.437045,"is_reserved":false,"is_disabled":false,"rental_uris":{"android":"levelo://app?vid=aab4f8a9-78d1-4cf0-a137-e5e604b1c3b6","ios":"levelo://app?vid=aab4f8a9-78d1-4cf0-a137-e5e604b1c3b6"},"vehicle_type_id":"4","last_reported":1746310164,"current_range_meters":21600,"station_id":"ce4bhp92rcd13ifvqhcg","pricing_plan_id":"cebpf4jnsgd1na2vs0mg"},{"bike_id":"9ad5fbed-226c-4a48-8b5e-c220f4141248","system_id":"levelo_inurba_marseille","lat":43.31759,"lon":5.39009,"is_reserved":false,"is_disabled":false,"rental_uris":{"android":"levelo://app?vid=9ad5fbed-226c-4a48-8b5e-c220f4141248","ios":"levelo://app?vid=9ad5fbed-226c-4a48-8b5e-c220f4141248"},"vehicle_type_id":"4","last_reported":1746310164,"current_range_meters":21600,"station_id":"ce4bhqp2rcd13ifvqhng","pricing_plan_id":"cebpf4jnsgd1na2vs0mg"},