{"last_updated":1752955891,"ttl":60,"version":"2.2","data":{"bikes":[{"bike_id":"53b742a7-31ae-4272-9bba-7740339e2a2f","system_id":"levelo_inurba_marseille","lat":43.33747,"lon":5.37463,"is_reserved":false,"is_disabled":false,"rental_uris":{"android":"levelo://app?vid=53b742a7-31ae-4272-9bba-7740339e2a2f","ios":"levelo://app?vid=53b742a7-31ae-4272-9bba-7740339e2a2f"},"vehicle_type_id":"1","last_reported":1752955891,"current_range_meters":14000,"station_id":"","pricing_plan_id":"cebpf4jnsgd1na2vs0mg"},{"bike_id":"7422aa15-ac0d-4d6b-99fd-96f4942e4082","system_id":"levelo_inurba_marseille","lat":43.287085,"lon":5.400034,"is_reserved":false,"is_disabled":false,"rental_uris":{"android":"levelo://app?vid=7422aa15-ac0d-4d6b-99fd-96f4942e4082","ios":"levelo://app?vid=7422aa15-ac0d-4d6b-99fd-96f4942e4082"},"vehicle_type_id":"4","last_reported":1752955891,"current_range_meters":400,"station_id":"ce4bho92rcd13ifvqh3g","pricing_plan_id":"cebpf4jnsgd1na2vs0mg"},{"bike_id":"38fd2d4c-9c91-4cbf-b007-8fe8ad90b52f","system_id":"levelo_inurba_marseille","lat":43.292787,"lon":5.376129,"is_reserved":false,"is_disabled":false,"rental_uris":{"android":"levelo://app?vid=38fd2d4c-9c91-4cbf-b007-8fe8ad90b52f","ios":"levelo://app?vid=38fd2d4c-9c91-4cbf-b007-8fe8ad90b52f"},"vehicle_type_id":"4","last_reported":1752955891,"current_range_meters":3200,"station_id":"ce4bgi12rcd13ifvqb80","pricing_plan_id":"cebpf4jnsgd1na2vs0mg"},{"bike_id":"2124fb86-f66d-46bc-ba60-9b4d91d0a415","system_id":"levelo_inurba_marseille","lat":43.24176,"lon":5.39728,"is_reserved":false,"is_disabled":false,"rental_uris":{"android":"levelo://app?vid=2124fb86-f66d-46bc-ba60-9b4d91d0a415","ios":"levelo://app?vid=2124fb86-f66d-46bc-ba60-9b4d91d0a415"},"vehicle_type_id":"4","last_reported":1752955891,"current_range_meters":3200,"station_id":"ce4bhn12rcd13ifvqgpg","pricing_plan_id":"cebpf4jnsgd1na2vs0mg"},{"bike_id":"0e6de4ee-1c91-439b-aa8e-7f0e8955bb18","system_id":"levelo_inurba_marseille","lat":43.217449,"lon":5.346014,"is_reserved":false,"is_disabled":false,"rental_uris":{"android":"levelo://app?vid=0e6de4ee-1c91-439b-aa8e-7f0e8955bb18","ios":"levelo://app?vid=0e6de4ee-1c91-439b-aa8e-7f0e8955bb18"},"vehicle_type_id":"4","last_reported":1752955891,"current_range_meters":3200,"station_id":"st_cvj6r9ubvosntc0bgbag","pricing_plan_id":"cebpf4jnsgd1na2vs0mg"},{"bike_id":"9cfbdda5-a7ba-49c0-9629-68ba6535ba8f","system_id":"levelo_inurba_marseille","lat":43.269403,"lon":5.38631,"is_reserved":false,"is_disabled":false,"rental_uris":{"android":"levelo://app?vid=9cfbdda5-a7ba-49c0-9629-68ba6535ba8f","ios":"levelo://app?vid=9cfbdda5-a7ba-49c0-9629-68ba6535ba8f"},"vehicle_type_id":"4","last_reported":1752955891,"current_range_meters":7200,"station_id":"ce4bhh92rcd13ifvqfh0","pricing_plan_id":"cebpf4jnsgd1na2vs0mg"},{"bike_id":"388ef3fa-edf1-4a4f-bb6a-236abc146871","system_id":"levelo_inurba_marseille","lat":43.33233,"lon":5.39814,"is_reserved":false,"is_disabled":false,"rental_uris":{"android":"levelo://app?vid=388ef3fa-edf1-4a4f-bb6a-236abc146871","ios":"levelo://app?vid=388ef3fa-edf1-4a4f-bb6a-236abc146871"},"vehicle_type_id":"4","last_reported":1752955891,"current_range_meters":3200,"station_id":"","pricing_plan_id":"cebpf4jnsgd1na2vs0mg"},{"bike_id":"21e1f132-74be-40bc-8ac8-54059866ebcf","system_id":"levelo_inurba_marseille","lat":43.24073,"lon":5.3776,"is_reserved":false,"is_disabled":false,"rental_uris":{"android":"levelo://app?vid=21e1f132-74be-40bc-8ac8-54059866ebcf","ios":"levelo://app?vid=21e1f132-74be-40bc-8ac8-54059866ebcf"},"vehicle_type_id":"4","last_reported":1752955891,"current_range_meters":3200,"station_id":"ce4bhnp2rcd13ifvqgvg","pricing_plan_id":"cebpf4jnsgd1na2vs0mg"},{"bike_id":"57bf6570-ff1a-4d36-a914-38a00de3af53","system_id":"levelo_inurba_marseille","lat":43.23963,"lon":5.36623,"is_reserved":false,"is_disabled":true,"rental_uris":{"android":"levelo://app?vid=57bf6570-ff1a-4d36-a914-38a00de3af53","ios":"levelo://app?vid=57bf6570-ff1a-4d36-a914-38a00de3af53"},"vehicle_type_id":"4","last_reported":1752955891,"current_range_meters":3600,"station_id":"ce4bhi12rcd13ifvqfp0","pricing_plan_id":"cebpf4jnsgd1na2vs0mg"},{"bike_id":"26db52b4-c04b-4f6c-8f17-4178b6460348","system_id":"levelo_inurba_marseille","lat":43.225102,"lon":5.3478,"is_reserved":false,"is_disabled":false,"rental_uris":{"android":"levelo://app?vid=26db52b4-c04b-4f6c-8f17-4178b6460348","ios":"levelo://app?vid=26db52b4-c04b-4f6c-8f17-4178b6460348"},"vehicle_type_id":"4","last_reported":1752955891,"current_range_meters":3600,"station_id":"st_cvj5dfep6f1abm77gieg","pricing_plan_id":"cebpf4jnsgd1na2vs0mg"},{"bike_id":"67bd2314-2a9b-46c5-9004-7827246241c1","system_id":"levelo_inurba_marseille","lat":43.32353,"lon":5.3676,"is_reserved":false,"is_disabled":false,"rental_uris":{"android":"levelo://app?vid=67bd2314-2a9b-46c5-9004-7827246241c1","ios":"levelo://app?vid=67bd2314-2a9b-46c5-9004-7827246241c1"},"vehicle_type_id":"4","last_reported":1752955891,"current_range_meters":2000,"station_id":"ce4bhsh2rcd13ifvqi2g","pricing_plan_id":"cebpf4jnsgd1na2vs0mg"},{"bike_id":"379f4567-56b1-44b8-abb4-81a6d96a4ea3","system_id":"levelo_inurba_marseille","lat":43.30129,"lon":5.39855,"is_reserved":false,"is_disabled":false,"rental_uris":{"android":"levelo://app?vid=379f4567-56b1-44b8-abb4-81a6d96a4ea3","ios":"levelo://app?vid=379f4567-56b1-44b8-abb4-81a6d96a4ea3"},"vehicle_type_id":"4","last_reported":1752955891,"current_range_meters":3200,"station_id":"ce4bh0h2rcd13ifvqd40","pricing_plan_id":"cebpf4jnsgd1na2vs0mg"},{"bike_id":"e1dbfb19-cd08-46f7-aa30-e89e52a812ff","system_id":"levelo_inurba_marseille","lat":43.322879,"lon":5.382629,"is_reserved":false,"is_disabled":false,"rental_uris":{"android":"levelo://app?vid=e1dbfb19-cd08-46f7-aa30-e89e52a812ff","ios":"levelo://app?vid=e1dbfb19-cd08-46f7-aa30-e89e52a812ff"},"vehicle_type_id":"4","last_reported":1752955891,"current_range_meters":3600,"station_id":"ce4bhr12rcd13ifvqhqg","pricing_plan_id":"cebpf4jnsgd1na2vs0mg"},{"bike_id":"b539effb-dd9d-45be-a893-33404e86885d","system_id":"levelo_inurba_marseille","lat":43.23955,"lon":5.36628,"is_reserved":false,"is_disabled":false,"rental_uris":{"android":"levelo://app?vid=b539effb-dd9d-45be-a893-33404e86885d","ios":"levelo://app?vid=b539effb-dd9d-45be-a893-33404e86885d"},"vehicle_type_id":"4","last_reported":1752955891,"current_range_meters":4000,"station_id":"ce4bhi12rcd13ifvqfp0","pricing_plan_id":"cebpf4jnsgd1na2vs0mg"},{"bike_id":"ab636830-72b5-4392-a9ac-1d0212e782ad","system_id":"levelo_inurba_marseille","lat":43.33608,"lon":5.41033,"is_reserved":false,"is_disabled":false,"rental_uris":{"android":"levelo://app?vid=ab636830-72b5-4392-a9ac-1d0212e782ad","ios":"levelo://app?vid=ab636830-72b5-4392-a9ac-1d0212e782ad"},"vehicle_type_id":"4","last_reported":1752955891,"current_range_meters":3600,"station_id":"ce4bhqh2rcd13ifvqhmg","pricing_plan_id":"cebpf4jnsgd1na2vs0mg"},{"bike_id":"38aa5888-7ad6-476b-b1a1-ad24aa121c4d","system_id":"levelo_inurba_marseille","lat":43.29528,"lon":5.38549,"is_reserved":false,"is_disabled":false,"rental_uris":{"android":"levelo://app?vid=38aa5888-7ad6-476b-b1a1-ad24aa121c4d","ios":"levelo://app?vid=38aa5888-7ad6-476b-b1a1-ad24aa121c4d"},"vehicle_type_id":"4","last_reported":1752955891,"current_range_meters":4000,"station_id":"ce4bgih2rcd13ifvqba0","pricing_plan_id":"cebpf4jnsgd1na2vs0mg"},{"bike_id":"9bdcfb5e-ac16-41d0-a4c2-388bc36976bb","system_id":"levelo_inurba_marseille","lat":43.29558,"lon":5.42289,"is_reserved":false,"is_disabled":false,"rental_uris":{"android":"levelo://app?vid=9bdcfb5e-ac16-41d0-a4c2-388bc36976bb","ios":"levelo://app?vid=9bdcfb5e-ac16-41d0-a4c2-388bc36976bb"},"vehicle_type_id":"4","last_reported":1752955891,"current_range_meters":4800,"station_id":"ce4bhph2rcd13ifvqhdg","pricing_plan_id":"cebpf4jnsgd1na2vs0mg"},{"bike_id":"b3c20171-789b-4f2e-a78c-f182493a896f","system_id":"levelo_inurba_marseille","lat":43.28163,"lon":5.42641,"is_reserved":false,"is_disabled":true,"rental_uris":{"android":"levelo://app?vid=b3c20171-789b-4f2e-a78c-f182493a896f","ios":"levelo://app?vid=b3c20171-789b-4f2e-a78c-f182493a896f"},"vehicle_type_id":"4","last_reported":1752955891,"current_range_meters":4800,"station_id":"ce4bhnh2rcd13ifvqgug","pricing_plan_id":"cebpf4jnsgd1na2vs0mg"},{"bike_id":"c084ed78-5abb-4f9d-9ee7-52039d5ae7df","system_id":"levelo_inurba_marseille","lat":43.30413,"lon":5.41282,"is_reserved":false,"is_disabled":true,"rental_uris":{"android":"levelo://app?vid=c084ed78-5abb-4f9d-9ee7-52039d5ae7df","ios":"levelo://app?vid=c084ed78-5abb-4f9d-9ee7-52039d5ae7df"},"vehicle_type_id":"4","last_reported":1752955891,"current_range_meters":4800,"station_id":"ce4bhop2rcd13ifvqh8g","pricing_plan_id":"cebpf4jnsgd1na2vs0mg"},{"bike_id":"54b6eb57-77c7-478a-8076-f955652fc8a9","system_id":"levelo_inurba_marseille","lat":43.32111,"lon":5.36763,"is_reserved":false,"is_disabled":false,"rental_uris":{"android":"levelo://app?vid=54b6eb57-77c7-478a-8076-f955652fc8a9","ios":"levelo://app?vid=54b6eb57-77c7-478a-8076-f955652fc8a9"},"vehicle_type_id":"4","last_reported":1752955891,"current_range_meters":5600,"station_id":"ce4bhrh2rcd13ifvqhug","pricing_plan_id":"cebpf4jnsgd1na2vs0mg"},{"bike_id":"da891840-0cec-4ccc-961c-48903736c6fa","system_id":"levelo_inurba_marseille","lat":43.31139,"lon":5.37692,"is_reserved":false,"is_disabled":false,"rental_uris":{"android":"levelo://app?vid=da891840-0cec-4ccc-961c-48903736c6fa","ios":"levelo://app?vid=da891840-0cec-4ccc-961c-48903736c6fa"},"vehicle_type_id":"4","last_reported":1752955891,"current_range_meters":5600,"station_id":"","pricing_plan_id":"cebpf4jnsgd1na2vs0mg"},{"bike_id":"43dae667-6ca8-4aa7-9a4a-4398b8d1cff2","system_id":"levelo_inurba_marseille","lat":43.284856,"lon":5.384281,"is_reserved":false,"is_disabled":false,"rental_uris":{"android":"levelo://app?vid=43dae667-6ca8-4aa7-9a4a-4398b8d1cff2","ios":"levelo://app?vid=43dae667-6ca8-4aa7-9a4a-4398b8d1cff2"},"vehicle_type_id":"4","last_reported":1752955891,"current_range_meters":5600,"station_id":"","pricing_plan_id":"cebpf4jnsgd1na2vs0mg"},{"bike_id":"dd26fa45-583c-44d1-9a9e-4f63984f70a3","system_id":"levelo_inurba_marseille","lat":43.2989,"lon":5.43709,"is_reserved":false,"is_disabled":false,"rental_uris":{"android":"levelo://app?vid=dd26fa45-583c-44d1-9a9e-4f63984f70a3","ios":"levelo://app?vid=dd26fa45-583c-44d1-9a9e-4f63984f70a3"},"vehicle_type_id":"4","last_reported":1752955891,"current_range_meters":6000,"station_id":"","pricing_plan_id":"cebpf4jnsgd1na2vs0mg"},{"bike_id":"2d95b47d-d06f-40a4-bb6e-c13e954e3c8f","system_id":"levelo_inurba_marseille","lat":43.27732,"lon":5.414,"is_reserved":false,"is_disabled":false,"rental_uris":{"android":"levelo://app?vid=2d95b47d-d06f-40a4-bb6e-c13e954e3c8f","ios":"levelo://app?vid=2d95b47d-d06f-40a4-bb6e-c13e954e3c8f"},"vehicle_type_id":"4","last_reported":1752955891,"current_range_meters":6000,"station_id":"","pricing_plan_id":"cebpf4jnsgd1na2vs0mg"},{"bike_id":"f9cb8d75-2c72-4a0f-b636-7446f74c7141","system_id":"levelo_inurba_marseille","lat":43.26205,"lon":5.37439,"is_reserved":false,"is_disabled":false,"rental_uris":{"android":"levelo://app?vid=f9cb8d75-2c72-4a0f-b636-7446f74c7141","ios":"levelo://app?vid=f9cb8d75-2c72-4a0f-b636-7446f74c7141"},"vehicle_type_id":"4","last_reported":1752955891,"current_range_meters":6000,"station_id":"ce4bhgp2rcd13ifvqfc0","pricing_plan_id":"cebpf4jnsgd1na2vs0mg"},{"bike_id":"44b73254-6d5b-42ec-9e3a-52236fbf71fc","system_id":"levelo_inurba_marseille","lat":43.33352,"lon":5.39847,"is_reserved":false,"is_disabled":false,"rental_uris":{"android":"levelo://app?vid=44b73254-6d5b-42ec-9e3a-52236fbf71fc","ios":"levelo://app?vid=44b73254-6d5b-42ec-9e3a-52236fbf71fc"},"vehicle_type_id":"4","last_reported":1752955891,"current_range_meters":6000,"station_id":"","pricing_plan_id":"cebpf4jnsgd1na2vs0mg"},{"bike_id":"4108938b-6cb1-49cf-9b34-f5aba76f8c8e","system_id":"levelo_inurba_marseille","lat":43.258723,"lon":5.398963,"is_reserved":false,"is_disabled":true,"rental_uris":{"android":"levelo://app?vid=4108938b-6cb1-49cf-9b34-f5aba76f8c8e","ios":"levelo://app?vid=4108938b-6cb1-49cf-9b34-f5aba76f8c8e"},"vehicle_type_id":"4","last_reported":1752955891,"current_range_meters":6000,"station_id":"ce4bhl92rcd13ifvqghg","pricing_plan_id":"cebpf4jnsgd1na2vs0mg"},{"bike_id":"b8ca8b67-feec-4d87-ba51-8cc2f9cfe299","system_id":"levelo_inurba_marseille","lat":43.29211,"lon":5.39326,"is_reserved":false,"is_disabled":false,"rental_uris":{"android":"levelo://app?vid=b8ca8b67-feec-4d87-ba51-8cc2f9cfe299","ios":"levelo://app?vid=b8ca8b67-feec-4d87-ba51-8cc2f9cfe299"},"vehicle_type_id":"4","last_reported":1752955891,"current_range_meters":6000,"station_id":"ce4bh192rcd13ifvqdd0","pricing_plan_id":"cebpf4jnsgd1na2vs0mg"},{"bike_id":"aea17bea-a88d-45e7-9e27-fddba592e1fa","system_id":"levelo_inurba_marseille","lat":43.28436,"lon":5.39198,"is_reserved":false,"is_disabled":false,"rental_uris":{"android":"levelo://app?vid=aea17bea-a88d-45e7-9e27-fddba592e1fa","ios":"levelo://app?vid=aea17bea-a88d-45e7-9e27-fddba592e1fa"},"vehicle_type_id":"4","last_reported":1752955891,"current_range_meters":6400,"station_id":"ce4bhoh2rcd13ifvqh5g","pricing_plan_id":"cebpf4jnsgd1na2vs0mg"},{"bike_id":"700547dc-e1a1-404c-91b7-bae4ddcac0e0","system_id":"levelo_inurba_marseille","lat":43.309415,"lon":5.390346,"is_reserved":false,"is_disabled":false,"rental_uris":{"android":"levelo://app?vid=700547dc-e1a1-404c-91b7-bae4ddcac0e0","ios":"levelo://app?vid=700547dc-e1a1-404c-91b7-bae4ddcac0e0"},"vehicle_type_id":"4","last_reported":1752955891,"current_range_meters":2000,"station_id":"ce4bgup2rcd13ifvqco0","pricing_plan_id":"cebpf4jnsgd1na2vs0mg"},{"bike_id":"a168d389-ea1d-4756-ad9b-cf73a31ab442","system_id":"levelo_inurba_marseille","lat":43.28559,"lon":5.38367,"is_reserved":false,"is_disabled":true,"rental_uris":{"android":"levelo://app?vid=a168d389-ea1d-4756-ad9b-cf73a31ab442","ios":"levelo://app?vid=a168d389-ea1d-4756-ad9b-cf73a31ab442"},"vehicle_type_id":"4","last_reported":1752955891,"current_range_meters":6400,"station_id":"","pricing_plan_id":"cebpf4jnsgd1na2vs0mg"},{"bike_id":"8f4efc4a-ee43-4756-babf-8953fefa070d","system_id":"levelo_inurba_marseille","lat":43.26549,"lon":5.37287,"is_reserved":false,"is_disabled":true,"rental_uris":{"android":"levelo://app?vid=8f4efc4a-ee43-4756-babf-8953fefa070d","ios":"levelo://app?vid=8f4efc4a-ee43-4756-babf-8953fefa070d"},"vehicle_type_id":"4","last_reported":1752955891,"current_range_meters":6400,"station_id":"ce4bhg12rcd13ifvqf70","pricing_plan_id":"cebpf4jnsgd1na2vs0mg"},{"bike_id":"80672665-71e9-4f9b-8c9b-78fe48ba40e5","system_id":"levelo_inurba_marseille","lat":43.29435,"lon":5.38593,"is_reserved":false,"is_disabled":false,"rental_uris":{"android":"levelo://app?vid=80672665-71e9-4f9b-8c9b-78fe48ba40e5","ios":"levelo://app?vid=80672665-71e9-4f9b-8c9b-78fe48ba40e5"},"vehicle_type_id":"4","last_reported":1752955891,"current_range_meters":6400,"station_id":"ce4bh2h2rcd13ifvqdh0","pricing_plan_id":"cebpf4jnsgd1na2vs0mg"},{"bike_id":"639fd095-55b2-47bd-b944-1fea70fd1003","system_id":"levelo_inurba_marseille","lat":43.26207,"lon":5.37442,"is_reserved":false,"is_disabled":false,"rental_uris":{"android":"levelo://app?vid=639fd095-55b2-47bd-b944-1fea70fd1003","ios":"levelo://app?vid=639fd095-55b2-47bd-b944-1fea70fd1003"},"vehicle_type_id":"4","last_reported":1752955891,"current_range_meters":6800,"station_id":"ce4bhgp2rcd13ifvqfc0","pricing_plan_id":"cebpf4jnsgd1na2vs0mg"},{"bike_id":"24b92386-177a-40f1-8d58-c9a2eeaa3c10","system_id":"levelo_inurba_marseille","lat":43.32508,"lon":5.36592,"is_reserved":false,"is_disabled":false,"rental_uris":{"android":"levelo://app?vid=24b92386-177a-40f1-8d58-c9a2eeaa3c10","ios":"levelo://app?vid=24b92386-177a-40f1-8d58-c9a2eeaa3c10"},"vehicle_type_id":"4","last_reported":1752955891,"current_range_meters":6800,"station_id":"ce4bhs12rcd13ifvqhvg","pricing_plan_id":"cebpf4jnsgd1na2vs0mg"},{"bike_id":"72acce2b-2249-45a2-be91-c8268f8a11e8","system_id":"levelo_inurba_marseille","lat":43.225067,"lon":5.347838,"is_reserved":false,"is_disabled":false,"rental_uris":{"android":"levelo://app?vid=72acce2b-2249-45a2-be91-c8268f8a11e8","ios":"levelo://app?vid=72acce2b-2249-45a2-be91-c8268f8a11e8"},"vehicle_type_id":"4","last_reported":1752955891,"current_range_meters":7200,"station_id":"st_cvj5dfep6f1abm77gieg","pricing_plan_id":"cebpf4jnsgd1na2vs0mg"},{"bike_id":"095a0fa1-0a61-49c2-a15c-18e2e58fed6e","system_id":"levelo_inurba_marseille","lat":43.295297,"lon":5.385537,"is_reserved":false,"is_disabled":false,"rental_uris":{"android":"levelo://app?vid=095a0fa1-0a61-49c2-a15c-18e2e58fed6e","ios":"levelo://app?vid=095a0fa1-0a61-49c2-a15c-18e2e58fed6e"},"vehicle_type_id":"4","last_reported":1752955891,"current_range_meters":7200,"station_id":"","pricing_plan_id":"cebpf4jnsgd1na2vs0mg"},{"bike_id":"30fc5a3e-0d26-4755-bfde-c58c3e1578b9","system_id":"levelo_inurba_marseille","lat":43.298864,"lon":5.381194,"is_reserved":false,"is_disabled":false,"rental_uris":{"android":"levelo://app?vid=30fc5a3e-0d26-4755-bfde-c58c3e1578b9","ios":"levelo://app?vid=30fc5a3e-0d26-4755-bfde-c58c3e1578b9"},"vehicle_type_id":"4","last_reported":1752955891,"current_range_meters":7200,"station_id":"ce4bgj12rcd13ifvqbc0","pricing_plan_id":"cebpf4jnsgd1na2vs0mg"},{"bike_id":"2ac56475-cc12-42f9-a4aa-789e7b88205d","system_id":"levelo_inurba_marseille","lat":43.26028,"lon":5.375474,"is_reserved":false,"is_disabled":false,"rental_uris":{"android":"levelo://app?vid=2ac56475-cc12-42f9-a4aa-789e7b88205d","ios":"levelo://app?vid=2ac56475-cc12-42f9-a4aa-789e7b88205d"},"vehicle_type_id":"4","last_reported":1752955891,"current_range_meters":7200,"station_id":"ce4bhgh2rcd13ifvqfa0","pricing_plan_id":"cebpf4jnsgd1na2vs0mg"},{"bike_id":"419eb958-8714-4bd9-ace0-a73716c7fd10","system_id":"levelo_inurba_marseille","lat":43.309447,"lon":5.390383,"is_reserved":false,"is_disabled":false,"rental_uris":{"android":"levelo://app?vid=419eb958-8714-4bd9-ace0-a73716c7fd10","ios":"levelo://app?vid=419eb958-8714-4bd9-ace0-a73716c7fd10"},"vehicle_type_id":"4","last_reported":1752955891,"current_range_meters":7200,"station_id":"ce4bgup2rcd13ifvqco0","pricing_plan_id":"cebpf4jnsgd1na2vs0mg"},{"bike_id":"6883df58-6737-4f53-a438-d17fca741ba6","system_id":"levelo_inurba_marseille","lat":43.33055,"lon":5.39374,"is_reserved":false,"is_disabled":false,"rental_uris":{"android":"levelo://app?vid=6883df58-6737-4f53-a438-d17fca741ba6","ios":"levelo://app?vid=6883df58-6737-4f53-a438-d17fca741ba6"},"vehicle_type_id":"4","last_reported":1752955891,"current_range_meters":7200,"station_id":"","pricing_plan_id":"cebpf4jnsgd1na2vs0mg"},{"bike_id":"90a6e114-acbe-4d41-b977-9f942c79fcd5","system_id":"levelo_inurba_marseille","lat":43.30249,"lon":5.4007,"is_reserved":false,"is_disabled":false,"rental_uris":{"android":"levelo://app?vid=90a6e114-acbe-4d41-b977-9f942c79fcd5","ios":"levelo://app?vid=90a6e114-acbe-4d41-b977-9f942c79fcd5"},"vehicle_type_id":"4","last_reported":1752955891,"current_range_meters":7200,"station_id":"ce4bgvh2rcd13ifvqcs0","pricing_plan_id":"cebpf4jnsgd1na2vs0mg"},{"bike_id":"ce7bd25b-5213-4881-a28b-f582e6a1d712","system_id":"levelo_inurba_marseille","lat":43.31385,"lon":5.36701,"is_reserved":false,"is_disabled":true,"rental_uris":{"android":"levelo://app?vid=ce7bd25b-5213-4881-a28b-f582e6a1d712","ios":"levelo://app?vid=ce7bd25b-5213-4881-a28b-f582e6a1d712"},"vehicle_type_id":"4","last_reported":1752955891,"current_range_meters":7200,"station_id":"","pricing_plan_id":"cebpf4jnsgd1na2vs0mg"},{"bike_id":"c0e98b3c-4056-48f4-abec-f4ba271bec2b","system_id":"levelo_inurba_marseille","lat":43.254961,"lon":5.376375,"is_reserved":false,"is_disabled":false,"rental_uris":{"android":"levelo://app?vid=c0e98b3c-4056-48f4-abec-f4ba271bec2b","ios":"levelo://app?vid=c0e98b3c-4056-48f4-abec-f4ba271bec2b"},"vehicle_type_id":"4","last_reported":1752955891,"current_range_meters":7200,"station_id":"ce4bhh12rcd13ifvqff0","pricing_plan_id":"cebpf4jnsgd1na2vs0mg"},{"bike_id":"b5007614-9809-4e3f-9f01-d422c3167f25","system_id":"levelo_inurba_marseille","lat":43.26192,"lon":5.37445,"is_reserved":false,"is_disabled":false,"rental_uris":{"android":"levelo://app?vid=b5007614-9809-4e3f-9f01-d422c3167f25","ios":"levelo://app?vid=b5007614-9809-4e3f-9f01-d422c3167f25"},"vehicle_type_id":"4","last_reported":1752955891,"current_range_meters":8000,"station_id":"ce4bhgp2rcd13ifvqfc0","pricing_plan_id":"cebpf4jnsgd1na2vs0mg"},{"bike_id":"efb2af79-dd3b-47be-ba1c-7116c2b61b51","system_id":"levelo_inurba_marseille","lat":43.28936,"lon":5.39623,"is_reserved":false,"is_disabled":false,"rental_uris":{"android":"levelo://app?vid=efb2af79-dd3b-47be-ba1c-7116c2b61b51","ios":"levelo://app?vid=efb2af79-dd3b-47be-ba1c-7116c2b61b51"},"vehicle_type_id":"4","last_reported":1752955891,"current_range_meters":8000,"station_id":"ce4bh3h2rcd13ifvqdn0","pricing_plan_id":"cebpf4jnsgd1na2vs0mg"},{"bike_id":"c6db0f6a-96fe-4e1d-8ded-c2ef38c9bab4","system_id":"levelo_inurba_marseille","lat":43.305688,"lon":5.418387,"is_reserved":false,"is_disabled":true,"rental_uris":{"android":"levelo://app?vid=c6db0f6a-96fe-4e1d-8ded-c2ef38c9bab4","ios":"levelo://app?vid=c6db0f6a-96fe-4e1d-8ded-c2ef38c9bab4"},"vehicle_type_id":"4","last_reported":1752955891,"current_range_meters":8000,"station_id":"ce4bht12rcd13ifvqi60","pricing_plan_id":"cebpf4jnsgd1na2vs0mg"},{"bike_id":"7ba80774-b11e-4526-b36d-edd358abb392","system_id":"levelo_inurba_marseille","lat":43.22471,"lon":5.34828,"is_reserved":false,"is_disabled":false,"rental_uris":{"android":"levelo://app?vid=7ba80774-b11e-4526-b36d-edd358abb392","ios":"levelo://app?vid=7ba80774-b11e-4526-b36d-edd358abb392"},"vehicle_type_id":"4","last_reported":1752955891,"current_range_meters":8000,"station_id":"st_cvj5dfep6f1abm77gieg","pricing_plan_id":"cebpf4jnsgd1na2vs0mg"},{"bike_id":"416d85bc-1b19-43fb-82ef-a4bb517c0721","system_id":"levelo_inurba_marseille","lat":43.31699,"lon":5.37751,"is_reserved":false,"is_disabled":false,"rental_uris":{"android":"levelo://app?vid=416d85bc-1b19-43fb-82ef-a4bb517c0721","ios":"levelo://app?vid=416d85bc-1b19-43fb-82ef-a4bb517c0721"},"vehicle_type_id":"4","last_reported":1752955891,"current_range_meters":8000,"station_id":"ce4bgth2rcd13ifvqch0","pricing_plan_id":"cebpf4jnsgd1na2vs0mg"},{"bike_id":"2e532954-91d6-45d0-820d-bd93ef877e83","system_id":"levelo_inurba_marseille","lat":43.303243,"lon":5.394574,"is_reserved":false,"is_disabled":true,"rental_uris":{"android":"levelo://app?vid=2e532954-91d6-45d0-820d-bd93ef877e83","ios":"levelo://app?vid=2e532954-91d6-45d0-820d-bd93ef877e83"},"vehicle_type_id":"4","last_reported":1752955891,"current_range_meters":8000,"station_id":"","pricing_plan_id":"cebpf4jnsgd1na2vs0mg"},{"bike_id":"6ea6c30c-b21a-4a6b-b195-606da0f1d70b","system_id":"levelo_inurba_marseille","lat":43.3073,"lon":5.42448,"is_reserved":false,"is_disabled":false,"rental_uris":{"android":"levelo://app?vid=6ea6c30c-b21a-4a6b-b195-606da0f1d70b","ios":"levelo://app?vid=6ea6c30c-b21a-4a6b-b195-606da0f1d70b"},"vehicle_type_id":"4","last_reported":1752955891,"current_range_meters":8000,"station_id":"st_cvj6ca6bvosntc0bfgr0","pricing_plan_id":"cebpf4jnsgd1na2vs0mg"},{"bike_id":"506d32bd-b7a5-4874-8e4b-f94a2db76073","system_id":"levelo_inurba_marseille","lat":43.31163,"lon":5.38722,"is_reserved":false,"is_disabled":false,"rental_uris":{"android":"levelo://app?vid=506d32bd-b7a5-4874-8e4b-f94a2db76073","ios":"levelo://app?vid=506d32bd-b7a5-4874-8e4b-f94a2db76073"},"vehicle_type_id":"4","last_reported":1752955891,"current_range_meters":8000,"station_id":"ce4bgv12rcd13ifvqcp0","pricing_plan_id":"cebpf4jnsgd1na2vs0mg"},{"bike_id":"dd13f2a0-e932-4706-8154-ce91178730c9","system_id":"levelo_inurba_marseille","lat":43.32476,"lon":5.36556,"is_reserved":false,"is_disabled":false,"rental_uris":{"android":"levelo://app?vid=dd13f2a0-e932-4706-8154-ce91178730c9","ios":"levelo://app?vid=dd13f2a0-e932-4706-8154-ce91178730c9"},"vehicle_type_id":"4","last_reported":1752955891,"current_range_meters":8000,"station_id":"ce4bhs12rcd13ifvqhvg","pricing_plan_id":"cebpf4jnsgd1na2vs0mg"},{"bike_id":"03583bad-44e5-4657-a865-5d881e8e0559","system_id":"levelo_inurba_marseille","lat":43.24165,"lon":5.36397,"is_reserved":false,"is_disabled":false,"rental_uris":{"android":"levelo://app?vid=03583bad-44e5-4657-a865-5d881e8e0559","ios":"levelo://app?vid=03583bad-44e5-4657-a865-5d881e8e0559"},"vehicle_type_id":"4","last_reported":1752955891,"current_range_meters":8400,"station_id":"cpo36qri1sfpv3e86is0","pricing_plan_id":"cebpf4jnsgd1na2vs0mg"},{"bike_id":"0e42a7ec-0d0d-4b91-a100-e1bcd751f991","system_id":"levelo_inurba_marseille","lat":43.29895,"lon":5.43685,"is_reserved":false,"is_disabled":false,"rental_uris":{"android":"levelo://app?vid=0e42a7ec-0d0d-4b91-a100-e1bcd751f991","ios":"levelo://app?vid=0e42a7ec-0d0d-4b91-a100-e1bcd751f991"},"vehicle_type_id":"4","last_reported":1752955891,"current_range_meters":8400,"station_id":"ce4bhpp2rcd13ifvqhfg","pricing_plan_id":"cebpf4jnsgd1na2vs0mg"},{"bike_id":"340d357b-0a34-45f0-87cc-f9aec2e8ec5f","system_id":"levelo_inurba_marseille","lat":43.307904,"lon":5.381587,"is_reserved":false,"is_disabled":false,"rental_uris":{"android":"levelo://app?vid=340d357b-0a34-45f0-87cc-f9aec2e8ec5f","ios":"levelo://app?vid=340d357b-0a34-45f0-87cc-f9aec2e8ec5f"},"vehicle_type_id":"4","last_reported":1752955891,"current_range_meters":8400,"station_id":"ce4bgt12rcd13ifvqce0","pricing_plan_id":"cebpf4jnsgd1na2vs0mg"},{"bike_id":"bf71370b-6fab-4129-87ab-a2855d5f6c8a","system_id":"levelo_inurba_marseille","lat":43.32483,"lon":5.36568,"is_reserved":false,"is_disabled":false,"rental_uris":{"android":"levelo://app?vid=bf71370b-6fab-4129-87ab-a2855d5f6c8a","ios":"levelo://app?vid=bf71370b-6fab-4129-87ab-a2855d5f6c8a"},"vehicle_type_id":"4","last_reported":1752955891,"current_range_meters":8800,"station_id":"ce4bhs12rcd13ifvqhvg","pricing_plan_id":"cebpf4jnsgd1na2vs0mg"},{"bike_id":"07aeb5da-15b1-4b73-9d17-70e8acd75061","system_id":"levelo_inurba_marseille","lat":43.225098,"lon":5.3478,"is_reserved":false,"is_disabled":false,"rental_uris":{"android":"levelo://app?vid=07aeb5da-15b1-4b73-9d17-70e8acd75061","ios":"levelo://app?vid=07aeb5da-15b1-4b73-9d17-70e8acd75061"},"vehicle_type_id":"4","last_reported":1752955891,"current_range_meters":8800,"station_id":"st_cvj5dfep6f1abm77gieg","pricing_plan_id":"cebpf4jnsgd1na2vs0mg"},{"bike_id":"d67b539a-fd9c-4646-a99b-0b365590c09e","system_id":"levelo_inurba_marseille","lat":43.29031,"lon":5.38645,"is_reserved":false,"is_disabled":false,"rental_uris":{"android":"levelo://app?vid=d67b539a-fd9c-4646-a99b-0b365590c09e","ios":"levelo://app?vid=d67b539a-fd9c-4646-a99b-0b365590c09e"},"vehicle_type_id":"4","last_reported":1752955891,"current_range_meters":9200,"station_id":"ce4bh4p2rcd13ifvqe0g","pricing_plan_id":"cebpf4jnsgd1na2vs0mg"},{"bike_id":"6ed18a94-3d4c-41da-b584-ed7262cb9b88","system_id":"levelo_inurba_marseille","lat":43.25491,"lon":5.37695,"is_reserved":false,"is_disabled":false,"rental_uris":{"android":"levelo://app?vid=6ed18a94-3d4c-41da-b584-ed7262cb9b88","ios":"levelo://app?vid=6ed18a94-3d4c-41da-b584-ed7262cb9b88"},"vehicle_type_id":"4","last_reported":1752955891,"current_range_meters":8800,"station_id":"ce4bhh12rcd13ifvqff0","pricing_plan_id":"cebpf4jnsgd1na2vs0mg"},{"bike_id":"57a30f0b-84eb-4b98-8989-8d3c02b43bf0","system_id":"levelo_inurba_marseille","lat":43.28634,"lon":5.36985,"is_reserved":false,"is_disabled":false,"rental_uris":{"android":"levelo://app?vid=57a30f0b-84eb-4b98-8989-8d3c02b43bf0","ios":"levelo://app?vid=57a30f0b-84eb-4b98-8989-8d3c02b43bf0"},"vehicle_type_id":"4","last_reported":1752955891,"current_range_meters":9200,"station_id":"","pricing_plan_id":"cebpf4jnsgd1na2vs0mg"},{"bike_id":"65e8acc9-964c-4833-8b5a-d225777dd84f","system_id":"levelo_inurba_marseille","lat":43.29413,"lon":5.38583,"is_reserved":false,"is_disabled":false,"rental_uris":{"android":"levelo://app?vid=65e8acc9-964c-4833-8b5a-d225777dd84f","ios":"levelo://app?vid=65e8acc9-964c-4833-8b5a-d225777dd84f"},"vehicle_type_id":"4","last_reported":1752955891,"current_range_meters":9200,"station_id":"ce4bh2h2rcd13ifvqdh0","pricing_plan_id":"cebpf4jnsgd1na2vs0mg"},{"bike_id":"cfb52d04-9134-4c86-8269-771716b20f27","system_id":"levelo_inurba_marseille","lat":43.21168,"lon":5.35101,"is_reserved":false,"is_disabled":false,"rental_uris":{"android":"levelo://app?vid=cfb52d04-9134-4c86-8269-771716b20f27","ios":"levelo://app?vid=cfb52d04-9134-4c86-8269-771716b20f27"},"vehicle_type_id":"4","last_reported":1752955891,"current_range_meters":9200,"station_id":"st_cvj6sg6p6f1abm77japg","pricing_plan_id":"cebpf4jnsgd1na2vs0mg"},{"bike_id":"c16b4960-8a9d-4251-8b04-ab749abb74df","system_id":"levelo_inurba_marseille","lat":43.31267,"lon":5.40175,"is_reserved":false,"is_disabled":false,"rental_uris":{"android":"levelo://app?vid=c16b4960-8a9d-4251-8b04-ab749abb74df","ios":"levelo://app?vid=c16b4960-8a9d-4251-8b04-ab749abb74df"},"vehicle_type_id":"4","last_reported":1752955891,"current_range_meters":9600,"station_id":"ce4bh092rcd13ifvqd30","pricing_plan_id":"cebpf4jnsgd1na2vs0mg"},{"bike_id":"594712e2-aa25-49d1-ba28-6a1bf5c4dc51","system_id":"levelo_inurba_marseille","lat":43.30172,"lon":5.38036,"is_reserved":false,"is_disabled":false,"rental_uris":{"android":"levelo://app?vid=594712e2-aa25-49d1-ba28-6a1bf5c4dc51","ios":"levelo://app?vid=594712e2-aa25-49d1-ba28-6a1bf5c4dc51"},"vehicle_type_id":"4","last_reported":1752955891,"current_range_meters":9600,"station_id":"","pricing_plan_id":"cebpf4jnsgd1na2vs0mg"},{"bike_id":"1fe2acb9-841b-43fd-9b3d-36bf6cb2f1ce","system_id":"levelo_inurba_marseille","lat":43.28463,"lon":5.35895,"is_reserved":false,"is_disabled":false,"rental_uris":{"android":"levelo://app?vid=1fe2acb9-841b-43fd-9b3d-36bf6cb2f1ce","ios":"levelo://app?vid=1fe2acb9-841b-43fd-9b3d-36bf6cb2f1ce"},"vehicle_type_id":"4","last_reported":1752955891,"current_range_meters":9600,"station_id":"ce4bhah2rcd13ifvqei0","pricing_plan_id":"cebpf4jnsgd1na2vs0mg"},{"bike_id":"6acf6616-5bc2-413d-b8a9-de0cef45b2d4","system_id":"levelo_inurba_marseille","lat":43.24803,"lon":5.37452,"is_reserved":false,"is_disabled":true,"rental_uris":{"android":"levelo://app?vid=6acf6616-5bc2-413d-b8a9-de0cef45b2d4","ios":"levelo://app?vid=6acf6616-5bc2-413d-b8a9-de0cef45b2d4"},"vehicle_type_id":"4","last_reported":1752955891,"current_range_meters":9600,"station_id":"ce4bhgh2rcd13ifvqfb0","pricing_plan_id":"cebpf4jnsgd1na2vs0mg"},{"bike_id":"6f18ab1b-0c74-47b1-bed8-837677176207","system_id":"levelo_inurba_marseille","lat":43.32054,"lon":5.40887,"is_reserved":false,"is_disabled":false,"rental_uris":{"android":"levelo://app?vid=6f18ab1b-0c74-47b1-bed8-837677176207","ios":"levelo://app?vid=6f18ab1b-0c74-47b1-bed8-837677176207"},"vehicle_type_id":"4","last_reported":1752955891,"current_range_meters":9600,"station_id":"","pricing_plan_id":"cebpf4jnsgd1na2vs0mg"},{"bike_id":"e13c101c-255c-419a-bf37-e1dc67e54c4a","system_id":"levelo_inurba_marseille","lat":43.29078,"lon":5.35592,"is_reserved":false,"is_disabled":false,"rental_uris":{"android":"levelo://app?vid=e13c101c-255c-419a-bf37-e1dc67e54c4a","ios":"levelo://app?vid=e13c101c-255c-419a-bf37-e1dc67e54c4a"},"vehicle_type_id":"4","last_reported":1752955891,"current_range_meters":10000,"station_id":"","pricing_plan_id":"cebpf4jnsgd1na2vs0mg"},{"bike_id":"e0ccc305-0c2a-4992-8865-dd230e34965e","system_id":"levelo_inurba_marseille","lat":43.24813,"lon":5.37464,"is_reserved":false,"is_disabled":false,"rental_uris":{"android":"levelo://app?vid=e0ccc305-0c2a-4992-8865-dd230e34965e","ios":"levelo://app?vid=e0ccc305-0c2a-4992-8865-dd230e34965e"},"vehicle_type_id":"4","last_reported":1752955891,"current_range_meters":10000,"station_id":"ce4bhgh2rcd13ifvqfb0","pricing_plan_id":"cebpf4jnsgd1na2vs0mg"},{"bike_id":"2d5426b7-c5ef-4761-9a4a-28e19dac621a","system_id":"levelo_inurba_marseille","lat":43.30413,"lon":5.41287,"is_reserved":false,"is_disabled":true,"rental_uris":{"android":"levelo://app?vid=2d5426b7-c5ef-4761-9a4a-28e19dac621a","ios":"levelo://app?vid=2d5426b7-c5ef-4761-9a4a-28e19dac621a"},"vehicle_type_id":"4","last_reported":1752955891,"current_range_meters":10000,"station_id":"ce4bhop2rcd13ifvqh8g","pricing_plan_id":"cebpf4jnsgd1na2vs0mg"},{"bike_id":"35808219-5db5-4b9e-951b-af9db1301e12","system_id":"levelo_inurba_marseille","lat":43.22502,"lon":5.34787,"is_reserved":false,"is_disabled":false,"rental_uris":{"android":"levelo://app?vid=35808219-5db5-4b9e-951b-af9db1301e12","ios":"levelo://app?vid=35808219-5db5-4b9e-951b-af9db1301e12"},"vehicle_type_id":"4","last_reported":1752955891,"current_range_meters":10000,"station_id":"st_cvj5dfep6f1abm77gieg","pricing_plan_id":"cebpf4jnsgd1na2vs0mg"},{"bike_id":"cc78dc5f-0d1b-4be4-909b-255ea9da29cb","system_id":"levelo_inurba_marseille","lat":43.2587,"lon":5.39896,"is_reserved":false,"is_disabled":false,"rental_uris":{"android":"levelo://app?vid=cc78dc5f-0d1b-4be4-909b-255ea9da29cb","ios":"levelo://app?vid=cc78dc5f-0d1b-4be4-909b-255ea9da29cb"},"vehicle_type_id":"4","last_reported":1752955891,"current_range_meters":10000,"station_id":"ce4bhl92rcd13ifvqghg","pricing_plan_id":"cebpf4jnsgd1na2vs0mg"},{"bike_id":"94bc2d83-044d-47e9-9a52-bb6c99a3df4e","system_id":"levelo_inurba_marseille","lat":43.25493,"lon":5.37654,"is_reserved":false,"is_disabled":false,"rental_uris":{"android":"levelo://app?vid=94bc2d83-044d-47e9-9a52-bb6c99a3df4e","ios":"levelo://app?vid=94bc2d83-044d-47e9-9a52-bb6c99a3df4e"},"vehicle_type_id":"4","last_reported":1752955891,"current_range_meters":10000,"station_id":"ce4bhh12rcd13ifvqff0","pricing_plan_id":"cebpf4jnsgd1na2vs0mg"},{"bike_id":"ec32d022-e872-49b5-bd4f-54d6f32b82ae","system_id":"levelo_inurba_marseille","lat":43.311174,"lon":5.377747,"is_reserved":false,"is_disabled":false,"rental_uris":{"android":"levelo://app?vid=ec32d022-e872-49b5-bd4f-54d6f32b82ae","ios":"levelo://app?vid=ec32d022-e872-49b5-bd4f-54d6f32b82ae"},"vehicle_type_id":"4","last_reported":1752955891,"current_range_meters":10000,"station_id":"","pricing_plan_id":"cebpf4jnsgd1na2vs0mg"},{"bike_id":"b51d9e76-bb18-4f83-9693-be0f0792eb18","system_id":"levelo_inurba_marseille","lat":43.30299,"lon":5.39213,"is_reserved":false,"is_disabled":false,"rental_uris":{"android":"levelo://app?vid=b51d9e76-bb18-4f83-9693-be0f0792eb18","ios":"levelo://app?vid=b51d9e76-bb18-4f83-9693-be0f0792eb18"},"vehicle_type_id":"4","last_reported":1752955891,"current_range_meters":10000,"station_id":"ce4bgkh2rcd13ifvqbk0","pricing_plan_id":"cebpf4jnsgd1na2vs0mg"},{"bike_id":"4b0ce299-727c-48ce-b95a-b67cdf638733","system_id":"levelo_inurba_marseille","lat":43.22536,"lon":5.34752,"is_reserved":false,"is_disabled":false,"rental_uris":{"android":"levelo://app?vid=4b0ce299-727c-48ce-b95a-b67cdf638733","ios":"levelo://app?vid=4b0ce299-727c-48ce-b95a-b67cdf638733"},"vehicle_type_id":"4","last_reported":1752955891,"current_range_meters":10800,"station_id":"","pricing_plan_id":"cebpf4jnsgd1na2vs0mg"},{"bike_id":"cf9da0b2-9c2f-48ee-ae92-32a14e4d9b10","system_id":"levelo_inurba_marseille","lat":43.24792,"lon":5.37457,"is_reserved":false,"is_disabled":false,"rental_uris":{"android":"levelo://app?vid=cf9da0b2-9c2f-48ee-ae92-32a14e4d9b10","ios":"levelo://app?vid=cf9da0b2-9c2f-48ee-ae92-32a14e4d9b10"},"vehicle_type_id":"4","last_reported":1752955891,"current_range_meters":10800,"station_id":"ce4bhgh2rcd13ifvqfb0","pricing_plan_id":"cebpf4jnsgd1na2vs0mg"},{"bike_id":"350f8837-f73a-44fa-ba68-b9003e0139de","system_id":"levelo_inurba_marseille","lat":43.29966,"lon":5.38502,"is_reserved":false,"is_disabled":false,"rental_uris":{"android":"levelo://app?vid=350f8837-f73a-44fa-ba68-b9003e0139de","ios":"levelo://app?vid=350f8837-f73a-44fa-ba68-b9003e0139de"},"vehicle_type_id":"4","last_reported":1752955891,"current_range_meters":10800,"station_id":"ce4bgj92rcd13ifvqbd0","pricing_plan_id":"cebpf4jnsgd1na2vs0mg"},{"bike_id":"78e7ae38-f610-4faf-ab90-6e5738403c6d","system_id":"levelo_inurba_marseille","lat":43.29076,"lon":5.37173,"is_reserved":false,"is_disabled":false,"rental_uris":{"android":"levelo://app?vid=78e7ae38-f610-4faf-ab90-6e5738403c6d","ios":"levelo://app?vid=78e7ae38-f610-4faf-ab90-6e5738403c6d"},"vehicle_type_id":"4","last_reported":1752955891,"current_range_meters":10800,"station_id":"ce4bh5p2rcd13ifvqe4g","pricing_plan_id":"cebpf4jnsgd1na2vs0mg"},{"bike_id":"741b15b8-211d-44e8-b4e3-0621fc8f6138","system_id":"levelo_inurba_marseille","lat":43.29301,"lon":5.37167,"is_reserved":false,"is_disabled":false,"rental_uris":{"android":"levelo://app?vid=741b15b8-211d-44e8-b4e3-0621fc8f6138","ios":"levelo://app?vid=741b15b8-211d-44e8-b4e3-0621fc8f6138"},"vehicle_type_id":"4","last_reported":1752955891,"current_range_meters":10800,"station_id":"ce4bgh92rcd13ifvqb40","pricing_plan_id":"cebpf4jnsgd1na2vs0mg"},{"bike_id":"91a7286c-a7a6-4801-8ed2-79965c5f0471","system_id":"levelo_inurba_marseille","lat":43.30776,"lon":5.37644,"is_reserved":false,"is_disabled":false,"rental_uris":{"android":"levelo://app?vid=91a7286c-a7a6-4801-8ed2-79965c5f0471","ios":"levelo://app?vid=91a7286c-a7a6-4801-8ed2-79965c5f0471"},"vehicle_type_id":"4","last_reported":1752955891,"current_range_meters":10800,"station_id":"ce4bgv92rcd13ifvqcq0","pricing_plan_id":"cebpf4jnsgd1na2vs0mg"},{"bike_id":"96579d04-b9e9-484c-9b9a-af500e5e8552","system_id":"levelo_inurba_marseille","lat":43.32654,"lon":5.36378,"is_reserved":false,"is_disabled":false,"rental_uris":{"android":"levelo://app?vid=96579d04-b9e9-484c-9b9a-af500e5e8552","ios":"levelo://app?vid=96579d04-b9e9-484c-9b9a-af500e5e8552"},"vehicle_type_id":"4","last_reported":1752955891,"current_range_meters":10800,"station_id":"","pricing_plan_id":"cebpf4jnsgd1na2vs0mg"},{"bike_id":"475b9799-8c28-49d7-a2bd-b989a871d401","system_id":"levelo_inurba_marseille","lat":43.240742,"lon":5.377536,"is_reserved":false,"is_disabled":true,"rental_uris":{"android":"levelo://app?vid=475b9799-8c28-49d7-a2bd-b989a871d401","ios":"levelo://app?vid=475b9799-8c28-49d7-a2bd-b989a871d401"},"vehicle_type_id":"4","last_reported":1752955891,"current_range_meters":11200,"station_id":"ce4bhnp2rcd13ifvqgvg","pricing_plan_id":"cebpf4jnsgd1na2vs0mg"},{"bike_id":"f7d772a1-eb76-4f08-8412-337529677db5","system_id":"levelo_inurba_marseille","lat":43.34141,"lon":5.409009,"is_reserved":false,"is_disabled":false,"rental_uris":{"android":"levelo://app?vid=f7d772a1-eb76-4f08-8412-337529677db5","ios":"levelo://app?vid=f7d772a1-eb76-4f08-8412-337529677db5"},"vehicle_type_id":"4","last_reported":1752955891,"current_range_meters":11200,"station_id":"ce4bhqh2rcd13ifvqhlg","pricing_plan_id":"cebpf4jnsgd1na2vs0mg"},{"bike_id":"78dac670-8038-4764-9038-c62b6c645d4b","system_id":"levelo_inurba_marseille","lat":43.317727,"lon":5.38551,"is_reserved":false,"is_disabled":false,"rental_uris":{"android":"levelo://app?vid=78dac670-8038-4764-9038-c62b6c645d4b","ios":"levelo://app?vid=78dac670-8038-4764-9038-c62b6c645d4b"},"vehicle_type_id":"4","last_reported":1752955891,"current_range_meters":11200,"station_id":"","pricing_plan_id":"cebpf4jnsgd1na2vs0mg"},{"bike_id":"d9749d8f-7121-4a45-ac25-8f48b28876d4","system_id":"levelo_inurba_marseille","lat":43.28393,"lon":5.35957,"is_reserved":false,"is_disabled":false,"rental_uris":{"android":"levelo://app?vid=d9749d8f-7121-4a45-ac25-8f48b28876d4","ios":"levelo://app?vid=d9749d8f-7121-4a45-ac25-8f48b28876d4"},"vehicle_type_id":"4","last_reported":1752955891,"current_range_meters":11200,"station_id":"","pricing_plan_id":"cebpf4jnsgd1na2vs0mg"},{"bike_id":"9871eefc-2b83-4707-a42f-aa77b0b709d7","system_id":"levelo_inurba_marseille","lat":43.33604,"lon":5.41037,"is_reserved":false,"is_disabled":false,"rental_uris":{"android":"levelo://app?vid=9871eefc-2b83-4707-a42f-aa77b0b709d7","ios":"levelo://app?vid=9871eefc-2b83-4707-a42f-aa77b0b709d7"},"vehicle_type_id":"4","last_reported":1752955891,"current_range_meters":11200,"station_id":"ce4bhqh2rcd13ifvqhmg","pricing_plan_id":"cebpf4jnsgd1na2vs0mg"},{"bike_id":"347a9c5e-efff-40ba-bf5d-1b904fa9ad79","system_id":"levelo_inurba_marseille","lat":43.24383,"lon":5.37058,"is_reserved":false,"is_disabled":false,"rental_uris":{"android":"levelo://app?vid=347a9c5e-efff-40ba-bf5d-1b904fa9ad79","ios":"levelo://app?vid=347a9c5e-efff-40ba-bf5d-1b904fa9ad79"},"vehicle_type_id":"4","last_reported":1752955891,"current_range_meters":11200,"station_id":"ce4bhhh2rcd13ifvqfk0","pricing_plan_id":"cebpf4jnsgd1na2vs0mg"},{"bike_id":"b7637b88-cd12-4730-8a3f-49158de8814f","system_id":"levelo_inurba_marseille","lat":43.322905,"lon":5.38277,"is_reserved":false,"is_disabled":false,"rental_uris":{"android":"levelo://app?vid=b7637b88-cd12-4730-8a3f-49158de8814f","ios":"levelo://app?vid=b7637b88-cd12-4730-8a3f-49158de8814f"},"vehicle_type_id":"4","last_reported":1752955891,"current_range_meters":11200,"station_id":"ce4bhr12rcd13ifvqhqg","pricing_plan_id":"cebpf4jnsgd1na2vs0mg"},{"bike_id":"dec9d31e-0eb4-4e53-8bf4-b8964ec46e69","system_id":"levelo_inurba_marseille","lat":43.30938,"lon":5.39036,"is_reserved":false,"is_disabled":false,"rental_uris":{"android":"levelo://app?vid=dec9d31e-0eb4-4e53-8bf4-b8964ec46e69","ios":"levelo://app?vid=dec9d31e-0eb4-4e53-8bf4-b8964ec46e69"},"vehicle_type_id":"4","last_reported":1752955891,"current_range_meters":11600,"station_id":"ce4bgup2rcd13ifvqco0","pricing_plan_id":"cebpf4jnsgd1na2vs0mg"},{"bike_id":"bd300cb7-130d-4e76-8197-f74360ddac90","system_id":"levelo_inurba_marseille","lat":43.29975,"lon":5.37162,"is_reserved":false,"is_disabled":false,"rental_uris":{"android":"levelo://app?vid=bd300cb7-130d-4e76-8197-f74360ddac90","ios":"levelo://app?vid=bd300cb7-130d-4e76-8197-f74360ddac90"},"vehicle_type_id":"4","last_reported":1752955891,"current_range_meters":11600,"station_id":"ce4bgr92rcd13ifvqc7g","pricing_plan_id":"cebpf4jnsgd1na2vs0mg"},{"bike_id":"ac141403-2eff-454e-8bd1-3d400d40ed2b","system_id":"levelo_inurba_marseille","lat":43.33089,"lon":5.40031,"is_reserved":false,"is_disabled":false,"rental_uris":{"android":"levelo://app?vid=ac141403-2eff-454e-8bd1-3d400d40ed2b","ios":"levelo://app?vid=ac141403-2eff-454e-8bd1-3d400d40ed2b"},"vehicle_type_id":"4","last_reported":1752955891,"current_range_meters":11600,"station_id":"","pricing_plan_id":"cebpf4jnsgd1na2vs0mg"},{"bike_id":"a0acd944-2b83-4b11-8d8a-b15fb7361561","system_id":"levelo_inurba_marseille","lat":43.30143,"lon":5.3806,"is_reserved":false,"is_disabled":false,"rental_uris":{"android":"levelo://app?vid=a0acd944-2b83-4b11-8d8a-b15fb7361561","ios":"levelo://app?vid=a0acd944-2b83-4b11-8d8a-b15fb7361561"},"vehicle_type_id":"4","last_reported":1752955891,"current_range_meters":11200,"station_id":"ce4bgjp2rcd13ifvqbh0","pricing_plan_id":"cebpf4jnsgd1na2vs0mg"},{"bike_id":"d7149a46-fb39-4935-aa6a-50600ec45c29","system_id":"levelo_inurba_marseille","lat":43.21749,"lon":5.34606,"is_reserved":false,"is_disabled":true,"rental_uris":{"android":"levelo://app?vid=d7149a46-fb39-4935-aa6a-50600ec45c29","ios":"levelo://app?vid=d7149a46-fb39-4935-aa6a-50600ec45c29"},"vehicle_type_id":"4","last_reported":1752955891,"current_range_meters":11600,"station_id":"st_cvj6r9ubvosntc0bgbag","pricing_plan_id":"cebpf4jnsgd1na2vs0mg"},{"bike_id":"7eb0825e-58fb-4abc-b7c8-8973a0081fa9","system_id":"levelo_inurba_marseille","lat":43.3247,"lon":5.36559,"is_reserved":false,"is_disabled":false,"rental_uris":{"android":"levelo://app?vid=7eb0825e-58fb-4abc-b7c8-8973a0081fa9","ios":"levelo://app?vid=7eb0825e-58fb-4abc-b7c8-8973a0081fa9"},"vehicle_type_id":"4","last_reported":1752955891,"current_range_meters":11600,"station_id":"ce4bhs12rcd13ifvqhvg","pricing_plan_id":"cebpf4jnsgd1na2vs0mg"},{"bike_id":"878f1740-66d1-4660-a953-0a5d34fa89a1","system_id":"levelo_inurba_marseille","lat":43.22928,"lon":5.35383,"is_reserved":false,"is_disabled":false,"rental_uris":{"android":"levelo://app?vid=878f1740-66d1-4660-a953-0a5d34fa89a1","ios":"levelo://app?vid=878f1740-66d1-4660-a953-0a5d34fa89a1"},"vehicle_type_id":"4","last_reported":1752955891,"current_range_meters":11600,"station_id":"cpo3532slgdg3j2ikp40","pricing_plan_id":"cebpf4jnsgd1na2vs0mg"},{"bike_id":"3f9a342c-1604-44a1-866e-f1ec3a34e2bd","system_id":"levelo_inurba_marseille","lat":43.29842,"lon":5.36265,"is_reserved":false,"is_disabled":false,"rental_uris":{"android":"levelo://app?vid=3f9a342c-1604-44a1-866e-f1ec3a34e2bd","ios":"levelo://app?vid=3f9a342c-1604-44a1-866e-f1ec3a34e2bd"},"vehicle_type_id":"4","last_reported":1752955891,"current_range_meters":12000,"station_id":"ce4bgpp2rcd13ifvqc3g","pricing_plan_id":"cebpf4jnsgd1na2vs0mg"},{"bike_id":"535ed856-8d62-4b26-a03b-0830639383b9","system_id":"levelo_inurba_marseille","lat":43.24062,"lon":5.37767,"is_reserved":false,"is_disabled":false,"rental_uris":{"android":"levelo://app?vid=535ed856-8d62-4b26-a03b-0830639383b9","ios":"levelo://app?vid=535ed856-8d62-4b26-a03b-0830639383b9"},"vehicle_type_id":"4","last_reported":1752955891,"current_range_meters":12000,"station_id":"ce4bhnp2rcd13ifvqgvg","pricing_plan_id":"cebpf4jnsgd1na2vs0mg"},{"bike_id":"fefb77b0-2a56-42df-9936-58f211846461","system_id":"levelo_inurba_marseille","lat":43.309447,"lon":5.390355,"is_reserved":false,"is_disabled":false,"rental_uris":{"android":"levelo://app?vid=fefb77b0-2a56-42df-9936-58f211846461","ios":"levelo://app?vid=fefb77b0-2a56-42df-9936-58f211846461"},"vehicle_type_id":"4","last_reported":1752955891,"current_range_meters":12000,"station_id":"ce4bgup2rcd13ifvqco0","pricing_plan_id":"cebpf4jnsgd1na2vs0mg"},{"bike_id":"4b8dc513-60f0-49ad-b282-0ce57025de3b","system_id":"levelo_inurba_marseille","lat":43.26219,"lon":5.3741,"is_reserved":false,"is_disabled":false,"rental_uris":{"android":"levelo://app?vid=4b8dc513-60f0-49ad-b282-0ce57025de3b","ios":"levelo://app?vid=4b8dc513-60f0-49ad-b282-0ce57025de3b"},"vehicle_type_id":"4","last_reported":1752955891,"current_range_meters":12000,"station_id":"ce4bhgp2rcd13ifvqfc0","pricing_plan_id":"cebpf4jnsgd1na2vs0mg"},{"bike_id":"94c07cb2-0943-4d24-99f2-97bdab47aa3f","system_id":"levelo_inurba_marseille","lat":43.337444,"lon":5.374475,"is_reserved":false,"is_disabled":false,"rental_uris":{"android":"levelo://app?vid=94c07cb2-0943-4d24-99f2-97bdab47aa3f","ios":"levelo://app?vid=94c07cb2-0943-4d24-99f2-97bdab47aa3f"},"vehicle_type_id":"4","last_reported":1752955891,"current_range_meters":12000,"station_id":"","pricing_plan_id":"cebpf4jnsgd1na2vs0mg"},{"bike_id":"9eee562f-c74b-4c1a-8fa0-1792764207de","system_id":"levelo_inurba_marseille","lat":43.25488,"lon":5.376527,"is_reserved":false,"is_disabled":false,"rental_uris":{"android":"levelo://app?vid=9eee562f-c74b-4c1a-8fa0-1792764207de","ios":"levelo://app?vid=9eee562f-c74b-4c1a-8fa0-1792764207de"},"vehicle_type_id":"4","last_reported":1752955891,"current_range_meters":12400,"station_id":"ce4bhh12rcd13ifvqff0","pricing_plan_id":"cebpf4jnsgd1na2vs0mg"},{"bike_id":"a650875e-dab1-4190-8d4b-30bfcfb0ee5b","system_id":"levelo_inurba_marseille","lat":43.21728,"lon":5.34626,"is_reserved":false,"is_disabled":false,"rental_uris":{"android":"levelo://app?vid=a650875e-dab1-4190-8d4b-30bfcfb0ee5b","ios":"levelo://app?vid=a650875e-dab1-4190-8d4b-30bfcfb0ee5b"},"vehicle_type_id":"4","last_reported":1752955891,"current_range_meters":12400,"station_id":"st_cvj6r9ubvosntc0bgbag","pricing_plan_id":"cebpf4jnsgd1na2vs0mg"},{"bike_id":"b9fced18-9d1a-4197-85f4-d3fcdf201017","system_id":"levelo_inurba_marseille","lat":43.29868,"lon":5.39734,"is_reserved":false,"is_disabled":false,"rental_uris":{"android":"levelo://app?vid=b9fced18-9d1a-4197-85f4-d3fcdf201017","ios":"levelo://app?vid=b9fced18-9d1a-4197-85f4-d3fcdf201017"},"vehicle_type_id":"4","last_reported":1752955891,"current_range_meters":12400,"station_id":"","pricing_plan_id":"cebpf4jnsgd1na2vs0mg"},{"bike_id":"42a55720-de4a-4335-b74d-9b5a0ecaec4c","system_id":"levelo_inurba_marseille","lat":43.2885,"lon":5.39302,"is_reserved":false,"is_disabled":false,"rental_uris":{"android":"levelo://app?vid=42a55720-de4a-4335-b74d-9b5a0ecaec4c","ios":"levelo://app?vid=42a55720-de4a-4335-b74d-9b5a0ecaec4c"},"vehicle_type_id":"4","last_reported":1752955891,"current_range_meters":12400,"station_id":"ce4bh2p2rcd13ifvqdi0","pricing_plan_id":"cebpf4jnsgd1na2vs0mg"},{"bike_id":"b970126c-c1c3-439a-8880-44ad88bd90cf","system_id":"levelo_inurba_marseille","lat":43.32115,"lon":5.36781,"is_reserved":false,"is_disabled":false,"rental_uris":{"android":"levelo://app?vid=b970126c-c1c3-439a-8880-44ad88bd90cf","ios":"levelo://app?vid=b970126c-c1c3-439a-8880-44ad88bd90cf"},"vehicle_type_id":"4","last_reported":1752955891,"current_range_meters":12400,"station_id":"ce4bhrh2rcd13ifvqhug","pricing_plan_id":"cebpf4jnsgd1na2vs0mg"},{"bike_id":"9685a70f-9d8e-480d-b124-cc4ec9307e61","system_id":"levelo_inurba_marseille","lat":43.25862,"lon":5.39904,"is_reserved":false,"is_disabled":false,"rental_uris":{"android":"levelo://app?vid=9685a70f-9d8e-480d-b124-cc4ec9307e61","ios":"levelo://app?vid=9685a70f-9d8e-480d-b124-cc4ec9307e61"},"vehicle_type_id":"4","last_reported":1752955891,"current_range_meters":12400,"station_id":"ce4bhl92rcd13ifvqghg","pricing_plan_id":"cebpf4jnsgd1na2vs0mg"},{"bike_id":"7360b2c1-827d-4a45-ba07-948ef7d2fc35","system_id":"levelo_inurba_marseille","lat":43.229295,"lon":5.353761,"is_reserved":false,"is_disabled":false,"rental_uris":{"android":"levelo://app?vid=7360b2c1-827d-4a45-ba07-948ef7d2fc35","ios":"levelo://app?vid=7360b2c1-827d-4a45-ba07-948ef7d2fc35"},"vehicle_type_id":"4","last_reported":1752955891,"current_range_meters":12400,"station_id":"","pricing_plan_id":"cebpf4jnsgd1na2vs0mg"},{"bike_id":"d1e9c72e-7489-4052-b944-813b64bc55b4","system_id":"levelo_inurba_marseille","lat":43.31567,"lon":5.38953,"is_reserved":false,"is_disabled":false,"rental_uris":{"android":"levelo://app?vid=d1e9c72e-7489-4052-b944-813b64bc55b4","ios":"levelo://app?vid=d1e9c72e-7489-4052-b944-813b64bc55b4"},"vehicle_type_id":"4","last_reported":1752955891,"current_range_meters":12400,"station_id":"","pricing_plan_id":"cebpf4jnsgd1na2vs0mg"},{"bike_id":"26d4151f-9549-44eb-a5f4-acb24ea42496","system_id":"levelo_inurba_marseille","lat":43.295543,"lon":5.422944,"is_reserved":false,"is_disabled":false,"rental_uris":{"android":"levelo://app?vid=26d4151f-9549-44eb-a5f4-acb24ea42496","ios":"levelo://app?vid=26d4151f-9549-44eb-a5f4-acb24ea42496"},"vehicle_type_id":"4","last_reported":1752955891,"current_range_meters":12400,"station_id":"ce4bhph2rcd13ifvqhdg","pricing_plan_id":"cebpf4jnsgd1na2vs0mg"},{"bike_id":"3ad37f1b-5c1c-42bb-8c8a-36228b5bd575","system_id":"levelo_inurba_marseille","lat":43.2467,"lon":5.3817,"is_reserved":false,"is_disabled":false,"rental_uris":{"android":"levelo://app?vid=3ad37f1b-5c1c-42bb-8c8a-36228b5bd575","ios":"levelo://app?vid=3ad37f1b-5c1c-42bb-8c8a-36228b5bd575"},"vehicle_type_id":"4","last_reported":1752955891,"current_range_meters":12400,"station_id":"ce4bhih2rcd13ifvqfr0","pricing_plan_id":"cebpf4jnsgd1na2vs0mg"},{"bike_id":"9f96b854-e027-4c40-b573-f426a572ccbf","system_id":"levelo_inurba_marseille","lat":43.32955,"lon":5.39759,"is_reserved":false,"is_disabled":false,"rental_uris":{"android":"levelo://app?vid=9f96b854-e027-4c40-b573-f426a572ccbf","ios":"levelo://app?vid=9f96b854-e027-4c40-b573-f426a572ccbf"},"vehicle_type_id":"4","last_reported":1752955891,"current_range_meters":12800,"station_id":"","pricing_plan_id":"cebpf4jnsgd1na2vs0mg"},{"bike_id":"879f1b71-37b2-4b17-96c2-2b9f33ae8cd5","system_id":"levelo_inurba_marseille","lat":43.32047,"lon":5.41545,"is_reserved":false,"is_disabled":false,"rental_uris":{"android":"levelo://app?vid=879f1b71-37b2-4b17-96c2-2b9f33ae8cd5","ios":"levelo://app?vid=879f1b71-37b2-4b17-96c2-2b9f33ae8cd5"},"vehicle_type_id":"4","last_reported":1752955891,"current_range_meters":12400,"station_id":"ce4bhq92rcd13ifvqhkg","pricing_plan_id":"cebpf4jnsgd1na2vs0mg"},{"bike_id":"f9d8db9c-e2b5-49b3-a065-ecbddb17acfb","system_id":"levelo_inurba_marseille","lat":43.309595,"lon":5.390245,"is_reserved":false,"is_disabled":false,"rental_uris":{"android":"levelo://app?vid=f9d8db9c-e2b5-49b3-a065-ecbddb17acfb","ios":"levelo://app?vid=f9d8db9c-e2b5-49b3-a065-ecbddb17acfb"},"vehicle_type_id":"4","last_reported":1752955891,"current_range_meters":12800,"station_id":"ce4bgup2rcd13ifvqco0","pricing_plan_id":"cebpf4jnsgd1na2vs0mg"},{"bike_id":"59b69987-96b3-4153-86bc-44d38d1cc5e5","system_id":"levelo_inurba_marseille","lat":43.30946,"lon":5.39048,"is_reserved":false,"is_disabled":false,"rental_uris":{"android":"levelo://app?vid=59b69987-96b3-4153-86bc-44d38d1cc5e5","ios":"levelo://app?vid=59b69987-96b3-4153-86bc-44d38d1cc5e5"},"vehicle_type_id":"4","last_reported":1752955891,"current_range_meters":12800,"station_id":"ce4bgup2rcd13ifvqco0","pricing_plan_id":"cebpf4jnsgd1na2vs0mg"},{"bike_id":"fdbeb289-adb3-4e25-b0dd-c635efbe92b2","system_id":"levelo_inurba_marseille","lat":43.31685,"lon":5.40477,"is_reserved":false,"is_disabled":false,"rental_uris":{"android":"levelo://app?vid=fdbeb289-adb3-4e25-b0dd-c635efbe92b2","ios":"levelo://app?vid=fdbeb289-adb3-4e25-b0dd-c635efbe92b2"},"vehicle_type_id":"4","last_reported":1752955891,"current_range_meters":12800,"station_id":"ce4bh012rcd13ifvqd00","pricing_plan_id":"cebpf4jnsgd1na2vs0mg"},{"bike_id":"1d87eeb0-f060-493b-a49a-cefb097a67ff","system_id":"levelo_inurba_marseille","lat":43.29841,"lon":5.36265,"is_reserved":false,"is_disabled":false,"rental_uris":{"android":"levelo://app?vid=1d87eeb0-f060-493b-a49a-cefb097a67ff","ios":"levelo://app?vid=1d87eeb0-f060-493b-a49a-cefb097a67ff"},"vehicle_type_id":"4","last_reported":1752955891,"current_range_meters":13600,"station_id":"ce4bgpp2rcd13ifvqc3g","pricing_plan_id":"cebpf4jnsgd1na2vs0mg"},{"bike_id":"aab6ff25-cf97-421e-b9f6-ee2bcc93ce5b","system_id":"levelo_inurba_marseille","lat":43.28357,"lon":5.38615,"is_reserved":false,"is_disabled":false,"rental_uris":{"android":"levelo://app?vid=aab6ff25-cf97-421e-b9f6-ee2bcc93ce5b","ios":"levelo://app?vid=aab6ff25-cf97-421e-b9f6-ee2bcc93ce5b"},"vehicle_type_id":"4","last_reported":1752955891,"current_range_meters":13600,"station_id":"ce4bh492rcd13ifvqdvg","pricing_plan_id":"cebpf4jnsgd1na2vs0mg"},{"bike_id":"c3239f38-a480-458c-989a-c445241004ea","system_id":"levelo_inurba_marseille","lat":43.30945,"lon":5.39028,"is_reserved":false,"is_disabled":false,"rental_uris":{"android":"levelo://app?vid=c3239f38-a480-458c-989a-c445241004ea","ios":"levelo://app?vid=c3239f38-a480-458c-989a-c445241004ea"},"vehicle_type_id":"4","last_reported":1752955891,"current_range_meters":13600,"station_id":"ce4bgup2rcd13ifvqco0","pricing_plan_id":"cebpf4jnsgd1na2vs0mg"},{"bike_id":"779179fb-89f0-4f19-a8e1-bcf9140d6a02","system_id":"levelo_inurba_marseille","lat":43.2942,"lon":5.38601,"is_reserved":false,"is_disabled":false,"rental_uris":{"android":"levelo://app?vid=779179fb-89f0-4f19-a8e1-bcf9140d6a02","ios":"levelo://app?vid=779179fb-89f0-4f19-a8e1-bcf9140d6a02"},"vehicle_type_id":"4","last_reported":1752955891,"current_range_meters":14000,"station_id":"ce4bh2h2rcd13ifvqdh0","pricing_plan_id":"cebpf4jnsgd1na2vs0mg"},{"bike_id":"36dafdf3-a19d-4e59-9388-9cc4e3c7352f","system_id":"levelo_inurba_marseille","lat":43.29057,"lon":5.37196,"is_reserved":false,"is_disabled":false,"rental_uris":{"android":"levelo://app?vid=36dafdf3-a19d-4e59-9388-9cc4e3c7352f","ios":"levelo://app?vid=36dafdf3-a19d-4e59-9388-9cc4e3c7352f"},"vehicle_type_id":"4","last_reported":1752955891,"current_range_meters":13600,"station_id":"ce4bh5p2rcd13ifvqe4g","pricing_plan_id":"cebpf4jnsgd1na2vs0mg"},{"bike_id":"0fd02cf6-67fb-4589-807f-241dd50b7e1a","system_id":"levelo_inurba_marseille","lat":43.298987,"lon":5.436521,"is_reserved":false,"is_disabled":true,"rental_uris":{"android":"levelo://app?vid=0fd02cf6-67fb-4589-807f-241dd50b7e1a","ios":"levelo://app?vid=0fd02cf6-67fb-4589-807f-241dd50b7e1a"},"vehicle_type_id":"4","last_reported":1752955891,"current_range_meters":14000,"station_id":"ce4bhpp2rcd13ifvqhfg","pricing_plan_id":"cebpf4jnsgd1na2vs0mg"},{"bike_id":"c55d309f-0c81-41ab-964e-1e5d88f71cba","system_id":"levelo_inurba_marseille","lat":43.2925,"lon":5.40912,"is_reserved":false,"is_disabled":false,"rental_uris":{"android":"levelo://app?vid=c55d309f-0c81-41ab-964e-1e5d88f71cba","ios":"levelo://app?vid=c55d309f-0c81-41ab-964e-1e5d88f71cba"},"vehicle_type_id":"4","last_reported":1752955891,"current_range_meters":14000,"station_id":"ce4bh192rcd13ifvqdc0","pricing_plan_id":"cebpf4jnsgd1na2vs0mg"},{"bike_id":"646bd144-4ffa-49b8-a08d-6b47ca08200f","system_id":"levelo_inurba_marseille","lat":43.25476,"lon":5.37657,"is_reserved":false,"is_disabled":true,"rental_uris":{"android":"levelo://app?vid=646bd144-4ffa-49b8-a08d-6b47ca08200f","ios":"levelo://app?vid=646bd144-4ffa-49b8-a08d-6b47ca08200f"},"vehicle_type_id":"4","last_reported":1752955891,"current_range_meters":14000,"station_id":"ce4bhh12rcd13ifvqff0","pricing_plan_id":"cebpf4jnsgd1na2vs0mg"},{"bike_id":"b3c5a29a-caee-4b6b-9dfc-fac2d1ca3742","system_id":"levelo_inurba_marseille","lat":43.28465,"lon":5.35897,"is_reserved":false,"is_disabled":false,"rental_uris":{"android":"levelo://app?vid=b3c5a29a-caee-4b6b-9dfc-fac2d1ca3742","ios":"levelo://app?vid=b3c5a29a-caee-4b6b-9dfc-fac2d1ca3742"},"vehicle_type_id":"4","last_reported":1752955891,"current_range_meters":14000,"station_id":"ce4bhah2rcd13ifvqei0","pricing_plan_id":"cebpf4jnsgd1na2vs0mg"},{"bike_id":"c9ffd04b-c3a5-49bc-9896-054acbb108c7","system_id":"levelo_inurba_marseille","lat":43.22505,"lon":5.34773,"is_reserved":false,"is_disabled":false,"rental_uris":{"android":"levelo://app?vid=c9ffd04b-c3a5-49bc-9896-054acbb108c7","ios":"levelo://app?vid=c9ffd04b-c3a5-49bc-9896-054acbb108c7"},"vehicle_type_id":"4","last_reported":1752955891,"current_range_meters":14000,"station_id":"st_cvj5dfep6f1abm77gieg","pricing_plan_id":"cebpf4jnsgd1na2vs0mg"},{"bike_id":"f55cb425-dd08-4833-add3-25f9ad4788e6","system_id":"levelo_inurba_marseille","lat":43.29426,"lon":5.38604,"is_reserved":false,"is_disabled":false,"rental_uris":{"android":"levelo://app?vid=f55cb425-dd08-4833-add3-25f9ad4788e6","ios":"levelo://app?vid=f55cb425-dd08-4833-add3-25f9ad4788e6"},"vehicle_type_id":"4","last_reported":1752955891,"current_range_meters":14400,"station_id":"ce4bh2h2rcd13ifvqdh0","pricing_plan_id":"cebpf4jnsgd1na2vs0mg"},{"bike_id":"35e8a946-928b-4d2b-8560-82f4c1ec8014","system_id":"levelo_inurba_marseille","lat":43.26271,"lon":5.37418,"is_reserved":false,"is_disabled":false,"rental_uris":{"android":"levelo://app?vid=35e8a946-928b-4d2b-8560-82f4c1ec8014","ios":"levelo://app?vid=35e8a946-928b-4d2b-8560-82f4c1ec8014"},"vehicle_type_id":"4","last_reported":1752955891,"current_range_meters":13600,"station_id":"","pricing_plan_id":"cebpf4jnsgd1na2vs0mg"},{"bike_id":"63b306e6-0fb5-4d6b-8c13-1bbdf1b5942f","system_id":"levelo_inurba_marseille","lat":43.30272,"lon":5.37702,"is_reserved":false,"is_disabled":false,"rental_uris":{"android":"levelo://app?vid=63b306e6-0fb5-4d6b-8c13-1bbdf1b5942f","ios":"levelo://app?vid=63b306e6-0fb5-4d6b-8c13-1bbdf1b5942f"},"vehicle_type_id":"4","last_reported":1752955891,"current_range_meters":14400,"station_id":"ce4bguh2rcd13ifvqcj0","pricing_plan_id":"cebpf4jnsgd1na2vs0mg"},{"bike_id":"6a193f41-f336-48d3-a5d0-a6fca3bf067e","system_id":"levelo_inurba_marseille","lat":43.246623,"lon":5.38154,"is_reserved":false,"is_disabled":false,"rental_uris":{"android":"levelo://app?vid=6a193f41-f336-48d3-a5d0-a6fca3bf067e","ios":"levelo://app?vid=6a193f41-f336-48d3-a5d0-a6fca3bf067e"},"vehicle_type_id":"4","last_reported":1752955891,"current_range_meters":14400,"station_id":"ce4bhih2rcd13ifvqfr0","pricing_plan_id":"cebpf4jnsgd1na2vs0mg"},{"bike_id":"d421927e-7ddd-40a0-904f-5b4ff0266a72","system_id":"levelo_inurba_marseille","lat":43.31913,"lon":5.40191,"is_reserved":false,"is_disabled":false,"rental_uris":{"android":"levelo://app?vid=d421927e-7ddd-40a0-904f-5b4ff0266a72","ios":"levelo://app?vid=d421927e-7ddd-40a0-904f-5b4ff0266a72"},"vehicle_type_id":"4","last_reported":1752955891,"current_range_meters":14800,"station_id":"","pricing_plan_id":"cebpf4jnsgd1na2vs0mg"},{"bike_id":"cf9f7b6f-b252-45aa-bd41-e7b8a5947e88","system_id":"levelo_inurba_marseille","lat":43.26943,"lon":5.40269,"is_reserved":false,"is_disabled":true,"rental_uris":{"android":"levelo://app?vid=cf9f7b6f-b252-45aa-bd41-e7b8a5947e88","ios":"levelo://app?vid=cf9f7b6f-b252-45aa-bd41-e7b8a5947e88"},"vehicle_type_id":"4","last_reported":1752955891,"current_range_meters":14800,"station_id":"cjm6bp8fraef2m0cb0m0","pricing_plan_id":"cebpf4jnsgd1na2vs0mg"},{"bike_id":"a6de290b-5c15-427b-bc37-8301607e1735","system_id":"levelo_inurba_marseille","lat":43.337444,"lon":5.374475,"is_reserved":false,"is_disabled":false,"rental_uris":{"android":"levelo://app?vid=a6de290b-5c15-427b-bc37-8301607e1735","ios":"levelo://app?vid=a6de290b-5c15-427b-bc37-8301607e1735"},"vehicle_type_id":"4","last_reported":1752955891,"current_range_meters":14800,"station_id":"","pricing_plan_id":"cebpf4jnsgd1na2vs0mg"},{"bike_id":"fbd9a3d1-b647-4525-9df7-6e974a638ddb","system_id":"levelo_inurba_marseille","lat":43.26206,"lon":5.37455,"is_reserved":false,"is_disabled":false,"rental_uris":{"android":"levelo://app?vid=fbd9a3d1-b647-4525-9df7-6e974a638ddb","ios":"levelo://app?vid=fbd9a3d1-b647-4525-9df7-6e974a638ddb"},"vehicle_type_id":"4","last_reported":1752955891,"current_range_meters":14800,"station_id":"ce4bhgp2rcd13ifvqfc0","pricing_plan_id":"cebpf4jnsgd1na2vs0mg"},{"bike_id":"08d2fee4-3fa8-492d-943e-8b37888c9fa4","system_id":"levelo_inurba_marseille","lat":43.26945,"lon":5.40257,"is_reserved":false,"is_disabled":false,"rental_uris":{"android":"levelo://app?vid=08d2fee4-3fa8-492d-943e-8b37888c9fa4","ios":"levelo://app?vid=08d2fee4-3fa8-492d-943e-8b37888c9fa4"},"vehicle_type_id":"4","last_reported":1752955891,"current_range_meters":14800,"station_id":"cjm6bp8fraef2m0cb0m0","pricing_plan_id":"cebpf4jnsgd1na2vs0mg"},{"bike_id":"c37b5c86-3e55-4f4b-870f-cbb09c385e03","system_id":"levelo_inurba_marseille","lat":43.30939,"lon":5.39025,"is_reserved":false,"is_disabled":false,"rental_uris":{"android":"levelo://app?vid=c37b5c86-3e55-4f4b-870f-cbb09c385e03","ios":"levelo://app?vid=c37b5c86-3e55-4f4b-870f-cbb09c385e03"},"vehicle_type_id":"4","last_reported":1752955891,"current_range_meters":14800,"station_id":"ce4bgup2rcd13ifvqco0","pricing_plan_id":"cebpf4jnsgd1na2vs0mg"},{"bike_id":"fb97084d-db40-425b-83e1-b2f87b6404df","system_id":"levelo_inurba_marseille","lat":43.26023,"lon":5.37621,"is_reserved":false,"is_disabled":false,"rental_uris":{"android":"levelo://app?vid=fb97084d-db40-425b-83e1-b2f87b6404df","ios":"levelo://app?vid=fb97084d-db40-425b-83e1-b2f87b6404df"},"vehicle_type_id":"4","last_reported":1752955891,"current_range_meters":14800,"station_id":"ce4bhgh2rcd13ifvqfa0","pricing_plan_id":"cebpf4jnsgd1na2vs0mg"},{"bike_id":"46acccef-b10e-425f-913a-d36865f4eac4","system_id":"levelo_inurba_marseille","lat":43.2619,"lon":5.37471,"is_reserved":false,"is_disabled":false,"rental_uris":{"android":"levelo://app?vid=46acccef-b10e-425f-913a-d36865f4eac4","ios":"levelo://app?vid=46acccef-b10e-425f-913a-d36865f4eac4"},"vehicle_type_id":"4","last_reported":1752955891,"current_range_meters":14800,"station_id":"ce4bhgp2rcd13ifvqfc0","pricing_plan_id":"cebpf4jnsgd1na2vs0mg"},{"bike_id":"a2c4894d-875f-4a5b-8372-08f582c2fd78","system_id":"levelo_inurba_marseille","lat":43.26027,"lon":5.37547,"is_reserved":false,"is_disabled":false,"rental_uris":{"android":"levelo://app?vid=a2c4894d-875f-4a5b-8372-08f582c2fd78","ios":"levelo://app?vid=a2c4894d-875f-4a5b-8372-08f582c2fd78"},"vehicle_type_id":"4","last_reported":1752955891,"current_range_meters":15200,"station_id":"ce4bhgh2rcd13ifvqfa0","pricing_plan_id":"cebpf4jnsgd1na2vs0mg"},{"bike_id":"f64d4495-c6c3-4047-b421-2e9c29951567","system_id":"levelo_inurba_marseille","lat":43.22523,"lon":5.34804,"is_reserved":false,"is_disabled":false,"rental_uris":{"android":"levelo://app?vid=f64d4495-c6c3-4047-b421-2e9c29951567","ios":"levelo://app?vid=f64d4495-c6c3-4047-b421-2e9c29951567"},"vehicle_type_id":"4","last_reported":1752955891,"current_range_meters":15200,"station_id":"st_cvj5dfep6f1abm77gieg","pricing_plan_id":"cebpf4jnsgd1na2vs0mg"},{"bike_id":"45dea0eb-918d-49f1-8341-001e35c226f0","system_id":"levelo_inurba_marseille","lat":43.2121,"lon":5.35054,"is_reserved":false,"is_disabled":false,"rental_uris":{"android":"levelo://app?vid=45dea0eb-918d-49f1-8341-001e35c226f0","ios":"levelo://app?vid=45dea0eb-918d-49f1-8341-001e35c226f0"},"vehicle_type_id":"4","last_reported":1752955891,"current_range_meters":15200,"station_id":"st_cvj6sg6p6f1abm77japg","pricing_plan_id":"cebpf4jnsgd1na2vs0mg"},{"bike_id":"1e7b6067-ac1d-4675-a894-761751c04ee1","system_id":"levelo_inurba_marseille","lat":43.30943,"lon":5.39051,"is_reserved":false,"is_disabled":false,"rental_uris":{"android":"levelo://app?vid=1e7b6067-ac1d-4675-a894-761751c04ee1","ios":"levelo://app?vid=1e7b6067-ac1d-4675-a894-761751c04ee1"},"vehicle_type_id":"4","last_reported":1752955891,"current_range_meters":15200,"station_id":"ce4bgup2rcd13ifvqco0","pricing_plan_id":"cebpf4jnsgd1na2vs0mg"},{"bike_id":"6c4ed7fb-a359-4544-8b96-d8e3ed65cfad","system_id":"levelo_inurba_marseille","lat":43.259866,"lon":5.375724,"is_reserved":false,"is_disabled":false,"rental_uris":{"android":"levelo://app?vid=6c4ed7fb-a359-4544-8b96-d8e3ed65cfad","ios":"levelo://app?vid=6c4ed7fb-a359-4544-8b96-d8e3ed65cfad"},"vehicle_type_id":"4","last_reported":1752955891,"current_range_meters":15200,"station_id":"ce4bhgh2rcd13ifvqfa0","pricing_plan_id":"cebpf4jnsgd1na2vs0mg"},{"bike_id":"892e06aa-05f6-415f-96f6-13455b0802de","system_id":"levelo_inurba_marseille","lat":43.29579,"lon":5.37509,"is_reserved":false,"is_disabled":true,"rental_uris":{"android":"levelo://app?vid=892e06aa-05f6-415f-96f6-13455b0802de","ios":"levelo://app?vid=892e06aa-05f6-415f-96f6-13455b0802de"},"vehicle_type_id":"4","last_reported":1752955891,"current_range_meters":15200,"station_id":"ce4bgh92rcd13ifvqb50","pricing_plan_id":"cebpf4jnsgd1na2vs0mg"},{"bike_id":"b7e22b98-0110-4aa8-b3b1-1219bc881c41","system_id":"levelo_inurba_marseille","lat":43.28698,"lon":5.37383,"is_reserved":false,"is_disabled":false,"rental_uris":{"android":"levelo://app?vid=b7e22b98-0110-4aa8-b3b1-1219bc881c41","ios":"levelo://app?vid=b7e22b98-0110-4aa8-b3b1-1219bc881c41"},"vehicle_type_id":"4","last_reported":1752955891,"current_range_meters":15200,"station_id":"ce4bh3p2rcd13ifvqdq0","pricing_plan_id":"cebpf4jnsgd1na2vs0mg"},{"bike_id":"98d7abd1-ec5c-4068-b49d-0382d29c2eb4","system_id":"levelo_inurba_marseille","lat":43.29271,"lon":5.38436,"is_reserved":false,"is_disabled":false,"rental_uris":{"android":"levelo://app?vid=98d7abd1-ec5c-4068-b49d-0382d29c2eb4","ios":"levelo://app?vid=98d7abd1-ec5c-4068-b49d-0382d29c2eb4"},"vehicle_type_id":"4","last_reported":1752955891,"current_range_meters":15200,"station_id":"ce4bh692rcd13ifvqea0","pricing_plan_id":"cebpf4jnsgd1na2vs0mg"},{"bike_id":"dee567a5-f4e3-445c-9787-ae8da9917fba","system_id":"levelo_inurba_marseille","lat":43.27948,"lon":5.41043,"is_reserved":false,"is_disabled":false,"rental_uris":{"android":"levelo://app?vid=dee567a5-f4e3-445c-9787-ae8da9917fba","ios":"levelo://app?vid=dee567a5-f4e3-445c-9787-ae8da9917fba"},"vehicle_type_id":"4","last_reported":1752955891,"current_range_meters":15200,"station_id":"ce4bhnp2rcd13ifvqh0g","pricing_plan_id":"cebpf4jnsgd1na2vs0mg"},{"bike_id":"bf914c25-3459-46fe-95b8-1b178bd3e824","system_id":"levelo_inurba_marseille","lat":43.3266,"lon":5.40991,"is_reserved":false,"is_disabled":false,"rental_uris":{"android":"levelo://app?vid=bf914c25-3459-46fe-95b8-1b178bd3e824","ios":"levelo://app?vid=bf914c25-3459-46fe-95b8-1b178bd3e824"},"vehicle_type_id":"4","last_reported":1752955891,"current_range_meters":15200,"station_id":"ce4bhpp2rcd13ifvqhgg","pricing_plan_id":"cebpf4jnsgd1na2vs0mg"},{"bike_id":"5a570911-22d0-41b1-a776-0fe138c4bdc4","system_id":"levelo_inurba_marseille","lat":43.21197,"lon":5.35078,"is_reserved":false,"is_disabled":false,"rental_uris":{"android":"levelo://app?vid=5a570911-22d0-41b1-a776-0fe138c4bdc4","ios":"levelo://app?vid=5a570911-22d0-41b1-a776-0fe138c4bdc4"},"vehicle_type_id":"4","last_reported":1752955891,"current_range_meters":15200,"station_id":"st_cvj6sg6p6f1abm77japg","pricing_plan_id":"cebpf4jnsgd1na2vs0mg"},{"bike_id":"35c29cad-cf41-4c3c-9195-ef4eddc01858","system_id":"levelo_inurba_marseille","lat":43.26193,"lon":5.37448,"is_reserved":false,"is_disabled":false,"rental_uris":{"android":"levelo://app?vid=35c29cad-cf41-4c3c-9195-ef4eddc01858","ios":"levelo://app?vid=35c29cad-cf41-4c3c-9195-ef4eddc01858"},"vehicle_type_id":"4","last_reported":1752955891,"current_range_meters":15200,"station_id":"ce4bhgp2rcd13ifvqfc0","pricing_plan_id":"cebpf4jnsgd1na2vs0mg"},{"bike_id":"7592d3b0-727d-4107-ba81-a2966cdc2b34","system_id":"levelo_inurba_marseille","lat":43.26222,"lon":5.40438,"is_reserved":false,"is_disabled":false,"rental_uris":{"android":"levelo://app?vid=7592d3b0-727d-4107-ba81-a2966cdc2b34","ios":"levelo://app?vid=7592d3b0-727d-4107-ba81-a2966cdc2b34"},"vehicle_type_id":"4","last_reported":1752955891,"current_range_meters":15200,"station_id":"ce4bhmh2rcd13ifvqgmg","pricing_plan_id":"cebpf4jnsgd1na2vs0mg"},{"bike_id":"2e161da6-a39d-48d6-98dd-4e81dcecb0b8","system_id":"levelo_inurba_marseille","lat":43.25576,"lon":5.38234,"is_reserved":false,"is_disabled":false,"rental_uris":{"android":"levelo://app?vid=2e161da6-a39d-48d6-98dd-4e81dcecb0b8","ios":"levelo://app?vid=2e161da6-a39d-48d6-98dd-4e81dcecb0b8"},"vehicle_type_id":"4","last_reported":1752955891,"current_range_meters":15200,"station_id":"ce4bhih2rcd13ifvqfs0","pricing_plan_id":"cebpf4jnsgd1na2vs0mg"},{"bike_id":"7d91d34c-95ba-419a-8d0b-21d2aeaa83ad","system_id":"levelo_inurba_marseille","lat":43.255089,"lon":5.376341,"is_reserved":false,"is_disabled":true,"rental_uris":{"android":"levelo://app?vid=7d91d34c-95ba-419a-8d0b-21d2aeaa83ad","ios":"levelo://app?vid=7d91d34c-95ba-419a-8d0b-21d2aeaa83ad"},"vehicle_type_id":"4","last_reported":1752955891,"current_range_meters":15200,"station_id":"ce4bhh12rcd13ifvqff0","pricing_plan_id":"cebpf4jnsgd1na2vs0mg"},{"bike_id":"867734f5-4fb7-4576-a64b-3de2eac033bb","system_id":"levelo_inurba_marseille","lat":43.23965,"lon":5.36617,"is_reserved":false,"is_disabled":false,"rental_uris":{"android":"levelo://app?vid=867734f5-4fb7-4576-a64b-3de2eac033bb","ios":"levelo://app?vid=867734f5-4fb7-4576-a64b-3de2eac033bb"},"vehicle_type_id":"4","last_reported":1752955891,"current_range_meters":16000,"station_id":"ce4bhi12rcd13ifvqfp0","pricing_plan_id":"cebpf4jnsgd1na2vs0mg"},{"bike_id":"a4921469-2d66-4106-95f2-092870adeb50","system_id":"levelo_inurba_marseille","lat":43.28476,"lon":5.38554,"is_reserved":false,"is_disabled":false,"rental_uris":{"android":"levelo://app?vid=a4921469-2d66-4106-95f2-092870adeb50","ios":"levelo://app?vid=a4921469-2d66-4106-95f2-092870adeb50"},"vehicle_type_id":"4","last_reported":1752955891,"current_range_meters":16000,"station_id":"ce4bh8p2rcd13ifvqeb0","pricing_plan_id":"cebpf4jnsgd1na2vs0mg"},{"bike_id":"f6acd6ad-cfd2-4686-9dbf-3ef262aeb18f","system_id":"levelo_inurba_marseille","lat":43.30579,"lon":5.37225,"is_reserved":false,"is_disabled":false,"rental_uris":{"android":"levelo://app?vid=f6acd6ad-cfd2-4686-9dbf-3ef262aeb18f","ios":"levelo://app?vid=f6acd6ad-cfd2-4686-9dbf-3ef262aeb18f"},"vehicle_type_id":"4","last_reported":1752955891,"current_range_meters":16000,"station_id":"ce4bgqh2rcd13ifvqc4g","pricing_plan_id":"cebpf4jnsgd1na2vs0mg"},{"bike_id":"2749dec6-4189-49b3-be5e-3848ee1435ec","system_id":"levelo_inurba_marseille","lat":43.284055,"lon":5.375225,"is_reserved":false,"is_disabled":false,"rental_uris":{"android":"levelo://app?vid=2749dec6-4189-49b3-be5e-3848ee1435ec","ios":"levelo://app?vid=2749dec6-4189-49b3-be5e-3848ee1435ec"},"vehicle_type_id":"4","last_reported":1752955891,"current_range_meters":16000,"station_id":"ce4bh412rcd13ifvqds0","pricing_plan_id":"cebpf4jnsgd1na2vs0mg"},{"bike_id":"cbd7089c-9d2d-42db-a268-faaaa69d7343","system_id":"levelo_inurba_marseille","lat":43.26205,"lon":5.37445,"is_reserved":false,"is_disabled":true,"rental_uris":{"android":"levelo://app?vid=cbd7089c-9d2d-42db-a268-faaaa69d7343","ios":"levelo://app?vid=cbd7089c-9d2d-42db-a268-faaaa69d7343"},"vehicle_type_id":"4","last_reported":1752955891,"current_range_meters":16000,"station_id":"ce4bhgp2rcd13ifvqfc0","pricing_plan_id":"cebpf4jnsgd1na2vs0mg"},{"bike_id":"77e5d396-9f38-43c2-ae33-ac1f85df337d","system_id":"levelo_inurba_marseille","lat":43.295552,"lon":5.422785,"is_reserved":false,"is_disabled":false,"rental_uris":{"android":"levelo://app?vid=77e5d396-9f38-43c2-ae33-ac1f85df337d","ios":"levelo://app?vid=77e5d396-9f38-43c2-ae33-ac1f85df337d"},"vehicle_type_id":"4","last_reported":1752955891,"current_range_meters":16000,"station_id":"ce4bhph2rcd13ifvqhdg","pricing_plan_id":"cebpf4jnsgd1na2vs0mg"},{"bike_id":"7f7ecae0-05b7-4c71-bd98-f9325e00c289","system_id":"levelo_inurba_marseille","lat":43.26222,"lon":5.40449,"is_reserved":false,"is_disabled":false,"rental_uris":{"android":"levelo://app?vid=7f7ecae0-05b7-4c71-bd98-f9325e00c289","ios":"levelo://app?vid=7f7ecae0-05b7-4c71-bd98-f9325e00c289"},"vehicle_type_id":"4","last_reported":1752955891,"current_range_meters":16000,"station_id":"ce4bhmh2rcd13ifvqgmg","pricing_plan_id":"cebpf4jnsgd1na2vs0mg"},{"bike_id":"179c40be-22b1-48c9-9820-54ab90e3f5a2","system_id":"levelo_inurba_marseille","lat":43.28674,"lon":5.38667,"is_reserved":false,"is_disabled":false,"rental_uris":{"android":"levelo://app?vid=179c40be-22b1-48c9-9820-54ab90e3f5a2","ios":"levelo://app?vid=179c40be-22b1-48c9-9820-54ab90e3f5a2"},"vehicle_type_id":"4","last_reported":1752955891,"current_range_meters":16000,"station_id":"ce4bh492rcd13ifvqdug","pricing_plan_id":"cebpf4jnsgd1na2vs0mg"},{"bike_id":"7a2e1cf8-de90-4b24-ade1-9d8b3a17f052","system_id":"levelo_inurba_marseille","lat":43.25179,"lon":5.37579,"is_reserved":false,"is_disabled":false,"rental_uris":{"android":"levelo://app?vid=7a2e1cf8-de90-4b24-ade1-9d8b3a17f052","ios":"levelo://app?vid=7a2e1cf8-de90-4b24-ade1-9d8b3a17f052"},"vehicle_type_id":"4","last_reported":1752955891,"current_range_meters":16000,"station_id":"","pricing_plan_id":"cebpf4jnsgd1na2vs0mg"},{"bike_id":"5231ec6c-4280-42b9-91c9-ff62f935b206","system_id":"levelo_inurba_marseille","lat":43.29604,"lon":5.380966,"is_reserved":false,"is_disabled":false,"rental_uris":{"android":"levelo://app?vid=5231ec6c-4280-42b9-91c9-ff62f935b206","ios":"levelo://app?vid=5231ec6c-4280-42b9-91c9-ff62f935b206"},"vehicle_type_id":"4","last_reported":1752955891,"current_range_meters":16000,"station_id":"ce4bgl12rcd13ifvqbo0","pricing_plan_id":"cebpf4jnsgd1na2vs0mg"},{"bike_id":"eb3652bd-4820-451d-ad41-fb8e06faf188","system_id":"levelo_inurba_marseille","lat":43.28604,"lon":5.37064,"is_reserved":false,"is_disabled":false,"rental_uris":{"android":"levelo://app?vid=eb3652bd-4820-451d-ad41-fb8e06faf188","ios":"levelo://app?vid=eb3652bd-4820-451d-ad41-fb8e06faf188"},"vehicle_type_id":"4","last_reported":1752955891,"current_range_meters":16000,"station_id":"ce4bht12rcd13ifvqi60","pricing_plan_id":"cebpf4jnsgd1na2vs0mg"},{"bike_id":"6870843c-bbdc-4254-8c0d-1fac228bad83","system_id":"levelo_inurba_marseille","lat":43.28675,"lon":5.3867,"is_reserved":false,"is_disabled":false,"rental_uris":{"android":"levelo://app?vid=6870843c-bbdc-4254-8c0d-1fac228bad83","ios":"levelo://app?vid=6870843c-bbdc-4254-8c0d-1fac228bad83"},"vehicle_type_id":"4","last_reported":1752955891,"current_range_meters":16000,"station_id":"ce4bh492rcd13ifvqdug","pricing_plan_id":"cebpf4jnsgd1na2vs0mg"},{"bike_id":"f208154e-7fb1-49ac-b4d0-a132f84239c9","system_id":"levelo_inurba_marseille","lat":43.30938,"lon":5.39039,"is_reserved":false,"is_disabled":false,"rental_uris":{"android":"levelo://app?vid=f208154e-7fb1-49ac-b4d0-a132f84239c9","ios":"levelo://app?vid=f208154e-7fb1-49ac-b4d0-a132f84239c9"},"vehicle_type_id":"4","last_reported":1752955891,"current_range_meters":16400,"station_id":"ce4bgup2rcd13ifvqco0","pricing_plan_id":"cebpf4jnsgd1na2vs0mg"},{"bike_id":"50817c71-c433-41db-8588-f3f5b56e9306","system_id":"levelo_inurba_marseille","lat":43.225,"lon":5.34779,"is_reserved":false,"is_disabled":false,"rental_uris":{"android":"levelo://app?vid=50817c71-c433-41db-8588-f3f5b56e9306","ios":"levelo://app?vid=50817c71-c433-41db-8588-f3f5b56e9306"},"vehicle_type_id":"4","last_reported":1752955891,"current_range_meters":16400,"station_id":"st_cvj5dfep6f1abm77gieg","pricing_plan_id":"cebpf4jnsgd1na2vs0mg"},{"bike_id":"56d9a8ff-7cd7-40bd-9c56-7ace19e5c43d","system_id":"levelo_inurba_marseille","lat":43.295793,"lon":5.367395,"is_reserved":false,"is_disabled":false,"rental_uris":{"android":"levelo://app?vid=56d9a8ff-7cd7-40bd-9c56-7ace19e5c43d","ios":"levelo://app?vid=56d9a8ff-7cd7-40bd-9c56-7ace19e5c43d"},"vehicle_type_id":"4","last_reported":1752955891,"current_range_meters":16400,"station_id":"","pricing_plan_id":"cebpf4jnsgd1na2vs0mg"},{"bike_id":"8eecb308-4ad0-4b20-8e2b-f6aac4784ac9","system_id":"levelo_inurba_marseille","lat":43.27901,"lon":5.35346,"is_reserved":false,"is_disabled":false,"rental_uris":{"android":"levelo://app?vid=8eecb308-4ad0-4b20-8e2b-f6aac4784ac9","ios":"levelo://app?vid=8eecb308-4ad0-4b20-8e2b-f6aac4784ac9"},"vehicle_type_id":"4","last_reported":1752955891,"current_range_meters":16400,"station_id":"","pricing_plan_id":"cebpf4jnsgd1na2vs0mg"},{"bike_id":"4756c3e0-fc87-4647-b159-7725acd8ef8b","system_id":"levelo_inurba_marseille","lat":43.21727,"lon":5.34622,"is_reserved":false,"is_disabled":false,"rental_uris":{"android":"levelo://app?vid=4756c3e0-fc87-4647-b159-7725acd8ef8b","ios":"levelo://app?vid=4756c3e0-fc87-4647-b159-7725acd8ef8b"},"vehicle_type_id":"4","last_reported":1752955891,"current_range_meters":16800,"station_id":"st_cvj6r9ubvosntc0bgbag","pricing_plan_id":"cebpf4jnsgd1na2vs0mg"},{"bike_id":"8cd11580-6913-42d6-a296-5c5a4dd1c147","system_id":"levelo_inurba_marseille","lat":43.29534,"lon":5.38543,"is_reserved":false,"is_disabled":false,"rental_uris":{"android":"levelo://app?vid=8cd11580-6913-42d6-a296-5c5a4dd1c147","ios":"levelo://app?vid=8cd11580-6913-42d6-a296-5c5a4dd1c147"},"vehicle_type_id":"4","last_reported":1752955891,"current_range_meters":16800,"station_id":"ce4bgih2rcd13ifvqba0","pricing_plan_id":"cebpf4jnsgd1na2vs0mg"},{"bike_id":"fc2795f7-54a6-4c4a-b4ec-211c7dd23bfb","system_id":"levelo_inurba_marseille","lat":43.309443,"lon":5.390303,"is_reserved":false,"is_disabled":false,"rental_uris":{"android":"levelo://app?vid=fc2795f7-54a6-4c4a-b4ec-211c7dd23bfb","ios":"levelo://app?vid=fc2795f7-54a6-4c4a-b4ec-211c7dd23bfb"},"vehicle_type_id":"4","last_reported":1752955891,"current_range_meters":16800,"station_id":"ce4bgup2rcd13ifvqco0","pricing_plan_id":"cebpf4jnsgd1na2vs0mg"},{"bike_id":"9cf625c4-578f-4495-98c5-7c945d8c8463","system_id":"levelo_inurba_marseille","lat":43.27564,"lon":5.38429,"is_reserved":false,"is_disabled":false,"rental_uris":{"android":"levelo://app?vid=9cf625c4-578f-4495-98c5-7c945d8c8463","ios":"levelo://app?vid=9cf625c4-578f-4495-98c5-7c945d8c8463"},"vehicle_type_id":"4","last_reported":1752955891,"current_range_meters":16800,"station_id":"ce4bhh92rcd13ifvqfi0","pricing_plan_id":"cebpf4jnsgd1na2vs0mg"},{"bike_id":"6fb131dd-8bae-4bc0-b0c0-17992306572f","system_id":"levelo_inurba_marseille","lat":43.29559,"lon":5.42277,"is_reserved":false,"is_disabled":false,"rental_uris":{"android":"levelo://app?vid=6fb131dd-8bae-4bc0-b0c0-17992306572f","ios":"levelo://app?vid=6fb131dd-8bae-4bc0-b0c0-17992306572f"},"vehicle_type_id":"4","last_reported":1752955891,"current_range_meters":16800,"station_id":"ce4bhph2rcd13ifvqhdg","pricing_plan_id":"cebpf4jnsgd1na2vs0mg"},{"bike_id":"b9246e48-e9f8-4924-bbb9-8c633997abe7","system_id":"levelo_inurba_marseille","lat":43.225055,"lon":5.347808,"is_reserved":false,"is_disabled":false,"rental_uris":{"android":"levelo://app?vid=b9246e48-e9f8-4924-bbb9-8c633997abe7","ios":"levelo://app?vid=b9246e48-e9f8-4924-bbb9-8c633997abe7"},"vehicle_type_id":"4","last_reported":1752955891,"current_range_meters":16800,"station_id":"st_cvj5dfep6f1abm77gieg","pricing_plan_id":"cebpf4jnsgd1na2vs0mg"},{"bike_id":"ba4389f1-ab47-4940-9c96-be668b1b69ad","system_id":"levelo_inurba_marseille","lat":43.29292,"lon":5.3745,"is_reserved":false,"is_disabled":false,"rental_uris":{"android":"levelo://app?vid=ba4389f1-ab47-4940-9c96-be668b1b69ad","ios":"levelo://app?vid=ba4389f1-ab47-4940-9c96-be668b1b69ad"},"vehicle_type_id":"4","last_reported":1752955891,"current_range_meters":16800,"station_id":"ce4bgi12rcd13ifvqb70","pricing_plan_id":"cebpf4jnsgd1na2vs0mg"},{"bike_id":"c9e13ae8-81d2-45a5-adef-f1b61a66153b","system_id":"levelo_inurba_marseille","lat":43.23963,"lon":5.36616,"is_reserved":false,"is_disabled":false,"rental_uris":{"android":"levelo://app?vid=c9e13ae8-81d2-45a5-adef-f1b61a66153b","ios":"levelo://app?vid=c9e13ae8-81d2-45a5-adef-f1b61a66153b"},"vehicle_type_id":"4","last_reported":1752955891,"current_range_meters":16800,"station_id":"ce4bhi12rcd13ifvqfp0","pricing_plan_id":"cebpf4jnsgd1na2vs0mg"},{"bike_id":"dda2ec22-8420-4364-a162-06cfb92fe11b","system_id":"levelo_inurba_marseille","lat":43.24384,"lon":5.3705,"is_reserved":false,"is_disabled":false,"rental_uris":{"android":"levelo://app?vid=dda2ec22-8420-4364-a162-06cfb92fe11b","ios":"levelo://app?vid=dda2ec22-8420-4364-a162-06cfb92fe11b"},"vehicle_type_id":"4","last_reported":1752955891,"current_range_meters":16800,"station_id":"ce4bhhh2rcd13ifvqfk0","pricing_plan_id":"cebpf4jnsgd1na2vs0mg"},{"bike_id":"62ee53de-dec1-4002-9b14-4a00bcd3066e","system_id":"levelo_inurba_marseille","lat":43.292635,"lon":5.384417,"is_reserved":false,"is_disabled":false,"rental_uris":{"android":"levelo://app?vid=62ee53de-dec1-4002-9b14-4a00bcd3066e","ios":"levelo://app?vid=62ee53de-dec1-4002-9b14-4a00bcd3066e"},"vehicle_type_id":"4","last_reported":1752955891,"current_range_meters":16800,"station_id":"ce4bh692rcd13ifvqea0","pricing_plan_id":"cebpf4jnsgd1na2vs0mg"},{"bike_id":"4e76405e-58c3-4577-8fe7-20bdffd1e39d","system_id":"levelo_inurba_marseille","lat":43.26204,"lon":5.37453,"is_reserved":false,"is_disabled":false,"rental_uris":{"android":"levelo://app?vid=4e76405e-58c3-4577-8fe7-20bdffd1e39d","ios":"levelo://app?vid=4e76405e-58c3-4577-8fe7-20bdffd1e39d"},"vehicle_type_id":"4","last_reported":1752955891,"current_range_meters":16800,"station_id":"ce4bhgp2rcd13ifvqfc0","pricing_plan_id":"cebpf4jnsgd1na2vs0mg"},{"bike_id":"76be2c35-c55f-40d4-ac62-3b68fa26d931","system_id":"levelo_inurba_marseille","lat":43.31162,"lon":5.38717,"is_reserved":false,"is_disabled":false,"rental_uris":{"android":"levelo://app?vid=76be2c35-c55f-40d4-ac62-3b68fa26d931","ios":"levelo://app?vid=76be2c35-c55f-40d4-ac62-3b68fa26d931"},"vehicle_type_id":"4","last_reported":1752955891,"current_range_meters":16800,"station_id":"ce4bgv12rcd13ifvqcp0","pricing_plan_id":"cebpf4jnsgd1na2vs0mg"},{"bike_id":"0a73cc88-8cd8-4e82-aea6-dfffa321c31d","system_id":"levelo_inurba_marseille","lat":43.29543,"lon":5.37513,"is_reserved":false,"is_disabled":false,"rental_uris":{"android":"levelo://app?vid=0a73cc88-8cd8-4e82-aea6-dfffa321c31d","ios":"levelo://app?vid=0a73cc88-8cd8-4e82-aea6-dfffa321c31d"},"vehicle_type_id":"4","last_reported":1752955891,"current_range_meters":16800,"station_id":"ce4bgkp2rcd13ifvqbmg","pricing_plan_id":"cebpf4jnsgd1na2vs0mg"},{"bike_id":"05d676df-738c-48ed-9c6a-728a43d84134","system_id":"levelo_inurba_marseille","lat":43.30955,"lon":5.3903,"is_reserved":false,"is_disabled":false,"rental_uris":{"android":"levelo://app?vid=05d676df-738c-48ed-9c6a-728a43d84134","ios":"levelo://app?vid=05d676df-738c-48ed-9c6a-728a43d84134"},"vehicle_type_id":"4","last_reported":1752955891,"current_range_meters":16800,"station_id":"ce4bgup2rcd13ifvqco0","pricing_plan_id":"cebpf4jnsgd1na2vs0mg"},{"bike_id":"95b5bcfa-54af-48c0-bd18-8f73f959ce2b","system_id":"levelo_inurba_marseille","lat":43.31935,"lon":5.37313,"is_reserved":false,"is_disabled":false,"rental_uris":{"android":"levelo://app?vid=95b5bcfa-54af-48c0-bd18-8f73f959ce2b","ios":"levelo://app?vid=95b5bcfa-54af-48c0-bd18-8f73f959ce2b"},"vehicle_type_id":"4","last_reported":1752955891,"current_range_meters":16800,"station_id":"","pricing_plan_id":"cebpf4jnsgd1na2vs0mg"},{"bike_id":"e65cf50a-82bc-4eb1-ad8f-381570c285a9","system_id":"levelo_inurba_marseille","lat":43.23965,"lon":5.36626,"is_reserved":false,"is_disabled":false,"rental_uris":{"android":"levelo://app?vid=e65cf50a-82bc-4eb1-ad8f-381570c285a9","ios":"levelo://app?vid=e65cf50a-82bc-4eb1-ad8f-381570c285a9"},"vehicle_type_id":"4","last_reported":1752955891,"current_range_meters":16800,"station_id":"ce4bhi12rcd13ifvqfp0","pricing_plan_id":"cebpf4jnsgd1na2vs0mg"},{"bike_id":"53457f41-5a7a-48bf-9ac8-5d0b153c75cd","system_id":"levelo_inurba_marseille","lat":43.248009,"lon":5.374517,"is_reserved":false,"is_disabled":false,"rental_uris":{"android":"levelo://app?vid=53457f41-5a7a-48bf-9ac8-5d0b153c75cd","ios":"levelo://app?vid=53457f41-5a7a-48bf-9ac8-5d0b153c75cd"},"vehicle_type_id":"4","last_reported":1752955891,"current_range_meters":16800,"station_id":"ce4bhgh2rcd13ifvqfb0","pricing_plan_id":"cebpf4jnsgd1na2vs0mg"},{"bike_id":"c9695da4-3048-4cfc-83f0-62c3fac1ccbe","system_id":"levelo_inurba_marseille","lat":43.23032,"lon":5.35503,"is_reserved":false,"is_disabled":true,"rental_uris":{"android":"levelo://app?vid=c9695da4-3048-4cfc-83f0-62c3fac1ccbe","ios":"levelo://app?vid=c9695da4-3048-4cfc-83f0-62c3fac1ccbe"},"vehicle_type_id":"4","last_reported":1752955891,"current_range_meters":17200,"station_id":"cpo3342slgdg3j2ifvpg","pricing_plan_id":"cebpf4jnsgd1na2vs0mg"},{"bike_id":"3d5116bb-dac6-42ec-978e-43db8e2f95f9","system_id":"levelo_inurba_marseille","lat":43.28264,"lon":5.35082,"is_reserved":false,"is_disabled":true,"rental_uris":{"android":"levelo://app?vid=3d5116bb-dac6-42ec-978e-43db8e2f95f9","ios":"levelo://app?vid=3d5116bb-dac6-42ec-978e-43db8e2f95f9"},"vehicle_type_id":"4","last_reported":1752955891,"current_range_meters":17200,"station_id":"ce4bhbp2rcd13ifvqerg","pricing_plan_id":"cebpf4jnsgd1na2vs0mg"},{"bike_id":"7eaefe95-a918-4dff-a447-29114f8d3c22","system_id":"levelo_inurba_marseille","lat":43.287066,"lon":5.399954,"is_reserved":false,"is_disabled":true,"rental_uris":{"android":"levelo://app?vid=7eaefe95-a918-4dff-a447-29114f8d3c22","ios":"levelo://app?vid=7eaefe95-a918-4dff-a447-29114f8d3c22"},"vehicle_type_id":"4","last_reported":1752955891,"current_range_meters":17200,"station_id":"ce4bho92rcd13ifvqh3g","pricing_plan_id":"cebpf4jnsgd1na2vs0mg"},{"bike_id":"beb14892-a851-4f8e-b873-cbd3d15ad0a9","system_id":"levelo_inurba_marseille","lat":43.23756,"lon":5.36194,"is_reserved":false,"is_disabled":false,"rental_uris":{"android":"levelo://app?vid=beb14892-a851-4f8e-b873-cbd3d15ad0a9","ios":"levelo://app?vid=beb14892-a851-4f8e-b873-cbd3d15ad0a9"},"vehicle_type_id":"4","last_reported":1752955891,"current_range_meters":17200,"station_id":"","pricing_plan_id":"cebpf4jnsgd1na2vs0mg"},{"bike_id":"e8e25126-382c-4fcd-8f03-13d75a291119","system_id":"levelo_inurba_marseille","lat":43.26229,"lon":5.40453,"is_reserved":false,"is_disabled":false,"rental_uris":{"android":"levelo://app?vid=e8e25126-382c-4fcd-8f03-13d75a291119","ios":"levelo://app?vid=e8e25126-382c-4fcd-8f03-13d75a291119"},"vehicle_type_id":"4","last_reported":1752955891,"current_range_meters":17200,"station_id":"ce4bhmh2rcd13ifvqgmg","pricing_plan_id":"cebpf4jnsgd1na2vs0mg"},{"bike_id":"39abf049-3891-4481-9c25-7fb7a413c85a","system_id":"levelo_inurba_marseille","lat":43.25483,"lon":5.37651,"is_reserved":false,"is_disabled":false,"rental_uris":{"android":"levelo://app?vid=39abf049-3891-4481-9c25-7fb7a413c85a","ios":"levelo://app?vid=39abf049-3891-4481-9c25-7fb7a413c85a"},"vehicle_type_id":"4","last_reported":1752955891,"current_range_meters":17200,"station_id":"ce4bhh12rcd13ifvqff0","pricing_plan_id":"cebpf4jnsgd1na2vs0mg"},{"bike_id":"103177c7-9427-4a58-acdb-975a8bac7022","system_id":"levelo_inurba_marseille","lat":43.30958,"lon":5.39038,"is_reserved":false,"is_disabled":false,"rental_uris":{"android":"levelo://app?vid=103177c7-9427-4a58-acdb-975a8bac7022","ios":"levelo://app?vid=103177c7-9427-4a58-acdb-975a8bac7022"},"vehicle_type_id":"4","last_reported":1752955891,"current_range_meters":17200,"station_id":"ce4bgup2rcd13ifvqco0","pricing_plan_id":"cebpf4jnsgd1na2vs0mg"},{"bike_id":"60aa25d7-9dba-40ce-85f8-0a314e50f04c","system_id":"levelo_inurba_marseille","lat":43.29025,"lon":5.38627,"is_reserved":false,"is_disabled":false,"rental_uris":{"android":"levelo://app?vid=60aa25d7-9dba-40ce-85f8-0a314e50f04c","ios":"levelo://app?vid=60aa25d7-9dba-40ce-85f8-0a314e50f04c"},"vehicle_type_id":"4","last_reported":1752955891,"current_range_meters":17200,"station_id":"ce4bh4p2rcd13ifvqe0g","pricing_plan_id":"cebpf4jnsgd1na2vs0mg"},{"bike_id":"ce15b79a-09d0-4a54-9c5d-f4e2fb90d2b8","system_id":"levelo_inurba_marseille","lat":43.260148,"lon":5.375479,"is_reserved":false,"is_disabled":false,"rental_uris":{"android":"levelo://app?vid=ce15b79a-09d0-4a54-9c5d-f4e2fb90d2b8","ios":"levelo://app?vid=ce15b79a-09d0-4a54-9c5d-f4e2fb90d2b8"},"vehicle_type_id":"4","last_reported":1752955891,"current_range_meters":17200,"station_id":"ce4bhgh2rcd13ifvqfa0","pricing_plan_id":"cebpf4jnsgd1na2vs0mg"},{"bike_id":"e8cfc2aa-b1f9-4545-9ad2-9318faa58ee1","system_id":"levelo_inurba_marseille","lat":43.28971,"lon":5.37831,"is_reserved":false,"is_disabled":false,"rental_uris":{"android":"levelo://app?vid=e8cfc2aa-b1f9-4545-9ad2-9318faa58ee1","ios":"levelo://app?vid=e8cfc2aa-b1f9-4545-9ad2-9318faa58ee1"},"vehicle_type_id":"4","last_reported":1752955891,"current_range_meters":17200,"station_id":"ce4bh9p2rcd13ifvqed0","pricing_plan_id":"cebpf4jnsgd1na2vs0mg"},{"bike_id":"41e49110-2a4b-4aaf-8bc9-2abce8163c07","system_id":"levelo_inurba_marseille","lat":43.31124,"lon":5.37763,"is_reserved":false,"is_disabled":false,"rental_uris":{"android":"levelo://app?vid=41e49110-2a4b-4aaf-8bc9-2abce8163c07","ios":"levelo://app?vid=41e49110-2a4b-4aaf-8bc9-2abce8163c07"},"vehicle_type_id":"4","last_reported":1752955891,"current_range_meters":17600,"station_id":"ce4bgt92rcd13ifvqcg0","pricing_plan_id":"cebpf4jnsgd1na2vs0mg"},{"bike_id":"db6c7ef3-b96a-4202-9ef2-227555c81b15","system_id":"levelo_inurba_marseille","lat":43.29261,"lon":5.38264,"is_reserved":false,"is_disabled":false,"rental_uris":{"android":"levelo://app?vid=db6c7ef3-b96a-4202-9ef2-227555c81b15","ios":"levelo://app?vid=db6c7ef3-b96a-4202-9ef2-227555c81b15"},"vehicle_type_id":"4","last_reported":1752955891,"current_range_meters":17200,"station_id":"ce4bh492rcd13ifvqdug","pricing_plan_id":"cebpf4jnsgd1na2vs0mg"},{"bike_id":"707af16a-3189-4d92-b010-ef53c9012e98","system_id":"levelo_inurba_marseille","lat":43.2174,"lon":5.34612,"is_reserved":false,"is_disabled":false,"rental_uris":{"android":"levelo://app?vid=707af16a-3189-4d92-b010-ef53c9012e98","ios":"levelo://app?vid=707af16a-3189-4d92-b010-ef53c9012e98"},"vehicle_type_id":"4","last_reported":1752955891,"current_range_meters":17600,"station_id":"","pricing_plan_id":"cebpf4jnsgd1na2vs0mg"},{"bike_id":"d3aca52a-4e64-461a-8fd1-e9a035bafbdf","system_id":"levelo_inurba_marseille","lat":43.257213,"lon":5.411019,"is_reserved":false,"is_disabled":false,"rental_uris":{"android":"levelo://app?vid=d3aca52a-4e64-461a-8fd1-e9a035bafbdf","ios":"levelo://app?vid=d3aca52a-4e64-461a-8fd1-e9a035bafbdf"},"vehicle_type_id":"4","last_reported":1752955891,"current_range_meters":17600,"station_id":"","pricing_plan_id":"cebpf4jnsgd1na2vs0mg"},{"bike_id":"1f35f77d-9f4a-4f02-900c-4104eadb16c4","system_id":"levelo_inurba_marseille","lat":43.25821,"lon":5.39433,"is_reserved":false,"is_disabled":false,"rental_uris":{"android":"levelo://app?vid=1f35f77d-9f4a-4f02-900c-4104eadb16c4","ios":"levelo://app?vid=1f35f77d-9f4a-4f02-900c-4104eadb16c4"},"vehicle_type_id":"4","last_reported":1752955891,"current_range_meters":17600,"station_id":"ce4bhip2rcd13ifvqft0","pricing_plan_id":"cebpf4jnsgd1na2vs0mg"},{"bike_id":"31a3e0d3-9340-4ba1-bee1-7596c0335d90","system_id":"levelo_inurba_marseille","lat":43.296563,"lon":5.379437,"is_reserved":false,"is_disabled":false,"rental_uris":{"android":"levelo://app?vid=31a3e0d3-9340-4ba1-bee1-7596c0335d90","ios":"levelo://app?vid=31a3e0d3-9340-4ba1-bee1-7596c0335d90"},"vehicle_type_id":"4","last_reported":1752955891,"current_range_meters":17600,"station_id":"","pricing_plan_id":"cebpf4jnsgd1na2vs0mg"},{"bike_id":"aaa60820-80fd-4afd-9d4a-de02de98b358","system_id":"levelo_inurba_marseille","lat":43.21158,"lon":5.35106,"is_reserved":false,"is_disabled":false,"rental_uris":{"android":"levelo://app?vid=aaa60820-80fd-4afd-9d4a-de02de98b358","ios":"levelo://app?vid=aaa60820-80fd-4afd-9d4a-de02de98b358"},"vehicle_type_id":"4","last_reported":1752955891,"current_range_meters":17600,"station_id":"","pricing_plan_id":"cebpf4jnsgd1na2vs0mg"},{"bike_id":"157990d3-b9c3-4f5c-8a17-d78382994a2f","system_id":"levelo_inurba_marseille","lat":43.26208,"lon":5.37921,"is_reserved":false,"is_disabled":false,"rental_uris":{"android":"levelo://app?vid=157990d3-b9c3-4f5c-8a17-d78382994a2f","ios":"levelo://app?vid=157990d3-b9c3-4f5c-8a17-d78382994a2f"},"vehicle_type_id":"4","last_reported":1752955891,"current_range_meters":17600,"station_id":"ce4bhjp2rcd13ifvqg90","pricing_plan_id":"cebpf4jnsgd1na2vs0mg"},{"bike_id":"ec948aa4-a29a-45ff-98dc-6f5cfc12602b","system_id":"levelo_inurba_marseille","lat":43.29528,"lon":5.38537,"is_reserved":false,"is_disabled":false,"rental_uris":{"android":"levelo://app?vid=ec948aa4-a29a-45ff-98dc-6f5cfc12602b","ios":"levelo://app?vid=ec948aa4-a29a-45ff-98dc-6f5cfc12602b"},"vehicle_type_id":"4","last_reported":1752955891,"current_range_meters":18000,"station_id":"ce4bgih2rcd13ifvqba0","pricing_plan_id":"cebpf4jnsgd1na2vs0mg"},{"bike_id":"de8397d4-05b2-4aeb-bead-3309fc95f8c4","system_id":"levelo_inurba_marseille","lat":43.28944,"lon":5.36645,"is_reserved":false,"is_disabled":false,"rental_uris":{"android":"levelo://app?vid=de8397d4-05b2-4aeb-bead-3309fc95f8c4","ios":"levelo://app?vid=de8397d4-05b2-4aeb-bead-3309fc95f8c4"},"vehicle_type_id":"4","last_reported":1752955891,"current_range_meters":18000,"station_id":"ce4bhap2rcd13ifvqek0","pricing_plan_id":"cebpf4jnsgd1na2vs0mg"},{"bike_id":"62e678fd-fa7b-4152-8492-587e7d64e6b2","system_id":"levelo_inurba_marseille","lat":43.2894,"lon":5.3664,"is_reserved":false,"is_disabled":false,"rental_uris":{"android":"levelo://app?vid=62e678fd-fa7b-4152-8492-587e7d64e6b2","ios":"levelo://app?vid=62e678fd-fa7b-4152-8492-587e7d64e6b2"},"vehicle_type_id":"4","last_reported":1752955891,"current_range_meters":18000,"station_id":"ce4bhap2rcd13ifvqek0","pricing_plan_id":"cebpf4jnsgd1na2vs0mg"},{"bike_id":"9f850f09-15c1-42a7-ac11-cd77c8ce2ff9","system_id":"levelo_inurba_marseille","lat":43.26557,"lon":5.37288,"is_reserved":false,"is_disabled":false,"rental_uris":{"android":"levelo://app?vid=9f850f09-15c1-42a7-ac11-cd77c8ce2ff9","ios":"levelo://app?vid=9f850f09-15c1-42a7-ac11-cd77c8ce2ff9"},"vehicle_type_id":"4","last_reported":1752955891,"current_range_meters":18000,"station_id":"ce4bhg12rcd13ifvqf70","pricing_plan_id":"cebpf4jnsgd1na2vs0mg"},{"bike_id":"86a4fe4f-65a0-401a-9e72-f818aa8c118c","system_id":"levelo_inurba_marseille","lat":43.24648,"lon":5.38888,"is_reserved":false,"is_disabled":false,"rental_uris":{"android":"levelo://app?vid=86a4fe4f-65a0-401a-9e72-f818aa8c118c","ios":"levelo://app?vid=86a4fe4f-65a0-401a-9e72-f818aa8c118c"},"vehicle_type_id":"4","last_reported":1752955891,"current_range_meters":18000,"station_id":"ce4bhg12rcd13ifvqf60","pricing_plan_id":"cebpf4jnsgd1na2vs0mg"},{"bike_id":"ce7d66a2-6244-49e3-a9f6-7d5eb372182b","system_id":"levelo_inurba_marseille","lat":43.30941,"lon":5.39073,"is_reserved":false,"is_disabled":false,"rental_uris":{"android":"levelo://app?vid=ce7d66a2-6244-49e3-a9f6-7d5eb372182b","ios":"levelo://app?vid=ce7d66a2-6244-49e3-a9f6-7d5eb372182b"},"vehicle_type_id":"4","last_reported":1752955891,"current_range_meters":18000,"station_id":"ce4bgup2rcd13ifvqco0","pricing_plan_id":"cebpf4jnsgd1na2vs0mg"},{"bike_id":"03443646-da6b-43bf-a7d3-657f0717d9e1","system_id":"levelo_inurba_marseille","lat":43.25104,"lon":5.40323,"is_reserved":false,"is_disabled":false,"rental_uris":{"android":"levelo://app?vid=03443646-da6b-43bf-a7d3-657f0717d9e1","ios":"levelo://app?vid=03443646-da6b-43bf-a7d3-657f0717d9e1"},"vehicle_type_id":"4","last_reported":1752955891,"current_range_meters":18000,"station_id":"ce4bhlh2rcd13ifvqgig","pricing_plan_id":"cebpf4jnsgd1na2vs0mg"},{"bike_id":"b59696df-9f30-4c33-bec9-6106e9d2535b","system_id":"levelo_inurba_marseille","lat":43.29622,"lon":5.38112,"is_reserved":false,"is_disabled":false,"rental_uris":{"android":"levelo://app?vid=b59696df-9f30-4c33-bec9-6106e9d2535b","ios":"levelo://app?vid=b59696df-9f30-4c33-bec9-6106e9d2535b"},"vehicle_type_id":"4","last_reported":1752955891,"current_range_meters":18000,"station_id":"ce4bgl12rcd13ifvqbo0","pricing_plan_id":"cebpf4jnsgd1na2vs0mg"},{"bike_id":"2d204ae1-a432-454a-839c-4d383ae2825d","system_id":"levelo_inurba_marseille","lat":43.31064,"lon":5.4009,"is_reserved":false,"is_disabled":false,"rental_uris":{"android":"levelo://app?vid=2d204ae1-a432-454a-839c-4d383ae2825d","ios":"levelo://app?vid=2d204ae1-a432-454a-839c-4d383ae2825d"},"vehicle_type_id":"4","last_reported":1752955891,"current_range_meters":18000,"station_id":"","pricing_plan_id":"cebpf4jnsgd1na2vs0mg"},{"bike_id":"ca732e75-cbb8-471b-9f87-87c4190c16c2","system_id":"levelo_inurba_marseille","lat":43.26551,"lon":5.37286,"is_reserved":false,"is_disabled":false,"rental_uris":{"android":"levelo://app?vid=ca732e75-cbb8-471b-9f87-87c4190c16c2","ios":"levelo://app?vid=ca732e75-cbb8-471b-9f87-87c4190c16c2"},"vehicle_type_id":"4","last_reported":1752955891,"current_range_meters":18000,"station_id":"ce4bhg12rcd13ifvqf70","pricing_plan_id":"cebpf4jnsgd1na2vs0mg"},{"bike_id":"afad5689-fc42-4947-8012-ae71217c6552","system_id":"levelo_inurba_marseille","lat":43.29033,"lon":5.39964,"is_reserved":false,"is_disabled":false,"rental_uris":{"android":"levelo://app?vid=afad5689-fc42-4947-8012-ae71217c6552","ios":"levelo://app?vid=afad5689-fc42-4947-8012-ae71217c6552"},"vehicle_type_id":"4","last_reported":1752955891,"current_range_meters":18000,"station_id":"ce4bh392rcd13ifvqdm0","pricing_plan_id":"cebpf4jnsgd1na2vs0mg"},{"bike_id":"9343377b-491d-49d1-9117-ca8ff197c309","system_id":"levelo_inurba_marseille","lat":43.28353,"lon":5.38099,"is_reserved":false,"is_disabled":false,"rental_uris":{"android":"levelo://app?vid=9343377b-491d-49d1-9117-ca8ff197c309","ios":"levelo://app?vid=9343377b-491d-49d1-9117-ca8ff197c309"},"vehicle_type_id":"4","last_reported":1752955891,"current_range_meters":18000,"station_id":"ce4bh412rcd13ifvqdr0","pricing_plan_id":"cebpf4jnsgd1na2vs0mg"},{"bike_id":"a6ec36bb-b710-45bb-99da-6b7ecbbf2fe2","system_id":"levelo_inurba_marseille","lat":43.269426,"lon":5.402489,"is_reserved":false,"is_disabled":false,"rental_uris":{"android":"levelo://app?vid=a6ec36bb-b710-45bb-99da-6b7ecbbf2fe2","ios":"levelo://app?vid=a6ec36bb-b710-45bb-99da-6b7ecbbf2fe2"},"vehicle_type_id":"4","last_reported":1752955891,"current_range_meters":18000,"station_id":"cjm6bp8fraef2m0cb0m0","pricing_plan_id":"cebpf4jnsgd1na2vs0mg"},{"bike_id":"f89a829e-8700-40e2-8b96-6bc69f28cd2c","system_id":"levelo_inurba_marseille","lat":43.30941,"lon":5.3903,"is_reserved":false,"is_disabled":false,"rental_uris":{"android":"levelo://app?vid=f89a829e-8700-40e2-8b96-6bc69f28cd2c","ios":"levelo://app?vid=f89a829e-8700-40e2-8b96-6bc69f28cd2c"},"vehicle_type_id":"4","last_reported":1752955891,"current_range_meters":18000,"station_id":"ce4bgup2rcd13ifvqco0","pricing_plan_id":"cebpf4jnsgd1na2vs0mg"},{"bike_id":"7cb87117-19f1-4d48-84b2-bec6ac38464c","system_id":"levelo_inurba_marseille","lat":43.295554,"lon":5.422731,"is_reserved":false,"is_disabled":false,"rental_uris":{"android":"levelo://app?vid=7cb87117-19f1-4d48-84b2-bec6ac38464c","ios":"levelo://app?vid=7cb87117-19f1-4d48-84b2-bec6ac38464c"},"vehicle_type_id":"4","last_reported":1752955891,"current_range_meters":18000,"station_id":"ce4bhph2rcd13ifvqhdg","pricing_plan_id":"cebpf4jnsgd1na2vs0mg"},