{"last_updated":1743343664,"ttl":60,"version":"2.2","data":{"bikes":[{"bike_id":"693cb4cf-3823-4b60-bffb-7b271e86fa36","system_id":"levelo_inurba_marseille","lat":43.2738,"lon":5.36257,"is_reserved":false,"is_disabled":true,"rental_uris":{"android":"levelo://app?vid=693cb4cf-3823-4b60-bffb-7b271e86fa36","ios":"levelo://app?vid=693cb4cf-3823-4b60-bffb-7b271e86fa36"},"vehicle_type_id":"4","last_reported":1743343664,"current_range_meters":2800,"station_id":"ce4bhbh2rcd13ifvqeo0","pricing_plan_id":"cebpf4jnsgd1na2vs0mg"},{"bike_id":"fbe71074-f503-4e32-906f-05403dd1a4f6","system_id":"levelo_inurba_marseille","lat":43.27943,"lon":5.38701,"is_reserved":false,"is_disabled":false,"rental_uris":{"android":"levelo://app?vid=fbe71074-f503-4e32-906f-05403dd1a4f6","ios":"levelo://app?vid=fbe71074-f503-4e32-906f-05403dd1a4f6"},"vehicle_type_id":"4","last_reported":1743343664,"current_range_meters":2800,"station_id":"ce4bhg12rcd13ifvqf80","pricing_plan_id":"cebpf4jnsgd1na2vs0mg"},{"bike_id":"e90d95ad-e47b-4db5-ad6a-8869025a5475","system_id":"levelo_inurba_marseille","lat":43.2985,"lon":5.36282,"is_reserved":false,"is_disabled":false,"rental_uris":{"android":"levelo://app?vid=e90d95ad-e47b-4db5-ad6a-8869025a5475","ios":"levelo://app?vid=e90d95ad-e47b-4db5-ad6a-8869025a5475"},"vehicle_type_id":"4","last_reported":1743343664,"current_range_meters":2800,"station_id":"ce4bgpp2rcd13ifvqc3g","pricing_plan_id":"cebpf4jnsgd1na2vs0mg"},{"bike_id":"03771498-f551-4fc8-be4f-5c692570773b","system_id":"levelo_inurba_marseille","lat":43.29797,"lon":5.381135,"is_reserved":false,"is_disabled":false,"rental_uris":{"android":"levelo://app?vid=03771498-f551-4fc8-be4f-5c692570773b","ios":"levelo://app?vid=03771498-f551-4fc8-be4f-5c692570773b"},"vehicle_type_id":"4","last_reported":1743343664,"current_range_meters":2800,"station_id":"ce4bgip2rcd13ifvqbb0","pricing_plan_id":"cebpf4jnsgd1na2vs0mg"},{"bike_id":"6dd02f85-6cf6-46d2-9894-d0d58ed0d569","system_id":"levelo_inurba_marseille","lat":43.30729,"lon":5.4245,"is_reserved":false,"is_disabled":false,"rental_uris":{"android":"levelo://app?vid=6dd02f85-6cf6-46d2-9894-d0d58ed0d569","ios":"levelo://app?vid=6dd02f85-6cf6-46d2-9894-d0d58ed0d569"},"vehicle_type_id":"4","last_reported":1743343664,"current_range_meters":3200,"station_id":"st_cvj6ca6bvosntc0bfgr0","pricing_plan_id":"cebpf4jnsgd1na2vs0mg"},{"bike_id":"bc42dd50-228d-4cd6-bd6c-1fc332cd6e6c","system_id":"levelo_inurba_marseille","lat":43.28421,"lon":5.34976,"is_reserved":false,"is_disabled":false,"rental_uris":{"android":"levelo://app?vid=bc42dd50-228d-4cd6-bd6c-1fc332cd6e6c","ios":"levelo://app?vid=bc42dd50-228d-4cd6-bd6c-1fc332cd6e6c"},"vehicle_type_id":"4","last_reported":1743343664,"current_range_meters":3200,"station_id":"ce4bhbh2rcd13ifvqepg","pricing_plan_id":"cebpf4jnsgd1na2vs0mg"},{"bike_id":"d3271b3b-9502-4ba2-a4dd-ec2bd1ea7c61","system_id":"levelo_inurba_marseille","lat":43.27178,"lon":5.41009,"is_reserved":false,"is_disabled":false,"rental_uris":{"android":"levelo://app?vid=d3271b3b-9502-4ba2-a4dd-ec2bd1ea7c61","ios":"levelo://app?vid=d3271b3b-9502-4ba2-a4dd-ec2bd1ea7c61"},"vehicle_type_id":"4","last_reported":1743343664,"current_range_meters":3200,"station_id":"ce4bhl12rcd13ifvqgf0","pricing_plan_id":"cebpf4jnsgd1na2vs0mg"},{"bike_id":"0bd6fef7-ed48-4c7a-aa4b-eab6e73ed35a","system_id":"levelo_inurba_marseille","lat":43.28417,"lon":5.34988,"is_reserved":false,"is_disabled":false,"rental_uris":{"android":"levelo://app?vid=0bd6fef7-ed48-4c7a-aa4b-eab6e73ed35a","ios":"levelo://app?vid=0bd6fef7-ed48-4c7a-aa4b-eab6e73ed35a"},"vehicle_type_id":"4","last_reported":1743343664,"current_range_meters":3200,"station_id":"ce4bhbh2rcd13ifvqepg","pricing_plan_id":"cebpf4jnsgd1na2vs0mg"},{"bike_id":"4777850e-a840-44f2-a6a5-fd44a1ac41d3","system_id":"levelo_inurba_marseille","lat":43.28732,"lon":5.39966,"is_reserved":false,"is_disabled":true,"rental_uris":{"android":"levelo://app?vid=4777850e-a840-44f2-a6a5-fd44a1ac41d3","ios":"levelo://app?vid=4777850e-a840-44f2-a6a5-fd44a1ac41d3"},"vehicle_type_id":"4","last_reported":1743343664,"current_range_meters":3600,"station_id":"ce4bho92rcd13ifvqh3g","pricing_plan_id":"cebpf4jnsgd1na2vs0mg"},{"bike_id":"9381547d-6884-4227-bc64-31672be28e25","system_id":"levelo_inurba_marseille","lat":43.279088,"lon":5.38013,"is_reserved":false,"is_disabled":false,"rental_uris":{"android":"levelo://app?vid=9381547d-6884-4227-bc64-31672be28e25","ios":"levelo://app?vid=9381547d-6884-4227-bc64-31672be28e25"},"vehicle_type_id":"4","last_reported":1743343664,"current_range_meters":3600,"station_id":"ce4bhf92rcd13ifvqf50","pricing_plan_id":"cebpf4jnsgd1na2vs0mg"},{"bike_id":"f1830e92-2f19-40a5-a0ea-19411ff723df","system_id":"levelo_inurba_marseille","lat":43.30874,"lon":5.39631,"is_reserved":false,"is_disabled":false,"rental_uris":{"android":"levelo://app?vid=f1830e92-2f19-40a5-a0ea-19411ff723df","ios":"levelo://app?vid=f1830e92-2f19-40a5-a0ea-19411ff723df"},"vehicle_type_id":"4","last_reported":1743343664,"current_range_meters":3200,"station_id":"ce4bh012rcd13ifvqcv0","pricing_plan_id":"cebpf4jnsgd1na2vs0mg"},{"bike_id":"b823f91e-64b1-44e3-8320-b8f90b5aa0e7","system_id":"levelo_inurba_marseille","lat":43.28414,"lon":5.34995,"is_reserved":false,"is_disabled":false,"rental_uris":{"android":"levelo://app?vid=b823f91e-64b1-44e3-8320-b8f90b5aa0e7","ios":"levelo://app?vid=b823f91e-64b1-44e3-8320-b8f90b5aa0e7"},"vehicle_type_id":"4","last_reported":1743343664,"current_range_meters":1200,"station_id":"ce4bhbh2rcd13ifvqepg","pricing_plan_id":"cebpf4jnsgd1na2vs0mg"},{"bike_id":"06d85232-6bd0-4a13-b769-7fa138b21bad","system_id":"levelo_inurba_marseille","lat":43.2808,"lon":5.39661,"is_reserved":false,"is_disabled":false,"rental_uris":{"android":"levelo://app?vid=06d85232-6bd0-4a13-b769-7fa138b21bad","ios":"levelo://app?vid=06d85232-6bd0-4a13-b769-7fa138b21bad"},"vehicle_type_id":"4","last_reported":1743343664,"current_range_meters":3600,"station_id":"ce4bho12rcd13ifvqh2g","pricing_plan_id":"cebpf4jnsgd1na2vs0mg"},{"bike_id":"13e3c2c4-d635-4607-a9a0-0c83d6b4c2b1","system_id":"levelo_inurba_marseille","lat":43.28042,"lon":5.36942,"is_reserved":false,"is_disabled":false,"rental_uris":{"android":"levelo://app?vid=13e3c2c4-d635-4607-a9a0-0c83d6b4c2b1","ios":"levelo://app?vid=13e3c2c4-d635-4607-a9a0-0c83d6b4c2b1"},"vehicle_type_id":"4","last_reported":1743343664,"current_range_meters":3600,"station_id":"ce4bha12rcd13ifvqef0","pricing_plan_id":"cebpf4jnsgd1na2vs0mg"},{"bike_id":"147f00c6-e28f-40cc-a64f-635386a22df2","system_id":"levelo_inurba_marseille","lat":43.24393,"lon":5.3706,"is_reserved":false,"is_disabled":false,"rental_uris":{"android":"levelo://app?vid=147f00c6-e28f-40cc-a64f-635386a22df2","ios":"levelo://app?vid=147f00c6-e28f-40cc-a64f-635386a22df2"},"vehicle_type_id":"4","last_reported":1743343664,"current_range_meters":4000,"station_id":"ce4bhhh2rcd13ifvqfk0","pricing_plan_id":"cebpf4jnsgd1na2vs0mg"},{"bike_id":"b0525b53-dfbf-45a8-8f7c-9bd4741b364f","system_id":"levelo_inurba_marseille","lat":43.284149,"lon":5.349838,"is_reserved":false,"is_disabled":false,"rental_uris":{"android":"levelo://app?vid=b0525b53-dfbf-45a8-8f7c-9bd4741b364f","ios":"levelo://app?vid=b0525b53-dfbf-45a8-8f7c-9bd4741b364f"},"vehicle_type_id":"4","last_reported":1743343664,"current_range_meters":4400,"station_id":"ce4bhq12rcd13ifvqhig","pricing_plan_id":"cebpf4jnsgd1na2vs0mg"},{"bike_id":"75ca7e99-906c-4db3-b96d-23be7c9f72bc","system_id":"levelo_inurba_marseille","lat":43.28419,"lon":5.35001,"is_reserved":false,"is_disabled":false,"rental_uris":{"android":"levelo://app?vid=75ca7e99-906c-4db3-b96d-23be7c9f72bc","ios":"levelo://app?vid=75ca7e99-906c-4db3-b96d-23be7c9f72bc"},"vehicle_type_id":"4","last_reported":1743343664,"current_range_meters":4400,"station_id":"ce4bhbh2rcd13ifvqepg","pricing_plan_id":"cebpf4jnsgd1na2vs0mg"},{"bike_id":"8d6abdef-27aa-4d1b-9448-656a6296f19d","system_id":"levelo_inurba_marseille","lat":43.24177,"lon":5.39708,"is_reserved":false,"is_disabled":false,"rental_uris":{"android":"levelo://app?vid=8d6abdef-27aa-4d1b-9448-656a6296f19d","ios":"levelo://app?vid=8d6abdef-27aa-4d1b-9448-656a6296f19d"},"vehicle_type_id":"4","last_reported":1743343664,"current_range_meters":4400,"station_id":"ce4bhn12rcd13ifvqgpg","pricing_plan_id":"cebpf4jnsgd1na2vs0mg"},{"bike_id":"301b8a6c-9abc-42e4-bb4c-a8290fc7fec1","system_id":"levelo_inurba_marseille","lat":43.27371,"lon":5.36249,"is_reserved":false,"is_disabled":false,"rental_uris":{"android":"levelo://app?vid=301b8a6c-9abc-42e4-bb4c-a8290fc7fec1","ios":"levelo://app?vid=301b8a6c-9abc-42e4-bb4c-a8290fc7fec1"},"vehicle_type_id":"4","last_reported":1743343664,"current_range_meters":4400,"station_id":"ce4bhbh2rcd13ifvqeo0","pricing_plan_id":"cebpf4jnsgd1na2vs0mg"},{"bike_id":"4a4c2a37-8947-421d-b3c5-feeac926e4d7","system_id":"levelo_inurba_marseille","lat":43.313657,"lon":5.384952,"is_reserved":false,"is_disabled":false,"rental_uris":{"android":"levelo://app?vid=4a4c2a37-8947-421d-b3c5-feeac926e4d7","ios":"levelo://app?vid=4a4c2a37-8947-421d-b3c5-feeac926e4d7"},"vehicle_type_id":"4","last_reported":1743343664,"current_range_meters":4400,"station_id":"ce4bgup2rcd13ifvqco0","pricing_plan_id":"cebpf4jnsgd1na2vs0mg"},{"bike_id":"5fa76be9-4f44-42b2-9369-ca86f6bbce5c","system_id":"levelo_inurba_marseille","lat":43.2655,"lon":5.37289,"is_reserved":false,"is_disabled":true,"rental_uris":{"android":"levelo://app?vid=5fa76be9-4f44-42b2-9369-ca86f6bbce5c","ios":"levelo://app?vid=5fa76be9-4f44-42b2-9369-ca86f6bbce5c"},"vehicle_type_id":"4","last_reported":1743343664,"current_range_meters":4800,"station_id":"ce4bhg12rcd13ifvqf70","pricing_plan_id":"cebpf4jnsgd1na2vs0mg"},{"bike_id":"b5ace6c6-32e3-486d-9744-efb1ce0dfa9d","system_id":"levelo_inurba_marseille","lat":43.28906,"lon":5.37112,"is_reserved":false,"is_disabled":true,"rental_uris":{"android":"levelo://app?vid=b5ace6c6-32e3-486d-9744-efb1ce0dfa9d","ios":"levelo://app?vid=b5ace6c6-32e3-486d-9744-efb1ce0dfa9d"},"vehicle_type_id":"4","last_reported":1743343664,"current_range_meters":4800,"station_id":"","pricing_plan_id":"cebpf4jnsgd1na2vs0mg"},{"bike_id":"0e30d668-57fe-45c6-8988-872481cb045d","system_id":"levelo_inurba_marseille","lat":43.29537,"lon":5.37496,"is_reserved":false,"is_disabled":false,"rental_uris":{"android":"levelo://app?vid=0e30d668-57fe-45c6-8988-872481cb045d","ios":"levelo://app?vid=0e30d668-57fe-45c6-8988-872481cb045d"},"vehicle_type_id":"4","last_reported":1743343664,"current_range_meters":4800,"station_id":"ce4bgkp2rcd13ifvqbmg","pricing_plan_id":"cebpf4jnsgd1na2vs0mg"},{"bike_id":"533b7871-3295-4d97-b48b-5101342f3d4f","system_id":"levelo_inurba_marseille","lat":43.2842,"lon":5.34989,"is_reserved":false,"is_disabled":false,"rental_uris":{"android":"levelo://app?vid=533b7871-3295-4d97-b48b-5101342f3d4f","ios":"levelo://app?vid=533b7871-3295-4d97-b48b-5101342f3d4f"},"vehicle_type_id":"4","last_reported":1743343664,"current_range_meters":7200,"station_id":"ce4bhbh2rcd13ifvqepg","pricing_plan_id":"cebpf4jnsgd1na2vs0mg"},{"bike_id":"3e162b14-fff6-4274-8bc6-c664046090ff","system_id":"levelo_inurba_marseille","lat":43.23192,"lon":5.39991,"is_reserved":false,"is_disabled":false,"rental_uris":{"android":"levelo://app?vid=3e162b14-fff6-4274-8bc6-c664046090ff","ios":"levelo://app?vid=3e162b14-fff6-4274-8bc6-c664046090ff"},"vehicle_type_id":"4","last_reported":1743343664,"current_range_meters":4800,"station_id":"ce4bhn12rcd13ifvqgqg","pricing_plan_id":"cebpf4jnsgd1na2vs0mg"},{"bike_id":"d6f7904d-56b0-4336-8852-99e8b443253c","system_id":"levelo_inurba_marseille","lat":43.28619,"lon":5.35107,"is_reserved":false,"is_disabled":false,"rental_uris":{"android":"levelo://app?vid=d6f7904d-56b0-4336-8852-99e8b443253c","ios":"levelo://app?vid=d6f7904d-56b0-4336-8852-99e8b443253c"},"vehicle_type_id":"4","last_reported":1743343664,"current_range_meters":4800,"station_id":"ce4bhch2rcd13ifvqeug","pricing_plan_id":"cebpf4jnsgd1na2vs0mg"},{"bike_id":"14a9ea17-6fac-4231-9180-9a6397da68c2","system_id":"levelo_inurba_marseille","lat":43.29927,"lon":5.36542,"is_reserved":false,"is_disabled":false,"rental_uris":{"android":"levelo://app?vid=14a9ea17-6fac-4231-9180-9a6397da68c2","ios":"levelo://app?vid=14a9ea17-6fac-4231-9180-9a6397da68c2"},"vehicle_type_id":"4","last_reported":1743343664,"current_range_meters":5600,"station_id":"ce4bgm92rcd13ifvqbr0","pricing_plan_id":"cebpf4jnsgd1na2vs0mg"},{"bike_id":"e41e22ff-94f9-49eb-8c86-f4449d14a11d","system_id":"levelo_inurba_marseille","lat":43.24171,"lon":5.36391,"is_reserved":false,"is_disabled":false,"rental_uris":{"android":"levelo://app?vid=e41e22ff-94f9-49eb-8c86-f4449d14a11d","ios":"levelo://app?vid=e41e22ff-94f9-49eb-8c86-f4449d14a11d"},"vehicle_type_id":"4","last_reported":1743343664,"current_range_meters":5600,"station_id":"cpo36qri1sfpv3e86is0","pricing_plan_id":"cebpf4jnsgd1na2vs0mg"},{"bike_id":"46815d58-28c2-4d05-b079-d572079dc6ed","system_id":"levelo_inurba_marseille","lat":43.23061,"lon":5.35494,"is_reserved":false,"is_disabled":false,"rental_uris":{"android":"levelo://app?vid=46815d58-28c2-4d05-b079-d572079dc6ed","ios":"levelo://app?vid=46815d58-28c2-4d05-b079-d572079dc6ed"},"vehicle_type_id":"4","last_reported":1743343664,"current_range_meters":5600,"station_id":"cpo3342slgdg3j2ifvpg","pricing_plan_id":"cebpf4jnsgd1na2vs0mg"},{"bike_id":"8af50af5-83a3-4996-aa10-4e6e95759b6b","system_id":"levelo_inurba_marseille","lat":43.27373,"lon":5.36248,"is_reserved":false,"is_disabled":false,"rental_uris":{"android":"levelo://app?vid=8af50af5-83a3-4996-aa10-4e6e95759b6b","ios":"levelo://app?vid=8af50af5-83a3-4996-aa10-4e6e95759b6b"},"vehicle_type_id":"4","last_reported":1743343664,"current_range_meters":5600,"station_id":"ce4bhbh2rcd13ifvqeo0","pricing_plan_id":"cebpf4jnsgd1na2vs0mg"},{"bike_id":"e29fad99-e7b4-4865-95dd-28245f178539","system_id":"levelo_inurba_marseille","lat":43.301399,"lon":5.387785,"is_reserved":false,"is_disabled":false,"rental_uris":{"android":"levelo://app?vid=e29fad99-e7b4-4865-95dd-28245f178539","ios":"levelo://app?vid=e29fad99-e7b4-4865-95dd-28245f178539"},"vehicle_type_id":"4","last_reported":1743343664,"current_range_meters":6000,"station_id":"ce4bgi12rcd13ifvqb70","pricing_plan_id":"cebpf4jnsgd1na2vs0mg"},{"bike_id":"63b73d04-8db6-41f7-b61e-4eee2a13afec","system_id":"levelo_inurba_marseille","lat":43.28622,"lon":5.35109,"is_reserved":false,"is_disabled":false,"rental_uris":{"android":"levelo://app?vid=63b73d04-8db6-41f7-b61e-4eee2a13afec","ios":"levelo://app?vid=63b73d04-8db6-41f7-b61e-4eee2a13afec"},"vehicle_type_id":"4","last_reported":1743343664,"current_range_meters":5600,"station_id":"","pricing_plan_id":"cebpf4jnsgd1na2vs0mg"},{"bike_id":"93df9ccd-da7e-4133-ac72-1cd5b052a8a1","system_id":"levelo_inurba_marseille","lat":43.23059,"lon":5.35493,"is_reserved":false,"is_disabled":false,"rental_uris":{"android":"levelo://app?vid=93df9ccd-da7e-4133-ac72-1cd5b052a8a1","ios":"levelo://app?vid=93df9ccd-da7e-4133-ac72-1cd5b052a8a1"},"vehicle_type_id":"4","last_reported":1743343664,"current_range_meters":5600,"station_id":"cpo3342slgdg3j2ifvpg","pricing_plan_id":"cebpf4jnsgd1na2vs0mg"},{"bike_id":"b0ddf4f0-4903-41e8-96fa-f631a3f4d986","system_id":"levelo_inurba_marseille","lat":43.27621,"lon":5.36107,"is_reserved":false,"is_disabled":false,"rental_uris":{"android":"levelo://app?vid=b0ddf4f0-4903-41e8-96fa-f631a3f4d986","ios":"levelo://app?vid=b0ddf4f0-4903-41e8-96fa-f631a3f4d986"},"vehicle_type_id":"4","last_reported":1743343664,"current_range_meters":6000,"station_id":"ce4bgj92rcd13ifvqbe0","pricing_plan_id":"cebpf4jnsgd1na2vs0mg"},{"bike_id":"7c8f89e2-da46-41fc-a0c3-afb8e1e228e8","system_id":"levelo_inurba_marseille","lat":43.28629,"lon":5.3511,"is_reserved":false,"is_disabled":false,"rental_uris":{"android":"levelo://app?vid=7c8f89e2-da46-41fc-a0c3-afb8e1e228e8","ios":"levelo://app?vid=7c8f89e2-da46-41fc-a0c3-afb8e1e228e8"},"vehicle_type_id":"4","last_reported":1743343664,"current_range_meters":6000,"station_id":"ce4bhch2rcd13ifvqeug","pricing_plan_id":"cebpf4jnsgd1na2vs0mg"},{"bike_id":"80507833-57fc-4199-a0f8-32eca269665b","system_id":"levelo_inurba_marseille","lat":43.24164,"lon":5.36421,"is_reserved":false,"is_disabled":false,"rental_uris":{"android":"levelo://app?vid=80507833-57fc-4199-a0f8-32eca269665b","ios":"levelo://app?vid=80507833-57fc-4199-a0f8-32eca269665b"},"vehicle_type_id":"4","last_reported":1743343664,"current_range_meters":6000,"station_id":"cpo36qri1sfpv3e86is0","pricing_plan_id":"cebpf4jnsgd1na2vs0mg"},{"bike_id":"4b2323ae-94b8-41f7-9062-4d9bd4bd549e","system_id":"levelo_inurba_marseille","lat":43.24163,"lon":5.36413,"is_reserved":false,"is_disabled":false,"rental_uris":{"android":"levelo://app?vid=4b2323ae-94b8-41f7-9062-4d9bd4bd549e","ios":"levelo://app?vid=4b2323ae-94b8-41f7-9062-4d9bd4bd549e"},"vehicle_type_id":"4","last_reported":1743343664,"current_range_meters":6000,"station_id":"cpo36qri1sfpv3e86is0","pricing_plan_id":"cebpf4jnsgd1na2vs0mg"},{"bike_id":"a36a9ec1-537e-4091-9d7a-dd0444d14e10","system_id":"levelo_inurba_marseille","lat":43.24826,"lon":5.37447,"is_reserved":false,"is_disabled":false,"rental_uris":{"android":"levelo://app?vid=a36a9ec1-537e-4091-9d7a-dd0444d14e10","ios":"levelo://app?vid=a36a9ec1-537e-4091-9d7a-dd0444d14e10"},"vehicle_type_id":"4","last_reported":1743343664,"current_range_meters":6000,"station_id":"ce4bhgh2rcd13ifvqfb0","pricing_plan_id":"cebpf4jnsgd1na2vs0mg"},{"bike_id":"002e0166-7f25-477f-ac67-0747a04594f0","system_id":"levelo_inurba_marseille","lat":43.24803,"lon":5.37457,"is_reserved":false,"is_disabled":false,"rental_uris":{"android":"levelo://app?vid=002e0166-7f25-477f-ac67-0747a04594f0","ios":"levelo://app?vid=002e0166-7f25-477f-ac67-0747a04594f0"},"vehicle_type_id":"4","last_reported":1743343664,"current_range_meters":6000,"station_id":"ce4bhgh2rcd13ifvqfb0","pricing_plan_id":"cebpf4jnsgd1na2vs0mg"},{"bike_id":"f8ed3009-6d31-4d12-af28-58d547d38689","system_id":"levelo_inurba_marseille","lat":43.23971,"lon":5.366332,"is_reserved":false,"is_disabled":false,"rental_uris":{"android":"levelo://app?vid=f8ed3009-6d31-4d12-af28-58d547d38689","ios":"levelo://app?vid=f8ed3009-6d31-4d12-af28-58d547d38689"},"vehicle_type_id":"4","last_reported":1743343664,"current_range_meters":6000,"station_id":"ce4bhi12rcd13ifvqfp0","pricing_plan_id":"cebpf4jnsgd1na2vs0mg"},{"bike_id":"970d0fb3-ec32-4d9d-8099-816bed18a534","system_id":"levelo_inurba_marseille","lat":43.23969,"lon":5.36624,"is_reserved":false,"is_disabled":false,"rental_uris":{"android":"levelo://app?vid=970d0fb3-ec32-4d9d-8099-816bed18a534","ios":"levelo://app?vid=970d0fb3-ec32-4d9d-8099-816bed18a534"},"vehicle_type_id":"4","last_reported":1743343664,"current_range_meters":6400,"station_id":"ce4bhi12rcd13ifvqfp0","pricing_plan_id":"cebpf4jnsgd1na2vs0mg"},{"bike_id":"b97fab6e-2e78-4719-8eec-4f978ca3d9e4","system_id":"levelo_inurba_marseille","lat":43.23188,"lon":5.35559,"is_reserved":false,"is_disabled":false,"rental_uris":{"android":"levelo://app?vid=b97fab6e-2e78-4719-8eec-4f978ca3d9e4","ios":"levelo://app?vid=b97fab6e-2e78-4719-8eec-4f978ca3d9e4"},"vehicle_type_id":"4","last_reported":1743343664,"current_range_meters":6400,"station_id":"ce4bhu92rcd13ifvqi70","pricing_plan_id":"cebpf4jnsgd1na2vs0mg"},{"bike_id":"96fa1290-e699-40b9-9109-379d3b77c6fb","system_id":"levelo_inurba_marseille","lat":43.33729,"lon":5.39161,"is_reserved":false,"is_disabled":false,"rental_uris":{"android":"levelo://app?vid=96fa1290-e699-40b9-9109-379d3b77c6fb","ios":"levelo://app?vid=96fa1290-e699-40b9-9109-379d3b77c6fb"},"vehicle_type_id":"4","last_reported":1743343664,"current_range_meters":6400,"station_id":"ce4bhr92rcd13ifvqhsg","pricing_plan_id":"cebpf4jnsgd1na2vs0mg"},{"bike_id":"1e5423f1-3cd0-41b5-82ad-c96425aa116d","system_id":"levelo_inurba_marseille","lat":43.27381,"lon":5.36248,"is_reserved":false,"is_disabled":false,"rental_uris":{"android":"levelo://app?vid=1e5423f1-3cd0-41b5-82ad-c96425aa116d","ios":"levelo://app?vid=1e5423f1-3cd0-41b5-82ad-c96425aa116d"},"vehicle_type_id":"4","last_reported":1743343664,"current_range_meters":6400,"station_id":"ce4bhbh2rcd13ifvqeo0","pricing_plan_id":"cebpf4jnsgd1na2vs0mg"},{"bike_id":"e6c775cf-9b9d-4b0b-8c23-2f7713ffcf70","system_id":"levelo_inurba_marseille","lat":43.22924,"lon":5.35402,"is_reserved":false,"is_disabled":false,"rental_uris":{"android":"levelo://app?vid=e6c775cf-9b9d-4b0b-8c23-2f7713ffcf70","ios":"levelo://app?vid=e6c775cf-9b9d-4b0b-8c23-2f7713ffcf70"},"vehicle_type_id":"4","last_reported":1743343664,"current_range_meters":6400,"station_id":"cpo3532slgdg3j2ikp40","pricing_plan_id":"cebpf4jnsgd1na2vs0mg"},{"bike_id":"1a8ec8fe-cd0f-44f4-9a76-dfc354a60ccc","system_id":"levelo_inurba_marseille","lat":43.23977,"lon":5.36605,"is_reserved":false,"is_disabled":false,"rental_uris":{"android":"levelo://app?vid=1a8ec8fe-cd0f-44f4-9a76-dfc354a60ccc","ios":"levelo://app?vid=1a8ec8fe-cd0f-44f4-9a76-dfc354a60ccc"},"vehicle_type_id":"4","last_reported":1743343664,"current_range_meters":6400,"station_id":"ce4bhi12rcd13ifvqfp0","pricing_plan_id":"cebpf4jnsgd1na2vs0mg"},{"bike_id":"73ea5bca-5825-49bb-86da-5230b79310e1","system_id":"levelo_inurba_marseille","lat":43.230591,"lon":5.354931,"is_reserved":false,"is_disabled":false,"rental_uris":{"android":"levelo://app?vid=73ea5bca-5825-49bb-86da-5230b79310e1","ios":"levelo://app?vid=73ea5bca-5825-49bb-86da-5230b79310e1"},"vehicle_type_id":"4","last_reported":1743343664,"current_range_meters":6400,"station_id":"cpo3342slgdg3j2ifvpg","pricing_plan_id":"cebpf4jnsgd1na2vs0mg"},{"bike_id":"7171f9be-2ef3-4384-bfe9-6e9f928037df","system_id":"levelo_inurba_marseille","lat":43.25819,"lon":5.39437,"is_reserved":false,"is_disabled":false,"rental_uris":{"android":"levelo://app?vid=7171f9be-2ef3-4384-bfe9-6e9f928037df","ios":"levelo://app?vid=7171f9be-2ef3-4384-bfe9-6e9f928037df"},"vehicle_type_id":"4","last_reported":1743343664,"current_range_meters":6800,"station_id":"ce4bhip2rcd13ifvqft0","pricing_plan_id":"cebpf4jnsgd1na2vs0mg"},{"bike_id":"f90e415a-fb36-432b-bac3-5bbc9fbb81e1","system_id":"levelo_inurba_marseille","lat":43.23063,"lon":5.35492,"is_reserved":false,"is_disabled":false,"rental_uris":{"android":"levelo://app?vid=f90e415a-fb36-432b-bac3-5bbc9fbb81e1","ios":"levelo://app?vid=f90e415a-fb36-432b-bac3-5bbc9fbb81e1"},"vehicle_type_id":"4","last_reported":1743343664,"current_range_meters":6800,"station_id":"cpo3342slgdg3j2ifvpg","pricing_plan_id":"cebpf4jnsgd1na2vs0mg"},{"bike_id":"996d8c78-48f3-41e7-a5ca-7079b57449b3","system_id":"levelo_inurba_marseille","lat":43.27375,"lon":5.36259,"is_reserved":false,"is_disabled":false,"rental_uris":{"android":"levelo://app?vid=996d8c78-48f3-41e7-a5ca-7079b57449b3","ios":"levelo://app?vid=996d8c78-48f3-41e7-a5ca-7079b57449b3"},"vehicle_type_id":"4","last_reported":1743343664,"current_range_meters":6800,"station_id":"ce4bhbh2rcd13ifvqeo0","pricing_plan_id":"cebpf4jnsgd1na2vs0mg"},{"bike_id":"4d6b0017-c403-4868-84a4-dd5f5b369b91","system_id":"levelo_inurba_marseille","lat":43.286188,"lon":5.351175,"is_reserved":false,"is_disabled":false,"rental_uris":{"android":"levelo://app?vid=4d6b0017-c403-4868-84a4-dd5f5b369b91","ios":"levelo://app?vid=4d6b0017-c403-4868-84a4-dd5f5b369b91"},"vehicle_type_id":"4","last_reported":1743343664,"current_range_meters":6800,"station_id":"ce4bhch2rcd13ifvqeug","pricing_plan_id":"cebpf4jnsgd1na2vs0mg"},{"bike_id":"11ffa072-3e68-42ce-9ba6-aeac7a42428b","system_id":"levelo_inurba_marseille","lat":43.27613,"lon":5.3612,"is_reserved":false,"is_disabled":false,"rental_uris":{"android":"levelo://app?vid=11ffa072-3e68-42ce-9ba6-aeac7a42428b","ios":"levelo://app?vid=11ffa072-3e68-42ce-9ba6-aeac7a42428b"},"vehicle_type_id":"4","last_reported":1743343664,"current_range_meters":6800,"station_id":"ce4bgj92rcd13ifvqbe0","pricing_plan_id":"cebpf4jnsgd1na2vs0mg"},{"bike_id":"772e43f6-89ab-4d70-9e65-cf0b6736f30f","system_id":"levelo_inurba_marseille","lat":43.25508,"lon":5.37658,"is_reserved":false,"is_disabled":false,"rental_uris":{"android":"levelo://app?vid=772e43f6-89ab-4d70-9e65-cf0b6736f30f","ios":"levelo://app?vid=772e43f6-89ab-4d70-9e65-cf0b6736f30f"},"vehicle_type_id":"4","last_reported":1743343664,"current_range_meters":6800,"station_id":"ce4bhh12rcd13ifvqff0","pricing_plan_id":"cebpf4jnsgd1na2vs0mg"},{"bike_id":"714a4f0b-a43c-4b60-9965-f459a37a3489","system_id":"levelo_inurba_marseille","lat":43.3311,"lon":5.38656,"is_reserved":false,"is_disabled":false,"rental_uris":{"android":"levelo://app?vid=714a4f0b-a43c-4b60-9965-f459a37a3489","ios":"levelo://app?vid=714a4f0b-a43c-4b60-9965-f459a37a3489"},"vehicle_type_id":"4","last_reported":1743343664,"current_range_meters":6400,"station_id":"","pricing_plan_id":"cebpf4jnsgd1na2vs0mg"},{"bike_id":"5a3307a6-54ca-44bc-a5fd-ab80751e6464","system_id":"levelo_inurba_marseille","lat":43.231927,"lon":5.399966,"is_reserved":false,"is_disabled":true,"rental_uris":{"android":"levelo://app?vid=5a3307a6-54ca-44bc-a5fd-ab80751e6464","ios":"levelo://app?vid=5a3307a6-54ca-44bc-a5fd-ab80751e6464"},"vehicle_type_id":"4","last_reported":1743343664,"current_range_meters":6800,"station_id":"ce4bhn12rcd13ifvqgqg","pricing_plan_id":"cebpf4jnsgd1na2vs0mg"},{"bike_id":"3b9e2dbb-dda4-4ed5-8aef-7e67e6437f0d","system_id":"levelo_inurba_marseille","lat":43.33347,"lon":5.40151,"is_reserved":false,"is_disabled":false,"rental_uris":{"android":"levelo://app?vid=3b9e2dbb-dda4-4ed5-8aef-7e67e6437f0d","ios":"levelo://app?vid=3b9e2dbb-dda4-4ed5-8aef-7e67e6437f0d"},"vehicle_type_id":"4","last_reported":1743343664,"current_range_meters":6800,"station_id":"","pricing_plan_id":"cebpf4jnsgd1na2vs0mg"},{"bike_id":"d4f169a8-90a2-4ef5-9242-78b0018cefcf","system_id":"levelo_inurba_marseille","lat":43.282623,"lon":5.350685,"is_reserved":false,"is_disabled":false,"rental_uris":{"android":"levelo://app?vid=d4f169a8-90a2-4ef5-9242-78b0018cefcf","ios":"levelo://app?vid=d4f169a8-90a2-4ef5-9242-78b0018cefcf"},"vehicle_type_id":"4","last_reported":1743343664,"current_range_meters":7200,"station_id":"ce4bhbp2rcd13ifvqerg","pricing_plan_id":"cebpf4jnsgd1na2vs0mg"},{"bike_id":"678afc02-7887-4189-83e7-46e425f91ae8","system_id":"levelo_inurba_marseille","lat":43.23192,"lon":5.35559,"is_reserved":false,"is_disabled":false,"rental_uris":{"android":"levelo://app?vid=678afc02-7887-4189-83e7-46e425f91ae8","ios":"levelo://app?vid=678afc02-7887-4189-83e7-46e425f91ae8"},"vehicle_type_id":"4","last_reported":1743343664,"current_range_meters":7200,"station_id":"ce4bhu92rcd13ifvqi70","pricing_plan_id":"cebpf4jnsgd1na2vs0mg"},{"bike_id":"9904e6e0-f7fa-453a-a9b5-ffdc0c28c0dd","system_id":"levelo_inurba_marseille","lat":43.28406,"lon":5.34979,"is_reserved":false,"is_disabled":false,"rental_uris":{"android":"levelo://app?vid=9904e6e0-f7fa-453a-a9b5-ffdc0c28c0dd","ios":"levelo://app?vid=9904e6e0-f7fa-453a-a9b5-ffdc0c28c0dd"},"vehicle_type_id":"4","last_reported":1743343664,"current_range_meters":7200,"station_id":"ce4bhbh2rcd13ifvqepg","pricing_plan_id":"cebpf4jnsgd1na2vs0mg"},{"bike_id":"724a8f3e-018b-4ac7-be0e-731f1b1d8063","system_id":"levelo_inurba_marseille","lat":43.25494,"lon":5.37647,"is_reserved":false,"is_disabled":false,"rental_uris":{"android":"levelo://app?vid=724a8f3e-018b-4ac7-be0e-731f1b1d8063","ios":"levelo://app?vid=724a8f3e-018b-4ac7-be0e-731f1b1d8063"},"vehicle_type_id":"4","last_reported":1743343664,"current_range_meters":7200,"station_id":"ce4bhh12rcd13ifvqff0","pricing_plan_id":"cebpf4jnsgd1na2vs0mg"},{"bike_id":"a2891cc1-74ac-4bb3-ac89-3d4a61a76871","system_id":"levelo_inurba_marseille","lat":43.2397,"lon":5.36608,"is_reserved":false,"is_disabled":false,"rental_uris":{"android":"levelo://app?vid=a2891cc1-74ac-4bb3-ac89-3d4a61a76871","ios":"levelo://app?vid=a2891cc1-74ac-4bb3-ac89-3d4a61a76871"},"vehicle_type_id":"4","last_reported":1743343664,"current_range_meters":7200,"station_id":"ce4bhi12rcd13ifvqfp0","pricing_plan_id":"cebpf4jnsgd1na2vs0mg"},{"bike_id":"faf4945b-e50f-4d66-80fa-f974df65de0b","system_id":"levelo_inurba_marseille","lat":43.31334,"lon":5.39691,"is_reserved":false,"is_disabled":false,"rental_uris":{"android":"levelo://app?vid=faf4945b-e50f-4d66-80fa-f974df65de0b","ios":"levelo://app?vid=faf4945b-e50f-4d66-80fa-f974df65de0b"},"vehicle_type_id":"4","last_reported":1743343664,"current_range_meters":6800,"station_id":"ce4bgvp2rcd13ifvqcu0","pricing_plan_id":"cebpf4jnsgd1na2vs0mg"},{"bike_id":"8e69e7f9-76b5-4d0a-8b34-45d50fc637f3","system_id":"levelo_inurba_marseille","lat":43.24223,"lon":5.38438,"is_reserved":false,"is_disabled":false,"rental_uris":{"android":"levelo://app?vid=8e69e7f9-76b5-4d0a-8b34-45d50fc637f3","ios":"levelo://app?vid=8e69e7f9-76b5-4d0a-8b34-45d50fc637f3"},"vehicle_type_id":"4","last_reported":1743343664,"current_range_meters":7200,"station_id":"","pricing_plan_id":"cebpf4jnsgd1na2vs0mg"},{"bike_id":"a7e98f70-9e46-4537-a7be-08fc45027285","system_id":"levelo_inurba_marseille","lat":43.27368,"lon":5.36245,"is_reserved":false,"is_disabled":false,"rental_uris":{"android":"levelo://app?vid=a7e98f70-9e46-4537-a7be-08fc45027285","ios":"levelo://app?vid=a7e98f70-9e46-4537-a7be-08fc45027285"},"vehicle_type_id":"4","last_reported":1743343664,"current_range_meters":7200,"station_id":"ce4bhbh2rcd13ifvqeo0","pricing_plan_id":"cebpf4jnsgd1na2vs0mg"},{"bike_id":"d513ad04-90b9-41b2-b4c7-3d2caeeaf05e","system_id":"levelo_inurba_marseille","lat":43.301425,"lon":5.380676,"is_reserved":false,"is_disabled":false,"rental_uris":{"android":"levelo://app?vid=d513ad04-90b9-41b2-b4c7-3d2caeeaf05e","ios":"levelo://app?vid=d513ad04-90b9-41b2-b4c7-3d2caeeaf05e"},"vehicle_type_id":"4","last_reported":1743343664,"current_range_meters":7200,"station_id":"ce4bgjp2rcd13ifvqbh0","pricing_plan_id":"cebpf4jnsgd1na2vs0mg"},{"bike_id":"b2e6e5f9-815c-46ac-bebd-de4e22a8e049","system_id":"levelo_inurba_marseille","lat":43.33193,"lon":5.39564,"is_reserved":false,"is_disabled":false,"rental_uris":{"android":"levelo://app?vid=b2e6e5f9-815c-46ac-bebd-de4e22a8e049","ios":"levelo://app?vid=b2e6e5f9-815c-46ac-bebd-de4e22a8e049"},"vehicle_type_id":"4","last_reported":1743343664,"current_range_meters":8000,"station_id":"","pricing_plan_id":"cebpf4jnsgd1na2vs0mg"},{"bike_id":"b98594d7-8128-4bc2-a9d4-f4c330986c65","system_id":"levelo_inurba_marseille","lat":43.23973,"lon":5.36639,"is_reserved":false,"is_disabled":false,"rental_uris":{"android":"levelo://app?vid=b98594d7-8128-4bc2-a9d4-f4c330986c65","ios":"levelo://app?vid=b98594d7-8128-4bc2-a9d4-f4c330986c65"},"vehicle_type_id":"4","last_reported":1743343664,"current_range_meters":8000,"station_id":"ce4bhi12rcd13ifvqfp0","pricing_plan_id":"cebpf4jnsgd1na2vs0mg"},{"bike_id":"96ac20e8-5840-4579-b371-184ec6253952","system_id":"levelo_inurba_marseille","lat":43.274961,"lon":5.41141,"is_reserved":false,"is_disabled":false,"rental_uris":{"android":"levelo://app?vid=96ac20e8-5840-4579-b371-184ec6253952","ios":"levelo://app?vid=96ac20e8-5840-4579-b371-184ec6253952"},"vehicle_type_id":"4","last_reported":1743343664,"current_range_meters":8000,"station_id":"","pricing_plan_id":"cebpf4jnsgd1na2vs0mg"},{"bike_id":"ead84735-1991-4501-b506-2229ced7058a","system_id":"levelo_inurba_marseille","lat":43.2306,"lon":5.35486,"is_reserved":false,"is_disabled":false,"rental_uris":{"android":"levelo://app?vid=ead84735-1991-4501-b506-2229ced7058a","ios":"levelo://app?vid=ead84735-1991-4501-b506-2229ced7058a"},"vehicle_type_id":"4","last_reported":1743343664,"current_range_meters":8000,"station_id":"cpo3342slgdg3j2ifvpg","pricing_plan_id":"cebpf4jnsgd1na2vs0mg"},{"bike_id":"284a1f4d-bf0a-45fc-b4a6-34676ba11dbe","system_id":"levelo_inurba_marseille","lat":43.24162,"lon":5.36442,"is_reserved":false,"is_disabled":false,"rental_uris":{"android":"levelo://app?vid=284a1f4d-bf0a-45fc-b4a6-34676ba11dbe","ios":"levelo://app?vid=284a1f4d-bf0a-45fc-b4a6-34676ba11dbe"},"vehicle_type_id":"4","last_reported":1743343664,"current_range_meters":8000,"station_id":"cpo36qri1sfpv3e86is0","pricing_plan_id":"cebpf4jnsgd1na2vs0mg"},{"bike_id":"861fba4a-9c12-463c-8a39-b4a694ea5d40","system_id":"levelo_inurba_marseille","lat":43.23965,"lon":5.36622,"is_reserved":false,"is_disabled":true,"rental_uris":{"android":"levelo://app?vid=861fba4a-9c12-463c-8a39-b4a694ea5d40","ios":"levelo://app?vid=861fba4a-9c12-463c-8a39-b4a694ea5d40"},"vehicle_type_id":"4","last_reported":1743343664,"current_range_meters":8000,"station_id":"ce4bhi12rcd13ifvqfp0","pricing_plan_id":"cebpf4jnsgd1na2vs0mg"},{"bike_id":"37f41d5f-3983-4db2-8781-c345307ed7b9","system_id":"levelo_inurba_marseille","lat":43.27496,"lon":5.42449,"is_reserved":false,"is_disabled":false,"rental_uris":{"android":"levelo://app?vid=37f41d5f-3983-4db2-8781-c345307ed7b9","ios":"levelo://app?vid=37f41d5f-3983-4db2-8781-c345307ed7b9"},"vehicle_type_id":"4","last_reported":1743343664,"current_range_meters":8000,"station_id":"ce4bhn92rcd13ifvqgrg","pricing_plan_id":"cebpf4jnsgd1na2vs0mg"},{"bike_id":"f39ba445-226b-40dd-aa4e-16bf11633895","system_id":"levelo_inurba_marseille","lat":43.29909,"lon":5.38149,"is_reserved":false,"is_disabled":false,"rental_uris":{"android":"levelo://app?vid=f39ba445-226b-40dd-aa4e-16bf11633895","ios":"levelo://app?vid=f39ba445-226b-40dd-aa4e-16bf11633895"},"vehicle_type_id":"4","last_reported":1743343664,"current_range_meters":8000,"station_id":"ce4bgj12rcd13ifvqbc0","pricing_plan_id":"cebpf4jnsgd1na2vs0mg"},{"bike_id":"e6b237ea-6a2c-4ba7-8b42-e284823c64e6","system_id":"levelo_inurba_marseille","lat":43.29855,"lon":5.36291,"is_reserved":false,"is_disabled":true,"rental_uris":{"android":"levelo://app?vid=e6b237ea-6a2c-4ba7-8b42-e284823c64e6","ios":"levelo://app?vid=e6b237ea-6a2c-4ba7-8b42-e284823c64e6"},"vehicle_type_id":"4","last_reported":1743343664,"current_range_meters":8000,"station_id":"ce4bgpp2rcd13ifvqc3g","pricing_plan_id":"cebpf4jnsgd1na2vs0mg"},{"bike_id":"a1b5a514-f0ef-42eb-b1a4-22dd30a86324","system_id":"levelo_inurba_marseille","lat":43.31762,"lon":5.3901,"is_reserved":false,"is_disabled":false,"rental_uris":{"android":"levelo://app?vid=a1b5a514-f0ef-42eb-b1a4-22dd30a86324","ios":"levelo://app?vid=a1b5a514-f0ef-42eb-b1a4-22dd30a86324"},"vehicle_type_id":"4","last_reported":1743343664,"current_range_meters":8000,"station_id":"ce4bhqp2rcd13ifvqhng","pricing_plan_id":"cebpf4jnsgd1na2vs0mg"},{"bike_id":"1f51a83a-c1ff-4486-982b-9600b9fd6fdb","system_id":"levelo_inurba_marseille","lat":43.22936,"lon":5.35369,"is_reserved":false,"is_disabled":false,"rental_uris":{"android":"levelo://app?vid=1f51a83a-c1ff-4486-982b-9600b9fd6fdb","ios":"levelo://app?vid=1f51a83a-c1ff-4486-982b-9600b9fd6fdb"},"vehicle_type_id":"4","last_reported":1743343664,"current_range_meters":8400,"station_id":"cpo3532slgdg3j2ikp40","pricing_plan_id":"cebpf4jnsgd1na2vs0mg"},{"bike_id":"d0ed36b4-3c5a-4da6-8fb4-955c321dd03a","system_id":"levelo_inurba_marseille","lat":43.27515,"lon":5.41027,"is_reserved":false,"is_disabled":false,"rental_uris":{"android":"levelo://app?vid=d0ed36b4-3c5a-4da6-8fb4-955c321dd03a","ios":"levelo://app?vid=d0ed36b4-3c5a-4da6-8fb4-955c321dd03a"},"vehicle_type_id":"4","last_reported":1743343664,"current_range_meters":8400,"station_id":"","pricing_plan_id":"cebpf4jnsgd1na2vs0mg"},{"bike_id":"8641288b-fed2-4686-a436-e26d55ff916e","system_id":"levelo_inurba_marseille","lat":43.28419,"lon":5.34981,"is_reserved":false,"is_disabled":false,"rental_uris":{"android":"levelo://app?vid=8641288b-fed2-4686-a436-e26d55ff916e","ios":"levelo://app?vid=8641288b-fed2-4686-a436-e26d55ff916e"},"vehicle_type_id":"4","last_reported":1743343664,"current_range_meters":8400,"station_id":"ce4bhbh2rcd13ifvqepg","pricing_plan_id":"cebpf4jnsgd1na2vs0mg"},{"bike_id":"42bc7b23-0e2f-4d72-b583-40bcdabb28c7","system_id":"levelo_inurba_marseille","lat":43.29543,"lon":5.3738,"is_reserved":false,"is_disabled":false,"rental_uris":{"android":"levelo://app?vid=42bc7b23-0e2f-4d72-b583-40bcdabb28c7","ios":"levelo://app?vid=42bc7b23-0e2f-4d72-b583-40bcdabb28c7"},"vehicle_type_id":"4","last_reported":1743343664,"current_range_meters":8400,"station_id":"","pricing_plan_id":"cebpf4jnsgd1na2vs0mg"},{"bike_id":"66b59f3e-090f-45bc-91ed-a1000b13d2d4","system_id":"levelo_inurba_marseille","lat":43.2927,"lon":5.36855,"is_reserved":false,"is_disabled":true,"rental_uris":{"android":"levelo://app?vid=66b59f3e-090f-45bc-91ed-a1000b13d2d4","ios":"levelo://app?vid=66b59f3e-090f-45bc-91ed-a1000b13d2d4"},"vehicle_type_id":"4","last_reported":1743343664,"current_range_meters":8400,"station_id":"ce4bhbp2rcd13ifvqesg","pricing_plan_id":"cebpf4jnsgd1na2vs0mg"},{"bike_id":"92bfecbf-789d-4c73-ae76-0e5a1e2a6e8a","system_id":"levelo_inurba_marseille","lat":43.25586,"lon":5.38234,"is_reserved":false,"is_disabled":false,"rental_uris":{"android":"levelo://app?vid=92bfecbf-789d-4c73-ae76-0e5a1e2a6e8a","ios":"levelo://app?vid=92bfecbf-789d-4c73-ae76-0e5a1e2a6e8a"},"vehicle_type_id":"4","last_reported":1743343664,"current_range_meters":8400,"station_id":"ce4bhih2rcd13ifvqfs0","pricing_plan_id":"cebpf4jnsgd1na2vs0mg"},{"bike_id":"1adfec18-edad-4215-845d-68da8da924b9","system_id":"levelo_inurba_marseille","lat":43.2319,"lon":5.3558,"is_reserved":false,"is_disabled":false,"rental_uris":{"android":"levelo://app?vid=1adfec18-edad-4215-845d-68da8da924b9","ios":"levelo://app?vid=1adfec18-edad-4215-845d-68da8da924b9"},"vehicle_type_id":"4","last_reported":1743343664,"current_range_meters":8400,"station_id":"ce4bhu92rcd13ifvqi70","pricing_plan_id":"cebpf4jnsgd1na2vs0mg"},{"bike_id":"66562d74-981f-4fea-946f-99846e1a6b22","system_id":"levelo_inurba_marseille","lat":43.23058,"lon":5.35497,"is_reserved":false,"is_disabled":false,"rental_uris":{"android":"levelo://app?vid=66562d74-981f-4fea-946f-99846e1a6b22","ios":"levelo://app?vid=66562d74-981f-4fea-946f-99846e1a6b22"},"vehicle_type_id":"4","last_reported":1743343664,"current_range_meters":8400,"station_id":"cpo3342slgdg3j2ifvpg","pricing_plan_id":"cebpf4jnsgd1na2vs0mg"},{"bike_id":"488767ae-a52a-41d7-8f9a-e947164469f3","system_id":"levelo_inurba_marseille","lat":43.31624,"lon":5.41652,"is_reserved":false,"is_disabled":true,"rental_uris":{"android":"levelo://app?vid=488767ae-a52a-41d7-8f9a-e947164469f3","ios":"levelo://app?vid=488767ae-a52a-41d7-8f9a-e947164469f3"},"vehicle_type_id":"4","last_reported":1743343664,"current_range_meters":8400,"station_id":"","pricing_plan_id":"cebpf4jnsgd1na2vs0mg"},{"bike_id":"747d2bc2-6706-42d9-8381-8fcc8fac62bd","system_id":"levelo_inurba_marseille","lat":43.28679,"lon":5.37006,"is_reserved":false,"is_disabled":true,"rental_uris":{"android":"levelo://app?vid=747d2bc2-6706-42d9-8381-8fcc8fac62bd","ios":"levelo://app?vid=747d2bc2-6706-42d9-8381-8fcc8fac62bd"},"vehicle_type_id":"4","last_reported":1743343664,"current_range_meters":8400,"station_id":"","pricing_plan_id":"cebpf4jnsgd1na2vs0mg"},{"bike_id":"3fe8f393-7a01-4749-b56d-ced663f246a5","system_id":"levelo_inurba_marseille","lat":43.2397,"lon":5.36615,"is_reserved":false,"is_disabled":false,"rental_uris":{"android":"levelo://app?vid=3fe8f393-7a01-4749-b56d-ced663f246a5","ios":"levelo://app?vid=3fe8f393-7a01-4749-b56d-ced663f246a5"},"vehicle_type_id":"4","last_reported":1743343664,"current_range_meters":8400,"station_id":"ce4bhi12rcd13ifvqfp0","pricing_plan_id":"cebpf4jnsgd1na2vs0mg"},{"bike_id":"99864047-3ac3-45c4-a913-53ee9cea7446","system_id":"levelo_inurba_marseille","lat":43.28698,"lon":5.37402,"is_reserved":false,"is_disabled":true,"rental_uris":{"android":"levelo://app?vid=99864047-3ac3-45c4-a913-53ee9cea7446","ios":"levelo://app?vid=99864047-3ac3-45c4-a913-53ee9cea7446"},"vehicle_type_id":"4","last_reported":1743343664,"current_range_meters":8400,"station_id":"ce4bh3p2rcd13ifvqdq0","pricing_plan_id":"cebpf4jnsgd1na2vs0mg"},{"bike_id":"985e04e2-0080-460b-ba49-8db7cf3effda","system_id":"levelo_inurba_marseille","lat":43.24165,"lon":5.36402,"is_reserved":false,"is_disabled":false,"rental_uris":{"android":"levelo://app?vid=985e04e2-0080-460b-ba49-8db7cf3effda","ios":"levelo://app?vid=985e04e2-0080-460b-ba49-8db7cf3effda"},"vehicle_type_id":"4","last_reported":1743343664,"current_range_meters":8400,"station_id":"cpo36qri1sfpv3e86is0","pricing_plan_id":"cebpf4jnsgd1na2vs0mg"},{"bike_id":"46e54e14-ce3a-47bf-afe4-8965663cde2c","system_id":"levelo_inurba_marseille","lat":43.28623,"lon":5.3511,"is_reserved":false,"is_disabled":false,"rental_uris":{"android":"levelo://app?vid=46e54e14-ce3a-47bf-afe4-8965663cde2c","ios":"levelo://app?vid=46e54e14-ce3a-47bf-afe4-8965663cde2c"},"vehicle_type_id":"4","last_reported":1743343664,"current_range_meters":8400,"station_id":"ce4bhch2rcd13ifvqeug","pricing_plan_id":"cebpf4jnsgd1na2vs0mg"},{"bike_id":"92998a18-a3d8-4f92-9ccd-1cd607b9f500","system_id":"levelo_inurba_marseille","lat":43.25592,"lon":5.38223,"is_reserved":false,"is_disabled":false,"rental_uris":{"android":"levelo://app?vid=92998a18-a3d8-4f92-9ccd-1cd607b9f500","ios":"levelo://app?vid=92998a18-a3d8-4f92-9ccd-1cd607b9f500"},"vehicle_type_id":"4","last_reported":1743343664,"current_range_meters":8400,"station_id":"ce4bhih2rcd13ifvqfs0","pricing_plan_id":"cebpf4jnsgd1na2vs0mg"},{"bike_id":"25bb5fbc-8229-4010-b703-31f5ee6ac141","system_id":"levelo_inurba_marseille","lat":43.3063,"lon":5.36571,"is_reserved":false,"is_disabled":false,"rental_uris":{"android":"levelo://app?vid=25bb5fbc-8229-4010-b703-31f5ee6ac141","ios":"levelo://app?vid=25bb5fbc-8229-4010-b703-31f5ee6ac141"},"vehicle_type_id":"4","last_reported":1743343664,"current_range_meters":8800,"station_id":"","pricing_plan_id":"cebpf4jnsgd1na2vs0mg"},{"bike_id":"334da490-8ea6-4ec7-a59d-a3880a5e3d1e","system_id":"levelo_inurba_marseille","lat":43.273696,"lon":5.362526,"is_reserved":false,"is_disabled":false,"rental_uris":{"android":"levelo://app?vid=334da490-8ea6-4ec7-a59d-a3880a5e3d1e","ios":"levelo://app?vid=334da490-8ea6-4ec7-a59d-a3880a5e3d1e"},"vehicle_type_id":"4","last_reported":1743343664,"current_range_meters":8800,"station_id":"ce4bhbh2rcd13ifvqeo0","pricing_plan_id":"cebpf4jnsgd1na2vs0mg"},{"bike_id":"915f875a-1d86-4319-b636-2c4274059607","system_id":"levelo_inurba_marseille","lat":43.24164,"lon":5.36442,"is_reserved":false,"is_disabled":false,"rental_uris":{"android":"levelo://app?vid=915f875a-1d86-4319-b636-2c4274059607","ios":"levelo://app?vid=915f875a-1d86-4319-b636-2c4274059607"},"vehicle_type_id":"4","last_reported":1743343664,"current_range_meters":8800,"station_id":"cpo36qri1sfpv3e86is0","pricing_plan_id":"cebpf4jnsgd1na2vs0mg"},{"bike_id":"3d74a7f4-e1e9-4588-bd2a-1c4f6c61fa9a","system_id":"levelo_inurba_marseille","lat":43.29786,"lon":5.37096,"is_reserved":false,"is_disabled":false,"rental_uris":{"android":"levelo://app?vid=3d74a7f4-e1e9-4588-bd2a-1c4f6c61fa9a","ios":"levelo://app?vid=3d74a7f4-e1e9-4588-bd2a-1c4f6c61fa9a"},"vehicle_type_id":"4","last_reported":1743343664,"current_range_meters":8800,"station_id":"ce4bgop2rcd13ifvqc1g","pricing_plan_id":"cebpf4jnsgd1na2vs0mg"},{"bike_id":"d174bfd1-b7ac-402a-862d-2a9ea1599c71","system_id":"levelo_inurba_marseille","lat":43.25498,"lon":5.37651,"is_reserved":false,"is_disabled":false,"rental_uris":{"android":"levelo://app?vid=d174bfd1-b7ac-402a-862d-2a9ea1599c71","ios":"levelo://app?vid=d174bfd1-b7ac-402a-862d-2a9ea1599c71"},"vehicle_type_id":"4","last_reported":1743343664,"current_range_meters":8800,"station_id":"ce4bhh12rcd13ifvqff0","pricing_plan_id":"cebpf4jnsgd1na2vs0mg"},{"bike_id":"adbaefcb-77f8-4d24-9c51-5bcc981799d8","system_id":"levelo_inurba_marseille","lat":43.27371,"lon":5.36255,"is_reserved":false,"is_disabled":false,"rental_uris":{"android":"levelo://app?vid=adbaefcb-77f8-4d24-9c51-5bcc981799d8","ios":"levelo://app?vid=adbaefcb-77f8-4d24-9c51-5bcc981799d8"},"vehicle_type_id":"4","last_reported":1743343664,"current_range_meters":8800,"station_id":"ce4bhbh2rcd13ifvqeo0","pricing_plan_id":"cebpf4jnsgd1na2vs0mg"},{"bike_id":"24601954-542f-475a-b806-d93eb1813924","system_id":"levelo_inurba_marseille","lat":43.2306,"lon":5.35493,"is_reserved":false,"is_disabled":false,"rental_uris":{"android":"levelo://app?vid=24601954-542f-475a-b806-d93eb1813924","ios":"levelo://app?vid=24601954-542f-475a-b806-d93eb1813924"},"vehicle_type_id":"4","last_reported":1743343664,"current_range_meters":8800,"station_id":"cpo3342slgdg3j2ifvpg","pricing_plan_id":"cebpf4jnsgd1na2vs0mg"},{"bike_id":"076ba156-4462-4808-8c1c-e75845d65149","system_id":"levelo_inurba_marseille","lat":43.24185,"lon":5.39727,"is_reserved":false,"is_disabled":false,"rental_uris":{"android":"levelo://app?vid=076ba156-4462-4808-8c1c-e75845d65149","ios":"levelo://app?vid=076ba156-4462-4808-8c1c-e75845d65149"},"vehicle_type_id":"4","last_reported":1743343664,"current_range_meters":8800,"station_id":"ce4bhn12rcd13ifvqgpg","pricing_plan_id":"cebpf4jnsgd1na2vs0mg"},{"bike_id":"5a61ead7-9472-4d81-903b-6bcd5d64da48","system_id":"levelo_inurba_marseille","lat":43.27367,"lon":5.36239,"is_reserved":false,"is_disabled":false,"rental_uris":{"android":"levelo://app?vid=5a61ead7-9472-4d81-903b-6bcd5d64da48","ios":"levelo://app?vid=5a61ead7-9472-4d81-903b-6bcd5d64da48"},"vehicle_type_id":"4","last_reported":1743343664,"current_range_meters":8800,"station_id":"ce4bhbh2rcd13ifvqeo0","pricing_plan_id":"cebpf4jnsgd1na2vs0mg"},{"bike_id":"4576df33-62a6-4a82-9ad2-6633066a7f89","system_id":"levelo_inurba_marseille","lat":43.30794,"lon":5.38122,"is_reserved":false,"is_disabled":false,"rental_uris":{"android":"levelo://app?vid=4576df33-62a6-4a82-9ad2-6633066a7f89","ios":"levelo://app?vid=4576df33-62a6-4a82-9ad2-6633066a7f89"},"vehicle_type_id":"4","last_reported":1743343664,"current_range_meters":8800,"station_id":"ce4bgt12rcd13ifvqce0","pricing_plan_id":"cebpf4jnsgd1na2vs0mg"},{"bike_id":"95ae2f73-d331-46bf-b1b1-e69e98400250","system_id":"levelo_inurba_marseille","lat":43.23068,"lon":5.355,"is_reserved":false,"is_disabled":false,"rental_uris":{"android":"levelo://app?vid=95ae2f73-d331-46bf-b1b1-e69e98400250","ios":"levelo://app?vid=95ae2f73-d331-46bf-b1b1-e69e98400250"},"vehicle_type_id":"4","last_reported":1743343664,"current_range_meters":9200,"station_id":"cpo3342slgdg3j2ifvpg","pricing_plan_id":"cebpf4jnsgd1na2vs0mg"},{"bike_id":"410caa6a-2b26-4d91-bb4c-5dbe88c8cadf","system_id":"levelo_inurba_marseille","lat":43.25117,"lon":5.40321,"is_reserved":false,"is_disabled":false,"rental_uris":{"android":"levelo://app?vid=410caa6a-2b26-4d91-bb4c-5dbe88c8cadf","ios":"levelo://app?vid=410caa6a-2b26-4d91-bb4c-5dbe88c8cadf"},"vehicle_type_id":"4","last_reported":1743343664,"current_range_meters":8800,"station_id":"ce4bhlh2rcd13ifvqgig","pricing_plan_id":"cebpf4jnsgd1na2vs0mg"},{"bike_id":"d74005a9-0b50-4e4f-8439-9c8b5332da24","system_id":"levelo_inurba_marseille","lat":43.229389,"lon":5.353814,"is_reserved":false,"is_disabled":false,"rental_uris":{"android":"levelo://app?vid=d74005a9-0b50-4e4f-8439-9c8b5332da24","ios":"levelo://app?vid=d74005a9-0b50-4e4f-8439-9c8b5332da24"},"vehicle_type_id":"4","last_reported":1743343664,"current_range_meters":9200,"station_id":"cpo3532slgdg3j2ikp40","pricing_plan_id":"cebpf4jnsgd1na2vs0mg"},{"bike_id":"76d4ed16-8625-4a14-a5f1-d28ac2574c13","system_id":"levelo_inurba_marseille","lat":43.245479,"lon":5.39534,"is_reserved":false,"is_disabled":false,"rental_uris":{"android":"levelo://app?vid=76d4ed16-8625-4a14-a5f1-d28ac2574c13","ios":"levelo://app?vid=76d4ed16-8625-4a14-a5f1-d28ac2574c13"},"vehicle_type_id":"4","last_reported":1743343664,"current_range_meters":9200,"station_id":"ce4bhlp2rcd13ifvqgjg","pricing_plan_id":"cebpf4jnsgd1na2vs0mg"},{"bike_id":"c2f868c8-1c0b-43da-bff4-7864186810d0","system_id":"levelo_inurba_marseille","lat":43.23969,"lon":5.36628,"is_reserved":false,"is_disabled":false,"rental_uris":{"android":"levelo://app?vid=c2f868c8-1c0b-43da-bff4-7864186810d0","ios":"levelo://app?vid=c2f868c8-1c0b-43da-bff4-7864186810d0"},"vehicle_type_id":"4","last_reported":1743343664,"current_range_meters":9200,"station_id":"ce4bhi12rcd13ifvqfp0","pricing_plan_id":"cebpf4jnsgd1na2vs0mg"},{"bike_id":"786ca291-0745-47bd-bf06-fa02734e0274","system_id":"levelo_inurba_marseille","lat":43.30536,"lon":5.36552,"is_reserved":false,"is_disabled":false,"rental_uris":{"android":"levelo://app?vid=786ca291-0745-47bd-bf06-fa02734e0274","ios":"levelo://app?vid=786ca291-0745-47bd-bf06-fa02734e0274"},"vehicle_type_id":"4","last_reported":1743343664,"current_range_meters":9200,"station_id":"ce4bgs12rcd13ifvqcag","pricing_plan_id":"cebpf4jnsgd1na2vs0mg"},{"bike_id":"c1666613-d3bf-4e92-a8d7-ee7337a4c4ed","system_id":"levelo_inurba_marseille","lat":43.2738,"lon":5.36246,"is_reserved":false,"is_disabled":false,"rental_uris":{"android":"levelo://app?vid=c1666613-d3bf-4e92-a8d7-ee7337a4c4ed","ios":"levelo://app?vid=c1666613-d3bf-4e92-a8d7-ee7337a4c4ed"},"vehicle_type_id":"4","last_reported":1743343664,"current_range_meters":9200,"station_id":"ce4bhbh2rcd13ifvqeo0","pricing_plan_id":"cebpf4jnsgd1na2vs0mg"},{"bike_id":"01769a8b-2b42-4716-9a6c-356cec357c35","system_id":"levelo_inurba_marseille","lat":43.22929,"lon":5.35375,"is_reserved":false,"is_disabled":false,"rental_uris":{"android":"levelo://app?vid=01769a8b-2b42-4716-9a6c-356cec357c35","ios":"levelo://app?vid=01769a8b-2b42-4716-9a6c-356cec357c35"},"vehicle_type_id":"4","last_reported":1743343664,"current_range_meters":9200,"station_id":"cpo3532slgdg3j2ikp40","pricing_plan_id":"cebpf4jnsgd1na2vs0mg"},{"bike_id":"73484ef5-38ac-45ee-8637-95752d42965e","system_id":"levelo_inurba_marseille","lat":43.30984,"lon":5.37975,"is_reserved":false,"is_disabled":true,"rental_uris":{"android":"levelo://app?vid=73484ef5-38ac-45ee-8637-95752d42965e","ios":"levelo://app?vid=73484ef5-38ac-45ee-8637-95752d42965e"},"vehicle_type_id":"4","last_reported":1743343664,"current_range_meters":9200,"station_id":"","pricing_plan_id":"cebpf4jnsgd1na2vs0mg"},{"bike_id":"4db2abe8-ddc9-429c-adec-3c515a3e8b3c","system_id":"levelo_inurba_marseille","lat":43.2407,"lon":5.37756,"is_reserved":false,"is_disabled":false,"rental_uris":{"android":"levelo://app?vid=4db2abe8-ddc9-429c-adec-3c515a3e8b3c","ios":"levelo://app?vid=4db2abe8-ddc9-429c-adec-3c515a3e8b3c"},"vehicle_type_id":"4","last_reported":1743343664,"current_range_meters":9200,"station_id":"ce4bhnp2rcd13ifvqgvg","pricing_plan_id":"cebpf4jnsgd1na2vs0mg"},{"bike_id":"3b3d1534-8b1f-493a-8814-17c67568c9ba","system_id":"levelo_inurba_marseille","lat":43.282383,"lon":5.350761,"is_reserved":false,"is_disabled":false,"rental_uris":{"android":"levelo://app?vid=3b3d1534-8b1f-493a-8814-17c67568c9ba","ios":"levelo://app?vid=3b3d1534-8b1f-493a-8814-17c67568c9ba"},"vehicle_type_id":"4","last_reported":1743343664,"current_range_meters":9200,"station_id":"ce4bhg12rcd13ifvqf70","pricing_plan_id":"cebpf4jnsgd1na2vs0mg"},{"bike_id":"21b7dfed-4bf3-42a6-9071-9b2b5259da3c","system_id":"levelo_inurba_marseille","lat":43.29635,"lon":5.37147,"is_reserved":false,"is_disabled":true,"rental_uris":{"android":"levelo://app?vid=21b7dfed-4bf3-42a6-9071-9b2b5259da3c","ios":"levelo://app?vid=21b7dfed-4bf3-42a6-9071-9b2b5259da3c"},"vehicle_type_id":"4","last_reported":1743343664,"current_range_meters":9200,"station_id":"ce4bgnh2rcd13ifvqc0g","pricing_plan_id":"cebpf4jnsgd1na2vs0mg"},{"bike_id":"bf68685d-37ae-4481-b413-05ee2fd8c534","system_id":"levelo_inurba_marseille","lat":43.27376,"lon":5.36251,"is_reserved":false,"is_disabled":false,"rental_uris":{"android":"levelo://app?vid=bf68685d-37ae-4481-b413-05ee2fd8c534","ios":"levelo://app?vid=bf68685d-37ae-4481-b413-05ee2fd8c534"},"vehicle_type_id":"4","last_reported":1743343664,"current_range_meters":9200,"station_id":"ce4bhbh2rcd13ifvqeo0","pricing_plan_id":"cebpf4jnsgd1na2vs0mg"},{"bike_id":"d1129ff3-7b20-4fc9-aa22-1037303858d8","system_id":"levelo_inurba_marseille","lat":43.30541,"lon":5.36556,"is_reserved":false,"is_disabled":false,"rental_uris":{"android":"levelo://app?vid=d1129ff3-7b20-4fc9-aa22-1037303858d8","ios":"levelo://app?vid=d1129ff3-7b20-4fc9-aa22-1037303858d8"},"vehicle_type_id":"4","last_reported":1743343664,"current_range_meters":10000,"station_id":"ce4bgs12rcd13ifvqcag","pricing_plan_id":"cebpf4jnsgd1na2vs0mg"},{"bike_id":"0d9871f9-4a6d-47f1-9805-8cc449b7c973","system_id":"levelo_inurba_marseille","lat":43.28402,"lon":5.37521,"is_reserved":false,"is_disabled":false,"rental_uris":{"android":"levelo://app?vid=0d9871f9-4a6d-47f1-9805-8cc449b7c973","ios":"levelo://app?vid=0d9871f9-4a6d-47f1-9805-8cc449b7c973"},"vehicle_type_id":"4","last_reported":1743343664,"current_range_meters":9600,"station_id":"ce4bh412rcd13ifvqds0","pricing_plan_id":"cebpf4jnsgd1na2vs0mg"},{"bike_id":"7b9d9c17-c4e3-4286-b986-9fa38ace3f6e","system_id":"levelo_inurba_marseille","lat":43.23197,"lon":5.39982,"is_reserved":false,"is_disabled":false,"rental_uris":{"android":"levelo://app?vid=7b9d9c17-c4e3-4286-b986-9fa38ace3f6e","ios":"levelo://app?vid=7b9d9c17-c4e3-4286-b986-9fa38ace3f6e"},"vehicle_type_id":"4","last_reported":1743343664,"current_range_meters":9600,"station_id":"ce4bhn12rcd13ifvqgqg","pricing_plan_id":"cebpf4jnsgd1na2vs0mg"},{"bike_id":"66c6c27f-83f5-4438-9304-ca7089cbb090","system_id":"levelo_inurba_marseille","lat":43.23184,"lon":5.39988,"is_reserved":false,"is_disabled":false,"rental_uris":{"android":"levelo://app?vid=66c6c27f-83f5-4438-9304-ca7089cbb090","ios":"levelo://app?vid=66c6c27f-83f5-4438-9304-ca7089cbb090"},"vehicle_type_id":"4","last_reported":1743343664,"current_range_meters":9600,"station_id":"ce4bhn12rcd13ifvqgqg","pricing_plan_id":"cebpf4jnsgd1na2vs0mg"},{"bike_id":"d09fcea4-8e7f-4c95-a4cd-507616f3a687","system_id":"levelo_inurba_marseille","lat":43.27363,"lon":5.36245,"is_reserved":false,"is_disabled":false,"rental_uris":{"android":"levelo://app?vid=d09fcea4-8e7f-4c95-a4cd-507616f3a687","ios":"levelo://app?vid=d09fcea4-8e7f-4c95-a4cd-507616f3a687"},"vehicle_type_id":"4","last_reported":1743343664,"current_range_meters":9600,"station_id":"ce4bhbh2rcd13ifvqeo0","pricing_plan_id":"cebpf4jnsgd1na2vs0mg"},{"bike_id":"f55695a6-b65f-4a30-99ab-94b2bfa63268","system_id":"levelo_inurba_marseille","lat":43.23197,"lon":5.35546,"is_reserved":false,"is_disabled":false,"rental_uris":{"android":"levelo://app?vid=f55695a6-b65f-4a30-99ab-94b2bfa63268","ios":"levelo://app?vid=f55695a6-b65f-4a30-99ab-94b2bfa63268"},"vehicle_type_id":"4","last_reported":1743343664,"current_range_meters":9600,"station_id":"ce4bhu92rcd13ifvqi70","pricing_plan_id":"cebpf4jnsgd1na2vs0mg"},{"bike_id":"fb5a3640-c2bd-4d5a-a532-631ac7449c3d","system_id":"levelo_inurba_marseille","lat":43.28015,"lon":5.40934,"is_reserved":false,"is_disabled":false,"rental_uris":{"android":"levelo://app?vid=fb5a3640-c2bd-4d5a-a532-631ac7449c3d","ios":"levelo://app?vid=fb5a3640-c2bd-4d5a-a532-631ac7449c3d"},"vehicle_type_id":"4","last_reported":1743343664,"current_range_meters":9600,"station_id":"","pricing_plan_id":"cebpf4jnsgd1na2vs0mg"},{"bike_id":"ddbfb594-94fd-4b03-b776-b612bade417d","system_id":"levelo_inurba_marseille","lat":43.28249,"lon":5.35074,"is_reserved":false,"is_disabled":false,"rental_uris":{"android":"levelo://app?vid=ddbfb594-94fd-4b03-b776-b612bade417d","ios":"levelo://app?vid=ddbfb594-94fd-4b03-b776-b612bade417d"},"vehicle_type_id":"4","last_reported":1743343664,"current_range_meters":9600,"station_id":"ce4bhbp2rcd13ifvqerg","pricing_plan_id":"cebpf4jnsgd1na2vs0mg"},{"bike_id":"653ea6de-a177-4007-9cfa-5f3f77e975f6","system_id":"levelo_inurba_marseille","lat":43.2483,"lon":5.37467,"is_reserved":false,"is_disabled":false,"rental_uris":{"android":"levelo://app?vid=653ea6de-a177-4007-9cfa-5f3f77e975f6","ios":"levelo://app?vid=653ea6de-a177-4007-9cfa-5f3f77e975f6"},"vehicle_type_id":"4","last_reported":1743343664,"current_range_meters":9600,"station_id":"ce4bhgh2rcd13ifvqfb0","pricing_plan_id":"cebpf4jnsgd1na2vs0mg"},{"bike_id":"021ec43d-3924-4fb4-978b-1a91a04fd1fb","system_id":"levelo_inurba_marseille","lat":43.24387,"lon":5.37056,"is_reserved":false,"is_disabled":false,"rental_uris":{"android":"levelo://app?vid=021ec43d-3924-4fb4-978b-1a91a04fd1fb","ios":"levelo://app?vid=021ec43d-3924-4fb4-978b-1a91a04fd1fb"},"vehicle_type_id":"4","last_reported":1743343664,"current_range_meters":9600,"station_id":"ce4bhhh2rcd13ifvqfk0","pricing_plan_id":"cebpf4jnsgd1na2vs0mg"},{"bike_id":"048d63ce-c532-45f5-af59-48d60a309f7b","system_id":"levelo_inurba_marseille","lat":43.27374,"lon":5.36255,"is_reserved":false,"is_disabled":false,"rental_uris":{"android":"levelo://app?vid=048d63ce-c532-45f5-af59-48d60a309f7b","ios":"levelo://app?vid=048d63ce-c532-45f5-af59-48d60a309f7b"},"vehicle_type_id":"4","last_reported":1743343664,"current_range_meters":10000,"station_id":"ce4bhbh2rcd13ifvqeo0","pricing_plan_id":"cebpf4jnsgd1na2vs0mg"},{"bike_id":"a3032914-b09e-48b2-80a6-a4bbdee82e35","system_id":"levelo_inurba_marseille","lat":43.29512,"lon":5.37509,"is_reserved":false,"is_disabled":false,"rental_uris":{"android":"levelo://app?vid=a3032914-b09e-48b2-80a6-a4bbdee82e35","ios":"levelo://app?vid=a3032914-b09e-48b2-80a6-a4bbdee82e35"},"vehicle_type_id":"4","last_reported":1743343664,"current_range_meters":10000,"station_id":"ce4bgkp2rcd13ifvqbmg","pricing_plan_id":"cebpf4jnsgd1na2vs0mg"},{"bike_id":"a1321fca-eebd-476b-bc9b-7e611b5940ae","system_id":"levelo_inurba_marseille","lat":43.28286,"lon":5.35091,"is_reserved":false,"is_disabled":false,"rental_uris":{"android":"levelo://app?vid=a1321fca-eebd-476b-bc9b-7e611b5940ae","ios":"levelo://app?vid=a1321fca-eebd-476b-bc9b-7e611b5940ae"},"vehicle_type_id":"4","last_reported":1743343664,"current_range_meters":10000,"station_id":"ce4bhbp2rcd13ifvqerg","pricing_plan_id":"cebpf4jnsgd1na2vs0mg"},{"bike_id":"30f3b512-c138-431b-943a-0283bc4d8d83","system_id":"levelo_inurba_marseille","lat":43.22945,"lon":5.35378,"is_reserved":false,"is_disabled":false,"rental_uris":{"android":"levelo://app?vid=30f3b512-c138-431b-943a-0283bc4d8d83","ios":"levelo://app?vid=30f3b512-c138-431b-943a-0283bc4d8d83"},"vehicle_type_id":"4","last_reported":1743343664,"current_range_meters":10000,"station_id":"cpo3532slgdg3j2ikp40","pricing_plan_id":"cebpf4jnsgd1na2vs0mg"},{"bike_id":"7d514da2-e65c-4def-a080-f2b4896518a4","system_id":"levelo_inurba_marseille","lat":43.284119,"lon":5.349852,"is_reserved":false,"is_disabled":false,"rental_uris":{"android":"levelo://app?vid=7d514da2-e65c-4def-a080-f2b4896518a4","ios":"levelo://app?vid=7d514da2-e65c-4def-a080-f2b4896518a4"},"vehicle_type_id":"4","last_reported":1743343664,"current_range_meters":10000,"station_id":"ce4bhbh2rcd13ifvqepg","pricing_plan_id":"cebpf4jnsgd1na2vs0mg"},{"bike_id":"e4de9b1b-ab23-4b88-b279-c5a53e8e4924","system_id":"levelo_inurba_marseille","lat":43.25496,"lon":5.37646,"is_reserved":false,"is_disabled":false,"rental_uris":{"android":"levelo://app?vid=e4de9b1b-ab23-4b88-b279-c5a53e8e4924","ios":"levelo://app?vid=e4de9b1b-ab23-4b88-b279-c5a53e8e4924"},"vehicle_type_id":"4","last_reported":1743343664,"current_range_meters":10000,"station_id":"ce4bhh12rcd13ifvqff0","pricing_plan_id":"cebpf4jnsgd1na2vs0mg"},{"bike_id":"d2802dea-2d14-4a22-8ad7-cf9d3c8e54b2","system_id":"levelo_inurba_marseille","lat":43.25499,"lon":5.37653,"is_reserved":false,"is_disabled":false,"rental_uris":{"android":"levelo://app?vid=d2802dea-2d14-4a22-8ad7-cf9d3c8e54b2","ios":"levelo://app?vid=d2802dea-2d14-4a22-8ad7-cf9d3c8e54b2"},"vehicle_type_id":"4","last_reported":1743343664,"current_range_meters":10000,"station_id":"ce4bhh12rcd13ifvqff0","pricing_plan_id":"cebpf4jnsgd1na2vs0mg"},{"bike_id":"86f139b9-ffd3-4a79-86e8-d22d017328ee","system_id":"levelo_inurba_marseille","lat":43.34748,"lon":5.38152,"is_reserved":false,"is_disabled":false,"rental_uris":{"android":"levelo://app?vid=86f139b9-ffd3-4a79-86e8-d22d017328ee","ios":"levelo://app?vid=86f139b9-ffd3-4a79-86e8-d22d017328ee"},"vehicle_type_id":"4","last_reported":1743343664,"current_range_meters":10000,"station_id":"","pricing_plan_id":"cebpf4jnsgd1na2vs0mg"},{"bike_id":"8bcc045e-f28b-442a-a0af-38457b26197c","system_id":"levelo_inurba_marseille","lat":43.24151,"lon":5.36448,"is_reserved":false,"is_disabled":false,"rental_uris":{"android":"levelo://app?vid=8bcc045e-f28b-442a-a0af-38457b26197c","ios":"levelo://app?vid=8bcc045e-f28b-442a-a0af-38457b26197c"},"vehicle_type_id":"4","last_reported":1743343664,"current_range_meters":10000,"station_id":"cpo36qri1sfpv3e86is0","pricing_plan_id":"cebpf4jnsgd1na2vs0mg"},{"bike_id":"7cb8b312-a229-4e04-9474-b9f757c6cc74","system_id":"levelo_inurba_marseille","lat":43.273724,"lon":5.362548,"is_reserved":false,"is_disabled":false,"rental_uris":{"android":"levelo://app?vid=7cb8b312-a229-4e04-9474-b9f757c6cc74","ios":"levelo://app?vid=7cb8b312-a229-4e04-9474-b9f757c6cc74"},"vehicle_type_id":"4","last_reported":1743343664,"current_range_meters":10000,"station_id":"ce4bhbh2rcd13ifvqeo0","pricing_plan_id":"cebpf4jnsgd1na2vs0mg"},{"bike_id":"6fd61ef2-1620-41a0-9433-5374a085b2f5","system_id":"levelo_inurba_marseille","lat":43.24392,"lon":5.37058,"is_reserved":false,"is_disabled":false,"rental_uris":{"android":"levelo://app?vid=6fd61ef2-1620-41a0-9433-5374a085b2f5","ios":"levelo://app?vid=6fd61ef2-1620-41a0-9433-5374a085b2f5"},"vehicle_type_id":"4","last_reported":1743343664,"current_range_meters":10000,"station_id":"ce4bhhh2rcd13ifvqfk0","pricing_plan_id":"cebpf4jnsgd1na2vs0mg"},{"bike_id":"dc0aec34-f477-4d55-b7a0-823d87c87c07","system_id":"levelo_inurba_marseille","lat":43.28262,"lon":5.35073,"is_reserved":false,"is_disabled":false,"rental_uris":{"android":"levelo://app?vid=dc0aec34-f477-4d55-b7a0-823d87c87c07","ios":"levelo://app?vid=dc0aec34-f477-4d55-b7a0-823d87c87c07"},"vehicle_type_id":"4","last_reported":1743343664,"current_range_meters":10000,"station_id":"ce4bhbp2rcd13ifvqerg","pricing_plan_id":"cebpf4jnsgd1na2vs0mg"},{"bike_id":"5c49fc8b-b573-44cd-9da2-767f8f7a765b","system_id":"levelo_inurba_marseille","lat":43.31766,"lon":5.39012,"is_reserved":false,"is_disabled":false,"rental_uris":{"android":"levelo://app?vid=5c49fc8b-b573-44cd-9da2-767f8f7a765b","ios":"levelo://app?vid=5c49fc8b-b573-44cd-9da2-767f8f7a765b"},"vehicle_type_id":"4","last_reported":1743343664,"current_range_meters":10800,"station_id":"ce4bhqp2rcd13ifvqhng","pricing_plan_id":"cebpf4jnsgd1na2vs0mg"},{"bike_id":"52cd3cb6-4462-4356-9222-57f0529656b0","system_id":"levelo_inurba_marseille","lat":43.23964,"lon":5.36624,"is_reserved":false,"is_disabled":false,"rental_uris":{"android":"levelo://app?vid=52cd3cb6-4462-4356-9222-57f0529656b0","ios":"levelo://app?vid=52cd3cb6-4462-4356-9222-57f0529656b0"},"vehicle_type_id":"4","last_reported":1743343664,"current_range_meters":10800,"station_id":"ce4bhi12rcd13ifvqfp0","pricing_plan_id":"cebpf4jnsgd1na2vs0mg"},{"bike_id":"1db49edd-6de7-48f9-b18a-23a07e8ebd2c","system_id":"levelo_inurba_marseille","lat":43.23195,"lon":5.35552,"is_reserved":false,"is_disabled":false,"rental_uris":{"android":"levelo://app?vid=1db49edd-6de7-48f9-b18a-23a07e8ebd2c","ios":"levelo://app?vid=1db49edd-6de7-48f9-b18a-23a07e8ebd2c"},"vehicle_type_id":"4","last_reported":1743343664,"current_range_meters":10800,"station_id":"ce4bhu92rcd13ifvqi70","pricing_plan_id":"cebpf4jnsgd1na2vs0mg"},{"bike_id":"00de6555-2f94-4115-ad2a-3ade2466de77","system_id":"levelo_inurba_marseille","lat":43.29538,"lon":5.3855,"is_reserved":false,"is_disabled":true,"rental_uris":{"android":"levelo://app?vid=00de6555-2f94-4115-ad2a-3ade2466de77","ios":"levelo://app?vid=00de6555-2f94-4115-ad2a-3ade2466de77"},"vehicle_type_id":"4","last_reported":1743343664,"current_range_meters":10800,"station_id":"ce4bgih2rcd13ifvqba0","pricing_plan_id":"cebpf4jnsgd1na2vs0mg"},{"bike_id":"bfcad82b-6acc-493c-b418-93ec0bae17e4","system_id":"levelo_inurba_marseille","lat":43.32113,"lon":5.367721,"is_reserved":false,"is_disabled":false,"rental_uris":{"android":"levelo://app?vid=bfcad82b-6acc-493c-b418-93ec0bae17e4","ios":"levelo://app?vid=bfcad82b-6acc-493c-b418-93ec0bae17e4"},"vehicle_type_id":"4","last_reported":1743343664,"current_range_meters":10800,"station_id":"ce4bhrh2rcd13ifvqhug","pricing_plan_id":"cebpf4jnsgd1na2vs0mg"},{"bike_id":"ba362734-34ca-4bcd-8728-cadb040d6152","system_id":"levelo_inurba_marseille","lat":43.24383,"lon":5.37064,"is_reserved":false,"is_disabled":false,"rental_uris":{"android":"levelo://app?vid=ba362734-34ca-4bcd-8728-cadb040d6152","ios":"levelo://app?vid=ba362734-34ca-4bcd-8728-cadb040d6152"},"vehicle_type_id":"4","last_reported":1743343664,"current_range_meters":10800,"station_id":"ce4bhhh2rcd13ifvqfk0","pricing_plan_id":"cebpf4jnsgd1na2vs0mg"},{"bike_id":"cb8c9ca5-9083-4e86-9e9f-2bc245af5095","system_id":"levelo_inurba_marseille","lat":43.28408,"lon":5.37523,"is_reserved":false,"is_disabled":true,"rental_uris":{"android":"levelo://app?vid=cb8c9ca5-9083-4e86-9e9f-2bc245af5095","ios":"levelo://app?vid=cb8c9ca5-9083-4e86-9e9f-2bc245af5095"},"vehicle_type_id":"4","last_reported":1743343664,"current_range_meters":10800,"station_id":"ce4bh412rcd13ifvqds0","pricing_plan_id":"cebpf4jnsgd1na2vs0mg"},{"bike_id":"1e85f86b-4d36-43a5-a5b1-9dfa07ae7fa1","system_id":"levelo_inurba_marseille","lat":43.28417,"lon":5.34992,"is_reserved":false,"is_disabled":false,"rental_uris":{"android":"levelo://app?vid=1e85f86b-4d36-43a5-a5b1-9dfa07ae7fa1","ios":"levelo://app?vid=1e85f86b-4d36-43a5-a5b1-9dfa07ae7fa1"},"vehicle_type_id":"4","last_reported":1743343664,"current_range_meters":10800,"station_id":"ce4bhbh2rcd13ifvqepg","pricing_plan_id":"cebpf4jnsgd1na2vs0mg"},{"bike_id":"e605d5ca-3ea9-420f-a248-9496269c809e","system_id":"levelo_inurba_marseille","lat":43.32093,"lon":5.36783,"is_reserved":false,"is_disabled":false,"rental_uris":{"android":"levelo://app?vid=e605d5ca-3ea9-420f-a248-9496269c809e","ios":"levelo://app?vid=e605d5ca-3ea9-420f-a248-9496269c809e"},"vehicle_type_id":"4","last_reported":1743343664,"current_range_meters":10800,"station_id":"ce4bhrh2rcd13ifvqhug","pricing_plan_id":"cebpf4jnsgd1na2vs0mg"},{"bike_id":"24e1bca7-228c-4fe5-af46-58ea62e074a0","system_id":"levelo_inurba_marseille","lat":43.28417,"lon":5.34987,"is_reserved":false,"is_disabled":false,"rental_uris":{"android":"levelo://app?vid=24e1bca7-228c-4fe5-af46-58ea62e074a0","ios":"levelo://app?vid=24e1bca7-228c-4fe5-af46-58ea62e074a0"},"vehicle_type_id":"4","last_reported":1743343664,"current_range_meters":11200,"station_id":"ce4bhbh2rcd13ifvqepg","pricing_plan_id":"cebpf4jnsgd1na2vs0mg"},{"bike_id":"840d80d4-fdf8-42c4-8a5b-d713900d2b4b","system_id":"levelo_inurba_marseille","lat":43.28265,"lon":5.3508,"is_reserved":false,"is_disabled":false,"rental_uris":{"android":"levelo://app?vid=840d80d4-fdf8-42c4-8a5b-d713900d2b4b","ios":"levelo://app?vid=840d80d4-fdf8-42c4-8a5b-d713900d2b4b"},"vehicle_type_id":"4","last_reported":1743343664,"current_range_meters":11200,"station_id":"ce4bhbp2rcd13ifvqerg","pricing_plan_id":"cebpf4jnsgd1na2vs0mg"},{"bike_id":"f97f5987-4b91-4099-b3ed-29f6a3200984","system_id":"levelo_inurba_marseille","lat":43.233694,"lon":5.358704,"is_reserved":false,"is_disabled":false,"rental_uris":{"android":"levelo://app?vid=f97f5987-4b91-4099-b3ed-29f6a3200984","ios":"levelo://app?vid=f97f5987-4b91-4099-b3ed-29f6a3200984"},"vehicle_type_id":"4","last_reported":1743343664,"current_range_meters":11200,"station_id":"ce4bhu92rcd13ifvqi70","pricing_plan_id":"cebpf4jnsgd1na2vs0mg"},{"bike_id":"7e46e322-27d9-4f9d-b1ce-11741eb7c78f","system_id":"levelo_inurba_marseille","lat":43.31761,"lon":5.39016,"is_reserved":false,"is_disabled":false,"rental_uris":{"android":"levelo://app?vid=7e46e322-27d9-4f9d-b1ce-11741eb7c78f","ios":"levelo://app?vid=7e46e322-27d9-4f9d-b1ce-11741eb7c78f"},"vehicle_type_id":"4","last_reported":1743343664,"current_range_meters":11200,"station_id":"ce4bhqp2rcd13ifvqhng","pricing_plan_id":"cebpf4jnsgd1na2vs0mg"},{"bike_id":"e9a2a445-241d-4d76-ae7f-242ac1e603b1","system_id":"levelo_inurba_marseille","lat":43.23187,"lon":5.35586,"is_reserved":false,"is_disabled":false,"rental_uris":{"android":"levelo://app?vid=e9a2a445-241d-4d76-ae7f-242ac1e603b1","ios":"levelo://app?vid=e9a2a445-241d-4d76-ae7f-242ac1e603b1"},"vehicle_type_id":"4","last_reported":1743343664,"current_range_meters":11200,"station_id":"ce4bhu92rcd13ifvqi70","pricing_plan_id":"cebpf4jnsgd1na2vs0mg"},{"bike_id":"5d0712f9-1996-45e5-9e21-790034cdb16e","system_id":"levelo_inurba_marseille","lat":43.2294,"lon":5.3537,"is_reserved":false,"is_disabled":false,"rental_uris":{"android":"levelo://app?vid=5d0712f9-1996-45e5-9e21-790034cdb16e","ios":"levelo://app?vid=5d0712f9-1996-45e5-9e21-790034cdb16e"},"vehicle_type_id":"4","last_reported":1743343664,"current_range_meters":11200,"station_id":"cpo3532slgdg3j2ikp40","pricing_plan_id":"cebpf4jnsgd1na2vs0mg"},{"bike_id":"a1ae50a4-c52b-4677-9880-2ad2cbea90c3","system_id":"levelo_inurba_marseille","lat":43.28263,"lon":5.35084,"is_reserved":false,"is_disabled":false,"rental_uris":{"android":"levelo://app?vid=a1ae50a4-c52b-4677-9880-2ad2cbea90c3","ios":"levelo://app?vid=a1ae50a4-c52b-4677-9880-2ad2cbea90c3"},"vehicle_type_id":"4","last_reported":1743343664,"current_range_meters":11200,"station_id":"ce4bhbp2rcd13ifvqerg","pricing_plan_id":"cebpf4jnsgd1na2vs0mg"},{"bike_id":"ccc68ad3-86f3-4b8b-8c06-099ffa6b3702","system_id":"levelo_inurba_marseille","lat":43.24391,"lon":5.37057,"is_reserved":false,"is_disabled":false,"rental_uris":{"android":"levelo://app?vid=ccc68ad3-86f3-4b8b-8c06-099ffa6b3702","ios":"levelo://app?vid=ccc68ad3-86f3-4b8b-8c06-099ffa6b3702"},"vehicle_type_id":"4","last_reported":1743343664,"current_range_meters":11200,"station_id":"ce4bhhh2rcd13ifvqfk0","pricing_plan_id":"cebpf4jnsgd1na2vs0mg"},{"bike_id":"2668b2c5-296e-46e2-8764-f61208bfe4ae","system_id":"levelo_inurba_marseille","lat":43.23063,"lon":5.355,"is_reserved":false,"is_disabled":false,"rental_uris":{"android":"levelo://app?vid=2668b2c5-296e-46e2-8764-f61208bfe4ae","ios":"levelo://app?vid=2668b2c5-296e-46e2-8764-f61208bfe4ae"},"vehicle_type_id":"4","last_reported":1743343664,"current_range_meters":11200,"station_id":"cpo3342slgdg3j2ifvpg","pricing_plan_id":"cebpf4jnsgd1na2vs0mg"},{"bike_id":"809a47f2-ac51-47d1-8bf7-2702a6a60091","system_id":"levelo_inurba_marseille","lat":43.28413,"lon":5.34995,"is_reserved":false,"is_disabled":false,"rental_uris":{"android":"levelo://app?vid=809a47f2-ac51-47d1-8bf7-2702a6a60091","ios":"levelo://app?vid=809a47f2-ac51-47d1-8bf7-2702a6a60091"},"vehicle_type_id":"4","last_reported":1743343664,"current_range_meters":11600,"station_id":"ce4bhbh2rcd13ifvqepg","pricing_plan_id":"cebpf4jnsgd1na2vs0mg"},{"bike_id":"fa5af674-1110-4272-8e99-753958c3dff9","system_id":"levelo_inurba_marseille","lat":43.23966,"lon":5.36632,"is_reserved":false,"is_disabled":false,"rental_uris":{"android":"levelo://app?vid=fa5af674-1110-4272-8e99-753958c3dff9","ios":"levelo://app?vid=fa5af674-1110-4272-8e99-753958c3dff9"},"vehicle_type_id":"4","last_reported":1743343664,"current_range_meters":11200,"station_id":"ce4bhi12rcd13ifvqfp0","pricing_plan_id":"cebpf4jnsgd1na2vs0mg"},{"bike_id":"f797fc2f-dcd1-4bf2-9940-c6bb81eef752","system_id":"levelo_inurba_marseille","lat":43.22935,"lon":5.35374,"is_reserved":false,"is_disabled":false,"rental_uris":{"android":"levelo://app?vid=f797fc2f-dcd1-4bf2-9940-c6bb81eef752","ios":"levelo://app?vid=f797fc2f-dcd1-4bf2-9940-c6bb81eef752"},"vehicle_type_id":"4","last_reported":1743343664,"current_range_meters":11200,"station_id":"cpo3532slgdg3j2ikp40","pricing_plan_id":"cebpf4jnsgd1na2vs0mg"},{"bike_id":"3d063e07-ffea-46a0-a4d8-824ed91680fe","system_id":"levelo_inurba_marseille","lat":43.27671,"lon":5.38885,"is_reserved":false,"is_disabled":false,"rental_uris":{"android":"levelo://app?vid=3d063e07-ffea-46a0-a4d8-824ed91680fe","ios":"levelo://app?vid=3d063e07-ffea-46a0-a4d8-824ed91680fe"},"vehicle_type_id":"4","last_reported":1743343664,"current_range_meters":11200,"station_id":"ce4bhi12rcd13ifvqfo0","pricing_plan_id":"cebpf4jnsgd1na2vs0mg"},{"bike_id":"871f3035-10bb-4a28-afa0-18619600e1a6","system_id":"levelo_inurba_marseille","lat":43.299489,"lon":5.365328,"is_reserved":false,"is_disabled":true,"rental_uris":{"android":"levelo://app?vid=871f3035-10bb-4a28-afa0-18619600e1a6","ios":"levelo://app?vid=871f3035-10bb-4a28-afa0-18619600e1a6"},"vehicle_type_id":"4","last_reported":1743343664,"current_range_meters":11600,"station_id":"ce4bgm92rcd13ifvqbr0","pricing_plan_id":"cebpf4jnsgd1na2vs0mg"},{"bike_id":"ee110417-5ed9-4b88-a260-0ca1c312c3c9","system_id":"levelo_inurba_marseille","lat":43.24171,"lon":5.39752,"is_reserved":false,"is_disabled":false,"rental_uris":{"android":"levelo://app?vid=ee110417-5ed9-4b88-a260-0ca1c312c3c9","ios":"levelo://app?vid=ee110417-5ed9-4b88-a260-0ca1c312c3c9"},"vehicle_type_id":"4","last_reported":1743343664,"current_range_meters":11600,"station_id":"ce4bhn12rcd13ifvqgpg","pricing_plan_id":"cebpf4jnsgd1na2vs0mg"},{"bike_id":"08c9e8c0-ed4a-46dd-8ae8-b2415ae59034","system_id":"levelo_inurba_marseille","lat":43.31892,"lon":5.40742,"is_reserved":false,"is_disabled":false,"rental_uris":{"android":"levelo://app?vid=08c9e8c0-ed4a-46dd-8ae8-b2415ae59034","ios":"levelo://app?vid=08c9e8c0-ed4a-46dd-8ae8-b2415ae59034"},"vehicle_type_id":"4","last_reported":1743343664,"current_range_meters":11600,"station_id":"ce4bhq12rcd13ifvqhig","pricing_plan_id":"cebpf4jnsgd1na2vs0mg"},{"bike_id":"a94c1e2b-8c2f-4646-913e-4fd379bb90d5","system_id":"levelo_inurba_marseille","lat":43.28399,"lon":5.34987,"is_reserved":false,"is_disabled":false,"rental_uris":{"android":"levelo://app?vid=a94c1e2b-8c2f-4646-913e-4fd379bb90d5","ios":"levelo://app?vid=a94c1e2b-8c2f-4646-913e-4fd379bb90d5"},"vehicle_type_id":"4","last_reported":1743343664,"current_range_meters":11600,"station_id":"ce4bhbh2rcd13ifvqepg","pricing_plan_id":"cebpf4jnsgd1na2vs0mg"},{"bike_id":"32471ba9-fd17-40c0-ab4f-200aab707b9b","system_id":"levelo_inurba_marseille","lat":43.23069,"lon":5.35486,"is_reserved":false,"is_disabled":false,"rental_uris":{"android":"levelo://app?vid=32471ba9-fd17-40c0-ab4f-200aab707b9b","ios":"levelo://app?vid=32471ba9-fd17-40c0-ab4f-200aab707b9b"},"vehicle_type_id":"4","last_reported":1743343664,"current_range_meters":11600,"station_id":"cpo3342slgdg3j2ifvpg","pricing_plan_id":"cebpf4jnsgd1na2vs0mg"},{"bike_id":"039d6195-a4ab-472f-929f-b9ba7e67e0d4","system_id":"levelo_inurba_marseille","lat":43.286206,"lon":5.351047,"is_reserved":false,"is_disabled":false,"rental_uris":{"android":"levelo://app?vid=039d6195-a4ab-472f-929f-b9ba7e67e0d4","ios":"levelo://app?vid=039d6195-a4ab-472f-929f-b9ba7e67e0d4"},"vehicle_type_id":"4","last_reported":1743343664,"current_range_meters":11600,"station_id":"ce4bhch2rcd13ifvqeug","pricing_plan_id":"cebpf4jnsgd1na2vs0mg"},{"bike_id":"82be5020-df29-4bb6-b821-10f31b9ed89a","system_id":"levelo_inurba_marseille","lat":43.28416,"lon":5.34988,"is_reserved":false,"is_disabled":false,"rental_uris":{"android":"levelo://app?vid=82be5020-df29-4bb6-b821-10f31b9ed89a","ios":"levelo://app?vid=82be5020-df29-4bb6-b821-10f31b9ed89a"},"vehicle_type_id":"4","last_reported":1743343664,"current_range_meters":11600,"station_id":"ce4bhbh2rcd13ifvqepg","pricing_plan_id":"cebpf4jnsgd1na2vs0mg"},{"bike_id":"ffdb210a-9b1e-4d44-8a3b-711cf4cf1ea6","system_id":"levelo_inurba_marseille","lat":43.28272,"lon":5.35065,"is_reserved":false,"is_disabled":false,"rental_uris":{"android":"levelo://app?vid=ffdb210a-9b1e-4d44-8a3b-711cf4cf1ea6","ios":"levelo://app?vid=ffdb210a-9b1e-4d44-8a3b-711cf4cf1ea6"},"vehicle_type_id":"4","last_reported":1743343664,"current_range_meters":11600,"station_id":"ce4bhbp2rcd13ifvqerg","pricing_plan_id":"cebpf4jnsgd1na2vs0mg"},{"bike_id":"63debb13-87dd-4cb1-a58d-a0d69dda86c4","system_id":"levelo_inurba_marseille","lat":43.239736,"lon":5.366305,"is_reserved":false,"is_disabled":false,"rental_uris":{"android":"levelo://app?vid=63debb13-87dd-4cb1-a58d-a0d69dda86c4","ios":"levelo://app?vid=63debb13-87dd-4cb1-a58d-a0d69dda86c4"},"vehicle_type_id":"4","last_reported":1743343664,"current_range_meters":11600,"station_id":"ce4bhi12rcd13ifvqfp0","pricing_plan_id":"cebpf4jnsgd1na2vs0mg"},{"bike_id":"09735986-c469-4143-822a-97a067f40581","system_id":"levelo_inurba_marseille","lat":43.22927,"lon":5.35382,"is_reserved":false,"is_disabled":false,"rental_uris":{"android":"levelo://app?vid=09735986-c469-4143-822a-97a067f40581","ios":"levelo://app?vid=09735986-c469-4143-822a-97a067f40581"},"vehicle_type_id":"4","last_reported":1743343664,"current_range_meters":12000,"station_id":"cpo3532slgdg3j2ikp40","pricing_plan_id":"cebpf4jnsgd1na2vs0mg"},{"bike_id":"c2751105-efbd-4282-b6bd-b90c38db5b48","system_id":"levelo_inurba_marseille","lat":43.27373,"lon":5.36245,"is_reserved":false,"is_disabled":false,"rental_uris":{"android":"levelo://app?vid=c2751105-efbd-4282-b6bd-b90c38db5b48","ios":"levelo://app?vid=c2751105-efbd-4282-b6bd-b90c38db5b48"},"vehicle_type_id":"4","last_reported":1743343664,"current_range_meters":12000,"station_id":"ce4bhbh2rcd13ifvqeo0","pricing_plan_id":"cebpf4jnsgd1na2vs0mg"},{"bike_id":"ef251bd6-1a4a-4ada-aa0c-275257e9998a","system_id":"levelo_inurba_marseille","lat":43.293566,"lon":5.365659,"is_reserved":false,"is_disabled":false,"rental_uris":{"android":"levelo://app?vid=ef251bd6-1a4a-4ada-aa0c-275257e9998a","ios":"levelo://app?vid=ef251bd6-1a4a-4ada-aa0c-275257e9998a"},"vehicle_type_id":"4","last_reported":1743343664,"current_range_meters":12000,"station_id":"ce4bhbp2rcd13ifvqesg","pricing_plan_id":"cebpf4jnsgd1na2vs0mg"},{"bike_id":"68b921da-b2bd-4fd8-b369-90fa4ff29e6e","system_id":"levelo_inurba_marseille","lat":43.31238,"lon":5.3684,"is_reserved":false,"is_disabled":false,"rental_uris":{"android":"levelo://app?vid=68b921da-b2bd-4fd8-b369-90fa4ff29e6e","ios":"levelo://app?vid=68b921da-b2bd-4fd8-b369-90fa4ff29e6e"},"vehicle_type_id":"4","last_reported":1743343664,"current_range_meters":12400,"station_id":"ce4bgl92rcd13ifvqbq0","pricing_plan_id":"cebpf4jnsgd1na2vs0mg"},{"bike_id":"bd55633f-cfff-4f85-9f61-221977515859","system_id":"levelo_inurba_marseille","lat":43.24807,"lon":5.37458,"is_reserved":false,"is_disabled":false,"rental_uris":{"android":"levelo://app?vid=bd55633f-cfff-4f85-9f61-221977515859","ios":"levelo://app?vid=bd55633f-cfff-4f85-9f61-221977515859"},"vehicle_type_id":"4","last_reported":1743343664,"current_range_meters":12400,"station_id":"ce4bhgh2rcd13ifvqfb0","pricing_plan_id":"cebpf4jnsgd1na2vs0mg"},{"bike_id":"76859129-4009-4843-90a4-dc4d2b65271a","system_id":"levelo_inurba_marseille","lat":43.24161,"lon":5.36423,"is_reserved":false,"is_disabled":false,"rental_uris":{"android":"levelo://app?vid=76859129-4009-4843-90a4-dc4d2b65271a","ios":"levelo://app?vid=76859129-4009-4843-90a4-dc4d2b65271a"},"vehicle_type_id":"4","last_reported":1743343664,"current_range_meters":12400,"station_id":"cpo36qri1sfpv3e86is0","pricing_plan_id":"cebpf4jnsgd1na2vs0mg"},{"bike_id":"7ca6f145-aad1-46a9-862f-db9fe95e22ed","system_id":"levelo_inurba_marseille","lat":43.32092,"lon":5.36787,"is_reserved":false,"is_disabled":false,"rental_uris":{"android":"levelo://app?vid=7ca6f145-aad1-46a9-862f-db9fe95e22ed","ios":"levelo://app?vid=7ca6f145-aad1-46a9-862f-db9fe95e22ed"},"vehicle_type_id":"4","last_reported":1743343664,"current_range_meters":12400,"station_id":"ce4bhrh2rcd13ifvqhug","pricing_plan_id":"cebpf4jnsgd1na2vs0mg"},{"bike_id":"6165c5e1-15f4-4779-ba2f-91df8ba3f8c0","system_id":"levelo_inurba_marseille","lat":43.28908,"lon":5.42999,"is_reserved":false,"is_disabled":false,"rental_uris":{"android":"levelo://app?vid=6165c5e1-15f4-4779-ba2f-91df8ba3f8c0","ios":"levelo://app?vid=6165c5e1-15f4-4779-ba2f-91df8ba3f8c0"},"vehicle_type_id":"4","last_reported":1743343664,"current_range_meters":12400,"station_id":"","pricing_plan_id":"cebpf4jnsgd1na2vs0mg"},{"bike_id":"150ede65-1d96-4620-b7cb-a24583da632e","system_id":"levelo_inurba_marseille","lat":43.27371,"lon":5.36245,"is_reserved":false,"is_disabled":false,"rental_uris":{"android":"levelo://app?vid=150ede65-1d96-4620-b7cb-a24583da632e","ios":"levelo://app?vid=150ede65-1d96-4620-b7cb-a24583da632e"},"vehicle_type_id":"4","last_reported":1743343664,"current_range_meters":12400,"station_id":"ce4bhbh2rcd13ifvqeo0","pricing_plan_id":"cebpf4jnsgd1na2vs0mg"},{"bike_id":"24c910f8-a00a-49ca-b3fe-5d967a40972a","system_id":"levelo_inurba_marseille","lat":43.23069,"lon":5.35493,"is_reserved":false,"is_disabled":false,"rental_uris":{"android":"levelo://app?vid=24c910f8-a00a-49ca-b3fe-5d967a40972a","ios":"levelo://app?vid=24c910f8-a00a-49ca-b3fe-5d967a40972a"},"vehicle_type_id":"4","last_reported":1743343664,"current_range_meters":12400,"station_id":"cpo3342slgdg3j2ifvpg","pricing_plan_id":"cebpf4jnsgd1na2vs0mg"},{"bike_id":"b73281d3-4024-4cc2-9467-a02b03434418","system_id":"levelo_inurba_marseille","lat":43.2862,"lon":5.35114,"is_reserved":false,"is_disabled":false,"rental_uris":{"android":"levelo://app?vid=b73281d3-4024-4cc2-9467-a02b03434418","ios":"levelo://app?vid=b73281d3-4024-4cc2-9467-a02b03434418"},"vehicle_type_id":"4","last_reported":1743343664,"current_range_meters":12400,"station_id":"ce4bhch2rcd13ifvqeug","pricing_plan_id":"cebpf4jnsgd1na2vs0mg"},{"bike_id":"78edf300-7db3-4c93-9631-38797c9b1771","system_id":"levelo_inurba_marseille","lat":43.29059,"lon":5.37143,"is_reserved":false,"is_disabled":true,"rental_uris":{"android":"levelo://app?vid=78edf300-7db3-4c93-9631-38797c9b1771","ios":"levelo://app?vid=78edf300-7db3-4c93-9631-38797c9b1771"},"vehicle_type_id":"4","last_reported":1743343664,"current_range_meters":12400,"station_id":"ce4bh5p2rcd13ifvqe4g","pricing_plan_id":"cebpf4jnsgd1na2vs0mg"},{"bike_id":"50342fe5-ec08-4530-b356-639e88445934","system_id":"levelo_inurba_marseille","lat":43.28274,"lon":5.35072,"is_reserved":false,"is_disabled":false,"rental_uris":{"android":"levelo://app?vid=50342fe5-ec08-4530-b356-639e88445934","ios":"levelo://app?vid=50342fe5-ec08-4530-b356-639e88445934"},"vehicle_type_id":"4","last_reported":1743343664,"current_range_meters":12800,"station_id":"ce4bhbp2rcd13ifvqerg","pricing_plan_id":"cebpf4jnsgd1na2vs0mg"},{"bike_id":"14c490b6-844b-4566-b5ce-4a1eef9a0745","system_id":"levelo_inurba_marseille","lat":43.27811,"lon":5.4072,"is_reserved":false,"is_disabled":false,"rental_uris":{"android":"levelo://app?vid=14c490b6-844b-4566-b5ce-4a1eef9a0745","ios":"levelo://app?vid=14c490b6-844b-4566-b5ce-4a1eef9a0745"},"vehicle_type_id":"4","last_reported":1743343664,"current_range_meters":12800,"station_id":"ce4bhnh2rcd13ifvqgtg","pricing_plan_id":"cebpf4jnsgd1na2vs0mg"},{"bike_id":"12cd2614-5759-4501-9c23-d3351a7cc7df","system_id":"levelo_inurba_marseille","lat":43.30546,"lon":5.3844,"is_reserved":false,"is_disabled":true,"rental_uris":{"android":"levelo://app?vid=12cd2614-5759-4501-9c23-d3351a7cc7df","ios":"levelo://app?vid=12cd2614-5759-4501-9c23-d3351a7cc7df"},"vehicle_type_id":"4","last_reported":1743343664,"current_range_meters":12800,"station_id":"ce4bgg92rcd13ifvqb30","pricing_plan_id":"cebpf4jnsgd1na2vs0mg"},{"bike_id":"80e68d46-030b-436e-aece-90783cccba7c","system_id":"levelo_inurba_marseille","lat":43.24167,"lon":5.36398,"is_reserved":false,"is_disabled":false,"rental_uris":{"android":"levelo://app?vid=80e68d46-030b-436e-aece-90783cccba7c","ios":"levelo://app?vid=80e68d46-030b-436e-aece-90783cccba7c"},"vehicle_type_id":"4","last_reported":1743343664,"current_range_meters":12800,"station_id":"cpo36qri1sfpv3e86is0","pricing_plan_id":"cebpf4jnsgd1na2vs0mg"},{"bike_id":"0b60b6cc-65bb-4e73-8958-1b351c6fdd96","system_id":"levelo_inurba_marseille","lat":43.32108,"lon":5.36773,"is_reserved":false,"is_disabled":false,"rental_uris":{"android":"levelo://app?vid=0b60b6cc-65bb-4e73-8958-1b351c6fdd96","ios":"levelo://app?vid=0b60b6cc-65bb-4e73-8958-1b351c6fdd96"},"vehicle_type_id":"4","last_reported":1743343664,"current_range_meters":12800,"station_id":"ce4bhrh2rcd13ifvqhug","pricing_plan_id":"cebpf4jnsgd1na2vs0mg"},{"bike_id":"ba1107aa-9b1f-4710-bb75-05314e757fc6","system_id":"levelo_inurba_marseille","lat":43.31686,"lon":5.37225,"is_reserved":false,"is_disabled":false,"rental_uris":{"android":"levelo://app?vid=ba1107aa-9b1f-4710-bb75-05314e757fc6","ios":"levelo://app?vid=ba1107aa-9b1f-4710-bb75-05314e757fc6"},"vehicle_type_id":"4","last_reported":1743343664,"current_range_meters":12800,"station_id":"","pricing_plan_id":"cebpf4jnsgd1na2vs0mg"},{"bike_id":"e8668964-cdce-4ef2-9f10-72b4ee83b253","system_id":"levelo_inurba_marseille","lat":43.273708,"lon":5.362558,"is_reserved":false,"is_disabled":false,"rental_uris":{"android":"levelo://app?vid=e8668964-cdce-4ef2-9f10-72b4ee83b253","ios":"levelo://app?vid=e8668964-cdce-4ef2-9f10-72b4ee83b253"},"vehicle_type_id":"4","last_reported":1743343664,"current_range_meters":13600,"station_id":"ce4bhbh2rcd13ifvqeo0","pricing_plan_id":"cebpf4jnsgd1na2vs0mg"},{"bike_id":"fd077727-cac9-4da1-be78-e3859541690a","system_id":"levelo_inurba_marseille","lat":43.305476,"lon":5.384301,"is_reserved":false,"is_disabled":true,"rental_uris":{"android":"levelo://app?vid=fd077727-cac9-4da1-be78-e3859541690a","ios":"levelo://app?vid=fd077727-cac9-4da1-be78-e3859541690a"},"vehicle_type_id":"4","last_reported":1743343664,"current_range_meters":13600,"station_id":"ce4bgg92rcd13ifvqb30","pricing_plan_id":"cebpf4jnsgd1na2vs0mg"},{"bike_id":"a56fdfa7-c6a1-4aee-ac6e-ff40706ab51d","system_id":"levelo_inurba_marseille","lat":43.24388,"lon":5.37067,"is_reserved":false,"is_disabled":false,"rental_uris":{"android":"levelo://app?vid=a56fdfa7-c6a1-4aee-ac6e-ff40706ab51d","ios":"levelo://app?vid=a56fdfa7-c6a1-4aee-ac6e-ff40706ab51d"},"vehicle_type_id":"4","last_reported":1743343664,"current_range_meters":13600,"station_id":"ce4bhhh2rcd13ifvqfk0","pricing_plan_id":"cebpf4jnsgd1na2vs0mg"},{"bike_id":"8800990b-0588-4701-9f9b-d00ff201f1bf","system_id":"levelo_inurba_marseille","lat":43.31761,"lon":5.38997,"is_reserved":false,"is_disabled":false,"rental_uris":{"android":"levelo://app?vid=8800990b-0588-4701-9f9b-d00ff201f1bf","ios":"levelo://app?vid=8800990b-0588-4701-9f9b-d00ff201f1bf"},"vehicle_type_id":"4","last_reported":1743343664,"current_range_meters":13600,"station_id":"ce4bhqp2rcd13ifvqhng","pricing_plan_id":"cebpf4jnsgd1na2vs0mg"},{"bike_id":"26c58ed9-3ec2-40d7-8932-9f218173c3c8","system_id":"levelo_inurba_marseille","lat":43.28703,"lon":5.39992,"is_reserved":false,"is_disabled":false,"rental_uris":{"android":"levelo://app?vid=26c58ed9-3ec2-40d7-8932-9f218173c3c8","ios":"levelo://app?vid=26c58ed9-3ec2-40d7-8932-9f218173c3c8"},"vehicle_type_id":"4","last_reported":1743343664,"current_range_meters":12800,"station_id":"ce4bho92rcd13ifvqh3g","pricing_plan_id":"cebpf4jnsgd1na2vs0mg"},{"bike_id":"7bcef57b-2b32-4033-b8b4-6fd7fe51a930","system_id":"levelo_inurba_marseille","lat":43.28624,"lon":5.35106,"is_reserved":false,"is_disabled":false,"rental_uris":{"android":"levelo://app?vid=7bcef57b-2b32-4033-b8b4-6fd7fe51a930","ios":"levelo://app?vid=7bcef57b-2b32-4033-b8b4-6fd7fe51a930"},"vehicle_type_id":"4","last_reported":1743343664,"current_range_meters":13600,"station_id":"ce4bhch2rcd13ifvqeug","pricing_plan_id":"cebpf4jnsgd1na2vs0mg"},{"bike_id":"9483d6d4-95ea-4bab-997b-7838e3ea2f3d","system_id":"levelo_inurba_marseille","lat":43.22916,"lon":5.35378,"is_reserved":false,"is_disabled":false,"rental_uris":{"android":"levelo://app?vid=9483d6d4-95ea-4bab-997b-7838e3ea2f3d","ios":"levelo://app?vid=9483d6d4-95ea-4bab-997b-7838e3ea2f3d"},"vehicle_type_id":"4","last_reported":1743343664,"current_range_meters":13600,"station_id":"cpo3532slgdg3j2ikp40","pricing_plan_id":"cebpf4jnsgd1na2vs0mg"},{"bike_id":"b3e97410-c1b2-4369-b878-0aa5bbd817bc","system_id":"levelo_inurba_marseille","lat":43.28486,"lon":5.35878,"is_reserved":false,"is_disabled":true,"rental_uris":{"android":"levelo://app?vid=b3e97410-c1b2-4369-b878-0aa5bbd817bc","ios":"levelo://app?vid=b3e97410-c1b2-4369-b878-0aa5bbd817bc"},"vehicle_type_id":"4","last_reported":1743343664,"current_range_meters":14000,"station_id":"ce4bhah2rcd13ifvqei0","pricing_plan_id":"cebpf4jnsgd1na2vs0mg"},{"bike_id":"64ecf796-40f8-4700-a746-c073caf1f490","system_id":"levelo_inurba_marseille","lat":43.23208,"lon":5.35559,"is_reserved":false,"is_disabled":false,"rental_uris":{"android":"levelo://app?vid=64ecf796-40f8-4700-a746-c073caf1f490","ios":"levelo://app?vid=64ecf796-40f8-4700-a746-c073caf1f490"},"vehicle_type_id":"4","last_reported":1743343664,"current_range_meters":14000,"station_id":"ce4bhu92rcd13ifvqi70","pricing_plan_id":"cebpf4jnsgd1na2vs0mg"},{"bike_id":"4680fef6-c712-4e0f-8731-46e8e8c0a6ef","system_id":"levelo_inurba_marseille","lat":43.2828,"lon":5.35065,"is_reserved":false,"is_disabled":false,"rental_uris":{"android":"levelo://app?vid=4680fef6-c712-4e0f-8731-46e8e8c0a6ef","ios":"levelo://app?vid=4680fef6-c712-4e0f-8731-46e8e8c0a6ef"},"vehicle_type_id":"4","last_reported":1743343664,"current_range_meters":14000,"station_id":"ce4bhbp2rcd13ifvqerg","pricing_plan_id":"cebpf4jnsgd1na2vs0mg"},{"bike_id":"fb0e2782-64d8-47c2-8a78-bad86b5dcc20","system_id":"levelo_inurba_marseille","lat":43.32106,"lon":5.36797,"is_reserved":false,"is_disabled":false,"rental_uris":{"android":"levelo://app?vid=fb0e2782-64d8-47c2-8a78-bad86b5dcc20","ios":"levelo://app?vid=fb0e2782-64d8-47c2-8a78-bad86b5dcc20"},"vehicle_type_id":"4","last_reported":1743343664,"current_range_meters":14000,"station_id":"ce4bhrh2rcd13ifvqhug","pricing_plan_id":"cebpf4jnsgd1na2vs0mg"},{"bike_id":"fbf33462-8479-4caa-a48d-e0b58553d746","system_id":"levelo_inurba_marseille","lat":43.27073,"lon":5.4228,"is_reserved":false,"is_disabled":false,"rental_uris":{"android":"levelo://app?vid=fbf33462-8479-4caa-a48d-e0b58553d746","ios":"levelo://app?vid=fbf33462-8479-4caa-a48d-e0b58553d746"},"vehicle_type_id":"4","last_reported":1743343664,"current_range_meters":14000,"station_id":"ce4bhk92rcd13ifvqgb0","pricing_plan_id":"cebpf4jnsgd1na2vs0mg"},{"bike_id":"4b54d8e8-77f2-4e8a-b660-1bc75a973c9a","system_id":"levelo_inurba_marseille","lat":43.255825,"lon":5.382283,"is_reserved":false,"is_disabled":false,"rental_uris":{"android":"levelo://app?vid=4b54d8e8-77f2-4e8a-b660-1bc75a973c9a","ios":"levelo://app?vid=4b54d8e8-77f2-4e8a-b660-1bc75a973c9a"},"vehicle_type_id":"4","last_reported":1743343664,"current_range_meters":14000,"station_id":"ce4bhih2rcd13ifvqfs0","pricing_plan_id":"cebpf4jnsgd1na2vs0mg"},{"bike_id":"ef12124d-ccc2-441d-a8c2-597b8c5cbc0d","system_id":"levelo_inurba_marseille","lat":43.28,"lon":5.41665,"is_reserved":false,"is_disabled":false,"rental_uris":{"android":"levelo://app?vid=ef12124d-ccc2-441d-a8c2-597b8c5cbc0d","ios":"levelo://app?vid=ef12124d-ccc2-441d-a8c2-597b8c5cbc0d"},"vehicle_type_id":"4","last_reported":1743343664,"current_range_meters":13600,"station_id":"ce4bho12rcd13ifvqh1g","pricing_plan_id":"cebpf4jnsgd1na2vs0mg"},{"bike_id":"6c83ef06-f0cb-45d6-adc0-3b9a4e9eccec","system_id":"levelo_inurba_marseille","lat":43.29276,"lon":5.36846,"is_reserved":false,"is_disabled":false,"rental_uris":{"android":"levelo://app?vid=6c83ef06-f0cb-45d6-adc0-3b9a4e9eccec","ios":"levelo://app?vid=6c83ef06-f0cb-45d6-adc0-3b9a4e9eccec"},"vehicle_type_id":"4","last_reported":1743343664,"current_range_meters":14000,"station_id":"ce4bhbp2rcd13ifvqesg","pricing_plan_id":"cebpf4jnsgd1na2vs0mg"},{"bike_id":"121010d1-d0ea-475b-97a6-f9054736109c","system_id":"levelo_inurba_marseille","lat":43.23185,"lon":5.39986,"is_reserved":false,"is_disabled":false,"rental_uris":{"android":"levelo://app?vid=121010d1-d0ea-475b-97a6-f9054736109c","ios":"levelo://app?vid=121010d1-d0ea-475b-97a6-f9054736109c"},"vehicle_type_id":"4","last_reported":1743343664,"current_range_meters":14400,"station_id":"ce4bhn12rcd13ifvqgqg","pricing_plan_id":"cebpf4jnsgd1na2vs0mg"},{"bike_id":"72e2ca0e-e828-465d-81df-86bb9c4dd8a5","system_id":"levelo_inurba_marseille","lat":43.229283,"lon":5.353738,"is_reserved":false,"is_disabled":false,"rental_uris":{"android":"levelo://app?vid=72e2ca0e-e828-465d-81df-86bb9c4dd8a5","ios":"levelo://app?vid=72e2ca0e-e828-465d-81df-86bb9c4dd8a5"},"vehicle_type_id":"4","last_reported":1743343664,"current_range_meters":14400,"station_id":"cpo3532slgdg3j2ikp40","pricing_plan_id":"cebpf4jnsgd1na2vs0mg"},{"bike_id":"ea5f1bb1-0d85-48f4-8b8b-cb54deda42a5","system_id":"levelo_inurba_marseille","lat":43.2842,"lon":5.3498,"is_reserved":false,"is_disabled":false,"rental_uris":{"android":"levelo://app?vid=ea5f1bb1-0d85-48f4-8b8b-cb54deda42a5","ios":"levelo://app?vid=ea5f1bb1-0d85-48f4-8b8b-cb54deda42a5"},"vehicle_type_id":"4","last_reported":1743343664,"current_range_meters":14400,"station_id":"ce4bhbh2rcd13ifvqepg","pricing_plan_id":"cebpf4jnsgd1na2vs0mg"},{"bike_id":"19c4d38c-721f-4a6d-8de0-ad162aee3dc3","system_id":"levelo_inurba_marseille","lat":43.29868,"lon":5.38909,"is_reserved":false,"is_disabled":true,"rental_uris":{"android":"levelo://app?vid=19c4d38c-721f-4a6d-8de0-ad162aee3dc3","ios":"levelo://app?vid=19c4d38c-721f-4a6d-8de0-ad162aee3dc3"},"vehicle_type_id":"4","last_reported":1743343664,"current_range_meters":14400,"station_id":"ce4bh392rcd13ifvqdl0","pricing_plan_id":"cebpf4jnsgd1na2vs0mg"},{"bike_id":"e0568e94-9771-4e58-a512-303b4e9cb4f3","system_id":"levelo_inurba_marseille","lat":43.27373,"lon":5.36257,"is_reserved":false,"is_disabled":false,"rental_uris":{"android":"levelo://app?vid=e0568e94-9771-4e58-a512-303b4e9cb4f3","ios":"levelo://app?vid=e0568e94-9771-4e58-a512-303b4e9cb4f3"},"vehicle_type_id":"4","last_reported":1743343664,"current_range_meters":14400,"station_id":"ce4bhbh2rcd13ifvqeo0","pricing_plan_id":"cebpf4jnsgd1na2vs0mg"},{"bike_id":"a359f942-2cee-4516-8831-3e7f94d5d107","system_id":"levelo_inurba_marseille","lat":43.248,"lon":5.37464,"is_reserved":false,"is_disabled":false,"rental_uris":{"android":"levelo://app?vid=a359f942-2cee-4516-8831-3e7f94d5d107","ios":"levelo://app?vid=a359f942-2cee-4516-8831-3e7f94d5d107"},"vehicle_type_id":"4","last_reported":1743343664,"current_range_meters":14400,"station_id":"ce4bhgh2rcd13ifvqfb0","pricing_plan_id":"cebpf4jnsgd1na2vs0mg"},{"bike_id":"268b4f79-5e60-4659-9497-950ce01d109f","system_id":"levelo_inurba_marseille","lat":43.28626,"lon":5.35109,"is_reserved":false,"is_disabled":false,"rental_uris":{"android":"levelo://app?vid=268b4f79-5e60-4659-9497-950ce01d109f","ios":"levelo://app?vid=268b4f79-5e60-4659-9497-950ce01d109f"},"vehicle_type_id":"4","last_reported":1743343664,"current_range_meters":14400,"station_id":"ce4bhch2rcd13ifvqeug","pricing_plan_id":"cebpf4jnsgd1na2vs0mg"},{"bike_id":"583d17f9-5905-4ef6-be36-b7101b738f46","system_id":"levelo_inurba_marseille","lat":43.28417,"lon":5.34995,"is_reserved":false,"is_disabled":false,"rental_uris":{"android":"levelo://app?vid=583d17f9-5905-4ef6-be36-b7101b738f46","ios":"levelo://app?vid=583d17f9-5905-4ef6-be36-b7101b738f46"},"vehicle_type_id":"4","last_reported":1743343664,"current_range_meters":14400,"station_id":"ce4bhbh2rcd13ifvqepg","pricing_plan_id":"cebpf4jnsgd1na2vs0mg"},{"bike_id":"bedfee46-fb4a-4dd1-9c3a-cd2c339b1fee","system_id":"levelo_inurba_marseille","lat":43.28265,"lon":5.35079,"is_reserved":false,"is_disabled":false,"rental_uris":{"android":"levelo://app?vid=bedfee46-fb4a-4dd1-9c3a-cd2c339b1fee","ios":"levelo://app?vid=bedfee46-fb4a-4dd1-9c3a-cd2c339b1fee"},"vehicle_type_id":"4","last_reported":1743343664,"current_range_meters":14400,"station_id":"ce4bhbp2rcd13ifvqerg","pricing_plan_id":"cebpf4jnsgd1na2vs0mg"},{"bike_id":"e5e87896-fc79-4739-9748-f5cd1d13e44f","system_id":"levelo_inurba_marseille","lat":43.28626,"lon":5.35103,"is_reserved":false,"is_disabled":false,"rental_uris":{"android":"levelo://app?vid=e5e87896-fc79-4739-9748-f5cd1d13e44f","ios":"levelo://app?vid=e5e87896-fc79-4739-9748-f5cd1d13e44f"},"vehicle_type_id":"4","last_reported":1743343664,"current_range_meters":14400,"station_id":"ce4bhch2rcd13ifvqeug","pricing_plan_id":"cebpf4jnsgd1na2vs0mg"},{"bike_id":"d2bdab8d-508c-4617-a487-d6f2ad6bec6a","system_id":"levelo_inurba_marseille","lat":43.28611,"lon":5.35103,"is_reserved":false,"is_disabled":false,"rental_uris":{"android":"levelo://app?vid=d2bdab8d-508c-4617-a487-d6f2ad6bec6a","ios":"levelo://app?vid=d2bdab8d-508c-4617-a487-d6f2ad6bec6a"},"vehicle_type_id":"4","last_reported":1743343664,"current_range_meters":14800,"station_id":"ce4bhch2rcd13ifvqeug","pricing_plan_id":"cebpf4jnsgd1na2vs0mg"},{"bike_id":"ddd87c41-bb83-428a-8d89-aa68329e6b50","system_id":"levelo_inurba_marseille","lat":43.23197,"lon":5.35556,"is_reserved":false,"is_disabled":false,"rental_uris":{"android":"levelo://app?vid=ddd87c41-bb83-428a-8d89-aa68329e6b50","ios":"levelo://app?vid=ddd87c41-bb83-428a-8d89-aa68329e6b50"},"vehicle_type_id":"4","last_reported":1743343664,"current_range_meters":14800,"station_id":"ce4bhu92rcd13ifvqi70","pricing_plan_id":"cebpf4jnsgd1na2vs0mg"},{"bike_id":"56066cfa-e4ad-45a5-aa1c-1ed8398571da","system_id":"levelo_inurba_marseille","lat":43.23198,"lon":5.3555,"is_reserved":false,"is_disabled":false,"rental_uris":{"android":"levelo://app?vid=56066cfa-e4ad-45a5-aa1c-1ed8398571da","ios":"levelo://app?vid=56066cfa-e4ad-45a5-aa1c-1ed8398571da"},"vehicle_type_id":"4","last_reported":1743343664,"current_range_meters":14800,"station_id":"ce4bhu92rcd13ifvqi70","pricing_plan_id":"cebpf4jnsgd1na2vs0mg"},{"bike_id":"0478fe1d-c2a2-4f7d-9015-8c2bef496fcf","system_id":"levelo_inurba_marseille","lat":43.28403,"lon":5.34994,"is_reserved":false,"is_disabled":false,"rental_uris":{"android":"levelo://app?vid=0478fe1d-c2a2-4f7d-9015-8c2bef496fcf","ios":"levelo://app?vid=0478fe1d-c2a2-4f7d-9015-8c2bef496fcf"},"vehicle_type_id":"4","last_reported":1743343664,"current_range_meters":14800,"station_id":"ce4bhbh2rcd13ifvqepg","pricing_plan_id":"cebpf4jnsgd1na2vs0mg"},{"bike_id":"3550a36d-3c45-4392-b638-e4bfcd519444","system_id":"levelo_inurba_marseille","lat":43.29907,"lon":5.38131,"is_reserved":false,"is_disabled":true,"rental_uris":{"android":"levelo://app?vid=3550a36d-3c45-4392-b638-e4bfcd519444","ios":"levelo://app?vid=3550a36d-3c45-4392-b638-e4bfcd519444"},"vehicle_type_id":"4","last_reported":1743343664,"current_range_meters":14800,"station_id":"ce4bgj12rcd13ifvqbc0","pricing_plan_id":"cebpf4jnsgd1na2vs0mg"},{"bike_id":"7ea68eb7-494c-4142-bc2a-cc3b7ffd2495","system_id":"levelo_inurba_marseille","lat":43.23063,"lon":5.35498,"is_reserved":false,"is_disabled":false,"rental_uris":{"android":"levelo://app?vid=7ea68eb7-494c-4142-bc2a-cc3b7ffd2495","ios":"levelo://app?vid=7ea68eb7-494c-4142-bc2a-cc3b7ffd2495"},"vehicle_type_id":"4","last_reported":1743343664,"current_range_meters":15200,"station_id":"cpo3342slgdg3j2ifvpg","pricing_plan_id":"cebpf4jnsgd1na2vs0mg"},{"bike_id":"c1a42886-05b8-4bea-a443-a0c45394290b","system_id":"levelo_inurba_marseille","lat":43.24656,"lon":5.38891,"is_reserved":false,"is_disabled":false,"rental_uris":{"android":"levelo://app?vid=c1a42886-05b8-4bea-a443-a0c45394290b","ios":"levelo://app?vid=c1a42886-05b8-4bea-a443-a0c45394290b"},"vehicle_type_id":"4","last_reported":1743343664,"current_range_meters":14800,"station_id":"ce4bhg12rcd13ifvqf60","pricing_plan_id":"cebpf4jnsgd1na2vs0mg"},{"bike_id":"f4aa7984-6e0a-4355-a188-7dfbb140094d","system_id":"levelo_inurba_marseille","lat":43.28153,"lon":5.42642,"is_reserved":false,"is_disabled":false,"rental_uris":{"android":"levelo://app?vid=f4aa7984-6e0a-4355-a188-7dfbb140094d","ios":"levelo://app?vid=f4aa7984-6e0a-4355-a188-7dfbb140094d"},"vehicle_type_id":"4","last_reported":1743343664,"current_range_meters":15200,"station_id":"ce4bhnh2rcd13ifvqgug","pricing_plan_id":"cebpf4jnsgd1na2vs0mg"},{"bike_id":"a9cd4874-e1ab-4062-b328-49eb2a454437","system_id":"levelo_inurba_marseille","lat":43.28403,"lon":5.35001,"is_reserved":false,"is_disabled":false,"rental_uris":{"android":"levelo://app?vid=a9cd4874-e1ab-4062-b328-49eb2a454437","ios":"levelo://app?vid=a9cd4874-e1ab-4062-b328-49eb2a454437"},"vehicle_type_id":"4","last_reported":1743343664,"current_range_meters":15200,"station_id":"ce4bhbh2rcd13ifvqepg","pricing_plan_id":"cebpf4jnsgd1na2vs0mg"},{"bike_id":"fc730a52-14ad-4e54-b2e6-9253a319f67f","system_id":"levelo_inurba_marseille","lat":43.28076,"lon":5.39661,"is_reserved":false,"is_disabled":false,"rental_uris":{"android":"levelo://app?vid=fc730a52-14ad-4e54-b2e6-9253a319f67f","ios":"levelo://app?vid=fc730a52-14ad-4e54-b2e6-9253a319f67f"},"vehicle_type_id":"4","last_reported":1743343664,"current_range_meters":15200,"station_id":"ce4bho12rcd13ifvqh2g","pricing_plan_id":"cebpf4jnsgd1na2vs0mg"},{"bike_id":"8f4145c4-1bd6-401b-a227-c2c77bf7d7af","system_id":"levelo_inurba_marseille","lat":43.30227,"lon":5.40038,"is_reserved":false,"is_disabled":true,"rental_uris":{"android":"levelo://app?vid=8f4145c4-1bd6-401b-a227-c2c77bf7d7af","ios":"levelo://app?vid=8f4145c4-1bd6-401b-a227-c2c77bf7d7af"},