{"last_updated":1699736733,"ttl":30,"version":"2.2","data":{"bikes":[{"bike_id":"fd15bf3b-7f52-4576-9af4-ad2964dc33bc","system_id":"levelo_inurba_marseille","lat":43.312208,"lon":5.368313,"is_reserved":false,"is_disabled":false,"rental_uris":{"android":"levelo://app?vid=fd15bf3b-7f52-4576-9af4-ad2964dc33bc","ios":"levelo://app?vid=fd15bf3b-7f52-4576-9af4-ad2964dc33bc"},"vehicle_type_id":"4","last_reported":1699736734,"current_range_meters":23600,"station_id":"ce4bgl92rcd13ifvqbq0","pricing_plan_id":"free"},{"bike_id":"e6558751-cacd-40d5-830b-e37793a4c851","system_id":"levelo_inurba_marseille","lat":43.314811,"lon":5.373104,"is_reserved":false,"is_disabled":false,"rental_uris":{"android":"levelo://app?vid=e6558751-cacd-40d5-830b-e37793a4c851","ios":"levelo://app?vid=e6558751-cacd-40d5-830b-e37793a4c851"},"vehicle_type_id":"4","last_reported":1699736734,"current_range_meters":6000,"station_id":"ce4bgt12rcd13ifvqcd0","pricing_plan_id":"free"},{"bike_id":"863376ef-c80b-45a5-96d1-67b45bebfa30","system_id":"levelo_inurba_marseille","lat":43.31665,"lon":5.3746,"is_reserved":false,"is_disabled":false,"rental_uris":{"android":"levelo://app?vid=863376ef-c80b-45a5-96d1-67b45bebfa30","ios":"levelo://app?vid=863376ef-c80b-45a5-96d1-67b45bebfa30"},"vehicle_type_id":"4","last_reported":1699736734,"current_range_meters":0,"station_id":"","pricing_plan_id":"free"},{"bike_id":"a303c1eb-c1f9-4f91-8e86-71c806c20ac5","system_id":"levelo_inurba_marseille","lat":43.313264,"lon":5.376528,"is_reserved":false,"is_disabled":false,"rental_uris":{"android":"levelo://app?vid=a303c1eb-c1f9-4f91-8e86-71c806c20ac5","ios":"levelo://app?vid=a303c1eb-c1f9-4f91-8e86-71c806c20ac5"},"vehicle_type_id":"4","last_reported":1699736734,"current_range_meters":27200,"station_id":"","pricing_plan_id":"free"},{"bike_id":"76b359af-c20b-45d0-a1df-78f4c9a6553a","system_id":"levelo_inurba_marseille","lat":43.30527,"lon":5.36541,"is_reserved":false,"is_disabled":false,"rental_uris":{"android":"levelo://app?vid=76b359af-c20b-45d0-a1df-78f4c9a6553a","ios":"levelo://app?vid=76b359af-c20b-45d0-a1df-78f4c9a6553a"},"vehicle_type_id":"4","last_reported":1699736734,"current_range_meters":17600,"station_id":"ce4bgs12rcd13ifvqcag","pricing_plan_id":"free"},{"bike_id":"71222cdc-27cf-42eb-a3e3-242ddebfac90","system_id":"levelo_inurba_marseille","lat":43.306,"lon":5.37207,"is_reserved":false,"is_disabled":false,"rental_uris":{"android":"levelo://app?vid=71222cdc-27cf-42eb-a3e3-242ddebfac90","ios":"levelo://app?vid=71222cdc-27cf-42eb-a3e3-242ddebfac90"},"vehicle_type_id":"4","last_reported":1699736734,"current_range_meters":0,"station_id":"ce4bgqh2rcd13ifvqc4g","pricing_plan_id":"free"},{"bike_id":"57053367-5328-4d78-8951-737f56b37ed9","system_id":"levelo_inurba_marseille","lat":43.319924,"lon":5.373389,"is_reserved":false,"is_disabled":false,"rental_uris":{"android":"levelo://app?vid=57053367-5328-4d78-8951-737f56b37ed9","ios":"levelo://app?vid=57053367-5328-4d78-8951-737f56b37ed9"},"vehicle_type_id":"4","last_reported":1699736734,"current_range_meters":17200,"station_id":"","pricing_plan_id":"free"},{"bike_id":"990ccfbf-f3ac-45a3-aa2b-c471e4030e17","system_id":"levelo_inurba_marseille","lat":43.320663,"lon":5.374093,"is_reserved":false,"is_disabled":false,"rental_uris":{"android":"levelo://app?vid=990ccfbf-f3ac-45a3-aa2b-c471e4030e17","ios":"levelo://app?vid=990ccfbf-f3ac-45a3-aa2b-c471e4030e17"},"vehicle_type_id":"4","last_reported":1699736734,"current_range_meters":14400,"station_id":"","pricing_plan_id":"free"},{"bike_id":"a26a672c-8f86-40f5-9e8e-9856cf399a24","system_id":"levelo_inurba_marseille","lat":43.308012,"lon":5.381472,"is_reserved":false,"is_disabled":false,"rental_uris":{"android":"levelo://app?vid=a26a672c-8f86-40f5-9e8e-9856cf399a24","ios":"levelo://app?vid=a26a672c-8f86-40f5-9e8e-9856cf399a24"},"vehicle_type_id":"4","last_reported":1699736734,"current_range_meters":25600,"station_id":"ce4bgt12rcd13ifvqce0","pricing_plan_id":"free"},{"bike_id":"8ef52193-4a3c-4256-8c92-d02dc1148f05","system_id":"levelo_inurba_marseille","lat":43.324818,"lon":5.365623,"is_reserved":false,"is_disabled":false,"rental_uris":{"android":"levelo://app?vid=8ef52193-4a3c-4256-8c92-d02dc1148f05","ios":"levelo://app?vid=8ef52193-4a3c-4256-8c92-d02dc1148f05"},"vehicle_type_id":"4","last_reported":1699736734,"current_range_meters":10800,"station_id":"ce4bhs12rcd13ifvqhvg","pricing_plan_id":"free"},{"bike_id":"cb40653a-f075-4fc8-a404-7655c88fe2f5","system_id":"levelo_inurba_marseille","lat":43.302784,"lon":5.377158,"is_reserved":false,"is_disabled":false,"rental_uris":{"android":"levelo://app?vid=cb40653a-f075-4fc8-a404-7655c88fe2f5","ios":"levelo://app?vid=cb40653a-f075-4fc8-a404-7655c88fe2f5"},"vehicle_type_id":"4","last_reported":1699736734,"current_range_meters":4000,"station_id":"ce4bguh2rcd13ifvqcj0","pricing_plan_id":"free"},{"bike_id":"3819deec-fe3d-41c7-8346-2b107cb07054","system_id":"levelo_inurba_marseille","lat":43.315237,"lon":5.383797,"is_reserved":false,"is_disabled":false,"rental_uris":{"android":"levelo://app?vid=3819deec-fe3d-41c7-8346-2b107cb07054","ios":"levelo://app?vid=3819deec-fe3d-41c7-8346-2b107cb07054"},"vehicle_type_id":"4","last_reported":1699736734,"current_range_meters":0,"station_id":"","pricing_plan_id":"free"},{"bike_id":"69166d53-ec8e-4a0a-864c-7a29f7650dd8","system_id":"levelo_inurba_marseille","lat":43.321134,"lon":5.380043,"is_reserved":false,"is_disabled":false,"rental_uris":{"android":"levelo://app?vid=69166d53-ec8e-4a0a-864c-7a29f7650dd8","ios":"levelo://app?vid=69166d53-ec8e-4a0a-864c-7a29f7650dd8"},"vehicle_type_id":"4","last_reported":1699736734,"current_range_meters":17200,"station_id":"","pricing_plan_id":"free"},{"bike_id":"13d78257-2559-4a10-97b8-aaa7032179bc","system_id":"levelo_inurba_marseille","lat":43.319975,"lon":5.381519,"is_reserved":false,"is_disabled":false,"rental_uris":{"android":"levelo://app?vid=13d78257-2559-4a10-97b8-aaa7032179bc","ios":"levelo://app?vid=13d78257-2559-4a10-97b8-aaa7032179bc"},"vehicle_type_id":"4","last_reported":1699736734,"current_range_meters":3200,"station_id":"","pricing_plan_id":"free"},{"bike_id":"c0985fbd-c500-46c9-aae5-e6275d5bf15c","system_id":"levelo_inurba_marseille","lat":43.319906,"lon":5.381652,"is_reserved":false,"is_disabled":false,"rental_uris":{"android":"levelo://app?vid=c0985fbd-c500-46c9-aae5-e6275d5bf15c","ios":"levelo://app?vid=c0985fbd-c500-46c9-aae5-e6275d5bf15c"},"vehicle_type_id":"4","last_reported":1699736734,"current_range_meters":21600,"station_id":"ce4bhr12rcd13ifvqhpg","pricing_plan_id":"free"},{"bike_id":"ccfc861a-e246-470d-9695-625762f93811","system_id":"levelo_inurba_marseille","lat":43.313571,"lon":5.384829,"is_reserved":false,"is_disabled":false,"rental_uris":{"android":"levelo://app?vid=ccfc861a-e246-470d-9695-625762f93811","ios":"levelo://app?vid=ccfc861a-e246-470d-9695-625762f93811"},"vehicle_type_id":"4","last_reported":1699736734,"current_range_meters":26000,"station_id":"ce4bgt92rcd13ifvqcf0","pricing_plan_id":"free"},{"bike_id":"f0cd0e99-99df-428b-bcc4-5dfc1403c621","system_id":"levelo_inurba_marseille","lat":43.29944,"lon":5.36743,"is_reserved":false,"is_disabled":false,"rental_uris":{"android":"levelo://app?vid=f0cd0e99-99df-428b-bcc4-5dfc1403c621","ios":"levelo://app?vid=f0cd0e99-99df-428b-bcc4-5dfc1403c621"},"vehicle_type_id":"4","last_reported":1699736734,"current_range_meters":15200,"station_id":"","pricing_plan_id":"free"},{"bike_id":"a7eaca12-eb07-4c4d-92a0-8d7ce8998f6f","system_id":"levelo_inurba_marseille","lat":43.29936,"lon":5.36558,"is_reserved":false,"is_disabled":false,"rental_uris":{"android":"levelo://app?vid=a7eaca12-eb07-4c4d-92a0-8d7ce8998f6f","ios":"levelo://app?vid=a7eaca12-eb07-4c4d-92a0-8d7ce8998f6f"},"vehicle_type_id":"4","last_reported":1699736734,"current_range_meters":0,"station_id":"ce4bgm92rcd13ifvqbr0","pricing_plan_id":"free"},{"bike_id":"6428d485-0690-4e18-a4bb-9427662a719b","system_id":"levelo_inurba_marseille","lat":43.29932,"lon":5.365367,"is_reserved":false,"is_disabled":false,"rental_uris":{"android":"levelo://app?vid=6428d485-0690-4e18-a4bb-9427662a719b","ios":"levelo://app?vid=6428d485-0690-4e18-a4bb-9427662a719b"},"vehicle_type_id":"4","last_reported":1699736734,"current_range_meters":0,"station_id":"ce4bgm92rcd13ifvqbr0","pricing_plan_id":"free"},{"bike_id":"2aa07dbd-abc3-43b6-a1fa-b3b25d3cf066","system_id":"levelo_inurba_marseille","lat":43.32148,"lon":5.38202,"is_reserved":false,"is_disabled":false,"rental_uris":{"android":"levelo://app?vid=2aa07dbd-abc3-43b6-a1fa-b3b25d3cf066","ios":"levelo://app?vid=2aa07dbd-abc3-43b6-a1fa-b3b25d3cf066"},"vehicle_type_id":"4","last_reported":1699736734,"current_range_meters":0,"station_id":"","pricing_plan_id":"free"},{"bike_id":"798a94b6-5769-470c-b306-6989429f813b","system_id":"levelo_inurba_marseille","lat":43.305364,"lon":5.384119,"is_reserved":false,"is_disabled":false,"rental_uris":{"android":"levelo://app?vid=798a94b6-5769-470c-b306-6989429f813b","ios":"levelo://app?vid=798a94b6-5769-470c-b306-6989429f813b"},"vehicle_type_id":"4","last_reported":1699736734,"current_range_meters":15200,"station_id":"ce4bgg92rcd13ifvqb30","pricing_plan_id":"free"},{"bike_id":"0c40e2f9-22f4-40b9-bce8-3cd3a48712e7","system_id":"levelo_inurba_marseille","lat":43.305364,"lon":5.384119,"is_reserved":false,"is_disabled":false,"rental_uris":{"android":"levelo://app?vid=0c40e2f9-22f4-40b9-bce8-3cd3a48712e7","ios":"levelo://app?vid=0c40e2f9-22f4-40b9-bce8-3cd3a48712e7"},"vehicle_type_id":"4","last_reported":1699736734,"current_range_meters":19600,"station_id":"ce4bgg92rcd13ifvqb30","pricing_plan_id":"free"},{"bike_id":"8950f55a-e75d-4fac-9a7c-f529bc0580a5","system_id":"levelo_inurba_marseille","lat":43.320464,"lon":5.384144,"is_reserved":false,"is_disabled":false,"rental_uris":{"android":"levelo://app?vid=8950f55a-e75d-4fac-9a7c-f529bc0580a5","ios":"levelo://app?vid=8950f55a-e75d-4fac-9a7c-f529bc0580a5"},"vehicle_type_id":"4","last_reported":1699736734,"current_range_meters":12000,"station_id":"","pricing_plan_id":"free"},{"bike_id":"1eb6b686-b32d-46bd-8287-19ff03a9b63a","system_id":"levelo_inurba_marseille","lat":43.311722,"lon":5.387247,"is_reserved":false,"is_disabled":false,"rental_uris":{"android":"levelo://app?vid=1eb6b686-b32d-46bd-8287-19ff03a9b63a","ios":"levelo://app?vid=1eb6b686-b32d-46bd-8287-19ff03a9b63a"},"vehicle_type_id":"4","last_reported":1699736734,"current_range_meters":28000,"station_id":"ce4bgv12rcd13ifvqcp0","pricing_plan_id":"free"},{"bike_id":"a230cb7a-b3c9-4db8-876c-95c31c23aaae","system_id":"levelo_inurba_marseille","lat":43.311722,"lon":5.387247,"is_reserved":false,"is_disabled":false,"rental_uris":{"android":"levelo://app?vid=a230cb7a-b3c9-4db8-876c-95c31c23aaae","ios":"levelo://app?vid=a230cb7a-b3c9-4db8-876c-95c31c23aaae"},"vehicle_type_id":"4","last_reported":1699736734,"current_range_meters":14800,"station_id":"ce4bgv12rcd13ifvqcp0","pricing_plan_id":"free"},{"bike_id":"ffdc0b50-d4a2-46d7-9c00-3e29a8fb89d7","system_id":"levelo_inurba_marseille","lat":43.297774,"lon":5.370875,"is_reserved":false,"is_disabled":false,"rental_uris":{"android":"levelo://app?vid=ffdc0b50-d4a2-46d7-9c00-3e29a8fb89d7","ios":"levelo://app?vid=ffdc0b50-d4a2-46d7-9c00-3e29a8fb89d7"},"vehicle_type_id":"4","last_reported":1699736734,"current_range_meters":24000,"station_id":"ce4bgop2rcd13ifvqc1g","pricing_plan_id":"free"},{"bike_id":"af2c41cd-037b-4f08-a7b6-a69ac1fa1855","system_id":"levelo_inurba_marseille","lat":43.328371,"lon":5.366909,"is_reserved":false,"is_disabled":false,"rental_uris":{"android":"levelo://app?vid=af2c41cd-037b-4f08-a7b6-a69ac1fa1855","ios":"levelo://app?vid=af2c41cd-037b-4f08-a7b6-a69ac1fa1855"},"vehicle_type_id":"4","last_reported":1699736734,"current_range_meters":15200,"station_id":"ce4bhs92rcd13ifvqi0g","pricing_plan_id":"free"},{"bike_id":"d2d0f7da-b236-4617-8f3a-aabe3bd3e52e","system_id":"levelo_inurba_marseille","lat":43.32827,"lon":5.36682,"is_reserved":false,"is_disabled":false,"rental_uris":{"android":"levelo://app?vid=d2d0f7da-b236-4617-8f3a-aabe3bd3e52e","ios":"levelo://app?vid=d2d0f7da-b236-4617-8f3a-aabe3bd3e52e"},"vehicle_type_id":"4","last_reported":1699736734,"current_range_meters":30800,"station_id":"ce4bhs92rcd13ifvqi0g","pricing_plan_id":"free"},{"bike_id":"d779c61d-401c-4e6a-b082-d1654b6d0fa7","system_id":"levelo_inurba_marseille","lat":43.32827,"lon":5.36679,"is_reserved":false,"is_disabled":false,"rental_uris":{"android":"levelo://app?vid=d779c61d-401c-4e6a-b082-d1654b6d0fa7","ios":"levelo://app?vid=d779c61d-401c-4e6a-b082-d1654b6d0fa7"},"vehicle_type_id":"4","last_reported":1699736734,"current_range_meters":2000,"station_id":"ce4bhs92rcd13ifvqi0g","pricing_plan_id":"free"},{"bike_id":"a5f55da8-6724-472e-bcc9-c26d48cc07a7","system_id":"levelo_inurba_marseille","lat":43.328371,"lon":5.366909,"is_reserved":false,"is_disabled":false,"rental_uris":{"android":"levelo://app?vid=a5f55da8-6724-472e-bcc9-c26d48cc07a7","ios":"levelo://app?vid=a5f55da8-6724-472e-bcc9-c26d48cc07a7"},"vehicle_type_id":"4","last_reported":1699736734,"current_range_meters":6000,"station_id":"ce4bhs92rcd13ifvqi0g","pricing_plan_id":"free"},{"bike_id":"a46312e7-2ce8-4bc2-b854-62161f1506e5","system_id":"levelo_inurba_marseille","lat":43.32829,"lon":5.36679,"is_reserved":false,"is_disabled":false,"rental_uris":{"android":"levelo://app?vid=a46312e7-2ce8-4bc2-b854-62161f1506e5","ios":"levelo://app?vid=a46312e7-2ce8-4bc2-b854-62161f1506e5"},"vehicle_type_id":"4","last_reported":1699736734,"current_range_meters":31200,"station_id":"ce4bhs92rcd13ifvqi0g","pricing_plan_id":"free"},{"bike_id":"6e7351e1-4cd5-4415-b20c-72cd66273662","system_id":"levelo_inurba_marseille","lat":43.328303,"lon":5.36676,"is_reserved":false,"is_disabled":false,"rental_uris":{"android":"levelo://app?vid=6e7351e1-4cd5-4415-b20c-72cd66273662","ios":"levelo://app?vid=6e7351e1-4cd5-4415-b20c-72cd66273662"},"vehicle_type_id":"4","last_reported":1699736734,"current_range_meters":28800,"station_id":"ce4bhs92rcd13ifvqi0g","pricing_plan_id":"free"},{"bike_id":"1bb861ef-57bc-498b-b32e-a0eda2c305cb","system_id":"levelo_inurba_marseille","lat":43.32832,"lon":5.36678,"is_reserved":false,"is_disabled":false,"rental_uris":{"android":"levelo://app?vid=1bb861ef-57bc-498b-b32e-a0eda2c305cb","ios":"levelo://app?vid=1bb861ef-57bc-498b-b32e-a0eda2c305cb"},"vehicle_type_id":"4","last_reported":1699736734,"current_range_meters":14000,"station_id":"ce4bhs92rcd13ifvqi0g","pricing_plan_id":"free"},{"bike_id":"3fc29c95-14f8-466b-984e-30e97660fd5f","system_id":"levelo_inurba_marseille","lat":43.328323,"lon":5.366878,"is_reserved":false,"is_disabled":false,"rental_uris":{"android":"levelo://app?vid=3fc29c95-14f8-466b-984e-30e97660fd5f","ios":"levelo://app?vid=3fc29c95-14f8-466b-984e-30e97660fd5f"},"vehicle_type_id":"4","last_reported":1699736734,"current_range_meters":0,"station_id":"ce4bhs92rcd13ifvqi0g","pricing_plan_id":"free"},{"bike_id":"d447991a-59b4-4778-a190-7d2b0920a414","system_id":"levelo_inurba_marseille","lat":43.32215,"lon":5.38613,"is_reserved":false,"is_disabled":false,"rental_uris":{"android":"levelo://app?vid=d447991a-59b4-4778-a190-7d2b0920a414","ios":"levelo://app?vid=d447991a-59b4-4778-a190-7d2b0920a414"},"vehicle_type_id":"4","last_reported":1699736734,"current_range_meters":19600,"station_id":"","pricing_plan_id":"free"},{"bike_id":"49a0046a-5e55-4fa5-ac42-80c8520bce5f","system_id":"levelo_inurba_marseille","lat":43.29573,"lon":5.367355,"is_reserved":false,"is_disabled":false,"rental_uris":{"android":"levelo://app?vid=49a0046a-5e55-4fa5-ac42-80c8520bce5f","ios":"levelo://app?vid=49a0046a-5e55-4fa5-ac42-80c8520bce5f"},"vehicle_type_id":"4","last_reported":1699736734,"current_range_meters":17600,"station_id":"ce4bgph2rcd13ifvqc2g","pricing_plan_id":"free"},{"bike_id":"408e1bba-ac1b-479c-ad30-32026784c873","system_id":"levelo_inurba_marseille","lat":43.2966,"lon":5.37463,"is_reserved":false,"is_disabled":false,"rental_uris":{"android":"levelo://app?vid=408e1bba-ac1b-479c-ad30-32026784c873","ios":"levelo://app?vid=408e1bba-ac1b-479c-ad30-32026784c873"},"vehicle_type_id":"4","last_reported":1699736734,"current_range_meters":14800,"station_id":"","pricing_plan_id":"free"},{"bike_id":"bdcc929b-764b-42b5-aac0-b16e0001d9fd","system_id":"levelo_inurba_marseille","lat":43.309589,"lon":5.390258,"is_reserved":false,"is_disabled":false,"rental_uris":{"android":"levelo://app?vid=bdcc929b-764b-42b5-aac0-b16e0001d9fd","ios":"levelo://app?vid=bdcc929b-764b-42b5-aac0-b16e0001d9fd"},"vehicle_type_id":"4","last_reported":1699736734,"current_range_meters":3600,"station_id":"ce4bgup2rcd13ifvqco0","pricing_plan_id":"free"},{"bike_id":"6eb543ca-2cb1-49ae-a045-513302c5e6e5","system_id":"levelo_inurba_marseille","lat":43.317557,"lon":5.390173,"is_reserved":false,"is_disabled":false,"rental_uris":{"android":"levelo://app?vid=6eb543ca-2cb1-49ae-a045-513302c5e6e5","ios":"levelo://app?vid=6eb543ca-2cb1-49ae-a045-513302c5e6e5"},"vehicle_type_id":"4","last_reported":1699736734,"current_range_meters":26000,"station_id":"ce4bhqp2rcd13ifvqhng","pricing_plan_id":"free"},{"bike_id":"b895c862-71d5-45b0-a93a-2984fba6e59b","system_id":"levelo_inurba_marseille","lat":43.317557,"lon":5.390173,"is_reserved":false,"is_disabled":false,"rental_uris":{"android":"levelo://app?vid=b895c862-71d5-45b0-a93a-2984fba6e59b","ios":"levelo://app?vid=b895c862-71d5-45b0-a93a-2984fba6e59b"},"vehicle_type_id":"4","last_reported":1699736734,"current_range_meters":3200,"station_id":"ce4bhqp2rcd13ifvqhng","pricing_plan_id":"free"},{"bike_id":"7f8b762c-484c-4f33-acd0-7b0f4e364e23","system_id":"levelo_inurba_marseille","lat":43.317557,"lon":5.390173,"is_reserved":false,"is_disabled":false,"rental_uris":{"android":"levelo://app?vid=7f8b762c-484c-4f33-acd0-7b0f4e364e23","ios":"levelo://app?vid=7f8b762c-484c-4f33-acd0-7b0f4e364e23"},"vehicle_type_id":"4","last_reported":1699736734,"current_range_meters":1200,"station_id":"ce4bhqp2rcd13ifvqhng","pricing_plan_id":"free"},{"bike_id":"9cfe1f0d-dd40-4e3e-a194-3166e94fcc6f","system_id":"levelo_inurba_marseille","lat":43.317557,"lon":5.390173,"is_reserved":false,"is_disabled":false,"rental_uris":{"android":"levelo://app?vid=9cfe1f0d-dd40-4e3e-a194-3166e94fcc6f","ios":"levelo://app?vid=9cfe1f0d-dd40-4e3e-a194-3166e94fcc6f"},"vehicle_type_id":"4","last_reported":1699736734,"current_range_meters":19200,"station_id":"ce4bhqp2rcd13ifvqhng","pricing_plan_id":"free"},{"bike_id":"feff7d8e-9456-4b4b-b917-4f91bb23e023","system_id":"levelo_inurba_marseille","lat":43.3175,"lon":5.39022,"is_reserved":false,"is_disabled":false,"rental_uris":{"android":"levelo://app?vid=feff7d8e-9456-4b4b-b917-4f91bb23e023","ios":"levelo://app?vid=feff7d8e-9456-4b4b-b917-4f91bb23e023"},"vehicle_type_id":"4","last_reported":1699736734,"current_range_meters":17600,"station_id":"","pricing_plan_id":"free"},{"bike_id":"43e8c742-17d8-4f5f-a0f9-45da8e976870","system_id":"levelo_inurba_marseille","lat":43.317557,"lon":5.390173,"is_reserved":false,"is_disabled":false,"rental_uris":{"android":"levelo://app?vid=43e8c742-17d8-4f5f-a0f9-45da8e976870","ios":"levelo://app?vid=43e8c742-17d8-4f5f-a0f9-45da8e976870"},"vehicle_type_id":"4","last_reported":1699736734,"current_range_meters":30800,"station_id":"ce4bhqp2rcd13ifvqhng","pricing_plan_id":"free"},{"bike_id":"4112fa8a-3158-4f0c-84df-b0bb2a9e49b5","system_id":"levelo_inurba_marseille","lat":43.304274,"lon":5.388873,"is_reserved":false,"is_disabled":false,"rental_uris":{"android":"levelo://app?vid=4112fa8a-3158-4f0c-84df-b0bb2a9e49b5","ios":"levelo://app?vid=4112fa8a-3158-4f0c-84df-b0bb2a9e49b5"},"vehicle_type_id":"4","last_reported":1699736734,"current_range_meters":30800,"station_id":"ce4bgk12rcd13ifvqbi0","pricing_plan_id":"free"},{"bike_id":"7c08b62b-0666-4bf8-b84f-8640c50ca8f4","system_id":"levelo_inurba_marseille","lat":43.304274,"lon":5.388873,"is_reserved":false,"is_disabled":false,"rental_uris":{"android":"levelo://app?vid=7c08b62b-0666-4bf8-b84f-8640c50ca8f4","ios":"levelo://app?vid=7c08b62b-0666-4bf8-b84f-8640c50ca8f4"},"vehicle_type_id":"4","last_reported":1699736734,"current_range_meters":7200,"station_id":"ce4bgk12rcd13ifvqbi0","pricing_plan_id":"free"},{"bike_id":"2af59e78-9ac8-45e8-a3aa-111a53873a2a","system_id":"levelo_inurba_marseille","lat":43.299727,"lon":5.384775,"is_reserved":false,"is_disabled":false,"rental_uris":{"android":"levelo://app?vid=2af59e78-9ac8-45e8-a3aa-111a53873a2a","ios":"levelo://app?vid=2af59e78-9ac8-45e8-a3aa-111a53873a2a"},"vehicle_type_id":"4","last_reported":1699736734,"current_range_meters":0,"station_id":"ce4bgj92rcd13ifvqbd0","pricing_plan_id":"free"},{"bike_id":"422fc21d-5c22-4f36-a54c-27e6cf9b3e7d","system_id":"levelo_inurba_marseille","lat":43.295279,"lon":5.375048,"is_reserved":false,"is_disabled":false,"rental_uris":{"android":"levelo://app?vid=422fc21d-5c22-4f36-a54c-27e6cf9b3e7d","ios":"levelo://app?vid=422fc21d-5c22-4f36-a54c-27e6cf9b3e7d"},"vehicle_type_id":"4","last_reported":1699736734,"current_range_meters":400,"station_id":"ce4bgkp2rcd13ifvqbmg","pricing_plan_id":"free"},{"bike_id":"3c351f55-6d94-49cb-8b59-f562cdae88ff","system_id":"levelo_inurba_marseille","lat":43.295279,"lon":5.375048,"is_reserved":false,"is_disabled":false,"rental_uris":{"android":"levelo://app?vid=3c351f55-6d94-49cb-8b59-f562cdae88ff","ios":"levelo://app?vid=3c351f55-6d94-49cb-8b59-f562cdae88ff"},"vehicle_type_id":"4","last_reported":1699736734,"current_range_meters":3600,"station_id":"ce4bgkp2rcd13ifvqbmg","pricing_plan_id":"free"},{"bike_id":"562d9160-906d-4f11-b808-063ab985ce76","system_id":"levelo_inurba_marseille","lat":43.299008,"lon":5.384818,"is_reserved":false,"is_disabled":false,"rental_uris":{"android":"levelo://app?vid=562d9160-906d-4f11-b808-063ab985ce76","ios":"levelo://app?vid=562d9160-906d-4f11-b808-063ab985ce76"},"vehicle_type_id":"4","last_reported":1699736734,"current_range_meters":0,"station_id":"","pricing_plan_id":"free"},{"bike_id":"87795f3d-91b0-4142-88d7-1aed29556265","system_id":"levelo_inurba_marseille","lat":43.292797,"lon":5.368507,"is_reserved":false,"is_disabled":false,"rental_uris":{"android":"levelo://app?vid=87795f3d-91b0-4142-88d7-1aed29556265","ios":"levelo://app?vid=87795f3d-91b0-4142-88d7-1aed29556265"},"vehicle_type_id":"4","last_reported":1699736734,"current_range_meters":0,"station_id":"ce4bhbp2rcd13ifvqesg","pricing_plan_id":"free"},{"bike_id":"fa0c5c14-98b7-4489-b100-f3ea12cd91f7","system_id":"levelo_inurba_marseille","lat":43.292768,"lon":5.368397,"is_reserved":false,"is_disabled":false,"rental_uris":{"android":"levelo://app?vid=fa0c5c14-98b7-4489-b100-f3ea12cd91f7","ios":"levelo://app?vid=fa0c5c14-98b7-4489-b100-f3ea12cd91f7"},"vehicle_type_id":"4","last_reported":1699736734,"current_range_meters":6000,"station_id":"ce4bhbp2rcd13ifvqesg","pricing_plan_id":"free"},{"bike_id":"1f2edeec-835f-4188-b75a-b19c37bb1dac","system_id":"levelo_inurba_marseille","lat":43.30109,"lon":5.3894,"is_reserved":false,"is_disabled":false,"rental_uris":{"android":"levelo://app?vid=1f2edeec-835f-4188-b75a-b19c37bb1dac","ios":"levelo://app?vid=1f2edeec-835f-4188-b75a-b19c37bb1dac"},"vehicle_type_id":"4","last_reported":1699736734,"current_range_meters":4400,"station_id":"","pricing_plan_id":"free"},{"bike_id":"dc8db499-3afa-4033-9d7d-65de4df1d918","system_id":"levelo_inurba_marseille","lat":43.302992,"lon":5.392136,"is_reserved":false,"is_disabled":false,"rental_uris":{"android":"levelo://app?vid=dc8db499-3afa-4033-9d7d-65de4df1d918","ios":"levelo://app?vid=dc8db499-3afa-4033-9d7d-65de4df1d918"},"vehicle_type_id":"4","last_reported":1699736734,"current_range_meters":8800,"station_id":"ce4bgkh2rcd13ifvqbk0","pricing_plan_id":"free"},{"bike_id":"ce0cf628-6e80-4e0e-af9e-5caa04a41393","system_id":"levelo_inurba_marseille","lat":43.300852,"lon":5.390859,"is_reserved":false,"is_disabled":false,"rental_uris":{"android":"levelo://app?vid=ce0cf628-6e80-4e0e-af9e-5caa04a41393","ios":"levelo://app?vid=ce0cf628-6e80-4e0e-af9e-5caa04a41393"},"vehicle_type_id":"4","last_reported":1699736734,"current_range_meters":5600,"station_id":"ce4bh192rcd13ifvqdb0","pricing_plan_id":"free"},{"bike_id":"156f538e-4c0e-4aab-b2a1-2bef9bb3723e","system_id":"levelo_inurba_marseille","lat":43.308874,"lon":5.396356,"is_reserved":false,"is_disabled":false,"rental_uris":{"android":"levelo://app?vid=156f538e-4c0e-4aab-b2a1-2bef9bb3723e","ios":"levelo://app?vid=156f538e-4c0e-4aab-b2a1-2bef9bb3723e"},"vehicle_type_id":"4","last_reported":1699736734,"current_range_meters":0,"station_id":"ce4bh012rcd13ifvqcv0","pricing_plan_id":"free"},{"bike_id":"61973203-0530-4f01-90c3-4760cfc6ca55","system_id":"levelo_inurba_marseille","lat":43.31328,"lon":5.39692,"is_reserved":false,"is_disabled":false,"rental_uris":{"android":"levelo://app?vid=61973203-0530-4f01-90c3-4760cfc6ca55","ios":"levelo://app?vid=61973203-0530-4f01-90c3-4760cfc6ca55"},"vehicle_type_id":"4","last_reported":1699736734,"current_range_meters":9200,"station_id":"ce4bgvp2rcd13ifvqcu0","pricing_plan_id":"free"},{"bike_id":"313dd4a7-00cd-4a51-97c2-2bc4a19f8416","system_id":"levelo_inurba_marseille","lat":43.31324,"lon":5.39695,"is_reserved":false,"is_disabled":false,"rental_uris":{"android":"levelo://app?vid=313dd4a7-00cd-4a51-97c2-2bc4a19f8416","ios":"levelo://app?vid=313dd4a7-00cd-4a51-97c2-2bc4a19f8416"},"vehicle_type_id":"4","last_reported":1699736734,"current_range_meters":0,"station_id":"ce4bgvp2rcd13ifvqcu0","pricing_plan_id":"free"},{"bike_id":"99fcb522-be6f-49d9-98f4-358b43ad1c28","system_id":"levelo_inurba_marseille","lat":43.31325,"lon":5.39699,"is_reserved":false,"is_disabled":false,"rental_uris":{"android":"levelo://app?vid=99fcb522-be6f-49d9-98f4-358b43ad1c28","ios":"levelo://app?vid=99fcb522-be6f-49d9-98f4-358b43ad1c28"},"vehicle_type_id":"4","last_reported":1699736734,"current_range_meters":12400,"station_id":"ce4bgvp2rcd13ifvqcu0","pricing_plan_id":"free"},{"bike_id":"baf95fe0-2762-42d2-b501-ce0d2e28c019","system_id":"levelo_inurba_marseille","lat":43.29529,"lon":5.385581,"is_reserved":false,"is_disabled":false,"rental_uris":{"android":"levelo://app?vid=baf95fe0-2762-42d2-b501-ce0d2e28c019","ios":"levelo://app?vid=baf95fe0-2762-42d2-b501-ce0d2e28c019"},"vehicle_type_id":"4","last_reported":1699736734,"current_range_meters":2400,"station_id":"ce4bgih2rcd13ifvqba0","pricing_plan_id":"free"},{"bike_id":"92cac7a8-60ba-49ec-bd0f-aec2784334bc","system_id":"levelo_inurba_marseille","lat":43.29529,"lon":5.385581,"is_reserved":false,"is_disabled":false,"rental_uris":{"android":"levelo://app?vid=92cac7a8-60ba-49ec-bd0f-aec2784334bc","ios":"levelo://app?vid=92cac7a8-60ba-49ec-bd0f-aec2784334bc"},"vehicle_type_id":"4","last_reported":1699736734,"current_range_meters":2400,"station_id":"ce4bgih2rcd13ifvqba0","pricing_plan_id":"free"},{"bike_id":"356c536a-9da1-4007-b7eb-73cfc402589c","system_id":"levelo_inurba_marseille","lat":43.29529,"lon":5.385581,"is_reserved":false,"is_disabled":false,"rental_uris":{"android":"levelo://app?vid=356c536a-9da1-4007-b7eb-73cfc402589c","ios":"levelo://app?vid=356c536a-9da1-4007-b7eb-73cfc402589c"},"vehicle_type_id":"4","last_reported":1699736734,"current_range_meters":0,"station_id":"ce4bgih2rcd13ifvqba0","pricing_plan_id":"free"},{"bike_id":"9e0bea01-ab8c-4d6d-b18b-9662bf2181a6","system_id":"levelo_inurba_marseille","lat":43.29529,"lon":5.385581,"is_reserved":false,"is_disabled":false,"rental_uris":{"android":"levelo://app?vid=9e0bea01-ab8c-4d6d-b18b-9662bf2181a6","ios":"levelo://app?vid=9e0bea01-ab8c-4d6d-b18b-9662bf2181a6"},"vehicle_type_id":"4","last_reported":1699736734,"current_range_meters":18400,"station_id":"ce4bgih2rcd13ifvqba0","pricing_plan_id":"free"},{"bike_id":"1d88a8e7-0bcf-451d-bb40-81f866d1022d","system_id":"levelo_inurba_marseille","lat":43.290779,"lon":5.371482,"is_reserved":false,"is_disabled":false,"rental_uris":{"android":"levelo://app?vid=1d88a8e7-0bcf-451d-bb40-81f866d1022d","ios":"levelo://app?vid=1d88a8e7-0bcf-451d-bb40-81f866d1022d"},"vehicle_type_id":"4","last_reported":1699736734,"current_range_meters":7200,"station_id":"ce4bh5p2rcd13ifvqe4g","pricing_plan_id":"free"},{"bike_id":"266911a7-3596-493c-be63-ed601e608209","system_id":"levelo_inurba_marseille","lat":43.29033,"lon":5.36958,"is_reserved":false,"is_disabled":false,"rental_uris":{"android":"levelo://app?vid=266911a7-3596-493c-be63-ed601e608209","ios":"levelo://app?vid=266911a7-3596-493c-be63-ed601e608209"},"vehicle_type_id":"4","last_reported":1699736734,"current_range_meters":0,"station_id":"","pricing_plan_id":"free"},{"bike_id":"7ea515c9-342e-48fb-9bf9-93eb110913f9","system_id":"levelo_inurba_marseille","lat":43.290631,"lon":5.359244,"is_reserved":false,"is_disabled":false,"rental_uris":{"android":"levelo://app?vid=7ea515c9-342e-48fb-9bf9-93eb110913f9","ios":"levelo://app?vid=7ea515c9-342e-48fb-9bf9-93eb110913f9"},"vehicle_type_id":"4","last_reported":1699736734,"current_range_meters":26000,"station_id":"ce4bha92rcd13ifvqeg0","pricing_plan_id":"free"},{"bike_id":"f3b08dfd-7de1-4948-b398-31430a7a3787","system_id":"levelo_inurba_marseille","lat":43.29417,"lon":5.386317,"is_reserved":false,"is_disabled":false,"rental_uris":{"android":"levelo://app?vid=f3b08dfd-7de1-4948-b398-31430a7a3787","ios":"levelo://app?vid=f3b08dfd-7de1-4948-b398-31430a7a3787"},"vehicle_type_id":"4","last_reported":1699736734,"current_range_meters":0,"station_id":"ce4bh2h2rcd13ifvqdh0","pricing_plan_id":"free"},{"bike_id":"84466db4-37dd-4dab-8e14-28fb643b577f","system_id":"levelo_inurba_marseille","lat":43.294162,"lon":5.386292,"is_reserved":false,"is_disabled":false,"rental_uris":{"android":"levelo://app?vid=84466db4-37dd-4dab-8e14-28fb643b577f","ios":"levelo://app?vid=84466db4-37dd-4dab-8e14-28fb643b577f"},"vehicle_type_id":"4","last_reported":1699736734,"current_range_meters":24800,"station_id":"ce4bh2h2rcd13ifvqdh0","pricing_plan_id":"free"},{"bike_id":"9e073d8d-048e-4b89-a013-54505aba67fc","system_id":"levelo_inurba_marseille","lat":43.29271,"lon":5.3844,"is_reserved":false,"is_disabled":false,"rental_uris":{"android":"levelo://app?vid=9e073d8d-048e-4b89-a013-54505aba67fc","ios":"levelo://app?vid=9e073d8d-048e-4b89-a013-54505aba67fc"},"vehicle_type_id":"4","last_reported":1699736734,"current_range_meters":0,"station_id":"ce4bh692rcd13ifvqea0","pricing_plan_id":"free"},{"bike_id":"0df529c4-3363-40e3-a2e2-f238026d5784","system_id":"levelo_inurba_marseille","lat":43.29264,"lon":5.38441,"is_reserved":false,"is_disabled":false,"rental_uris":{"android":"levelo://app?vid=0df529c4-3363-40e3-a2e2-f238026d5784","ios":"levelo://app?vid=0df529c4-3363-40e3-a2e2-f238026d5784"},"vehicle_type_id":"4","last_reported":1699736734,"current_range_meters":1600,"station_id":"ce4bh692rcd13ifvqea0","pricing_plan_id":"free"},{"bike_id":"cf1d7467-99c5-4b6c-affe-f66041f32ea7","system_id":"levelo_inurba_marseille","lat":43.292643,"lon":5.38444,"is_reserved":false,"is_disabled":false,"rental_uris":{"android":"levelo://app?vid=cf1d7467-99c5-4b6c-affe-f66041f32ea7","ios":"levelo://app?vid=cf1d7467-99c5-4b6c-affe-f66041f32ea7"},"vehicle_type_id":"4","last_reported":1699736734,"current_range_meters":0,"station_id":"ce4bh692rcd13ifvqea0","pricing_plan_id":"free"},{"bike_id":"075009b9-eea3-4290-a287-15c55148f6c0","system_id":"levelo_inurba_marseille","lat":43.289545,"lon":5.35886,"is_reserved":false,"is_disabled":false,"rental_uris":{"android":"levelo://app?vid=075009b9-eea3-4290-a287-15c55148f6c0","ios":"levelo://app?vid=075009b9-eea3-4290-a287-15c55148f6c0"},"vehicle_type_id":"4","last_reported":1699736734,"current_range_meters":5200,"station_id":"ce4bhb12rcd13ifvqem0","pricing_plan_id":"free"},{"bike_id":"5af5c8ff-304a-4e4c-8dd0-2a9a98ffbb7d","system_id":"levelo_inurba_marseille","lat":43.33041,"lon":5.38918,"is_reserved":false,"is_disabled":false,"rental_uris":{"android":"levelo://app?vid=5af5c8ff-304a-4e4c-8dd0-2a9a98ffbb7d","ios":"levelo://app?vid=5af5c8ff-304a-4e4c-8dd0-2a9a98ffbb7d"},"vehicle_type_id":"4","last_reported":1699736734,"current_range_meters":12400,"station_id":"ce4bhr92rcd13ifvqhrg","pricing_plan_id":"free"},{"bike_id":"e9a5b566-3224-4a1c-bcf8-d2a9a42b6590","system_id":"levelo_inurba_marseille","lat":43.330442,"lon":5.389148,"is_reserved":false,"is_disabled":false,"rental_uris":{"android":"levelo://app?vid=e9a5b566-3224-4a1c-bcf8-d2a9a42b6590","ios":"levelo://app?vid=e9a5b566-3224-4a1c-bcf8-d2a9a42b6590"},"vehicle_type_id":"4","last_reported":1699736734,"current_range_meters":14800,"station_id":"ce4bhr92rcd13ifvqhrg","pricing_plan_id":"free"},{"bike_id":"3ab72e3c-0d27-431a-a496-5585e2f22788","system_id":"levelo_inurba_marseille","lat":43.33041,"lon":5.38923,"is_reserved":false,"is_disabled":false,"rental_uris":{"android":"levelo://app?vid=3ab72e3c-0d27-431a-a496-5585e2f22788","ios":"levelo://app?vid=3ab72e3c-0d27-431a-a496-5585e2f22788"},"vehicle_type_id":"4","last_reported":1699736734,"current_range_meters":29200,"station_id":"ce4bhr92rcd13ifvqhrg","pricing_plan_id":"free"},{"bike_id":"d91be78c-ebe2-4f7c-a4da-a0753ed823e7","system_id":"levelo_inurba_marseille","lat":43.33044,"lon":5.38923,"is_reserved":false,"is_disabled":false,"rental_uris":{"android":"levelo://app?vid=d91be78c-ebe2-4f7c-a4da-a0753ed823e7","ios":"levelo://app?vid=d91be78c-ebe2-4f7c-a4da-a0753ed823e7"},"vehicle_type_id":"4","last_reported":1699736734,"current_range_meters":21600,"station_id":"ce4bhr92rcd13ifvqhrg","pricing_plan_id":"free"},{"bike_id":"8b58f8a9-c122-4f29-8bdd-47a947a13a0f","system_id":"levelo_inurba_marseille","lat":43.29002,"lon":5.35618,"is_reserved":false,"is_disabled":false,"rental_uris":{"android":"levelo://app?vid=8b58f8a9-c122-4f29-8bdd-47a947a13a0f","ios":"levelo://app?vid=8b58f8a9-c122-4f29-8bdd-47a947a13a0f"},"vehicle_type_id":"4","last_reported":1699736734,"current_range_meters":400,"station_id":"ce4bhb92rcd13ifvqen0","pricing_plan_id":"free"},{"bike_id":"d2f717d1-b007-4443-89b9-5b31cd05a6e7","system_id":"levelo_inurba_marseille","lat":43.290995,"lon":5.381361,"is_reserved":false,"is_disabled":false,"rental_uris":{"android":"levelo://app?vid=d2f717d1-b007-4443-89b9-5b31cd05a6e7","ios":"levelo://app?vid=d2f717d1-b007-4443-89b9-5b31cd05a6e7"},"vehicle_type_id":"4","last_reported":1699736734,"current_range_meters":11200,"station_id":"ce4bh512rcd13ifvqe2g","pricing_plan_id":"free"},{"bike_id":"4bc00d32-0a1d-4fea-b4ce-6e22de5883a9","system_id":"levelo_inurba_marseille","lat":43.289741,"lon":5.378306,"is_reserved":false,"is_disabled":false,"rental_uris":{"android":"levelo://app?vid=4bc00d32-0a1d-4fea-b4ce-6e22de5883a9","ios":"levelo://app?vid=4bc00d32-0a1d-4fea-b4ce-6e22de5883a9"},"vehicle_type_id":"4","last_reported":1699736734,"current_range_meters":2000,"station_id":"ce4bh9p2rcd13ifvqed0","pricing_plan_id":"free"},{"bike_id":"547b75e3-6352-4dbb-8130-84599b958cd8","system_id":"levelo_inurba_marseille","lat":43.30933,"lon":5.40146,"is_reserved":false,"is_disabled":false,"rental_uris":{"android":"levelo://app?vid=547b75e3-6352-4dbb-8130-84599b958cd8","ios":"levelo://app?vid=547b75e3-6352-4dbb-8130-84599b958cd8"},"vehicle_type_id":"4","last_reported":1699736734,"current_range_meters":0,"station_id":"ce4bgvp2rcd13ifvqct0","pricing_plan_id":"free"},{"bike_id":"61c9606b-5e0c-419f-a3b5-4fe4d535e889","system_id":"levelo_inurba_marseille","lat":43.33037,"lon":5.392367,"is_reserved":false,"is_disabled":false,"rental_uris":{"android":"levelo://app?vid=61c9606b-5e0c-419f-a3b5-4fe4d535e889","ios":"levelo://app?vid=61c9606b-5e0c-419f-a3b5-4fe4d535e889"},"vehicle_type_id":"4","last_reported":1699736734,"current_range_meters":8800,"station_id":"","pricing_plan_id":"free"},{"bike_id":"9288764c-722e-440e-9e6b-a36059f9dd21","system_id":"levelo_inurba_marseille","lat":43.28727,"lon":5.36078,"is_reserved":false,"is_disabled":false,"rental_uris":{"android":"levelo://app?vid=9288764c-722e-440e-9e6b-a36059f9dd21","ios":"levelo://app?vid=9288764c-722e-440e-9e6b-a36059f9dd21"},"vehicle_type_id":"4","last_reported":1699736734,"current_range_meters":0,"station_id":"cki0cbj6b192h4jlfktg","pricing_plan_id":"free"},{"bike_id":"7a8bd85a-d802-45ec-b7ee-9ee253cb9a59","system_id":"levelo_inurba_marseille","lat":43.28727,"lon":5.36078,"is_reserved":false,"is_disabled":false,"rental_uris":{"android":"levelo://app?vid=7a8bd85a-d802-45ec-b7ee-9ee253cb9a59","ios":"levelo://app?vid=7a8bd85a-d802-45ec-b7ee-9ee253cb9a59"},"vehicle_type_id":"4","last_reported":1699736734,"current_range_meters":30400,"station_id":"cki0cbj6b192h4jlfktg","pricing_plan_id":"free"},{"bike_id":"358d42b7-48ff-4acf-97fb-09caeea2caa9","system_id":"levelo_inurba_marseille","lat":43.28727,"lon":5.36078,"is_reserved":false,"is_disabled":false,"rental_uris":{"android":"levelo://app?vid=358d42b7-48ff-4acf-97fb-09caeea2caa9","ios":"levelo://app?vid=358d42b7-48ff-4acf-97fb-09caeea2caa9"},"vehicle_type_id":"4","last_reported":1699736734,"current_range_meters":31600,"station_id":"cki0cbj6b192h4jlfktg","pricing_plan_id":"free"},{"bike_id":"b608ec4a-d6d0-4b52-ae0a-49b8998d753a","system_id":"levelo_inurba_marseille","lat":43.298681,"lon":5.397225,"is_reserved":false,"is_disabled":false,"rental_uris":{"android":"levelo://app?vid=b608ec4a-d6d0-4b52-ae0a-49b8998d753a","ios":"levelo://app?vid=b608ec4a-d6d0-4b52-ae0a-49b8998d753a"},"vehicle_type_id":"4","last_reported":1699736734,"current_range_meters":3600,"station_id":"ce4bh0h2rcd13ifvqd50","pricing_plan_id":"free"},{"bike_id":"87ffd481-1fb6-4ba3-908f-d432a0e20c9d","system_id":"levelo_inurba_marseille","lat":43.298681,"lon":5.397225,"is_reserved":false,"is_disabled":false,"rental_uris":{"android":"levelo://app?vid=87ffd481-1fb6-4ba3-908f-d432a0e20c9d","ios":"levelo://app?vid=87ffd481-1fb6-4ba3-908f-d432a0e20c9d"},"vehicle_type_id":"4","last_reported":1699736734,"current_range_meters":0,"station_id":"ce4bh0h2rcd13ifvqd50","pricing_plan_id":"free"},{"bike_id":"9f587aef-4bad-4971-a3b6-1dfaa646898d","system_id":"levelo_inurba_marseille","lat":43.298681,"lon":5.397225,"is_reserved":false,"is_disabled":false,"rental_uris":{"android":"levelo://app?vid=9f587aef-4bad-4971-a3b6-1dfaa646898d","ios":"levelo://app?vid=9f587aef-4bad-4971-a3b6-1dfaa646898d"},"vehicle_type_id":"4","last_reported":1699736734,"current_range_meters":21600,"station_id":"ce4bh0h2rcd13ifvqd50","pricing_plan_id":"free"},{"bike_id":"d4c0614b-0b53-436a-9ec8-6515a34510c9","system_id":"levelo_inurba_marseille","lat":43.298681,"lon":5.397225,"is_reserved":false,"is_disabled":false,"rental_uris":{"android":"levelo://app?vid=d4c0614b-0b53-436a-9ec8-6515a34510c9","ios":"levelo://app?vid=d4c0614b-0b53-436a-9ec8-6515a34510c9"},"vehicle_type_id":"4","last_reported":1699736734,"current_range_meters":2800,"station_id":"ce4bh0h2rcd13ifvqd50","pricing_plan_id":"free"},{"bike_id":"d5202f56-6915-4180-8db2-b9a925a5f205","system_id":"levelo_inurba_marseille","lat":43.298681,"lon":5.397225,"is_reserved":false,"is_disabled":false,"rental_uris":{"android":"levelo://app?vid=d5202f56-6915-4180-8db2-b9a925a5f205","ios":"levelo://app?vid=d5202f56-6915-4180-8db2-b9a925a5f205"},"vehicle_type_id":"4","last_reported":1699736734,"current_range_meters":3600,"station_id":"ce4bh0h2rcd13ifvqd50","pricing_plan_id":"free"},{"bike_id":"bcbc0c06-e9a8-4de3-b41a-7b202cb19c95","system_id":"levelo_inurba_marseille","lat":43.298681,"lon":5.397225,"is_reserved":false,"is_disabled":false,"rental_uris":{"android":"levelo://app?vid=bcbc0c06-e9a8-4de3-b41a-7b202cb19c95","ios":"levelo://app?vid=bcbc0c06-e9a8-4de3-b41a-7b202cb19c95"},"vehicle_type_id":"4","last_reported":1699736734,"current_range_meters":1200,"station_id":"ce4bh0h2rcd13ifvqd50","pricing_plan_id":"free"},{"bike_id":"eafe6d08-87b8-4d16-9c85-30c0cb7abd08","system_id":"levelo_inurba_marseille","lat":43.295194,"lon":5.39397,"is_reserved":false,"is_disabled":false,"rental_uris":{"android":"levelo://app?vid=eafe6d08-87b8-4d16-9c85-30c0cb7abd08","ios":"levelo://app?vid=eafe6d08-87b8-4d16-9c85-30c0cb7abd08"},"vehicle_type_id":"4","last_reported":1699736734,"current_range_meters":0,"station_id":"ce4bh292rcd13ifvqdf0","pricing_plan_id":"free"},{"bike_id":"ac3dbef8-2072-4e82-8619-ce44b6b1591a","system_id":"levelo_inurba_marseille","lat":43.302759,"lon":5.400793,"is_reserved":false,"is_disabled":false,"rental_uris":{"android":"levelo://app?vid=ac3dbef8-2072-4e82-8619-ce44b6b1591a","ios":"levelo://app?vid=ac3dbef8-2072-4e82-8619-ce44b6b1591a"},"vehicle_type_id":"4","last_reported":1699736734,"current_range_meters":2000,"station_id":"ce4bgvh2rcd13ifvqcs0","pricing_plan_id":"free"},{"bike_id":"0da8d99f-fab6-4535-9ea9-db8dbb4096f7","system_id":"levelo_inurba_marseille","lat":43.29023,"lon":5.386473,"is_reserved":false,"is_disabled":false,"rental_uris":{"android":"levelo://app?vid=0da8d99f-fab6-4535-9ea9-db8dbb4096f7","ios":"levelo://app?vid=0da8d99f-fab6-4535-9ea9-db8dbb4096f7"},"vehicle_type_id":"4","last_reported":1699736734,"current_range_meters":10800,"station_id":"","pricing_plan_id":"free"},{"bike_id":"ec87b0e1-6e36-4b29-a75f-7427b70013d5","system_id":"levelo_inurba_marseille","lat":43.30304,"lon":5.40259,"is_reserved":false,"is_disabled":false,"rental_uris":{"android":"levelo://app?vid=ec87b0e1-6e36-4b29-a75f-7427b70013d5","ios":"levelo://app?vid=ec87b0e1-6e36-4b29-a75f-7427b70013d5"},"vehicle_type_id":"4","last_reported":1699736734,"current_range_meters":19200,"station_id":"","pricing_plan_id":"free"},{"bike_id":"ab3d1f34-44e1-4c7b-aa21-5d9a98591807","system_id":"levelo_inurba_marseille","lat":43.330754,"lon":5.396545,"is_reserved":false,"is_disabled":false,"rental_uris":{"android":"levelo://app?vid=ab3d1f34-44e1-4c7b-aa21-5d9a98591807","ios":"levelo://app?vid=ab3d1f34-44e1-4c7b-aa21-5d9a98591807"},"vehicle_type_id":"4","last_reported":1699736734,"current_range_meters":3200,"station_id":"","pricing_plan_id":"free"},{"bike_id":"e57449c2-d088-47cf-8bf2-271593713c89","system_id":"levelo_inurba_marseille","lat":43.328576,"lon":5.398841,"is_reserved":false,"is_disabled":false,"rental_uris":{"android":"levelo://app?vid=e57449c2-d088-47cf-8bf2-271593713c89","ios":"levelo://app?vid=e57449c2-d088-47cf-8bf2-271593713c89"},"vehicle_type_id":"4","last_reported":1699736734,"current_range_meters":6800,"station_id":"","pricing_plan_id":"free"},{"bike_id":"1662d3a2-877c-431d-822e-03ffc931a8bf","system_id":"levelo_inurba_marseille","lat":43.291994,"lon":5.392907,"is_reserved":false,"is_disabled":false,"rental_uris":{"android":"levelo://app?vid=1662d3a2-877c-431d-822e-03ffc931a8bf","ios":"levelo://app?vid=1662d3a2-877c-431d-822e-03ffc931a8bf"},"vehicle_type_id":"4","last_reported":1699736734,"current_range_meters":18400,"station_id":"ce4bh192rcd13ifvqdd0","pricing_plan_id":"free"},{"bike_id":"d5477ca5-e76c-4cfa-815d-be203a87f3cc","system_id":"levelo_inurba_marseille","lat":43.291988,"lon":5.393206,"is_reserved":false,"is_disabled":false,"rental_uris":{"android":"levelo://app?vid=d5477ca5-e76c-4cfa-815d-be203a87f3cc","ios":"levelo://app?vid=d5477ca5-e76c-4cfa-815d-be203a87f3cc"},"vehicle_type_id":"4","last_reported":1699736734,"current_range_meters":0,"station_id":"ce4bh192rcd13ifvqdd0","pricing_plan_id":"free"},{"bike_id":"643ac7c6-48b8-4276-a82d-1fdc475cf802","system_id":"levelo_inurba_marseille","lat":43.291994,"lon":5.392907,"is_reserved":false,"is_disabled":false,"rental_uris":{"android":"levelo://app?vid=643ac7c6-48b8-4276-a82d-1fdc475cf802","ios":"levelo://app?vid=643ac7c6-48b8-4276-a82d-1fdc475cf802"},"vehicle_type_id":"4","last_reported":1699736734,"current_range_meters":16000,"station_id":"ce4bh192rcd13ifvqdd0","pricing_plan_id":"free"},{"bike_id":"e7663299-ed8b-4f15-850c-d622e3eda133","system_id":"levelo_inurba_marseille","lat":43.284573,"lon":5.358792,"is_reserved":false,"is_disabled":false,"rental_uris":{"android":"levelo://app?vid=e7663299-ed8b-4f15-850c-d622e3eda133","ios":"levelo://app?vid=e7663299-ed8b-4f15-850c-d622e3eda133"},"vehicle_type_id":"4","last_reported":1699736734,"current_range_meters":13600,"station_id":"","pricing_plan_id":"free"},{"bike_id":"7b74895c-3f80-4908-bd57-71bdecdad1e0","system_id":"levelo_inurba_marseille","lat":43.28454,"lon":5.35886,"is_reserved":false,"is_disabled":false,"rental_uris":{"android":"levelo://app?vid=7b74895c-3f80-4908-bd57-71bdecdad1e0","ios":"levelo://app?vid=7b74895c-3f80-4908-bd57-71bdecdad1e0"},"vehicle_type_id":"4","last_reported":1699736734,"current_range_meters":12400,"station_id":"ce4bhah2rcd13ifvqei0","pricing_plan_id":"free"},{"bike_id":"4749d076-7f7b-4b38-8dbc-12fe347e5e3f","system_id":"levelo_inurba_marseille","lat":43.284534,"lon":5.358662,"is_reserved":false,"is_disabled":false,"rental_uris":{"android":"levelo://app?vid=4749d076-7f7b-4b38-8dbc-12fe347e5e3f","ios":"levelo://app?vid=4749d076-7f7b-4b38-8dbc-12fe347e5e3f"},"vehicle_type_id":"4","last_reported":1699736734,"current_range_meters":3600,"station_id":"ce4bhah2rcd13ifvqei0","pricing_plan_id":"free"},{"bike_id":"e1857b73-8650-41b6-ae93-530be5dc1af1","system_id":"levelo_inurba_marseille","lat":43.285848,"lon":5.350787,"is_reserved":false,"is_disabled":false,"rental_uris":{"android":"levelo://app?vid=e1857b73-8650-41b6-ae93-530be5dc1af1","ios":"levelo://app?vid=e1857b73-8650-41b6-ae93-530be5dc1af1"},"vehicle_type_id":"4","last_reported":1699736734,"current_range_meters":2000,"station_id":"ce4bhch2rcd13ifvqeug","pricing_plan_id":"free"},{"bike_id":"7a989cb3-d42d-4c06-a0bb-7e051cd1028e","system_id":"levelo_inurba_marseille","lat":43.28611,"lon":5.35102,"is_reserved":false,"is_disabled":false,"rental_uris":{"android":"levelo://app?vid=7a989cb3-d42d-4c06-a0bb-7e051cd1028e","ios":"levelo://app?vid=7a989cb3-d42d-4c06-a0bb-7e051cd1028e"},"vehicle_type_id":"4","last_reported":1699736734,"current_range_meters":11200,"station_id":"ce4bhch2rcd13ifvqeug","pricing_plan_id":"free"},{"bike_id":"71bf1a02-eba7-4cc0-bdd1-e8a71c5dc25a","system_id":"levelo_inurba_marseille","lat":43.283998,"lon":5.375062,"is_reserved":false,"is_disabled":false,"rental_uris":{"android":"levelo://app?vid=71bf1a02-eba7-4cc0-bdd1-e8a71c5dc25a","ios":"levelo://app?vid=71bf1a02-eba7-4cc0-bdd1-e8a71c5dc25a"},"vehicle_type_id":"4","last_reported":1699736734,"current_range_meters":21600,"station_id":"ce4bh412rcd13ifvqds0","pricing_plan_id":"free"},{"bike_id":"fff3c0af-c657-4683-b0d2-3cbbea133cd6","system_id":"levelo_inurba_marseille","lat":43.283998,"lon":5.375062,"is_reserved":false,"is_disabled":false,"rental_uris":{"android":"levelo://app?vid=fff3c0af-c657-4683-b0d2-3cbbea133cd6","ios":"levelo://app?vid=fff3c0af-c657-4683-b0d2-3cbbea133cd6"},"vehicle_type_id":"4","last_reported":1699736734,"current_range_meters":25600,"station_id":"ce4bh412rcd13ifvqds0","pricing_plan_id":"free"},{"bike_id":"15be4f63-1899-48ac-bfbb-ba044e42248e","system_id":"levelo_inurba_marseille","lat":43.295713,"lon":5.399639,"is_reserved":false,"is_disabled":false,"rental_uris":{"android":"levelo://app?vid=15be4f63-1899-48ac-bfbb-ba044e42248e","ios":"levelo://app?vid=15be4f63-1899-48ac-bfbb-ba044e42248e"},"vehicle_type_id":"4","last_reported":1699736734,"current_range_meters":16400,"station_id":"ce4bh312rcd13ifvqdj0","pricing_plan_id":"free"},{"bike_id":"8b98be3c-0188-48c4-b8a2-c223a25eacc9","system_id":"levelo_inurba_marseille","lat":43.28676,"lon":5.38656,"is_reserved":false,"is_disabled":false,"rental_uris":{"android":"levelo://app?vid=8b98be3c-0188-48c4-b8a2-c223a25eacc9","ios":"levelo://app?vid=8b98be3c-0188-48c4-b8a2-c223a25eacc9"},"vehicle_type_id":"4","last_reported":1699736734,"current_range_meters":0,"station_id":"ce4bh492rcd13ifvqdug","pricing_plan_id":"free"},{"bike_id":"08295c26-f27a-4ede-85e5-385b363c2964","system_id":"levelo_inurba_marseille","lat":43.319179,"lon":5.407725,"is_reserved":false,"is_disabled":false,"rental_uris":{"android":"levelo://app?vid=08295c26-f27a-4ede-85e5-385b363c2964","ios":"levelo://app?vid=08295c26-f27a-4ede-85e5-385b363c2964"},"vehicle_type_id":"4","last_reported":1699736734,"current_range_meters":400,"station_id":"ce4bhq12rcd13ifvqhig","pricing_plan_id":"free"},{"bike_id":"3cb4f39b-b8b7-4aaa-b42d-ed773a4f45b4","system_id":"levelo_inurba_marseille","lat":43.319179,"lon":5.407725,"is_reserved":false,"is_disabled":false,"rental_uris":{"android":"levelo://app?vid=3cb4f39b-b8b7-4aaa-b42d-ed773a4f45b4","ios":"levelo://app?vid=3cb4f39b-b8b7-4aaa-b42d-ed773a4f45b4"},"vehicle_type_id":"4","last_reported":1699736734,"current_range_meters":26800,"station_id":"ce4bhq12rcd13ifvqhig","pricing_plan_id":"free"},{"bike_id":"c9982d22-c49f-43d9-bfbb-1ef6adfe757a","system_id":"levelo_inurba_marseille","lat":43.319179,"lon":5.407725,"is_reserved":false,"is_disabled":false,"rental_uris":{"android":"levelo://app?vid=c9982d22-c49f-43d9-bfbb-1ef6adfe757a","ios":"levelo://app?vid=c9982d22-c49f-43d9-bfbb-1ef6adfe757a"},"vehicle_type_id":"4","last_reported":1699736734,"current_range_meters":6400,"station_id":"ce4bhq12rcd13ifvqhig","pricing_plan_id":"free"},{"bike_id":"030625bd-f8ba-4389-9944-df2973894a22","system_id":"levelo_inurba_marseille","lat":43.325731,"lon":5.404186,"is_reserved":false,"is_disabled":false,"rental_uris":{"android":"levelo://app?vid=030625bd-f8ba-4389-9944-df2973894a22","ios":"levelo://app?vid=030625bd-f8ba-4389-9944-df2973894a22"},"vehicle_type_id":"4","last_reported":1699736734,"current_range_meters":2400,"station_id":"","pricing_plan_id":"free"},{"bike_id":"0b083c6d-d1d4-4abb-84f8-baa4bad07eff","system_id":"levelo_inurba_marseille","lat":43.28722,"lon":5.38907,"is_reserved":false,"is_disabled":false,"rental_uris":{"android":"levelo://app?vid=0b083c6d-d1d4-4abb-84f8-baa4bad07eff","ios":"levelo://app?vid=0b083c6d-d1d4-4abb-84f8-baa4bad07eff"},"vehicle_type_id":"4","last_reported":1699736734,"current_range_meters":1600,"station_id":"","pricing_plan_id":"free"},{"bike_id":"92905be3-3ac9-48a9-81f5-f31dfa311c3b","system_id":"levelo_inurba_marseille","lat":43.33717,"lon":5.391857,"is_reserved":false,"is_disabled":false,"rental_uris":{"android":"levelo://app?vid=92905be3-3ac9-48a9-81f5-f31dfa311c3b","ios":"levelo://app?vid=92905be3-3ac9-48a9-81f5-f31dfa311c3b"},"vehicle_type_id":"4","last_reported":1699736734,"current_range_meters":14400,"station_id":"ce4bhr92rcd13ifvqhsg","pricing_plan_id":"free"},{"bike_id":"27511aab-823c-465b-826c-e631eb925b28","system_id":"levelo_inurba_marseille","lat":43.33717,"lon":5.391857,"is_reserved":false,"is_disabled":false,"rental_uris":{"android":"levelo://app?vid=27511aab-823c-465b-826c-e631eb925b28","ios":"levelo://app?vid=27511aab-823c-465b-826c-e631eb925b28"},"vehicle_type_id":"4","last_reported":1699736734,"current_range_meters":26400,"station_id":"ce4bhr92rcd13ifvqhsg","pricing_plan_id":"free"},{"bike_id":"8f73f349-a272-4ad6-b8fd-7b017ee1ab31","system_id":"levelo_inurba_marseille","lat":43.337168,"lon":5.391825,"is_reserved":false,"is_disabled":false,"rental_uris":{"android":"levelo://app?vid=8f73f349-a272-4ad6-b8fd-7b017ee1ab31","ios":"levelo://app?vid=8f73f349-a272-4ad6-b8fd-7b017ee1ab31"},"vehicle_type_id":"4","last_reported":1699736734,"current_range_meters":29600,"station_id":"ce4bhr92rcd13ifvqhsg","pricing_plan_id":"free"},{"bike_id":"1800d3ac-10c4-4e13-8c3c-d550e96b09b0","system_id":"levelo_inurba_marseille","lat":43.297946,"lon":5.404063,"is_reserved":false,"is_disabled":false,"rental_uris":{"android":"levelo://app?vid=1800d3ac-10c4-4e13-8c3c-d550e96b09b0","ios":"levelo://app?vid=1800d3ac-10c4-4e13-8c3c-d550e96b09b0"},"vehicle_type_id":"4","last_reported":1699736734,"current_range_meters":5200,"station_id":"ce4bh112rcd13ifvqd90","pricing_plan_id":"free"},{"bike_id":"19d0c374-a4ab-4ac6-ac6d-4b208dd17040","system_id":"levelo_inurba_marseille","lat":43.297946,"lon":5.404063,"is_reserved":false,"is_disabled":false,"rental_uris":{"android":"levelo://app?vid=19d0c374-a4ab-4ac6-ac6d-4b208dd17040","ios":"levelo://app?vid=19d0c374-a4ab-4ac6-ac6d-4b208dd17040"},"vehicle_type_id":"4","last_reported":1699736734,"current_range_meters":18400,"station_id":"ce4bh112rcd13ifvqd90","pricing_plan_id":"free"},{"bike_id":"cc83f09b-6a14-45f8-a68e-ff5c2304f954","system_id":"levelo_inurba_marseille","lat":43.288497,"lon":5.393089,"is_reserved":false,"is_disabled":false,"rental_uris":{"android":"levelo://app?vid=cc83f09b-6a14-45f8-a68e-ff5c2304f954","ios":"levelo://app?vid=cc83f09b-6a14-45f8-a68e-ff5c2304f954"},"vehicle_type_id":"4","last_reported":1699736734,"current_range_meters":2400,"station_id":"ce4bh2p2rcd13ifvqdi0","pricing_plan_id":"free"},{"bike_id":"91bf75d5-bbc7-4002-8c6f-161374c699f4","system_id":"levelo_inurba_marseille","lat":43.284219,"lon":5.3497,"is_reserved":false,"is_disabled":false,"rental_uris":{"android":"levelo://app?vid=91bf75d5-bbc7-4002-8c6f-161374c699f4","ios":"levelo://app?vid=91bf75d5-bbc7-4002-8c6f-161374c699f4"},"vehicle_type_id":"4","last_reported":1699736734,"current_range_meters":17200,"station_id":"ce4bhbh2rcd13ifvqepg","pricing_plan_id":"free"},{"bike_id":"2ee1fe4f-4d0a-4bfc-a049-afd4a23dbbb3","system_id":"levelo_inurba_marseille","lat":43.284103,"lon":5.349727,"is_reserved":false,"is_disabled":false,"rental_uris":{"android":"levelo://app?vid=2ee1fe4f-4d0a-4bfc-a049-afd4a23dbbb3","ios":"levelo://app?vid=2ee1fe4f-4d0a-4bfc-a049-afd4a23dbbb3"},"vehicle_type_id":"4","last_reported":1699736734,"current_range_meters":8000,"station_id":"ce4bhbh2rcd13ifvqepg","pricing_plan_id":"free"},{"bike_id":"694cc18d-6823-481a-9d09-67d990c2d197","system_id":"levelo_inurba_marseille","lat":43.324289,"lon":5.407562,"is_reserved":false,"is_disabled":false,"rental_uris":{"android":"levelo://app?vid=694cc18d-6823-481a-9d09-67d990c2d197","ios":"levelo://app?vid=694cc18d-6823-481a-9d09-67d990c2d197"},"vehicle_type_id":"4","last_reported":1699736734,"current_range_meters":0,"station_id":"","pricing_plan_id":"free"},{"bike_id":"e01ee397-01ae-45ec-aad5-e018bd003c8f","system_id":"levelo_inurba_marseille","lat":43.282754,"lon":5.350519,"is_reserved":false,"is_disabled":false,"rental_uris":{"android":"levelo://app?vid=e01ee397-01ae-45ec-aad5-e018bd003c8f","ios":"levelo://app?vid=e01ee397-01ae-45ec-aad5-e018bd003c8f"},"vehicle_type_id":"4","last_reported":1699736734,"current_range_meters":0,"station_id":"ce4bhbp2rcd13ifvqerg","pricing_plan_id":"free"},{"bike_id":"98480f4e-7436-4419-bb44-b7a62d79eb78","system_id":"levelo_inurba_marseille","lat":43.282744,"lon":5.350533,"is_reserved":false,"is_disabled":false,"rental_uris":{"android":"levelo://app?vid=98480f4e-7436-4419-bb44-b7a62d79eb78","ios":"levelo://app?vid=98480f4e-7436-4419-bb44-b7a62d79eb78"},"vehicle_type_id":"4","last_reported":1699736734,"current_range_meters":13600,"station_id":"ce4bhbp2rcd13ifvqerg","pricing_plan_id":"free"},{"bike_id":"2cb100e2-b1ec-4195-abb3-577297350c72","system_id":"levelo_inurba_marseille","lat":43.282754,"lon":5.350519,"is_reserved":false,"is_disabled":false,"rental_uris":{"android":"levelo://app?vid=2cb100e2-b1ec-4195-abb3-577297350c72","ios":"levelo://app?vid=2cb100e2-b1ec-4195-abb3-577297350c72"},"vehicle_type_id":"4","last_reported":1699736734,"current_range_meters":14000,"station_id":"ce4bhbp2rcd13ifvqerg","pricing_plan_id":"free"},{"bike_id":"af4e1c30-236e-49e9-8449-57c395ad6e59","system_id":"levelo_inurba_marseille","lat":43.283502,"lon":5.386471,"is_reserved":false,"is_disabled":false,"rental_uris":{"android":"levelo://app?vid=af4e1c30-236e-49e9-8449-57c395ad6e59","ios":"levelo://app?vid=af4e1c30-236e-49e9-8449-57c395ad6e59"},"vehicle_type_id":"4","last_reported":1699736734,"current_range_meters":24000,"station_id":"ce4bh492rcd13ifvqdvg","pricing_plan_id":"free"},{"bike_id":"06dcaf03-749b-4b26-9fff-2af31420eecf","system_id":"levelo_inurba_marseille","lat":43.290412,"lon":5.399633,"is_reserved":false,"is_disabled":false,"rental_uris":{"android":"levelo://app?vid=06dcaf03-749b-4b26-9fff-2af31420eecf","ios":"levelo://app?vid=06dcaf03-749b-4b26-9fff-2af31420eecf"},"vehicle_type_id":"4","last_reported":1699736734,"current_range_meters":18000,"station_id":"ce4bh392rcd13ifvqdm0","pricing_plan_id":"free"},{"bike_id":"6a4f4802-592c-4c11-bc43-bff27aa02678","system_id":"levelo_inurba_marseille","lat":43.29041,"lon":5.399634,"is_reserved":false,"is_disabled":false,"rental_uris":{"android":"levelo://app?vid=6a4f4802-592c-4c11-bc43-bff27aa02678","ios":"levelo://app?vid=6a4f4802-592c-4c11-bc43-bff27aa02678"},"vehicle_type_id":"4","last_reported":1699736734,"current_range_meters":9200,"station_id":"ce4bh392rcd13ifvqdm0","pricing_plan_id":"free"},{"bike_id":"df74df75-42c6-40aa-9d1b-1125116db34a","system_id":"levelo_inurba_marseille","lat":43.281044,"lon":5.378308,"is_reserved":false,"is_disabled":false,"rental_uris":{"android":"levelo://app?vid=df74df75-42c6-40aa-9d1b-1125116db34a","ios":"levelo://app?vid=df74df75-42c6-40aa-9d1b-1125116db34a"},"vehicle_type_id":"4","last_reported":1699736734,"current_range_meters":5600,"station_id":"ce4bha12rcd13ifvqee0","pricing_plan_id":"free"},{"bike_id":"e37c0a5f-9ac7-4775-8238-8c8fa6541fee","system_id":"levelo_inurba_marseille","lat":43.296263,"lon":5.40601,"is_reserved":false,"is_disabled":false,"rental_uris":{"android":"levelo://app?vid=e37c0a5f-9ac7-4775-8238-8c8fa6541fee","ios":"levelo://app?vid=e37c0a5f-9ac7-4775-8238-8c8fa6541fee"},"vehicle_type_id":"4","last_reported":1699736734,"current_range_meters":22000,"station_id":"ce4bh0h2rcd13ifvqd60","pricing_plan_id":"free"},{"bike_id":"c5269fde-c094-4163-a2ac-a6350e774e3c","system_id":"levelo_inurba_marseille","lat":43.323447,"lon":5.41003,"is_reserved":false,"is_disabled":false,"rental_uris":{"android":"levelo://app?vid=c5269fde-c094-4163-a2ac-a6350e774e3c","ios":"levelo://app?vid=c5269fde-c094-4163-a2ac-a6350e774e3c"},"vehicle_type_id":"4","last_reported":1699736734,"current_range_meters":4000,"station_id":"","pricing_plan_id":"free"},{"bike_id":"917bd5a2-96d5-4c39-b644-c26c5c59a3ae","system_id":"levelo_inurba_marseille","lat":43.284462,"lon":5.392121,"is_reserved":false,"is_disabled":false,"rental_uris":{"android":"levelo://app?vid=917bd5a2-96d5-4c39-b644-c26c5c59a3ae","ios":"levelo://app?vid=917bd5a2-96d5-4c39-b644-c26c5c59a3ae"},"vehicle_type_id":"4","last_reported":1699736734,"current_range_meters":17200,"station_id":"ce4bhoh2rcd13ifvqh5g","pricing_plan_id":"free"},{"bike_id":"95ae1a99-43b0-438e-9fb0-2c3aa587acfb","system_id":"levelo_inurba_marseille","lat":43.28564,"lon":5.39498,"is_reserved":false,"is_disabled":false,"rental_uris":{"android":"levelo://app?vid=95ae1a99-43b0-438e-9fb0-2c3aa587acfb","ios":"levelo://app?vid=95ae1a99-43b0-438e-9fb0-2c3aa587acfb"},"vehicle_type_id":"4","last_reported":1699736734,"current_range_meters":5200,"station_id":"ce4bh292rcd13ifvqdg0","pricing_plan_id":"free"},{"bike_id":"b9039fc9-e753-4d2b-abfe-439f561a943c","system_id":"levelo_inurba_marseille","lat":43.280784,"lon":5.396622,"is_reserved":false,"is_disabled":false,"rental_uris":{"android":"levelo://app?vid=b9039fc9-e753-4d2b-abfe-439f561a943c","ios":"levelo://app?vid=b9039fc9-e753-4d2b-abfe-439f561a943c"},"vehicle_type_id":"4","last_reported":1699736734,"current_range_meters":4400,"station_id":"ce4bho12rcd13ifvqh2g","pricing_plan_id":"free"},{"bike_id":"feca28d2-7019-4e39-96be-d7938cc29597","system_id":"levelo_inurba_marseille","lat":43.32435,"lon":5.4137,"is_reserved":false,"is_disabled":false,"rental_uris":{"android":"levelo://app?vid=feca28d2-7019-4e39-96be-d7938cc29597","ios":"levelo://app?vid=feca28d2-7019-4e39-96be-d7938cc29597"},"vehicle_type_id":"4","last_reported":1699736734,"current_range_meters":20000,"station_id":"","pricing_plan_id":"free"},{"bike_id":"d3e2ab32-941f-4086-8dfb-50a694bbe98d","system_id":"levelo_inurba_marseille","lat":43.279742,"lon":5.38744,"is_reserved":false,"is_disabled":false,"rental_uris":{"android":"levelo://app?vid=d3e2ab32-941f-4086-8dfb-50a694bbe98d","ios":"levelo://app?vid=d3e2ab32-941f-4086-8dfb-50a694bbe98d"},"vehicle_type_id":"4","last_reported":1699736734,"current_range_meters":16400,"station_id":"ce4bhg12rcd13ifvqf80","pricing_plan_id":"free"},{"bike_id":"6fba2149-76e9-4a8a-96e8-6fc1269b80ba","system_id":"levelo_inurba_marseille","lat":43.279742,"lon":5.38744,"is_reserved":false,"is_disabled":false,"rental_uris":{"android":"levelo://app?vid=6fba2149-76e9-4a8a-96e8-6fc1269b80ba","ios":"levelo://app?vid=6fba2149-76e9-4a8a-96e8-6fc1269b80ba"},"vehicle_type_id":"4","last_reported":1699736734,"current_range_meters":0,"station_id":"ce4bhg12rcd13ifvqf80","pricing_plan_id":"free"},{"bike_id":"9b317e32-ce46-4553-8b47-f8ff080d430a","system_id":"levelo_inurba_marseille","lat":43.27616,"lon":5.36107,"is_reserved":false,"is_disabled":false,"rental_uris":{"android":"levelo://app?vid=9b317e32-ce46-4553-8b47-f8ff080d430a","ios":"levelo://app?vid=9b317e32-ce46-4553-8b47-f8ff080d430a"},"vehicle_type_id":"4","last_reported":1699736734,"current_range_meters":4400,"station_id":"ce4bgj92rcd13ifvqbe0","pricing_plan_id":"free"},{"bike_id":"ccb1f0d3-57f2-4b6c-8ef1-aef04bac80c6","system_id":"levelo_inurba_marseille","lat":43.325233,"lon":5.414318,"is_reserved":false,"is_disabled":false,"rental_uris":{"android":"levelo://app?vid=ccb1f0d3-57f2-4b6c-8ef1-aef04bac80c6","ios":"levelo://app?vid=ccb1f0d3-57f2-4b6c-8ef1-aef04bac80c6"},"vehicle_type_id":"4","last_reported":1699736734,"current_range_meters":30400,"station_id":"ce4bhq12rcd13ifvqhhg","pricing_plan_id":"free"},{"bike_id":"99a86961-4d75-4d3a-96a9-e9d890a0b503","system_id":"levelo_inurba_marseille","lat":43.325243,"lon":5.414326,"is_reserved":false,"is_disabled":false,"rental_uris":{"android":"levelo://app?vid=99a86961-4d75-4d3a-96a9-e9d890a0b503","ios":"levelo://app?vid=99a86961-4d75-4d3a-96a9-e9d890a0b503"},"vehicle_type_id":"4","last_reported":1699736734,"current_range_meters":27200,"station_id":"ce4bhq12rcd13ifvqhhg","pricing_plan_id":"free"},{"bike_id":"3ba97417-810b-4ddb-bd2d-96fba8f7873c","system_id":"levelo_inurba_marseille","lat":43.276179,"lon":5.361009,"is_reserved":false,"is_disabled":false,"rental_uris":{"android":"levelo://app?vid=3ba97417-810b-4ddb-bd2d-96fba8f7873c","ios":"levelo://app?vid=3ba97417-810b-4ddb-bd2d-96fba8f7873c"},"vehicle_type_id":"4","last_reported":1699736734,"current_range_meters":29200,"station_id":"ce4bgj92rcd13ifvqbe0","pricing_plan_id":"free"},{"bike_id":"ff1d36f2-94a1-4cf2-9aa0-202365e5981d","system_id":"levelo_inurba_marseille","lat":43.280784,"lon":5.396622,"is_reserved":false,"is_disabled":false,"rental_uris":{"android":"levelo://app?vid=ff1d36f2-94a1-4cf2-9aa0-202365e5981d","ios":"levelo://app?vid=ff1d36f2-94a1-4cf2-9aa0-202365e5981d"},"vehicle_type_id":"4","last_reported":1699736734,"current_range_meters":29600,"station_id":"ce4bho12rcd13ifvqh2g","pricing_plan_id":"free"},{"bike_id":"1e9164f8-d95c-4de8-b040-bb7efd80cd48","system_id":"levelo_inurba_marseille","lat":43.280784,"lon":5.396622,"is_reserved":false,"is_disabled":false,"rental_uris":{"android":"levelo://app?vid=1e9164f8-d95c-4de8-b040-bb7efd80cd48","ios":"levelo://app?vid=1e9164f8-d95c-4de8-b040-bb7efd80cd48"},"vehicle_type_id":"4","last_reported":1699736734,"current_range_meters":4400,"station_id":"ce4bho12rcd13ifvqh2g","pricing_plan_id":"free"},{"bike_id":"9dbe2033-6288-411c-b9f1-bd08dcc8b534","system_id":"levelo_inurba_marseille","lat":43.28076,"lon":5.396558,"is_reserved":false,"is_disabled":false,"rental_uris":{"android":"levelo://app?vid=9dbe2033-6288-411c-b9f1-bd08dcc8b534","ios":"levelo://app?vid=9dbe2033-6288-411c-b9f1-bd08dcc8b534"},"vehicle_type_id":"4","last_reported":1699736734,"current_range_meters":29200,"station_id":"","pricing_plan_id":"free"},{"bike_id":"123b838b-b8c9-4f9e-9644-d7ce74d3d9c7","system_id":"levelo_inurba_marseille","lat":43.275625,"lon":5.384392,"is_reserved":false,"is_disabled":false,"rental_uris":{"android":"levelo://app?vid=123b838b-b8c9-4f9e-9644-d7ce74d3d9c7","ios":"levelo://app?vid=123b838b-b8c9-4f9e-9644-d7ce74d3d9c7"},"vehicle_type_id":"4","last_reported":1699736734,"current_range_meters":30000,"station_id":"ce4bhh92rcd13ifvqfi0","pricing_plan_id":"free"},{"bike_id":"b3c8dddc-42e9-4b02-b7eb-52e7653a46a9","system_id":"levelo_inurba_marseille","lat":43.273613,"lon":5.362705,"is_reserved":false,"is_disabled":false,"rental_uris":{"android":"levelo://app?vid=b3c8dddc-42e9-4b02-b7eb-52e7653a46a9","ios":"levelo://app?vid=b3c8dddc-42e9-4b02-b7eb-52e7653a46a9"},"vehicle_type_id":"4","last_reported":1699736734,"current_range_meters":1600,"station_id":"ce4bhbh2rcd13ifvqeo0","pricing_plan_id":"free"},{"bike_id":"f24e55e5-653c-4d6c-a03f-0b8d01c3ba0d","system_id":"levelo_inurba_marseille","lat":43.273613,"lon":5.362705,"is_reserved":false,"is_disabled":false,"rental_uris":{"android":"levelo://app?vid=f24e55e5-653c-4d6c-a03f-0b8d01c3ba0d","ios":"levelo://app?vid=f24e55e5-653c-4d6c-a03f-0b8d01c3ba0d"},"vehicle_type_id":"4","last_reported":1699736734,"current_range_meters":13200,"station_id":"ce4bhbh2rcd13ifvqeo0","pricing_plan_id":"free"},{"bike_id":"136812b3-b779-45c6-8c39-930fe06ca7d8","system_id":"levelo_inurba_marseille","lat":43.273609,"lon":5.362708,"is_reserved":false,"is_disabled":false,"rental_uris":{"android":"levelo://app?vid=136812b3-b779-45c6-8c39-930fe06ca7d8","ios":"levelo://app?vid=136812b3-b779-45c6-8c39-930fe06ca7d8"},"vehicle_type_id":"4","last_reported":1699736734,"current_range_meters":21600,"station_id":"ce4bhbh2rcd13ifvqeo0","pricing_plan_id":"free"},{"bike_id":"087ae938-5fe8-462b-b10d-05b58d1a973d","system_id":"levelo_inurba_marseille","lat":43.275625,"lon":5.384392,"is_reserved":false,"is_disabled":false,"rental_uris":{"android":"levelo://app?vid=087ae938-5fe8-462b-b10d-05b58d1a973d","ios":"levelo://app?vid=087ae938-5fe8-462b-b10d-05b58d1a973d"},"vehicle_type_id":"4","last_reported":1699736734,"current_range_meters":13200,"station_id":"ce4bhh92rcd13ifvqfi0","pricing_plan_id":"free"},{"bike_id":"7357421c-dcc0-4ae3-b243-82b4938e19a5","system_id":"levelo_inurba_marseille","lat":43.275625,"lon":5.384392,"is_reserved":false,"is_disabled":false,"rental_uris":{"android":"levelo://app?vid=7357421c-dcc0-4ae3-b243-82b4938e19a5","ios":"levelo://app?vid=7357421c-dcc0-4ae3-b243-82b4938e19a5"},"vehicle_type_id":"4","last_reported":1699736734,"current_range_meters":25600,"station_id":"ce4bhh92rcd13ifvqfi0","pricing_plan_id":"free"},{"bike_id":"30b8a61b-a048-475c-a678-6286a5aa4aa6","system_id":"levelo_inurba_marseille","lat":43.273609,"lon":5.362708,"is_reserved":false,"is_disabled":false,"rental_uris":{"android":"levelo://app?vid=30b8a61b-a048-475c-a678-6286a5aa4aa6","ios":"levelo://app?vid=30b8a61b-a048-475c-a678-6286a5aa4aa6"},"vehicle_type_id":"4","last_reported":1699736734,"current_range_meters":10400,"station_id":"ce4bhbh2rcd13ifvqeo0","pricing_plan_id":"free"},{"bike_id":"57f3a4dc-04bf-482e-ae6a-75fe835216d6","system_id":"levelo_inurba_marseille","lat":43.279952,"lon":5.400085,"is_reserved":false,"is_disabled":false,"rental_uris":{"android":"levelo://app?vid=57f3a4dc-04bf-482e-ae6a-75fe835216d6","ios":"levelo://app?vid=57f3a4dc-04bf-482e-ae6a-75fe835216d6"},"vehicle_type_id":"4","last_reported":1699736734,"current_range_meters":800,"station_id":"ce4bho92rcd13ifvqh4g","pricing_plan_id":"free"},{"bike_id":"ac9c8fb8-cdf3-42bd-a32f-fd580d64d0fd","system_id":"levelo_inurba_marseille","lat":43.279952,"lon":5.400085,"is_reserved":false,"is_disabled":false,"rental_uris":{"android":"levelo://app?vid=ac9c8fb8-cdf3-42bd-a32f-fd580d64d0fd","ios":"levelo://app?vid=ac9c8fb8-cdf3-42bd-a32f-fd580d64d0fd"},"vehicle_type_id":"4","last_reported":1699736734,"current_range_meters":400,"station_id":"ce4bho92rcd13ifvqh4g","pricing_plan_id":"free"},{"bike_id":"68ffca5c-f92e-4d2b-b812-3edfa190d5ea","system_id":"levelo_inurba_marseille","lat":43.278275,"lon":5.396505,"is_reserved":false,"is_disabled":false,"rental_uris":{"android":"levelo://app?vid=68ffca5c-f92e-4d2b-b812-3edfa190d5ea","ios":"levelo://app?vid=68ffca5c-f92e-4d2b-b812-3edfa190d5ea"},"vehicle_type_id":"4","last_reported":1699736734,"current_range_meters":7600,"station_id":"","pricing_plan_id":"free"},{"bike_id":"c4de6aca-74ff-4b8f-a3c4-e48ca6b2257c","system_id":"levelo_inurba_marseille","lat":43.29825,"lon":5.419103,"is_reserved":false,"is_disabled":false,"rental_uris":{"android":"levelo://app?vid=c4de6aca-74ff-4b8f-a3c4-e48ca6b2257c","ios":"levelo://app?vid=c4de6aca-74ff-4b8f-a3c4-e48ca6b2257c"},"vehicle_type_id":"4","last_reported":1699736734,"current_range_meters":4400,"station_id":"","pricing_plan_id":"free"},{"bike_id":"fb678694-b49f-4fb3-ad47-4f150f1527d7","system_id":"levelo_inurba_marseille","lat":43.279952,"lon":5.400085,"is_reserved":false,"is_disabled":false,"rental_uris":{"android":"levelo://app?vid=fb678694-b49f-4fb3-ad47-4f150f1527d7","ios":"levelo://app?vid=fb678694-b49f-4fb3-ad47-4f150f1527d7"},"vehicle_type_id":"4","last_reported":1699736734,"current_range_meters":16800,"station_id":"ce4bho92rcd13ifvqh4g","pricing_plan_id":"free"},{"bike_id":"3a740c5c-b5c6-48b8-8736-3c09a24decaa","system_id":"levelo_inurba_marseille","lat":43.279952,"lon":5.400085,"is_reserved":false,"is_disabled":false,"rental_uris":{"android":"levelo://app?vid=3a740c5c-b5c6-48b8-8736-3c09a24decaa","ios":"levelo://app?vid=3a740c5c-b5c6-48b8-8736-3c09a24decaa"},"vehicle_type_id":"4","last_reported":1699736734,"current_range_meters":29200,"station_id":"ce4bho92rcd13ifvqh4g","pricing_plan_id":"free"},{"bike_id":"6a67f168-92cd-4ba4-bbe7-e0d5add12544","system_id":"levelo_inurba_marseille","lat":43.279952,"lon":5.400085,"is_reserved":false,"is_disabled":false,"rental_uris":{"android":"levelo://app?vid=6a67f168-92cd-4ba4-bbe7-e0d5add12544","ios":"levelo://app?vid=6a67f168-92cd-4ba4-bbe7-e0d5add12544"},"vehicle_type_id":"4","last_reported":1699736734,"current_range_meters":24400,"station_id":"ce4bho92rcd13ifvqh4g","pricing_plan_id":"free"},{"bike_id":"aa363758-f2a0-4be9-841d-d4f67434389b","system_id":"levelo_inurba_marseille","lat":43.340804,"lon":5.410219,"is_reserved":false,"is_disabled":false,"rental_uris":{"android":"levelo://app?vid=aa363758-f2a0-4be9-841d-d4f67434389b","ios":"levelo://app?vid=aa363758-f2a0-4be9-841d-d4f67434389b"},"vehicle_type_id":"4","last_reported":1699736734,"current_range_meters":14000,"station_id":"ce4bhqh2rcd13ifvqhlg","pricing_plan_id":"free"},{"bike_id":"ad5996fc-0490-4118-acb6-5eaf2d7360ad","system_id":"levelo_inurba_marseille","lat":43.273129,"lon":5.390725,"is_reserved":false,"is_disabled":false,"rental_uris":{"android":"levelo://app?vid=ad5996fc-0490-4118-acb6-5eaf2d7360ad","ios":"levelo://app?vid=ad5996fc-0490-4118-acb6-5eaf2d7360ad"},"vehicle_type_id":"4","last_reported":1699736734,"current_range_meters":0,"station_id":"ce4bhgp2rcd13ifvqfe0","pricing_plan_id":"free"},{"bike_id":"da46a96b-2a37-429f-b196-95dae2b0e77b","system_id":"levelo_inurba_marseille","lat":43.274099,"lon":5.394019,"is_reserved":false,"is_disabled":false,"rental_uris":{"android":"levelo://app?vid=da46a96b-2a37-429f-b196-95dae2b0e77b","ios":"levelo://app?vid=da46a96b-2a37-429f-b196-95dae2b0e77b"},"vehicle_type_id":"4","last_reported":1699736734,"current_range_meters":10400,"station_id":"ce4bhdp2rcd13ifvqf20","pricing_plan_id":"free"},{"bike_id":"82119821-f21d-4e0e-b8f9-a90af754c469","system_id":"levelo_inurba_marseille","lat":43.29554,"lon":5.42273,"is_reserved":false,"is_disabled":false,"rental_uris":{"android":"levelo://app?vid=82119821-f21d-4e0e-b8f9-a90af754c469","ios":"levelo://app?vid=82119821-f21d-4e0e-b8f9-a90af754c469"},"vehicle_type_id":"4","last_reported":1699736734,"current_range_meters":17600,"station_id":"ce4bhph2rcd13ifvqhdg","pricing_plan_id":"free"},{"bike_id":"4fc34219-7b9a-4650-a3a9-d0e3a54ef8ba","system_id":"levelo_inurba_marseille","lat":43.295511,"lon":5.422926,"is_reserved":false,"is_disabled":false,"rental_uris":{"android":"levelo://app?vid=4fc34219-7b9a-4650-a3a9-d0e3a54ef8ba","ios":"levelo://app?vid=4fc34219-7b9a-4650-a3a9-d0e3a54ef8ba"},"vehicle_type_id":"4","last_reported":1699736734,"current_range_meters":12000,"station_id":"ce4bhph2rcd13ifvqhdg","pricing_plan_id":"free"},{"bike_id":"4366983c-027f-44bc-9eae-06cead82d896","system_id":"levelo_inurba_marseille","lat":43.295523,"lon":5.422926,"is_reserved":false,"is_disabled":false,"rental_uris":{"android":"levelo://app?vid=4366983c-027f-44bc-9eae-06cead82d896","ios":"levelo://app?vid=4366983c-027f-44bc-9eae-06cead82d896"},"vehicle_type_id":"4","last_reported":1699736734,"current_range_meters":6000,"station_id":"ce4bhph2rcd13ifvqhdg","pricing_plan_id":"free"},{"bike_id":"7f7029a1-fbb1-49c4-a3b6-097f36482fc1","system_id":"levelo_inurba_marseille","lat":43.295523,"lon":5.422926,"is_reserved":false,"is_disabled":false,"rental_uris":{"android":"levelo://app?vid=7f7029a1-fbb1-49c4-a3b6-097f36482fc1","ios":"levelo://app?vid=7f7029a1-fbb1-49c4-a3b6-097f36482fc1"},"vehicle_type_id":"4","last_reported":1699736734,"current_range_meters":32000,"station_id":"ce4bhph2rcd13ifvqhdg","pricing_plan_id":"free"},{"bike_id":"c00f6d2a-eb03-4ee8-8df8-2205ae62126f","system_id":"levelo_inurba_marseille","lat":43.295511,"lon":5.422926,"is_reserved":false,"is_disabled":false,"rental_uris":{"android":"levelo://app?vid=c00f6d2a-eb03-4ee8-8df8-2205ae62126f","ios":"levelo://app?vid=c00f6d2a-eb03-4ee8-8df8-2205ae62126f"},"vehicle_type_id":"4","last_reported":1699736734,"current_range_meters":19600,"station_id":"ce4bhph2rcd13ifvqhdg","pricing_plan_id":"free"},{"bike_id":"6802aefc-7035-4efd-b890-7567a7f0b79e","system_id":"levelo_inurba_marseille","lat":43.295511,"lon":5.422926,"is_reserved":false,"is_disabled":false,"rental_uris":{"android":"levelo://app?vid=6802aefc-7035-4efd-b890-7567a7f0b79e","ios":"levelo://app?vid=6802aefc-7035-4efd-b890-7567a7f0b79e"},"vehicle_type_id":"4","last_reported":1699736734,"current_range_meters":10400,"station_id":"ce4bhph2rcd13ifvqhdg","pricing_plan_id":"free"},{"bike_id":"358fcdaf-2c57-4af6-b6f2-5f28eec7731b","system_id":"levelo_inurba_marseille","lat":43.29041,"lon":5.399634,"is_reserved":false,"is_disabled":false,"rental_uris":{"android":"levelo://app?vid=358fcdaf-2c57-4af6-b6f2-5f28eec7731b","ios":"levelo://app?vid=358fcdaf-2c57-4af6-b6f2-5f28eec7731b"},"vehicle_type_id":"4","last_reported":1699736734,"current_range_meters":14800,"station_id":"ce4bh392rcd13ifvqdm0","pricing_plan_id":"free"},{"bike_id":"fea03e83-2672-4901-b739-2fbff174dd7e","system_id":"levelo_inurba_marseille","lat":43.27216,"lon":5.39252,"is_reserved":false,"is_disabled":false,"rental_uris":{"android":"levelo://app?vid=fea03e83-2672-4901-b739-2fbff174dd7e","ios":"levelo://app?vid=fea03e83-2672-4901-b739-2fbff174dd7e"},"vehicle_type_id":"4","last_reported":1699736734,"current_range_meters":4400,"station_id":"","pricing_plan_id":"free"},{"bike_id":"71e768a2-9b49-49d8-bb9b-827044bbb7f7","system_id":"levelo_inurba_marseille","lat":43.27203,"lon":5.39295,"is_reserved":false,"is_disabled":false,"rental_uris":{"android":"levelo://app?vid=71e768a2-9b49-49d8-bb9b-827044bbb7f7","ios":"levelo://app?vid=71e768a2-9b49-49d8-bb9b-827044bbb7f7"},"vehicle_type_id":"4","last_reported":1699736734,"current_range_meters":17600,"station_id":"","pricing_plan_id":"free"},{"bike_id":"eee6c058-fb9b-4aff-801b-ff161e14e986","system_id":"levelo_inurba_marseille","lat":43.278128,"lon":5.407195,"is_reserved":false,"is_disabled":false,"rental_uris":{"android":"levelo://app?vid=eee6c058-fb9b-4aff-801b-ff161e14e986","ios":"levelo://app?vid=eee6c058-fb9b-4aff-801b-ff161e14e986"},"vehicle_type_id":"4","last_reported":1699736734,"current_range_meters":4800,"station_id":"ce4bhnh2rcd13ifvqgtg","pricing_plan_id":"free"},{"bike_id":"86d62e71-04dc-47ec-9e03-c23c4f9a904d","system_id":"levelo_inurba_marseille","lat":43.278128,"lon":5.407195,"is_reserved":false,"is_disabled":false,"rental_uris":{"android":"levelo://app?vid=86d62e71-04dc-47ec-9e03-c23c4f9a904d","ios":"levelo://app?vid=86d62e71-04dc-47ec-9e03-c23c4f9a904d"},"vehicle_type_id":"4","last_reported":1699736734,"current_range_meters":21200,"station_id":"ce4bhnh2rcd13ifvqgtg","pricing_plan_id":"free"},{"bike_id":"eb620939-ae4a-4359-b067-c44d4162d9f6","system_id":"levelo_inurba_marseille","lat":43.278128,"lon":5.407195,"is_reserved":false,"is_disabled":false,"rental_uris":{"android":"levelo://app?vid=eb620939-ae4a-4359-b067-c44d4162d9f6","ios":"levelo://app?vid=eb620939-ae4a-4359-b067-c44d4162d9f6"},"vehicle_type_id":"4","last_reported":1699736734,"current_range_meters":9600,"station_id":"ce4bhnh2rcd13ifvqgtg","pricing_plan_id":"free"},{"bike_id":"e36db96d-e752-4772-a430-747878200b51","system_id":"levelo_inurba_marseille","lat":43.278128,"lon":5.407195,"is_reserved":false,"is_disabled":false,"rental_uris":{"android":"levelo://app?vid=e36db96d-e752-4772-a430-747878200b51","ios":"levelo://app?vid=e36db96d-e752-4772-a430-747878200b51"},"vehicle_type_id":"4","last_reported":1699736734,"current_range_meters":18000,"station_id":"ce4bhnh2rcd13ifvqgtg","pricing_plan_id":"free"},{"bike_id":"7077b18b-a858-4c8f-bb72-5eacbc6c6f89","system_id":"levelo_inurba_marseille","lat":43.278128,"lon":5.407195,"is_reserved":false,"is_disabled":false,"rental_uris":{"android":"levelo://app?vid=7077b18b-a858-4c8f-bb72-5eacbc6c6f89","ios":"levelo://app?vid=7077b18b-a858-4c8f-bb72-5eacbc6c6f89"},"vehicle_type_id":"4","last_reported":1699736734,"current_range_meters":19200,"station_id":"ce4bhnh2rcd13ifvqgtg","pricing_plan_id":"free"},{"bike_id":"3d16b8a5-448e-4d23-b7f7-e5ed3839b6bf","system_id":"levelo_inurba_marseille","lat":43.27806,"lon":5.40713,"is_reserved":false,"is_disabled":false,"rental_uris":{"android":"levelo://app?vid=3d16b8a5-448e-4d23-b7f7-e5ed3839b6bf","ios":"levelo://app?vid=3d16b8a5-448e-4d23-b7f7-e5ed3839b6bf"},"vehicle_type_id":"4","last_reported":1699736734,"current_range_meters":0,"station_id":"ce4bhnh2rcd13ifvqgtg","pricing_plan_id":"free"},{"bike_id":"04e2b25a-ab9c-498c-9ebe-f54fd018f28f","system_id":"levelo_inurba_marseille","lat":43.279465,"lon":5.410561,"is_reserved":false,"is_disabled":false,"rental_uris":{"android":"levelo://app?vid=04e2b25a-ab9c-498c-9ebe-f54fd018f28f","ios":"levelo://app?vid=04e2b25a-ab9c-498c-9ebe-f54fd018f28f"},"vehicle_type_id":"4","last_reported":1699736734,"current_range_meters":12800,"station_id":"ce4bhnp2rcd13ifvqh0g","pricing_plan_id":"free"},{"bike_id":"58a80678-0450-4da7-b89a-0467c48d8b37","system_id":"levelo_inurba_marseille","lat":43.26559,"lon":5.37287,"is_reserved":false,"is_disabled":false,"rental_uris":{"android":"levelo://app?vid=58a80678-0450-4da7-b89a-0467c48d8b37","ios":"levelo://app?vid=58a80678-0450-4da7-b89a-0467c48d8b37"},"vehicle_type_id":"4","last_reported":1699736734,"current_range_meters":10800,"station_id":"ce4bhg12rcd13ifvqf70","pricing_plan_id":"free"},{"bike_id":"9b2adaf6-fe2e-4595-aa44-8f0a9a83946b","system_id":"levelo_inurba_marseille","lat":43.26557,"lon":5.37282,"is_reserved":false,"is_disabled":false,"rental_uris":{"android":"levelo://app?vid=9b2adaf6-fe2e-4595-aa44-8f0a9a83946b","ios":"levelo://app?vid=9b2adaf6-fe2e-4595-aa44-8f0a9a83946b"},"vehicle_type_id":"4","last_reported":1699736734,"current_range_meters":10400,"station_id":"ce4bhg12rcd13ifvqf70","pricing_plan_id":"free"},{"bike_id":"24a98604-7473-4413-af90-cbe5302d27d3","system_id":"levelo_inurba_marseille","lat":43.26555,"lon":5.37283,"is_reserved":false,"is_disabled":false,"rental_uris":{"android":"levelo://app?vid=24a98604-7473-4413-af90-cbe5302d27d3","ios":"levelo://app?vid=24a98604-7473-4413-af90-cbe5302d27d3"},"vehicle_type_id":"4","last_reported":1699736734,"current_range_meters":14800,"station_id":"ce4bhg12rcd13ifvqf70","pricing_plan_id":"free"},{"bike_id":"f86e103e-4052-4d35-80b7-85b1a33f1d6f","system_id":"levelo_inurba_marseille","lat":43.26553,"lon":5.3728,"is_reserved":false,"is_disabled":false,"rental_uris":{"android":"levelo://app?vid=f86e103e-4052-4d35-80b7-85b1a33f1d6f","ios":"levelo://app?vid=f86e103e-4052-4d35-80b7-85b1a33f1d6f"},"vehicle_type_id":"4","last_reported":1699736734,"current_range_meters":15600,"station_id":"ce4bhg12rcd13ifvqf70","pricing_plan_id":"free"},{"bike_id":"53ab52e4-f318-4f0f-8547-7c393ca237aa","system_id":"levelo_inurba_marseille","lat":43.26553,"lon":5.37286,"is_reserved":false,"is_disabled":false,"rental_uris":{"android":"levelo://app?vid=53ab52e4-f318-4f0f-8547-7c393ca237aa","ios":"levelo://app?vid=53ab52e4-f318-4f0f-8547-7c393ca237aa"},"vehicle_type_id":"4","last_reported":1699736734,"current_range_meters":24800,"station_id":"ce4bhg12rcd13ifvqf70","pricing_plan_id":"free"},{"bike_id":"ce3a7489-33b7-44e7-b164-0fb7bf1a45d4","system_id":"levelo_inurba_marseille","lat":43.27991,"lon":5.41657,"is_reserved":false,"is_disabled":false,"rental_uris":{"android":"levelo://app?vid=ce3a7489-33b7-44e7-b164-0fb7bf1a45d4","ios":"levelo://app?vid=ce3a7489-33b7-44e7-b164-0fb7bf1a45d4"},"vehicle_type_id":"4","last_reported":1699736734,"current_range_meters":0,"station_id":"ce4bho12rcd13ifvqh1g","pricing_plan_id":"free"},{"bike_id":"785d0f9d-c4bf-4c8e-bb45-d3dde57a7fd3","system_id":"levelo_inurba_marseille","lat":43.308051,"lon":5.43527,"is_reserved":false,"is_disabled":false,"rental_uris":{"android":"levelo://app?vid=785d0f9d-c4bf-4c8e-bb45-d3dde57a7fd3","ios":"levelo://app?vid=785d0f9d-c4bf-4c8e-bb45-d3dde57a7fd3"},"vehicle_type_id":"4","last_reported":1699736734,"current_range_meters":28400,"station_id":"ce4bhph2rcd13ifvqheg","pricing_plan_id":"free"},{"bike_id":"67e522cd-7615-4ba2-8304-903517acc0e3","system_id":"levelo_inurba_marseille","lat":43.308,"lon":5.43529,"is_reserved":false,"is_disabled":false,"rental_uris":{"android":"levelo://app?vid=67e522cd-7615-4ba2-8304-903517acc0e3","ios":"levelo://app?vid=67e522cd-7615-4ba2-8304-903517acc0e3"},"vehicle_type_id":"4","last_reported":1699736734,"current_range_meters":15600,"station_id":"ce4bhph2rcd13ifvqheg","pricing_plan_id":"free"},{"bike_id":"3f9326d6-aa8a-4af8-9866-969338e3a52d","system_id":"levelo_inurba_marseille","lat":43.26562,"lon":5.39009,"is_reserved":false,"is_disabled":false,"rental_uris":{"android":"levelo://app?vid=3f9326d6-aa8a-4af8-9866-969338e3a52d","ios":"levelo://app?vid=3f9326d6-aa8a-4af8-9866-969338e3a52d"},"vehicle_type_id":"4","last_reported":1699736734,"current_range_meters":0,"station_id":"ce4bhe12rcd13ifvqf30","pricing_plan_id":"free"},{"bike_id":"2aa6c4b1-a67d-43b7-9eb1-fe5b5bec91bf","system_id":"levelo_inurba_marseille","lat":43.32903,"lon":5.43282,"is_reserved":false,"is_disabled":false,"rental_uris":{"android":"levelo://app?vid=2aa6c4b1-a67d-43b7-9eb1-fe5b5bec91bf","ios":"levelo://app?vid=2aa6c4b1-a67d-43b7-9eb1-fe5b5bec91bf"},"vehicle_type_id":"4","last_reported":1699736734,"current_range_meters":9600,"station_id":"","pricing_plan_id":"free"},{"bike_id":"99d1910d-a84d-4eaf-bf7a-e5a15d325b53","system_id":"levelo_inurba_marseille","lat":43.331823,"lon":5.431664,"is_reserved":false,"is_disabled":false,"rental_uris":{"android":"levelo://app?vid=99d1910d-a84d-4eaf-bf7a-e5a15d325b53","ios":"levelo://app?vid=99d1910d-a84d-4eaf-bf7a-e5a15d325b53"},"vehicle_type_id":"4","last_reported":1699736734,"current_range_meters":0,"station_id":"","pricing_plan_id":"free"},{"bike_id":"e6330d8d-0e24-4594-a42f-64541cc5c040","system_id":"levelo_inurba_marseille","lat":43.261782,"lon":5.374515,"is_reserved":false,"is_disabled":false,"rental_uris":{"android":"levelo://app?vid=e6330d8d-0e24-4594-a42f-64541cc5c040","ios":"levelo://app?vid=e6330d8d-0e24-4594-a42f-64541cc5c040"},"vehicle_type_id":"4","last_reported":1699736734,"current_range_meters":0,"station_id":"ce4bhgp2rcd13ifvqfc0","pricing_plan_id":"free"},{"bike_id":"12d81410-7a6d-4175-b443-aad7cdb3c61e","system_id":"levelo_inurba_marseille","lat":43.271368,"lon":5.40928,"is_reserved":false,"is_disabled":false,"rental_uris":{"android":"levelo://app?vid=12d81410-7a6d-4175-b443-aad7cdb3c61e","ios":"levelo://app?vid=12d81410-7a6d-4175-b443-aad7cdb3c61e"},"vehicle_type_id":"4","last_reported":1699736734,"current_range_meters":13600,"station_id":"ce4bhl12rcd13ifvqgf0","pricing_plan_id":"free"},{"bike_id":"78d81b4d-23c2-43ac-8354-49ff28d2975d","system_id":"levelo_inurba_marseille","lat":43.267959,"lon":5.402687,"is_reserved":false,"is_disabled":false,"rental_uris":{"android":"levelo://app?vid=78d81b4d-23c2-43ac-8354-49ff28d2975d","ios":"levelo://app?vid=78d81b4d-23c2-43ac-8354-49ff28d2975d"},"vehicle_type_id":"4","last_reported":1699736734,"current_range_meters":0,"station_id":"ce501612rcd8frsf0b60","pricing_plan_id":"free"},{"bike_id":"c48c9371-7c30-4897-8647-06790164a180","system_id":"levelo_inurba_marseille","lat":43.26501,"lon":5.39732,"is_reserved":false,"is_disabled":false,"rental_uris":{"android":"levelo://app?vid=c48c9371-7c30-4897-8647-06790164a180","ios":"levelo://app?vid=c48c9371-7c30-4897-8647-06790164a180"},"vehicle_type_id":"4","last_reported":1699736734,"current_range_meters":0,"station_id":"","pricing_plan_id":"free"},{"bike_id":"3b5bfcfe-b7e3-4624-abf7-d21c0c861046","system_id":"levelo_inurba_marseille","lat":43.281784,"lon":5.425636,"is_reserved":false,"is_disabled":false,"rental_uris":{"android":"levelo://app?vid=3b5bfcfe-b7e3-4624-abf7-d21c0c861046","ios":"levelo://app?vid=3b5bfcfe-b7e3-4624-abf7-d21c0c861046"},"vehicle_type_id":"4","last_reported":1699736734,"current_range_meters":2000,"station_id":"","pricing_plan_id":"free"},{"bike_id":"0ca7f40e-2fb6-4790-9d8e-160072cb2c3c","system_id":"levelo_inurba_marseille","lat":43.260225,"lon":5.375455,"is_reserved":false,"is_disabled":false,"rental_uris":{"android":"levelo://app?vid=0ca7f40e-2fb6-4790-9d8e-160072cb2c3c","ios":"levelo://app?vid=0ca7f40e-2fb6-4790-9d8e-160072cb2c3c"},"vehicle_type_id":"4","last_reported":1699736734,"current_range_meters":17200,"station_id":"ce4bhgh2rcd13ifvqfa0","pricing_plan_id":"free"},{"bike_id":"4f6880f4-3164-4fc2-9cf7-3c1358040f10","system_id":"levelo_inurba_marseille","lat":43.290501,"lon":5.433305,"is_reserved":false,"is_disabled":false,"rental_uris":{"android":"levelo://app?vid=4f6880f4-3164-4fc2-9cf7-3c1358040f10","ios":"levelo://app?vid=4f6880f4-3164-4fc2-9cf7-3c1358040f10"},"vehicle_type_id":"4","last_reported":1699736734,"current_range_meters":18400,"station_id":"","pricing_plan_id":"free"},{"bike_id":"dd5527bb-2a16-4299-a9f9-2eaaf249312f","system_id":"levelo_inurba_marseille","lat":43.281548,"lon":5.42643,"is_reserved":false,"is_disabled":false,"rental_uris":{"android":"levelo://app?vid=dd5527bb-2a16-4299-a9f9-2eaaf249312f","ios":"levelo://app?vid=dd5527bb-2a16-4299-a9f9-2eaaf249312f"},"vehicle_type_id":"4","last_reported":1699736734,"current_range_meters":28400,"station_id":"ce4bhnh2rcd13ifvqgug","pricing_plan_id":"free"},{"bike_id":"a263486d-f56a-46d5-a1dd-a63185081ceb","system_id":"levelo_inurba_marseille","lat":43.281548,"lon":5.42643,"is_reserved":false,"is_disabled":false,"rental_uris":{"android":"levelo://app?vid=a263486d-f56a-46d5-a1dd-a63185081ceb","ios":"levelo://app?vid=a263486d-f56a-46d5-a1dd-a63185081ceb"},"vehicle_type_id":"4","last_reported":1699736734,"current_range_meters":20000,"station_id":"ce4bhnh2rcd13ifvqgug","pricing_plan_id":"free"},{"bike_id":"1ed73a19-67b5-4669-8526-685c80708e99","system_id":"levelo_inurba_marseille","lat":43.281548,"lon":5.42643,"is_reserved":false,"is_disabled":false,"rental_uris":{"android":"levelo://app?vid=1ed73a19-67b5-4669-8526-685c80708e99","ios":"levelo://app?vid=1ed73a19-67b5-4669-8526-685c80708e99"},"vehicle_type_id":"4","last_reported":1699736734,"current_range_meters":32000,"station_id":"ce4bhnh2rcd13ifvqgug","pricing_plan_id":"free"},{"bike_id":"36c987c0-f24d-4ba9-8775-bb8cd20b74ec","system_id":"levelo_inurba_marseille","lat":43.281548,"lon":5.42643,"is_reserved":false,"is_disabled":false,"rental_uris":{"android":"levelo://app?vid=36c987c0-f24d-4ba9-8775-bb8cd20b74ec","ios":"levelo://app?vid=36c987c0-f24d-4ba9-8775-bb8cd20b74ec"},"vehicle_type_id":"4","last_reported":1699736734,"current_range_meters":29600,"station_id":"ce4bhnh2rcd13ifvqgug","pricing_plan_id":"free"},{"bike_id":"08e440d5-ba27-492d-9ac0-cfeffa9c671b","system_id":"levelo_inurba_marseille","lat":43.281548,"lon":5.42643,"is_reserved":false,"is_disabled":false,"rental_uris":{"android":"levelo://app?vid=08e440d5-ba27-492d-9ac0-cfeffa9c671b","ios":"levelo://app?vid=08e440d5-ba27-492d-9ac0-cfeffa9c671b"},"vehicle_type_id":"4","last_reported":1699736734,"current_range_meters":16800,"station_id":"ce4bhnh2rcd13ifvqgug","pricing_plan_id":"free"},{"bike_id":"7929fe62-478b-45ed-a32f-4cee63794674","system_id":"levelo_inurba_marseille","lat":43.275005,"lon":5.424511,"is_reserved":false,"is_disabled":false,"rental_uris":{"android":"levelo://app?vid=7929fe62-478b-45ed-a32f-4cee63794674","ios":"levelo://app?vid=7929fe62-478b-45ed-a32f-4cee63794674"},"vehicle_type_id":"4","last_reported":1699736734,"current_range_meters":16400,"station_id":"","pricing_plan_id":"free"},{"bike_id":"f7bf043e-c185-4725-8c29-83dc93dfb717","system_id":"levelo_inurba_marseille","lat":43.275028,"lon":5.424534,"is_reserved":false,"is_disabled":false,"rental_uris":{"android":"levelo://app?vid=f7bf043e-c185-4725-8c29-83dc93dfb717","ios":"levelo://app?vid=f7bf043e-c185-4725-8c29-83dc93dfb717"},"vehicle_type_id":"4","last_reported":1699736734,"current_range_meters":15600,"station_id":"ce4bhn92rcd13ifvqgrg","pricing_plan_id":"free"},{"bike_id":"94b57c57-36a8-4aaa-b9d9-4925506dfe6a","system_id":"levelo_inurba_marseille","lat":43.25585,"lon":5.38231,"is_reserved":false,"is_disabled":false,"rental_uris":{"android":"levelo://app?vid=94b57c57-36a8-4aaa-b9d9-4925506dfe6a","ios":"levelo://app?vid=94b57c57-36a8-4aaa-b9d9-4925506dfe6a"},"vehicle_type_id":"4","last_reported":1699736734,"current_range_meters":1200,"station_id":"ce4bhih2rcd13ifvqfs0","pricing_plan_id":"free"},{"bike_id":"bfa926d2-3a4f-4c20-a905-d070cc0b60bc","system_id":"levelo_inurba_marseille","lat":43.258224,"lon":5.394369,"is_reserved":false,"is_disabled":false,"rental_uris":{"android":"levelo://app?vid=bfa926d2-3a4f-4c20-a905-d070cc0b60bc","ios":"levelo://app?vid=bfa926d2-3a4f-4c20-a905-d070cc0b60bc"},"vehicle_type_id":"4","last_reported":1699736734,"current_range_meters":2400,"station_id":"ce4bhip2rcd13ifvqft0","pricing_plan_id":"free"},{"bike_id":"d1be4948-3db8-46c6-a0e9-4eb9877553a6","system_id":"levelo_inurba_marseille","lat":43.25497,"lon":5.3765,"is_reserved":false,"is_disabled":false,"rental_uris":{"android":"levelo://app?vid=d1be4948-3db8-46c6-a0e9-4eb9877553a6","ios":"levelo://app?vid=d1be4948-3db8-46c6-a0e9-4eb9877553a6"},"vehicle_type_id":"4","last_reported":1699736734,"current_range_meters":22800,"station_id":"ce4bhh12rcd13ifvqff0","pricing_plan_id":"free"},{"bike_id":"c70b55b3-86c9-4446-83d0-302c2ea2e52b","system_id":"levelo_inurba_marseille","lat":43.24814,"lon":5.374621,"is_reserved":false,"is_disabled":false,"rental_uris":{"android":"levelo://app?vid=c70b55b3-86c9-4446-83d0-302c2ea2e52b","ios":"levelo://app?vid=c70b55b3-86c9-4446-83d0-302c2ea2e52b"},"vehicle_type_id":"4","last_reported":1699736734,"current_range_meters":30800,"station_id":"ce4bhgh2rcd13ifvqfb0","pricing_plan_id":"free"},{"bike_id":"1a74536a-762e-4a57-a075-93fd463fcb16","system_id":"levelo_inurba_marseille","lat":43.2479,"lon":5.374457,"is_reserved":false,"is_disabled":false,"rental_uris":{"android":"levelo://app?vid=1a74536a-762e-4a57-a075-93fd463fcb16","ios":"levelo://app?vid=1a74536a-762e-4a57-a075-93fd463fcb16"},"vehicle_type_id":"4","last_reported":1699736734,"current_range_meters":17200,"station_id":"ce4bhgh2rcd13ifvqfb0","pricing_plan_id":"free"},{"bike_id":"2b35464d-63a0-4a02-8eda-eec1e86fbbc2","system_id":"levelo_inurba_marseille","lat":43.24693,"lon":5.382096,"is_reserved":false,"is_disabled":false,"rental_uris":{"android":"levelo://app?vid=2b35464d-63a0-4a02-8eda-eec1e86fbbc2","ios":"levelo://app?vid=2b35464d-63a0-4a02-8eda-eec1e86fbbc2"},"vehicle_type_id":"4","last_reported":1699736734,"current_range_meters":17600,"station_id":"ce4bhih2rcd13ifvqfr0","pricing_plan_id":"free"},{"bike_id":"dd3a45de-b87e-4613-8e52-da4559247b3d","system_id":"levelo_inurba_marseille","lat":43.25117,"lon":5.40316,"is_reserved":false,"is_disabled":false,"rental_uris":{"android":"levelo://app?vid=dd3a45de-b87e-4613-8e52-da4559247b3d","ios":"levelo://app?vid=dd3a45de-b87e-4613-8e52-da4559247b3d"},"vehicle_type_id":"4","last_reported":1699736734,"current_range_meters":15600,"station_id":"ce4bhlh2rcd13ifvqgig","pricing_plan_id":"free"},{"bike_id":"2cf684c5-e93b-4e19-a2a4-8828537a0d16","system_id":"levelo_inurba_marseille","lat":43.24693,"lon":5.382096,"is_reserved":false,"is_disabled":false,"rental_uris":{"android":"levelo://app?vid=2cf684c5-e93b-4e19-a2a4-8828537a0d16","ios":"levelo://app?vid=2cf684c5-e93b-4e19-a2a4-8828537a0d16"},"vehicle_type_id":"4","last_reported":1699736734,"current_range_meters":31600,"station_id":"ce4bhih2rcd13ifvqfr0","pricing_plan_id":"free"},{"bike_id":"adda1b89-4988-41f7-a68c-f18da3b493b5","system_id":"levelo_inurba_marseille","lat":43.25107,"lon":5.40325,"is_reserved":false,"is_disabled":false,"rental_uris":{"android":"levelo://app?vid=adda1b89-4988-41f7-a68c-f18da3b493b5","ios":"levelo://app?vid=adda1b89-4988-41f7-a68c-f18da3b493b5"},"vehicle_type_id":"4","last_reported":1699736734,"current_range_meters":8000,"station_id":"ce4bhlh2rcd13ifvqgig","pricing_plan_id":"free"},{"bike_id":"378b6096-d1c8-49df-a2b3-8bf69749ebd3","system_id":"levelo_inurba_marseille","lat":43.251,"lon":5.40322,"is_reserved":false,"is_disabled":false,"rental_uris":{"android":"levelo://app?vid=378b6096-d1c8-49df-a2b3-8bf69749ebd3","ios":"levelo://app?vid=378b6096-d1c8-49df-a2b3-8bf69749ebd3"},"vehicle_type_id":"4","last_reported":1699736734,"current_range_meters":0,"station_id":"ce4bhlh2rcd13ifvqgig","pricing_plan_id":"free"},{"bike_id":"2cb2dfd6-d8dd-4133-bc0b-49e36f1f3b0a","system_id":"levelo_inurba_marseille","lat":43.240623,"lon":5.377642,"is_reserved":false,"is_disabled":false,"rental_uris":{"android":"levelo://app?vid=2cb2dfd6-d8dd-4133-bc0b-49e36f1f3b0a","ios":"levelo://app?vid=2cb2dfd6-d8dd-4133-bc0b-49e36f1f3b0a"},"vehicle_type_id":"4","last_reported":1699736734,"current_range_meters":31200,"station_id":"ce4bhnp2rcd13ifvqgvg","pricing_plan_id":"free"},{"bike_id":"4f79aa2a-74a2-4509-b77a-57eb459b7e39","system_id":"levelo_inurba_marseille","lat":43.231923,"lon":5.355545,"is_reserved":false,"is_disabled":false,"rental_uris":{"android":"levelo://app?vid=4f79aa2a-74a2-4509-b77a-57eb459b7e39","ios":"levelo://app?vid=4f79aa2a-74a2-4509-b77a-57eb459b7e39"},"vehicle_type_id":"4","last_reported":1699736734,"current_range_meters":25600,"station_id":"ce4bhu92rcd13ifvqi70","pricing_plan_id":"free"},{"bike_id":"4e116bed-fac4-4a4f-9500-0a5b0e267303","system_id":"levelo_inurba_marseille","lat":43.231919,"lon":5.355532,"is_reserved":false,"is_disabled":false,"rental_uris":{"android":"levelo://app?vid=4e116bed-fac4-4a4f-9500-0a5b0e267303","ios":"levelo://app?vid=4e116bed-fac4-4a4f-9500-0a5b0e267303"},"vehicle_type_id":"4","last_reported":1699736734,"current_range_meters":32000,"station_id":"ce4bhu92rcd13ifvqi70","pricing_plan_id":"free"},{"bike_id":"0859de7a-4e96-4994-915d-d196bedc1906","system_id":"levelo_inurba_marseille","lat":43.231936,"lon":5.355505,"is_reserved":false,"is_disabled":false,"rental_uris":{"android":"levelo://app?vid=0859de7a-4e96-4994-915d-d196bedc1906","ios":"levelo://app?vid=0859de7a-4e96-4994-915d-d196bedc1906"},"vehicle_type_id":"4","last_reported":1699736734,"current_range_meters":14800,"station_id":"ce4bhu92rcd13ifvqi70","pricing_plan_id":"free"},{"bike_id":"72e6d634-443d-4c41-8159-a5fd9a7a7266","system_id":"levelo_inurba_marseille","lat":43.231919,"lon":5.355532,"is_reserved":false,"is_disabled":false,"rental_uris":{"android":"levelo://app?vid=72e6d634-443d-4c41-8159-a5fd9a7a7266","ios":"levelo://app?vid=72e6d634-443d-4c41-8159-a5fd9a7a7266"},"vehicle_type_id":"4","last_reported":1699736734,"current_range_meters":12800,"station_id":"ce4bhu92rcd13ifvqi70","pricing_plan_id":"free"},{"bike_id":"160b920b-7d61-4adc-a6bf-5bb49b108205","system_id":"levelo_inurba_marseille","lat":43.231887,"lon":5.35547,"is_reserved":false,"is_disabled":false,"rental_uris":{"android":"levelo://app?vid=160b920b-7d61-4adc-a6bf-5bb49b108205","ios":"levelo://app?vid=160b920b-7d61-4adc-a6bf-5bb49b108205"},"vehicle_type_id":"4","last_reported":1699736734,"current_range_meters":29200,"station_id":"ce4bhu92rcd13ifvqi70","pricing_plan_id":"free"},{"bike_id":"693f21cd-b058-4d5a-916a-d8bce96c3e74","system_id":"levelo_inurba_marseille","lat":43.231794,"lon":5.400052,"is_reserved":false,"is_disabled":false,"rental_uris":{"android":"levelo://app?vid=693f21cd-b058-4d5a-916a-d8bce96c3e74","ios":"levelo://app?vid=693f21cd-b058-4d5a-916a-d8bce96c3e74"},"vehicle_type_id":"4","last_reported":1699736734,"current_range_meters":30800,"station_id":"ce4bhn12rcd13ifvqgqg","pricing_plan_id":"free"},{"bike_id":"75051775-55f0-4dfa-89e1-713e73b3b5ec","system_id":"levelo_inurba_marseille","lat":43.231794,"lon":5.400052,"is_reserved":false,"is_disabled":false,"rental_uris":{"android":"levelo://app?vid=75051775-55f0-4dfa-89e1-713e73b3b5ec","ios":"levelo://app?vid=75051775-55f0-4dfa-89e1-713e73b3b5ec"},"vehicle_type_id":"4","last_reported":1699736734,"current_range_meters":29200,"station_id":"ce4bhn12rcd13ifvqgqg","pricing_plan_id":"free"},{"bike_id":"c73ac301-ac1d-4a09-9f36-1294d82ed020","system_id":"levelo_inurba_marseille","lat":43.23184,"lon":5.39991,"is_reserved":false,"is_disabled":false,"rental_uris":{"android":"levelo://app?vid=c73ac301-ac1d-4a09-9f36-1294d82ed020","ios":"levelo://app?vid=c73ac301-ac1d-4a09-9f36-1294d82ed020"},"vehicle_type_id":"4","last_reported":1699736734,"current_range_meters":16800,"station_id":"ce4bhn12rcd13ifvqgqg","pricing_plan_id":"free"},{"bike_id":"3a4ba6cf-2389-4cee-8433-96693a767690","system_id":"levelo_inurba_marseille","lat":43.231794,"lon":5.400052,"is_reserved":false,"is_disabled":false,"rental_uris":{"android":"levelo://app?vid=3a4ba6cf-2389-4cee-8433-96693a767690","ios":"levelo://app?vid=3a4ba6cf-2389-4cee-8433-96693a767690"},"vehicle_type_id":"4","last_reported":1699736734,"current_range_meters":24400,"station_id":"ce4bhn12rcd13ifvqgqg","pricing_plan_id":"free"},{"bike_id":"03eb3b07-bb33-4718-9345-d81c07746463","system_id":"levelo_inurba_marseille","lat":43.231794,"lon":5.400052,"is_reserved":false,"is_disabled":false,"rental_uris":{"android":"levelo://app?vid=03eb3b07-bb33-4718-9345-d81c07746463","ios":"levelo://app?vid=03eb3b07-bb33-4718-9345-d81c07746463"},"vehicle_type_id":"4","last_reported":1699736734,"current_range_meters":8400,"station_id":"ce4bhn12rcd13ifvqgqg","pricing_plan_id":"free"},{"bike_id":"464f1df5-2d43-4fb7-be7e-9fe810edff2d","system_id":"levelo_inurba_marseille","lat":43.231793,"lon":5.400044,"is_reserved":false,"is_disabled":false,"rental_uris":{"android":"levelo://app?vid=464f1df5-2d43-4fb7-be7e-9fe810edff2d","ios":"levelo://app?vid=464f1df5-2d43-4fb7-be7e-9fe810edff2d"},"vehicle_type_id":"4","last_reported":1699736734,"current_range_meters":27600,"station_id":"ce4bhn12rcd13ifvqgqg","pricing_plan_id":"free"},{"bike_id":"9c2e35fe-3565-4306-b833-896e71830310","system_id":"levelo_inurba_marseille","lat":43.231793,"lon":5.400044,"is_reserved":false,"is_disabled":false,"rental_uris":{"android":"levelo://app?vid=9c2e35fe-3565-4306-b833-896e71830310","ios":"levelo://app?vid=9c2e35fe-3565-4306-b833-896e71830310"},"vehicle_type_id":"4","last_reported":1699736734,"current_range_meters":28800,"station_id":"ce4bhn12rcd13ifvqgqg","pricing_plan_id":"free"},{"bike_id":"bd3c6b61-31ca-4319-890e-b5e4806101e9","system_id":"levelo_inurba_marseille","lat":43.231794,"lon":5.400052,"is_reserved":false,"is_disabled":false,"rental_uris":{"android":"levelo://app?vid=bd3c6b61-31ca-4319-890e-b5e4806101e9","ios":"levelo://app?vid=bd3c6b61-31ca-4319-890e-b5e4806101e9"},"vehicle_type_id":"4","last_reported":1699736734,"current_range_meters":0,"station_id":"ce4bhn12rcd13ifvqgqg","pricing_plan_id":"free"},{"bike_id":"1cd3e561-6dcd-4cb2-ac3e-b30a4b454baf","system_id":"levelo_inurba_marseille","lat":43.232773,"lon":5.412097,"is_reserved":false,"is_disabled":false,"rental_uris":{"android":"levelo://app?vid=1cd3e561-6dcd-4cb2-ac3e-b30a4b454baf","ios":"levelo://app?vid=1cd3e561-6dcd-4cb2-ac3e-b30a4b454baf"},"vehicle_type_id":"4","last_reported":1699736734,"current_range_meters":16000,"station_id":"","pricing_plan_id":"free"},{"bike_id":"38b8dd6c-607b-42a8-827d-dba892882f66","system_id":"levelo_inurba_marseille","lat":43.23154,"lon":5.43698,"is_reserved":false,"is_disabled":false,"rental_uris":{"android":"levelo://app?vid=38b8dd6c-607b-42a8-827d-dba892882f66","ios":"levelo://app?vid=38b8dd6c-607b-42a8-827d-dba892882f66"},"vehicle_type_id":"4","last_reported":1699736734,"current_range_meters":5200,"station_id":"ce4bhmp2rcd13ifvqgog","pricing_plan_id":"free"},