{"last_updated":1701871611,"ttl":30,"version":"2.2","data":{"bikes":[{"bike_id":"3a9b5267-1e6b-4241-88fe-8869541b4bcc","system_id":"levelo_inurba_marseille","lat":43.31341,"lon":5.367098,"is_reserved":false,"is_disabled":false,"rental_uris":{"android":"levelo://app?vid=3a9b5267-1e6b-4241-88fe-8869541b4bcc","ios":"levelo://app?vid=3a9b5267-1e6b-4241-88fe-8869541b4bcc"},"vehicle_type_id":"4","last_reported":1701871611,"current_range_meters":30800,"station_id":"ce4bgr92rcd13ifvqc6g","pricing_plan_id":"free"},{"bike_id":"ba9bb771-dc60-40b2-b810-826e56111735","system_id":"levelo_inurba_marseille","lat":43.313391,"lon":5.36706,"is_reserved":false,"is_disabled":false,"rental_uris":{"android":"levelo://app?vid=ba9bb771-dc60-40b2-b810-826e56111735","ios":"levelo://app?vid=ba9bb771-dc60-40b2-b810-826e56111735"},"vehicle_type_id":"4","last_reported":1701871611,"current_range_meters":32000,"station_id":"ce4bgr92rcd13ifvqc6g","pricing_plan_id":"free"},{"bike_id":"373c682f-8a52-4d5b-87bf-cc5fef03619f","system_id":"levelo_inurba_marseille","lat":43.313391,"lon":5.36706,"is_reserved":false,"is_disabled":false,"rental_uris":{"android":"levelo://app?vid=373c682f-8a52-4d5b-87bf-cc5fef03619f","ios":"levelo://app?vid=373c682f-8a52-4d5b-87bf-cc5fef03619f"},"vehicle_type_id":"4","last_reported":1701871611,"current_range_meters":19600,"station_id":"ce4bgr92rcd13ifvqc6g","pricing_plan_id":"free"},{"bike_id":"abc62d03-4891-49c3-94b1-60d308d83518","system_id":"levelo_inurba_marseille","lat":43.31341,"lon":5.367098,"is_reserved":false,"is_disabled":false,"rental_uris":{"android":"levelo://app?vid=abc62d03-4891-49c3-94b1-60d308d83518","ios":"levelo://app?vid=abc62d03-4891-49c3-94b1-60d308d83518"},"vehicle_type_id":"4","last_reported":1701871611,"current_range_meters":25600,"station_id":"ce4bgr92rcd13ifvqc6g","pricing_plan_id":"free"},{"bike_id":"d7cff2fc-91b2-414b-8664-514c29073941","system_id":"levelo_inurba_marseille","lat":43.313391,"lon":5.36706,"is_reserved":false,"is_disabled":false,"rental_uris":{"android":"levelo://app?vid=d7cff2fc-91b2-414b-8664-514c29073941","ios":"levelo://app?vid=d7cff2fc-91b2-414b-8664-514c29073941"},"vehicle_type_id":"4","last_reported":1701871611,"current_range_meters":18000,"station_id":"ce4bgr92rcd13ifvqc6g","pricing_plan_id":"free"},{"bike_id":"59722351-95bc-4293-a766-6b37dcb2083d","system_id":"levelo_inurba_marseille","lat":43.313391,"lon":5.36706,"is_reserved":false,"is_disabled":false,"rental_uris":{"android":"levelo://app?vid=59722351-95bc-4293-a766-6b37dcb2083d","ios":"levelo://app?vid=59722351-95bc-4293-a766-6b37dcb2083d"},"vehicle_type_id":"4","last_reported":1701871611,"current_range_meters":26000,"station_id":"ce4bgr92rcd13ifvqc6g","pricing_plan_id":"free"},{"bike_id":"3d529393-120c-4e42-a57e-af9af9e35db1","system_id":"levelo_inurba_marseille","lat":43.31341,"lon":5.367098,"is_reserved":false,"is_disabled":false,"rental_uris":{"android":"levelo://app?vid=3d529393-120c-4e42-a57e-af9af9e35db1","ios":"levelo://app?vid=3d529393-120c-4e42-a57e-af9af9e35db1"},"vehicle_type_id":"4","last_reported":1701871611,"current_range_meters":32000,"station_id":"ce4bgr92rcd13ifvqc6g","pricing_plan_id":"free"},{"bike_id":"11a0f3d6-d069-47ed-918a-40eecf757967","system_id":"levelo_inurba_marseille","lat":43.313607,"lon":5.367108,"is_reserved":false,"is_disabled":false,"rental_uris":{"android":"levelo://app?vid=11a0f3d6-d069-47ed-918a-40eecf757967","ios":"levelo://app?vid=11a0f3d6-d069-47ed-918a-40eecf757967"},"vehicle_type_id":"4","last_reported":1701871611,"current_range_meters":17600,"station_id":"ce4bgr92rcd13ifvqc6g","pricing_plan_id":"free"},{"bike_id":"9ee78ad1-fc8d-4485-912c-a8a0ec6f5528","system_id":"levelo_inurba_marseille","lat":43.31366,"lon":5.367,"is_reserved":false,"is_disabled":false,"rental_uris":{"android":"levelo://app?vid=9ee78ad1-fc8d-4485-912c-a8a0ec6f5528","ios":"levelo://app?vid=9ee78ad1-fc8d-4485-912c-a8a0ec6f5528"},"vehicle_type_id":"4","last_reported":1701871611,"current_range_meters":11600,"station_id":"ce4bgr92rcd13ifvqc6g","pricing_plan_id":"free"},{"bike_id":"c0470a3c-42aa-4c59-8acf-31502aa0bab9","system_id":"levelo_inurba_marseille","lat":43.31341,"lon":5.367098,"is_reserved":false,"is_disabled":false,"rental_uris":{"android":"levelo://app?vid=c0470a3c-42aa-4c59-8acf-31502aa0bab9","ios":"levelo://app?vid=c0470a3c-42aa-4c59-8acf-31502aa0bab9"},"vehicle_type_id":"4","last_reported":1701871611,"current_range_meters":8400,"station_id":"ce4bgr92rcd13ifvqc6g","pricing_plan_id":"free"},{"bike_id":"7e39f720-558b-482d-a04e-f6935e843af6","system_id":"levelo_inurba_marseille","lat":43.314811,"lon":5.373103,"is_reserved":false,"is_disabled":false,"rental_uris":{"android":"levelo://app?vid=7e39f720-558b-482d-a04e-f6935e843af6","ios":"levelo://app?vid=7e39f720-558b-482d-a04e-f6935e843af6"},"vehicle_type_id":"4","last_reported":1701871611,"current_range_meters":15600,"station_id":"ce4bgt12rcd13ifvqcd0","pricing_plan_id":"free"},{"bike_id":"a7628787-d514-44f0-9a4b-bd8643f93ca4","system_id":"levelo_inurba_marseille","lat":43.309039,"lon":5.371797,"is_reserved":false,"is_disabled":false,"rental_uris":{"android":"levelo://app?vid=a7628787-d514-44f0-9a4b-bd8643f93ca4","ios":"levelo://app?vid=a7628787-d514-44f0-9a4b-bd8643f93ca4"},"vehicle_type_id":"4","last_reported":1701871611,"current_range_meters":27600,"station_id":"ce4bguh2rcd13ifvqckg","pricing_plan_id":"free"},{"bike_id":"0f7cbae6-a07c-4e09-ac86-295a77302eca","system_id":"levelo_inurba_marseille","lat":43.30886,"lon":5.37197,"is_reserved":false,"is_disabled":false,"rental_uris":{"android":"levelo://app?vid=0f7cbae6-a07c-4e09-ac86-295a77302eca","ios":"levelo://app?vid=0f7cbae6-a07c-4e09-ac86-295a77302eca"},"vehicle_type_id":"4","last_reported":1701871611,"current_range_meters":24800,"station_id":"ce4bguh2rcd13ifvqckg","pricing_plan_id":"free"},{"bike_id":"985aab09-457a-4cec-9572-8c2a3ecfac74","system_id":"levelo_inurba_marseille","lat":43.306318,"lon":5.368272,"is_reserved":false,"is_disabled":false,"rental_uris":{"android":"levelo://app?vid=985aab09-457a-4cec-9572-8c2a3ecfac74","ios":"levelo://app?vid=985aab09-457a-4cec-9572-8c2a3ecfac74"},"vehicle_type_id":"4","last_reported":1701871611,"current_range_meters":21600,"station_id":"","pricing_plan_id":"free"},{"bike_id":"617b6515-c608-475e-91d1-7d129680cf3b","system_id":"levelo_inurba_marseille","lat":43.305989,"lon":5.37225,"is_reserved":false,"is_disabled":false,"rental_uris":{"android":"levelo://app?vid=617b6515-c608-475e-91d1-7d129680cf3b","ios":"levelo://app?vid=617b6515-c608-475e-91d1-7d129680cf3b"},"vehicle_type_id":"4","last_reported":1701871611,"current_range_meters":28000,"station_id":"ce4bgqh2rcd13ifvqc4g","pricing_plan_id":"free"},{"bike_id":"3a578191-6f1e-4a3d-9c82-2683572bb26d","system_id":"levelo_inurba_marseille","lat":43.319237,"lon":5.37299,"is_reserved":false,"is_disabled":false,"rental_uris":{"android":"levelo://app?vid=3a578191-6f1e-4a3d-9c82-2683572bb26d","ios":"levelo://app?vid=3a578191-6f1e-4a3d-9c82-2683572bb26d"},"vehicle_type_id":"4","last_reported":1701871611,"current_range_meters":0,"station_id":"","pricing_plan_id":"free"},{"bike_id":"0f60651b-e2b7-4ae6-8fba-7de8f6b7bfeb","system_id":"levelo_inurba_marseille","lat":43.311151,"lon":5.377714,"is_reserved":false,"is_disabled":false,"rental_uris":{"android":"levelo://app?vid=0f60651b-e2b7-4ae6-8fba-7de8f6b7bfeb","ios":"levelo://app?vid=0f60651b-e2b7-4ae6-8fba-7de8f6b7bfeb"},"vehicle_type_id":"4","last_reported":1701871611,"current_range_meters":31200,"station_id":"ce4bgt92rcd13ifvqcg0","pricing_plan_id":"free"},{"bike_id":"468ce6bf-2cc5-4a5c-a6a9-ae1283449e1a","system_id":"levelo_inurba_marseille","lat":43.307945,"lon":5.376487,"is_reserved":false,"is_disabled":false,"rental_uris":{"android":"levelo://app?vid=468ce6bf-2cc5-4a5c-a6a9-ae1283449e1a","ios":"levelo://app?vid=468ce6bf-2cc5-4a5c-a6a9-ae1283449e1a"},"vehicle_type_id":"4","last_reported":1701871611,"current_range_meters":16800,"station_id":"ce4bgv92rcd13ifvqcq0","pricing_plan_id":"free"},{"bike_id":"5d115ea3-408a-424f-898e-bb2f3653d9e3","system_id":"levelo_inurba_marseille","lat":43.307945,"lon":5.376487,"is_reserved":false,"is_disabled":false,"rental_uris":{"android":"levelo://app?vid=5d115ea3-408a-424f-898e-bb2f3653d9e3","ios":"levelo://app?vid=5d115ea3-408a-424f-898e-bb2f3653d9e3"},"vehicle_type_id":"4","last_reported":1701871611,"current_range_meters":25600,"station_id":"ce4bgv92rcd13ifvqcq0","pricing_plan_id":"free"},{"bike_id":"963542c2-9d2e-4dc4-8818-dd6972367829","system_id":"levelo_inurba_marseille","lat":43.307945,"lon":5.376487,"is_reserved":false,"is_disabled":false,"rental_uris":{"android":"levelo://app?vid=963542c2-9d2e-4dc4-8818-dd6972367829","ios":"levelo://app?vid=963542c2-9d2e-4dc4-8818-dd6972367829"},"vehicle_type_id":"4","last_reported":1701871611,"current_range_meters":27600,"station_id":"ce4bgv92rcd13ifvqcq0","pricing_plan_id":"free"},{"bike_id":"8f51c910-97d8-4040-aaad-44f6ffc79ede","system_id":"levelo_inurba_marseille","lat":43.307945,"lon":5.376487,"is_reserved":false,"is_disabled":false,"rental_uris":{"android":"levelo://app?vid=8f51c910-97d8-4040-aaad-44f6ffc79ede","ios":"levelo://app?vid=8f51c910-97d8-4040-aaad-44f6ffc79ede"},"vehicle_type_id":"4","last_reported":1701871611,"current_range_meters":25600,"station_id":"ce4bgv92rcd13ifvqcq0","pricing_plan_id":"free"},{"bike_id":"3c6b41dd-92dd-4f68-adbe-4c41bd7f271a","system_id":"levelo_inurba_marseille","lat":43.307928,"lon":5.376768,"is_reserved":false,"is_disabled":false,"rental_uris":{"android":"levelo://app?vid=3c6b41dd-92dd-4f68-adbe-4c41bd7f271a","ios":"levelo://app?vid=3c6b41dd-92dd-4f68-adbe-4c41bd7f271a"},"vehicle_type_id":"4","last_reported":1701871611,"current_range_meters":11200,"station_id":"ce4bgv92rcd13ifvqcq0","pricing_plan_id":"free"},{"bike_id":"adf146c5-e4e1-4668-9a33-042940925130","system_id":"levelo_inurba_marseille","lat":43.31351,"lon":5.37909,"is_reserved":false,"is_disabled":false,"rental_uris":{"android":"levelo://app?vid=adf146c5-e4e1-4668-9a33-042940925130","ios":"levelo://app?vid=adf146c5-e4e1-4668-9a33-042940925130"},"vehicle_type_id":"4","last_reported":1701871611,"current_range_meters":6000,"station_id":"","pricing_plan_id":"free"},{"bike_id":"1ea60f58-75f7-4484-b705-1156df4b02ad","system_id":"levelo_inurba_marseille","lat":43.302819,"lon":5.373369,"is_reserved":false,"is_disabled":false,"rental_uris":{"android":"levelo://app?vid=1ea60f58-75f7-4484-b705-1156df4b02ad","ios":"levelo://app?vid=1ea60f58-75f7-4484-b705-1156df4b02ad"},"vehicle_type_id":"4","last_reported":1701871611,"current_range_meters":9600,"station_id":"","pricing_plan_id":"free"},{"bike_id":"e6a7946c-a7d5-4369-b254-577b631c8d1a","system_id":"levelo_inurba_marseille","lat":43.31726,"lon":5.38165,"is_reserved":false,"is_disabled":false,"rental_uris":{"android":"levelo://app?vid=e6a7946c-a7d5-4369-b254-577b631c8d1a","ios":"levelo://app?vid=e6a7946c-a7d5-4369-b254-577b631c8d1a"},"vehicle_type_id":"4","last_reported":1701871611,"current_range_meters":26800,"station_id":"","pricing_plan_id":"free"},{"bike_id":"816c1337-7081-4f6f-82cd-1634d54c2020","system_id":"levelo_inurba_marseille","lat":43.308084,"lon":5.381573,"is_reserved":false,"is_disabled":false,"rental_uris":{"android":"levelo://app?vid=816c1337-7081-4f6f-82cd-1634d54c2020","ios":"levelo://app?vid=816c1337-7081-4f6f-82cd-1634d54c2020"},"vehicle_type_id":"4","last_reported":1701871611,"current_range_meters":31200,"station_id":"ce4bgt12rcd13ifvqce0","pricing_plan_id":"free"},{"bike_id":"acf5cf3c-600d-4430-b035-7745ddcc72a9","system_id":"levelo_inurba_marseille","lat":43.308128,"lon":5.38161,"is_reserved":false,"is_disabled":false,"rental_uris":{"android":"levelo://app?vid=acf5cf3c-600d-4430-b035-7745ddcc72a9","ios":"levelo://app?vid=acf5cf3c-600d-4430-b035-7745ddcc72a9"},"vehicle_type_id":"4","last_reported":1701871611,"current_range_meters":31200,"station_id":"ce4bgt12rcd13ifvqce0","pricing_plan_id":"free"},{"bike_id":"8a5e1345-82b1-42ad-b819-38ef7cfbd962","system_id":"levelo_inurba_marseille","lat":43.30792,"lon":5.38152,"is_reserved":false,"is_disabled":false,"rental_uris":{"android":"levelo://app?vid=8a5e1345-82b1-42ad-b819-38ef7cfbd962","ios":"levelo://app?vid=8a5e1345-82b1-42ad-b819-38ef7cfbd962"},"vehicle_type_id":"4","last_reported":1701871611,"current_range_meters":17200,"station_id":"ce4bgt12rcd13ifvqce0","pricing_plan_id":"free"},{"bike_id":"f877ba56-900b-4101-912f-4f1dabf8b633","system_id":"levelo_inurba_marseille","lat":43.304606,"lon":5.379026,"is_reserved":false,"is_disabled":false,"rental_uris":{"android":"levelo://app?vid=f877ba56-900b-4101-912f-4f1dabf8b633","ios":"levelo://app?vid=f877ba56-900b-4101-912f-4f1dabf8b633"},"vehicle_type_id":"4","last_reported":1701871611,"current_range_meters":12800,"station_id":"ce4bgup2rcd13ifvqcn0","pricing_plan_id":"free"},{"bike_id":"e7fbc5b3-afff-48f9-a1a1-7341721eaf83","system_id":"levelo_inurba_marseille","lat":43.304606,"lon":5.379026,"is_reserved":false,"is_disabled":false,"rental_uris":{"android":"levelo://app?vid=e7fbc5b3-afff-48f9-a1a1-7341721eaf83","ios":"levelo://app?vid=e7fbc5b3-afff-48f9-a1a1-7341721eaf83"},"vehicle_type_id":"4","last_reported":1701871611,"current_range_meters":14400,"station_id":"ce4bgup2rcd13ifvqcn0","pricing_plan_id":"free"},{"bike_id":"55665aa0-35d9-4a97-9982-4d466213e74b","system_id":"levelo_inurba_marseille","lat":43.32478,"lon":5.36563,"is_reserved":false,"is_disabled":false,"rental_uris":{"android":"levelo://app?vid=55665aa0-35d9-4a97-9982-4d466213e74b","ios":"levelo://app?vid=55665aa0-35d9-4a97-9982-4d466213e74b"},"vehicle_type_id":"4","last_reported":1701871611,"current_range_meters":18800,"station_id":"ce4bhs12rcd13ifvqhvg","pricing_plan_id":"free"},{"bike_id":"ad0935ae-b57d-45f9-b1bf-456eeac6ca9a","system_id":"levelo_inurba_marseille","lat":43.32479,"lon":5.36573,"is_reserved":false,"is_disabled":false,"rental_uris":{"android":"levelo://app?vid=ad0935ae-b57d-45f9-b1bf-456eeac6ca9a","ios":"levelo://app?vid=ad0935ae-b57d-45f9-b1bf-456eeac6ca9a"},"vehicle_type_id":"4","last_reported":1701871611,"current_range_meters":15200,"station_id":"ce4bhs12rcd13ifvqhvg","pricing_plan_id":"free"},{"bike_id":"cb9ebc57-09d2-4a98-aef4-954236a00790","system_id":"levelo_inurba_marseille","lat":43.324771,"lon":5.36557,"is_reserved":false,"is_disabled":false,"rental_uris":{"android":"levelo://app?vid=cb9ebc57-09d2-4a98-aef4-954236a00790","ios":"levelo://app?vid=cb9ebc57-09d2-4a98-aef4-954236a00790"},"vehicle_type_id":"4","last_reported":1701871611,"current_range_meters":20800,"station_id":"ce4bhs12rcd13ifvqhvg","pricing_plan_id":"free"},{"bike_id":"9ee0ef7a-8d9c-4d78-8ae5-64e12b708d26","system_id":"levelo_inurba_marseille","lat":43.319997,"lon":5.381594,"is_reserved":false,"is_disabled":false,"rental_uris":{"android":"levelo://app?vid=9ee0ef7a-8d9c-4d78-8ae5-64e12b708d26","ios":"levelo://app?vid=9ee0ef7a-8d9c-4d78-8ae5-64e12b708d26"},"vehicle_type_id":"4","last_reported":1701871611,"current_range_meters":0,"station_id":"ce4bhr12rcd13ifvqhpg","pricing_plan_id":"free"},{"bike_id":"9ae94d0b-3bf1-4047-8781-8a890d852d5a","system_id":"levelo_inurba_marseille","lat":43.32003,"lon":5.38162,"is_reserved":false,"is_disabled":false,"rental_uris":{"android":"levelo://app?vid=9ae94d0b-3bf1-4047-8781-8a890d852d5a","ios":"levelo://app?vid=9ae94d0b-3bf1-4047-8781-8a890d852d5a"},"vehicle_type_id":"4","last_reported":1701871611,"current_range_meters":29200,"station_id":"ce4bhr12rcd13ifvqhpg","pricing_plan_id":"free"},{"bike_id":"44b639d4-c394-49b2-9e18-6098ae373bd6","system_id":"levelo_inurba_marseille","lat":43.31798,"lon":5.38371,"is_reserved":false,"is_disabled":false,"rental_uris":{"android":"levelo://app?vid=44b639d4-c394-49b2-9e18-6098ae373bd6","ios":"levelo://app?vid=44b639d4-c394-49b2-9e18-6098ae373bd6"},"vehicle_type_id":"4","last_reported":1701871611,"current_range_meters":31200,"station_id":"","pricing_plan_id":"free"},{"bike_id":"d47c412e-4170-4dae-9180-58c9151f00c2","system_id":"levelo_inurba_marseille","lat":43.322872,"lon":5.382756,"is_reserved":false,"is_disabled":false,"rental_uris":{"android":"levelo://app?vid=d47c412e-4170-4dae-9180-58c9151f00c2","ios":"levelo://app?vid=d47c412e-4170-4dae-9180-58c9151f00c2"},"vehicle_type_id":"4","last_reported":1701871611,"current_range_meters":28800,"station_id":"ce4bhr12rcd13ifvqhqg","pricing_plan_id":"free"},{"bike_id":"c58a2089-b67f-42c5-ac7a-21fc01aff172","system_id":"levelo_inurba_marseille","lat":43.32823,"lon":5.36689,"is_reserved":false,"is_disabled":false,"rental_uris":{"android":"levelo://app?vid=c58a2089-b67f-42c5-ac7a-21fc01aff172","ios":"levelo://app?vid=c58a2089-b67f-42c5-ac7a-21fc01aff172"},"vehicle_type_id":"4","last_reported":1701871611,"current_range_meters":3200,"station_id":"ce4bhs92rcd13ifvqi0g","pricing_plan_id":"free"},{"bike_id":"04ea328d-eef9-479c-b3df-9ac03c15edf6","system_id":"levelo_inurba_marseille","lat":43.298218,"lon":5.374416,"is_reserved":false,"is_disabled":false,"rental_uris":{"android":"levelo://app?vid=04ea328d-eef9-479c-b3df-9ac03c15edf6","ios":"levelo://app?vid=04ea328d-eef9-479c-b3df-9ac03c15edf6"},"vehicle_type_id":"4","last_reported":1701871611,"current_range_meters":13600,"station_id":"","pricing_plan_id":"free"},{"bike_id":"8194a074-d282-40d5-9904-467b05885951","system_id":"levelo_inurba_marseille","lat":43.297163,"lon":5.365866,"is_reserved":false,"is_disabled":false,"rental_uris":{"android":"levelo://app?vid=8194a074-d282-40d5-9904-467b05885951","ios":"levelo://app?vid=8194a074-d282-40d5-9904-467b05885951"},"vehicle_type_id":"4","last_reported":1701871611,"current_range_meters":13600,"station_id":"ce4bgn12rcd13ifvqbt0","pricing_plan_id":"free"},{"bike_id":"94007754-7055-4e9f-884b-a69ad1a23f33","system_id":"levelo_inurba_marseille","lat":43.29897,"lon":5.37826,"is_reserved":false,"is_disabled":false,"rental_uris":{"android":"levelo://app?vid=94007754-7055-4e9f-884b-a69ad1a23f33","ios":"levelo://app?vid=94007754-7055-4e9f-884b-a69ad1a23f33"},"vehicle_type_id":"4","last_reported":1701871611,"current_range_meters":23200,"station_id":"","pricing_plan_id":"free"},{"bike_id":"92dc65d6-6823-4de3-93d4-056f738f090c","system_id":"levelo_inurba_marseille","lat":43.316538,"lon":5.38954,"is_reserved":false,"is_disabled":false,"rental_uris":{"android":"levelo://app?vid=92dc65d6-6823-4de3-93d4-056f738f090c","ios":"levelo://app?vid=92dc65d6-6823-4de3-93d4-056f738f090c"},"vehicle_type_id":"4","last_reported":1701871611,"current_range_meters":9200,"station_id":"","pricing_plan_id":"free"},{"bike_id":"2c660923-88d6-41fc-9e75-5f7c2b46961c","system_id":"levelo_inurba_marseille","lat":43.299028,"lon":5.381509,"is_reserved":false,"is_disabled":false,"rental_uris":{"android":"levelo://app?vid=2c660923-88d6-41fc-9e75-5f7c2b46961c","ios":"levelo://app?vid=2c660923-88d6-41fc-9e75-5f7c2b46961c"},"vehicle_type_id":"4","last_reported":1701871611,"current_range_meters":20800,"station_id":"ce4bgj12rcd13ifvqbc0","pricing_plan_id":"free"},{"bike_id":"d173295b-360e-4d2e-b015-158bc112db82","system_id":"levelo_inurba_marseille","lat":43.309589,"lon":5.390258,"is_reserved":false,"is_disabled":false,"rental_uris":{"android":"levelo://app?vid=d173295b-360e-4d2e-b015-158bc112db82","ios":"levelo://app?vid=d173295b-360e-4d2e-b015-158bc112db82"},"vehicle_type_id":"4","last_reported":1701871611,"current_range_meters":12800,"station_id":"ce4bgup2rcd13ifvqco0","pricing_plan_id":"free"},{"bike_id":"faff840e-cfa7-451d-adbf-36961f23c0b0","system_id":"levelo_inurba_marseille","lat":43.296935,"lon":5.376544,"is_reserved":false,"is_disabled":false,"rental_uris":{"android":"levelo://app?vid=faff840e-cfa7-451d-adbf-36961f23c0b0","ios":"levelo://app?vid=faff840e-cfa7-451d-adbf-36961f23c0b0"},"vehicle_type_id":"4","last_reported":1701871611,"current_range_meters":8000,"station_id":"ce4bgkh2rcd13ifvqbl0","pricing_plan_id":"free"},{"bike_id":"385a7f19-acbc-4d35-9024-9e4fd3f7ada1","system_id":"levelo_inurba_marseille","lat":43.299028,"lon":5.381509,"is_reserved":false,"is_disabled":false,"rental_uris":{"android":"levelo://app?vid=385a7f19-acbc-4d35-9024-9e4fd3f7ada1","ios":"levelo://app?vid=385a7f19-acbc-4d35-9024-9e4fd3f7ada1"},"vehicle_type_id":"4","last_reported":1701871611,"current_range_meters":19600,"station_id":"ce4bgj12rcd13ifvqbc0","pricing_plan_id":"free"},{"bike_id":"21a38a31-551f-46d7-9541-9f08511d3377","system_id":"levelo_inurba_marseille","lat":43.298037,"lon":5.381066,"is_reserved":false,"is_disabled":false,"rental_uris":{"android":"levelo://app?vid=21a38a31-551f-46d7-9541-9f08511d3377","ios":"levelo://app?vid=21a38a31-551f-46d7-9541-9f08511d3377"},"vehicle_type_id":"4","last_reported":1701871611,"current_range_meters":21200,"station_id":"ce4bgip2rcd13ifvqbb0","pricing_plan_id":"free"},{"bike_id":"0c3e1478-9db8-450a-801d-5f79e55de556","system_id":"levelo_inurba_marseille","lat":43.295748,"lon":5.37522,"is_reserved":false,"is_disabled":false,"rental_uris":{"android":"levelo://app?vid=0c3e1478-9db8-450a-801d-5f79e55de556","ios":"levelo://app?vid=0c3e1478-9db8-450a-801d-5f79e55de556"},"vehicle_type_id":"4","last_reported":1701871611,"current_range_meters":13600,"station_id":"ce4bgh92rcd13ifvqb50","pricing_plan_id":"free"},{"bike_id":"dfa43688-9811-4195-a0e7-5227fe201b11","system_id":"levelo_inurba_marseille","lat":43.323678,"lon":5.3889,"is_reserved":false,"is_disabled":false,"rental_uris":{"android":"levelo://app?vid=dfa43688-9811-4195-a0e7-5227fe201b11","ios":"levelo://app?vid=dfa43688-9811-4195-a0e7-5227fe201b11"},"vehicle_type_id":"4","last_reported":1701871611,"current_range_meters":22400,"station_id":"ce4bhqp2rcd13ifvqhog","pricing_plan_id":"free"},{"bike_id":"5a5b18be-8fef-48e7-acef-6c95b58d0cf1","system_id":"levelo_inurba_marseille","lat":43.29601,"lon":5.381084,"is_reserved":false,"is_disabled":false,"rental_uris":{"android":"levelo://app?vid=5a5b18be-8fef-48e7-acef-6c95b58d0cf1","ios":"levelo://app?vid=5a5b18be-8fef-48e7-acef-6c95b58d0cf1"},"vehicle_type_id":"4","last_reported":1701871611,"current_range_meters":24800,"station_id":"ce4bgl12rcd13ifvqbo0","pricing_plan_id":"free"},{"bike_id":"0e99ce6b-62c5-4446-bf33-f802dde8ea57","system_id":"levelo_inurba_marseille","lat":43.292749,"lon":5.368402,"is_reserved":false,"is_disabled":false,"rental_uris":{"android":"levelo://app?vid=0e99ce6b-62c5-4446-bf33-f802dde8ea57","ios":"levelo://app?vid=0e99ce6b-62c5-4446-bf33-f802dde8ea57"},"vehicle_type_id":"4","last_reported":1701871611,"current_range_meters":29600,"station_id":"ce4bhbp2rcd13ifvqesg","pricing_plan_id":"free"},{"bike_id":"2696167b-fddf-490b-b332-da418afcdf8a","system_id":"levelo_inurba_marseille","lat":43.292311,"lon":5.360731,"is_reserved":false,"is_disabled":false,"rental_uris":{"android":"levelo://app?vid=2696167b-fddf-490b-b332-da418afcdf8a","ios":"levelo://app?vid=2696167b-fddf-490b-b332-da418afcdf8a"},"vehicle_type_id":"4","last_reported":1701871611,"current_range_meters":14000,"station_id":"ce4bhbh2rcd13ifvqeqg","pricing_plan_id":"free"},{"bike_id":"a8bf5eaa-981d-4387-be53-f74c669e6fa8","system_id":"levelo_inurba_marseille","lat":43.292311,"lon":5.360731,"is_reserved":false,"is_disabled":false,"rental_uris":{"android":"levelo://app?vid=a8bf5eaa-981d-4387-be53-f74c669e6fa8","ios":"levelo://app?vid=a8bf5eaa-981d-4387-be53-f74c669e6fa8"},"vehicle_type_id":"4","last_reported":1701871611,"current_range_meters":28800,"station_id":"ce4bhbh2rcd13ifvqeqg","pricing_plan_id":"free"},{"bike_id":"3dbf8c67-81e8-4648-8dcd-d089ba68bc7b","system_id":"levelo_inurba_marseille","lat":43.291671,"lon":5.371575,"is_reserved":false,"is_disabled":false,"rental_uris":{"android":"levelo://app?vid=3dbf8c67-81e8-4648-8dcd-d089ba68bc7b","ios":"levelo://app?vid=3dbf8c67-81e8-4648-8dcd-d089ba68bc7b"},"vehicle_type_id":"4","last_reported":1701871611,"current_range_meters":14800,"station_id":"ce4bha92rcd13ifvqeh0","pricing_plan_id":"free"},{"bike_id":"4b484280-895f-4b51-a688-7066e1cb75b0","system_id":"levelo_inurba_marseille","lat":43.291675,"lon":5.371583,"is_reserved":false,"is_disabled":false,"rental_uris":{"android":"levelo://app?vid=4b484280-895f-4b51-a688-7066e1cb75b0","ios":"levelo://app?vid=4b484280-895f-4b51-a688-7066e1cb75b0"},"vehicle_type_id":"4","last_reported":1701871611,"current_range_meters":13600,"station_id":"ce4bha92rcd13ifvqeh0","pricing_plan_id":"free"},{"bike_id":"ca092ee7-43c9-4c6b-a7c9-e84f1c6d74e8","system_id":"levelo_inurba_marseille","lat":43.291994,"lon":5.357886,"is_reserved":false,"is_disabled":false,"rental_uris":{"android":"levelo://app?vid=ca092ee7-43c9-4c6b-a7c9-e84f1c6d74e8","ios":"levelo://app?vid=ca092ee7-43c9-4c6b-a7c9-e84f1c6d74e8"},"vehicle_type_id":"4","last_reported":1701871611,"current_range_meters":2000,"station_id":"ce4bhb12rcd13ifvqel0","pricing_plan_id":"free"},{"bike_id":"9c0251a2-10ac-4c46-9419-f5cecd5e60cd","system_id":"levelo_inurba_marseille","lat":43.29529,"lon":5.385581,"is_reserved":false,"is_disabled":false,"rental_uris":{"android":"levelo://app?vid=9c0251a2-10ac-4c46-9419-f5cecd5e60cd","ios":"levelo://app?vid=9c0251a2-10ac-4c46-9419-f5cecd5e60cd"},"vehicle_type_id":"4","last_reported":1701871611,"current_range_meters":17200,"station_id":"ce4bgih2rcd13ifvqba0","pricing_plan_id":"free"},{"bike_id":"9de1a80e-a5a6-4b70-9a80-3d9a37cc8846","system_id":"levelo_inurba_marseille","lat":43.335378,"lon":5.363474,"is_reserved":false,"is_disabled":false,"rental_uris":{"android":"levelo://app?vid=9de1a80e-a5a6-4b70-9a80-3d9a37cc8846","ios":"levelo://app?vid=9de1a80e-a5a6-4b70-9a80-3d9a37cc8846"},"vehicle_type_id":"4","last_reported":1701871611,"current_range_meters":30000,"station_id":"","pricing_plan_id":"free"},{"bike_id":"a91bfff6-2bf0-467c-96ad-8eba174530a6","system_id":"levelo_inurba_marseille","lat":43.290631,"lon":5.359244,"is_reserved":false,"is_disabled":false,"rental_uris":{"android":"levelo://app?vid=a91bfff6-2bf0-467c-96ad-8eba174530a6","ios":"levelo://app?vid=a91bfff6-2bf0-467c-96ad-8eba174530a6"},"vehicle_type_id":"4","last_reported":1701871611,"current_range_meters":17600,"station_id":"ce4bha92rcd13ifvqeg0","pricing_plan_id":"free"},{"bike_id":"9e428b98-0dca-44ba-b7e5-689a32e03130","system_id":"levelo_inurba_marseille","lat":43.289184,"lon":5.366408,"is_reserved":false,"is_disabled":false,"rental_uris":{"android":"levelo://app?vid=9e428b98-0dca-44ba-b7e5-689a32e03130","ios":"levelo://app?vid=9e428b98-0dca-44ba-b7e5-689a32e03130"},"vehicle_type_id":"4","last_reported":1701871611,"current_range_meters":25200,"station_id":"ce4bhap2rcd13ifvqek0","pricing_plan_id":"free"},{"bike_id":"65bceed6-417e-48bd-802e-2e7ad33bcbde","system_id":"levelo_inurba_marseille","lat":43.289184,"lon":5.366408,"is_reserved":false,"is_disabled":false,"rental_uris":{"android":"levelo://app?vid=65bceed6-417e-48bd-802e-2e7ad33bcbde","ios":"levelo://app?vid=65bceed6-417e-48bd-802e-2e7ad33bcbde"},"vehicle_type_id":"4","last_reported":1701871611,"current_range_meters":7200,"station_id":"ce4bhap2rcd13ifvqek0","pricing_plan_id":"free"},{"bike_id":"78c7c9ce-8995-484f-ac05-75765b671874","system_id":"levelo_inurba_marseille","lat":43.289468,"lon":5.363719,"is_reserved":false,"is_disabled":false,"rental_uris":{"android":"levelo://app?vid=78c7c9ce-8995-484f-ac05-75765b671874","ios":"levelo://app?vid=78c7c9ce-8995-484f-ac05-75765b671874"},"vehicle_type_id":"4","last_reported":1701871611,"current_range_meters":20000,"station_id":"ce4bhc92rcd13ifvqetg","pricing_plan_id":"free"},{"bike_id":"68390ae0-b058-4b70-8703-7d61b4f7f8a9","system_id":"levelo_inurba_marseille","lat":43.28939,"lon":5.36396,"is_reserved":false,"is_disabled":false,"rental_uris":{"android":"levelo://app?vid=68390ae0-b058-4b70-8703-7d61b4f7f8a9","ios":"levelo://app?vid=68390ae0-b058-4b70-8703-7d61b4f7f8a9"},"vehicle_type_id":"4","last_reported":1701871611,"current_range_meters":30400,"station_id":"ce4bhc92rcd13ifvqetg","pricing_plan_id":"free"},{"bike_id":"a02a1b20-1fb1-4951-988a-77389649024d","system_id":"levelo_inurba_marseille","lat":43.289259,"lon":5.366364,"is_reserved":false,"is_disabled":false,"rental_uris":{"android":"levelo://app?vid=a02a1b20-1fb1-4951-988a-77389649024d","ios":"levelo://app?vid=a02a1b20-1fb1-4951-988a-77389649024d"},"vehicle_type_id":"4","last_reported":1701871611,"current_range_meters":23600,"station_id":"","pricing_plan_id":"free"},{"bike_id":"3ef15ad5-0074-47a0-840f-7608d81ca813","system_id":"levelo_inurba_marseille","lat":43.289184,"lon":5.366408,"is_reserved":false,"is_disabled":false,"rental_uris":{"android":"levelo://app?vid=3ef15ad5-0074-47a0-840f-7608d81ca813","ios":"levelo://app?vid=3ef15ad5-0074-47a0-840f-7608d81ca813"},"vehicle_type_id":"4","last_reported":1701871611,"current_range_meters":7600,"station_id":"ce4bhap2rcd13ifvqek0","pricing_plan_id":"free"},{"bike_id":"0a9850ff-e07b-40ee-bc57-7e67f80c3bc0","system_id":"levelo_inurba_marseille","lat":43.304274,"lon":5.397513,"is_reserved":false,"is_disabled":false,"rental_uris":{"android":"levelo://app?vid=0a9850ff-e07b-40ee-bc57-7e67f80c3bc0","ios":"levelo://app?vid=0a9850ff-e07b-40ee-bc57-7e67f80c3bc0"},"vehicle_type_id":"4","last_reported":1701871611,"current_range_meters":28400,"station_id":"ce4bh092rcd13ifvqd20","pricing_plan_id":"free"},{"bike_id":"b2aba1c1-57e6-47f3-80e3-d704e4d7a308","system_id":"levelo_inurba_marseille","lat":43.304296,"lon":5.397513,"is_reserved":false,"is_disabled":false,"rental_uris":{"android":"levelo://app?vid=b2aba1c1-57e6-47f3-80e3-d704e4d7a308","ios":"levelo://app?vid=b2aba1c1-57e6-47f3-80e3-d704e4d7a308"},"vehicle_type_id":"4","last_reported":1701871611,"current_range_meters":22800,"station_id":"ce4bh092rcd13ifvqd20","pricing_plan_id":"free"},{"bike_id":"619a32d4-049a-4e4c-b6f1-9a66842899a2","system_id":"levelo_inurba_marseille","lat":43.304274,"lon":5.397513,"is_reserved":false,"is_disabled":false,"rental_uris":{"android":"levelo://app?vid=619a32d4-049a-4e4c-b6f1-9a66842899a2","ios":"levelo://app?vid=619a32d4-049a-4e4c-b6f1-9a66842899a2"},"vehicle_type_id":"4","last_reported":1701871611,"current_range_meters":10800,"station_id":"ce4bh092rcd13ifvqd20","pricing_plan_id":"free"},{"bike_id":"26e2be4a-d4af-4e36-917b-ace69ee72fcb","system_id":"levelo_inurba_marseille","lat":43.304296,"lon":5.397513,"is_reserved":false,"is_disabled":false,"rental_uris":{"android":"levelo://app?vid=26e2be4a-d4af-4e36-917b-ace69ee72fcb","ios":"levelo://app?vid=26e2be4a-d4af-4e36-917b-ace69ee72fcb"},"vehicle_type_id":"4","last_reported":1701871611,"current_range_meters":27600,"station_id":"ce4bh092rcd13ifvqd20","pricing_plan_id":"free"},{"bike_id":"fd42f959-6e54-41f9-b7eb-b7ab84a07ab6","system_id":"levelo_inurba_marseille","lat":43.330442,"lon":5.389148,"is_reserved":false,"is_disabled":false,"rental_uris":{"android":"levelo://app?vid=fd42f959-6e54-41f9-b7eb-b7ab84a07ab6","ios":"levelo://app?vid=fd42f959-6e54-41f9-b7eb-b7ab84a07ab6"},"vehicle_type_id":"4","last_reported":1701871611,"current_range_meters":13200,"station_id":"ce4bhr92rcd13ifvqhrg","pricing_plan_id":"free"},{"bike_id":"bfc84fba-fd9c-4885-b230-77c6b556f3fa","system_id":"levelo_inurba_marseille","lat":43.330442,"lon":5.389148,"is_reserved":false,"is_disabled":false,"rental_uris":{"android":"levelo://app?vid=bfc84fba-fd9c-4885-b230-77c6b556f3fa","ios":"levelo://app?vid=bfc84fba-fd9c-4885-b230-77c6b556f3fa"},"vehicle_type_id":"4","last_reported":1701871611,"current_range_meters":27200,"station_id":"ce4bhr92rcd13ifvqhrg","pricing_plan_id":"free"},{"bike_id":"3ebb2a71-d5f6-4813-81b9-c909afff64a1","system_id":"levelo_inurba_marseille","lat":43.330442,"lon":5.389148,"is_reserved":false,"is_disabled":false,"rental_uris":{"android":"levelo://app?vid=3ebb2a71-d5f6-4813-81b9-c909afff64a1","ios":"levelo://app?vid=3ebb2a71-d5f6-4813-81b9-c909afff64a1"},"vehicle_type_id":"4","last_reported":1701871611,"current_range_meters":10000,"station_id":"ce4bhr92rcd13ifvqhrg","pricing_plan_id":"free"},{"bike_id":"41264422-244a-4ee3-804a-0e79117f4bec","system_id":"levelo_inurba_marseille","lat":43.33043,"lon":5.3892,"is_reserved":false,"is_disabled":false,"rental_uris":{"android":"levelo://app?vid=41264422-244a-4ee3-804a-0e79117f4bec","ios":"levelo://app?vid=41264422-244a-4ee3-804a-0e79117f4bec"},"vehicle_type_id":"4","last_reported":1701871611,"current_range_meters":14400,"station_id":"ce4bhr92rcd13ifvqhrg","pricing_plan_id":"free"},{"bike_id":"bd57a0ff-608b-4e17-bef2-8d55e2235fbf","system_id":"levelo_inurba_marseille","lat":43.33045,"lon":5.38923,"is_reserved":false,"is_disabled":false,"rental_uris":{"android":"levelo://app?vid=bd57a0ff-608b-4e17-bef2-8d55e2235fbf","ios":"levelo://app?vid=bd57a0ff-608b-4e17-bef2-8d55e2235fbf"},"vehicle_type_id":"4","last_reported":1701871611,"current_range_meters":13600,"station_id":"ce4bhr92rcd13ifvqhrg","pricing_plan_id":"free"},{"bike_id":"358803ec-9bae-4dcb-88e5-3366453c8d80","system_id":"levelo_inurba_marseille","lat":43.33048,"lon":5.38923,"is_reserved":false,"is_disabled":false,"rental_uris":{"android":"levelo://app?vid=358803ec-9bae-4dcb-88e5-3366453c8d80","ios":"levelo://app?vid=358803ec-9bae-4dcb-88e5-3366453c8d80"},"vehicle_type_id":"4","last_reported":1701871611,"current_range_meters":31600,"station_id":"ce4bhr92rcd13ifvqhrg","pricing_plan_id":"free"},{"bike_id":"9143d033-4478-4f2b-ae6b-ceecb1aeb694","system_id":"levelo_inurba_marseille","lat":43.33047,"lon":5.38925,"is_reserved":false,"is_disabled":false,"rental_uris":{"android":"levelo://app?vid=9143d033-4478-4f2b-ae6b-ceecb1aeb694","ios":"levelo://app?vid=9143d033-4478-4f2b-ae6b-ceecb1aeb694"},"vehicle_type_id":"4","last_reported":1701871611,"current_range_meters":25200,"station_id":"ce4bhr92rcd13ifvqhrg","pricing_plan_id":"free"},{"bike_id":"44c1b1b2-0973-4870-b46d-f2780c9c18c7","system_id":"levelo_inurba_marseille","lat":43.337461,"lon":5.374613,"is_reserved":false,"is_disabled":false,"rental_uris":{"android":"levelo://app?vid=44c1b1b2-0973-4870-b46d-f2780c9c18c7","ios":"levelo://app?vid=44c1b1b2-0973-4870-b46d-f2780c9c18c7"},"vehicle_type_id":"4","last_reported":1701871611,"current_range_meters":22400,"station_id":"","pricing_plan_id":"free"},{"bike_id":"e3ac798c-6343-43ea-9327-13ff9d258c8c","system_id":"levelo_inurba_marseille","lat":43.337464,"lon":5.374801,"is_reserved":false,"is_disabled":false,"rental_uris":{"android":"levelo://app?vid=e3ac798c-6343-43ea-9327-13ff9d258c8c","ios":"levelo://app?vid=e3ac798c-6343-43ea-9327-13ff9d258c8c"},"vehicle_type_id":"4","last_reported":1701871611,"current_range_meters":30400,"station_id":"","pricing_plan_id":"free"},{"bike_id":"c1dbbc09-0034-45ec-8bd0-52d9f84cbcd2","system_id":"levelo_inurba_marseille","lat":43.337515,"lon":5.374499,"is_reserved":false,"is_disabled":false,"rental_uris":{"android":"levelo://app?vid=c1dbbc09-0034-45ec-8bd0-52d9f84cbcd2","ios":"levelo://app?vid=c1dbbc09-0034-45ec-8bd0-52d9f84cbcd2"},"vehicle_type_id":"4","last_reported":1701871611,"current_range_meters":29600,"station_id":"","pricing_plan_id":"free"},{"bike_id":"822605d2-7494-4f1f-8e85-7b21a1e83420","system_id":"levelo_inurba_marseille","lat":43.33752,"lon":5.37483,"is_reserved":false,"is_disabled":false,"rental_uris":{"android":"levelo://app?vid=822605d2-7494-4f1f-8e85-7b21a1e83420","ios":"levelo://app?vid=822605d2-7494-4f1f-8e85-7b21a1e83420"},"vehicle_type_id":"4","last_reported":1701871611,"current_range_meters":24000,"station_id":"","pricing_plan_id":"free"},{"bike_id":"c7696395-4b6d-47c6-ba5e-ed97d58bdf6e","system_id":"levelo_inurba_marseille","lat":43.337579,"lon":5.374603,"is_reserved":false,"is_disabled":false,"rental_uris":{"android":"levelo://app?vid=c7696395-4b6d-47c6-ba5e-ed97d58bdf6e","ios":"levelo://app?vid=c7696395-4b6d-47c6-ba5e-ed97d58bdf6e"},"vehicle_type_id":"4","last_reported":1701871611,"current_range_meters":28000,"station_id":"","pricing_plan_id":"free"},{"bike_id":"736de286-1827-490e-9b81-8542a82e14a5","system_id":"levelo_inurba_marseille","lat":43.33756,"lon":5.37485,"is_reserved":false,"is_disabled":false,"rental_uris":{"android":"levelo://app?vid=736de286-1827-490e-9b81-8542a82e14a5","ios":"levelo://app?vid=736de286-1827-490e-9b81-8542a82e14a5"},"vehicle_type_id":"4","last_reported":1701871611,"current_range_meters":26800,"station_id":"","pricing_plan_id":"free"},{"bike_id":"c414c01b-a2f8-498a-b878-2b9e16cb8f02","system_id":"levelo_inurba_marseille","lat":43.337622,"lon":5.374482,"is_reserved":false,"is_disabled":false,"rental_uris":{"android":"levelo://app?vid=c414c01b-a2f8-498a-b878-2b9e16cb8f02","ios":"levelo://app?vid=c414c01b-a2f8-498a-b878-2b9e16cb8f02"},"vehicle_type_id":"4","last_reported":1701871611,"current_range_meters":29200,"station_id":"","pricing_plan_id":"free"},{"bike_id":"100a1059-2ecc-4c39-bdd7-378d618fada0","system_id":"levelo_inurba_marseille","lat":43.301117,"lon":5.398795,"is_reserved":false,"is_disabled":false,"rental_uris":{"android":"levelo://app?vid=100a1059-2ecc-4c39-bdd7-378d618fada0","ios":"levelo://app?vid=100a1059-2ecc-4c39-bdd7-378d618fada0"},"vehicle_type_id":"4","last_reported":1701871611,"current_range_meters":17600,"station_id":"ce4bh0h2rcd13ifvqd40","pricing_plan_id":"free"},{"bike_id":"d838ae1d-2b20-447e-8df5-003ee02d746b","system_id":"levelo_inurba_marseille","lat":43.30642,"lon":5.401031,"is_reserved":false,"is_disabled":false,"rental_uris":{"android":"levelo://app?vid=d838ae1d-2b20-447e-8df5-003ee02d746b","ios":"levelo://app?vid=d838ae1d-2b20-447e-8df5-003ee02d746b"},"vehicle_type_id":"4","last_reported":1701871611,"current_range_meters":30800,"station_id":"ce4bh112rcd13ifvqda0","pricing_plan_id":"free"},{"bike_id":"993c82a1-d459-42e0-8c5a-d991cc5616c6","system_id":"levelo_inurba_marseille","lat":43.295196,"lon":5.39397,"is_reserved":false,"is_disabled":false,"rental_uris":{"android":"levelo://app?vid=993c82a1-d459-42e0-8c5a-d991cc5616c6","ios":"levelo://app?vid=993c82a1-d459-42e0-8c5a-d991cc5616c6"},"vehicle_type_id":"4","last_reported":1701871611,"current_range_meters":4000,"station_id":"ce4bh292rcd13ifvqdf0","pricing_plan_id":"free"},{"bike_id":"87f711d7-3ba4-465a-a08e-977808645add","system_id":"levelo_inurba_marseille","lat":43.302759,"lon":5.400793,"is_reserved":false,"is_disabled":false,"rental_uris":{"android":"levelo://app?vid=87f711d7-3ba4-465a-a08e-977808645add","ios":"levelo://app?vid=87f711d7-3ba4-465a-a08e-977808645add"},"vehicle_type_id":"4","last_reported":1701871611,"current_range_meters":14400,"station_id":"ce4bgvh2rcd13ifvqcs0","pricing_plan_id":"free"},{"bike_id":"daf98ee9-04f6-49bf-af0a-fd8062c6cd55","system_id":"levelo_inurba_marseille","lat":43.291994,"lon":5.392907,"is_reserved":false,"is_disabled":false,"rental_uris":{"android":"levelo://app?vid=daf98ee9-04f6-49bf-af0a-fd8062c6cd55","ios":"levelo://app?vid=daf98ee9-04f6-49bf-af0a-fd8062c6cd55"},"vehicle_type_id":"4","last_reported":1701871611,"current_range_meters":26400,"station_id":"ce4bh192rcd13ifvqdd0","pricing_plan_id":"free"},{"bike_id":"19e15b8c-45b2-4eb3-9726-6ac033af11ff","system_id":"levelo_inurba_marseille","lat":43.284538,"lon":5.358657,"is_reserved":false,"is_disabled":false,"rental_uris":{"android":"levelo://app?vid=19e15b8c-45b2-4eb3-9726-6ac033af11ff","ios":"levelo://app?vid=19e15b8c-45b2-4eb3-9726-6ac033af11ff"},"vehicle_type_id":"4","last_reported":1701871611,"current_range_meters":2000,"station_id":"ce4bhah2rcd13ifvqei0","pricing_plan_id":"free"},{"bike_id":"736fe05b-cc32-42b1-9026-f1116c8a4a90","system_id":"levelo_inurba_marseille","lat":43.284538,"lon":5.358657,"is_reserved":false,"is_disabled":false,"rental_uris":{"android":"levelo://app?vid=736fe05b-cc32-42b1-9026-f1116c8a4a90","ios":"levelo://app?vid=736fe05b-cc32-42b1-9026-f1116c8a4a90"},"vehicle_type_id":"4","last_reported":1701871611,"current_range_meters":16800,"station_id":"ce4bhah2rcd13ifvqei0","pricing_plan_id":"free"},{"bike_id":"acae37f4-94e4-4027-83e6-3c93cd8bf514","system_id":"levelo_inurba_marseille","lat":43.284538,"lon":5.358657,"is_reserved":false,"is_disabled":false,"rental_uris":{"android":"levelo://app?vid=acae37f4-94e4-4027-83e6-3c93cd8bf514","ios":"levelo://app?vid=acae37f4-94e4-4027-83e6-3c93cd8bf514"},"vehicle_type_id":"4","last_reported":1701871611,"current_range_meters":18000,"station_id":"ce4bhah2rcd13ifvqei0","pricing_plan_id":"free"},{"bike_id":"ab111484-c208-4087-aa3d-12d1d6315cad","system_id":"levelo_inurba_marseille","lat":43.286113,"lon":5.351045,"is_reserved":false,"is_disabled":false,"rental_uris":{"android":"levelo://app?vid=ab111484-c208-4087-aa3d-12d1d6315cad","ios":"levelo://app?vid=ab111484-c208-4087-aa3d-12d1d6315cad"},"vehicle_type_id":"4","last_reported":1701871611,"current_range_meters":23600,"station_id":"ce4bhch2rcd13ifvqeug","pricing_plan_id":"free"},{"bike_id":"7f1b4b8b-0fe9-45c2-95cc-fd4ed636af5c","system_id":"levelo_inurba_marseille","lat":43.283998,"lon":5.375062,"is_reserved":false,"is_disabled":false,"rental_uris":{"android":"levelo://app?vid=7f1b4b8b-0fe9-45c2-95cc-fd4ed636af5c","ios":"levelo://app?vid=7f1b4b8b-0fe9-45c2-95cc-fd4ed636af5c"},"vehicle_type_id":"4","last_reported":1701871611,"current_range_meters":20400,"station_id":"ce4bh412rcd13ifvqds0","pricing_plan_id":"free"},{"bike_id":"ec9d341f-bdd0-4e44-83a6-40a869bdf7e4","system_id":"levelo_inurba_marseille","lat":43.319179,"lon":5.407725,"is_reserved":false,"is_disabled":false,"rental_uris":{"android":"levelo://app?vid=ec9d341f-bdd0-4e44-83a6-40a869bdf7e4","ios":"levelo://app?vid=ec9d341f-bdd0-4e44-83a6-40a869bdf7e4"},"vehicle_type_id":"4","last_reported":1701871611,"current_range_meters":25600,"station_id":"ce4bhq12rcd13ifvqhig","pricing_plan_id":"free"},{"bike_id":"e78ed1da-de0e-41fa-b418-e08a16765915","system_id":"levelo_inurba_marseille","lat":43.33717,"lon":5.391857,"is_reserved":false,"is_disabled":false,"rental_uris":{"android":"levelo://app?vid=e78ed1da-de0e-41fa-b418-e08a16765915","ios":"levelo://app?vid=e78ed1da-de0e-41fa-b418-e08a16765915"},"vehicle_type_id":"4","last_reported":1701871611,"current_range_meters":25200,"station_id":"ce4bhr92rcd13ifvqhsg","pricing_plan_id":"free"},{"bike_id":"75951443-54b4-4bc8-a353-5a2697a7b9cd","system_id":"levelo_inurba_marseille","lat":43.323464,"lon":5.406297,"is_reserved":false,"is_disabled":false,"rental_uris":{"android":"levelo://app?vid=75951443-54b4-4bc8-a353-5a2697a7b9cd","ios":"levelo://app?vid=75951443-54b4-4bc8-a353-5a2697a7b9cd"},"vehicle_type_id":"4","last_reported":1701871611,"current_range_meters":4400,"station_id":"ce4bhq92rcd13ifvqhjg","pricing_plan_id":"free"},{"bike_id":"ec42ce68-1ad3-48cd-9e1e-4c2199a2bfbc","system_id":"levelo_inurba_marseille","lat":43.337168,"lon":5.391825,"is_reserved":false,"is_disabled":false,"rental_uris":{"android":"levelo://app?vid=ec42ce68-1ad3-48cd-9e1e-4c2199a2bfbc","ios":"levelo://app?vid=ec42ce68-1ad3-48cd-9e1e-4c2199a2bfbc"},"vehicle_type_id":"4","last_reported":1701871611,"current_range_meters":29600,"station_id":"ce4bhr92rcd13ifvqhsg","pricing_plan_id":"free"},{"bike_id":"47f70068-fc8c-4884-98bc-083d8dad1d10","system_id":"levelo_inurba_marseille","lat":43.323464,"lon":5.406297,"is_reserved":false,"is_disabled":false,"rental_uris":{"android":"levelo://app?vid=47f70068-fc8c-4884-98bc-083d8dad1d10","ios":"levelo://app?vid=47f70068-fc8c-4884-98bc-083d8dad1d10"},"vehicle_type_id":"4","last_reported":1701871611,"current_range_meters":24000,"station_id":"ce4bhq92rcd13ifvqhjg","pricing_plan_id":"free"},{"bike_id":"f125b516-ac54-409a-a486-38d507b65063","system_id":"levelo_inurba_marseille","lat":43.323464,"lon":5.406297,"is_reserved":false,"is_disabled":false,"rental_uris":{"android":"levelo://app?vid=f125b516-ac54-409a-a486-38d507b65063","ios":"levelo://app?vid=f125b516-ac54-409a-a486-38d507b65063"},"vehicle_type_id":"4","last_reported":1701871611,"current_range_meters":12000,"station_id":"ce4bhq92rcd13ifvqhjg","pricing_plan_id":"free"},{"bike_id":"fb88b3e8-6a36-446f-a1fd-5e85a0d518b6","system_id":"levelo_inurba_marseille","lat":43.284214,"lon":5.349706,"is_reserved":false,"is_disabled":false,"rental_uris":{"android":"levelo://app?vid=fb88b3e8-6a36-446f-a1fd-5e85a0d518b6","ios":"levelo://app?vid=fb88b3e8-6a36-446f-a1fd-5e85a0d518b6"},"vehicle_type_id":"4","last_reported":1701871611,"current_range_meters":25200,"station_id":"ce4bhbh2rcd13ifvqepg","pricing_plan_id":"free"},{"bike_id":"b91e830c-554f-4257-9167-aada8e057a41","system_id":"levelo_inurba_marseille","lat":43.284219,"lon":5.3497,"is_reserved":false,"is_disabled":false,"rental_uris":{"android":"levelo://app?vid=b91e830c-554f-4257-9167-aada8e057a41","ios":"levelo://app?vid=b91e830c-554f-4257-9167-aada8e057a41"},"vehicle_type_id":"4","last_reported":1701871611,"current_range_meters":25600,"station_id":"ce4bhbh2rcd13ifvqepg","pricing_plan_id":"free"},{"bike_id":"4d67eda1-7426-4d49-8e7c-3dc228a5b2fe","system_id":"levelo_inurba_marseille","lat":43.284219,"lon":5.3497,"is_reserved":false,"is_disabled":false,"rental_uris":{"android":"levelo://app?vid=4d67eda1-7426-4d49-8e7c-3dc228a5b2fe","ios":"levelo://app?vid=4d67eda1-7426-4d49-8e7c-3dc228a5b2fe"},"vehicle_type_id":"4","last_reported":1701871611,"current_range_meters":29200,"station_id":"ce4bhbh2rcd13ifvqepg","pricing_plan_id":"free"},{"bike_id":"387daa30-3acb-4b1f-957e-1823b4290e33","system_id":"levelo_inurba_marseille","lat":43.289363,"lon":5.396322,"is_reserved":false,"is_disabled":false,"rental_uris":{"android":"levelo://app?vid=387daa30-3acb-4b1f-957e-1823b4290e33","ios":"levelo://app?vid=387daa30-3acb-4b1f-957e-1823b4290e33"},"vehicle_type_id":"4","last_reported":1701871611,"current_range_meters":28000,"station_id":"ce4bh3h2rcd13ifvqdn0","pricing_plan_id":"free"},{"bike_id":"8dcaed5c-6906-47c4-9df8-7bb60c812247","system_id":"levelo_inurba_marseille","lat":43.282754,"lon":5.350519,"is_reserved":false,"is_disabled":false,"rental_uris":{"android":"levelo://app?vid=8dcaed5c-6906-47c4-9df8-7bb60c812247","ios":"levelo://app?vid=8dcaed5c-6906-47c4-9df8-7bb60c812247"},"vehicle_type_id":"4","last_reported":1701871611,"current_range_meters":2800,"station_id":"ce4bhbp2rcd13ifvqerg","pricing_plan_id":"free"},{"bike_id":"951e6ad0-8746-4c9d-a6e2-3dc175ed5dc9","system_id":"levelo_inurba_marseille","lat":43.283502,"lon":5.386471,"is_reserved":false,"is_disabled":false,"rental_uris":{"android":"levelo://app?vid=951e6ad0-8746-4c9d-a6e2-3dc175ed5dc9","ios":"levelo://app?vid=951e6ad0-8746-4c9d-a6e2-3dc175ed5dc9"},"vehicle_type_id":"4","last_reported":1701871611,"current_range_meters":2800,"station_id":"ce4bh492rcd13ifvqdvg","pricing_plan_id":"free"},{"bike_id":"fdb06298-99d5-4465-b3d9-6aac25e7870b","system_id":"levelo_inurba_marseille","lat":43.282754,"lon":5.350519,"is_reserved":false,"is_disabled":false,"rental_uris":{"android":"levelo://app?vid=fdb06298-99d5-4465-b3d9-6aac25e7870b","ios":"levelo://app?vid=fdb06298-99d5-4465-b3d9-6aac25e7870b"},"vehicle_type_id":"4","last_reported":1701871611,"current_range_meters":20400,"station_id":"ce4bhbp2rcd13ifvqerg","pricing_plan_id":"free"},{"bike_id":"fa9c4fce-54a7-44f5-9720-318503829511","system_id":"levelo_inurba_marseille","lat":43.283502,"lon":5.386471,"is_reserved":false,"is_disabled":false,"rental_uris":{"android":"levelo://app?vid=fa9c4fce-54a7-44f5-9720-318503829511","ios":"levelo://app?vid=fa9c4fce-54a7-44f5-9720-318503829511"},"vehicle_type_id":"4","last_reported":1701871611,"current_range_meters":21200,"station_id":"ce4bh492rcd13ifvqdvg","pricing_plan_id":"free"},{"bike_id":"7f259650-f718-496f-aea9-7dc90a68d9aa","system_id":"levelo_inurba_marseille","lat":43.282744,"lon":5.350533,"is_reserved":false,"is_disabled":false,"rental_uris":{"android":"levelo://app?vid=7f259650-f718-496f-aea9-7dc90a68d9aa","ios":"levelo://app?vid=7f259650-f718-496f-aea9-7dc90a68d9aa"},"vehicle_type_id":"4","last_reported":1701871611,"current_range_meters":27200,"station_id":"ce4bhbp2rcd13ifvqerg","pricing_plan_id":"free"},{"bike_id":"8f178d5a-66f6-42bf-ad4f-c5aa4f196ac5","system_id":"levelo_inurba_marseille","lat":43.283502,"lon":5.386471,"is_reserved":false,"is_disabled":false,"rental_uris":{"android":"levelo://app?vid=8f178d5a-66f6-42bf-ad4f-c5aa4f196ac5","ios":"levelo://app?vid=8f178d5a-66f6-42bf-ad4f-c5aa4f196ac5"},"vehicle_type_id":"4","last_reported":1701871611,"current_range_meters":30400,"station_id":"ce4bh492rcd13ifvqdvg","pricing_plan_id":"free"},{"bike_id":"9940d87d-ad4e-4ebc-90cd-163d0fad21b4","system_id":"levelo_inurba_marseille","lat":43.281044,"lon":5.378308,"is_reserved":false,"is_disabled":false,"rental_uris":{"android":"levelo://app?vid=9940d87d-ad4e-4ebc-90cd-163d0fad21b4","ios":"levelo://app?vid=9940d87d-ad4e-4ebc-90cd-163d0fad21b4"},"vehicle_type_id":"4","last_reported":1701871611,"current_range_meters":7200,"station_id":"ce4bha12rcd13ifvqee0","pricing_plan_id":"free"},{"bike_id":"a30f5e4c-6913-4e87-970c-66fce93ae2bb","system_id":"levelo_inurba_marseille","lat":43.284462,"lon":5.392121,"is_reserved":false,"is_disabled":false,"rental_uris":{"android":"levelo://app?vid=a30f5e4c-6913-4e87-970c-66fce93ae2bb","ios":"levelo://app?vid=a30f5e4c-6913-4e87-970c-66fce93ae2bb"},"vehicle_type_id":"4","last_reported":1701871611,"current_range_meters":31600,"station_id":"ce4bhoh2rcd13ifvqh5g","pricing_plan_id":"free"},{"bike_id":"4731c479-a130-4160-b6b2-6fb6f541a91a","system_id":"levelo_inurba_marseille","lat":43.284462,"lon":5.392121,"is_reserved":false,"is_disabled":false,"rental_uris":{"android":"levelo://app?vid=4731c479-a130-4160-b6b2-6fb6f541a91a","ios":"levelo://app?vid=4731c479-a130-4160-b6b2-6fb6f541a91a"},"vehicle_type_id":"4","last_reported":1701871611,"current_range_meters":16800,"station_id":"ce4bhoh2rcd13ifvqh5g","pricing_plan_id":"free"},{"bike_id":"b5a74636-0227-446f-9eca-5becd3896443","system_id":"levelo_inurba_marseille","lat":43.284462,"lon":5.392121,"is_reserved":false,"is_disabled":false,"rental_uris":{"android":"levelo://app?vid=b5a74636-0227-446f-9eca-5becd3896443","ios":"levelo://app?vid=b5a74636-0227-446f-9eca-5becd3896443"},"vehicle_type_id":"4","last_reported":1701871611,"current_range_meters":2000,"station_id":"ce4bhoh2rcd13ifvqh5g","pricing_plan_id":"free"},{"bike_id":"c4086dd2-cd1b-482a-ab4b-fc22a0cc1357","system_id":"levelo_inurba_marseille","lat":43.284462,"lon":5.392121,"is_reserved":false,"is_disabled":false,"rental_uris":{"android":"levelo://app?vid=c4086dd2-cd1b-482a-ab4b-fc22a0cc1357","ios":"levelo://app?vid=c4086dd2-cd1b-482a-ab4b-fc22a0cc1357"},"vehicle_type_id":"4","last_reported":1701871611,"current_range_meters":17600,"station_id":"ce4bhoh2rcd13ifvqh5g","pricing_plan_id":"free"},{"bike_id":"2cacba3b-9adb-44e7-8c6b-32c249c868eb","system_id":"levelo_inurba_marseille","lat":43.284462,"lon":5.392121,"is_reserved":false,"is_disabled":false,"rental_uris":{"android":"levelo://app?vid=2cacba3b-9adb-44e7-8c6b-32c249c868eb","ios":"levelo://app?vid=2cacba3b-9adb-44e7-8c6b-32c249c868eb"},"vehicle_type_id":"4","last_reported":1701871611,"current_range_meters":23200,"station_id":"ce4bhoh2rcd13ifvqh5g","pricing_plan_id":"free"},{"bike_id":"1204a65b-4951-471f-b885-d0e8df4f29c5","system_id":"levelo_inurba_marseille","lat":43.326605,"lon":5.409903,"is_reserved":false,"is_disabled":false,"rental_uris":{"android":"levelo://app?vid=1204a65b-4951-471f-b885-d0e8df4f29c5","ios":"levelo://app?vid=1204a65b-4951-471f-b885-d0e8df4f29c5"},"vehicle_type_id":"4","last_reported":1701871611,"current_range_meters":3600,"station_id":"ce4bhpp2rcd13ifvqhgg","pricing_plan_id":"free"},{"bike_id":"fbc0a71e-a8e0-45ed-9c78-2812e45f60e0","system_id":"levelo_inurba_marseille","lat":43.27902,"lon":5.38013,"is_reserved":false,"is_disabled":false,"rental_uris":{"android":"levelo://app?vid=fbc0a71e-a8e0-45ed-9c78-2812e45f60e0","ios":"levelo://app?vid=fbc0a71e-a8e0-45ed-9c78-2812e45f60e0"},"vehicle_type_id":"4","last_reported":1701871611,"current_range_meters":13600,"station_id":"ce4bhf92rcd13ifvqf50","pricing_plan_id":"free"},{"bike_id":"74dff095-6944-424e-ac10-68dad825ad60","system_id":"levelo_inurba_marseille","lat":43.320045,"lon":5.415046,"is_reserved":false,"is_disabled":false,"rental_uris":{"android":"levelo://app?vid=74dff095-6944-424e-ac10-68dad825ad60","ios":"levelo://app?vid=74dff095-6944-424e-ac10-68dad825ad60"},"vehicle_type_id":"4","last_reported":1701871611,"current_range_meters":29600,"station_id":"ce4bhq92rcd13ifvqhkg","pricing_plan_id":"free"},{"bike_id":"94443b62-41e8-4084-a036-03a9e14b960f","system_id":"levelo_inurba_marseille","lat":43.279742,"lon":5.38744,"is_reserved":false,"is_disabled":false,"rental_uris":{"android":"levelo://app?vid=94443b62-41e8-4084-a036-03a9e14b960f","ios":"levelo://app?vid=94443b62-41e8-4084-a036-03a9e14b960f"},"vehicle_type_id":"4","last_reported":1701871611,"current_range_meters":5600,"station_id":"ce4bhg12rcd13ifvqf80","pricing_plan_id":"free"},{"bike_id":"7494241f-3827-4e9f-8dfd-f34d29a434a6","system_id":"levelo_inurba_marseille","lat":43.279742,"lon":5.38744,"is_reserved":false,"is_disabled":false,"rental_uris":{"android":"levelo://app?vid=7494241f-3827-4e9f-8dfd-f34d29a434a6","ios":"levelo://app?vid=7494241f-3827-4e9f-8dfd-f34d29a434a6"},"vehicle_type_id":"4","last_reported":1701871611,"current_range_meters":4400,"station_id":"ce4bhg12rcd13ifvqf80","pricing_plan_id":"free"},{"bike_id":"e6e8b716-5230-4325-80ae-05ed390a2d2b","system_id":"levelo_inurba_marseille","lat":43.292569,"lon":5.409107,"is_reserved":false,"is_disabled":false,"rental_uris":{"android":"levelo://app?vid=e6e8b716-5230-4325-80ae-05ed390a2d2b","ios":"levelo://app?vid=e6e8b716-5230-4325-80ae-05ed390a2d2b"},"vehicle_type_id":"4","last_reported":1701871611,"current_range_meters":8000,"station_id":"ce4bh192rcd13ifvqdc0","pricing_plan_id":"free"},{"bike_id":"b87d900d-4238-4bdd-8c70-f8c289052cb9","system_id":"levelo_inurba_marseille","lat":43.280784,"lon":5.396622,"is_reserved":false,"is_disabled":false,"rental_uris":{"android":"levelo://app?vid=b87d900d-4238-4bdd-8c70-f8c289052cb9","ios":"levelo://app?vid=b87d900d-4238-4bdd-8c70-f8c289052cb9"},"vehicle_type_id":"4","last_reported":1701871611,"current_range_meters":17200,"station_id":"ce4bho12rcd13ifvqh2g","pricing_plan_id":"free"},{"bike_id":"9a54a80b-6ae0-40f4-9841-ab1c7726b814","system_id":"levelo_inurba_marseille","lat":43.303837,"lon":5.418724,"is_reserved":false,"is_disabled":false,"rental_uris":{"android":"levelo://app?vid=9a54a80b-6ae0-40f4-9841-ab1c7726b814","ios":"levelo://app?vid=9a54a80b-6ae0-40f4-9841-ab1c7726b814"},"vehicle_type_id":"4","last_reported":1701871611,"current_range_meters":24800,"station_id":"ce4bhop2rcd13ifvqh7g","pricing_plan_id":"free"},{"bike_id":"782cac25-906e-4bcc-9ec6-0213cad2c482","system_id":"levelo_inurba_marseille","lat":43.273613,"lon":5.362705,"is_reserved":false,"is_disabled":false,"rental_uris":{"android":"levelo://app?vid=782cac25-906e-4bcc-9ec6-0213cad2c482","ios":"levelo://app?vid=782cac25-906e-4bcc-9ec6-0213cad2c482"},"vehicle_type_id":"4","last_reported":1701871611,"current_range_meters":5200,"station_id":"ce4bhbh2rcd13ifvqeo0","pricing_plan_id":"free"},{"bike_id":"a56feeb3-7a17-4e09-a31f-30e4d755439c","system_id":"levelo_inurba_marseille","lat":43.33612,"lon":5.410321,"is_reserved":false,"is_disabled":false,"rental_uris":{"android":"levelo://app?vid=a56feeb3-7a17-4e09-a31f-30e4d755439c","ios":"levelo://app?vid=a56feeb3-7a17-4e09-a31f-30e4d755439c"},"vehicle_type_id":"4","last_reported":1701871611,"current_range_meters":2800,"station_id":"ce4bhqh2rcd13ifvqhmg","pricing_plan_id":"free"},{"bike_id":"49887d6e-45bf-426f-bcf7-4f15ec2b06db","system_id":"levelo_inurba_marseille","lat":43.273609,"lon":5.362708,"is_reserved":false,"is_disabled":false,"rental_uris":{"android":"levelo://app?vid=49887d6e-45bf-426f-bcf7-4f15ec2b06db","ios":"levelo://app?vid=49887d6e-45bf-426f-bcf7-4f15ec2b06db"},"vehicle_type_id":"4","last_reported":1701871611,"current_range_meters":30800,"station_id":"ce4bhbh2rcd13ifvqeo0","pricing_plan_id":"free"},{"bike_id":"c34f5cff-352e-4b5d-aa20-163a588c69f9","system_id":"levelo_inurba_marseille","lat":43.33612,"lon":5.410321,"is_reserved":false,"is_disabled":false,"rental_uris":{"android":"levelo://app?vid=c34f5cff-352e-4b5d-aa20-163a588c69f9","ios":"levelo://app?vid=c34f5cff-352e-4b5d-aa20-163a588c69f9"},"vehicle_type_id":"4","last_reported":1701871611,"current_range_meters":32000,"station_id":"ce4bhqh2rcd13ifvqhmg","pricing_plan_id":"free"},{"bike_id":"51098abc-50bd-4b06-a138-2e43f54bc6f3","system_id":"levelo_inurba_marseille","lat":43.275625,"lon":5.384392,"is_reserved":false,"is_disabled":false,"rental_uris":{"android":"levelo://app?vid=51098abc-50bd-4b06-a138-2e43f54bc6f3","ios":"levelo://app?vid=51098abc-50bd-4b06-a138-2e43f54bc6f3"},"vehicle_type_id":"4","last_reported":1701871611,"current_range_meters":11200,"station_id":"ce4bhh92rcd13ifvqfi0","pricing_plan_id":"free"},{"bike_id":"fa13a10a-1ae7-4cbf-b266-cfae97820d6a","system_id":"levelo_inurba_marseille","lat":43.276769,"lon":5.388787,"is_reserved":false,"is_disabled":false,"rental_uris":{"android":"levelo://app?vid=fa13a10a-1ae7-4cbf-b266-cfae97820d6a","ios":"levelo://app?vid=fa13a10a-1ae7-4cbf-b266-cfae97820d6a"},"vehicle_type_id":"4","last_reported":1701871611,"current_range_meters":22400,"station_id":"ce4bhi12rcd13ifvqfo0","pricing_plan_id":"free"},{"bike_id":"c9763e82-d39a-4f4d-a4da-8e65ed9c7879","system_id":"levelo_inurba_marseille","lat":43.276771,"lon":5.388799,"is_reserved":false,"is_disabled":false,"rental_uris":{"android":"levelo://app?vid=c9763e82-d39a-4f4d-a4da-8e65ed9c7879","ios":"levelo://app?vid=c9763e82-d39a-4f4d-a4da-8e65ed9c7879"},"vehicle_type_id":"4","last_reported":1701871611,"current_range_meters":27600,"station_id":"ce4bhi12rcd13ifvqfo0","pricing_plan_id":"free"},{"bike_id":"03c5f7be-f218-4047-94ad-24ab34c57a88","system_id":"levelo_inurba_marseille","lat":43.279952,"lon":5.400085,"is_reserved":false,"is_disabled":false,"rental_uris":{"android":"levelo://app?vid=03c5f7be-f218-4047-94ad-24ab34c57a88","ios":"levelo://app?vid=03c5f7be-f218-4047-94ad-24ab34c57a88"},"vehicle_type_id":"4","last_reported":1701871611,"current_range_meters":18400,"station_id":"ce4bho92rcd13ifvqh4g","pricing_plan_id":"free"},{"bike_id":"f6fd84e2-041b-424a-9178-34ecf1be8dd9","system_id":"levelo_inurba_marseille","lat":43.298681,"lon":5.397225,"is_reserved":false,"is_disabled":false,"rental_uris":{"android":"levelo://app?vid=f6fd84e2-041b-424a-9178-34ecf1be8dd9","ios":"levelo://app?vid=f6fd84e2-041b-424a-9178-34ecf1be8dd9"},"vehicle_type_id":"4","last_reported":1701871611,"current_range_meters":5200,"station_id":"ce4bh0h2rcd13ifvqd50","pricing_plan_id":"free"},{"bike_id":"283b1518-47c4-4c7a-aece-e76435d9d17e","system_id":"levelo_inurba_marseille","lat":43.27622,"lon":5.39483,"is_reserved":false,"is_disabled":false,"rental_uris":{"android":"levelo://app?vid=283b1518-47c4-4c7a-aece-e76435d9d17e","ios":"levelo://app?vid=283b1518-47c4-4c7a-aece-e76435d9d17e"},"vehicle_type_id":"4","last_reported":1701871611,"current_range_meters":8800,"station_id":"","pricing_plan_id":"free"},{"bike_id":"df2d60af-3922-4d51-83b2-28ee17dcb373","system_id":"levelo_inurba_marseille","lat":43.310785,"lon":5.424305,"is_reserved":false,"is_disabled":false,"rental_uris":{"android":"levelo://app?vid=df2d60af-3922-4d51-83b2-28ee17dcb373","ios":"levelo://app?vid=df2d60af-3922-4d51-83b2-28ee17dcb373"},"vehicle_type_id":"4","last_reported":1701871611,"current_range_meters":3200,"station_id":"ce4bhp92rcd13ifvqhag","pricing_plan_id":"free"},{"bike_id":"48a1a1a4-e735-401c-83e7-33c2c02dc144","system_id":"levelo_inurba_marseille","lat":43.317121,"lon":5.423936,"is_reserved":false,"is_disabled":false,"rental_uris":{"android":"levelo://app?vid=48a1a1a4-e735-401c-83e7-33c2c02dc144","ios":"levelo://app?vid=48a1a1a4-e735-401c-83e7-33c2c02dc144"},"vehicle_type_id":"4","last_reported":1701871611,"current_range_meters":27600,"station_id":"ce4bhp92rcd13ifvqhbg","pricing_plan_id":"free"},{"bike_id":"c386f034-3feb-4a78-9d08-f00d094c3a33","system_id":"levelo_inurba_marseille","lat":43.295511,"lon":5.422926,"is_reserved":false,"is_disabled":false,"rental_uris":{"android":"levelo://app?vid=c386f034-3feb-4a78-9d08-f00d094c3a33","ios":"levelo://app?vid=c386f034-3feb-4a78-9d08-f00d094c3a33"},"vehicle_type_id":"4","last_reported":1701871611,"current_range_meters":11200,"station_id":"ce4bhph2rcd13ifvqhdg","pricing_plan_id":"free"},{"bike_id":"45ecb173-f4bb-41f7-8937-e7afb84705e0","system_id":"levelo_inurba_marseille","lat":43.2721,"lon":5.39184,"is_reserved":false,"is_disabled":false,"rental_uris":{"android":"levelo://app?vid=45ecb173-f4bb-41f7-8937-e7afb84705e0","ios":"levelo://app?vid=45ecb173-f4bb-41f7-8937-e7afb84705e0"},"vehicle_type_id":"4","last_reported":1701871611,"current_range_meters":16400,"station_id":"ce4bhhp2rcd13ifvqfm0","pricing_plan_id":"free"},{"bike_id":"821c1ed6-1cde-47db-9d87-09bec4da9fc8","system_id":"levelo_inurba_marseille","lat":43.272116,"lon":5.391763,"is_reserved":false,"is_disabled":false,"rental_uris":{"android":"levelo://app?vid=821c1ed6-1cde-47db-9d87-09bec4da9fc8","ios":"levelo://app?vid=821c1ed6-1cde-47db-9d87-09bec4da9fc8"},"vehicle_type_id":"4","last_reported":1701871611,"current_range_meters":4400,"station_id":"ce4bhhp2rcd13ifvqfm0","pricing_plan_id":"free"},{"bike_id":"2443f55b-ff75-48be-b58d-c98826895499","system_id":"levelo_inurba_marseille","lat":43.272116,"lon":5.391747,"is_reserved":false,"is_disabled":false,"rental_uris":{"android":"levelo://app?vid=2443f55b-ff75-48be-b58d-c98826895499","ios":"levelo://app?vid=2443f55b-ff75-48be-b58d-c98826895499"},"vehicle_type_id":"4","last_reported":1701871611,"current_range_meters":400,"station_id":"ce4bhhp2rcd13ifvqfm0","pricing_plan_id":"free"},{"bike_id":"77e2df1b-d75a-48fe-a6ad-744dfbe91f1d","system_id":"levelo_inurba_marseille","lat":43.27214,"lon":5.3925,"is_reserved":false,"is_disabled":false,"rental_uris":{"android":"levelo://app?vid=77e2df1b-d75a-48fe-a6ad-744dfbe91f1d","ios":"levelo://app?vid=77e2df1b-d75a-48fe-a6ad-744dfbe91f1d"},"vehicle_type_id":"4","last_reported":1701871611,"current_range_meters":12800,"station_id":"","pricing_plan_id":"free"},{"bike_id":"243905ed-d2dd-4460-9721-23ceda2d2da4","system_id":"levelo_inurba_marseille","lat":43.269467,"lon":5.386439,"is_reserved":false,"is_disabled":false,"rental_uris":{"android":"levelo://app?vid=243905ed-d2dd-4460-9721-23ceda2d2da4","ios":"levelo://app?vid=243905ed-d2dd-4460-9721-23ceda2d2da4"},"vehicle_type_id":"4","last_reported":1701871611,"current_range_meters":10000,"station_id":"ce4bhh92rcd13ifvqfh0","pricing_plan_id":"free"},{"bike_id":"afc069d8-7bd4-4297-acda-23fa8905881e","system_id":"levelo_inurba_marseille","lat":43.269467,"lon":5.386439,"is_reserved":false,"is_disabled":false,"rental_uris":{"android":"levelo://app?vid=afc069d8-7bd4-4297-acda-23fa8905881e","ios":"levelo://app?vid=afc069d8-7bd4-4297-acda-23fa8905881e"},"vehicle_type_id":"4","last_reported":1701871611,"current_range_meters":20000,"station_id":"ce4bhh92rcd13ifvqfh0","pricing_plan_id":"free"},{"bike_id":"77569c05-79c3-45cc-9834-1b14a1d49efe","system_id":"levelo_inurba_marseille","lat":43.269319,"lon":5.389397,"is_reserved":false,"is_disabled":false,"rental_uris":{"android":"levelo://app?vid=77569c05-79c3-45cc-9834-1b14a1d49efe","ios":"levelo://app?vid=77569c05-79c3-45cc-9834-1b14a1d49efe"},"vehicle_type_id":"4","last_reported":1701871611,"current_range_meters":10000,"station_id":"ce4bhhh2rcd13ifvqfl0","pricing_plan_id":"free"},{"bike_id":"9df02221-bdf2-413f-ab29-ccbed0bd30ed","system_id":"levelo_inurba_marseille","lat":43.265583,"lon":5.37291,"is_reserved":false,"is_disabled":false,"rental_uris":{"android":"levelo://app?vid=9df02221-bdf2-413f-ab29-ccbed0bd30ed","ios":"levelo://app?vid=9df02221-bdf2-413f-ab29-ccbed0bd30ed"},"vehicle_type_id":"4","last_reported":1701871611,"current_range_meters":30800,"station_id":"ce4bhg12rcd13ifvqf70","pricing_plan_id":"free"},{"bike_id":"2ccf767f-82e0-46dc-9bea-da02110a029d","system_id":"levelo_inurba_marseille","lat":43.265714,"lon":5.372891,"is_reserved":false,"is_disabled":false,"rental_uris":{"android":"levelo://app?vid=2ccf767f-82e0-46dc-9bea-da02110a029d","ios":"levelo://app?vid=2ccf767f-82e0-46dc-9bea-da02110a029d"},"vehicle_type_id":"4","last_reported":1701871611,"current_range_meters":14800,"station_id":"ce4bhg12rcd13ifvqf70","pricing_plan_id":"free"},{"bike_id":"8506c954-8118-41b1-b29a-a9435e1db67d","system_id":"levelo_inurba_marseille","lat":43.267966,"lon":5.393976,"is_reserved":false,"is_disabled":false,"rental_uris":{"android":"levelo://app?vid=8506c954-8118-41b1-b29a-a9435e1db67d","ios":"levelo://app?vid=8506c954-8118-41b1-b29a-a9435e1db67d"},"vehicle_type_id":"4","last_reported":1701871611,"current_range_meters":1600,"station_id":"ce4bhh12rcd13ifvqfg0","pricing_plan_id":"free"},{"bike_id":"d1fe44cb-a304-4c24-8d87-a28d6daf209a","system_id":"levelo_inurba_marseille","lat":43.308051,"lon":5.43527,"is_reserved":false,"is_disabled":false,"rental_uris":{"android":"levelo://app?vid=d1fe44cb-a304-4c24-8d87-a28d6daf209a","ios":"levelo://app?vid=d1fe44cb-a304-4c24-8d87-a28d6daf209a"},"vehicle_type_id":"4","last_reported":1701871611,"current_range_meters":14400,"station_id":"ce4bhph2rcd13ifvqheg","pricing_plan_id":"free"},{"bike_id":"8bdc4b02-787d-42cd-98b1-0caf86e96e43","system_id":"levelo_inurba_marseille","lat":43.261782,"lon":5.374515,"is_reserved":false,"is_disabled":false,"rental_uris":{"android":"levelo://app?vid=8bdc4b02-787d-42cd-98b1-0caf86e96e43","ios":"levelo://app?vid=8bdc4b02-787d-42cd-98b1-0caf86e96e43"},"vehicle_type_id":"4","last_reported":1701871611,"current_range_meters":4000,"station_id":"ce4bhgp2rcd13ifvqfc0","pricing_plan_id":"free"},{"bike_id":"6e0586c6-30d2-4004-a279-1bc6d70720c6","system_id":"levelo_inurba_marseille","lat":43.26183,"lon":5.37439,"is_reserved":false,"is_disabled":false,"rental_uris":{"android":"levelo://app?vid=6e0586c6-30d2-4004-a279-1bc6d70720c6","ios":"levelo://app?vid=6e0586c6-30d2-4004-a279-1bc6d70720c6"},"vehicle_type_id":"4","last_reported":1701871611,"current_range_meters":5600,"station_id":"ce4bhgp2rcd13ifvqfc0","pricing_plan_id":"free"},{"bike_id":"c2157edc-e835-4195-96c6-6cc83713d940","system_id":"levelo_inurba_marseille","lat":43.26803,"lon":5.40267,"is_reserved":false,"is_disabled":false,"rental_uris":{"android":"levelo://app?vid=c2157edc-e835-4195-96c6-6cc83713d940","ios":"levelo://app?vid=c2157edc-e835-4195-96c6-6cc83713d940"},"vehicle_type_id":"4","last_reported":1701871611,"current_range_meters":18000,"station_id":"ce501612rcd8frsf0b60","pricing_plan_id":"free"},{"bike_id":"6a4c7088-b2e2-416d-84e6-e1999a3a52c7","system_id":"levelo_inurba_marseille","lat":43.267959,"lon":5.402687,"is_reserved":false,"is_disabled":false,"rental_uris":{"android":"levelo://app?vid=6a4c7088-b2e2-416d-84e6-e1999a3a52c7","ios":"levelo://app?vid=6a4c7088-b2e2-416d-84e6-e1999a3a52c7"},"vehicle_type_id":"4","last_reported":1701871611,"current_range_meters":21200,"station_id":"ce501612rcd8frsf0b60","pricing_plan_id":"free"},{"bike_id":"a25b46cb-c48b-4a96-9869-c85d1ef25a0f","system_id":"levelo_inurba_marseille","lat":43.298768,"lon":5.43643,"is_reserved":false,"is_disabled":false,"rental_uris":{"android":"levelo://app?vid=a25b46cb-c48b-4a96-9869-c85d1ef25a0f","ios":"levelo://app?vid=a25b46cb-c48b-4a96-9869-c85d1ef25a0f"},"vehicle_type_id":"4","last_reported":1701871611,"current_range_meters":25600,"station_id":"ce4bhpp2rcd13ifvqhfg","pricing_plan_id":"free"},{"bike_id":"01b56e45-2905-485a-a1ad-3939984e25e4","system_id":"levelo_inurba_marseille","lat":43.281548,"lon":5.42643,"is_reserved":false,"is_disabled":false,"rental_uris":{"android":"levelo://app?vid=01b56e45-2905-485a-a1ad-3939984e25e4","ios":"levelo://app?vid=01b56e45-2905-485a-a1ad-3939984e25e4"},"vehicle_type_id":"4","last_reported":1701871611,"current_range_meters":23600,"station_id":"ce4bhnh2rcd13ifvqgug","pricing_plan_id":"free"},{"bike_id":"e80a3a47-620b-4676-9864-80d5b53869ca","system_id":"levelo_inurba_marseille","lat":43.281548,"lon":5.42643,"is_reserved":false,"is_disabled":false,"rental_uris":{"android":"levelo://app?vid=e80a3a47-620b-4676-9864-80d5b53869ca","ios":"levelo://app?vid=e80a3a47-620b-4676-9864-80d5b53869ca"},"vehicle_type_id":"4","last_reported":1701871611,"current_range_meters":23200,"station_id":"ce4bhnh2rcd13ifvqgug","pricing_plan_id":"free"},{"bike_id":"a267938e-d276-4a36-956e-9992c4dc0c16","system_id":"levelo_inurba_marseille","lat":43.281548,"lon":5.42643,"is_reserved":false,"is_disabled":false,"rental_uris":{"android":"levelo://app?vid=a267938e-d276-4a36-956e-9992c4dc0c16","ios":"levelo://app?vid=a267938e-d276-4a36-956e-9992c4dc0c16"},"vehicle_type_id":"4","last_reported":1701871611,"current_range_meters":25600,"station_id":"ce4bhnh2rcd13ifvqgug","pricing_plan_id":"free"},{"bike_id":"a47f3d37-9df2-4fd9-b07c-1d38ab431dbc","system_id":"levelo_inurba_marseille","lat":43.281548,"lon":5.42643,"is_reserved":false,"is_disabled":false,"rental_uris":{"android":"levelo://app?vid=a47f3d37-9df2-4fd9-b07c-1d38ab431dbc","ios":"levelo://app?vid=a47f3d37-9df2-4fd9-b07c-1d38ab431dbc"},"vehicle_type_id":"4","last_reported":1701871611,"current_range_meters":1600,"station_id":"ce4bhnh2rcd13ifvqgug","pricing_plan_id":"free"},{"bike_id":"ee765aba-32c7-4a7f-8e72-8501e85ff29c","system_id":"levelo_inurba_marseille","lat":43.281548,"lon":5.42643,"is_reserved":false,"is_disabled":false,"rental_uris":{"android":"levelo://app?vid=ee765aba-32c7-4a7f-8e72-8501e85ff29c","ios":"levelo://app?vid=ee765aba-32c7-4a7f-8e72-8501e85ff29c"},"vehicle_type_id":"4","last_reported":1701871611,"current_range_meters":6800,"station_id":"ce4bhnh2rcd13ifvqgug","pricing_plan_id":"free"},{"bike_id":"c58b08ae-cfd5-4c14-ac02-61139ba73838","system_id":"levelo_inurba_marseille","lat":43.2607,"lon":5.393983,"is_reserved":false,"is_disabled":false,"rental_uris":{"android":"levelo://app?vid=c58b08ae-cfd5-4c14-ac02-61139ba73838","ios":"levelo://app?vid=c58b08ae-cfd5-4c14-ac02-61139ba73838"},"vehicle_type_id":"4","last_reported":1701871611,"current_range_meters":21600,"station_id":"ce4bhh92rcd13ifvqfj0","pricing_plan_id":"free"},{"bike_id":"c6c88049-fd9f-44ab-b5dd-44bfb281058e","system_id":"levelo_inurba_marseille","lat":43.275028,"lon":5.424534,"is_reserved":false,"is_disabled":false,"rental_uris":{"android":"levelo://app?vid=c6c88049-fd9f-44ab-b5dd-44bfb281058e","ios":"levelo://app?vid=c6c88049-fd9f-44ab-b5dd-44bfb281058e"},"vehicle_type_id":"4","last_reported":1701871611,"current_range_meters":26000,"station_id":"ce4bhn92rcd13ifvqgrg","pricing_plan_id":"free"},{"bike_id":"4fed5619-d43d-440f-bc93-f45579c9b94a","system_id":"levelo_inurba_marseille","lat":43.275028,"lon":5.424534,"is_reserved":false,"is_disabled":false,"rental_uris":{"android":"levelo://app?vid=4fed5619-d43d-440f-bc93-f45579c9b94a","ios":"levelo://app?vid=4fed5619-d43d-440f-bc93-f45579c9b94a"},"vehicle_type_id":"4","last_reported":1701871611,"current_range_meters":17600,"station_id":"ce4bhn92rcd13ifvqgrg","pricing_plan_id":"free"},{"bike_id":"3ee3b409-3726-4936-9d58-67c92d42618a","system_id":"levelo_inurba_marseille","lat":43.258224,"lon":5.394369,"is_reserved":false,"is_disabled":false,"rental_uris":{"android":"levelo://app?vid=3ee3b409-3726-4936-9d58-67c92d42618a","ios":"levelo://app?vid=3ee3b409-3726-4936-9d58-67c92d42618a"},"vehicle_type_id":"4","last_reported":1701871611,"current_range_meters":28800,"station_id":"ce4bhip2rcd13ifvqft0","pricing_plan_id":"free"},{"bike_id":"0d65d35c-c562-4524-8dbe-5b6cef2f2c2b","system_id":"levelo_inurba_marseille","lat":43.270721,"lon":5.422764,"is_reserved":false,"is_disabled":false,"rental_uris":{"android":"levelo://app?vid=0d65d35c-c562-4524-8dbe-5b6cef2f2c2b","ios":"levelo://app?vid=0d65d35c-c562-4524-8dbe-5b6cef2f2c2b"},"vehicle_type_id":"4","last_reported":1701871611,"current_range_meters":14400,"station_id":"ce4bhk92rcd13ifvqgb0","pricing_plan_id":"free"},{"bike_id":"c25c9d8d-ce4e-4d07-87da-0e7722b65373","system_id":"levelo_inurba_marseille","lat":43.258658,"lon":5.398935,"is_reserved":false,"is_disabled":false,"rental_uris":{"android":"levelo://app?vid=c25c9d8d-ce4e-4d07-87da-0e7722b65373","ios":"levelo://app?vid=c25c9d8d-ce4e-4d07-87da-0e7722b65373"},"vehicle_type_id":"4","last_reported":1701871611,"current_range_meters":17600,"station_id":"ce4bhl92rcd13ifvqghg","pricing_plan_id":"free"},{"bike_id":"f92d0ceb-029f-42c4-af2f-281126a7126a","system_id":"levelo_inurba_marseille","lat":43.2479,"lon":5.374457,"is_reserved":false,"is_disabled":false,"rental_uris":{"android":"levelo://app?vid=f92d0ceb-029f-42c4-af2f-281126a7126a","ios":"levelo://app?vid=f92d0ceb-029f-42c4-af2f-281126a7126a"},"vehicle_type_id":"4","last_reported":1701871611,"current_range_meters":20400,"station_id":"ce4bhgh2rcd13ifvqfb0","pricing_plan_id":"free"},{"bike_id":"a5aaae44-ba0f-4c45-a6dd-490d904fb8d7","system_id":"levelo_inurba_marseille","lat":43.250966,"lon":5.395186,"is_reserved":false,"is_disabled":false,"rental_uris":{"android":"levelo://app?vid=a5aaae44-ba0f-4c45-a6dd-490d904fb8d7","ios":"levelo://app?vid=a5aaae44-ba0f-4c45-a6dd-490d904fb8d7"},"vehicle_type_id":"4","last_reported":1701871611,"current_range_meters":12400,"station_id":"ce4bhm12rcd13ifvqgkg","pricing_plan_id":"free"},{"bike_id":"eff00dc4-c6a3-4a1d-a99f-c2199958ea4f","system_id":"levelo_inurba_marseille","lat":43.25102,"lon":5.403214,"is_reserved":false,"is_disabled":false,"rental_uris":{"android":"levelo://app?vid=eff00dc4-c6a3-4a1d-a99f-c2199958ea4f","ios":"levelo://app?vid=eff00dc4-c6a3-4a1d-a99f-c2199958ea4f"},"vehicle_type_id":"4","last_reported":1701871611,"current_range_meters":8400,"station_id":"ce4bhlh2rcd13ifvqgig","pricing_plan_id":"free"},{"bike_id":"42ebde9a-c702-4a24-8e53-26d0baa0015e","system_id":"levelo_inurba_marseille","lat":43.245428,"lon":5.395222,"is_reserved":false,"is_disabled":false,"rental_uris":{"android":"levelo://app?vid=42ebde9a-c702-4a24-8e53-26d0baa0015e","ios":"levelo://app?vid=42ebde9a-c702-4a24-8e53-26d0baa0015e"},"vehicle_type_id":"4","last_reported":1701871611,"current_range_meters":10000,"station_id":"","pricing_plan_id":"free"},{"bike_id":"c4b83db8-5108-47bc-a6c0-afa06a3735c9","system_id":"levelo_inurba_marseille","lat":43.240623,"lon":5.377642,"is_reserved":false,"is_disabled":false,"rental_uris":{"android":"levelo://app?vid=c4b83db8-5108-47bc-a6c0-afa06a3735c9","ios":"levelo://app?vid=c4b83db8-5108-47bc-a6c0-afa06a3735c9"},"vehicle_type_id":"4","last_reported":1701871611,"current_range_meters":17600,"station_id":"ce4bhnp2rcd13ifvqgvg","pricing_plan_id":"free"},{"bike_id":"ad9c41b5-0d53-4de4-a8fe-4bc134273d0e","system_id":"levelo_inurba_marseille","lat":43.239588,"lon":5.366238,"is_reserved":false,"is_disabled":false,"rental_uris":{"android":"levelo://app?vid=ad9c41b5-0d53-4de4-a8fe-4bc134273d0e","ios":"levelo://app?vid=ad9c41b5-0d53-4de4-a8fe-4bc134273d0e"},"vehicle_type_id":"4","last_reported":1701871611,"current_range_meters":14000,"station_id":"ce4bhi12rcd13ifvqfp0","pricing_plan_id":"free"},{"bike_id":"eee5cae3-a0ba-4530-b2a1-2a5afaf0250a","system_id":"levelo_inurba_marseille","lat":43.241782,"lon":5.397261,"is_reserved":false,"is_disabled":false,"rental_uris":{"android":"levelo://app?vid=eee5cae3-a0ba-4530-b2a1-2a5afaf0250a","ios":"levelo://app?vid=eee5cae3-a0ba-4530-b2a1-2a5afaf0250a"},"vehicle_type_id":"4","last_reported":1701871611,"current_range_meters":31200,"station_id":"ce4bhn12rcd13ifvqgpg","pricing_plan_id":"free"},{"bike_id":"cecf959f-015c-4ca5-9fdb-d17143d1fc57","system_id":"levelo_inurba_marseille","lat":43.241782,"lon":5.397261,"is_reserved":false,"is_disabled":false,"rental_uris":{"android":"levelo://app?vid=cecf959f-015c-4ca5-9fdb-d17143d1fc57","ios":"levelo://app?vid=cecf959f-015c-4ca5-9fdb-d17143d1fc57"},"vehicle_type_id":"4","last_reported":1701871611,"current_range_meters":21600,"station_id":"ce4bhn12rcd13ifvqgpg","pricing_plan_id":"free"},{"bike_id":"ee8851ba-2934-4bc6-b20d-354057ab45e2","system_id":"levelo_inurba_marseille","lat":43.232025,"lon":5.355517,"is_reserved":false,"is_disabled":false,"rental_uris":{"android":"levelo://app?vid=ee8851ba-2934-4bc6-b20d-354057ab45e2","ios":"levelo://app?vid=ee8851ba-2934-4bc6-b20d-354057ab45e2"},"vehicle_type_id":"4","last_reported":1701871611,"current_range_meters":11600,"station_id":"ce4bhu92rcd13ifvqi70","pricing_plan_id":"free"},{"bike_id":"2048aec7-40a9-4fce-8eb2-2625aaa263d3","system_id":"levelo_inurba_marseille","lat":43.231923,"lon":5.355545,"is_reserved":false,"is_disabled":false,"rental_uris":{"android":"levelo://app?vid=2048aec7-40a9-4fce-8eb2-2625aaa263d3","ios":"levelo://app?vid=2048aec7-40a9-4fce-8eb2-2625aaa263d3"},"vehicle_type_id":"4","last_reported":1701871611,"current_range_meters":18000,"station_id":"ce4bhu92rcd13ifvqi70","pricing_plan_id":"free"},{"bike_id":"8d93eeb2-1ca5-45c1-aa71-2bedec57b2ab","system_id":"levelo_inurba_marseille","lat":43.231919,"lon":5.355532,"is_reserved":false,"is_disabled":false,"rental_uris":{"android":"levelo://app?vid=8d93eeb2-1ca5-45c1-aa71-2bedec57b2ab","ios":"levelo://app?vid=8d93eeb2-1ca5-45c1-aa71-2bedec57b2ab"},"vehicle_type_id":"4","last_reported":1701871611,"current_range_meters":30400,"station_id":"ce4bhu92rcd13ifvqi70","pricing_plan_id":"free"},{"bike_id":"13c0e5b5-62bd-42f7-8c7c-9168886e359e","system_id":"levelo_inurba_marseille","lat":43.232001,"lon":5.355552,"is_reserved":false,"is_disabled":false,"rental_uris":{"android":"levelo://app?vid=13c0e5b5-62bd-42f7-8c7c-9168886e359e","ios":"levelo://app?vid=13c0e5b5-62bd-42f7-8c7c-9168886e359e"},"vehicle_type_id":"4","last_reported":1701871611,"current_range_meters":30000,"station_id":"ce4bhu92rcd13ifvqi70","pricing_plan_id":"free"},{"bike_id":"c67a76af-19e2-4781-b20f-4f48d4550695","system_id":"levelo_inurba_marseille","lat":43.232004,"lon":5.355489,"is_reserved":false,"is_disabled":false,"rental_uris":{"android":"levelo://app?vid=c67a76af-19e2-4781-b20f-4f48d4550695","ios":"levelo://app?vid=c67a76af-19e2-4781-b20f-4f48d4550695"},"vehicle_type_id":"4","last_reported":1701871611,"current_range_meters":20400,"station_id":"ce4bhu92rcd13ifvqi70","pricing_plan_id":"free"},{"bike_id":"cb54492e-531a-4ddd-ac05-b584fa4c27e9","system_id":"levelo_inurba_marseille","lat":43.231961,"lon":5.355484,"is_reserved":false,"is_disabled":false,"rental_uris":{"android":"levelo://app?vid=cb54492e-531a-4ddd-ac05-b584fa4c27e9","ios":"levelo://app?vid=cb54492e-531a-4ddd-ac05-b584fa4c27e9"},"vehicle_type_id":"4","last_reported":1701871611,"current_range_meters":31200,"station_id":"ce4bhu92rcd13ifvqi70","pricing_plan_id":"free"},{"bike_id":"265d8647-926c-4792-875e-587423febe0c","system_id":"levelo_inurba_marseille","lat":43.231953,"lon":5.355588,"is_reserved":false,"is_disabled":false,"rental_uris":{"android":"levelo://app?vid=265d8647-926c-4792-875e-587423febe0c","ios":"levelo://app?vid=265d8647-926c-4792-875e-587423febe0c"},"vehicle_type_id":"4","last_reported":1701871611,"current_range_meters":13600,"station_id":"ce4bhu92rcd13ifvqi70","pricing_plan_id":"free"},{"bike_id":"e2aa6ba6-fe77-46b8-9b07-373b92acd67a","system_id":"levelo_inurba_marseille","lat":43.231929,"lon":5.355601,"is_reserved":false,"is_disabled":false,"rental_uris":{"android":"levelo://app?vid=e2aa6ba6-fe77-46b8-9b07-373b92acd67a","ios":"levelo://app?vid=e2aa6ba6-fe77-46b8-9b07-373b92acd67a"},"vehicle_type_id":"4","last_reported":1701871611,"current_range_meters":29600,"station_id":"ce4bhu92rcd13ifvqi70","pricing_plan_id":"free"},{"bike_id":"6bdb87c7-8611-4910-9ce3-ff8207311338","system_id":"levelo_inurba_marseille","lat":43.231923,"lon":5.355563,"is_reserved":false,"is_disabled":false,"rental_uris":{"android":"levelo://app?vid=6bdb87c7-8611-4910-9ce3-ff8207311338","ios":"levelo://app?vid=6bdb87c7-8611-4910-9ce3-ff8207311338"},"vehicle_type_id":"4","last_reported":1701871611,"current_range_meters":15600,"station_id":"ce4bhu92rcd13ifvqi70","pricing_plan_id":"free"},{"bike_id":"31a33c15-352d-45b2-8ca0-1a47651437f3","system_id":"levelo_inurba_marseille","lat":43.231919,"lon":5.355532,"is_reserved":false,"is_disabled":false,"rental_uris":{"android":"levelo://app?vid=31a33c15-352d-45b2-8ca0-1a47651437f3","ios":"levelo://app?vid=31a33c15-352d-45b2-8ca0-1a47651437f3"},"vehicle_type_id":"4","last_reported":1701871611,"current_range_meters":25200,"station_id":"ce4bhu92rcd13ifvqi70","pricing_plan_id":"free"},{"bike_id":"532069f4-e08d-45bf-af3a-d0b088d4d417","system_id":"levelo_inurba_marseille","lat":43.231793,"lon":5.400044,"is_reserved":false,"is_disabled":false,"rental_uris":{"android":"levelo://app?vid=532069f4-e08d-45bf-af3a-d0b088d4d417","ios":"levelo://app?vid=532069f4-e08d-45bf-af3a-d0b088d4d417"},"vehicle_type_id":"4","last_reported":1701871611,"current_range_meters":8400,"station_id":"ce4bhn12rcd13ifvqgqg","pricing_plan_id":"free"},{"bike_id":"d4fafc8f-17c1-4709-ba6c-7f18a0e46857","system_id":"levelo_inurba_marseille","lat":43.231794,"lon":5.400052,"is_reserved":false,"is_disabled":false,"rental_uris":{"android":"levelo://app?vid=d4fafc8f-17c1-4709-ba6c-7f18a0e46857","ios":"levelo://app?vid=d4fafc8f-17c1-4709-ba6c-7f18a0e46857"},"vehicle_type_id":"4","last_reported":1701871611,"current_range_meters":22000,"station_id":"ce4bhn12rcd13ifvqgqg","pricing_plan_id":"free"},{"bike_id":"665751fa-b6e1-4e36-8467-b488a695febb","system_id":"levelo_inurba_marseille","lat":43.231793,"lon":5.400044,"is_reserved":false,"is_disabled":false,"rental_uris":{"android":"levelo://app?vid=665751fa-b6e1-4e36-8467-b488a695febb","ios":"levelo://app?vid=665751fa-b6e1-4e36-8467-b488a695febb"},"vehicle_type_id":"4","last_reported":1701871611,"current_range_meters":30800,"station_id":"ce4bhn12rcd13ifvqgqg","pricing_plan_id":"free"},{"bike_id":"ea3ed387-93d1-470f-8f31-6dccaafa921c","system_id":"levelo_inurba_marseille","lat":43.231794,"lon":5.400052,"is_reserved":false,"is_disabled":false,"rental_uris":{"android":"levelo://app?vid=ea3ed387-93d1-470f-8f31-6dccaafa921c","ios":"levelo://app?vid=ea3ed387-93d1-470f-8f31-6dccaafa921c"},"vehicle_type_id":"4","last_reported":1701871611,"current_range_meters":19600,"station_id":"ce4bhn12rcd13ifvqgqg","pricing_plan_id":"free"},{"bike_id":"901a5ad1-6326-4310-99d1-e5550d8117ee","system_id":"levelo_inurba_marseille","lat":43.231793,"lon":5.400044,"is_reserved":false,"is_disabled":false,"rental_uris":{"android":"levelo://app?vid=901a5ad1-6326-4310-99d1-e5550d8117ee","ios":"levelo://app?vid=901a5ad1-6326-4310-99d1-e5550d8117ee"},"vehicle_type_id":"4","last_reported":1701871611,"current_range_meters":25200,"station_id":"ce4bhn12rcd13ifvqgqg","pricing_plan_id":"free"},{"bike_id":"19cd97c2-90a0-4893-8845-2f6a224bf5f7","system_id":"levelo_inurba_marseille","lat":43.231794,"lon":5.400052,"is_reserved":false,"is_disabled":false,"rental_uris":{"android":"levelo://app?vid=19cd97c2-90a0-4893-8845-2f6a224bf5f7","ios":"levelo://app?vid=19cd97c2-90a0-4893-8845-2f6a224bf5f7"},"vehicle_type_id":"4","last_reported":1701871611,"current_range_meters":31600,"station_id":"ce4bhn12rcd13ifvqgqg","pricing_plan_id":"free"},{"bike_id":"f1b84a36-46b4-4777-8d9b-adfc0d30be06","system_id":"levelo_inurba_marseille","lat":43.231793,"lon":5.400044,"is_reserved":false,"is_disabled":false,"rental_uris":{"android":"levelo://app?vid=f1b84a36-46b4-4777-8d9b-adfc0d30be06","ios":"levelo://app?vid=f1b84a36-46b4-4777-8d9b-adfc0d30be06"},"vehicle_type_id":"4","last_reported":1701871611,"current_range_meters":0,"station_id":"ce4bhn12rcd13ifvqgqg","pricing_plan_id":"free"},{"bike_id":"66f21e22-ce31-42e7-a51f-a5076b53bb0a","system_id":"levelo_inurba_marseille","lat":43.231793,"lon":5.400044,"is_reserved":false,"is_disabled":false,"rental_uris":{"android":"levelo://app?vid=66f21e22-ce31-42e7-a51f-a5076b53bb0a","ios":"levelo://app?vid=66f21e22-ce31-42e7-a51f-a5076b53bb0a"},"vehicle_type_id":"4","last_reported":1701871611,"current_range_meters":28800,"station_id":"ce4bhn12rcd13ifvqgqg","pricing_plan_id":"free"},{"bike_id":"e21a2dcc-a5d3-4088-aa88-3ef72049c7dc","system_id":"levelo_inurba_marseille","lat":43.231793,"lon":5.400044,"is_reserved":false,"is_disabled":false,"rental_uris":{"android":"levelo://app?vid=e21a2dcc-a5d3-4088-aa88-3ef72049c7dc","ios":"levelo://app?vid=e21a2dcc-a5d3-4088-aa88-3ef72049c7dc"},"vehicle_type_id":"4","last_reported":1701871611,"current_range_meters":4400,"station_id":"ce4bhn12rcd13ifvqgqg","pricing_plan_id":"free"},{"bike_id":"2a73e8fa-c92c-487d-afb8-ed18138423a5","system_id":"levelo_inurba_marseille","lat":43.231794,"lon":5.400052,"is_reserved":false,"is_disabled":false,"rental_uris":{"android":"levelo://app?vid=2a73e8fa-c92c-487d-afb8-ed18138423a5","ios":"levelo://app?vid=2a73e8fa-c92c-487d-afb8-ed18138423a5"},"vehicle_type_id":"4","last_reported":1701871611,"current_range_meters":24800,"station_id":"ce4bhn12rcd13ifvqgqg","pricing_plan_id":"free"},{"bike_id":"075282f0-c021-4c3b-ab85-62d2b8d99df1","system_id":"levelo_inurba_marseille","lat":43.231562,"lon":5.436933,"is_reserved":false,"is_disabled":false,"rental_uris":{"android":"levelo://app?vid=075282f0-c021-4c3b-ab85-62d2b8d99df1","ios":"levelo://app?vid=075282f0-c021-4c3b-ab85-62d2b8d99df1"},"vehicle_type_id":"4","last_reported":1701871611,"current_range_meters":800,"station_id":"ce4bhmp2rcd13ifvqgog","pricing_plan_id":"free"},{"bike_id":"dd01c6b3-fa3e-445c-9a8e-c0f758a12cba","system_id":"levelo_inurba_marseille","lat":43.231562,"lon":5.436933,"is_reserved":false,"is_disabled":false,"rental_uris":{"android":"levelo://app?vid=dd01c6b3-fa3e-445c-9a8e-c0f758a12cba","ios":"levelo://app?vid=dd01c6b3-fa3e-445c-9a8e-c0f758a12cba"},"vehicle_type_id":"4","last_reported":1701871611,"current_range_meters":31600,"station_id":"ce4bhmp2rcd13ifvqgog","pricing_plan_id":"free"},{"bike_id":"cc1f465c-2a96-4d0e-9933-59899d0661dc","system_id":"levelo_inurba_marseille","lat":43.23148,"lon":5.43711,"is_reserved":false,"is_disabled":false,"rental_uris":{"android":"levelo://app?vid=cc1f465c-2a96-4d0e-9933-59899d0661dc","ios":"levelo://app?vid=cc1f465c-2a96-4d0e-9933-59899d0661dc"},"vehicle_type_id":"4","last_reported":1701871611,"current_range_meters":0,"station_id":"ce4bhmp2rcd13ifvqgog","pricing_plan_id":"free"},{"bike_id":"56430272-dad1-41f8-84d0-a8e1088d51bf","system_id":"levelo_inurba_marseille","lat":43.231562,"lon":5.436933,"is_reserved":false,"is_disabled":false,"rental_uris":{"android":"levelo://app?vid=56430272-dad1-41f8-84d0-a8e1088d51bf","ios":"levelo://app?vid=56430272-dad1-41f8-84d0-a8e1088d51bf"},"vehicle_type_id":"4","last_reported":1701871611,"current_range_meters":31600,"station_id":"ce4bhmp2rcd13ifvqgog","pricing_plan_id":"free"},{"bike_id":"ceef45cf-eb38-4c77-8919-0d17aac14d67","system_id":"levelo_inurba_marseille","lat":43.231504,"lon":5.437242,"is_reserved":false,"is_disabled":false,"rental_uris":{"android":"levelo://app?vid=ceef45cf-eb38-4c77-8919-0d17aac14d67","ios":"levelo://app?vid=ceef45cf-eb38-4c77-8919-0d17aac14d67"},"vehicle_type_id":"4","last_reported":1701871611,"current_range_meters":31600,"station_id":"ce4bhmp2rcd13ifvqgog","pricing_plan_id":"free"},{"bike_id":"778e5985-dbdd-42e1-a7d8-130a2b906c87","system_id":"levelo_inurba_marseille","lat":43.23142,"lon":5.43723,"is_reserved":false,"is_disabled":false,"rental_uris":{"android":"levelo://app?vid=778e5985-dbdd-42e1-a7d8-130a2b906c87","ios":"levelo://app?vid=778e5985-dbdd-42e1-a7d8-130a2b906c87"},"vehicle_type_id":"4","last_reported":1701871611,"current_range_meters":800,"station_id":"ce4bhmp2rcd13ifvqgog","pricing_plan_id":"free"}]}}