{"last_updated":1714568868,"ttl":30,"version":"2.2","data":{"bikes":[{"bike_id":"fc9d75e7-d2c7-4e30-b9ba-1f655ebe2d91","system_id":"levelo_inurba_marseille","lat":43.312239,"lon":5.368562,"is_reserved":false,"is_disabled":false,"rental_uris":{"android":"levelo://app?vid=fc9d75e7-d2c7-4e30-b9ba-1f655ebe2d91","ios":"levelo://app?vid=fc9d75e7-d2c7-4e30-b9ba-1f655ebe2d91"},"vehicle_type_id":"4","last_reported":1714568868,"current_range_meters":21200,"station_id":"ce4bgl92rcd13ifvqbq0","pricing_plan_id":"cebpf4jnsgd1na2vs0mg"},{"bike_id":"8f05130e-02af-4f33-8401-8b09e33c9c11","system_id":"levelo_inurba_marseille","lat":43.312239,"lon":5.368562,"is_reserved":false,"is_disabled":false,"rental_uris":{"android":"levelo://app?vid=8f05130e-02af-4f33-8401-8b09e33c9c11","ios":"levelo://app?vid=8f05130e-02af-4f33-8401-8b09e33c9c11"},"vehicle_type_id":"4","last_reported":1714568868,"current_range_meters":0,"station_id":"ce4bgl92rcd13ifvqbq0","pricing_plan_id":"cebpf4jnsgd1na2vs0mg"},{"bike_id":"80ce00ef-4d64-451c-b953-d649709943b3","system_id":"levelo_inurba_marseille","lat":43.30909,"lon":5.36853,"is_reserved":false,"is_disabled":false,"rental_uris":{"android":"levelo://app?vid=80ce00ef-4d64-451c-b953-d649709943b3","ios":"levelo://app?vid=80ce00ef-4d64-451c-b953-d649709943b3"},"vehicle_type_id":"4","last_reported":1714568868,"current_range_meters":0,"station_id":"ce4bgn92rcd13ifvqbvg","pricing_plan_id":"cebpf4jnsgd1na2vs0mg"},{"bike_id":"836b33e8-652c-4d71-aa69-2c73a5ac260d","system_id":"levelo_inurba_marseille","lat":43.28856,"lon":5.358371,"is_reserved":false,"is_disabled":false,"rental_uris":{"android":"levelo://app?vid=836b33e8-652c-4d71-aa69-2c73a5ac260d","ios":"levelo://app?vid=836b33e8-652c-4d71-aa69-2c73a5ac260d"},"vehicle_type_id":"4","last_reported":1714568868,"current_range_meters":19200,"station_id":"ce4bhb12rcd13ifvqem0","pricing_plan_id":"cebpf4jnsgd1na2vs0mg"},{"bike_id":"e2d8f4e3-22d6-4745-bad7-13e32d319a42","system_id":"levelo_inurba_marseille","lat":43.31498,"lon":5.37312,"is_reserved":false,"is_disabled":false,"rental_uris":{"android":"levelo://app?vid=e2d8f4e3-22d6-4745-bad7-13e32d319a42","ios":"levelo://app?vid=e2d8f4e3-22d6-4745-bad7-13e32d319a42"},"vehicle_type_id":"4","last_reported":1714568868,"current_range_meters":10000,"station_id":"ce4bgt12rcd13ifvqcd0","pricing_plan_id":"cebpf4jnsgd1na2vs0mg"},{"bike_id":"152e1763-fe99-49a1-a3cf-f705fddf2c69","system_id":"levelo_inurba_marseille","lat":43.30556,"lon":5.365341,"is_reserved":false,"is_disabled":false,"rental_uris":{"android":"levelo://app?vid=152e1763-fe99-49a1-a3cf-f705fddf2c69","ios":"levelo://app?vid=152e1763-fe99-49a1-a3cf-f705fddf2c69"},"vehicle_type_id":"4","last_reported":1714568868,"current_range_meters":31200,"station_id":"ce4bgs12rcd13ifvqcag","pricing_plan_id":"cebpf4jnsgd1na2vs0mg"},{"bike_id":"3c85d146-f15c-4b7b-8cd2-8e537769c49f","system_id":"levelo_inurba_marseille","lat":43.305533,"lon":5.365536,"is_reserved":false,"is_disabled":false,"rental_uris":{"android":"levelo://app?vid=3c85d146-f15c-4b7b-8cd2-8e537769c49f","ios":"levelo://app?vid=3c85d146-f15c-4b7b-8cd2-8e537769c49f"},"vehicle_type_id":"4","last_reported":1714568868,"current_range_meters":27600,"station_id":"ce4bgs12rcd13ifvqcag","pricing_plan_id":"cebpf4jnsgd1na2vs0mg"},{"bike_id":"4749c549-3cec-4abd-9976-88dc1150d8c5","system_id":"levelo_inurba_marseille","lat":43.30547,"lon":5.365404,"is_reserved":false,"is_disabled":false,"rental_uris":{"android":"levelo://app?vid=4749c549-3cec-4abd-9976-88dc1150d8c5","ios":"levelo://app?vid=4749c549-3cec-4abd-9976-88dc1150d8c5"},"vehicle_type_id":"4","last_reported":1714568868,"current_range_meters":0,"station_id":"ce4bgs12rcd13ifvqcag","pricing_plan_id":"cebpf4jnsgd1na2vs0mg"},{"bike_id":"236d1cd7-dbbf-4d13-a25c-904021658808","system_id":"levelo_inurba_marseille","lat":43.305437,"lon":5.365589,"is_reserved":false,"is_disabled":false,"rental_uris":{"android":"levelo://app?vid=236d1cd7-dbbf-4d13-a25c-904021658808","ios":"levelo://app?vid=236d1cd7-dbbf-4d13-a25c-904021658808"},"vehicle_type_id":"4","last_reported":1714568868,"current_range_meters":27200,"station_id":"ce4bgs12rcd13ifvqcag","pricing_plan_id":"cebpf4jnsgd1na2vs0mg"},{"bike_id":"384c60fa-8f86-4941-9214-92b5de27aabd","system_id":"levelo_inurba_marseille","lat":43.305714,"lon":5.365633,"is_reserved":false,"is_disabled":false,"rental_uris":{"android":"levelo://app?vid=384c60fa-8f86-4941-9214-92b5de27aabd","ios":"levelo://app?vid=384c60fa-8f86-4941-9214-92b5de27aabd"},"vehicle_type_id":"4","last_reported":1714568868,"current_range_meters":20800,"station_id":"ce4bgs12rcd13ifvqcag","pricing_plan_id":"cebpf4jnsgd1na2vs0mg"},{"bike_id":"032dad85-f6bd-4825-8bff-82e95fa8de43","system_id":"levelo_inurba_marseille","lat":43.30542,"lon":5.36543,"is_reserved":false,"is_disabled":false,"rental_uris":{"android":"levelo://app?vid=032dad85-f6bd-4825-8bff-82e95fa8de43","ios":"levelo://app?vid=032dad85-f6bd-4825-8bff-82e95fa8de43"},"vehicle_type_id":"4","last_reported":1714568868,"current_range_meters":28400,"station_id":"ce4bgs12rcd13ifvqcag","pricing_plan_id":"cebpf4jnsgd1na2vs0mg"},{"bike_id":"aec27b6c-d321-4f90-b0cc-6c8b360ce97a","system_id":"levelo_inurba_marseille","lat":43.30542,"lon":5.36536,"is_reserved":false,"is_disabled":false,"rental_uris":{"android":"levelo://app?vid=aec27b6c-d321-4f90-b0cc-6c8b360ce97a","ios":"levelo://app?vid=aec27b6c-d321-4f90-b0cc-6c8b360ce97a"},"vehicle_type_id":"4","last_reported":1714568868,"current_range_meters":31200,"station_id":"ce4bgs12rcd13ifvqcag","pricing_plan_id":"cebpf4jnsgd1na2vs0mg"},{"bike_id":"72680711-0fa0-406c-b16a-d7ff43c19c55","system_id":"levelo_inurba_marseille","lat":43.30526,"lon":5.36592,"is_reserved":false,"is_disabled":false,"rental_uris":{"android":"levelo://app?vid=72680711-0fa0-406c-b16a-d7ff43c19c55","ios":"levelo://app?vid=72680711-0fa0-406c-b16a-d7ff43c19c55"},"vehicle_type_id":"4","last_reported":1714568868,"current_range_meters":16000,"station_id":"ce4bgs12rcd13ifvqcag","pricing_plan_id":"cebpf4jnsgd1na2vs0mg"},{"bike_id":"3c0f90fd-f355-4501-b444-f28729003fe3","system_id":"levelo_inurba_marseille","lat":43.305989,"lon":5.37225,"is_reserved":false,"is_disabled":false,"rental_uris":{"android":"levelo://app?vid=3c0f90fd-f355-4501-b444-f28729003fe3","ios":"levelo://app?vid=3c0f90fd-f355-4501-b444-f28729003fe3"},"vehicle_type_id":"4","last_reported":1714568868,"current_range_meters":0,"station_id":"ce4bgqh2rcd13ifvqc4g","pricing_plan_id":"cebpf4jnsgd1na2vs0mg"},{"bike_id":"3736e7f4-eb4e-4991-b8a3-1e1488ebe1b5","system_id":"levelo_inurba_marseille","lat":43.305989,"lon":5.37225,"is_reserved":false,"is_disabled":false,"rental_uris":{"android":"levelo://app?vid=3736e7f4-eb4e-4991-b8a3-1e1488ebe1b5","ios":"levelo://app?vid=3736e7f4-eb4e-4991-b8a3-1e1488ebe1b5"},"vehicle_type_id":"4","last_reported":1714568868,"current_range_meters":10800,"station_id":"ce4bgqh2rcd13ifvqc4g","pricing_plan_id":"cebpf4jnsgd1na2vs0mg"},{"bike_id":"f7b02072-562a-475f-9ad1-0c6de97fb741","system_id":"levelo_inurba_marseille","lat":43.305989,"lon":5.37225,"is_reserved":false,"is_disabled":false,"rental_uris":{"android":"levelo://app?vid=f7b02072-562a-475f-9ad1-0c6de97fb741","ios":"levelo://app?vid=f7b02072-562a-475f-9ad1-0c6de97fb741"},"vehicle_type_id":"4","last_reported":1714568868,"current_range_meters":14800,"station_id":"ce4bgqh2rcd13ifvqc4g","pricing_plan_id":"cebpf4jnsgd1na2vs0mg"},{"bike_id":"206adb2c-d1d1-4c1b-bd42-5b7015969672","system_id":"levelo_inurba_marseille","lat":43.305968,"lon":5.37222,"is_reserved":false,"is_disabled":false,"rental_uris":{"android":"levelo://app?vid=206adb2c-d1d1-4c1b-bd42-5b7015969672","ios":"levelo://app?vid=206adb2c-d1d1-4c1b-bd42-5b7015969672"},"vehicle_type_id":"4","last_reported":1714568868,"current_range_meters":0,"station_id":"ce4bgqh2rcd13ifvqc4g","pricing_plan_id":"cebpf4jnsgd1na2vs0mg"},{"bike_id":"7fc61b95-649f-40d9-99c4-a70b1b24b168","system_id":"levelo_inurba_marseille","lat":43.305989,"lon":5.37225,"is_reserved":false,"is_disabled":false,"rental_uris":{"android":"levelo://app?vid=7fc61b95-649f-40d9-99c4-a70b1b24b168","ios":"levelo://app?vid=7fc61b95-649f-40d9-99c4-a70b1b24b168"},"vehicle_type_id":"4","last_reported":1714568868,"current_range_meters":21200,"station_id":"ce4bgqh2rcd13ifvqc4g","pricing_plan_id":"cebpf4jnsgd1na2vs0mg"},{"bike_id":"f4695e28-3740-4c0f-81bb-bb40ca627033","system_id":"levelo_inurba_marseille","lat":43.311131,"lon":5.377651,"is_reserved":false,"is_disabled":false,"rental_uris":{"android":"levelo://app?vid=f4695e28-3740-4c0f-81bb-bb40ca627033","ios":"levelo://app?vid=f4695e28-3740-4c0f-81bb-bb40ca627033"},"vehicle_type_id":"4","last_reported":1714568868,"current_range_meters":11200,"station_id":"ce4bgt92rcd13ifvqcg0","pricing_plan_id":"cebpf4jnsgd1na2vs0mg"},{"bike_id":"1c1dad86-06ee-4bf5-9beb-ef6446dc820a","system_id":"levelo_inurba_marseille","lat":43.307945,"lon":5.376487,"is_reserved":false,"is_disabled":false,"rental_uris":{"android":"levelo://app?vid=1c1dad86-06ee-4bf5-9beb-ef6446dc820a","ios":"levelo://app?vid=1c1dad86-06ee-4bf5-9beb-ef6446dc820a"},"vehicle_type_id":"4","last_reported":1714568868,"current_range_meters":4400,"station_id":"ce4bgv92rcd13ifvqcq0","pricing_plan_id":"cebpf4jnsgd1na2vs0mg"},{"bike_id":"fde967bd-fe8f-4347-957d-b0aade34d747","system_id":"levelo_inurba_marseille","lat":43.30789,"lon":5.37644,"is_reserved":false,"is_disabled":false,"rental_uris":{"android":"levelo://app?vid=fde967bd-fe8f-4347-957d-b0aade34d747","ios":"levelo://app?vid=fde967bd-fe8f-4347-957d-b0aade34d747"},"vehicle_type_id":"4","last_reported":1714568868,"current_range_meters":19600,"station_id":"","pricing_plan_id":"cebpf4jnsgd1na2vs0mg"},{"bike_id":"5dd1c913-7273-4764-8ecf-5313023e5533","system_id":"levelo_inurba_marseille","lat":43.307945,"lon":5.376487,"is_reserved":false,"is_disabled":false,"rental_uris":{"android":"levelo://app?vid=5dd1c913-7273-4764-8ecf-5313023e5533","ios":"levelo://app?vid=5dd1c913-7273-4764-8ecf-5313023e5533"},"vehicle_type_id":"4","last_reported":1714568868,"current_range_meters":11600,"station_id":"ce4bgv92rcd13ifvqcq0","pricing_plan_id":"cebpf4jnsgd1na2vs0mg"},{"bike_id":"eb130a52-8967-47c7-a228-29860cf9d848","system_id":"levelo_inurba_marseille","lat":43.307945,"lon":5.376487,"is_reserved":false,"is_disabled":false,"rental_uris":{"android":"levelo://app?vid=eb130a52-8967-47c7-a228-29860cf9d848","ios":"levelo://app?vid=eb130a52-8967-47c7-a228-29860cf9d848"},"vehicle_type_id":"4","last_reported":1714568868,"current_range_meters":5200,"station_id":"ce4bgv92rcd13ifvqcq0","pricing_plan_id":"cebpf4jnsgd1na2vs0mg"},{"bike_id":"4bddb212-954f-4511-b2b3-b7cf7216648c","system_id":"levelo_inurba_marseille","lat":43.317075,"lon":5.377367,"is_reserved":false,"is_disabled":false,"rental_uris":{"android":"levelo://app?vid=4bddb212-954f-4511-b2b3-b7cf7216648c","ios":"levelo://app?vid=4bddb212-954f-4511-b2b3-b7cf7216648c"},"vehicle_type_id":"4","last_reported":1714568868,"current_range_meters":5200,"station_id":"ce4bgth2rcd13ifvqch0","pricing_plan_id":"cebpf4jnsgd1na2vs0mg"},{"bike_id":"98d580f9-42ca-4e12-9d14-2cd9b6caf836","system_id":"levelo_inurba_marseille","lat":43.317005,"lon":5.37745,"is_reserved":false,"is_disabled":false,"rental_uris":{"android":"levelo://app?vid=98d580f9-42ca-4e12-9d14-2cd9b6caf836","ios":"levelo://app?vid=98d580f9-42ca-4e12-9d14-2cd9b6caf836"},"vehicle_type_id":"4","last_reported":1714568868,"current_range_meters":5200,"station_id":"ce4bgth2rcd13ifvqch0","pricing_plan_id":"cebpf4jnsgd1na2vs0mg"},{"bike_id":"604ac29d-d859-4abd-a70e-54cf4b756b35","system_id":"levelo_inurba_marseille","lat":43.317075,"lon":5.377367,"is_reserved":false,"is_disabled":false,"rental_uris":{"android":"levelo://app?vid=604ac29d-d859-4abd-a70e-54cf4b756b35","ios":"levelo://app?vid=604ac29d-d859-4abd-a70e-54cf4b756b35"},"vehicle_type_id":"4","last_reported":1714568868,"current_range_meters":30800,"station_id":"ce4bgth2rcd13ifvqch0","pricing_plan_id":"cebpf4jnsgd1na2vs0mg"},{"bike_id":"4ee60a04-ed89-48bd-b443-561f10b2a85f","system_id":"levelo_inurba_marseille","lat":43.317117,"lon":5.377609,"is_reserved":false,"is_disabled":false,"rental_uris":{"android":"levelo://app?vid=4ee60a04-ed89-48bd-b443-561f10b2a85f","ios":"levelo://app?vid=4ee60a04-ed89-48bd-b443-561f10b2a85f"},"vehicle_type_id":"4","last_reported":1714568868,"current_range_meters":1600,"station_id":"ce4bgth2rcd13ifvqch0","pricing_plan_id":"cebpf4jnsgd1na2vs0mg"},{"bike_id":"5924f3c4-da14-4420-872e-2ce874bf3e2c","system_id":"levelo_inurba_marseille","lat":43.303046,"lon":5.368981,"is_reserved":false,"is_disabled":false,"rental_uris":{"android":"levelo://app?vid=5924f3c4-da14-4420-872e-2ce874bf3e2c","ios":"levelo://app?vid=5924f3c4-da14-4420-872e-2ce874bf3e2c"},"vehicle_type_id":"4","last_reported":1714568868,"current_range_meters":28000,"station_id":"ce4bgqh2rcd13ifvqc5g","pricing_plan_id":"cebpf4jnsgd1na2vs0mg"},{"bike_id":"e53834fa-f2ee-4698-a262-d479aa783b3e","system_id":"levelo_inurba_marseille","lat":43.30304,"lon":5.368987,"is_reserved":false,"is_disabled":false,"rental_uris":{"android":"levelo://app?vid=e53834fa-f2ee-4698-a262-d479aa783b3e","ios":"levelo://app?vid=e53834fa-f2ee-4698-a262-d479aa783b3e"},"vehicle_type_id":"4","last_reported":1714568868,"current_range_meters":15600,"station_id":"ce4bgqh2rcd13ifvqc5g","pricing_plan_id":"cebpf4jnsgd1na2vs0mg"},{"bike_id":"43a168cf-8db7-4c22-8209-48d4ff5dc547","system_id":"levelo_inurba_marseille","lat":43.30304,"lon":5.368987,"is_reserved":false,"is_disabled":false,"rental_uris":{"android":"levelo://app?vid=43a168cf-8db7-4c22-8209-48d4ff5dc547","ios":"levelo://app?vid=43a168cf-8db7-4c22-8209-48d4ff5dc547"},"vehicle_type_id":"4","last_reported":1714568868,"current_range_meters":14000,"station_id":"ce4bgqh2rcd13ifvqc5g","pricing_plan_id":"cebpf4jnsgd1na2vs0mg"},{"bike_id":"697b9a27-01e8-46bd-ba23-b4c9467c932c","system_id":"levelo_inurba_marseille","lat":43.303046,"lon":5.368981,"is_reserved":false,"is_disabled":false,"rental_uris":{"android":"levelo://app?vid=697b9a27-01e8-46bd-ba23-b4c9467c932c","ios":"levelo://app?vid=697b9a27-01e8-46bd-ba23-b4c9467c932c"},"vehicle_type_id":"4","last_reported":1714568868,"current_range_meters":8000,"station_id":"ce4bgqh2rcd13ifvqc5g","pricing_plan_id":"cebpf4jnsgd1na2vs0mg"},{"bike_id":"c6923c34-b609-40b9-94e9-d5b8bee94d19","system_id":"levelo_inurba_marseille","lat":43.303046,"lon":5.368981,"is_reserved":false,"is_disabled":false,"rental_uris":{"android":"levelo://app?vid=c6923c34-b609-40b9-94e9-d5b8bee94d19","ios":"levelo://app?vid=c6923c34-b609-40b9-94e9-d5b8bee94d19"},"vehicle_type_id":"4","last_reported":1714568868,"current_range_meters":20800,"station_id":"ce4bgqh2rcd13ifvqc5g","pricing_plan_id":"cebpf4jnsgd1na2vs0mg"},{"bike_id":"72048709-a29a-4208-b6d5-c59aec242610","system_id":"levelo_inurba_marseille","lat":43.315293,"lon":5.380349,"is_reserved":false,"is_disabled":false,"rental_uris":{"android":"levelo://app?vid=72048709-a29a-4208-b6d5-c59aec242610","ios":"levelo://app?vid=72048709-a29a-4208-b6d5-c59aec242610"},"vehicle_type_id":"4","last_reported":1714568868,"current_range_meters":30000,"station_id":"ce4bhsp2rcd13ifvqi50","pricing_plan_id":"cebpf4jnsgd1na2vs0mg"},{"bike_id":"a322fa20-077f-4811-8b6d-df11ca6eef65","system_id":"levelo_inurba_marseille","lat":43.301939,"lon":5.366286,"is_reserved":false,"is_disabled":false,"rental_uris":{"android":"levelo://app?vid=a322fa20-077f-4811-8b6d-df11ca6eef65","ios":"levelo://app?vid=a322fa20-077f-4811-8b6d-df11ca6eef65"},"vehicle_type_id":"4","last_reported":1714568868,"current_range_meters":5600,"station_id":"ce4bgrh2rcd13ifvqc8g","pricing_plan_id":"cebpf4jnsgd1na2vs0mg"},{"bike_id":"0a9d6033-f4a0-49cd-8ce3-97bb8e393b1b","system_id":"levelo_inurba_marseille","lat":43.304606,"lon":5.379026,"is_reserved":false,"is_disabled":false,"rental_uris":{"android":"levelo://app?vid=0a9d6033-f4a0-49cd-8ce3-97bb8e393b1b","ios":"levelo://app?vid=0a9d6033-f4a0-49cd-8ce3-97bb8e393b1b"},"vehicle_type_id":"4","last_reported":1714568868,"current_range_meters":18400,"station_id":"ce4bgup2rcd13ifvqcn0","pricing_plan_id":"cebpf4jnsgd1na2vs0mg"},{"bike_id":"9df02919-6461-4aa9-8a8d-424302fa70c5","system_id":"levelo_inurba_marseille","lat":43.308012,"lon":5.381511,"is_reserved":false,"is_disabled":false,"rental_uris":{"android":"levelo://app?vid=9df02919-6461-4aa9-8a8d-424302fa70c5","ios":"levelo://app?vid=9df02919-6461-4aa9-8a8d-424302fa70c5"},"vehicle_type_id":"4","last_reported":1714568868,"current_range_meters":800,"station_id":"ce4bgt12rcd13ifvqce0","pricing_plan_id":"cebpf4jnsgd1na2vs0mg"},{"bike_id":"6e0da1e1-7ac5-4b14-86fc-689fa5c4c571","system_id":"levelo_inurba_marseille","lat":43.304606,"lon":5.379026,"is_reserved":false,"is_disabled":false,"rental_uris":{"android":"levelo://app?vid=6e0da1e1-7ac5-4b14-86fc-689fa5c4c571","ios":"levelo://app?vid=6e0da1e1-7ac5-4b14-86fc-689fa5c4c571"},"vehicle_type_id":"4","last_reported":1714568868,"current_range_meters":24000,"station_id":"ce4bgup2rcd13ifvqcn0","pricing_plan_id":"cebpf4jnsgd1na2vs0mg"},{"bike_id":"8f7a652c-9daf-4ece-8331-b8e0bfe7c225","system_id":"levelo_inurba_marseille","lat":43.304606,"lon":5.379026,"is_reserved":false,"is_disabled":false,"rental_uris":{"android":"levelo://app?vid=8f7a652c-9daf-4ece-8331-b8e0bfe7c225","ios":"levelo://app?vid=8f7a652c-9daf-4ece-8331-b8e0bfe7c225"},"vehicle_type_id":"4","last_reported":1714568868,"current_range_meters":26000,"station_id":"ce4bgup2rcd13ifvqcn0","pricing_plan_id":"cebpf4jnsgd1na2vs0mg"},{"bike_id":"da814755-a194-4650-b7a1-e34a7b696375","system_id":"levelo_inurba_marseille","lat":43.304606,"lon":5.379026,"is_reserved":false,"is_disabled":false,"rental_uris":{"android":"levelo://app?vid=da814755-a194-4650-b7a1-e34a7b696375","ios":"levelo://app?vid=da814755-a194-4650-b7a1-e34a7b696375"},"vehicle_type_id":"4","last_reported":1714568868,"current_range_meters":12000,"station_id":"ce4bgup2rcd13ifvqcn0","pricing_plan_id":"cebpf4jnsgd1na2vs0mg"},{"bike_id":"53a42792-564b-4387-ae2b-32c476faacb4","system_id":"levelo_inurba_marseille","lat":43.304606,"lon":5.379026,"is_reserved":false,"is_disabled":false,"rental_uris":{"android":"levelo://app?vid=53a42792-564b-4387-ae2b-32c476faacb4","ios":"levelo://app?vid=53a42792-564b-4387-ae2b-32c476faacb4"},"vehicle_type_id":"4","last_reported":1714568868,"current_range_meters":19200,"station_id":"ce4bgup2rcd13ifvqcn0","pricing_plan_id":"cebpf4jnsgd1na2vs0mg"},{"bike_id":"6986dc06-43a5-42db-b0d6-8b40c69beb15","system_id":"levelo_inurba_marseille","lat":43.304606,"lon":5.379026,"is_reserved":false,"is_disabled":false,"rental_uris":{"android":"levelo://app?vid=6986dc06-43a5-42db-b0d6-8b40c69beb15","ios":"levelo://app?vid=6986dc06-43a5-42db-b0d6-8b40c69beb15"},"vehicle_type_id":"4","last_reported":1714568868,"current_range_meters":13600,"station_id":"ce4bgup2rcd13ifvqcn0","pricing_plan_id":"cebpf4jnsgd1na2vs0mg"},{"bike_id":"0ed9891a-a5e6-4cd3-8617-f2559f9ec675","system_id":"levelo_inurba_marseille","lat":43.304606,"lon":5.379026,"is_reserved":false,"is_disabled":false,"rental_uris":{"android":"levelo://app?vid=0ed9891a-a5e6-4cd3-8617-f2559f9ec675","ios":"levelo://app?vid=0ed9891a-a5e6-4cd3-8617-f2559f9ec675"},"vehicle_type_id":"4","last_reported":1714568868,"current_range_meters":9200,"station_id":"ce4bgup2rcd13ifvqcn0","pricing_plan_id":"cebpf4jnsgd1na2vs0mg"},{"bike_id":"6a6f71cb-1a69-4c76-92f4-7c1e3ae9897c","system_id":"levelo_inurba_marseille","lat":43.304606,"lon":5.379026,"is_reserved":false,"is_disabled":false,"rental_uris":{"android":"levelo://app?vid=6a6f71cb-1a69-4c76-92f4-7c1e3ae9897c","ios":"levelo://app?vid=6a6f71cb-1a69-4c76-92f4-7c1e3ae9897c"},"vehicle_type_id":"4","last_reported":1714568868,"current_range_meters":22000,"station_id":"ce4bgup2rcd13ifvqcn0","pricing_plan_id":"cebpf4jnsgd1na2vs0mg"},{"bike_id":"61f148c8-a6cf-400a-a852-48aa57397481","system_id":"levelo_inurba_marseille","lat":43.304606,"lon":5.379026,"is_reserved":false,"is_disabled":false,"rental_uris":{"android":"levelo://app?vid=61f148c8-a6cf-400a-a852-48aa57397481","ios":"levelo://app?vid=61f148c8-a6cf-400a-a852-48aa57397481"},"vehicle_type_id":"4","last_reported":1714568868,"current_range_meters":11200,"station_id":"ce4bgup2rcd13ifvqcn0","pricing_plan_id":"cebpf4jnsgd1na2vs0mg"},{"bike_id":"2633600e-4dab-4cbe-b2ff-9c7a4b9a43d2","system_id":"levelo_inurba_marseille","lat":43.304606,"lon":5.379026,"is_reserved":false,"is_disabled":false,"rental_uris":{"android":"levelo://app?vid=2633600e-4dab-4cbe-b2ff-9c7a4b9a43d2","ios":"levelo://app?vid=2633600e-4dab-4cbe-b2ff-9c7a4b9a43d2"},"vehicle_type_id":"4","last_reported":1714568868,"current_range_meters":19600,"station_id":"ce4bgup2rcd13ifvqcn0","pricing_plan_id":"cebpf4jnsgd1na2vs0mg"},{"bike_id":"263ddf92-f97b-4bde-af65-350aba08e4ca","system_id":"levelo_inurba_marseille","lat":43.324771,"lon":5.36557,"is_reserved":false,"is_disabled":false,"rental_uris":{"android":"levelo://app?vid=263ddf92-f97b-4bde-af65-350aba08e4ca","ios":"levelo://app?vid=263ddf92-f97b-4bde-af65-350aba08e4ca"},"vehicle_type_id":"4","last_reported":1714568868,"current_range_meters":31200,"station_id":"ce4bhs12rcd13ifvqhvg","pricing_plan_id":"cebpf4jnsgd1na2vs0mg"},{"bike_id":"339687d1-ac21-4b24-b00f-6ff83c842ea3","system_id":"levelo_inurba_marseille","lat":43.304606,"lon":5.379026,"is_reserved":false,"is_disabled":false,"rental_uris":{"android":"levelo://app?vid=339687d1-ac21-4b24-b00f-6ff83c842ea3","ios":"levelo://app?vid=339687d1-ac21-4b24-b00f-6ff83c842ea3"},"vehicle_type_id":"4","last_reported":1714568868,"current_range_meters":16800,"station_id":"ce4bgup2rcd13ifvqcn0","pricing_plan_id":"cebpf4jnsgd1na2vs0mg"},{"bike_id":"672309a1-679a-42d4-8c5f-40865aa4059b","system_id":"levelo_inurba_marseille","lat":43.304606,"lon":5.379026,"is_reserved":false,"is_disabled":false,"rental_uris":{"android":"levelo://app?vid=672309a1-679a-42d4-8c5f-40865aa4059b","ios":"levelo://app?vid=672309a1-679a-42d4-8c5f-40865aa4059b"},"vehicle_type_id":"4","last_reported":1714568868,"current_range_meters":22800,"station_id":"ce4bgup2rcd13ifvqcn0","pricing_plan_id":"cebpf4jnsgd1na2vs0mg"},{"bike_id":"3fafe9df-2f59-4db7-b205-2990c7720223","system_id":"levelo_inurba_marseille","lat":43.304657,"lon":5.379074,"is_reserved":false,"is_disabled":false,"rental_uris":{"android":"levelo://app?vid=3fafe9df-2f59-4db7-b205-2990c7720223","ios":"levelo://app?vid=3fafe9df-2f59-4db7-b205-2990c7720223"},"vehicle_type_id":"4","last_reported":1714568868,"current_range_meters":25200,"station_id":"ce4bgup2rcd13ifvqcn0","pricing_plan_id":"cebpf4jnsgd1na2vs0mg"},{"bike_id":"d590a500-ea74-49d7-9ef4-2e59ad632601","system_id":"levelo_inurba_marseille","lat":43.304606,"lon":5.379026,"is_reserved":false,"is_disabled":false,"rental_uris":{"android":"levelo://app?vid=d590a500-ea74-49d7-9ef4-2e59ad632601","ios":"levelo://app?vid=d590a500-ea74-49d7-9ef4-2e59ad632601"},"vehicle_type_id":"4","last_reported":1714568868,"current_range_meters":31200,"station_id":"ce4bgup2rcd13ifvqcn0","pricing_plan_id":"cebpf4jnsgd1na2vs0mg"},{"bike_id":"8a62af9a-2a8d-4f3c-b563-ddb2df53a4b2","system_id":"levelo_inurba_marseille","lat":43.304606,"lon":5.379026,"is_reserved":false,"is_disabled":false,"rental_uris":{"android":"levelo://app?vid=8a62af9a-2a8d-4f3c-b563-ddb2df53a4b2","ios":"levelo://app?vid=8a62af9a-2a8d-4f3c-b563-ddb2df53a4b2"},"vehicle_type_id":"4","last_reported":1714568868,"current_range_meters":24400,"station_id":"ce4bgup2rcd13ifvqcn0","pricing_plan_id":"cebpf4jnsgd1na2vs0mg"},{"bike_id":"00012da4-ad03-4020-bdd6-54b780983417","system_id":"levelo_inurba_marseille","lat":43.304606,"lon":5.379026,"is_reserved":false,"is_disabled":false,"rental_uris":{"android":"levelo://app?vid=00012da4-ad03-4020-bdd6-54b780983417","ios":"levelo://app?vid=00012da4-ad03-4020-bdd6-54b780983417"},"vehicle_type_id":"4","last_reported":1714568868,"current_range_meters":23200,"station_id":"ce4bgup2rcd13ifvqcn0","pricing_plan_id":"cebpf4jnsgd1na2vs0mg"},{"bike_id":"ef181368-e2d9-4b77-8e0c-b15cff5cd3c9","system_id":"levelo_inurba_marseille","lat":43.304606,"lon":5.379026,"is_reserved":false,"is_disabled":false,"rental_uris":{"android":"levelo://app?vid=ef181368-e2d9-4b77-8e0c-b15cff5cd3c9","ios":"levelo://app?vid=ef181368-e2d9-4b77-8e0c-b15cff5cd3c9"},"vehicle_type_id":"4","last_reported":1714568868,"current_range_meters":26400,"station_id":"ce4bgup2rcd13ifvqcn0","pricing_plan_id":"cebpf4jnsgd1na2vs0mg"},{"bike_id":"a2c062aa-e037-49d5-bfe9-71d9ba3a2ae5","system_id":"levelo_inurba_marseille","lat":43.304606,"lon":5.379026,"is_reserved":false,"is_disabled":false,"rental_uris":{"android":"levelo://app?vid=a2c062aa-e037-49d5-bfe9-71d9ba3a2ae5","ios":"levelo://app?vid=a2c062aa-e037-49d5-bfe9-71d9ba3a2ae5"},"vehicle_type_id":"4","last_reported":1714568868,"current_range_meters":26800,"station_id":"ce4bgup2rcd13ifvqcn0","pricing_plan_id":"cebpf4jnsgd1na2vs0mg"},{"bike_id":"b7e1812b-71b7-413a-9761-bc07c6cc1d8b","system_id":"levelo_inurba_marseille","lat":43.304606,"lon":5.379026,"is_reserved":false,"is_disabled":false,"rental_uris":{"android":"levelo://app?vid=b7e1812b-71b7-413a-9761-bc07c6cc1d8b","ios":"levelo://app?vid=b7e1812b-71b7-413a-9761-bc07c6cc1d8b"},"vehicle_type_id":"4","last_reported":1714568868,"current_range_meters":24000,"station_id":"ce4bgup2rcd13ifvqcn0","pricing_plan_id":"cebpf4jnsgd1na2vs0mg"},{"bike_id":"937a6bbc-5fb5-47f2-8fb4-743a833a38c3","system_id":"levelo_inurba_marseille","lat":43.304606,"lon":5.379026,"is_reserved":false,"is_disabled":false,"rental_uris":{"android":"levelo://app?vid=937a6bbc-5fb5-47f2-8fb4-743a833a38c3","ios":"levelo://app?vid=937a6bbc-5fb5-47f2-8fb4-743a833a38c3"},"vehicle_type_id":"4","last_reported":1714568868,"current_range_meters":18800,"station_id":"ce4bgup2rcd13ifvqcn0","pricing_plan_id":"cebpf4jnsgd1na2vs0mg"},{"bike_id":"aff14827-7060-4c86-96fa-b4c198503bed","system_id":"levelo_inurba_marseille","lat":43.304606,"lon":5.379026,"is_reserved":false,"is_disabled":false,"rental_uris":{"android":"levelo://app?vid=aff14827-7060-4c86-96fa-b4c198503bed","ios":"levelo://app?vid=aff14827-7060-4c86-96fa-b4c198503bed"},"vehicle_type_id":"4","last_reported":1714568868,"current_range_meters":20800,"station_id":"ce4bgup2rcd13ifvqcn0","pricing_plan_id":"cebpf4jnsgd1na2vs0mg"},{"bike_id":"48b929d2-e3df-404d-820d-793f9abd15f1","system_id":"levelo_inurba_marseille","lat":43.304606,"lon":5.379026,"is_reserved":false,"is_disabled":false,"rental_uris":{"android":"levelo://app?vid=48b929d2-e3df-404d-820d-793f9abd15f1","ios":"levelo://app?vid=48b929d2-e3df-404d-820d-793f9abd15f1"},"vehicle_type_id":"4","last_reported":1714568868,"current_range_meters":31200,"station_id":"ce4bgup2rcd13ifvqcn0","pricing_plan_id":"cebpf4jnsgd1na2vs0mg"},{"bike_id":"241a9418-0e17-4d65-9bfe-3f7b221c3a55","system_id":"levelo_inurba_marseille","lat":43.30462,"lon":5.37909,"is_reserved":false,"is_disabled":false,"rental_uris":{"android":"levelo://app?vid=241a9418-0e17-4d65-9bfe-3f7b221c3a55","ios":"levelo://app?vid=241a9418-0e17-4d65-9bfe-3f7b221c3a55"},"vehicle_type_id":"4","last_reported":1714568868,"current_range_meters":3600,"station_id":"ce4bgup2rcd13ifvqcn0","pricing_plan_id":"cebpf4jnsgd1na2vs0mg"},{"bike_id":"98474b31-6d99-489b-907c-a6b225ceb301","system_id":"levelo_inurba_marseille","lat":43.304606,"lon":5.379026,"is_reserved":false,"is_disabled":false,"rental_uris":{"android":"levelo://app?vid=98474b31-6d99-489b-907c-a6b225ceb301","ios":"levelo://app?vid=98474b31-6d99-489b-907c-a6b225ceb301"},"vehicle_type_id":"4","last_reported":1714568868,"current_range_meters":10400,"station_id":"ce4bgup2rcd13ifvqcn0","pricing_plan_id":"cebpf4jnsgd1na2vs0mg"},{"bike_id":"dca0d2d9-9a9e-44e2-aee1-97d83fc307e1","system_id":"levelo_inurba_marseille","lat":43.304606,"lon":5.379026,"is_reserved":false,"is_disabled":false,"rental_uris":{"android":"levelo://app?vid=dca0d2d9-9a9e-44e2-aee1-97d83fc307e1","ios":"levelo://app?vid=dca0d2d9-9a9e-44e2-aee1-97d83fc307e1"},"vehicle_type_id":"4","last_reported":1714568868,"current_range_meters":30400,"station_id":"ce4bgup2rcd13ifvqcn0","pricing_plan_id":"cebpf4jnsgd1na2vs0mg"},{"bike_id":"e04c034f-1b17-4a76-a455-64a6f80bff84","system_id":"levelo_inurba_marseille","lat":43.304606,"lon":5.379026,"is_reserved":false,"is_disabled":false,"rental_uris":{"android":"levelo://app?vid=e04c034f-1b17-4a76-a455-64a6f80bff84","ios":"levelo://app?vid=e04c034f-1b17-4a76-a455-64a6f80bff84"},"vehicle_type_id":"4","last_reported":1714568868,"current_range_meters":29200,"station_id":"ce4bgup2rcd13ifvqcn0","pricing_plan_id":"cebpf4jnsgd1na2vs0mg"},{"bike_id":"2d745f19-9e6f-407d-8030-70a535b6c69a","system_id":"levelo_inurba_marseille","lat":43.304606,"lon":5.379026,"is_reserved":false,"is_disabled":false,"rental_uris":{"android":"levelo://app?vid=2d745f19-9e6f-407d-8030-70a535b6c69a","ios":"levelo://app?vid=2d745f19-9e6f-407d-8030-70a535b6c69a"},"vehicle_type_id":"4","last_reported":1714568868,"current_range_meters":13600,"station_id":"ce4bgup2rcd13ifvqcn0","pricing_plan_id":"cebpf4jnsgd1na2vs0mg"},{"bike_id":"344de7bd-2005-4c9d-a785-c08028776443","system_id":"levelo_inurba_marseille","lat":43.304606,"lon":5.379026,"is_reserved":false,"is_disabled":false,"rental_uris":{"android":"levelo://app?vid=344de7bd-2005-4c9d-a785-c08028776443","ios":"levelo://app?vid=344de7bd-2005-4c9d-a785-c08028776443"},"vehicle_type_id":"4","last_reported":1714568868,"current_range_meters":23600,"station_id":"ce4bgup2rcd13ifvqcn0","pricing_plan_id":"cebpf4jnsgd1na2vs0mg"},{"bike_id":"e5c5d40d-ddb9-45af-a363-1283403827e8","system_id":"levelo_inurba_marseille","lat":43.304606,"lon":5.379026,"is_reserved":false,"is_disabled":false,"rental_uris":{"android":"levelo://app?vid=e5c5d40d-ddb9-45af-a363-1283403827e8","ios":"levelo://app?vid=e5c5d40d-ddb9-45af-a363-1283403827e8"},"vehicle_type_id":"4","last_reported":1714568868,"current_range_meters":17600,"station_id":"ce4bgup2rcd13ifvqcn0","pricing_plan_id":"cebpf4jnsgd1na2vs0mg"},{"bike_id":"3508f144-2468-46c9-abf6-dc7450deae38","system_id":"levelo_inurba_marseille","lat":43.304606,"lon":5.379026,"is_reserved":false,"is_disabled":false,"rental_uris":{"android":"levelo://app?vid=3508f144-2468-46c9-abf6-dc7450deae38","ios":"levelo://app?vid=3508f144-2468-46c9-abf6-dc7450deae38"},"vehicle_type_id":"4","last_reported":1714568868,"current_range_meters":25600,"station_id":"ce4bgup2rcd13ifvqcn0","pricing_plan_id":"cebpf4jnsgd1na2vs0mg"},{"bike_id":"fae3462d-abd6-43dc-a658-b3919568d708","system_id":"levelo_inurba_marseille","lat":43.304593,"lon":5.379094,"is_reserved":false,"is_disabled":false,"rental_uris":{"android":"levelo://app?vid=fae3462d-abd6-43dc-a658-b3919568d708","ios":"levelo://app?vid=fae3462d-abd6-43dc-a658-b3919568d708"},"vehicle_type_id":"4","last_reported":1714568868,"current_range_meters":19200,"station_id":"ce4bgup2rcd13ifvqcn0","pricing_plan_id":"cebpf4jnsgd1na2vs0mg"},{"bike_id":"505c9fc0-49c3-4c39-ab88-1ba2555dbf58","system_id":"levelo_inurba_marseille","lat":43.32475,"lon":5.36589,"is_reserved":false,"is_disabled":false,"rental_uris":{"android":"levelo://app?vid=505c9fc0-49c3-4c39-ab88-1ba2555dbf58","ios":"levelo://app?vid=505c9fc0-49c3-4c39-ab88-1ba2555dbf58"},"vehicle_type_id":"4","last_reported":1714568868,"current_range_meters":7600,"station_id":"ce4bhs12rcd13ifvqhvg","pricing_plan_id":"cebpf4jnsgd1na2vs0mg"},{"bike_id":"06ac2027-09f1-4680-aa1f-6ab726213cb9","system_id":"levelo_inurba_marseille","lat":43.324771,"lon":5.36557,"is_reserved":false,"is_disabled":false,"rental_uris":{"android":"levelo://app?vid=06ac2027-09f1-4680-aa1f-6ab726213cb9","ios":"levelo://app?vid=06ac2027-09f1-4680-aa1f-6ab726213cb9"},"vehicle_type_id":"4","last_reported":1714568868,"current_range_meters":16400,"station_id":"ce4bhs12rcd13ifvqhvg","pricing_plan_id":"cebpf4jnsgd1na2vs0mg"},{"bike_id":"d68c6a04-97b9-446b-af52-1bf9a27f07c4","system_id":"levelo_inurba_marseille","lat":43.304606,"lon":5.379026,"is_reserved":false,"is_disabled":false,"rental_uris":{"android":"levelo://app?vid=d68c6a04-97b9-446b-af52-1bf9a27f07c4","ios":"levelo://app?vid=d68c6a04-97b9-446b-af52-1bf9a27f07c4"},"vehicle_type_id":"4","last_reported":1714568868,"current_range_meters":23600,"station_id":"ce4bgup2rcd13ifvqcn0","pricing_plan_id":"cebpf4jnsgd1na2vs0mg"},{"bike_id":"51beea3e-599d-44cf-a7a6-779160b7eec5","system_id":"levelo_inurba_marseille","lat":43.32474,"lon":5.365461,"is_reserved":false,"is_disabled":false,"rental_uris":{"android":"levelo://app?vid=51beea3e-599d-44cf-a7a6-779160b7eec5","ios":"levelo://app?vid=51beea3e-599d-44cf-a7a6-779160b7eec5"},"vehicle_type_id":"4","last_reported":1714568868,"current_range_meters":14000,"station_id":"ce4bhs12rcd13ifvqhvg","pricing_plan_id":"cebpf4jnsgd1na2vs0mg"},{"bike_id":"b22ab42e-8a3a-4ec7-97c5-d3fb72660fea","system_id":"levelo_inurba_marseille","lat":43.324771,"lon":5.36557,"is_reserved":false,"is_disabled":false,"rental_uris":{"android":"levelo://app?vid=b22ab42e-8a3a-4ec7-97c5-d3fb72660fea","ios":"levelo://app?vid=b22ab42e-8a3a-4ec7-97c5-d3fb72660fea"},"vehicle_type_id":"4","last_reported":1714568868,"current_range_meters":22400,"station_id":"ce4bhs12rcd13ifvqhvg","pricing_plan_id":"cebpf4jnsgd1na2vs0mg"},{"bike_id":"9ff0830f-e0f2-4f56-8687-5dd0c71549f1","system_id":"levelo_inurba_marseille","lat":43.32476,"lon":5.36573,"is_reserved":false,"is_disabled":false,"rental_uris":{"android":"levelo://app?vid=9ff0830f-e0f2-4f56-8687-5dd0c71549f1","ios":"levelo://app?vid=9ff0830f-e0f2-4f56-8687-5dd0c71549f1"},"vehicle_type_id":"4","last_reported":1714568868,"current_range_meters":26400,"station_id":"ce4bhs12rcd13ifvqhvg","pricing_plan_id":"cebpf4jnsgd1na2vs0mg"},{"bike_id":"caadc003-ff39-41d7-a207-143cea53cb36","system_id":"levelo_inurba_marseille","lat":43.32476,"lon":5.36572,"is_reserved":false,"is_disabled":false,"rental_uris":{"android":"levelo://app?vid=caadc003-ff39-41d7-a207-143cea53cb36","ios":"levelo://app?vid=caadc003-ff39-41d7-a207-143cea53cb36"},"vehicle_type_id":"4","last_reported":1714568868,"current_range_meters":26800,"station_id":"ce4bhs12rcd13ifvqhvg","pricing_plan_id":"cebpf4jnsgd1na2vs0mg"},{"bike_id":"e560c9f7-9a68-4c7c-a574-1ae51de44590","system_id":"levelo_inurba_marseille","lat":43.324771,"lon":5.36557,"is_reserved":false,"is_disabled":false,"rental_uris":{"android":"levelo://app?vid=e560c9f7-9a68-4c7c-a574-1ae51de44590","ios":"levelo://app?vid=e560c9f7-9a68-4c7c-a574-1ae51de44590"},"vehicle_type_id":"4","last_reported":1714568868,"current_range_meters":31200,"station_id":"ce4bhs12rcd13ifvqhvg","pricing_plan_id":"cebpf4jnsgd1na2vs0mg"},{"bike_id":"cb5035c4-9e66-46e5-baea-a68bc4206adf","system_id":"levelo_inurba_marseille","lat":43.32478,"lon":5.36583,"is_reserved":false,"is_disabled":false,"rental_uris":{"android":"levelo://app?vid=cb5035c4-9e66-46e5-baea-a68bc4206adf","ios":"levelo://app?vid=cb5035c4-9e66-46e5-baea-a68bc4206adf"},"vehicle_type_id":"4","last_reported":1714568868,"current_range_meters":10400,"station_id":"ce4bhs12rcd13ifvqhvg","pricing_plan_id":"cebpf4jnsgd1na2vs0mg"},{"bike_id":"1c6723bb-7861-4c75-a149-5251883718a7","system_id":"levelo_inurba_marseille","lat":43.324777,"lon":5.365603,"is_reserved":false,"is_disabled":false,"rental_uris":{"android":"levelo://app?vid=1c6723bb-7861-4c75-a149-5251883718a7","ios":"levelo://app?vid=1c6723bb-7861-4c75-a149-5251883718a7"},"vehicle_type_id":"4","last_reported":1714568868,"current_range_meters":28800,"station_id":"ce4bhs12rcd13ifvqhvg","pricing_plan_id":"cebpf4jnsgd1na2vs0mg"},{"bike_id":"ff14dfe6-78af-413d-a3ea-3b224d7ea33d","system_id":"levelo_inurba_marseille","lat":43.324771,"lon":5.36557,"is_reserved":false,"is_disabled":false,"rental_uris":{"android":"levelo://app?vid=ff14dfe6-78af-413d-a3ea-3b224d7ea33d","ios":"levelo://app?vid=ff14dfe6-78af-413d-a3ea-3b224d7ea33d"},"vehicle_type_id":"4","last_reported":1714568868,"current_range_meters":20000,"station_id":"ce4bhs12rcd13ifvqhvg","pricing_plan_id":"cebpf4jnsgd1na2vs0mg"},{"bike_id":"5d03540d-abbb-4554-a73b-8e61d7d1552f","system_id":"levelo_inurba_marseille","lat":43.32479,"lon":5.36584,"is_reserved":false,"is_disabled":false,"rental_uris":{"android":"levelo://app?vid=5d03540d-abbb-4554-a73b-8e61d7d1552f","ios":"levelo://app?vid=5d03540d-abbb-4554-a73b-8e61d7d1552f"},"vehicle_type_id":"4","last_reported":1714568868,"current_range_meters":11200,"station_id":"ce4bhs12rcd13ifvqhvg","pricing_plan_id":"cebpf4jnsgd1na2vs0mg"},{"bike_id":"9ab8f0a8-c4c7-46e6-93f0-3079918688a7","system_id":"levelo_inurba_marseille","lat":43.32478,"lon":5.36563,"is_reserved":false,"is_disabled":false,"rental_uris":{"android":"levelo://app?vid=9ab8f0a8-c4c7-46e6-93f0-3079918688a7","ios":"levelo://app?vid=9ab8f0a8-c4c7-46e6-93f0-3079918688a7"},"vehicle_type_id":"4","last_reported":1714568868,"current_range_meters":28000,"station_id":"ce4bhs12rcd13ifvqhvg","pricing_plan_id":"cebpf4jnsgd1na2vs0mg"},{"bike_id":"4895fd52-b7de-4dd4-bf5b-bee0b028796c","system_id":"levelo_inurba_marseille","lat":43.32478,"lon":5.365613,"is_reserved":false,"is_disabled":false,"rental_uris":{"android":"levelo://app?vid=4895fd52-b7de-4dd4-bf5b-bee0b028796c","ios":"levelo://app?vid=4895fd52-b7de-4dd4-bf5b-bee0b028796c"},"vehicle_type_id":"4","last_reported":1714568868,"current_range_meters":31200,"station_id":"ce4bhs12rcd13ifvqhvg","pricing_plan_id":"cebpf4jnsgd1na2vs0mg"},{"bike_id":"c0642eef-4c64-4ce5-97d7-9a8f95d1dc58","system_id":"levelo_inurba_marseille","lat":43.304606,"lon":5.379026,"is_reserved":false,"is_disabled":false,"rental_uris":{"android":"levelo://app?vid=c0642eef-4c64-4ce5-97d7-9a8f95d1dc58","ios":"levelo://app?vid=c0642eef-4c64-4ce5-97d7-9a8f95d1dc58"},"vehicle_type_id":"4","last_reported":1714568868,"current_range_meters":22400,"station_id":"ce4bgup2rcd13ifvqcn0","pricing_plan_id":"cebpf4jnsgd1na2vs0mg"},{"bike_id":"ec9ad42d-7bf5-43ef-a2cf-ce73f78031d9","system_id":"levelo_inurba_marseille","lat":43.324771,"lon":5.36557,"is_reserved":false,"is_disabled":false,"rental_uris":{"android":"levelo://app?vid=ec9ad42d-7bf5-43ef-a2cf-ce73f78031d9","ios":"levelo://app?vid=ec9ad42d-7bf5-43ef-a2cf-ce73f78031d9"},"vehicle_type_id":"4","last_reported":1714568868,"current_range_meters":19600,"station_id":"ce4bhs12rcd13ifvqhvg","pricing_plan_id":"cebpf4jnsgd1na2vs0mg"},{"bike_id":"f6fae496-92cc-4dec-a285-ba68bff1ebcd","system_id":"levelo_inurba_marseille","lat":43.324771,"lon":5.36557,"is_reserved":false,"is_disabled":false,"rental_uris":{"android":"levelo://app?vid=f6fae496-92cc-4dec-a285-ba68bff1ebcd","ios":"levelo://app?vid=f6fae496-92cc-4dec-a285-ba68bff1ebcd"},"vehicle_type_id":"4","last_reported":1714568868,"current_range_meters":22800,"station_id":"ce4bhs12rcd13ifvqhvg","pricing_plan_id":"cebpf4jnsgd1na2vs0mg"},{"bike_id":"071ab0ad-56ca-4fd5-a7ed-e4446453c2bb","system_id":"levelo_inurba_marseille","lat":43.324771,"lon":5.36557,"is_reserved":false,"is_disabled":false,"rental_uris":{"android":"levelo://app?vid=071ab0ad-56ca-4fd5-a7ed-e4446453c2bb","ios":"levelo://app?vid=071ab0ad-56ca-4fd5-a7ed-e4446453c2bb"},"vehicle_type_id":"4","last_reported":1714568868,"current_range_meters":8400,"station_id":"ce4bhs12rcd13ifvqhvg","pricing_plan_id":"cebpf4jnsgd1na2vs0mg"},{"bike_id":"4a8ec3cb-d1f2-496e-bf5b-edd6fc6922c4","system_id":"levelo_inurba_marseille","lat":43.324785,"lon":5.365598,"is_reserved":false,"is_disabled":false,"rental_uris":{"android":"levelo://app?vid=4a8ec3cb-d1f2-496e-bf5b-edd6fc6922c4","ios":"levelo://app?vid=4a8ec3cb-d1f2-496e-bf5b-edd6fc6922c4"},"vehicle_type_id":"4","last_reported":1714568868,"current_range_meters":17200,"station_id":"ce4bhs12rcd13ifvqhvg","pricing_plan_id":"cebpf4jnsgd1na2vs0mg"},{"bike_id":"88684681-e46e-4157-85e5-bae8769d4d5a","system_id":"levelo_inurba_marseille","lat":43.32479,"lon":5.36567,"is_reserved":false,"is_disabled":false,"rental_uris":{"android":"levelo://app?vid=88684681-e46e-4157-85e5-bae8769d4d5a","ios":"levelo://app?vid=88684681-e46e-4157-85e5-bae8769d4d5a"},"vehicle_type_id":"4","last_reported":1714568868,"current_range_meters":18800,"station_id":"ce4bhs12rcd13ifvqhvg","pricing_plan_id":"cebpf4jnsgd1na2vs0mg"},{"bike_id":"b542f8ad-0de0-40a1-9ef7-53b385381a12","system_id":"levelo_inurba_marseille","lat":43.324771,"lon":5.36557,"is_reserved":false,"is_disabled":false,"rental_uris":{"android":"levelo://app?vid=b542f8ad-0de0-40a1-9ef7-53b385381a12","ios":"levelo://app?vid=b542f8ad-0de0-40a1-9ef7-53b385381a12"},"vehicle_type_id":"4","last_reported":1714568868,"current_range_meters":30400,"station_id":"ce4bhs12rcd13ifvqhvg","pricing_plan_id":"cebpf4jnsgd1na2vs0mg"},{"bike_id":"a220ad8e-30f9-4404-aa2e-6db3aa6afb45","system_id":"levelo_inurba_marseille","lat":43.324771,"lon":5.36557,"is_reserved":false,"is_disabled":false,"rental_uris":{"android":"levelo://app?vid=a220ad8e-30f9-4404-aa2e-6db3aa6afb45","ios":"levelo://app?vid=a220ad8e-30f9-4404-aa2e-6db3aa6afb45"},"vehicle_type_id":"4","last_reported":1714568868,"current_range_meters":6400,"station_id":"ce4bhs12rcd13ifvqhvg","pricing_plan_id":"cebpf4jnsgd1na2vs0mg"},{"bike_id":"18fb7a60-66d6-4c12-ad66-c83a47a61459","system_id":"levelo_inurba_marseille","lat":43.324771,"lon":5.36557,"is_reserved":false,"is_disabled":false,"rental_uris":{"android":"levelo://app?vid=18fb7a60-66d6-4c12-ad66-c83a47a61459","ios":"levelo://app?vid=18fb7a60-66d6-4c12-ad66-c83a47a61459"},"vehicle_type_id":"4","last_reported":1714568868,"current_range_meters":19600,"station_id":"ce4bhs12rcd13ifvqhvg","pricing_plan_id":"cebpf4jnsgd1na2vs0mg"},{"bike_id":"775b5193-55cb-42f1-b0fa-acd6f40ef433","system_id":"levelo_inurba_marseille","lat":43.324771,"lon":5.36557,"is_reserved":false,"is_disabled":false,"rental_uris":{"android":"levelo://app?vid=775b5193-55cb-42f1-b0fa-acd6f40ef433","ios":"levelo://app?vid=775b5193-55cb-42f1-b0fa-acd6f40ef433"},"vehicle_type_id":"4","last_reported":1714568868,"current_range_meters":25600,"station_id":"ce4bhs12rcd13ifvqhvg","pricing_plan_id":"cebpf4jnsgd1na2vs0mg"},{"bike_id":"38034195-f3ea-4a5f-9ad9-18410ccfb664","system_id":"levelo_inurba_marseille","lat":43.32481,"lon":5.36574,"is_reserved":false,"is_disabled":false,"rental_uris":{"android":"levelo://app?vid=38034195-f3ea-4a5f-9ad9-18410ccfb664","ios":"levelo://app?vid=38034195-f3ea-4a5f-9ad9-18410ccfb664"},"vehicle_type_id":"4","last_reported":1714568868,"current_range_meters":11600,"station_id":"ce4bhs12rcd13ifvqhvg","pricing_plan_id":"cebpf4jnsgd1na2vs0mg"},{"bike_id":"745cd8e6-5c6c-435c-9c90-1244a3dc92c1","system_id":"levelo_inurba_marseille","lat":43.32481,"lon":5.36569,"is_reserved":false,"is_disabled":false,"rental_uris":{"android":"levelo://app?vid=745cd8e6-5c6c-435c-9c90-1244a3dc92c1","ios":"levelo://app?vid=745cd8e6-5c6c-435c-9c90-1244a3dc92c1"},"vehicle_type_id":"4","last_reported":1714568868,"current_range_meters":0,"station_id":"ce4bhs12rcd13ifvqhvg","pricing_plan_id":"cebpf4jnsgd1na2vs0mg"},{"bike_id":"fca0512a-e514-43b3-a37e-665741369b77","system_id":"levelo_inurba_marseille","lat":43.324771,"lon":5.36557,"is_reserved":false,"is_disabled":false,"rental_uris":{"android":"levelo://app?vid=fca0512a-e514-43b3-a37e-665741369b77","ios":"levelo://app?vid=fca0512a-e514-43b3-a37e-665741369b77"},"vehicle_type_id":"4","last_reported":1714568868,"current_range_meters":14400,"station_id":"ce4bhs12rcd13ifvqhvg","pricing_plan_id":"cebpf4jnsgd1na2vs0mg"},{"bike_id":"6b85554c-f195-4dc5-977f-2b7beb5ffe88","system_id":"levelo_inurba_marseille","lat":43.32482,"lon":5.36577,"is_reserved":false,"is_disabled":false,"rental_uris":{"android":"levelo://app?vid=6b85554c-f195-4dc5-977f-2b7beb5ffe88","ios":"levelo://app?vid=6b85554c-f195-4dc5-977f-2b7beb5ffe88"},"vehicle_type_id":"4","last_reported":1714568868,"current_range_meters":20800,"station_id":"ce4bhs12rcd13ifvqhvg","pricing_plan_id":"cebpf4jnsgd1na2vs0mg"},{"bike_id":"20ee36ab-83ec-4fcb-9465-adbceb8bedfc","system_id":"levelo_inurba_marseille","lat":43.324771,"lon":5.36557,"is_reserved":false,"is_disabled":false,"rental_uris":{"android":"levelo://app?vid=20ee36ab-83ec-4fcb-9465-adbceb8bedfc","ios":"levelo://app?vid=20ee36ab-83ec-4fcb-9465-adbceb8bedfc"},"vehicle_type_id":"4","last_reported":1714568868,"current_range_meters":26800,"station_id":"ce4bhs12rcd13ifvqhvg","pricing_plan_id":"cebpf4jnsgd1na2vs0mg"},{"bike_id":"51b7c40f-72b8-4c8d-9344-83420c22fcac","system_id":"levelo_inurba_marseille","lat":43.32484,"lon":5.36581,"is_reserved":false,"is_disabled":false,"rental_uris":{"android":"levelo://app?vid=51b7c40f-72b8-4c8d-9344-83420c22fcac","ios":"levelo://app?vid=51b7c40f-72b8-4c8d-9344-83420c22fcac"},"vehicle_type_id":"4","last_reported":1714568868,"current_range_meters":13600,"station_id":"ce4bhs12rcd13ifvqhvg","pricing_plan_id":"cebpf4jnsgd1na2vs0mg"},{"bike_id":"c309f7ba-6ad6-4d3f-a1a7-a3843971cf8b","system_id":"levelo_inurba_marseille","lat":43.324771,"lon":5.36557,"is_reserved":false,"is_disabled":false,"rental_uris":{"android":"levelo://app?vid=c309f7ba-6ad6-4d3f-a1a7-a3843971cf8b","ios":"levelo://app?vid=c309f7ba-6ad6-4d3f-a1a7-a3843971cf8b"},"vehicle_type_id":"4","last_reported":1714568868,"current_range_meters":20400,"station_id":"ce4bhs12rcd13ifvqhvg","pricing_plan_id":"cebpf4jnsgd1na2vs0mg"},{"bike_id":"d689d75b-2503-4c26-a0fd-e4e182d9b314","system_id":"levelo_inurba_marseille","lat":43.324834,"lon":5.365631,"is_reserved":false,"is_disabled":false,"rental_uris":{"android":"levelo://app?vid=d689d75b-2503-4c26-a0fd-e4e182d9b314","ios":"levelo://app?vid=d689d75b-2503-4c26-a0fd-e4e182d9b314"},"vehicle_type_id":"4","last_reported":1714568868,"current_range_meters":9200,"station_id":"ce4bhs12rcd13ifvqhvg","pricing_plan_id":"cebpf4jnsgd1na2vs0mg"},{"bike_id":"1c9411c0-d42f-4c9c-954b-623621242b42","system_id":"levelo_inurba_marseille","lat":43.324771,"lon":5.36557,"is_reserved":false,"is_disabled":false,"rental_uris":{"android":"levelo://app?vid=1c9411c0-d42f-4c9c-954b-623621242b42","ios":"levelo://app?vid=1c9411c0-d42f-4c9c-954b-623621242b42"},"vehicle_type_id":"4","last_reported":1714568868,"current_range_meters":9600,"station_id":"ce4bhs12rcd13ifvqhvg","pricing_plan_id":"cebpf4jnsgd1na2vs0mg"},{"bike_id":"3233b655-0e42-4745-9352-e7ab6daacfd8","system_id":"levelo_inurba_marseille","lat":43.324771,"lon":5.36557,"is_reserved":false,"is_disabled":false,"rental_uris":{"android":"levelo://app?vid=3233b655-0e42-4745-9352-e7ab6daacfd8","ios":"levelo://app?vid=3233b655-0e42-4745-9352-e7ab6daacfd8"},"vehicle_type_id":"4","last_reported":1714568868,"current_range_meters":27200,"station_id":"ce4bhs12rcd13ifvqhvg","pricing_plan_id":"cebpf4jnsgd1na2vs0mg"},{"bike_id":"6df78037-f20f-4076-ab55-d58ebe570960","system_id":"levelo_inurba_marseille","lat":43.308012,"lon":5.381511,"is_reserved":false,"is_disabled":false,"rental_uris":{"android":"levelo://app?vid=6df78037-f20f-4076-ab55-d58ebe570960","ios":"levelo://app?vid=6df78037-f20f-4076-ab55-d58ebe570960"},"vehicle_type_id":"4","last_reported":1714568868,"current_range_meters":9600,"station_id":"ce4bgt12rcd13ifvqce0","pricing_plan_id":"cebpf4jnsgd1na2vs0mg"},{"bike_id":"b21ae7ee-dd87-4fb7-a859-109931d2977d","system_id":"levelo_inurba_marseille","lat":43.32486,"lon":5.365763,"is_reserved":false,"is_disabled":false,"rental_uris":{"android":"levelo://app?vid=b21ae7ee-dd87-4fb7-a859-109931d2977d","ios":"levelo://app?vid=b21ae7ee-dd87-4fb7-a859-109931d2977d"},"vehicle_type_id":"4","last_reported":1714568868,"current_range_meters":11200,"station_id":"ce4bhs12rcd13ifvqhvg","pricing_plan_id":"cebpf4jnsgd1na2vs0mg"},{"bike_id":"7036c69a-b779-4ece-8f74-4bc87ed55d46","system_id":"levelo_inurba_marseille","lat":43.324771,"lon":5.36557,"is_reserved":false,"is_disabled":false,"rental_uris":{"android":"levelo://app?vid=7036c69a-b779-4ece-8f74-4bc87ed55d46","ios":"levelo://app?vid=7036c69a-b779-4ece-8f74-4bc87ed55d46"},"vehicle_type_id":"4","last_reported":1714568868,"current_range_meters":13200,"station_id":"ce4bhs12rcd13ifvqhvg","pricing_plan_id":"cebpf4jnsgd1na2vs0mg"},{"bike_id":"fe31481a-0451-49ec-81da-8efb345e394b","system_id":"levelo_inurba_marseille","lat":43.324771,"lon":5.36557,"is_reserved":false,"is_disabled":false,"rental_uris":{"android":"levelo://app?vid=fe31481a-0451-49ec-81da-8efb345e394b","ios":"levelo://app?vid=fe31481a-0451-49ec-81da-8efb345e394b"},"vehicle_type_id":"4","last_reported":1714568868,"current_range_meters":12400,"station_id":"ce4bhs12rcd13ifvqhvg","pricing_plan_id":"cebpf4jnsgd1na2vs0mg"},{"bike_id":"0a4a6ca4-0474-4f68-b089-af26c0c8b25a","system_id":"levelo_inurba_marseille","lat":43.324771,"lon":5.36557,"is_reserved":false,"is_disabled":false,"rental_uris":{"android":"levelo://app?vid=0a4a6ca4-0474-4f68-b089-af26c0c8b25a","ios":"levelo://app?vid=0a4a6ca4-0474-4f68-b089-af26c0c8b25a"},"vehicle_type_id":"4","last_reported":1714568868,"current_range_meters":16000,"station_id":"ce4bhs12rcd13ifvqhvg","pricing_plan_id":"cebpf4jnsgd1na2vs0mg"},{"bike_id":"f008f77f-4fa9-4fb9-b447-a83c703f3529","system_id":"levelo_inurba_marseille","lat":43.310701,"lon":5.383489,"is_reserved":false,"is_disabled":false,"rental_uris":{"android":"levelo://app?vid=f008f77f-4fa9-4fb9-b447-a83c703f3529","ios":"levelo://app?vid=f008f77f-4fa9-4fb9-b447-a83c703f3529"},"vehicle_type_id":"4","last_reported":1714568868,"current_range_meters":29200,"station_id":"ce4bgv92rcd13ifvqcr0","pricing_plan_id":"cebpf4jnsgd1na2vs0mg"},{"bike_id":"321f9d28-ee7f-4afa-a28c-be53e03f8d73","system_id":"levelo_inurba_marseille","lat":43.310761,"lon":5.383584,"is_reserved":false,"is_disabled":false,"rental_uris":{"android":"levelo://app?vid=321f9d28-ee7f-4afa-a28c-be53e03f8d73","ios":"levelo://app?vid=321f9d28-ee7f-4afa-a28c-be53e03f8d73"},"vehicle_type_id":"4","last_reported":1714568868,"current_range_meters":0,"station_id":"ce4bgv92rcd13ifvqcr0","pricing_plan_id":"cebpf4jnsgd1na2vs0mg"},{"bike_id":"314ff1cc-f494-4905-bb66-fca0d47b8dab","system_id":"levelo_inurba_marseille","lat":43.302784,"lon":5.377158,"is_reserved":false,"is_disabled":false,"rental_uris":{"android":"levelo://app?vid=314ff1cc-f494-4905-bb66-fca0d47b8dab","ios":"levelo://app?vid=314ff1cc-f494-4905-bb66-fca0d47b8dab"},"vehicle_type_id":"4","last_reported":1714568868,"current_range_meters":16800,"station_id":"ce4bguh2rcd13ifvqcj0","pricing_plan_id":"cebpf4jnsgd1na2vs0mg"},{"bike_id":"ef11b0f3-d54b-4c01-8da3-94146d9da72b","system_id":"levelo_inurba_marseille","lat":43.302784,"lon":5.377158,"is_reserved":false,"is_disabled":false,"rental_uris":{"android":"levelo://app?vid=ef11b0f3-d54b-4c01-8da3-94146d9da72b","ios":"levelo://app?vid=ef11b0f3-d54b-4c01-8da3-94146d9da72b"},"vehicle_type_id":"4","last_reported":1714568868,"current_range_meters":23600,"station_id":"ce4bguh2rcd13ifvqcj0","pricing_plan_id":"cebpf4jnsgd1na2vs0mg"},{"bike_id":"db0e3283-2d40-44e3-922d-dbf109de58d4","system_id":"levelo_inurba_marseille","lat":43.302784,"lon":5.377158,"is_reserved":false,"is_disabled":false,"rental_uris":{"android":"levelo://app?vid=db0e3283-2d40-44e3-922d-dbf109de58d4","ios":"levelo://app?vid=db0e3283-2d40-44e3-922d-dbf109de58d4"},"vehicle_type_id":"4","last_reported":1714568868,"current_range_meters":31200,"station_id":"ce4bguh2rcd13ifvqcj0","pricing_plan_id":"cebpf4jnsgd1na2vs0mg"},{"bike_id":"cfc0f6b7-5818-466e-b21c-ff0227fc3710","system_id":"levelo_inurba_marseille","lat":43.302784,"lon":5.377158,"is_reserved":false,"is_disabled":false,"rental_uris":{"android":"levelo://app?vid=cfc0f6b7-5818-466e-b21c-ff0227fc3710","ios":"levelo://app?vid=cfc0f6b7-5818-466e-b21c-ff0227fc3710"},"vehicle_type_id":"4","last_reported":1714568868,"current_range_meters":27200,"station_id":"ce4bguh2rcd13ifvqcj0","pricing_plan_id":"cebpf4jnsgd1na2vs0mg"},{"bike_id":"9f2ef3ae-73a9-4607-96d9-01c69b64af4e","system_id":"levelo_inurba_marseille","lat":43.302784,"lon":5.377158,"is_reserved":false,"is_disabled":false,"rental_uris":{"android":"levelo://app?vid=9f2ef3ae-73a9-4607-96d9-01c69b64af4e","ios":"levelo://app?vid=9f2ef3ae-73a9-4607-96d9-01c69b64af4e"},"vehicle_type_id":"4","last_reported":1714568868,"current_range_meters":30800,"station_id":"ce4bguh2rcd13ifvqcj0","pricing_plan_id":"cebpf4jnsgd1na2vs0mg"},{"bike_id":"5c14b3bb-2dd0-4efc-bc82-917399bfd525","system_id":"levelo_inurba_marseille","lat":43.302784,"lon":5.377158,"is_reserved":false,"is_disabled":false,"rental_uris":{"android":"levelo://app?vid=5c14b3bb-2dd0-4efc-bc82-917399bfd525","ios":"levelo://app?vid=5c14b3bb-2dd0-4efc-bc82-917399bfd525"},"vehicle_type_id":"4","last_reported":1714568868,"current_range_meters":29200,"station_id":"ce4bguh2rcd13ifvqcj0","pricing_plan_id":"cebpf4jnsgd1na2vs0mg"},{"bike_id":"bfa927bb-4c2e-4dc4-a086-0eb1c1edabac","system_id":"levelo_inurba_marseille","lat":43.30143,"lon":5.37413,"is_reserved":false,"is_disabled":false,"rental_uris":{"android":"levelo://app?vid=bfa927bb-4c2e-4dc4-a086-0eb1c1edabac","ios":"levelo://app?vid=bfa927bb-4c2e-4dc4-a086-0eb1c1edabac"},"vehicle_type_id":"4","last_reported":1714568868,"current_range_meters":14400,"station_id":"ce4bgs92rcd13ifvqcc0","pricing_plan_id":"cebpf4jnsgd1na2vs0mg"},{"bike_id":"4825fc29-00f7-4a78-ae9e-260761599d72","system_id":"levelo_inurba_marseille","lat":43.30143,"lon":5.37413,"is_reserved":false,"is_disabled":false,"rental_uris":{"android":"levelo://app?vid=4825fc29-00f7-4a78-ae9e-260761599d72","ios":"levelo://app?vid=4825fc29-00f7-4a78-ae9e-260761599d72"},"vehicle_type_id":"4","last_reported":1714568868,"current_range_meters":8800,"station_id":"ce4bgs92rcd13ifvqcc0","pricing_plan_id":"cebpf4jnsgd1na2vs0mg"},{"bike_id":"d014ecf2-5df3-4c68-a93e-183f4059e78f","system_id":"levelo_inurba_marseille","lat":43.30143,"lon":5.37423,"is_reserved":false,"is_disabled":false,"rental_uris":{"android":"levelo://app?vid=d014ecf2-5df3-4c68-a93e-183f4059e78f","ios":"levelo://app?vid=d014ecf2-5df3-4c68-a93e-183f4059e78f"},"vehicle_type_id":"4","last_reported":1714568868,"current_range_meters":25600,"station_id":"ce4bgs92rcd13ifvqcc0","pricing_plan_id":"cebpf4jnsgd1na2vs0mg"},{"bike_id":"e0ae2afe-90b8-4c20-86a0-950a1759aff1","system_id":"levelo_inurba_marseille","lat":43.30143,"lon":5.37413,"is_reserved":false,"is_disabled":false,"rental_uris":{"android":"levelo://app?vid=e0ae2afe-90b8-4c20-86a0-950a1759aff1","ios":"levelo://app?vid=e0ae2afe-90b8-4c20-86a0-950a1759aff1"},"vehicle_type_id":"4","last_reported":1714568868,"current_range_meters":30000,"station_id":"ce4bgs92rcd13ifvqcc0","pricing_plan_id":"cebpf4jnsgd1na2vs0mg"},{"bike_id":"727bd3cf-06f5-478b-85c7-0241dac8d829","system_id":"levelo_inurba_marseille","lat":43.301429,"lon":5.37413,"is_reserved":false,"is_disabled":false,"rental_uris":{"android":"levelo://app?vid=727bd3cf-06f5-478b-85c7-0241dac8d829","ios":"levelo://app?vid=727bd3cf-06f5-478b-85c7-0241dac8d829"},"vehicle_type_id":"4","last_reported":1714568868,"current_range_meters":21600,"station_id":"ce4bgs92rcd13ifvqcc0","pricing_plan_id":"cebpf4jnsgd1na2vs0mg"},{"bike_id":"4eabf273-d6ab-4f69-aa17-5ce3078e9cfa","system_id":"levelo_inurba_marseille","lat":43.31988,"lon":5.38143,"is_reserved":false,"is_disabled":false,"rental_uris":{"android":"levelo://app?vid=4eabf273-d6ab-4f69-aa17-5ce3078e9cfa","ios":"levelo://app?vid=4eabf273-d6ab-4f69-aa17-5ce3078e9cfa"},"vehicle_type_id":"4","last_reported":1714568868,"current_range_meters":9200,"station_id":"ce4bhr12rcd13ifvqhpg","pricing_plan_id":"cebpf4jnsgd1na2vs0mg"},{"bike_id":"952baf88-6145-4f3f-b32f-66ddd2b06b56","system_id":"levelo_inurba_marseille","lat":43.319965,"lon":5.381525,"is_reserved":false,"is_disabled":false,"rental_uris":{"android":"levelo://app?vid=952baf88-6145-4f3f-b32f-66ddd2b06b56","ios":"levelo://app?vid=952baf88-6145-4f3f-b32f-66ddd2b06b56"},"vehicle_type_id":"4","last_reported":1714568868,"current_range_meters":3200,"station_id":"ce4bhr12rcd13ifvqhpg","pricing_plan_id":"cebpf4jnsgd1na2vs0mg"},{"bike_id":"4b678404-bcb7-469e-8217-1687e76be9e0","system_id":"levelo_inurba_marseille","lat":43.31992,"lon":5.38158,"is_reserved":false,"is_disabled":false,"rental_uris":{"android":"levelo://app?vid=4b678404-bcb7-469e-8217-1687e76be9e0","ios":"levelo://app?vid=4b678404-bcb7-469e-8217-1687e76be9e0"},"vehicle_type_id":"4","last_reported":1714568868,"current_range_meters":20400,"station_id":"ce4bhr12rcd13ifvqhpg","pricing_plan_id":"cebpf4jnsgd1na2vs0mg"},{"bike_id":"b3400650-0334-4551-92b0-231f6450255b","system_id":"levelo_inurba_marseille","lat":43.319958,"lon":5.381574,"is_reserved":false,"is_disabled":false,"rental_uris":{"android":"levelo://app?vid=b3400650-0334-4551-92b0-231f6450255b","ios":"levelo://app?vid=b3400650-0334-4551-92b0-231f6450255b"},"vehicle_type_id":"4","last_reported":1714568868,"current_range_meters":10400,"station_id":"ce4bhr12rcd13ifvqhpg","pricing_plan_id":"cebpf4jnsgd1na2vs0mg"},{"bike_id":"b071ff51-a955-4834-aa02-9cb2d0320169","system_id":"levelo_inurba_marseille","lat":43.31995,"lon":5.38161,"is_reserved":false,"is_disabled":false,"rental_uris":{"android":"levelo://app?vid=b071ff51-a955-4834-aa02-9cb2d0320169","ios":"levelo://app?vid=b071ff51-a955-4834-aa02-9cb2d0320169"},"vehicle_type_id":"4","last_reported":1714568868,"current_range_meters":22000,"station_id":"ce4bhr12rcd13ifvqhpg","pricing_plan_id":"cebpf4jnsgd1na2vs0mg"},{"bike_id":"d5156c46-1abb-4088-a394-5b4b582aac7f","system_id":"levelo_inurba_marseille","lat":43.313571,"lon":5.384829,"is_reserved":false,"is_disabled":false,"rental_uris":{"android":"levelo://app?vid=d5156c46-1abb-4088-a394-5b4b582aac7f","ios":"levelo://app?vid=d5156c46-1abb-4088-a394-5b4b582aac7f"},"vehicle_type_id":"4","last_reported":1714568868,"current_range_meters":12800,"station_id":"ce4bgt92rcd13ifvqcf0","pricing_plan_id":"cebpf4jnsgd1na2vs0mg"},{"bike_id":"afafb1ff-0248-4806-b2d9-c7e83193ae5a","system_id":"levelo_inurba_marseille","lat":43.299222,"lon":5.365554,"is_reserved":false,"is_disabled":false,"rental_uris":{"android":"levelo://app?vid=afafb1ff-0248-4806-b2d9-c7e83193ae5a","ios":"levelo://app?vid=afafb1ff-0248-4806-b2d9-c7e83193ae5a"},"vehicle_type_id":"4","last_reported":1714568868,"current_range_meters":16000,"station_id":"ce4bgm92rcd13ifvqbr0","pricing_plan_id":"cebpf4jnsgd1na2vs0mg"},{"bike_id":"e83b044f-ff96-4a0b-9dc8-2e8692ea9e25","system_id":"levelo_inurba_marseille","lat":43.299147,"lon":5.367733,"is_reserved":false,"is_disabled":false,"rental_uris":{"android":"levelo://app?vid=e83b044f-ff96-4a0b-9dc8-2e8692ea9e25","ios":"levelo://app?vid=e83b044f-ff96-4a0b-9dc8-2e8692ea9e25"},"vehicle_type_id":"4","last_reported":1714568868,"current_range_meters":15600,"station_id":"ce4bgs12rcd13ifvqcag","pricing_plan_id":"cebpf4jnsgd1na2vs0mg"},{"bike_id":"6e125a9a-67da-4d2a-a483-2937ecdd964d","system_id":"levelo_inurba_marseille","lat":43.29853,"lon":5.36287,"is_reserved":false,"is_disabled":false,"rental_uris":{"android":"levelo://app?vid=6e125a9a-67da-4d2a-a483-2937ecdd964d","ios":"levelo://app?vid=6e125a9a-67da-4d2a-a483-2937ecdd964d"},"vehicle_type_id":"4","last_reported":1714568868,"current_range_meters":31200,"station_id":"ce4bgpp2rcd13ifvqc3g","pricing_plan_id":"cebpf4jnsgd1na2vs0mg"},{"bike_id":"d40f2e9e-7e42-4b2f-a78a-2ca7e83f9418","system_id":"levelo_inurba_marseille","lat":43.29854,"lon":5.36278,"is_reserved":false,"is_disabled":false,"rental_uris":{"android":"levelo://app?vid=d40f2e9e-7e42-4b2f-a78a-2ca7e83f9418","ios":"levelo://app?vid=d40f2e9e-7e42-4b2f-a78a-2ca7e83f9418"},"vehicle_type_id":"4","last_reported":1714568868,"current_range_meters":26400,"station_id":"ce4bgpp2rcd13ifvqc3g","pricing_plan_id":"cebpf4jnsgd1na2vs0mg"},{"bike_id":"fb541c8d-6eba-4d37-b8a2-6b6bc53d8338","system_id":"levelo_inurba_marseille","lat":43.311722,"lon":5.387247,"is_reserved":false,"is_disabled":false,"rental_uris":{"android":"levelo://app?vid=fb541c8d-6eba-4d37-b8a2-6b6bc53d8338","ios":"levelo://app?vid=fb541c8d-6eba-4d37-b8a2-6b6bc53d8338"},"vehicle_type_id":"4","last_reported":1714568868,"current_range_meters":6400,"station_id":"ce4bgv12rcd13ifvqcp0","pricing_plan_id":"cebpf4jnsgd1na2vs0mg"},{"bike_id":"759e5d3b-f35e-4505-a173-8b2863b80224","system_id":"levelo_inurba_marseille","lat":43.29851,"lon":5.36291,"is_reserved":false,"is_disabled":false,"rental_uris":{"android":"levelo://app?vid=759e5d3b-f35e-4505-a173-8b2863b80224","ios":"levelo://app?vid=759e5d3b-f35e-4505-a173-8b2863b80224"},"vehicle_type_id":"4","last_reported":1714568868,"current_range_meters":22400,"station_id":"ce4bgpp2rcd13ifvqc3g","pricing_plan_id":"cebpf4jnsgd1na2vs0mg"},{"bike_id":"e8541831-866d-4e02-aa69-dd14a4debf51","system_id":"levelo_inurba_marseille","lat":43.29851,"lon":5.3629,"is_reserved":false,"is_disabled":false,"rental_uris":{"android":"levelo://app?vid=e8541831-866d-4e02-aa69-dd14a4debf51","ios":"levelo://app?vid=e8541831-866d-4e02-aa69-dd14a4debf51"},"vehicle_type_id":"4","last_reported":1714568868,"current_range_meters":28400,"station_id":"ce4bgpp2rcd13ifvqc3g","pricing_plan_id":"cebpf4jnsgd1na2vs0mg"},{"bike_id":"fee65362-64dc-4047-a50f-d6fe3d358077","system_id":"levelo_inurba_marseille","lat":43.29851,"lon":5.36289,"is_reserved":false,"is_disabled":false,"rental_uris":{"android":"levelo://app?vid=fee65362-64dc-4047-a50f-d6fe3d358077","ios":"levelo://app?vid=fee65362-64dc-4047-a50f-d6fe3d358077"},"vehicle_type_id":"4","last_reported":1714568868,"current_range_meters":23200,"station_id":"ce4bgpp2rcd13ifvqc3g","pricing_plan_id":"cebpf4jnsgd1na2vs0mg"},{"bike_id":"17dc2ba4-a297-4c9f-aabe-9cf081ea9f45","system_id":"levelo_inurba_marseille","lat":43.298527,"lon":5.362777,"is_reserved":false,"is_disabled":false,"rental_uris":{"android":"levelo://app?vid=17dc2ba4-a297-4c9f-aabe-9cf081ea9f45","ios":"levelo://app?vid=17dc2ba4-a297-4c9f-aabe-9cf081ea9f45"},"vehicle_type_id":"4","last_reported":1714568868,"current_range_meters":22800,"station_id":"ce4bgpp2rcd13ifvqc3g","pricing_plan_id":"cebpf4jnsgd1na2vs0mg"},{"bike_id":"115b28e0-2805-4a64-8420-691101163974","system_id":"levelo_inurba_marseille","lat":43.2985,"lon":5.36279,"is_reserved":false,"is_disabled":false,"rental_uris":{"android":"levelo://app?vid=115b28e0-2805-4a64-8420-691101163974","ios":"levelo://app?vid=115b28e0-2805-4a64-8420-691101163974"},"vehicle_type_id":"4","last_reported":1714568868,"current_range_meters":10800,"station_id":"ce4bgpp2rcd13ifvqc3g","pricing_plan_id":"cebpf4jnsgd1na2vs0mg"},{"bike_id":"9d47d2fb-192c-4a2d-9d42-6e89bc135ae6","system_id":"levelo_inurba_marseille","lat":43.29849,"lon":5.36284,"is_reserved":false,"is_disabled":false,"rental_uris":{"android":"levelo://app?vid=9d47d2fb-192c-4a2d-9d42-6e89bc135ae6","ios":"levelo://app?vid=9d47d2fb-192c-4a2d-9d42-6e89bc135ae6"},"vehicle_type_id":"4","last_reported":1714568868,"current_range_meters":3600,"station_id":"ce4bgpp2rcd13ifvqc3g","pricing_plan_id":"cebpf4jnsgd1na2vs0mg"},{"bike_id":"08ca568d-a82c-4079-baa4-82153591fac8","system_id":"levelo_inurba_marseille","lat":43.29847,"lon":5.36284,"is_reserved":false,"is_disabled":false,"rental_uris":{"android":"levelo://app?vid=08ca568d-a82c-4079-baa4-82153591fac8","ios":"levelo://app?vid=08ca568d-a82c-4079-baa4-82153591fac8"},"vehicle_type_id":"4","last_reported":1714568868,"current_range_meters":28000,"station_id":"ce4bgpp2rcd13ifvqc3g","pricing_plan_id":"cebpf4jnsgd1na2vs0mg"},{"bike_id":"f0363aa3-a6a5-4583-93e9-711a5ae1cadd","system_id":"levelo_inurba_marseille","lat":43.29848,"lon":5.36277,"is_reserved":false,"is_disabled":false,"rental_uris":{"android":"levelo://app?vid=f0363aa3-a6a5-4583-93e9-711a5ae1cadd","ios":"levelo://app?vid=f0363aa3-a6a5-4583-93e9-711a5ae1cadd"},"vehicle_type_id":"4","last_reported":1714568868,"current_range_meters":16000,"station_id":"ce4bgpp2rcd13ifvqc3g","pricing_plan_id":"cebpf4jnsgd1na2vs0mg"},{"bike_id":"b68d39c2-75a9-47c6-9dad-11f4c2ddc910","system_id":"levelo_inurba_marseille","lat":43.305364,"lon":5.384119,"is_reserved":false,"is_disabled":false,"rental_uris":{"android":"levelo://app?vid=b68d39c2-75a9-47c6-9dad-11f4c2ddc910","ios":"levelo://app?vid=b68d39c2-75a9-47c6-9dad-11f4c2ddc910"},"vehicle_type_id":"4","last_reported":1714568868,"current_range_meters":20400,"station_id":"ce4bgg92rcd13ifvqb30","pricing_plan_id":"cebpf4jnsgd1na2vs0mg"},{"bike_id":"a6ef382c-ed4d-4d62-adf5-4f21280fbcad","system_id":"levelo_inurba_marseille","lat":43.29846,"lon":5.36285,"is_reserved":false,"is_disabled":false,"rental_uris":{"android":"levelo://app?vid=a6ef382c-ed4d-4d62-adf5-4f21280fbcad","ios":"levelo://app?vid=a6ef382c-ed4d-4d62-adf5-4f21280fbcad"},"vehicle_type_id":"4","last_reported":1714568868,"current_range_meters":27200,"station_id":"ce4bgpp2rcd13ifvqc3g","pricing_plan_id":"cebpf4jnsgd1na2vs0mg"},{"bike_id":"6edb7bb5-6df4-4ee4-95b3-5ba1918086f9","system_id":"levelo_inurba_marseille","lat":43.298433,"lon":5.362774,"is_reserved":false,"is_disabled":false,"rental_uris":{"android":"levelo://app?vid=6edb7bb5-6df4-4ee4-95b3-5ba1918086f9","ios":"levelo://app?vid=6edb7bb5-6df4-4ee4-95b3-5ba1918086f9"},"vehicle_type_id":"4","last_reported":1714568868,"current_range_meters":31200,"station_id":"ce4bgpp2rcd13ifvqc3g","pricing_plan_id":"cebpf4jnsgd1na2vs0mg"},{"bike_id":"ffa743d6-c9c3-4608-8548-ce88400cbddd","system_id":"levelo_inurba_marseille","lat":43.30543,"lon":5.38429,"is_reserved":false,"is_disabled":false,"rental_uris":{"android":"levelo://app?vid=ffa743d6-c9c3-4608-8548-ce88400cbddd","ios":"levelo://app?vid=ffa743d6-c9c3-4608-8548-ce88400cbddd"},"vehicle_type_id":"4","last_reported":1714568868,"current_range_meters":18000,"station_id":"ce4bgg92rcd13ifvqb30","pricing_plan_id":"cebpf4jnsgd1na2vs0mg"},{"bike_id":"763ddc54-a2a0-4c47-8ce7-bdb37edd8b53","system_id":"levelo_inurba_marseille","lat":43.29845,"lon":5.36282,"is_reserved":false,"is_disabled":false,"rental_uris":{"android":"levelo://app?vid=763ddc54-a2a0-4c47-8ce7-bdb37edd8b53","ios":"levelo://app?vid=763ddc54-a2a0-4c47-8ce7-bdb37edd8b53"},"vehicle_type_id":"4","last_reported":1714568868,"current_range_meters":20400,"station_id":"ce4bgpp2rcd13ifvqc3g","pricing_plan_id":"cebpf4jnsgd1na2vs0mg"},{"bike_id":"a7f64e09-9f11-488b-bfaf-738c97dd5098","system_id":"levelo_inurba_marseille","lat":43.298433,"lon":5.362774,"is_reserved":false,"is_disabled":false,"rental_uris":{"android":"levelo://app?vid=a7f64e09-9f11-488b-bfaf-738c97dd5098","ios":"levelo://app?vid=a7f64e09-9f11-488b-bfaf-738c97dd5098"},"vehicle_type_id":"4","last_reported":1714568868,"current_range_meters":31200,"station_id":"ce4bgpp2rcd13ifvqc3g","pricing_plan_id":"cebpf4jnsgd1na2vs0mg"},{"bike_id":"b60a3b3e-a273-4169-b8b5-b54fb1674386","system_id":"levelo_inurba_marseille","lat":43.29844,"lon":5.36281,"is_reserved":false,"is_disabled":false,"rental_uris":{"android":"levelo://app?vid=b60a3b3e-a273-4169-b8b5-b54fb1674386","ios":"levelo://app?vid=b60a3b3e-a273-4169-b8b5-b54fb1674386"},"vehicle_type_id":"4","last_reported":1714568868,"current_range_meters":26800,"station_id":"ce4bgpp2rcd13ifvqc3g","pricing_plan_id":"cebpf4jnsgd1na2vs0mg"},{"bike_id":"1dff6f76-7872-43d6-8de7-a2d8911ccaf4","system_id":"levelo_inurba_marseille","lat":43.29845,"lon":5.36266,"is_reserved":false,"is_disabled":false,"rental_uris":{"android":"levelo://app?vid=1dff6f76-7872-43d6-8de7-a2d8911ccaf4","ios":"levelo://app?vid=1dff6f76-7872-43d6-8de7-a2d8911ccaf4"},"vehicle_type_id":"4","last_reported":1714568868,"current_range_meters":24000,"station_id":"ce4bgpp2rcd13ifvqc3g","pricing_plan_id":"cebpf4jnsgd1na2vs0mg"},{"bike_id":"2c1b4e8f-fe9f-4fa9-b596-da3b7a2dda8d","system_id":"levelo_inurba_marseille","lat":43.298433,"lon":5.362774,"is_reserved":false,"is_disabled":false,"rental_uris":{"android":"levelo://app?vid=2c1b4e8f-fe9f-4fa9-b596-da3b7a2dda8d","ios":"levelo://app?vid=2c1b4e8f-fe9f-4fa9-b596-da3b7a2dda8d"},"vehicle_type_id":"4","last_reported":1714568868,"current_range_meters":29200,"station_id":"ce4bgpp2rcd13ifvqc3g","pricing_plan_id":"cebpf4jnsgd1na2vs0mg"},{"bike_id":"f3433858-6de1-4450-af36-90b1900860fc","system_id":"levelo_inurba_marseille","lat":43.29844,"lon":5.36269,"is_reserved":false,"is_disabled":false,"rental_uris":{"android":"levelo://app?vid=f3433858-6de1-4450-af36-90b1900860fc","ios":"levelo://app?vid=f3433858-6de1-4450-af36-90b1900860fc"},"vehicle_type_id":"4","last_reported":1714568868,"current_range_meters":8000,"station_id":"ce4bgpp2rcd13ifvqc3g","pricing_plan_id":"cebpf4jnsgd1na2vs0mg"},{"bike_id":"e695fb01-9bcd-4b35-bba6-8627462ecd88","system_id":"levelo_inurba_marseille","lat":43.29842,"lon":5.36278,"is_reserved":false,"is_disabled":false,"rental_uris":{"android":"levelo://app?vid=e695fb01-9bcd-4b35-bba6-8627462ecd88","ios":"levelo://app?vid=e695fb01-9bcd-4b35-bba6-8627462ecd88"},"vehicle_type_id":"4","last_reported":1714568868,"current_range_meters":22400,"station_id":"ce4bgpp2rcd13ifvqc3g","pricing_plan_id":"cebpf4jnsgd1na2vs0mg"},{"bike_id":"fb507cf5-adeb-4c44-b221-fdb564a2f78f","system_id":"levelo_inurba_marseille","lat":43.29843,"lon":5.36271,"is_reserved":false,"is_disabled":false,"rental_uris":{"android":"levelo://app?vid=fb507cf5-adeb-4c44-b221-fdb564a2f78f","ios":"levelo://app?vid=fb507cf5-adeb-4c44-b221-fdb564a2f78f"},"vehicle_type_id":"4","last_reported":1714568868,"current_range_meters":24400,"station_id":"ce4bgpp2rcd13ifvqc3g","pricing_plan_id":"cebpf4jnsgd1na2vs0mg"},{"bike_id":"3cc53f19-5e7d-462b-bb17-856d2431ec1a","system_id":"levelo_inurba_marseille","lat":43.29841,"lon":5.36278,"is_reserved":false,"is_disabled":false,"rental_uris":{"android":"levelo://app?vid=3cc53f19-5e7d-462b-bb17-856d2431ec1a","ios":"levelo://app?vid=3cc53f19-5e7d-462b-bb17-856d2431ec1a"},"vehicle_type_id":"4","last_reported":1714568868,"current_range_meters":26800,"station_id":"ce4bgpp2rcd13ifvqc3g","pricing_plan_id":"cebpf4jnsgd1na2vs0mg"},{"bike_id":"ab3234e2-c9e9-4f6c-b33f-be79c27f96ba","system_id":"levelo_inurba_marseille","lat":43.29842,"lon":5.36267,"is_reserved":false,"is_disabled":false,"rental_uris":{"android":"levelo://app?vid=ab3234e2-c9e9-4f6c-b33f-be79c27f96ba","ios":"levelo://app?vid=ab3234e2-c9e9-4f6c-b33f-be79c27f96ba"},"vehicle_type_id":"4","last_reported":1714568868,"current_range_meters":31200,"station_id":"ce4bgpp2rcd13ifvqc3g","pricing_plan_id":"cebpf4jnsgd1na2vs0mg"},{"bike_id":"583af1b8-370e-4ddc-80c7-efaf2c870415","system_id":"levelo_inurba_marseille","lat":43.29841,"lon":5.36266,"is_reserved":false,"is_disabled":false,"rental_uris":{"android":"levelo://app?vid=583af1b8-370e-4ddc-80c7-efaf2c870415","ios":"levelo://app?vid=583af1b8-370e-4ddc-80c7-efaf2c870415"},"vehicle_type_id":"4","last_reported":1714568868,"current_range_meters":4800,"station_id":"ce4bgpp2rcd13ifvqc3g","pricing_plan_id":"cebpf4jnsgd1na2vs0mg"},{"bike_id":"eef94e31-a688-4811-a5af-0d0e86bb0163","system_id":"levelo_inurba_marseille","lat":43.299243,"lon":5.374807,"is_reserved":false,"is_disabled":false,"rental_uris":{"android":"levelo://app?vid=eef94e31-a688-4811-a5af-0d0e86bb0163","ios":"levelo://app?vid=eef94e31-a688-4811-a5af-0d0e86bb0163"},"vehicle_type_id":"4","last_reported":1714568868,"current_range_meters":5200,"station_id":"ce4bgjh2rcd13ifvqbg0","pricing_plan_id":"cebpf4jnsgd1na2vs0mg"},{"bike_id":"e48223a4-d4ee-424c-a5ed-b03b2ac52ac3","system_id":"levelo_inurba_marseille","lat":43.2984,"lon":5.36268,"is_reserved":false,"is_disabled":false,"rental_uris":{"android":"levelo://app?vid=e48223a4-d4ee-424c-a5ed-b03b2ac52ac3","ios":"levelo://app?vid=e48223a4-d4ee-424c-a5ed-b03b2ac52ac3"},"vehicle_type_id":"4","last_reported":1714568868,"current_range_meters":25200,"station_id":"ce4bgpp2rcd13ifvqc3g","pricing_plan_id":"cebpf4jnsgd1na2vs0mg"},{"bike_id":"f40c9c0a-f3b5-4756-8f58-69d665e23edc","system_id":"levelo_inurba_marseille","lat":43.29839,"lon":5.36267,"is_reserved":false,"is_disabled":false,"rental_uris":{"android":"levelo://app?vid=f40c9c0a-f3b5-4756-8f58-69d665e23edc","ios":"levelo://app?vid=f40c9c0a-f3b5-4756-8f58-69d665e23edc"},"vehicle_type_id":"4","last_reported":1714568868,"current_range_meters":26800,"station_id":"ce4bgpp2rcd13ifvqc3g","pricing_plan_id":"cebpf4jnsgd1na2vs0mg"},{"bike_id":"f0fcc9b4-7827-4a54-874a-546abc319221","system_id":"levelo_inurba_marseille","lat":43.29838,"lon":5.36265,"is_reserved":false,"is_disabled":false,"rental_uris":{"android":"levelo://app?vid=f0fcc9b4-7827-4a54-874a-546abc319221","ios":"levelo://app?vid=f0fcc9b4-7827-4a54-874a-546abc319221"},"vehicle_type_id":"4","last_reported":1714568868,"current_range_meters":26000,"station_id":"ce4bgpp2rcd13ifvqc3g","pricing_plan_id":"cebpf4jnsgd1na2vs0mg"},{"bike_id":"b65ead4b-b6af-4c75-931b-4ff5418e8148","system_id":"levelo_inurba_marseille","lat":43.29838,"lon":5.36263,"is_reserved":false,"is_disabled":false,"rental_uris":{"android":"levelo://app?vid=b65ead4b-b6af-4c75-931b-4ff5418e8148","ios":"levelo://app?vid=b65ead4b-b6af-4c75-931b-4ff5418e8148"},"vehicle_type_id":"4","last_reported":1714568868,"current_range_meters":30800,"station_id":"ce4bgpp2rcd13ifvqc3g","pricing_plan_id":"cebpf4jnsgd1na2vs0mg"},{"bike_id":"36600434-6d01-46d7-ba9d-8374a7b2a5c8","system_id":"levelo_inurba_marseille","lat":43.299243,"lon":5.374807,"is_reserved":false,"is_disabled":false,"rental_uris":{"android":"levelo://app?vid=36600434-6d01-46d7-ba9d-8374a7b2a5c8","ios":"levelo://app?vid=36600434-6d01-46d7-ba9d-8374a7b2a5c8"},"vehicle_type_id":"4","last_reported":1714568868,"current_range_meters":21600,"station_id":"ce4bgjh2rcd13ifvqbg0","pricing_plan_id":"cebpf4jnsgd1na2vs0mg"},{"bike_id":"1ca902e5-95cb-462a-ba47-33be96ae0c49","system_id":"levelo_inurba_marseille","lat":43.299243,"lon":5.374807,"is_reserved":false,"is_disabled":false,"rental_uris":{"android":"levelo://app?vid=1ca902e5-95cb-462a-ba47-33be96ae0c49","ios":"levelo://app?vid=1ca902e5-95cb-462a-ba47-33be96ae0c49"},"vehicle_type_id":"4","last_reported":1714568868,"current_range_meters":0,"station_id":"ce4bgjh2rcd13ifvqbg0","pricing_plan_id":"cebpf4jnsgd1na2vs0mg"},{"bike_id":"03e151c8-8459-4591-ad8d-cead89606116","system_id":"levelo_inurba_marseille","lat":43.311722,"lon":5.387247,"is_reserved":false,"is_disabled":false,"rental_uris":{"android":"levelo://app?vid=03e151c8-8459-4591-ad8d-cead89606116","ios":"levelo://app?vid=03e151c8-8459-4591-ad8d-cead89606116"},"vehicle_type_id":"4","last_reported":1714568868,"current_range_meters":6400,"station_id":"ce4bgv12rcd13ifvqcp0","pricing_plan_id":"cebpf4jnsgd1na2vs0mg"},{"bike_id":"e5bb4353-fe64-4b37-a463-860759c383f8","system_id":"levelo_inurba_marseille","lat":43.311722,"lon":5.387247,"is_reserved":false,"is_disabled":false,"rental_uris":{"android":"levelo://app?vid=e5bb4353-fe64-4b37-a463-860759c383f8","ios":"levelo://app?vid=e5bb4353-fe64-4b37-a463-860759c383f8"},"vehicle_type_id":"4","last_reported":1714568868,"current_range_meters":24400,"station_id":"ce4bgv12rcd13ifvqcp0","pricing_plan_id":"cebpf4jnsgd1na2vs0mg"},{"bike_id":"8179b9cf-a8ae-442e-bf2e-2ea1392cf223","system_id":"levelo_inurba_marseille","lat":43.311722,"lon":5.387247,"is_reserved":false,"is_disabled":false,"rental_uris":{"android":"levelo://app?vid=8179b9cf-a8ae-442e-bf2e-2ea1392cf223","ios":"levelo://app?vid=8179b9cf-a8ae-442e-bf2e-2ea1392cf223"},"vehicle_type_id":"4","last_reported":1714568868,"current_range_meters":18400,"station_id":"ce4bgv12rcd13ifvqcp0","pricing_plan_id":"cebpf4jnsgd1na2vs0mg"},{"bike_id":"c1450498-c3e3-475b-892d-131828c2237e","system_id":"levelo_inurba_marseille","lat":43.297774,"lon":5.370875,"is_reserved":false,"is_disabled":false,"rental_uris":{"android":"levelo://app?vid=c1450498-c3e3-475b-892d-131828c2237e","ios":"levelo://app?vid=c1450498-c3e3-475b-892d-131828c2237e"},"vehicle_type_id":"4","last_reported":1714568868,"current_range_meters":17200,"station_id":"ce4bgop2rcd13ifvqc1g","pricing_plan_id":"cebpf4jnsgd1na2vs0mg"},{"bike_id":"f994cba0-e581-49b3-a04d-724d2dd7bef9","system_id":"levelo_inurba_marseille","lat":43.297794,"lon":5.370888,"is_reserved":false,"is_disabled":false,"rental_uris":{"android":"levelo://app?vid=f994cba0-e581-49b3-a04d-724d2dd7bef9","ios":"levelo://app?vid=f994cba0-e581-49b3-a04d-724d2dd7bef9"},"vehicle_type_id":"4","last_reported":1714568868,"current_range_meters":30400,"station_id":"ce4bgop2rcd13ifvqc1g","pricing_plan_id":"cebpf4jnsgd1na2vs0mg"},{"bike_id":"87afb410-72d5-4fbd-b38b-b15c82153b5f","system_id":"levelo_inurba_marseille","lat":43.322872,"lon":5.382756,"is_reserved":false,"is_disabled":false,"rental_uris":{"android":"levelo://app?vid=87afb410-72d5-4fbd-b38b-b15c82153b5f","ios":"levelo://app?vid=87afb410-72d5-4fbd-b38b-b15c82153b5f"},"vehicle_type_id":"4","last_reported":1714568868,"current_range_meters":0,"station_id":"ce4bhr12rcd13ifvqhqg","pricing_plan_id":"cebpf4jnsgd1na2vs0mg"},{"bike_id":"726e1e87-cba6-41f7-ad2e-489ae4aa3f9f","system_id":"levelo_inurba_marseille","lat":43.322872,"lon":5.382756,"is_reserved":false,"is_disabled":false,"rental_uris":{"android":"levelo://app?vid=726e1e87-cba6-41f7-ad2e-489ae4aa3f9f","ios":"levelo://app?vid=726e1e87-cba6-41f7-ad2e-489ae4aa3f9f"},"vehicle_type_id":"4","last_reported":1714568868,"current_range_meters":31200,"station_id":"ce4bhr12rcd13ifvqhqg","pricing_plan_id":"cebpf4jnsgd1na2vs0mg"},{"bike_id":"32ac7f71-32b1-4afd-8222-5525a8c6d46d","system_id":"levelo_inurba_marseille","lat":43.322872,"lon":5.382756,"is_reserved":false,"is_disabled":false,"rental_uris":{"android":"levelo://app?vid=32ac7f71-32b1-4afd-8222-5525a8c6d46d","ios":"levelo://app?vid=32ac7f71-32b1-4afd-8222-5525a8c6d46d"},"vehicle_type_id":"4","last_reported":1714568868,"current_range_meters":6800,"station_id":"ce4bhr12rcd13ifvqhqg","pricing_plan_id":"cebpf4jnsgd1na2vs0mg"},{"bike_id":"9dbcca8d-455f-4980-becd-f4f725caf045","system_id":"levelo_inurba_marseille","lat":43.3229,"lon":5.38279,"is_reserved":false,"is_disabled":false,"rental_uris":{"android":"levelo://app?vid=9dbcca8d-455f-4980-becd-f4f725caf045","ios":"levelo://app?vid=9dbcca8d-455f-4980-becd-f4f725caf045"},"vehicle_type_id":"4","last_reported":1714568868,"current_range_meters":2800,"station_id":"ce4bhr12rcd13ifvqhqg","pricing_plan_id":"cebpf4jnsgd1na2vs0mg"},{"bike_id":"19d275d7-7e4d-42ca-9c06-38386ce1f0c8","system_id":"levelo_inurba_marseille","lat":43.297163,"lon":5.365866,"is_reserved":false,"is_disabled":false,"rental_uris":{"android":"levelo://app?vid=19d275d7-7e4d-42ca-9c06-38386ce1f0c8","ios":"levelo://app?vid=19d275d7-7e4d-42ca-9c06-38386ce1f0c8"},"vehicle_type_id":"4","last_reported":1714568868,"current_range_meters":30400,"station_id":"ce4bgn12rcd13ifvqbt0","pricing_plan_id":"cebpf4jnsgd1na2vs0mg"},{"bike_id":"349d9490-2d53-4f47-8b50-3633a6f9eaab","system_id":"levelo_inurba_marseille","lat":43.297163,"lon":5.365866,"is_reserved":false,"is_disabled":false,"rental_uris":{"android":"levelo://app?vid=349d9490-2d53-4f47-8b50-3633a6f9eaab","ios":"levelo://app?vid=349d9490-2d53-4f47-8b50-3633a6f9eaab"},"vehicle_type_id":"4","last_reported":1714568868,"current_range_meters":24000,"station_id":"ce4bgn12rcd13ifvqbt0","pricing_plan_id":"cebpf4jnsgd1na2vs0mg"},{"bike_id":"a4f3d483-892f-4f84-917b-aa456f26e90b","system_id":"levelo_inurba_marseille","lat":43.2968,"lon":5.37291,"is_reserved":false,"is_disabled":false,"rental_uris":{"android":"levelo://app?vid=a4f3d483-892f-4f84-917b-aa456f26e90b","ios":"levelo://app?vid=a4f3d483-892f-4f84-917b-aa456f26e90b"},"vehicle_type_id":"4","last_reported":1714568868,"current_range_meters":17200,"station_id":"ce4bgk12rcd13ifvqbj0","pricing_plan_id":"cebpf4jnsgd1na2vs0mg"},{"bike_id":"e1bb68d1-2aa2-4585-b037-10ced0bab58b","system_id":"levelo_inurba_marseille","lat":43.2968,"lon":5.37291,"is_reserved":false,"is_disabled":false,"rental_uris":{"android":"levelo://app?vid=e1bb68d1-2aa2-4585-b037-10ced0bab58b","ios":"levelo://app?vid=e1bb68d1-2aa2-4585-b037-10ced0bab58b"},"vehicle_type_id":"4","last_reported":1714568868,"current_range_meters":25200,"station_id":"ce4bgk12rcd13ifvqbj0","pricing_plan_id":"cebpf4jnsgd1na2vs0mg"},{"bike_id":"72df074c-c3a0-40ff-9cc9-3f8adf65bc88","system_id":"levelo_inurba_marseille","lat":43.2968,"lon":5.37291,"is_reserved":false,"is_disabled":false,"rental_uris":{"android":"levelo://app?vid=72df074c-c3a0-40ff-9cc9-3f8adf65bc88","ios":"levelo://app?vid=72df074c-c3a0-40ff-9cc9-3f8adf65bc88"},"vehicle_type_id":"4","last_reported":1714568868,"current_range_meters":29200,"station_id":"ce4bgk12rcd13ifvqbj0","pricing_plan_id":"cebpf4jnsgd1na2vs0mg"},{"bike_id":"23c872da-3afd-486a-9337-4149ee8e2769","system_id":"levelo_inurba_marseille","lat":43.2968,"lon":5.37291,"is_reserved":false,"is_disabled":false,"rental_uris":{"android":"levelo://app?vid=23c872da-3afd-486a-9337-4149ee8e2769","ios":"levelo://app?vid=23c872da-3afd-486a-9337-4149ee8e2769"},"vehicle_type_id":"4","last_reported":1714568868,"current_range_meters":24000,"station_id":"ce4bgk12rcd13ifvqbj0","pricing_plan_id":"cebpf4jnsgd1na2vs0mg"},{"bike_id":"8d83816b-6b5e-4761-bec9-9fd15b0d202f","system_id":"levelo_inurba_marseille","lat":43.2968,"lon":5.37291,"is_reserved":false,"is_disabled":false,"rental_uris":{"android":"levelo://app?vid=8d83816b-6b5e-4761-bec9-9fd15b0d202f","ios":"levelo://app?vid=8d83816b-6b5e-4761-bec9-9fd15b0d202f"},"vehicle_type_id":"4","last_reported":1714568868,"current_range_meters":19200,"station_id":"ce4bgk12rcd13ifvqbj0","pricing_plan_id":"cebpf4jnsgd1na2vs0mg"},{"bike_id":"28748f29-a00c-4c5c-9c95-a2364f60cb2f","system_id":"levelo_inurba_marseille","lat":43.29627,"lon":5.37155,"is_reserved":false,"is_disabled":false,"rental_uris":{"android":"levelo://app?vid=28748f29-a00c-4c5c-9c95-a2364f60cb2f","ios":"levelo://app?vid=28748f29-a00c-4c5c-9c95-a2364f60cb2f"},"vehicle_type_id":"4","last_reported":1714568868,"current_range_meters":31200,"station_id":"ce4bgnh2rcd13ifvqc0g","pricing_plan_id":"cebpf4jnsgd1na2vs0mg"},{"bike_id":"a5abed13-935f-48c9-bb6a-c81328076f3c","system_id":"levelo_inurba_marseille","lat":43.296129,"lon":5.370777,"is_reserved":false,"is_disabled":false,"rental_uris":{"android":"levelo://app?vid=a5abed13-935f-48c9-bb6a-c81328076f3c","ios":"levelo://app?vid=a5abed13-935f-48c9-bb6a-c81328076f3c"},"vehicle_type_id":"4","last_reported":1714568868,"current_range_meters":31200,"station_id":"ce4bgnh2rcd13ifvqc0g","pricing_plan_id":"cebpf4jnsgd1na2vs0mg"},{"bike_id":"1df47a56-dbfa-4cca-9537-58a355cc3e78","system_id":"levelo_inurba_marseille","lat":43.296131,"lon":5.370773,"is_reserved":false,"is_disabled":false,"rental_uris":{"android":"levelo://app?vid=1df47a56-dbfa-4cca-9537-58a355cc3e78","ios":"levelo://app?vid=1df47a56-dbfa-4cca-9537-58a355cc3e78"},"vehicle_type_id":"4","last_reported":1714568868,"current_range_meters":23600,"station_id":"ce4bgnh2rcd13ifvqc0g","pricing_plan_id":"cebpf4jnsgd1na2vs0mg"},{"bike_id":"c725bda3-4016-49c2-b6dd-9a2ee6bbf36a","system_id":"levelo_inurba_marseille","lat":43.296131,"lon":5.370773,"is_reserved":false,"is_disabled":false,"rental_uris":{"android":"levelo://app?vid=c725bda3-4016-49c2-b6dd-9a2ee6bbf36a","ios":"levelo://app?vid=c725bda3-4016-49c2-b6dd-9a2ee6bbf36a"},"vehicle_type_id":"4","last_reported":1714568868,"current_range_meters":14800,"station_id":"ce4bgnh2rcd13ifvqc0g","pricing_plan_id":"cebpf4jnsgd1na2vs0mg"},{"bike_id":"a60d1fc2-2c67-4ff7-bbcd-1933282a08c8","system_id":"levelo_inurba_marseille","lat":43.296131,"lon":5.370773,"is_reserved":false,"is_disabled":false,"rental_uris":{"android":"levelo://app?vid=a60d1fc2-2c67-4ff7-bbcd-1933282a08c8","ios":"levelo://app?vid=a60d1fc2-2c67-4ff7-bbcd-1933282a08c8"},"vehicle_type_id":"4","last_reported":1714568868,"current_range_meters":31600,"station_id":"ce4bgnh2rcd13ifvqc0g","pricing_plan_id":"cebpf4jnsgd1na2vs0mg"},{"bike_id":"7069eb12-dc75-4373-bb5d-009a6888b546","system_id":"levelo_inurba_marseille","lat":43.296131,"lon":5.370773,"is_reserved":false,"is_disabled":false,"rental_uris":{"android":"levelo://app?vid=7069eb12-dc75-4373-bb5d-009a6888b546","ios":"levelo://app?vid=7069eb12-dc75-4373-bb5d-009a6888b546"},"vehicle_type_id":"4","last_reported":1714568868,"current_range_meters":18400,"station_id":"ce4bgnh2rcd13ifvqc0g","pricing_plan_id":"cebpf4jnsgd1na2vs0mg"},{"bike_id":"fc2dc59f-8f99-49fd-972b-f4480c22aed9","system_id":"levelo_inurba_marseille","lat":43.296129,"lon":5.370777,"is_reserved":false,"is_disabled":false,"rental_uris":{"android":"levelo://app?vid=fc2dc59f-8f99-49fd-972b-f4480c22aed9","ios":"levelo://app?vid=fc2dc59f-8f99-49fd-972b-f4480c22aed9"},"vehicle_type_id":"4","last_reported":1714568868,"current_range_meters":16000,"station_id":"ce4bgnh2rcd13ifvqc0g","pricing_plan_id":"cebpf4jnsgd1na2vs0mg"},{"bike_id":"9ddbe603-0c8f-4bef-8665-f2333b9928f2","system_id":"levelo_inurba_marseille","lat":43.296131,"lon":5.370773,"is_reserved":false,"is_disabled":false,"rental_uris":{"android":"levelo://app?vid=9ddbe603-0c8f-4bef-8665-f2333b9928f2","ios":"levelo://app?vid=9ddbe603-0c8f-4bef-8665-f2333b9928f2"},"vehicle_type_id":"4","last_reported":1714568868,"current_range_meters":21600,"station_id":"ce4bgnh2rcd13ifvqc0g","pricing_plan_id":"cebpf4jnsgd1na2vs0mg"},{"bike_id":"724be846-6804-4ceb-9bdd-3407ad9eba90","system_id":"levelo_inurba_marseille","lat":43.296131,"lon":5.370773,"is_reserved":false,"is_disabled":false,"rental_uris":{"android":"levelo://app?vid=724be846-6804-4ceb-9bdd-3407ad9eba90","ios":"levelo://app?vid=724be846-6804-4ceb-9bdd-3407ad9eba90"},"vehicle_type_id":"4","last_reported":1714568868,"current_range_meters":17200,"station_id":"ce4bgnh2rcd13ifvqc0g","pricing_plan_id":"cebpf4jnsgd1na2vs0mg"},{"bike_id":"7e0bf430-6f9d-4f26-8442-32c8f269d4bc","system_id":"levelo_inurba_marseille","lat":43.29615,"lon":5.3715,"is_reserved":false,"is_disabled":false,"rental_uris":{"android":"levelo://app?vid=7e0bf430-6f9d-4f26-8442-32c8f269d4bc","ios":"levelo://app?vid=7e0bf430-6f9d-4f26-8442-32c8f269d4bc"},"vehicle_type_id":"4","last_reported":1714568868,"current_range_meters":24000,"station_id":"ce4bgnh2rcd13ifvqc0g","pricing_plan_id":"cebpf4jnsgd1na2vs0mg"},{"bike_id":"1b8440fe-6a04-47e0-ba20-e3496c9cd4c4","system_id":"levelo_inurba_marseille","lat":43.29573,"lon":5.367355,"is_reserved":false,"is_disabled":false,"rental_uris":{"android":"levelo://app?vid=1b8440fe-6a04-47e0-ba20-e3496c9cd4c4","ios":"levelo://app?vid=1b8440fe-6a04-47e0-ba20-e3496c9cd4c4"},"vehicle_type_id":"4","last_reported":1714568868,"current_range_meters":28000,"station_id":"ce4bgph2rcd13ifvqc2g","pricing_plan_id":"cebpf4jnsgd1na2vs0mg"},{"bike_id":"5b6e60da-fd43-4f9e-903e-cbea6c2829ef","system_id":"levelo_inurba_marseille","lat":43.29573,"lon":5.367355,"is_reserved":false,"is_disabled":false,"rental_uris":{"android":"levelo://app?vid=5b6e60da-fd43-4f9e-903e-cbea6c2829ef","ios":"levelo://app?vid=5b6e60da-fd43-4f9e-903e-cbea6c2829ef"},"vehicle_type_id":"4","last_reported":1714568868,"current_range_meters":24400,"station_id":"ce4bgph2rcd13ifvqc2g","pricing_plan_id":"cebpf4jnsgd1na2vs0mg"},{"bike_id":"401b86c4-ed62-429e-824f-e38b917c267e","system_id":"levelo_inurba_marseille","lat":43.299028,"lon":5.381509,"is_reserved":false,"is_disabled":false,"rental_uris":{"android":"levelo://app?vid=401b86c4-ed62-429e-824f-e38b917c267e","ios":"levelo://app?vid=401b86c4-ed62-429e-824f-e38b917c267e"},"vehicle_type_id":"4","last_reported":1714568868,"current_range_meters":24000,"station_id":"ce4bgj12rcd13ifvqbc0","pricing_plan_id":"cebpf4jnsgd1na2vs0mg"},{"bike_id":"9ccfff17-03dc-4acd-b1e8-ee56152c4344","system_id":"levelo_inurba_marseille","lat":43.299028,"lon":5.381509,"is_reserved":false,"is_disabled":false,"rental_uris":{"android":"levelo://app?vid=9ccfff17-03dc-4acd-b1e8-ee56152c4344","ios":"levelo://app?vid=9ccfff17-03dc-4acd-b1e8-ee56152c4344"},"vehicle_type_id":"4","last_reported":1714568868,"current_range_meters":9200,"station_id":"ce4bgj12rcd13ifvqbc0","pricing_plan_id":"cebpf4jnsgd1na2vs0mg"},{"bike_id":"63264813-a724-4955-8992-39c5b8bdd1db","system_id":"levelo_inurba_marseille","lat":43.299028,"lon":5.381509,"is_reserved":false,"is_disabled":false,"rental_uris":{"android":"levelo://app?vid=63264813-a724-4955-8992-39c5b8bdd1db","ios":"levelo://app?vid=63264813-a724-4955-8992-39c5b8bdd1db"},"vehicle_type_id":"4","last_reported":1714568868,"current_range_meters":18000,"station_id":"ce4bgj12rcd13ifvqbc0","pricing_plan_id":"cebpf4jnsgd1na2vs0mg"},{"bike_id":"a013deea-c70a-4099-a333-88aad62b945f","system_id":"levelo_inurba_marseille","lat":43.299028,"lon":5.381509,"is_reserved":false,"is_disabled":false,"rental_uris":{"android":"levelo://app?vid=a013deea-c70a-4099-a333-88aad62b945f","ios":"levelo://app?vid=a013deea-c70a-4099-a333-88aad62b945f"},"vehicle_type_id":"4","last_reported":1714568868,"current_range_meters":18000,"station_id":"ce4bgj12rcd13ifvqbc0","pricing_plan_id":"cebpf4jnsgd1na2vs0mg"},{"bike_id":"82e4fb94-294f-4c2c-bc2a-a3371d755a7f","system_id":"levelo_inurba_marseille","lat":43.299075,"lon":5.381531,"is_reserved":false,"is_disabled":false,"rental_uris":{"android":"levelo://app?vid=82e4fb94-294f-4c2c-bc2a-a3371d755a7f","ios":"levelo://app?vid=82e4fb94-294f-4c2c-bc2a-a3371d755a7f"},"vehicle_type_id":"4","last_reported":1714568868,"current_range_meters":0,"station_id":"","pricing_plan_id":"cebpf4jnsgd1na2vs0mg"},{"bike_id":"962164fd-ac8b-4ea2-9bab-6f4bc473373e","system_id":"levelo_inurba_marseille","lat":43.299028,"lon":5.381509,"is_reserved":false,"is_disabled":false,"rental_uris":{"android":"levelo://app?vid=962164fd-ac8b-4ea2-9bab-6f4bc473373e","ios":"levelo://app?vid=962164fd-ac8b-4ea2-9bab-6f4bc473373e"},"vehicle_type_id":"4","last_reported":1714568868,"current_range_meters":1600,"station_id":"ce4bgj12rcd13ifvqbc0","pricing_plan_id":"cebpf4jnsgd1na2vs0mg"},{"bike_id":"7bfa6247-ba46-4d38-838d-8014af0a1428","system_id":"levelo_inurba_marseille","lat":43.299028,"lon":5.381509,"is_reserved":false,"is_disabled":false,"rental_uris":{"android":"levelo://app?vid=7bfa6247-ba46-4d38-838d-8014af0a1428","ios":"levelo://app?vid=7bfa6247-ba46-4d38-838d-8014af0a1428"},"vehicle_type_id":"4","last_reported":1714568868,"current_range_meters":31200,"station_id":"ce4bgj12rcd13ifvqbc0","pricing_plan_id":"cebpf4jnsgd1na2vs0mg"},{"bike_id":"dbe461ba-3f7a-46ec-8ae4-cf4d80829a22","system_id":"levelo_inurba_marseille","lat":43.29705,"lon":5.377,"is_reserved":false,"is_disabled":false,"rental_uris":{"android":"levelo://app?vid=dbe461ba-3f7a-46ec-8ae4-cf4d80829a22","ios":"levelo://app?vid=dbe461ba-3f7a-46ec-8ae4-cf4d80829a22"},"vehicle_type_id":"4","last_reported":1714568868,"current_range_meters":29600,"station_id":"","pricing_plan_id":"cebpf4jnsgd1na2vs0mg"},{"bike_id":"5b71287e-5f6c-49ee-997b-8566d23765ca","system_id":"levelo_inurba_marseille","lat":43.296263,"lon":5.377094,"is_reserved":false,"is_disabled":false,"rental_uris":{"android":"levelo://app?vid=5b71287e-5f6c-49ee-997b-8566d23765ca","ios":"levelo://app?vid=5b71287e-5f6c-49ee-997b-8566d23765ca"},"vehicle_type_id":"4","last_reported":1714568868,"current_range_meters":400,"station_id":"ce4bgi92rcd13ifvqb90","pricing_plan_id":"cebpf4jnsgd1na2vs0mg"},{"bike_id":"932eae2e-892a-4784-a172-46adadde1f3f","system_id":"levelo_inurba_marseille","lat":43.296935,"lon":5.376544,"is_reserved":false,"is_disabled":false,"rental_uris":{"android":"levelo://app?vid=932eae2e-892a-4784-a172-46adadde1f3f","ios":"levelo://app?vid=932eae2e-892a-4784-a172-46adadde1f3f"},"vehicle_type_id":"4","last_reported":1714568868,"current_range_meters":2000,"station_id":"ce4bgkh2rcd13ifvqbl0","pricing_plan_id":"cebpf4jnsgd1na2vs0mg"},{"bike_id":"dfde3472-8e66-4dec-9c56-d342406f48e2","system_id":"levelo_inurba_marseille","lat":43.299028,"lon":5.381509,"is_reserved":false,"is_disabled":false,"rental_uris":{"android":"levelo://app?vid=dfde3472-8e66-4dec-9c56-d342406f48e2","ios":"levelo://app?vid=dfde3472-8e66-4dec-9c56-d342406f48e2"},"vehicle_type_id":"4","last_reported":1714568868,"current_range_meters":1200,"station_id":"ce4bgj12rcd13ifvqbc0","pricing_plan_id":"cebpf4jnsgd1na2vs0mg"},{"bike_id":"143c1e0d-0402-4609-aec8-5d4b1fdfadd3","system_id":"levelo_inurba_marseille","lat":43.299028,"lon":5.381509,"is_reserved":false,"is_disabled":false,"rental_uris":{"android":"levelo://app?vid=143c1e0d-0402-4609-aec8-5d4b1fdfadd3","ios":"levelo://app?vid=143c1e0d-0402-4609-aec8-5d4b1fdfadd3"},"vehicle_type_id":"4","last_reported":1714568868,"current_range_meters":21600,"station_id":"ce4bgj12rcd13ifvqbc0","pricing_plan_id":"cebpf4jnsgd1na2vs0mg"},{"bike_id":"d55505ac-4842-4ef2-88f7-ace5927bacec","system_id":"levelo_inurba_marseille","lat":43.299028,"lon":5.381509,"is_reserved":false,"is_disabled":false,"rental_uris":{"android":"levelo://app?vid=d55505ac-4842-4ef2-88f7-ace5927bacec","ios":"levelo://app?vid=d55505ac-4842-4ef2-88f7-ace5927bacec"},"vehicle_type_id":"4","last_reported":1714568868,"current_range_meters":30800,"station_id":"ce4bgj12rcd13ifvqbc0","pricing_plan_id":"cebpf4jnsgd1na2vs0mg"},{"bike_id":"bcddc398-997f-4223-bcd2-c2780f8e0d6f","system_id":"levelo_inurba_marseille","lat":43.299028,"lon":5.381509,"is_reserved":false,"is_disabled":false,"rental_uris":{"android":"levelo://app?vid=bcddc398-997f-4223-bcd2-c2780f8e0d6f","ios":"levelo://app?vid=bcddc398-997f-4223-bcd2-c2780f8e0d6f"},"vehicle_type_id":"4","last_reported":1714568868,"current_range_meters":28800,"station_id":"ce4bgj12rcd13ifvqbc0","pricing_plan_id":"cebpf4jnsgd1na2vs0mg"},{"bike_id":"629935ce-6379-4d53-b506-3f50a616437b","system_id":"levelo_inurba_marseille","lat":43.299028,"lon":5.381509,"is_reserved":false,"is_disabled":false,"rental_uris":{"android":"levelo://app?vid=629935ce-6379-4d53-b506-3f50a616437b","ios":"levelo://app?vid=629935ce-6379-4d53-b506-3f50a616437b"},"vehicle_type_id":"4","last_reported":1714568868,"current_range_meters":4000,"station_id":"ce4bgj12rcd13ifvqbc0","pricing_plan_id":"cebpf4jnsgd1na2vs0mg"},{"bike_id":"07cda65c-ee8a-46a8-9b43-5ee071dd6d03","system_id":"levelo_inurba_marseille","lat":43.29913,"lon":5.38218,"is_reserved":false,"is_disabled":false,"rental_uris":{"android":"levelo://app?vid=07cda65c-ee8a-46a8-9b43-5ee071dd6d03","ios":"levelo://app?vid=07cda65c-ee8a-46a8-9b43-5ee071dd6d03"},"vehicle_type_id":"4","last_reported":1714568868,"current_range_meters":20800,"station_id":"","pricing_plan_id":"cebpf4jnsgd1na2vs0mg"},{"bike_id":"d29862bf-1bf4-4c53-a2bf-a418541f7a0e","system_id":"levelo_inurba_marseille","lat":43.31758,"lon":5.39014,"is_reserved":false,"is_disabled":false,"rental_uris":{"android":"levelo://app?vid=d29862bf-1bf4-4c53-a2bf-a418541f7a0e","ios":"levelo://app?vid=d29862bf-1bf4-4c53-a2bf-a418541f7a0e"},"vehicle_type_id":"4","last_reported":1714568868,"current_range_meters":10000,"station_id":"ce4bhqp2rcd13ifvqhng","pricing_plan_id":"cebpf4jnsgd1na2vs0mg"},{"bike_id":"e91a6fa5-b985-4610-928f-61bbc4a9ce2c","system_id":"levelo_inurba_marseille","lat":43.31756,"lon":5.39017,"is_reserved":false,"is_disabled":false,"rental_uris":{"android":"levelo://app?vid=e91a6fa5-b985-4610-928f-61bbc4a9ce2c","ios":"levelo://app?vid=e91a6fa5-b985-4610-928f-61bbc4a9ce2c"},"vehicle_type_id":"4","last_reported":1714568868,"current_range_meters":20400,"station_id":"ce4bhqp2rcd13ifvqhng","pricing_plan_id":"cebpf4jnsgd1na2vs0mg"},{"bike_id":"160120ba-f068-445d-b9bd-561cc5fe6e33","system_id":"levelo_inurba_marseille","lat":43.317595,"lon":5.390156,"is_reserved":false,"is_disabled":false,"rental_uris":{"android":"levelo://app?vid=160120ba-f068-445d-b9bd-561cc5fe6e33","ios":"levelo://app?vid=160120ba-f068-445d-b9bd-561cc5fe6e33"},"vehicle_type_id":"4","last_reported":1714568868,"current_range_meters":13600,"station_id":"ce4bhqp2rcd13ifvqhng","pricing_plan_id":"cebpf4jnsgd1na2vs0mg"},{"bike_id":"37242e48-b0e9-4a6e-b541-d08e7b35f1ed","system_id":"levelo_inurba_marseille","lat":43.31754,"lon":5.39018,"is_reserved":false,"is_disabled":false,"rental_uris":{"android":"levelo://app?vid=37242e48-b0e9-4a6e-b541-d08e7b35f1ed","ios":"levelo://app?vid=37242e48-b0e9-4a6e-b541-d08e7b35f1ed"},"vehicle_type_id":"4","last_reported":1714568868,"current_range_meters":24000,"station_id":"ce4bhqp2rcd13ifvqhng","pricing_plan_id":"cebpf4jnsgd1na2vs0mg"},{"bike_id":"b1addad9-e6b9-42db-aafc-ca3fa67234a4","system_id":"levelo_inurba_marseille","lat":43.317557,"lon":5.390189,"is_reserved":false,"is_disabled":false,"rental_uris":{"android":"levelo://app?vid=b1addad9-e6b9-42db-aafc-ca3fa67234a4","ios":"levelo://app?vid=b1addad9-e6b9-42db-aafc-ca3fa67234a4"},"vehicle_type_id":"4","last_reported":1714568868,"current_range_meters":24800,"station_id":"ce4bhqp2rcd13ifvqhng","pricing_plan_id":"cebpf4jnsgd1na2vs0mg"},{"bike_id":"568f4c3c-1d25-4618-a1f6-0154a9d3b72a","system_id":"levelo_inurba_marseille","lat":43.31757,"lon":5.39019,"is_reserved":false,"is_disabled":false,"rental_uris":{"android":"levelo://app?vid=568f4c3c-1d25-4618-a1f6-0154a9d3b72a","ios":"levelo://app?vid=568f4c3c-1d25-4618-a1f6-0154a9d3b72a"},"vehicle_type_id":"4","last_reported":1714568868,"current_range_meters":24800,"station_id":"ce4bhqp2rcd13ifvqhng","pricing_plan_id":"cebpf4jnsgd1na2vs0mg"},{"bike_id":"0aef9f46-a872-4800-887c-1b470256494a","system_id":"levelo_inurba_marseille","lat":43.3176,"lon":5.39018,"is_reserved":false,"is_disabled":false,"rental_uris":{"android":"levelo://app?vid=0aef9f46-a872-4800-887c-1b470256494a","ios":"levelo://app?vid=0aef9f46-a872-4800-887c-1b470256494a"},"vehicle_type_id":"4","last_reported":1714568868,"current_range_meters":25200,"station_id":"ce4bhqp2rcd13ifvqhng","pricing_plan_id":"cebpf4jnsgd1na2vs0mg"},{"bike_id":"e7f7f8c6-3502-40da-b88a-452fc9534ddc","system_id":"levelo_inurba_marseille","lat":43.317588,"lon":5.390188,"is_reserved":false,"is_disabled":false,"rental_uris":{"android":"levelo://app?vid=e7f7f8c6-3502-40da-b88a-452fc9534ddc","ios":"levelo://app?vid=e7f7f8c6-3502-40da-b88a-452fc9534ddc"},"vehicle_type_id":"4","last_reported":1714568868,"current_range_meters":22800,"station_id":"ce4bhqp2rcd13ifvqhng","pricing_plan_id":"cebpf4jnsgd1na2vs0mg"},{"bike_id":"b5271f54-f37d-423a-b48c-8177de38a8f8","system_id":"levelo_inurba_marseille","lat":43.317563,"lon":5.390207,"is_reserved":false,"is_disabled":false,"rental_uris":{"android":"levelo://app?vid=b5271f54-f37d-423a-b48c-8177de38a8f8","ios":"levelo://app?vid=b5271f54-f37d-423a-b48c-8177de38a8f8"},"vehicle_type_id":"4","last_reported":1714568868,"current_range_meters":28800,"station_id":"ce4bhqp2rcd13ifvqhng","pricing_plan_id":"cebpf4jnsgd1na2vs0mg"},{"bike_id":"3e90fa85-c942-47c4-a797-7ff343ed3b41","system_id":"levelo_inurba_marseille","lat":43.317635,"lon":5.390205,"is_reserved":false,"is_disabled":false,"rental_uris":{"android":"levelo://app?vid=3e90fa85-c942-47c4-a797-7ff343ed3b41","ios":"levelo://app?vid=3e90fa85-c942-47c4-a797-7ff343ed3b41"},"vehicle_type_id":"4","last_reported":1714568868,"current_range_meters":27600,"station_id":"ce4bhqp2rcd13ifvqhng","pricing_plan_id":"cebpf4jnsgd1na2vs0mg"},{"bike_id":"16227458-1903-4958-9f5d-852ad595ecd8","system_id":"levelo_inurba_marseille","lat":43.31763,"lon":5.39021,"is_reserved":false,"is_disabled":false,"rental_uris":{"android":"levelo://app?vid=16227458-1903-4958-9f5d-852ad595ecd8","ios":"levelo://app?vid=16227458-1903-4958-9f5d-852ad595ecd8"},"vehicle_type_id":"4","last_reported":1714568868,"current_range_meters":17600,"station_id":"ce4bhqp2rcd13ifvqhng","pricing_plan_id":"cebpf4jnsgd1na2vs0mg"},{"bike_id":"57ca142f-bd81-4bd2-be4e-bd61cd00f86a","system_id":"levelo_inurba_marseille","lat":43.317578,"lon":5.39024,"is_reserved":false,"is_disabled":false,"rental_uris":{"android":"levelo://app?vid=57ca142f-bd81-4bd2-be4e-bd61cd00f86a","ios":"levelo://app?vid=57ca142f-bd81-4bd2-be4e-bd61cd00f86a"},"vehicle_type_id":"4","last_reported":1714568868,"current_range_meters":16400,"station_id":"ce4bhqp2rcd13ifvqhng","pricing_plan_id":"cebpf4jnsgd1na2vs0mg"},{"bike_id":"3518e32d-5a3a-4829-b921-d882ed001eb3","system_id":"levelo_inurba_marseille","lat":43.31754,"lon":5.39026,"is_reserved":false,"is_disabled":false,"rental_uris":{"android":"levelo://app?vid=3518e32d-5a3a-4829-b921-d882ed001eb3","ios":"levelo://app?vid=3518e32d-5a3a-4829-b921-d882ed001eb3"},"vehicle_type_id":"4","last_reported":1714568868,"current_range_meters":26000,"station_id":"ce4bhqp2rcd13ifvqhng","pricing_plan_id":"cebpf4jnsgd1na2vs0mg"},{"bike_id":"88b24db4-632b-4045-a01f-3d312d3ba27d","system_id":"levelo_inurba_marseille","lat":43.31753,"lon":5.39033,"is_reserved":false,"is_disabled":false,"rental_uris":{"android":"levelo://app?vid=88b24db4-632b-4045-a01f-3d312d3ba27d","ios":"levelo://app?vid=88b24db4-632b-4045-a01f-3d312d3ba27d"},"vehicle_type_id":"4","last_reported":1714568868,"current_range_meters":16000,"station_id":"ce4bhqp2rcd13ifvqhng","pricing_plan_id":"cebpf4jnsgd1na2vs0mg"},