{"last_updated":1752070225,"ttl":60,"version":"2.2","data":{"bikes":[{"bike_id":"cd20cfea-2f2f-444d-a882-a49b6cf370eb","system_id":"levelo_inurba_marseille","lat":43.337444,"lon":5.374475,"is_reserved":false,"is_disabled":true,"rental_uris":{"android":"levelo://app?vid=cd20cfea-2f2f-444d-a882-a49b6cf370eb","ios":"levelo://app?vid=cd20cfea-2f2f-444d-a882-a49b6cf370eb"},"vehicle_type_id":"4","last_reported":1752070225,"current_range_meters":0,"station_id":"","pricing_plan_id":"cebpf4jnsgd1na2vs0mg"},{"bike_id":"3da29fb8-fc97-44c6-b9ac-31dd456b2fd4","system_id":"levelo_inurba_marseille","lat":43.33771,"lon":5.37424,"is_reserved":false,"is_disabled":true,"rental_uris":{"android":"levelo://app?vid=3da29fb8-fc97-44c6-b9ac-31dd456b2fd4","ios":"levelo://app?vid=3da29fb8-fc97-44c6-b9ac-31dd456b2fd4"},"vehicle_type_id":"4","last_reported":1752070225,"current_range_meters":0,"station_id":"","pricing_plan_id":"cebpf4jnsgd1na2vs0mg"},{"bike_id":"01861ad8-a8d7-4be6-816e-651927c87584","system_id":"levelo_inurba_marseille","lat":43.33751,"lon":5.37456,"is_reserved":false,"is_disabled":true,"rental_uris":{"android":"levelo://app?vid=01861ad8-a8d7-4be6-816e-651927c87584","ios":"levelo://app?vid=01861ad8-a8d7-4be6-816e-651927c87584"},"vehicle_type_id":"4","last_reported":1752070225,"current_range_meters":0,"station_id":"","pricing_plan_id":"cebpf4jnsgd1na2vs0mg"},{"bike_id":"9dbe87cc-21c9-4b6c-952c-c09e35887f80","system_id":"levelo_inurba_marseille","lat":43.21743,"lon":5.34605,"is_reserved":false,"is_disabled":true,"rental_uris":{"android":"levelo://app?vid=9dbe87cc-21c9-4b6c-952c-c09e35887f80","ios":"levelo://app?vid=9dbe87cc-21c9-4b6c-952c-c09e35887f80"},"vehicle_type_id":"4","last_reported":1752070225,"current_range_meters":0,"station_id":"","pricing_plan_id":"cebpf4jnsgd1na2vs0mg"},{"bike_id":"53b1a31e-8ada-40c0-8d64-113a81233c84","system_id":"levelo_inurba_marseille","lat":43.36416,"lon":5.31932,"is_reserved":false,"is_disabled":true,"rental_uris":{"android":"levelo://app?vid=53b1a31e-8ada-40c0-8d64-113a81233c84","ios":"levelo://app?vid=53b1a31e-8ada-40c0-8d64-113a81233c84"},"vehicle_type_id":"4","last_reported":1752070225,"current_range_meters":0,"station_id":"","pricing_plan_id":"cebpf4jnsgd1na2vs0mg"},{"bike_id":"b9a15b7d-eeaf-44a7-9205-7958c403e891","system_id":"levelo_inurba_marseille","lat":43.29305,"lon":5.37458,"is_reserved":false,"is_disabled":true,"rental_uris":{"android":"levelo://app?vid=b9a15b7d-eeaf-44a7-9205-7958c403e891","ios":"levelo://app?vid=b9a15b7d-eeaf-44a7-9205-7958c403e891"},"vehicle_type_id":"4","last_reported":1752070225,"current_range_meters":0,"station_id":"ce4bgi12rcd13ifvqb70","pricing_plan_id":"cebpf4jnsgd1na2vs0mg"},{"bike_id":"b41a5c96-465f-4afc-9661-2a514df19ef3","system_id":"levelo_inurba_marseille","lat":43.304413,"lon":5.388953,"is_reserved":false,"is_disabled":true,"rental_uris":{"android":"levelo://app?vid=b41a5c96-465f-4afc-9661-2a514df19ef3","ios":"levelo://app?vid=b41a5c96-465f-4afc-9661-2a514df19ef3"},"vehicle_type_id":"4","last_reported":1752070225,"current_range_meters":0,"station_id":"ce4bgk12rcd13ifvqbi0","pricing_plan_id":"cebpf4jnsgd1na2vs0mg"},{"bike_id":"193a6504-8e52-4f0f-b7e2-9bd59e6b6b00","system_id":"levelo_inurba_marseille","lat":43.29563,"lon":5.375131,"is_reserved":false,"is_disabled":true,"rental_uris":{"android":"levelo://app?vid=193a6504-8e52-4f0f-b7e2-9bd59e6b6b00","ios":"levelo://app?vid=193a6504-8e52-4f0f-b7e2-9bd59e6b6b00"},"vehicle_type_id":"4","last_reported":1752070225,"current_range_meters":0,"station_id":"ce4bh8p2rcd13ifvqeb0","pricing_plan_id":"cebpf4jnsgd1na2vs0mg"},{"bike_id":"5fc320b7-90da-4fbf-a809-8041d840282e","system_id":"levelo_inurba_marseille","lat":43.28616,"lon":5.35106,"is_reserved":false,"is_disabled":true,"rental_uris":{"android":"levelo://app?vid=5fc320b7-90da-4fbf-a809-8041d840282e","ios":"levelo://app?vid=5fc320b7-90da-4fbf-a809-8041d840282e"},"vehicle_type_id":"4","last_reported":1752070225,"current_range_meters":0,"station_id":"ce4bhch2rcd13ifvqeug","pricing_plan_id":"cebpf4jnsgd1na2vs0mg"},{"bike_id":"1c69a5a7-7441-4bcf-ae82-70062f9e2aac","system_id":"levelo_inurba_marseille","lat":43.262495,"lon":5.379396,"is_reserved":false,"is_disabled":true,"rental_uris":{"android":"levelo://app?vid=1c69a5a7-7441-4bcf-ae82-70062f9e2aac","ios":"levelo://app?vid=1c69a5a7-7441-4bcf-ae82-70062f9e2aac"},"vehicle_type_id":"4","last_reported":1752070225,"current_range_meters":0,"station_id":"ce4bhjp2rcd13ifvqg90","pricing_plan_id":"cebpf4jnsgd1na2vs0mg"},{"bike_id":"430186c4-1e6a-40bc-9a4a-6c6b320c5b26","system_id":"levelo_inurba_marseille","lat":43.237755,"lon":5.437327,"is_reserved":false,"is_disabled":true,"rental_uris":{"android":"levelo://app?vid=430186c4-1e6a-40bc-9a4a-6c6b320c5b26","ios":"levelo://app?vid=430186c4-1e6a-40bc-9a4a-6c6b320c5b26"},"vehicle_type_id":"4","last_reported":1752070225,"current_range_meters":0,"station_id":"ce4bhmp2rcd13ifvqgog","pricing_plan_id":"cebpf4jnsgd1na2vs0mg"},{"bike_id":"e562ad4e-a577-4b7b-a74e-7e00b9c0f52f","system_id":"levelo_inurba_marseille","lat":43.225027,"lon":5.347812,"is_reserved":false,"is_disabled":true,"rental_uris":{"android":"levelo://app?vid=e562ad4e-a577-4b7b-a74e-7e00b9c0f52f","ios":"levelo://app?vid=e562ad4e-a577-4b7b-a74e-7e00b9c0f52f"},"vehicle_type_id":"4","last_reported":1752070225,"current_range_meters":0,"station_id":"st_cvj5dfep6f1abm77gieg","pricing_plan_id":"cebpf4jnsgd1na2vs0mg"},{"bike_id":"6661cbd2-6ba2-4b46-b15e-1188df0f29d7","system_id":"levelo_inurba_marseille","lat":43.2121,"lon":5.35049,"is_reserved":false,"is_disabled":true,"rental_uris":{"android":"levelo://app?vid=6661cbd2-6ba2-4b46-b15e-1188df0f29d7","ios":"levelo://app?vid=6661cbd2-6ba2-4b46-b15e-1188df0f29d7"},"vehicle_type_id":"4","last_reported":1752070225,"current_range_meters":0,"station_id":"st_cvj6sg6p6f1abm77japg","pricing_plan_id":"cebpf4jnsgd1na2vs0mg"},{"bike_id":"4a3be47d-37d8-4d8a-ba44-da50cb7ea1d5","system_id":"levelo_inurba_marseille","lat":43.28414,"lon":5.34982,"is_reserved":false,"is_disabled":true,"rental_uris":{"android":"levelo://app?vid=4a3be47d-37d8-4d8a-ba44-da50cb7ea1d5","ios":"levelo://app?vid=4a3be47d-37d8-4d8a-ba44-da50cb7ea1d5"},"vehicle_type_id":"4","last_reported":1752070225,"current_range_meters":400,"station_id":"ce4bhbh2rcd13ifvqepg","pricing_plan_id":"cebpf4jnsgd1na2vs0mg"},{"bike_id":"4eaa4f46-e787-462b-ab61-5147ba127d17","system_id":"levelo_inurba_marseille","lat":43.275032,"lon":5.4245,"is_reserved":false,"is_disabled":true,"rental_uris":{"android":"levelo://app?vid=4eaa4f46-e787-462b-ab61-5147ba127d17","ios":"levelo://app?vid=4eaa4f46-e787-462b-ab61-5147ba127d17"},"vehicle_type_id":"4","last_reported":1752070225,"current_range_meters":400,"station_id":"ce4bhn92rcd13ifvqgrg","pricing_plan_id":"cebpf4jnsgd1na2vs0mg"},{"bike_id":"19c552da-55bc-46d8-97cb-d1fbabdad01a","system_id":"levelo_inurba_marseille","lat":43.21136,"lon":5.35057,"is_reserved":false,"is_disabled":true,"rental_uris":{"android":"levelo://app?vid=19c552da-55bc-46d8-97cb-d1fbabdad01a","ios":"levelo://app?vid=19c552da-55bc-46d8-97cb-d1fbabdad01a"},"vehicle_type_id":"4","last_reported":1752070225,"current_range_meters":800,"station_id":"","pricing_plan_id":"cebpf4jnsgd1na2vs0mg"},{"bike_id":"cc5f0a45-c898-468d-8f9f-cd21d864738e","system_id":"levelo_inurba_marseille","lat":43.26197,"lon":5.37929,"is_reserved":false,"is_disabled":true,"rental_uris":{"android":"levelo://app?vid=cc5f0a45-c898-468d-8f9f-cd21d864738e","ios":"levelo://app?vid=cc5f0a45-c898-468d-8f9f-cd21d864738e"},"vehicle_type_id":"4","last_reported":1752070225,"current_range_meters":800,"station_id":"ce4bhjp2rcd13ifvqg90","pricing_plan_id":"cebpf4jnsgd1na2vs0mg"},{"bike_id":"0650d222-8a61-4821-88f3-8eb8a5502644","system_id":"levelo_inurba_marseille","lat":43.290837,"lon":5.379597,"is_reserved":false,"is_disabled":true,"rental_uris":{"android":"levelo://app?vid=0650d222-8a61-4821-88f3-8eb8a5502644","ios":"levelo://app?vid=0650d222-8a61-4821-88f3-8eb8a5502644"},"vehicle_type_id":"4","last_reported":1752070225,"current_range_meters":1200,"station_id":"","pricing_plan_id":"cebpf4jnsgd1na2vs0mg"},{"bike_id":"9260d6b2-af52-474b-a86b-ef64880add6e","system_id":"levelo_inurba_marseille","lat":43.28416,"lon":5.34975,"is_reserved":false,"is_disabled":true,"rental_uris":{"android":"levelo://app?vid=9260d6b2-af52-474b-a86b-ef64880add6e","ios":"levelo://app?vid=9260d6b2-af52-474b-a86b-ef64880add6e"},"vehicle_type_id":"4","last_reported":1752070225,"current_range_meters":1200,"station_id":"ce4bhbh2rcd13ifvqepg","pricing_plan_id":"cebpf4jnsgd1na2vs0mg"},{"bike_id":"2691d458-edea-48f2-acce-f4f72de79465","system_id":"levelo_inurba_marseille","lat":43.217494,"lon":5.346026,"is_reserved":false,"is_disabled":true,"rental_uris":{"android":"levelo://app?vid=2691d458-edea-48f2-acce-f4f72de79465","ios":"levelo://app?vid=2691d458-edea-48f2-acce-f4f72de79465"},"vehicle_type_id":"4","last_reported":1752070225,"current_range_meters":1200,"station_id":"st_cvj6r9ubvosntc0bgbag","pricing_plan_id":"cebpf4jnsgd1na2vs0mg"},{"bike_id":"d9dc2b45-2e38-4739-85a3-b65904397811","system_id":"levelo_inurba_marseille","lat":43.29229,"lon":5.36056,"is_reserved":false,"is_disabled":true,"rental_uris":{"android":"levelo://app?vid=d9dc2b45-2e38-4739-85a3-b65904397811","ios":"levelo://app?vid=d9dc2b45-2e38-4739-85a3-b65904397811"},"vehicle_type_id":"4","last_reported":1752070225,"current_range_meters":1600,"station_id":"ce4bhbh2rcd13ifvqeqg","pricing_plan_id":"cebpf4jnsgd1na2vs0mg"},{"bike_id":"3f6c3b45-9f30-474d-b5c4-5558b2fd3ac3","system_id":"levelo_inurba_marseille","lat":43.29366,"lon":5.37852,"is_reserved":false,"is_disabled":true,"rental_uris":{"android":"levelo://app?vid=3f6c3b45-9f30-474d-b5c4-5558b2fd3ac3","ios":"levelo://app?vid=3f6c3b45-9f30-474d-b5c4-5558b2fd3ac3"},"vehicle_type_id":"4","last_reported":1752070225,"current_range_meters":2000,"station_id":"ce4bgjh2rcd13ifvqbf0","pricing_plan_id":"cebpf4jnsgd1na2vs0mg"},{"bike_id":"50eaf968-9542-4fe1-b485-56d799146289","system_id":"levelo_inurba_marseille","lat":43.3149,"lon":5.37302,"is_reserved":false,"is_disabled":true,"rental_uris":{"android":"levelo://app?vid=50eaf968-9542-4fe1-b485-56d799146289","ios":"levelo://app?vid=50eaf968-9542-4fe1-b485-56d799146289"},"vehicle_type_id":"4","last_reported":1752070225,"current_range_meters":2000,"station_id":"ce4bgt12rcd13ifvqcd0","pricing_plan_id":"cebpf4jnsgd1na2vs0mg"},{"bike_id":"51b0e0b6-6a52-4290-8102-a460b2d41b43","system_id":"levelo_inurba_marseille","lat":43.298654,"lon":5.397286,"is_reserved":false,"is_disabled":true,"rental_uris":{"android":"levelo://app?vid=51b0e0b6-6a52-4290-8102-a460b2d41b43","ios":"levelo://app?vid=51b0e0b6-6a52-4290-8102-a460b2d41b43"},"vehicle_type_id":"4","last_reported":1752070225,"current_range_meters":2000,"station_id":"ce4bh0h2rcd13ifvqd50","pricing_plan_id":"cebpf4jnsgd1na2vs0mg"},{"bike_id":"93fb16e4-ec31-4859-8d31-f8169ae64a5f","system_id":"levelo_inurba_marseille","lat":43.33025,"lon":5.39042,"is_reserved":false,"is_disabled":false,"rental_uris":{"android":"levelo://app?vid=93fb16e4-ec31-4859-8d31-f8169ae64a5f","ios":"levelo://app?vid=93fb16e4-ec31-4859-8d31-f8169ae64a5f"},"vehicle_type_id":"4","last_reported":1752070225,"current_range_meters":2000,"station_id":"ce4bhr92rcd13ifvqhrg","pricing_plan_id":"cebpf4jnsgd1na2vs0mg"},{"bike_id":"14e7b21f-6a49-4bd8-adcb-9e2a34f46350","system_id":"levelo_inurba_marseille","lat":43.28089,"lon":5.39875,"is_reserved":false,"is_disabled":false,"rental_uris":{"android":"levelo://app?vid=14e7b21f-6a49-4bd8-adcb-9e2a34f46350","ios":"levelo://app?vid=14e7b21f-6a49-4bd8-adcb-9e2a34f46350"},"vehicle_type_id":"4","last_reported":1752070225,"current_range_meters":2800,"station_id":"","pricing_plan_id":"cebpf4jnsgd1na2vs0mg"},{"bike_id":"c98d0307-3157-4a39-9409-864e8e505802","system_id":"levelo_inurba_marseille","lat":43.24152,"lon":5.3935,"is_reserved":false,"is_disabled":false,"rental_uris":{"android":"levelo://app?vid=c98d0307-3157-4a39-9409-864e8e505802","ios":"levelo://app?vid=c98d0307-3157-4a39-9409-864e8e505802"},"vehicle_type_id":"4","last_reported":1752070225,"current_range_meters":2800,"station_id":"","pricing_plan_id":"cebpf4jnsgd1na2vs0mg"},{"bike_id":"3b22f952-d0bc-4c00-8fd3-7e27b88aea23","system_id":"levelo_inurba_marseille","lat":43.29659,"lon":5.36245,"is_reserved":false,"is_disabled":false,"rental_uris":{"android":"levelo://app?vid=3b22f952-d0bc-4c00-8fd3-7e27b88aea23","ios":"levelo://app?vid=3b22f952-d0bc-4c00-8fd3-7e27b88aea23"},"vehicle_type_id":"4","last_reported":1752070225,"current_range_meters":2800,"station_id":"","pricing_plan_id":"cebpf4jnsgd1na2vs0mg"},{"bike_id":"445b3f04-5dd5-4ef5-95ba-4e4c675d1472","system_id":"levelo_inurba_marseille","lat":43.29867,"lon":5.36263,"is_reserved":false,"is_disabled":false,"rental_uris":{"android":"levelo://app?vid=445b3f04-5dd5-4ef5-95ba-4e4c675d1472","ios":"levelo://app?vid=445b3f04-5dd5-4ef5-95ba-4e4c675d1472"},"vehicle_type_id":"4","last_reported":1752070225,"current_range_meters":2800,"station_id":"ce4bgpp2rcd13ifvqc3g","pricing_plan_id":"cebpf4jnsgd1na2vs0mg"},{"bike_id":"d6f61349-cc16-4a8f-bf1e-5eaceff0681a","system_id":"levelo_inurba_marseille","lat":43.28854,"lon":5.3931,"is_reserved":false,"is_disabled":false,"rental_uris":{"android":"levelo://app?vid=d6f61349-cc16-4a8f-bf1e-5eaceff0681a","ios":"levelo://app?vid=d6f61349-cc16-4a8f-bf1e-5eaceff0681a"},"vehicle_type_id":"4","last_reported":1752070225,"current_range_meters":2800,"station_id":"ce4bh2p2rcd13ifvqdi0","pricing_plan_id":"cebpf4jnsgd1na2vs0mg"},{"bike_id":"37f2becd-23f9-4f13-a711-38b8024eeec7","system_id":"levelo_inurba_marseille","lat":43.33768,"lon":5.37516,"is_reserved":false,"is_disabled":false,"rental_uris":{"android":"levelo://app?vid=37f2becd-23f9-4f13-a711-38b8024eeec7","ios":"levelo://app?vid=37f2becd-23f9-4f13-a711-38b8024eeec7"},"vehicle_type_id":"4","last_reported":1752070225,"current_range_meters":3200,"station_id":"","pricing_plan_id":"cebpf4jnsgd1na2vs0mg"},{"bike_id":"4cb1b534-5bcd-43ec-8b74-a210323c0ed6","system_id":"levelo_inurba_marseille","lat":43.27371,"lon":5.36253,"is_reserved":false,"is_disabled":false,"rental_uris":{"android":"levelo://app?vid=4cb1b534-5bcd-43ec-8b74-a210323c0ed6","ios":"levelo://app?vid=4cb1b534-5bcd-43ec-8b74-a210323c0ed6"},"vehicle_type_id":"4","last_reported":1752070225,"current_range_meters":3200,"station_id":"ce4bhbh2rcd13ifvqeo0","pricing_plan_id":"cebpf4jnsgd1na2vs0mg"},{"bike_id":"303615e2-b645-47aa-b8dc-d69233e50c42","system_id":"levelo_inurba_marseille","lat":43.29906,"lon":5.43649,"is_reserved":false,"is_disabled":false,"rental_uris":{"android":"levelo://app?vid=303615e2-b645-47aa-b8dc-d69233e50c42","ios":"levelo://app?vid=303615e2-b645-47aa-b8dc-d69233e50c42"},"vehicle_type_id":"4","last_reported":1752070225,"current_range_meters":3600,"station_id":"ce4bhpp2rcd13ifvqhfg","pricing_plan_id":"cebpf4jnsgd1na2vs0mg"},{"bike_id":"2c423baa-ecca-420a-87d7-ad0b7e0b9ebb","system_id":"levelo_inurba_marseille","lat":43.280423,"lon":5.353617,"is_reserved":false,"is_disabled":false,"rental_uris":{"android":"levelo://app?vid=2c423baa-ecca-420a-87d7-ad0b7e0b9ebb","ios":"levelo://app?vid=2c423baa-ecca-420a-87d7-ad0b7e0b9ebb"},"vehicle_type_id":"4","last_reported":1752070225,"current_range_meters":4000,"station_id":"","pricing_plan_id":"cebpf4jnsgd1na2vs0mg"},{"bike_id":"109759bc-eeed-422e-8d28-0097c2f6286a","system_id":"levelo_inurba_marseille","lat":43.28413,"lon":5.34978,"is_reserved":false,"is_disabled":false,"rental_uris":{"android":"levelo://app?vid=109759bc-eeed-422e-8d28-0097c2f6286a","ios":"levelo://app?vid=109759bc-eeed-422e-8d28-0097c2f6286a"},"vehicle_type_id":"4","last_reported":1752070225,"current_range_meters":4000,"station_id":"ce4bhbh2rcd13ifvqepg","pricing_plan_id":"cebpf4jnsgd1na2vs0mg"},{"bike_id":"d069d4f3-a1e0-43a1-97ac-d01ec91e3ffc","system_id":"levelo_inurba_marseille","lat":43.28415,"lon":5.34984,"is_reserved":false,"is_disabled":false,"rental_uris":{"android":"levelo://app?vid=d069d4f3-a1e0-43a1-97ac-d01ec91e3ffc","ios":"levelo://app?vid=d069d4f3-a1e0-43a1-97ac-d01ec91e3ffc"},"vehicle_type_id":"4","last_reported":1752070225,"current_range_meters":4800,"station_id":"ce4bhbh2rcd13ifvqepg","pricing_plan_id":"cebpf4jnsgd1na2vs0mg"},{"bike_id":"48c5b047-30e3-436a-b3bf-64173729d44f","system_id":"levelo_inurba_marseille","lat":43.28967,"lon":5.37852,"is_reserved":false,"is_disabled":false,"rental_uris":{"android":"levelo://app?vid=48c5b047-30e3-436a-b3bf-64173729d44f","ios":"levelo://app?vid=48c5b047-30e3-436a-b3bf-64173729d44f"},"vehicle_type_id":"4","last_reported":1752070225,"current_range_meters":5600,"station_id":"ce4bh9p2rcd13ifvqed0","pricing_plan_id":"cebpf4jnsgd1na2vs0mg"},{"bike_id":"fee33eb4-a287-47ce-84af-44a41f968e38","system_id":"levelo_inurba_marseille","lat":43.31726,"lon":5.42401,"is_reserved":false,"is_disabled":false,"rental_uris":{"android":"levelo://app?vid=fee33eb4-a287-47ce-84af-44a41f968e38","ios":"levelo://app?vid=fee33eb4-a287-47ce-84af-44a41f968e38"},"vehicle_type_id":"4","last_reported":1752070225,"current_range_meters":5600,"station_id":"ce4bhp92rcd13ifvqhbg","pricing_plan_id":"cebpf4jnsgd1na2vs0mg"},{"bike_id":"8793e523-5eb1-455e-838e-15f85858808e","system_id":"levelo_inurba_marseille","lat":43.212407,"lon":5.351029,"is_reserved":false,"is_disabled":false,"rental_uris":{"android":"levelo://app?vid=8793e523-5eb1-455e-838e-15f85858808e","ios":"levelo://app?vid=8793e523-5eb1-455e-838e-15f85858808e"},"vehicle_type_id":"4","last_reported":1752070225,"current_range_meters":5600,"station_id":"st_cvj6sg6p6f1abm77japg","pricing_plan_id":"cebpf4jnsgd1na2vs0mg"},{"bike_id":"0c8f92f0-34dd-4528-ac9a-218976babbcb","system_id":"levelo_inurba_marseille","lat":43.297057,"lon":5.376893,"is_reserved":false,"is_disabled":false,"rental_uris":{"android":"levelo://app?vid=0c8f92f0-34dd-4528-ac9a-218976babbcb","ios":"levelo://app?vid=0c8f92f0-34dd-4528-ac9a-218976babbcb"},"vehicle_type_id":"4","last_reported":1752070225,"current_range_meters":6000,"station_id":"ce4bgkh2rcd13ifvqbl0","pricing_plan_id":"cebpf4jnsgd1na2vs0mg"},{"bike_id":"6e8bb410-8e0b-4eaa-a706-34acdad3193e","system_id":"levelo_inurba_marseille","lat":43.28849,"lon":5.35856,"is_reserved":false,"is_disabled":false,"rental_uris":{"android":"levelo://app?vid=6e8bb410-8e0b-4eaa-a706-34acdad3193e","ios":"levelo://app?vid=6e8bb410-8e0b-4eaa-a706-34acdad3193e"},"vehicle_type_id":"4","last_reported":1752070225,"current_range_meters":6400,"station_id":"ce4bhb12rcd13ifvqem0","pricing_plan_id":"cebpf4jnsgd1na2vs0mg"},{"bike_id":"c8ea4a5d-0a3e-4f3b-81c8-ab3b80a8aec1","system_id":"levelo_inurba_marseille","lat":43.28624,"lon":5.35099,"is_reserved":false,"is_disabled":false,"rental_uris":{"android":"levelo://app?vid=c8ea4a5d-0a3e-4f3b-81c8-ab3b80a8aec1","ios":"levelo://app?vid=c8ea4a5d-0a3e-4f3b-81c8-ab3b80a8aec1"},"vehicle_type_id":"4","last_reported":1752070225,"current_range_meters":6400,"station_id":"ce4bhch2rcd13ifvqeug","pricing_plan_id":"cebpf4jnsgd1na2vs0mg"},{"bike_id":"394f1b3c-5d3c-4c7d-b57d-2d57a0dbbfcd","system_id":"levelo_inurba_marseille","lat":43.2732,"lon":5.39077,"is_reserved":false,"is_disabled":false,"rental_uris":{"android":"levelo://app?vid=394f1b3c-5d3c-4c7d-b57d-2d57a0dbbfcd","ios":"levelo://app?vid=394f1b3c-5d3c-4c7d-b57d-2d57a0dbbfcd"},"vehicle_type_id":"4","last_reported":1752070225,"current_range_meters":6400,"station_id":"ce4bhgp2rcd13ifvqfe0","pricing_plan_id":"cebpf4jnsgd1na2vs0mg"},{"bike_id":"dd058f99-adb9-42fa-9e70-98d79a484599","system_id":"levelo_inurba_marseille","lat":43.26932,"lon":5.38923,"is_reserved":false,"is_disabled":false,"rental_uris":{"android":"levelo://app?vid=dd058f99-adb9-42fa-9e70-98d79a484599","ios":"levelo://app?vid=dd058f99-adb9-42fa-9e70-98d79a484599"},"vehicle_type_id":"4","last_reported":1752070225,"current_range_meters":6400,"station_id":"ce4bhhh2rcd13ifvqfl0","pricing_plan_id":"cebpf4jnsgd1na2vs0mg"},{"bike_id":"d7ec5cfb-2b59-42ba-8b5d-9be1df8c4c65","system_id":"levelo_inurba_marseille","lat":43.27624,"lon":5.36099,"is_reserved":false,"is_disabled":false,"rental_uris":{"android":"levelo://app?vid=d7ec5cfb-2b59-42ba-8b5d-9be1df8c4c65","ios":"levelo://app?vid=d7ec5cfb-2b59-42ba-8b5d-9be1df8c4c65"},"vehicle_type_id":"4","last_reported":1752070225,"current_range_meters":6800,"station_id":"ce4bgj92rcd13ifvqbe0","pricing_plan_id":"cebpf4jnsgd1na2vs0mg"},{"bike_id":"57c4ae16-a794-4e76-9e47-90abc2cbbc18","system_id":"levelo_inurba_marseille","lat":43.28887,"lon":5.360687,"is_reserved":false,"is_disabled":false,"rental_uris":{"android":"levelo://app?vid=57c4ae16-a794-4e76-9e47-90abc2cbbc18","ios":"levelo://app?vid=57c4ae16-a794-4e76-9e47-90abc2cbbc18"},"vehicle_type_id":"4","last_reported":1752070225,"current_range_meters":7200,"station_id":"ce4bhb12rcd13ifvqem0","pricing_plan_id":"cebpf4jnsgd1na2vs0mg"},{"bike_id":"920630fb-a7b1-4001-89fc-a27c15349855","system_id":"levelo_inurba_marseille","lat":43.27375,"lon":5.36253,"is_reserved":false,"is_disabled":false,"rental_uris":{"android":"levelo://app?vid=920630fb-a7b1-4001-89fc-a27c15349855","ios":"levelo://app?vid=920630fb-a7b1-4001-89fc-a27c15349855"},"vehicle_type_id":"4","last_reported":1752070225,"current_range_meters":7200,"station_id":"ce4bhbh2rcd13ifvqeo0","pricing_plan_id":"cebpf4jnsgd1na2vs0mg"},{"bike_id":"6e64342f-f95b-4867-958a-473ee8e12701","system_id":"levelo_inurba_marseille","lat":43.28154,"lon":5.42645,"is_reserved":false,"is_disabled":false,"rental_uris":{"android":"levelo://app?vid=6e64342f-f95b-4867-958a-473ee8e12701","ios":"levelo://app?vid=6e64342f-f95b-4867-958a-473ee8e12701"},"vehicle_type_id":"4","last_reported":1752070225,"current_range_meters":7200,"station_id":"ce4bhnh2rcd13ifvqgug","pricing_plan_id":"cebpf4jnsgd1na2vs0mg"},{"bike_id":"888522e3-39b6-4ff3-ad74-ff6c6f771157","system_id":"levelo_inurba_marseille","lat":43.29478,"lon":5.40353,"is_reserved":false,"is_disabled":false,"rental_uris":{"android":"levelo://app?vid=888522e3-39b6-4ff3-ad74-ff6c6f771157","ios":"levelo://app?vid=888522e3-39b6-4ff3-ad74-ff6c6f771157"},"vehicle_type_id":"4","last_reported":1752070225,"current_range_meters":8000,"station_id":"","pricing_plan_id":"cebpf4jnsgd1na2vs0mg"},{"bike_id":"337358c9-7426-47f4-a667-22b7c8eaee81","system_id":"levelo_inurba_marseille","lat":43.28269,"lon":5.35072,"is_reserved":false,"is_disabled":false,"rental_uris":{"android":"levelo://app?vid=337358c9-7426-47f4-a667-22b7c8eaee81","ios":"levelo://app?vid=337358c9-7426-47f4-a667-22b7c8eaee81"},"vehicle_type_id":"4","last_reported":1752070225,"current_range_meters":8000,"station_id":"ce4bhbp2rcd13ifvqerg","pricing_plan_id":"cebpf4jnsgd1na2vs0mg"},{"bike_id":"2fb0ccde-fee6-42b4-bd42-d85a203b5942","system_id":"levelo_inurba_marseille","lat":43.304413,"lon":5.388919,"is_reserved":false,"is_disabled":false,"rental_uris":{"android":"levelo://app?vid=2fb0ccde-fee6-42b4-bd42-d85a203b5942","ios":"levelo://app?vid=2fb0ccde-fee6-42b4-bd42-d85a203b5942"},"vehicle_type_id":"4","last_reported":1752070225,"current_range_meters":8400,"station_id":"ce4bgk12rcd13ifvqbi0","pricing_plan_id":"cebpf4jnsgd1na2vs0mg"},{"bike_id":"fefa17ff-1394-4f62-8630-506f7f725f16","system_id":"levelo_inurba_marseille","lat":43.30546,"lon":5.36549,"is_reserved":false,"is_disabled":false,"rental_uris":{"android":"levelo://app?vid=fefa17ff-1394-4f62-8630-506f7f725f16","ios":"levelo://app?vid=fefa17ff-1394-4f62-8630-506f7f725f16"},"vehicle_type_id":"4","last_reported":1752070225,"current_range_meters":8400,"station_id":"ce4bgs12rcd13ifvqcag","pricing_plan_id":"cebpf4jnsgd1na2vs0mg"},{"bike_id":"61b6f433-7585-426b-9e2a-82163e50b46d","system_id":"levelo_inurba_marseille","lat":43.26198,"lon":5.37932,"is_reserved":false,"is_disabled":false,"rental_uris":{"android":"levelo://app?vid=61b6f433-7585-426b-9e2a-82163e50b46d","ios":"levelo://app?vid=61b6f433-7585-426b-9e2a-82163e50b46d"},"vehicle_type_id":"4","last_reported":1752070225,"current_range_meters":8400,"station_id":"ce4bhjp2rcd13ifvqg90","pricing_plan_id":"cebpf4jnsgd1na2vs0mg"},{"bike_id":"8d355ab6-4461-49e0-aadf-54d1296aa083","system_id":"levelo_inurba_marseille","lat":43.21746,"lon":5.34605,"is_reserved":false,"is_disabled":false,"rental_uris":{"android":"levelo://app?vid=8d355ab6-4461-49e0-aadf-54d1296aa083","ios":"levelo://app?vid=8d355ab6-4461-49e0-aadf-54d1296aa083"},"vehicle_type_id":"4","last_reported":1752070225,"current_range_meters":8400,"station_id":"st_cvj6r9ubvosntc0bgbag","pricing_plan_id":"cebpf4jnsgd1na2vs0mg"},{"bike_id":"069759f3-8488-4973-b337-5e447fc27e24","system_id":"levelo_inurba_marseille","lat":43.21208,"lon":5.35058,"is_reserved":false,"is_disabled":false,"rental_uris":{"android":"levelo://app?vid=069759f3-8488-4973-b337-5e447fc27e24","ios":"levelo://app?vid=069759f3-8488-4973-b337-5e447fc27e24"},"vehicle_type_id":"4","last_reported":1752070225,"current_range_meters":8400,"station_id":"st_cvj6sg6p6f1abm77japg","pricing_plan_id":"cebpf4jnsgd1na2vs0mg"},{"bike_id":"863fb984-178a-4660-a75d-810d3f4ad72c","system_id":"levelo_inurba_marseille","lat":43.26786,"lon":5.39413,"is_reserved":false,"is_disabled":false,"rental_uris":{"android":"levelo://app?vid=863fb984-178a-4660-a75d-810d3f4ad72c","ios":"levelo://app?vid=863fb984-178a-4660-a75d-810d3f4ad72c"},"vehicle_type_id":"4","last_reported":1752070225,"current_range_meters":8800,"station_id":"ce4bhh12rcd13ifvqfg0","pricing_plan_id":"cebpf4jnsgd1na2vs0mg"},{"bike_id":"c6d7a583-2dc0-4bd2-9bd7-35dac4d7787d","system_id":"levelo_inurba_marseille","lat":43.26565,"lon":5.3901,"is_reserved":false,"is_disabled":false,"rental_uris":{"android":"levelo://app?vid=c6d7a583-2dc0-4bd2-9bd7-35dac4d7787d","ios":"levelo://app?vid=c6d7a583-2dc0-4bd2-9bd7-35dac4d7787d"},"vehicle_type_id":"4","last_reported":1752070225,"current_range_meters":9200,"station_id":"ce4bhe12rcd13ifvqf30","pricing_plan_id":"cebpf4jnsgd1na2vs0mg"},{"bike_id":"c892e348-beb6-425c-b800-690c68cbec7c","system_id":"levelo_inurba_marseille","lat":43.23056,"lon":5.35488,"is_reserved":false,"is_disabled":false,"rental_uris":{"android":"levelo://app?vid=c892e348-beb6-425c-b800-690c68cbec7c","ios":"levelo://app?vid=c892e348-beb6-425c-b800-690c68cbec7c"},"vehicle_type_id":"4","last_reported":1752070225,"current_range_meters":9200,"station_id":"cpo3342slgdg3j2ifvpg","pricing_plan_id":"cebpf4jnsgd1na2vs0mg"},{"bike_id":"2c951ef5-d405-4594-bbf6-f11f93edd07b","system_id":"levelo_inurba_marseille","lat":43.23056,"lon":5.3549,"is_reserved":false,"is_disabled":false,"rental_uris":{"android":"levelo://app?vid=2c951ef5-d405-4594-bbf6-f11f93edd07b","ios":"levelo://app?vid=2c951ef5-d405-4594-bbf6-f11f93edd07b"},"vehicle_type_id":"4","last_reported":1752070225,"current_range_meters":9200,"station_id":"cpo3342slgdg3j2ifvpg","pricing_plan_id":"cebpf4jnsgd1na2vs0mg"},{"bike_id":"3030cb07-c041-4d87-a253-8c849c24aa85","system_id":"levelo_inurba_marseille","lat":43.32638,"lon":5.36223,"is_reserved":false,"is_disabled":false,"rental_uris":{"android":"levelo://app?vid=3030cb07-c041-4d87-a253-8c849c24aa85","ios":"levelo://app?vid=3030cb07-c041-4d87-a253-8c849c24aa85"},"vehicle_type_id":"4","last_reported":1752070225,"current_range_meters":9600,"station_id":"","pricing_plan_id":"cebpf4jnsgd1na2vs0mg"},{"bike_id":"424fd8d5-b890-4af3-a856-0e4624d18a3b","system_id":"levelo_inurba_marseille","lat":43.28239,"lon":5.35106,"is_reserved":false,"is_disabled":false,"rental_uris":{"android":"levelo://app?vid=424fd8d5-b890-4af3-a856-0e4624d18a3b","ios":"levelo://app?vid=424fd8d5-b890-4af3-a856-0e4624d18a3b"},"vehicle_type_id":"4","last_reported":1752070225,"current_range_meters":9600,"station_id":"","pricing_plan_id":"cebpf4jnsgd1na2vs0mg"},{"bike_id":"34362c78-5857-41fc-9092-ba9515427de2","system_id":"levelo_inurba_marseille","lat":43.30129,"lon":5.38083,"is_reserved":false,"is_disabled":false,"rental_uris":{"android":"levelo://app?vid=34362c78-5857-41fc-9092-ba9515427de2","ios":"levelo://app?vid=34362c78-5857-41fc-9092-ba9515427de2"},"vehicle_type_id":"4","last_reported":1752070225,"current_range_meters":9600,"station_id":"ce4bgjp2rcd13ifvqbh0","pricing_plan_id":"cebpf4jnsgd1na2vs0mg"},{"bike_id":"3e40b58f-85e7-4016-8fdf-0e1afcab36f8","system_id":"levelo_inurba_marseille","lat":43.2861,"lon":5.35093,"is_reserved":false,"is_disabled":false,"rental_uris":{"android":"levelo://app?vid=3e40b58f-85e7-4016-8fdf-0e1afcab36f8","ios":"levelo://app?vid=3e40b58f-85e7-4016-8fdf-0e1afcab36f8"},"vehicle_type_id":"4","last_reported":1752070225,"current_range_meters":9600,"station_id":"ce4bhch2rcd13ifvqeug","pricing_plan_id":"cebpf4jnsgd1na2vs0mg"},{"bike_id":"7d933cef-15cf-47fc-812c-894d3d9bd172","system_id":"levelo_inurba_marseille","lat":43.217465,"lon":5.346028,"is_reserved":false,"is_disabled":false,"rental_uris":{"android":"levelo://app?vid=7d933cef-15cf-47fc-812c-894d3d9bd172","ios":"levelo://app?vid=7d933cef-15cf-47fc-812c-894d3d9bd172"},"vehicle_type_id":"4","last_reported":1752070225,"current_range_meters":9600,"station_id":"st_cvj6r9ubvosntc0bgbag","pricing_plan_id":"cebpf4jnsgd1na2vs0mg"},{"bike_id":"20904a9f-6955-47a0-a760-4d70dd099470","system_id":"levelo_inurba_marseille","lat":43.337612,"lon":5.37426,"is_reserved":false,"is_disabled":false,"rental_uris":{"android":"levelo://app?vid=20904a9f-6955-47a0-a760-4d70dd099470","ios":"levelo://app?vid=20904a9f-6955-47a0-a760-4d70dd099470"},"vehicle_type_id":"4","last_reported":1752070225,"current_range_meters":10000,"station_id":"","pricing_plan_id":"cebpf4jnsgd1na2vs0mg"},{"bike_id":"87c2d236-4978-4760-be77-27d7f5a212e4","system_id":"levelo_inurba_marseille","lat":43.29644,"lon":5.36205,"is_reserved":false,"is_disabled":false,"rental_uris":{"android":"levelo://app?vid=87c2d236-4978-4760-be77-27d7f5a212e4","ios":"levelo://app?vid=87c2d236-4978-4760-be77-27d7f5a212e4"},"vehicle_type_id":"4","last_reported":1752070225,"current_range_meters":10000,"station_id":"","pricing_plan_id":"cebpf4jnsgd1na2vs0mg"},{"bike_id":"3bd8b8a3-512e-4c45-8839-c2f9349ff4ec","system_id":"levelo_inurba_marseille","lat":43.21755,"lon":5.34595,"is_reserved":false,"is_disabled":false,"rental_uris":{"android":"levelo://app?vid=3bd8b8a3-512e-4c45-8839-c2f9349ff4ec","ios":"levelo://app?vid=3bd8b8a3-512e-4c45-8839-c2f9349ff4ec"},"vehicle_type_id":"4","last_reported":1752070225,"current_range_meters":10800,"station_id":"","pricing_plan_id":"cebpf4jnsgd1na2vs0mg"},{"bike_id":"6174e28a-bf57-419b-9c38-5c00bbe4e747","system_id":"levelo_inurba_marseille","lat":43.293692,"lon":5.378519,"is_reserved":false,"is_disabled":false,"rental_uris":{"android":"levelo://app?vid=6174e28a-bf57-419b-9c38-5c00bbe4e747","ios":"levelo://app?vid=6174e28a-bf57-419b-9c38-5c00bbe4e747"},"vehicle_type_id":"4","last_reported":1752070225,"current_range_meters":10800,"station_id":"ce4bgjh2rcd13ifvqbf0","pricing_plan_id":"cebpf4jnsgd1na2vs0mg"},{"bike_id":"100b0bee-95a8-43ec-bd46-adb2cb8b3045","system_id":"levelo_inurba_marseille","lat":43.29228,"lon":5.36062,"is_reserved":false,"is_disabled":false,"rental_uris":{"android":"levelo://app?vid=100b0bee-95a8-43ec-bd46-adb2cb8b3045","ios":"levelo://app?vid=100b0bee-95a8-43ec-bd46-adb2cb8b3045"},"vehicle_type_id":"4","last_reported":1752070225,"current_range_meters":10800,"station_id":"ce4bhbh2rcd13ifvqeqg","pricing_plan_id":"cebpf4jnsgd1na2vs0mg"},{"bike_id":"21f48aa6-87d1-4fe1-94ec-548f150d3249","system_id":"levelo_inurba_marseille","lat":43.24392,"lon":5.37065,"is_reserved":false,"is_disabled":false,"rental_uris":{"android":"levelo://app?vid=21f48aa6-87d1-4fe1-94ec-548f150d3249","ios":"levelo://app?vid=21f48aa6-87d1-4fe1-94ec-548f150d3249"},"vehicle_type_id":"4","last_reported":1752070225,"current_range_meters":10800,"station_id":"ce4bhhh2rcd13ifvqfk0","pricing_plan_id":"cebpf4jnsgd1na2vs0mg"},{"bike_id":"6102e954-589d-45cc-8e64-606d04f419ad","system_id":"levelo_inurba_marseille","lat":43.2781,"lon":5.40721,"is_reserved":false,"is_disabled":false,"rental_uris":{"android":"levelo://app?vid=6102e954-589d-45cc-8e64-606d04f419ad","ios":"levelo://app?vid=6102e954-589d-45cc-8e64-606d04f419ad"},"vehicle_type_id":"4","last_reported":1752070225,"current_range_meters":10800,"station_id":"ce4bhnh2rcd13ifvqgtg","pricing_plan_id":"cebpf4jnsgd1na2vs0mg"},{"bike_id":"62bfad8f-6dc3-4317-9f05-2cc8b8db49d7","system_id":"levelo_inurba_marseille","lat":43.23055,"lon":5.3549,"is_reserved":false,"is_disabled":false,"rental_uris":{"android":"levelo://app?vid=62bfad8f-6dc3-4317-9f05-2cc8b8db49d7","ios":"levelo://app?vid=62bfad8f-6dc3-4317-9f05-2cc8b8db49d7"},"vehicle_type_id":"4","last_reported":1752070225,"current_range_meters":10800,"station_id":"cpo3342slgdg3j2ifvpg","pricing_plan_id":"cebpf4jnsgd1na2vs0mg"},{"bike_id":"8aa56a6a-b6ff-4a94-9380-680f03852d53","system_id":"levelo_inurba_marseille","lat":43.337699,"lon":5.374282,"is_reserved":false,"is_disabled":false,"rental_uris":{"android":"levelo://app?vid=8aa56a6a-b6ff-4a94-9380-680f03852d53","ios":"levelo://app?vid=8aa56a6a-b6ff-4a94-9380-680f03852d53"},"vehicle_type_id":"4","last_reported":1752070225,"current_range_meters":11200,"station_id":"","pricing_plan_id":"cebpf4jnsgd1na2vs0mg"},{"bike_id":"175ae12e-2b99-4e6f-a8a9-b0b902b80187","system_id":"levelo_inurba_marseille","lat":43.29524,"lon":5.38542,"is_reserved":false,"is_disabled":false,"rental_uris":{"android":"levelo://app?vid=175ae12e-2b99-4e6f-a8a9-b0b902b80187","ios":"levelo://app?vid=175ae12e-2b99-4e6f-a8a9-b0b902b80187"},"vehicle_type_id":"4","last_reported":1752070225,"current_range_meters":11200,"station_id":"ce4bgih2rcd13ifvqba0","pricing_plan_id":"cebpf4jnsgd1na2vs0mg"},{"bike_id":"1d72a0ab-907f-4077-a695-d177243a8b71","system_id":"levelo_inurba_marseille","lat":43.304586,"lon":5.379061,"is_reserved":false,"is_disabled":false,"rental_uris":{"android":"levelo://app?vid=1d72a0ab-907f-4077-a695-d177243a8b71","ios":"levelo://app?vid=1d72a0ab-907f-4077-a695-d177243a8b71"},"vehicle_type_id":"4","last_reported":1752070225,"current_range_meters":11200,"station_id":"ce4bgup2rcd13ifvqcn0","pricing_plan_id":"cebpf4jnsgd1na2vs0mg"},{"bike_id":"f397b423-8a69-4d9b-91f8-0423ccd8fab7","system_id":"levelo_inurba_marseille","lat":43.29263,"lon":5.3844,"is_reserved":false,"is_disabled":false,"rental_uris":{"android":"levelo://app?vid=f397b423-8a69-4d9b-91f8-0423ccd8fab7","ios":"levelo://app?vid=f397b423-8a69-4d9b-91f8-0423ccd8fab7"},"vehicle_type_id":"4","last_reported":1752070225,"current_range_meters":11200,"station_id":"ce4bh692rcd13ifvqea0","pricing_plan_id":"cebpf4jnsgd1na2vs0mg"},{"bike_id":"34775ba0-ef64-446b-a197-fa80cd394d2b","system_id":"levelo_inurba_marseille","lat":43.21206,"lon":5.35069,"is_reserved":false,"is_disabled":false,"rental_uris":{"android":"levelo://app?vid=34775ba0-ef64-446b-a197-fa80cd394d2b","ios":"levelo://app?vid=34775ba0-ef64-446b-a197-fa80cd394d2b"},"vehicle_type_id":"4","last_reported":1752070225,"current_range_meters":11200,"station_id":"st_cvj6sg6p6f1abm77japg","pricing_plan_id":"cebpf4jnsgd1na2vs0mg"},{"bike_id":"67a45585-930f-4a51-b5c7-db1585564219","system_id":"levelo_inurba_marseille","lat":43.29608,"lon":5.36968,"is_reserved":false,"is_disabled":false,"rental_uris":{"android":"levelo://app?vid=67a45585-930f-4a51-b5c7-db1585564219","ios":"levelo://app?vid=67a45585-930f-4a51-b5c7-db1585564219"},"vehicle_type_id":"4","last_reported":1752070225,"current_range_meters":11600,"station_id":"","pricing_plan_id":"cebpf4jnsgd1na2vs0mg"},{"bike_id":"b3b8ac4b-7bd3-47bd-b34e-dcd7a6a70eb8","system_id":"levelo_inurba_marseille","lat":43.30183,"lon":5.36619,"is_reserved":false,"is_disabled":false,"rental_uris":{"android":"levelo://app?vid=b3b8ac4b-7bd3-47bd-b34e-dcd7a6a70eb8","ios":"levelo://app?vid=b3b8ac4b-7bd3-47bd-b34e-dcd7a6a70eb8"},"vehicle_type_id":"4","last_reported":1752070225,"current_range_meters":11600,"station_id":"ce4bgrh2rcd13ifvqc8g","pricing_plan_id":"cebpf4jnsgd1na2vs0mg"},{"bike_id":"dbbaec9a-9559-44c4-878c-dc0f3c456f91","system_id":"levelo_inurba_marseille","lat":43.29593,"lon":5.3741,"is_reserved":false,"is_disabled":false,"rental_uris":{"android":"levelo://app?vid=dbbaec9a-9559-44c4-878c-dc0f3c456f91","ios":"levelo://app?vid=dbbaec9a-9559-44c4-878c-dc0f3c456f91"},"vehicle_type_id":"4","last_reported":1752070225,"current_range_meters":12000,"station_id":"","pricing_plan_id":"cebpf4jnsgd1na2vs0mg"},{"bike_id":"840281e7-03cf-4e27-8ab0-ed5dcfb45157","system_id":"levelo_inurba_marseille","lat":43.31484,"lon":5.37291,"is_reserved":false,"is_disabled":false,"rental_uris":{"android":"levelo://app?vid=840281e7-03cf-4e27-8ab0-ed5dcfb45157","ios":"levelo://app?vid=840281e7-03cf-4e27-8ab0-ed5dcfb45157"},"vehicle_type_id":"4","last_reported":1752070225,"current_range_meters":12000,"station_id":"ce4bgt12rcd13ifvqcd0","pricing_plan_id":"cebpf4jnsgd1na2vs0mg"},{"bike_id":"ba958952-a520-4602-8ca0-f28ce7d4c533","system_id":"levelo_inurba_marseille","lat":43.28436,"lon":5.3499,"is_reserved":false,"is_disabled":false,"rental_uris":{"android":"levelo://app?vid=ba958952-a520-4602-8ca0-f28ce7d4c533","ios":"levelo://app?vid=ba958952-a520-4602-8ca0-f28ce7d4c533"},"vehicle_type_id":"4","last_reported":1752070225,"current_range_meters":12000,"station_id":"ce4bhbh2rcd13ifvqepg","pricing_plan_id":"cebpf4jnsgd1na2vs0mg"},{"bike_id":"84e7e709-4e4f-4764-818c-af719435bfca","system_id":"levelo_inurba_marseille","lat":43.31785,"lon":5.37427,"is_reserved":false,"is_disabled":false,"rental_uris":{"android":"levelo://app?vid=84e7e709-4e4f-4764-818c-af719435bfca","ios":"levelo://app?vid=84e7e709-4e4f-4764-818c-af719435bfca"},"vehicle_type_id":"4","last_reported":1752070225,"current_range_meters":12400,"station_id":"","pricing_plan_id":"cebpf4jnsgd1na2vs0mg"},{"bike_id":"65f55337-9327-449d-a146-06c32dcb9cb2","system_id":"levelo_inurba_marseille","lat":43.27616,"lon":5.36103,"is_reserved":false,"is_disabled":false,"rental_uris":{"android":"levelo://app?vid=65f55337-9327-449d-a146-06c32dcb9cb2","ios":"levelo://app?vid=65f55337-9327-449d-a146-06c32dcb9cb2"},"vehicle_type_id":"4","last_reported":1752070225,"current_range_meters":12400,"station_id":"ce4bgj92rcd13ifvqbe0","pricing_plan_id":"cebpf4jnsgd1na2vs0mg"},{"bike_id":"a5a1db4c-4dcc-46e5-a84f-c0fb8283b97a","system_id":"levelo_inurba_marseille","lat":43.24078,"lon":5.37764,"is_reserved":false,"is_disabled":false,"rental_uris":{"android":"levelo://app?vid=a5a1db4c-4dcc-46e5-a84f-c0fb8283b97a","ios":"levelo://app?vid=a5a1db4c-4dcc-46e5-a84f-c0fb8283b97a"},"vehicle_type_id":"4","last_reported":1752070225,"current_range_meters":12400,"station_id":"ce4bhnp2rcd13ifvqgvg","pricing_plan_id":"cebpf4jnsgd1na2vs0mg"},{"bike_id":"3e0f5894-9fc8-40ae-b9de-dad1f791055a","system_id":"levelo_inurba_marseille","lat":43.26554,"lon":5.37305,"is_reserved":false,"is_disabled":false,"rental_uris":{"android":"levelo://app?vid=3e0f5894-9fc8-40ae-b9de-dad1f791055a","ios":"levelo://app?vid=3e0f5894-9fc8-40ae-b9de-dad1f791055a"},"vehicle_type_id":"4","last_reported":1752070225,"current_range_meters":12800,"station_id":"ce4bhg12rcd13ifvqf70","pricing_plan_id":"cebpf4jnsgd1na2vs0mg"},{"bike_id":"bdd9c795-48e2-4a81-b99d-144a3f6d371c","system_id":"levelo_inurba_marseille","lat":43.26781,"lon":5.39418,"is_reserved":false,"is_disabled":false,"rental_uris":{"android":"levelo://app?vid=bdd9c795-48e2-4a81-b99d-144a3f6d371c","ios":"levelo://app?vid=bdd9c795-48e2-4a81-b99d-144a3f6d371c"},"vehicle_type_id":"4","last_reported":1752070225,"current_range_meters":12800,"station_id":"ce4bhh12rcd13ifvqfg0","pricing_plan_id":"cebpf4jnsgd1na2vs0mg"},{"bike_id":"34b55799-542c-46b7-822d-1daf5f1fbae9","system_id":"levelo_inurba_marseille","lat":43.24187,"lon":5.39704,"is_reserved":false,"is_disabled":false,"rental_uris":{"android":"levelo://app?vid=34b55799-542c-46b7-822d-1daf5f1fbae9","ios":"levelo://app?vid=34b55799-542c-46b7-822d-1daf5f1fbae9"},"vehicle_type_id":"4","last_reported":1752070225,"current_range_meters":12800,"station_id":"ce4bhn12rcd13ifvqgpg","pricing_plan_id":"cebpf4jnsgd1na2vs0mg"},{"bike_id":"5f03cf09-d9cf-4458-b4ea-3c6089b3cb24","system_id":"levelo_inurba_marseille","lat":43.32482,"lon":5.36566,"is_reserved":false,"is_disabled":false,"rental_uris":{"android":"levelo://app?vid=5f03cf09-d9cf-4458-b4ea-3c6089b3cb24","ios":"levelo://app?vid=5f03cf09-d9cf-4458-b4ea-3c6089b3cb24"},"vehicle_type_id":"4","last_reported":1752070225,"current_range_meters":12800,"station_id":"ce4bhs12rcd13ifvqhvg","pricing_plan_id":"cebpf4jnsgd1na2vs0mg"},{"bike_id":"644de9ba-9fde-4bed-a981-dd76b3cb6b40","system_id":"levelo_inurba_marseille","lat":43.239572,"lon":5.366596,"is_reserved":false,"is_disabled":false,"rental_uris":{"android":"levelo://app?vid=644de9ba-9fde-4bed-a981-dd76b3cb6b40","ios":"levelo://app?vid=644de9ba-9fde-4bed-a981-dd76b3cb6b40"},"vehicle_type_id":"4","last_reported":1752070225,"current_range_meters":13600,"station_id":"ce4bhi12rcd13ifvqfp0","pricing_plan_id":"cebpf4jnsgd1na2vs0mg"},{"bike_id":"ac39d365-5643-4610-bf4b-0e5167a77f88","system_id":"levelo_inurba_marseille","lat":43.33724,"lon":5.39186,"is_reserved":false,"is_disabled":false,"rental_uris":{"android":"levelo://app?vid=ac39d365-5643-4610-bf4b-0e5167a77f88","ios":"levelo://app?vid=ac39d365-5643-4610-bf4b-0e5167a77f88"},"vehicle_type_id":"4","last_reported":1752070225,"current_range_meters":13600,"station_id":"ce4bhr92rcd13ifvqhsg","pricing_plan_id":"cebpf4jnsgd1na2vs0mg"},{"bike_id":"c514ad25-b83c-4d10-a595-57ae5a32aef4","system_id":"levelo_inurba_marseille","lat":43.22929,"lon":5.35377,"is_reserved":false,"is_disabled":false,"rental_uris":{"android":"levelo://app?vid=c514ad25-b83c-4d10-a595-57ae5a32aef4","ios":"levelo://app?vid=c514ad25-b83c-4d10-a595-57ae5a32aef4"},"vehicle_type_id":"4","last_reported":1752070225,"current_range_meters":13600,"station_id":"cpo3532slgdg3j2ikp40","pricing_plan_id":"cebpf4jnsgd1na2vs0mg"},{"bike_id":"f573a8fb-f1f8-47c4-901e-ddf2739a5cca","system_id":"levelo_inurba_marseille","lat":43.360015,"lon":5.324893,"is_reserved":false,"is_disabled":false,"rental_uris":{"android":"levelo://app?vid=f573a8fb-f1f8-47c4-901e-ddf2739a5cca","ios":"levelo://app?vid=f573a8fb-f1f8-47c4-901e-ddf2739a5cca"},"vehicle_type_id":"4","last_reported":1752070225,"current_range_meters":14000,"station_id":"","pricing_plan_id":"cebpf4jnsgd1na2vs0mg"},{"bike_id":"c2b72fe0-bae6-4c7b-ad48-9e771b203dc8","system_id":"levelo_inurba_marseille","lat":43.31363,"lon":5.384702,"is_reserved":false,"is_disabled":false,"rental_uris":{"android":"levelo://app?vid=c2b72fe0-bae6-4c7b-ad48-9e771b203dc8","ios":"levelo://app?vid=c2b72fe0-bae6-4c7b-ad48-9e771b203dc8"},"vehicle_type_id":"4","last_reported":1752070225,"current_range_meters":14000,"station_id":"ce4bgt92rcd13ifvqcf0","pricing_plan_id":"cebpf4jnsgd1na2vs0mg"},{"bike_id":"4975b22d-8c48-452f-bd19-7a9d3ed7c378","system_id":"levelo_inurba_marseille","lat":43.29676,"lon":5.37424,"is_reserved":false,"is_disabled":false,"rental_uris":{"android":"levelo://app?vid=4975b22d-8c48-452f-bd19-7a9d3ed7c378","ios":"levelo://app?vid=4975b22d-8c48-452f-bd19-7a9d3ed7c378"},"vehicle_type_id":"4","last_reported":1752070225,"current_range_meters":14400,"station_id":"","pricing_plan_id":"cebpf4jnsgd1na2vs0mg"},{"bike_id":"ba628b00-7b7a-4379-bb44-09eb44ca59c9","system_id":"levelo_inurba_marseille","lat":43.243887,"lon":5.370707,"is_reserved":false,"is_disabled":false,"rental_uris":{"android":"levelo://app?vid=ba628b00-7b7a-4379-bb44-09eb44ca59c9","ios":"levelo://app?vid=ba628b00-7b7a-4379-bb44-09eb44ca59c9"},"vehicle_type_id":"4","last_reported":1752070225,"current_range_meters":14400,"station_id":"ce4bhhh2rcd13ifvqfk0","pricing_plan_id":"cebpf4jnsgd1na2vs0mg"},{"bike_id":"878331b6-4dbd-4828-a6d5-4c5b511244d4","system_id":"levelo_inurba_marseille","lat":43.21741,"lon":5.34605,"is_reserved":false,"is_disabled":false,"rental_uris":{"android":"levelo://app?vid=878331b6-4dbd-4828-a6d5-4c5b511244d4","ios":"levelo://app?vid=878331b6-4dbd-4828-a6d5-4c5b511244d4"},"vehicle_type_id":"4","last_reported":1752070225,"current_range_meters":14800,"station_id":"st_cvj6r9ubvosntc0bgbag","pricing_plan_id":"cebpf4jnsgd1na2vs0mg"},{"bike_id":"b6d9b946-f66a-4c6f-96e5-5d23e176360c","system_id":"levelo_inurba_marseille","lat":43.31315,"lon":5.38172,"is_reserved":false,"is_disabled":false,"rental_uris":{"android":"levelo://app?vid=b6d9b946-f66a-4c6f-96e5-5d23e176360c","ios":"levelo://app?vid=b6d9b946-f66a-4c6f-96e5-5d23e176360c"},"vehicle_type_id":"4","last_reported":1752070225,"current_range_meters":15200,"station_id":"","pricing_plan_id":"cebpf4jnsgd1na2vs0mg"},{"bike_id":"b2caa530-bb19-4cc6-a6bd-61e3e1d7432e","system_id":"levelo_inurba_marseille","lat":43.33763,"lon":5.37461,"is_reserved":false,"is_disabled":false,"rental_uris":{"android":"levelo://app?vid=b2caa530-bb19-4cc6-a6bd-61e3e1d7432e","ios":"levelo://app?vid=b2caa530-bb19-4cc6-a6bd-61e3e1d7432e"},"vehicle_type_id":"4","last_reported":1752070225,"current_range_meters":15200,"station_id":"","pricing_plan_id":"cebpf4jnsgd1na2vs0mg"},{"bike_id":"8b52e051-4e83-4103-a98d-28f12690ba46","system_id":"levelo_inurba_marseille","lat":43.30519,"lon":5.39478,"is_reserved":false,"is_disabled":false,"rental_uris":{"android":"levelo://app?vid=8b52e051-4e83-4103-a98d-28f12690ba46","ios":"levelo://app?vid=8b52e051-4e83-4103-a98d-28f12690ba46"},"vehicle_type_id":"4","last_reported":1752070225,"current_range_meters":15200,"station_id":"","pricing_plan_id":"cebpf4jnsgd1na2vs0mg"},{"bike_id":"7dc48cb7-b742-4446-8d3e-f56bc6d6cf97","system_id":"levelo_inurba_marseille","lat":43.26206,"lon":5.37461,"is_reserved":false,"is_disabled":false,"rental_uris":{"android":"levelo://app?vid=7dc48cb7-b742-4446-8d3e-f56bc6d6cf97","ios":"levelo://app?vid=7dc48cb7-b742-4446-8d3e-f56bc6d6cf97"},"vehicle_type_id":"4","last_reported":1752070225,"current_range_meters":15200,"station_id":"ce4bhgp2rcd13ifvqfc0","pricing_plan_id":"cebpf4jnsgd1na2vs0mg"},{"bike_id":"680e7fe5-1fc7-41e4-be3a-7c68cd315ba3","system_id":"levelo_inurba_marseille","lat":43.25498,"lon":5.37663,"is_reserved":false,"is_disabled":false,"rental_uris":{"android":"levelo://app?vid=680e7fe5-1fc7-41e4-be3a-7c68cd315ba3","ios":"levelo://app?vid=680e7fe5-1fc7-41e4-be3a-7c68cd315ba3"},"vehicle_type_id":"4","last_reported":1752070225,"current_range_meters":15200,"station_id":"ce4bhh12rcd13ifvqff0","pricing_plan_id":"cebpf4jnsgd1na2vs0mg"},{"bike_id":"c0bd7319-3ad6-4195-ae03-3989aa8232df","system_id":"levelo_inurba_marseille","lat":43.287202,"lon":5.360885,"is_reserved":false,"is_disabled":false,"rental_uris":{"android":"levelo://app?vid=c0bd7319-3ad6-4195-ae03-3989aa8232df","ios":"levelo://app?vid=c0bd7319-3ad6-4195-ae03-3989aa8232df"},"vehicle_type_id":"4","last_reported":1752070225,"current_range_meters":15200,"station_id":"cki0cbj6b192h4jlfktg","pricing_plan_id":"cebpf4jnsgd1na2vs0mg"},{"bike_id":"8eaf9cfc-2ad3-4ac7-9ebb-d0ed42c26594","system_id":"levelo_inurba_marseille","lat":43.22923,"lon":5.35383,"is_reserved":false,"is_disabled":false,"rental_uris":{"android":"levelo://app?vid=8eaf9cfc-2ad3-4ac7-9ebb-d0ed42c26594","ios":"levelo://app?vid=8eaf9cfc-2ad3-4ac7-9ebb-d0ed42c26594"},"vehicle_type_id":"4","last_reported":1752070225,"current_range_meters":15200,"station_id":"cpo3532slgdg3j2ikp40","pricing_plan_id":"cebpf4jnsgd1na2vs0mg"},{"bike_id":"b757ffbb-2b71-4330-9f60-5f8a9d46d16e","system_id":"levelo_inurba_marseille","lat":43.29655,"lon":5.3712,"is_reserved":false,"is_disabled":false,"rental_uris":{"android":"levelo://app?vid=b757ffbb-2b71-4330-9f60-5f8a9d46d16e","ios":"levelo://app?vid=b757ffbb-2b71-4330-9f60-5f8a9d46d16e"},"vehicle_type_id":"4","last_reported":1752070225,"current_range_meters":16000,"station_id":"","pricing_plan_id":"cebpf4jnsgd1na2vs0mg"},{"bike_id":"93d6be08-2471-48d7-9948-c35dc9626201","system_id":"levelo_inurba_marseille","lat":43.31714,"lon":5.37647,"is_reserved":false,"is_disabled":false,"rental_uris":{"android":"levelo://app?vid=93d6be08-2471-48d7-9948-c35dc9626201","ios":"levelo://app?vid=93d6be08-2471-48d7-9948-c35dc9626201"},"vehicle_type_id":"4","last_reported":1752070225,"current_range_meters":16000,"station_id":"","pricing_plan_id":"cebpf4jnsgd1na2vs0mg"},{"bike_id":"f5c16f07-bc6f-4121-91a7-5ad90eec4f34","system_id":"levelo_inurba_marseille","lat":43.31197,"lon":5.3732,"is_reserved":false,"is_disabled":false,"rental_uris":{"android":"levelo://app?vid=f5c16f07-bc6f-4121-91a7-5ad90eec4f34","ios":"levelo://app?vid=f5c16f07-bc6f-4121-91a7-5ad90eec4f34"},"vehicle_type_id":"4","last_reported":1752070225,"current_range_meters":16000,"station_id":"","pricing_plan_id":"cebpf4jnsgd1na2vs0mg"},{"bike_id":"baf30b8c-ee23-432e-a136-ad07ae77374d","system_id":"levelo_inurba_marseille","lat":43.28259,"lon":5.35081,"is_reserved":false,"is_disabled":false,"rental_uris":{"android":"levelo://app?vid=baf30b8c-ee23-432e-a136-ad07ae77374d","ios":"levelo://app?vid=baf30b8c-ee23-432e-a136-ad07ae77374d"},"vehicle_type_id":"4","last_reported":1752070225,"current_range_meters":16000,"station_id":"ce4bhbp2rcd13ifvqerg","pricing_plan_id":"cebpf4jnsgd1na2vs0mg"},{"bike_id":"a5ade55b-5452-4494-b856-af187b8bde8f","system_id":"levelo_inurba_marseille","lat":43.26937,"lon":5.38919,"is_reserved":false,"is_disabled":false,"rental_uris":{"android":"levelo://app?vid=a5ade55b-5452-4494-b856-af187b8bde8f","ios":"levelo://app?vid=a5ade55b-5452-4494-b856-af187b8bde8f"},"vehicle_type_id":"4","last_reported":1752070225,"current_range_meters":16000,"station_id":"ce4bhhh2rcd13ifvqfl0","pricing_plan_id":"cebpf4jnsgd1na2vs0mg"},{"bike_id":"f0bd2572-4962-4887-8928-86453cd41467","system_id":"levelo_inurba_marseille","lat":43.27937,"lon":5.41045,"is_reserved":false,"is_disabled":false,"rental_uris":{"android":"levelo://app?vid=f0bd2572-4962-4887-8928-86453cd41467","ios":"levelo://app?vid=f0bd2572-4962-4887-8928-86453cd41467"},"vehicle_type_id":"4","last_reported":1752070225,"current_range_meters":16000,"station_id":"ce4bhnp2rcd13ifvqh0g","pricing_plan_id":"cebpf4jnsgd1na2vs0mg"},{"bike_id":"449ed129-2f06-47da-936f-6e63a3609258","system_id":"levelo_inurba_marseille","lat":43.23192,"lon":5.35548,"is_reserved":false,"is_disabled":false,"rental_uris":{"android":"levelo://app?vid=449ed129-2f06-47da-936f-6e63a3609258","ios":"levelo://app?vid=449ed129-2f06-47da-936f-6e63a3609258"},"vehicle_type_id":"4","last_reported":1752070225,"current_range_meters":16000,"station_id":"ce4bhu92rcd13ifvqi70","pricing_plan_id":"cebpf4jnsgd1na2vs0mg"},{"bike_id":"6e5c2657-ccb8-4153-8b94-2143bc427a03","system_id":"levelo_inurba_marseille","lat":43.22508,"lon":5.34769,"is_reserved":false,"is_disabled":false,"rental_uris":{"android":"levelo://app?vid=6e5c2657-ccb8-4153-8b94-2143bc427a03","ios":"levelo://app?vid=6e5c2657-ccb8-4153-8b94-2143bc427a03"},"vehicle_type_id":"4","last_reported":1752070225,"current_range_meters":16000,"station_id":"st_cvj5dfep6f1abm77gieg","pricing_plan_id":"cebpf4jnsgd1na2vs0mg"},{"bike_id":"b28aa0a0-791c-4a08-9a16-c7bf6ea0ed5a","system_id":"levelo_inurba_marseille","lat":43.22516,"lon":5.34777,"is_reserved":false,"is_disabled":false,"rental_uris":{"android":"levelo://app?vid=b28aa0a0-791c-4a08-9a16-c7bf6ea0ed5a","ios":"levelo://app?vid=b28aa0a0-791c-4a08-9a16-c7bf6ea0ed5a"},"vehicle_type_id":"4","last_reported":1752070225,"current_range_meters":16000,"station_id":"st_cvj5dfep6f1abm77gieg","pricing_plan_id":"cebpf4jnsgd1na2vs0mg"},{"bike_id":"1bc63c58-183e-4688-9173-e004e373962b","system_id":"levelo_inurba_marseille","lat":43.22977,"lon":5.35433,"is_reserved":false,"is_disabled":false,"rental_uris":{"android":"levelo://app?vid=1bc63c58-183e-4688-9173-e004e373962b","ios":"levelo://app?vid=1bc63c58-183e-4688-9173-e004e373962b"},"vehicle_type_id":"4","last_reported":1752070225,"current_range_meters":16400,"station_id":"","pricing_plan_id":"cebpf4jnsgd1na2vs0mg"},{"bike_id":"2297beef-6cc9-4d71-852c-a3839b25bcf3","system_id":"levelo_inurba_marseille","lat":43.30799,"lon":5.38155,"is_reserved":false,"is_disabled":false,"rental_uris":{"android":"levelo://app?vid=2297beef-6cc9-4d71-852c-a3839b25bcf3","ios":"levelo://app?vid=2297beef-6cc9-4d71-852c-a3839b25bcf3"},"vehicle_type_id":"4","last_reported":1752070225,"current_range_meters":16400,"station_id":"ce4bgt12rcd13ifvqce0","pricing_plan_id":"cebpf4jnsgd1na2vs0mg"},{"bike_id":"6d6cf5e3-590a-41ca-af58-82a804959938","system_id":"levelo_inurba_marseille","lat":43.27378,"lon":5.36251,"is_reserved":false,"is_disabled":false,"rental_uris":{"android":"levelo://app?vid=6d6cf5e3-590a-41ca-af58-82a804959938","ios":"levelo://app?vid=6d6cf5e3-590a-41ca-af58-82a804959938"},"vehicle_type_id":"4","last_reported":1752070225,"current_range_meters":16400,"station_id":"ce4bhbh2rcd13ifvqeo0","pricing_plan_id":"cebpf4jnsgd1na2vs0mg"},{"bike_id":"1be39311-cfa5-4cbb-b93d-fb0870d6e611","system_id":"levelo_inurba_marseille","lat":43.21196,"lon":5.35062,"is_reserved":false,"is_disabled":false,"rental_uris":{"android":"levelo://app?vid=1be39311-cfa5-4cbb-b93d-fb0870d6e611","ios":"levelo://app?vid=1be39311-cfa5-4cbb-b93d-fb0870d6e611"},"vehicle_type_id":"4","last_reported":1752070225,"current_range_meters":16400,"station_id":"st_cvj6sg6p6f1abm77japg","pricing_plan_id":"cebpf4jnsgd1na2vs0mg"},{"bike_id":"999f2a33-af15-4ca0-853a-d2550f2d6574","system_id":"levelo_inurba_marseille","lat":43.23437,"lon":5.35933,"is_reserved":false,"is_disabled":false,"rental_uris":{"android":"levelo://app?vid=999f2a33-af15-4ca0-853a-d2550f2d6574","ios":"levelo://app?vid=999f2a33-af15-4ca0-853a-d2550f2d6574"},"vehicle_type_id":"4","last_reported":1752070225,"current_range_meters":16800,"station_id":"","pricing_plan_id":"cebpf4jnsgd1na2vs0mg"},{"bike_id":"320f2a33-deaa-4e0a-a3d5-c39ce8ad680a","system_id":"levelo_inurba_marseille","lat":43.31566,"lon":5.37429,"is_reserved":false,"is_disabled":false,"rental_uris":{"android":"levelo://app?vid=320f2a33-deaa-4e0a-a3d5-c39ce8ad680a","ios":"levelo://app?vid=320f2a33-deaa-4e0a-a3d5-c39ce8ad680a"},"vehicle_type_id":"4","last_reported":1752070225,"current_range_meters":16800,"station_id":"","pricing_plan_id":"cebpf4jnsgd1na2vs0mg"},{"bike_id":"e1bf5d26-1e44-4447-82fc-7e624f3f00cb","system_id":"levelo_inurba_marseille","lat":43.313543,"lon":5.366835,"is_reserved":false,"is_disabled":false,"rental_uris":{"android":"levelo://app?vid=e1bf5d26-1e44-4447-82fc-7e624f3f00cb","ios":"levelo://app?vid=e1bf5d26-1e44-4447-82fc-7e624f3f00cb"},"vehicle_type_id":"4","last_reported":1752070225,"current_range_meters":16800,"station_id":"ce4bgr92rcd13ifvqc6g","pricing_plan_id":"cebpf4jnsgd1na2vs0mg"},{"bike_id":"94b68d8e-59de-4590-8d0f-8467df20d4f4","system_id":"levelo_inurba_marseille","lat":43.27055,"lon":5.40256,"is_reserved":false,"is_disabled":false,"rental_uris":{"android":"levelo://app?vid=94b68d8e-59de-4590-8d0f-8467df20d4f4","ios":"levelo://app?vid=94b68d8e-59de-4590-8d0f-8467df20d4f4"},"vehicle_type_id":"4","last_reported":1752070225,"current_range_meters":16800,"station_id":"ce4bhk92rcd13ifvqgc0","pricing_plan_id":"cebpf4jnsgd1na2vs0mg"},{"bike_id":"2dc1f5c8-26fe-4e87-bcea-d5f6d3c1c40c","system_id":"levelo_inurba_marseille","lat":43.3172,"lon":5.42411,"is_reserved":false,"is_disabled":false,"rental_uris":{"android":"levelo://app?vid=2dc1f5c8-26fe-4e87-bcea-d5f6d3c1c40c","ios":"levelo://app?vid=2dc1f5c8-26fe-4e87-bcea-d5f6d3c1c40c"},"vehicle_type_id":"4","last_reported":1752070225,"current_range_meters":16800,"station_id":"ce4bhp92rcd13ifvqhbg","pricing_plan_id":"cebpf4jnsgd1na2vs0mg"},{"bike_id":"a21a1ef5-4bf5-48f8-9c15-f46ff462ebe8","system_id":"levelo_inurba_marseille","lat":43.217463,"lon":5.346003,"is_reserved":false,"is_disabled":false,"rental_uris":{"android":"levelo://app?vid=a21a1ef5-4bf5-48f8-9c15-f46ff462ebe8","ios":"levelo://app?vid=a21a1ef5-4bf5-48f8-9c15-f46ff462ebe8"},"vehicle_type_id":"4","last_reported":1752070225,"current_range_meters":16800,"station_id":"st_cvj6r9ubvosntc0bgbag","pricing_plan_id":"cebpf4jnsgd1na2vs0mg"},{"bike_id":"cd1196aa-2423-4797-ac17-6f5a7a5c0564","system_id":"levelo_inurba_marseille","lat":43.31183,"lon":5.36912,"is_reserved":false,"is_disabled":false,"rental_uris":{"android":"levelo://app?vid=cd1196aa-2423-4797-ac17-6f5a7a5c0564","ios":"levelo://app?vid=cd1196aa-2423-4797-ac17-6f5a7a5c0564"},"vehicle_type_id":"4","last_reported":1752070225,"current_range_meters":17200,"station_id":"","pricing_plan_id":"cebpf4jnsgd1na2vs0mg"},{"bike_id":"a443e824-b364-4874-850c-3d51c9448eb3","system_id":"levelo_inurba_marseille","lat":43.30903,"lon":5.3687,"is_reserved":false,"is_disabled":false,"rental_uris":{"android":"levelo://app?vid=a443e824-b364-4874-850c-3d51c9448eb3","ios":"levelo://app?vid=a443e824-b364-4874-850c-3d51c9448eb3"},"vehicle_type_id":"4","last_reported":1752070225,"current_range_meters":17200,"station_id":"ce4bgn92rcd13ifvqbvg","pricing_plan_id":"cebpf4jnsgd1na2vs0mg"},{"bike_id":"17222f3c-ef4f-4b37-8451-ea33722200d9","system_id":"levelo_inurba_marseille","lat":43.30547,"lon":5.3654,"is_reserved":false,"is_disabled":false,"rental_uris":{"android":"levelo://app?vid=17222f3c-ef4f-4b37-8451-ea33722200d9","ios":"levelo://app?vid=17222f3c-ef4f-4b37-8451-ea33722200d9"},"vehicle_type_id":"4","last_reported":1752070225,"current_range_meters":17200,"station_id":"ce4bgs12rcd13ifvqcag","pricing_plan_id":"cebpf4jnsgd1na2vs0mg"},{"bike_id":"fb4bafe4-8c03-4ef5-908b-3865b097e079","system_id":"levelo_inurba_marseille","lat":43.31175,"lon":5.38717,"is_reserved":false,"is_disabled":false,"rental_uris":{"android":"levelo://app?vid=fb4bafe4-8c03-4ef5-908b-3865b097e079","ios":"levelo://app?vid=fb4bafe4-8c03-4ef5-908b-3865b097e079"},"vehicle_type_id":"4","last_reported":1752070225,"current_range_meters":17200,"station_id":"ce4bgv12rcd13ifvqcp0","pricing_plan_id":"cebpf4jnsgd1na2vs0mg"},{"bike_id":"b9aad953-9bed-4824-834b-f3f50fd8c58d","system_id":"levelo_inurba_marseille","lat":43.28389,"lon":5.34999,"is_reserved":false,"is_disabled":false,"rental_uris":{"android":"levelo://app?vid=b9aad953-9bed-4824-834b-f3f50fd8c58d","ios":"levelo://app?vid=b9aad953-9bed-4824-834b-f3f50fd8c58d"},"vehicle_type_id":"4","last_reported":1752070225,"current_range_meters":17200,"station_id":"ce4bhbh2rcd13ifvqepg","pricing_plan_id":"cebpf4jnsgd1na2vs0mg"},{"bike_id":"191da7b9-bed7-4843-89f5-6df19e076b49","system_id":"levelo_inurba_marseille","lat":43.28615,"lon":5.35124,"is_reserved":false,"is_disabled":false,"rental_uris":{"android":"levelo://app?vid=191da7b9-bed7-4843-89f5-6df19e076b49","ios":"levelo://app?vid=191da7b9-bed7-4843-89f5-6df19e076b49"},"vehicle_type_id":"4","last_reported":1752070225,"current_range_meters":17200,"station_id":"ce4bhch2rcd13ifvqeug","pricing_plan_id":"cebpf4jnsgd1na2vs0mg"},{"bike_id":"7b56f5f0-b0aa-4056-99d7-a54643916631","system_id":"levelo_inurba_marseille","lat":43.26677,"lon":5.38266,"is_reserved":false,"is_disabled":false,"rental_uris":{"android":"levelo://app?vid=7b56f5f0-b0aa-4056-99d7-a54643916631","ios":"levelo://app?vid=7b56f5f0-b0aa-4056-99d7-a54643916631"},"vehicle_type_id":"4","last_reported":1752070225,"current_range_meters":17200,"station_id":"ce4bhg92rcd13ifvqf90","pricing_plan_id":"cebpf4jnsgd1na2vs0mg"},{"bike_id":"04cbc2bc-938c-44f2-8257-1234a6e7a43c","system_id":"levelo_inurba_marseille","lat":43.23964,"lon":5.3663,"is_reserved":false,"is_disabled":false,"rental_uris":{"android":"levelo://app?vid=04cbc2bc-938c-44f2-8257-1234a6e7a43c","ios":"levelo://app?vid=04cbc2bc-938c-44f2-8257-1234a6e7a43c"},"vehicle_type_id":"4","last_reported":1752070225,"current_range_meters":17200,"station_id":"ce4bhi12rcd13ifvqfp0","pricing_plan_id":"cebpf4jnsgd1na2vs0mg"},{"bike_id":"08f0d7fb-aa28-426a-8d80-c22cf408ee7c","system_id":"levelo_inurba_marseille","lat":43.25939,"lon":5.409332,"is_reserved":false,"is_disabled":false,"rental_uris":{"android":"levelo://app?vid=08f0d7fb-aa28-426a-8d80-c22cf408ee7c","ios":"levelo://app?vid=08f0d7fb-aa28-426a-8d80-c22cf408ee7c"},"vehicle_type_id":"4","last_reported":1752070225,"current_range_meters":17200,"station_id":"ce4bhm92rcd13ifvqglg","pricing_plan_id":"cebpf4jnsgd1na2vs0mg"},{"bike_id":"7dd4258d-8fe1-466b-bba8-036a896c4262","system_id":"levelo_inurba_marseille","lat":43.23191,"lon":5.35547,"is_reserved":false,"is_disabled":false,"rental_uris":{"android":"levelo://app?vid=7dd4258d-8fe1-466b-bba8-036a896c4262","ios":"levelo://app?vid=7dd4258d-8fe1-466b-bba8-036a896c4262"},"vehicle_type_id":"4","last_reported":1752070225,"current_range_meters":17200,"station_id":"ce4bhu92rcd13ifvqi70","pricing_plan_id":"cebpf4jnsgd1na2vs0mg"},{"bike_id":"fe930d60-ba1a-47e2-bff4-6dc50e2c2dec","system_id":"levelo_inurba_marseille","lat":43.28462,"lon":5.38518,"is_reserved":false,"is_disabled":false,"rental_uris":{"android":"levelo://app?vid=fe930d60-ba1a-47e2-bff4-6dc50e2c2dec","ios":"levelo://app?vid=fe930d60-ba1a-47e2-bff4-6dc50e2c2dec"},"vehicle_type_id":"4","last_reported":1752070225,"current_range_meters":17600,"station_id":"ce4bh8p2rcd13ifvqeb0","pricing_plan_id":"cebpf4jnsgd1na2vs0mg"},{"bike_id":"50318759-7a5e-46a9-88ff-4229422dcb09","system_id":"levelo_inurba_marseille","lat":43.29177,"lon":5.35798,"is_reserved":false,"is_disabled":false,"rental_uris":{"android":"levelo://app?vid=50318759-7a5e-46a9-88ff-4229422dcb09","ios":"levelo://app?vid=50318759-7a5e-46a9-88ff-4229422dcb09"},"vehicle_type_id":"4","last_reported":1752070225,"current_range_meters":17600,"station_id":"ce4bhb12rcd13ifvqel0","pricing_plan_id":"cebpf4jnsgd1na2vs0mg"},{"bike_id":"749370c6-54e1-4cc8-942a-7921a4b8fb09","system_id":"levelo_inurba_marseille","lat":43.28289,"lon":5.35061,"is_reserved":false,"is_disabled":false,"rental_uris":{"android":"levelo://app?vid=749370c6-54e1-4cc8-942a-7921a4b8fb09","ios":"levelo://app?vid=749370c6-54e1-4cc8-942a-7921a4b8fb09"},"vehicle_type_id":"4","last_reported":1752070225,"current_range_meters":17600,"station_id":"ce4bhbp2rcd13ifvqerg","pricing_plan_id":"cebpf4jnsgd1na2vs0mg"},{"bike_id":"0dde599a-9e49-4424-bf17-46b64f156432","system_id":"levelo_inurba_marseille","lat":43.24077,"lon":5.37767,"is_reserved":false,"is_disabled":false,"rental_uris":{"android":"levelo://app?vid=0dde599a-9e49-4424-bf17-46b64f156432","ios":"levelo://app?vid=0dde599a-9e49-4424-bf17-46b64f156432"},"vehicle_type_id":"4","last_reported":1752070225,"current_range_meters":17600,"station_id":"ce4bhnp2rcd13ifvqgvg","pricing_plan_id":"cebpf4jnsgd1na2vs0mg"},{"bike_id":"f2962ad6-e210-4b31-95a3-4eebd34a77e9","system_id":"levelo_inurba_marseille","lat":43.26974,"lon":5.39869,"is_reserved":false,"is_disabled":false,"rental_uris":{"android":"levelo://app?vid=f2962ad6-e210-4b31-95a3-4eebd34a77e9","ios":"levelo://app?vid=f2962ad6-e210-4b31-95a3-4eebd34a77e9"},"vehicle_type_id":"4","last_reported":1752070225,"current_range_meters":18000,"station_id":"","pricing_plan_id":"cebpf4jnsgd1na2vs0mg"},{"bike_id":"dab4a790-5f91-4631-ac98-dbcbf73c4b9d","system_id":"levelo_inurba_marseille","lat":43.28175,"lon":5.38203,"is_reserved":false,"is_disabled":false,"rental_uris":{"android":"levelo://app?vid=dab4a790-5f91-4631-ac98-dbcbf73c4b9d","ios":"levelo://app?vid=dab4a790-5f91-4631-ac98-dbcbf73c4b9d"},"vehicle_type_id":"4","last_reported":1752070225,"current_range_meters":18000,"station_id":"","pricing_plan_id":"cebpf4jnsgd1na2vs0mg"},{"bike_id":"e9c52e2e-1391-4329-8438-e4f2c2348935","system_id":"levelo_inurba_marseille","lat":43.25217,"lon":5.39434,"is_reserved":false,"is_disabled":false,"rental_uris":{"android":"levelo://app?vid=e9c52e2e-1391-4329-8438-e4f2c2348935","ios":"levelo://app?vid=e9c52e2e-1391-4329-8438-e4f2c2348935"},"vehicle_type_id":"4","last_reported":1752070225,"current_range_meters":18000,"station_id":"","pricing_plan_id":"cebpf4jnsgd1na2vs0mg"},{"bike_id":"9d2e056a-5a76-483e-bd70-1ba4cc8582d9","system_id":"levelo_inurba_marseille","lat":43.28267,"lon":5.35078,"is_reserved":false,"is_disabled":false,"rental_uris":{"android":"levelo://app?vid=9d2e056a-5a76-483e-bd70-1ba4cc8582d9","ios":"levelo://app?vid=9d2e056a-5a76-483e-bd70-1ba4cc8582d9"},"vehicle_type_id":"4","last_reported":1752070225,"current_range_meters":18000,"station_id":"ce4bhbp2rcd13ifvqerg","pricing_plan_id":"cebpf4jnsgd1na2vs0mg"},{"bike_id":"7c1ac00f-9550-4218-9ee5-dd9d8cb43880","system_id":"levelo_inurba_marseille","lat":43.24393,"lon":5.37053,"is_reserved":false,"is_disabled":false,"rental_uris":{"android":"levelo://app?vid=7c1ac00f-9550-4218-9ee5-dd9d8cb43880","ios":"levelo://app?vid=7c1ac00f-9550-4218-9ee5-dd9d8cb43880"},"vehicle_type_id":"4","last_reported":1752070225,"current_range_meters":18000,"station_id":"ce4bhhh2rcd13ifvqfk0","pricing_plan_id":"cebpf4jnsgd1na2vs0mg"},{"bike_id":"038cc9f7-3db3-4a14-a3dd-a9f6e9d54aa7","system_id":"levelo_inurba_marseille","lat":43.23057,"lon":5.35485,"is_reserved":false,"is_disabled":false,"rental_uris":{"android":"levelo://app?vid=038cc9f7-3db3-4a14-a3dd-a9f6e9d54aa7","ios":"levelo://app?vid=038cc9f7-3db3-4a14-a3dd-a9f6e9d54aa7"},"vehicle_type_id":"4","last_reported":1752070225,"current_range_meters":18000,"station_id":"cpo3342slgdg3j2ifvpg","pricing_plan_id":"cebpf4jnsgd1na2vs0mg"},{"bike_id":"bc79cf22-9600-43f9-855f-d2516f160b65","system_id":"levelo_inurba_marseille","lat":43.31353,"lon":5.37595,"is_reserved":false,"is_disabled":false,"rental_uris":{"android":"levelo://app?vid=bc79cf22-9600-43f9-855f-d2516f160b65","ios":"levelo://app?vid=bc79cf22-9600-43f9-855f-d2516f160b65"},"vehicle_type_id":"4","last_reported":1752070225,"current_range_meters":18800,"station_id":"","pricing_plan_id":"cebpf4jnsgd1na2vs0mg"},{"bike_id":"36c387ea-be50-4028-8ecc-21605fe3e879","system_id":"levelo_inurba_marseille","lat":43.2937,"lon":5.42841,"is_reserved":false,"is_disabled":false,"rental_uris":{"android":"levelo://app?vid=36c387ea-be50-4028-8ecc-21605fe3e879","ios":"levelo://app?vid=36c387ea-be50-4028-8ecc-21605fe3e879"},"vehicle_type_id":"4","last_reported":1752070225,"current_range_meters":18800,"station_id":"","pricing_plan_id":"cebpf4jnsgd1na2vs0mg"},{"bike_id":"87d13c3c-9453-4492-8a8f-f2b4c8e828c6","system_id":"levelo_inurba_marseille","lat":43.26177,"lon":5.37049,"is_reserved":false,"is_disabled":false,"rental_uris":{"android":"levelo://app?vid=87d13c3c-9453-4492-8a8f-f2b4c8e828c6","ios":"levelo://app?vid=87d13c3c-9453-4492-8a8f-f2b4c8e828c6"},"vehicle_type_id":"4","last_reported":1752070225,"current_range_meters":18800,"station_id":"","pricing_plan_id":"cebpf4jnsgd1na2vs0mg"},{"bike_id":"feaa7e3a-cbe4-4489-be11-8a12d7eec173","system_id":"levelo_inurba_marseille","lat":43.25199,"lon":5.42611,"is_reserved":false,"is_disabled":false,"rental_uris":{"android":"levelo://app?vid=feaa7e3a-cbe4-4489-be11-8a12d7eec173","ios":"levelo://app?vid=feaa7e3a-cbe4-4489-be11-8a12d7eec173"},"vehicle_type_id":"4","last_reported":1752070225,"current_range_meters":18800,"station_id":"","pricing_plan_id":"cebpf4jnsgd1na2vs0mg"},{"bike_id":"3c2be974-f10a-47a0-ae30-b9e120db49ce","system_id":"levelo_inurba_marseille","lat":43.25487,"lon":5.37649,"is_reserved":false,"is_disabled":false,"rental_uris":{"android":"levelo://app?vid=3c2be974-f10a-47a0-ae30-b9e120db49ce","ios":"levelo://app?vid=3c2be974-f10a-47a0-ae30-b9e120db49ce"},"vehicle_type_id":"4","last_reported":1752070225,"current_range_meters":18800,"station_id":"ce4bhh12rcd13ifvqff0","pricing_plan_id":"cebpf4jnsgd1na2vs0mg"},{"bike_id":"ef6311b9-c394-4e85-b3f2-bf62d7fa6877","system_id":"levelo_inurba_marseille","lat":43.245477,"lon":5.395235,"is_reserved":false,"is_disabled":false,"rental_uris":{"android":"levelo://app?vid=ef6311b9-c394-4e85-b3f2-bf62d7fa6877","ios":"levelo://app?vid=ef6311b9-c394-4e85-b3f2-bf62d7fa6877"},"vehicle_type_id":"4","last_reported":1752070225,"current_range_meters":18800,"station_id":"ce4bhlp2rcd13ifvqgjg","pricing_plan_id":"cebpf4jnsgd1na2vs0mg"},{"bike_id":"3f1321c4-5ffa-415a-b9a3-5f4c487a94e9","system_id":"levelo_inurba_marseille","lat":43.29554,"lon":5.42292,"is_reserved":false,"is_disabled":false,"rental_uris":{"android":"levelo://app?vid=3f1321c4-5ffa-415a-b9a3-5f4c487a94e9","ios":"levelo://app?vid=3f1321c4-5ffa-415a-b9a3-5f4c487a94e9"},"vehicle_type_id":"4","last_reported":1752070225,"current_range_meters":18800,"station_id":"ce4bhph2rcd13ifvqhdg","pricing_plan_id":"cebpf4jnsgd1na2vs0mg"},{"bike_id":"e0973b47-aa25-4308-a3d7-9c79b6a106be","system_id":"levelo_inurba_marseille","lat":43.32107,"lon":5.36769,"is_reserved":false,"is_disabled":false,"rental_uris":{"android":"levelo://app?vid=e0973b47-aa25-4308-a3d7-9c79b6a106be","ios":"levelo://app?vid=e0973b47-aa25-4308-a3d7-9c79b6a106be"},"vehicle_type_id":"4","last_reported":1752070225,"current_range_meters":18800,"station_id":"ce4bhrh2rcd13ifvqhug","pricing_plan_id":"cebpf4jnsgd1na2vs0mg"},{"bike_id":"42ddf1de-52a6-47b1-8606-f9f2c373dc80","system_id":"levelo_inurba_marseille","lat":43.21761,"lon":5.34618,"is_reserved":false,"is_disabled":false,"rental_uris":{"android":"levelo://app?vid=42ddf1de-52a6-47b1-8606-f9f2c373dc80","ios":"levelo://app?vid=42ddf1de-52a6-47b1-8606-f9f2c373dc80"},"vehicle_type_id":"4","last_reported":1752070225,"current_range_meters":18800,"station_id":"st_cvj6r9ubvosntc0bgbag","pricing_plan_id":"cebpf4jnsgd1na2vs0mg"},{"bike_id":"f7db4f76-f9b4-4c58-81f0-17769d8a997d","system_id":"levelo_inurba_marseille","lat":43.255743,"lon":5.382678,"is_reserved":false,"is_disabled":false,"rental_uris":{"android":"levelo://app?vid=f7db4f76-f9b4-4c58-81f0-17769d8a997d","ios":"levelo://app?vid=f7db4f76-f9b4-4c58-81f0-17769d8a997d"},"vehicle_type_id":"4","last_reported":1752070225,"current_range_meters":19200,"station_id":"","pricing_plan_id":"cebpf4jnsgd1na2vs0mg"},{"bike_id":"9f5e74ce-2459-4c6f-a171-f6d1e8a1ed83","system_id":"levelo_inurba_marseille","lat":43.31859,"lon":5.37548,"is_reserved":false,"is_disabled":false,"rental_uris":{"android":"levelo://app?vid=9f5e74ce-2459-4c6f-a171-f6d1e8a1ed83","ios":"levelo://app?vid=9f5e74ce-2459-4c6f-a171-f6d1e8a1ed83"},"vehicle_type_id":"4","last_reported":1752070225,"current_range_meters":19200,"station_id":"","pricing_plan_id":"cebpf4jnsgd1na2vs0mg"},{"bike_id":"b086a275-937a-42df-90d1-c8164627358d","system_id":"levelo_inurba_marseille","lat":43.27369,"lon":5.36247,"is_reserved":false,"is_disabled":false,"rental_uris":{"android":"levelo://app?vid=b086a275-937a-42df-90d1-c8164627358d","ios":"levelo://app?vid=b086a275-937a-42df-90d1-c8164627358d"},"vehicle_type_id":"4","last_reported":1752070225,"current_range_meters":19200,"station_id":"ce4bhbh2rcd13ifvqeo0","pricing_plan_id":"cebpf4jnsgd1na2vs0mg"},{"bike_id":"67a4e5ab-738a-46ee-92e4-9e7af78d20ef","system_id":"levelo_inurba_marseille","lat":43.2842,"lon":5.34993,"is_reserved":false,"is_disabled":false,"rental_uris":{"android":"levelo://app?vid=67a4e5ab-738a-46ee-92e4-9e7af78d20ef","ios":"levelo://app?vid=67a4e5ab-738a-46ee-92e4-9e7af78d20ef"},"vehicle_type_id":"4","last_reported":1752070225,"current_range_meters":19200,"station_id":"ce4bhbh2rcd13ifvqepg","pricing_plan_id":"cebpf4jnsgd1na2vs0mg"},{"bike_id":"32a45745-158f-4e9b-8347-39544e4e467d","system_id":"levelo_inurba_marseille","lat":43.28421,"lon":5.34991,"is_reserved":false,"is_disabled":false,"rental_uris":{"android":"levelo://app?vid=32a45745-158f-4e9b-8347-39544e4e467d","ios":"levelo://app?vid=32a45745-158f-4e9b-8347-39544e4e467d"},"vehicle_type_id":"4","last_reported":1752070225,"current_range_meters":19200,"station_id":"ce4bhbh2rcd13ifvqepg","pricing_plan_id":"cebpf4jnsgd1na2vs0mg"},{"bike_id":"fe393e70-3017-4f74-9643-ce2ab31a2adc","system_id":"levelo_inurba_marseille","lat":43.28612,"lon":5.35101,"is_reserved":false,"is_disabled":false,"rental_uris":{"android":"levelo://app?vid=fe393e70-3017-4f74-9643-ce2ab31a2adc","ios":"levelo://app?vid=fe393e70-3017-4f74-9643-ce2ab31a2adc"},"vehicle_type_id":"4","last_reported":1752070225,"current_range_meters":19200,"station_id":"ce4bhch2rcd13ifvqeug","pricing_plan_id":"cebpf4jnsgd1na2vs0mg"},{"bike_id":"9813b7ec-cb1a-4868-a9a0-b6300aaaadd5","system_id":"levelo_inurba_marseille","lat":43.32094,"lon":5.36787,"is_reserved":false,"is_disabled":false,"rental_uris":{"android":"levelo://app?vid=9813b7ec-cb1a-4868-a9a0-b6300aaaadd5","ios":"levelo://app?vid=9813b7ec-cb1a-4868-a9a0-b6300aaaadd5"},"vehicle_type_id":"4","last_reported":1752070225,"current_range_meters":19200,"station_id":"ce4bhrh2rcd13ifvqhug","pricing_plan_id":"cebpf4jnsgd1na2vs0mg"},{"bike_id":"dfa9107f-6b51-4140-873d-540e5c00b3a9","system_id":"levelo_inurba_marseille","lat":43.22495,"lon":5.34785,"is_reserved":false,"is_disabled":false,"rental_uris":{"android":"levelo://app?vid=dfa9107f-6b51-4140-873d-540e5c00b3a9","ios":"levelo://app?vid=dfa9107f-6b51-4140-873d-540e5c00b3a9"},"vehicle_type_id":"4","last_reported":1752070225,"current_range_meters":19200,"station_id":"st_cvj5dfep6f1abm77gieg","pricing_plan_id":"cebpf4jnsgd1na2vs0mg"},{"bike_id":"51d79711-fd55-46d0-999d-7df329fd6150","system_id":"levelo_inurba_marseille","lat":43.21754,"lon":5.34592,"is_reserved":false,"is_disabled":false,"rental_uris":{"android":"levelo://app?vid=51d79711-fd55-46d0-999d-7df329fd6150","ios":"levelo://app?vid=51d79711-fd55-46d0-999d-7df329fd6150"},"vehicle_type_id":"4","last_reported":1752070225,"current_range_meters":19200,"station_id":"st_cvj6r9ubvosntc0bgbag","pricing_plan_id":"cebpf4jnsgd1na2vs0mg"},{"bike_id":"178620b3-e80f-4c11-90fe-b0c778968faa","system_id":"levelo_inurba_marseille","lat":43.2761,"lon":5.36126,"is_reserved":false,"is_disabled":false,"rental_uris":{"android":"levelo://app?vid=178620b3-e80f-4c11-90fe-b0c778968faa","ios":"levelo://app?vid=178620b3-e80f-4c11-90fe-b0c778968faa"},"vehicle_type_id":"4","last_reported":1752070225,"current_range_meters":19600,"station_id":"ce4bgj92rcd13ifvqbe0","pricing_plan_id":"cebpf4jnsgd1na2vs0mg"},{"bike_id":"9519d053-f76b-404e-aa09-aba87cdc103a","system_id":"levelo_inurba_marseille","lat":43.30329,"lon":5.40433,"is_reserved":false,"is_disabled":false,"rental_uris":{"android":"levelo://app?vid=9519d053-f76b-404e-aa09-aba87cdc103a","ios":"levelo://app?vid=9519d053-f76b-404e-aa09-aba87cdc103a"},"vehicle_type_id":"4","last_reported":1752070225,"current_range_meters":19600,"station_id":"ce4bh012rcd13ifvqd10","pricing_plan_id":"cebpf4jnsgd1na2vs0mg"},{"bike_id":"9efd018f-f5bc-47d4-8300-0463fd06a8e1","system_id":"levelo_inurba_marseille","lat":43.30209,"lon":5.39461,"is_reserved":false,"is_disabled":false,"rental_uris":{"android":"levelo://app?vid=9efd018f-f5bc-47d4-8300-0463fd06a8e1","ios":"levelo://app?vid=9efd018f-f5bc-47d4-8300-0463fd06a8e1"},"vehicle_type_id":"4","last_reported":1752070225,"current_range_meters":19600,"station_id":"ce4bh0p2rcd13ifvqd70","pricing_plan_id":"cebpf4jnsgd1na2vs0mg"},{"bike_id":"49e4bfd0-d11f-4818-aec0-dac77795986e","system_id":"levelo_inurba_marseille","lat":43.29048,"lon":5.399859,"is_reserved":false,"is_disabled":false,"rental_uris":{"android":"levelo://app?vid=49e4bfd0-d11f-4818-aec0-dac77795986e","ios":"levelo://app?vid=49e4bfd0-d11f-4818-aec0-dac77795986e"},"vehicle_type_id":"4","last_reported":1752070225,"current_range_meters":19600,"station_id":"ce4bh392rcd13ifvqdm0","pricing_plan_id":"cebpf4jnsgd1na2vs0mg"},{"bike_id":"7725683b-3883-4cb7-b23c-591c9a76b7b2","system_id":"levelo_inurba_marseille","lat":43.25565,"lon":5.38236,"is_reserved":false,"is_disabled":false,"rental_uris":{"android":"levelo://app?vid=7725683b-3883-4cb7-b23c-591c9a76b7b2","ios":"levelo://app?vid=7725683b-3883-4cb7-b23c-591c9a76b7b2"},"vehicle_type_id":"4","last_reported":1752070225,"current_range_meters":19600,"station_id":"ce4bhih2rcd13ifvqfs0","pricing_plan_id":"cebpf4jnsgd1na2vs0mg"},{"bike_id":"2a459f96-6b53-43f7-b70c-1135b0d88aea","system_id":"levelo_inurba_marseille","lat":43.23189,"lon":5.35561,"is_reserved":false,"is_disabled":false,"rental_uris":{"android":"levelo://app?vid=2a459f96-6b53-43f7-b70c-1135b0d88aea","ios":"levelo://app?vid=2a459f96-6b53-43f7-b70c-1135b0d88aea"},"vehicle_type_id":"4","last_reported":1752070225,"current_range_meters":19600,"station_id":"ce4bhu92rcd13ifvqi70","pricing_plan_id":"cebpf4jnsgd1na2vs0mg"},{"bike_id":"cade331f-a6e3-4d01-8bc4-dd218718d65a","system_id":"levelo_inurba_marseille","lat":43.2176,"lon":5.34608,"is_reserved":false,"is_disabled":false,"rental_uris":{"android":"levelo://app?vid=cade331f-a6e3-4d01-8bc4-dd218718d65a","ios":"levelo://app?vid=cade331f-a6e3-4d01-8bc4-dd218718d65a"},"vehicle_type_id":"4","last_reported":1752070225,"current_range_meters":19600,"station_id":"st_cvj6r9ubvosntc0bgbag","pricing_plan_id":"cebpf4jnsgd1na2vs0mg"},{"bike_id":"fde530d0-eeed-4692-bb9c-2c65ba0cdd9f","system_id":"levelo_inurba_marseille","lat":43.308445,"lon":5.425738,"is_reserved":false,"is_disabled":false,"rental_uris":{"android":"levelo://app?vid=fde530d0-eeed-4692-bb9c-2c65ba0cdd9f","ios":"levelo://app?vid=fde530d0-eeed-4692-bb9c-2c65ba0cdd9f"},"vehicle_type_id":"4","last_reported":1752070225,"current_range_meters":20000,"station_id":"","pricing_plan_id":"cebpf4jnsgd1na2vs0mg"},{"bike_id":"835dbe99-3402-47f1-9e83-8b1aaa7218c4","system_id":"levelo_inurba_marseille","lat":43.27378,"lon":5.36254,"is_reserved":false,"is_disabled":false,"rental_uris":{"android":"levelo://app?vid=835dbe99-3402-47f1-9e83-8b1aaa7218c4","ios":"levelo://app?vid=835dbe99-3402-47f1-9e83-8b1aaa7218c4"},"vehicle_type_id":"4","last_reported":1752070225,"current_range_meters":20000,"station_id":"ce4bhbh2rcd13ifvqeo0","pricing_plan_id":"cebpf4jnsgd1na2vs0mg"},{"bike_id":"9565d3ce-9739-43cd-9faf-f6b015eca3ae","system_id":"levelo_inurba_marseille","lat":43.22929,"lon":5.35385,"is_reserved":false,"is_disabled":false,"rental_uris":{"android":"levelo://app?vid=9565d3ce-9739-43cd-9faf-f6b015eca3ae","ios":"levelo://app?vid=9565d3ce-9739-43cd-9faf-f6b015eca3ae"},"vehicle_type_id":"4","last_reported":1752070225,"current_range_meters":20000,"station_id":"cpo3532slgdg3j2ikp40","pricing_plan_id":"cebpf4jnsgd1na2vs0mg"},{"bike_id":"51d3cab3-3bb3-4357-a3a5-f7dd39edc0c5","system_id":"levelo_inurba_marseille","lat":43.25451,"lon":5.37946,"is_reserved":false,"is_disabled":false,"rental_uris":{"android":"levelo://app?vid=51d3cab3-3bb3-4357-a3a5-f7dd39edc0c5","ios":"levelo://app?vid=51d3cab3-3bb3-4357-a3a5-f7dd39edc0c5"},"vehicle_type_id":"4","last_reported":1752070225,"current_range_meters":20400,"station_id":"","pricing_plan_id":"cebpf4jnsgd1na2vs0mg"},{"bike_id":"d6ccf0b1-3fcc-4a6a-883f-25257c08898d","system_id":"levelo_inurba_marseille","lat":43.224976,"lon":5.348346,"is_reserved":false,"is_disabled":false,"rental_uris":{"android":"levelo://app?vid=d6ccf0b1-3fcc-4a6a-883f-25257c08898d","ios":"levelo://app?vid=d6ccf0b1-3fcc-4a6a-883f-25257c08898d"},"vehicle_type_id":"4","last_reported":1752070225,"current_range_meters":20400,"station_id":"","pricing_plan_id":"cebpf4jnsgd1na2vs0mg"},{"bike_id":"fa87fcb5-aacb-41a1-a789-0296bbd02085","system_id":"levelo_inurba_marseille","lat":43.24582,"lon":5.3738,"is_reserved":false,"is_disabled":false,"rental_uris":{"android":"levelo://app?vid=fa87fcb5-aacb-41a1-a789-0296bbd02085","ios":"levelo://app?vid=fa87fcb5-aacb-41a1-a789-0296bbd02085"},"vehicle_type_id":"4","last_reported":1752070225,"current_range_meters":20400,"station_id":"","pricing_plan_id":"cebpf4jnsgd1na2vs0mg"},{"bike_id":"4e209b0c-855f-4b51-8120-2faef8673853","system_id":"levelo_inurba_marseille","lat":43.306027,"lon":5.36926,"is_reserved":false,"is_disabled":false,"rental_uris":{"android":"levelo://app?vid=4e209b0c-855f-4b51-8120-2faef8673853","ios":"levelo://app?vid=4e209b0c-855f-4b51-8120-2faef8673853"},"vehicle_type_id":"4","last_reported":1752070225,"current_range_meters":20400,"station_id":"","pricing_plan_id":"cebpf4jnsgd1na2vs0mg"},{"bike_id":"87c1fb82-068e-42a6-926c-50aeed689f19","system_id":"levelo_inurba_marseille","lat":43.293579,"lon":5.378356,"is_reserved":false,"is_disabled":false,"rental_uris":{"android":"levelo://app?vid=87c1fb82-068e-42a6-926c-50aeed689f19","ios":"levelo://app?vid=87c1fb82-068e-42a6-926c-50aeed689f19"},"vehicle_type_id":"4","last_reported":1752070225,"current_range_meters":20400,"station_id":"ce4bgjh2rcd13ifvqbf0","pricing_plan_id":"cebpf4jnsgd1na2vs0mg"},{"bike_id":"e2bb7ee9-ac0d-44b3-bb61-6afabc57f457","system_id":"levelo_inurba_marseille","lat":43.27377,"lon":5.36255,"is_reserved":false,"is_disabled":false,"rental_uris":{"android":"levelo://app?vid=e2bb7ee9-ac0d-44b3-bb61-6afabc57f457","ios":"levelo://app?vid=e2bb7ee9-ac0d-44b3-bb61-6afabc57f457"},"vehicle_type_id":"4","last_reported":1752070225,"current_range_meters":20400,"station_id":"ce4bhbh2rcd13ifvqeo0","pricing_plan_id":"cebpf4jnsgd1na2vs0mg"},{"bike_id":"74caf144-2d38-48c0-8fc1-541f33fbbb25","system_id":"levelo_inurba_marseille","lat":43.25585,"lon":5.3826,"is_reserved":false,"is_disabled":false,"rental_uris":{"android":"levelo://app?vid=74caf144-2d38-48c0-8fc1-541f33fbbb25","ios":"levelo://app?vid=74caf144-2d38-48c0-8fc1-541f33fbbb25"},"vehicle_type_id":"4","last_reported":1752070225,"current_range_meters":20400,"station_id":"ce4bhih2rcd13ifvqfs0","pricing_plan_id":"cebpf4jnsgd1na2vs0mg"},{"bike_id":"92be7e9f-0c62-4241-ba9b-8185c68d5343","system_id":"levelo_inurba_marseille","lat":43.24181,"lon":5.397143,"is_reserved":false,"is_disabled":false,"rental_uris":{"android":"levelo://app?vid=92be7e9f-0c62-4241-ba9b-8185c68d5343","ios":"levelo://app?vid=92be7e9f-0c62-4241-ba9b-8185c68d5343"},"vehicle_type_id":"4","last_reported":1752070225,"current_range_meters":20400,"station_id":"ce4bhn12rcd13ifvqgpg","pricing_plan_id":"cebpf4jnsgd1na2vs0mg"},{"bike_id":"89c88601-23fc-46eb-8f34-723cccb1bf9d","system_id":"levelo_inurba_marseille","lat":43.27497,"lon":5.42454,"is_reserved":false,"is_disabled":false,"rental_uris":{"android":"levelo://app?vid=89c88601-23fc-46eb-8f34-723cccb1bf9d","ios":"levelo://app?vid=89c88601-23fc-46eb-8f34-723cccb1bf9d"},"vehicle_type_id":"4","last_reported":1752070225,"current_range_meters":20400,"station_id":"ce4bhn92rcd13ifvqgrg","pricing_plan_id":"cebpf4jnsgd1na2vs0mg"},{"bike_id":"4b231b1d-14b5-4569-b090-7ba993d3ab80","system_id":"levelo_inurba_marseille","lat":43.308105,"lon":5.435234,"is_reserved":false,"is_disabled":false,"rental_uris":{"android":"levelo://app?vid=4b231b1d-14b5-4569-b090-7ba993d3ab80","ios":"levelo://app?vid=4b231b1d-14b5-4569-b090-7ba993d3ab80"},"vehicle_type_id":"4","last_reported":1752070225,"current_range_meters":20400,"station_id":"ce4bhph2rcd13ifvqheg","pricing_plan_id":"cebpf4jnsgd1na2vs0mg"},{"bike_id":"b8fb705f-c57a-4fce-a382-18375991cd0a","system_id":"levelo_inurba_marseille","lat":43.31481,"lon":5.37281,"is_reserved":false,"is_disabled":false,"rental_uris":{"android":"levelo://app?vid=b8fb705f-c57a-4fce-a382-18375991cd0a","ios":"levelo://app?vid=b8fb705f-c57a-4fce-a382-18375991cd0a"},"vehicle_type_id":"4","last_reported":1752070225,"current_range_meters":20800,"station_id":"ce4bgt12rcd13ifvqcd0","pricing_plan_id":"cebpf4jnsgd1na2vs0mg"},{"bike_id":"33ca56ee-489a-4240-9d4c-667abf911c67","system_id":"levelo_inurba_marseille","lat":43.2738,"lon":5.36253,"is_reserved":false,"is_disabled":false,"rental_uris":{"android":"levelo://app?vid=33ca56ee-489a-4240-9d4c-667abf911c67","ios":"levelo://app?vid=33ca56ee-489a-4240-9d4c-667abf911c67"},"vehicle_type_id":"4","last_reported":1752070225,"current_range_meters":20800,"station_id":"ce4bhbh2rcd13ifvqeo0","pricing_plan_id":"cebpf4jnsgd1na2vs0mg"},{"bike_id":"c7238839-bda7-4a37-b102-b102522126f8","system_id":"levelo_inurba_marseille","lat":43.284,"lon":5.34991,"is_reserved":false,"is_disabled":false,"rental_uris":{"android":"levelo://app?vid=c7238839-bda7-4a37-b102-b102522126f8","ios":"levelo://app?vid=c7238839-bda7-4a37-b102-b102522126f8"},"vehicle_type_id":"4","last_reported":1752070225,"current_range_meters":20800,"station_id":"ce4bhbh2rcd13ifvqepg","pricing_plan_id":"cebpf4jnsgd1na2vs0mg"},{"bike_id":"42638d0b-d440-4e54-9be6-9532c35dfb80","system_id":"levelo_inurba_marseille","lat":43.25576,"lon":5.38228,"is_reserved":false,"is_disabled":false,"rental_uris":{"android":"levelo://app?vid=42638d0b-d440-4e54-9be6-9532c35dfb80","ios":"levelo://app?vid=42638d0b-d440-4e54-9be6-9532c35dfb80"},"vehicle_type_id":"4","last_reported":1752070225,"current_range_meters":20800,"station_id":"ce4bhih2rcd13ifvqfs0","pricing_plan_id":"cebpf4jnsgd1na2vs0mg"},{"bike_id":"f357771c-199b-41ac-93d6-3aa12521b0e8","system_id":"levelo_inurba_marseille","lat":43.29548,"lon":5.42268,"is_reserved":false,"is_disabled":false,"rental_uris":{"android":"levelo://app?vid=f357771c-199b-41ac-93d6-3aa12521b0e8","ios":"levelo://app?vid=f357771c-199b-41ac-93d6-3aa12521b0e8"},"vehicle_type_id":"4","last_reported":1752070225,"current_range_meters":20800,"station_id":"ce4bhph2rcd13ifvqhdg","pricing_plan_id":"cebpf4jnsgd1na2vs0mg"},{"bike_id":"ee1ac907-8623-4d00-ac01-d41dd90be9fe","system_id":"levelo_inurba_marseille","lat":43.21191,"lon":5.3507,"is_reserved":false,"is_disabled":false,"rental_uris":{"android":"levelo://app?vid=ee1ac907-8623-4d00-ac01-d41dd90be9fe","ios":"levelo://app?vid=ee1ac907-8623-4d00-ac01-d41dd90be9fe"},"vehicle_type_id":"4","last_reported":1752070225,"current_range_meters":20800,"station_id":"st_cvj6sg6p6f1abm77japg","pricing_plan_id":"cebpf4jnsgd1na2vs0mg"},{"bike_id":"2676d6ed-392e-4888-a2f9-53392870d491","system_id":"levelo_inurba_marseille","lat":43.31401,"lon":5.3667,"is_reserved":false,"is_disabled":false,"rental_uris":{"android":"levelo://app?vid=2676d6ed-392e-4888-a2f9-53392870d491","ios":"levelo://app?vid=2676d6ed-392e-4888-a2f9-53392870d491"},"vehicle_type_id":"4","last_reported":1752070225,"current_range_meters":21600,"station_id":"","pricing_plan_id":"cebpf4jnsgd1na2vs0mg"},{"bike_id":"3d03e4d1-9223-421e-971a-04ea26a2054f","system_id":"levelo_inurba_marseille","lat":43.30888,"lon":5.36853,"is_reserved":false,"is_disabled":false,"rental_uris":{"android":"levelo://app?vid=3d03e4d1-9223-421e-971a-04ea26a2054f","ios":"levelo://app?vid=3d03e4d1-9223-421e-971a-04ea26a2054f"},"vehicle_type_id":"4","last_reported":1752070225,"current_range_meters":21600,"station_id":"ce4bgn92rcd13ifvqbvg","pricing_plan_id":"cebpf4jnsgd1na2vs0mg"},{"bike_id":"55eb3ee3-207d-45c9-a356-7e275a6ee08e","system_id":"levelo_inurba_marseille","lat":43.322208,"lon":5.407363,"is_reserved":false,"is_disabled":false,"rental_uris":{"android":"levelo://app?vid=55eb3ee3-207d-45c9-a356-7e275a6ee08e","ios":"levelo://app?vid=55eb3ee3-207d-45c9-a356-7e275a6ee08e"},"vehicle_type_id":"4","last_reported":1752070225,"current_range_meters":21600,"station_id":"ce4bh092rcd13ifvqd30","pricing_plan_id":"cebpf4jnsgd1na2vs0mg"},{"bike_id":"10c59449-1e22-41d8-be57-73de9f1e8e96","system_id":"levelo_inurba_marseille","lat":43.284145,"lon":5.349912,"is_reserved":false,"is_disabled":false,"rental_uris":{"android":"levelo://app?vid=10c59449-1e22-41d8-be57-73de9f1e8e96","ios":"levelo://app?vid=10c59449-1e22-41d8-be57-73de9f1e8e96"},"vehicle_type_id":"4","last_reported":1752070225,"current_range_meters":21600,"station_id":"ce4bhbh2rcd13ifvqepg","pricing_plan_id":"cebpf4jnsgd1na2vs0mg"},{"bike_id":"43ef28e7-4568-480b-b2fe-84a6b7c911e4","system_id":"levelo_inurba_marseille","lat":43.29207,"lon":5.36052,"is_reserved":false,"is_disabled":false,"rental_uris":{"android":"levelo://app?vid=43ef28e7-4568-480b-b2fe-84a6b7c911e4","ios":"levelo://app?vid=43ef28e7-4568-480b-b2fe-84a6b7c911e4"},"vehicle_type_id":"4","last_reported":1752070225,"current_range_meters":21600,"station_id":"ce4bhbh2rcd13ifvqeqg","pricing_plan_id":"cebpf4jnsgd1na2vs0mg"},{"bike_id":"a639b820-7e59-4035-96cb-cf4c8016504d","system_id":"levelo_inurba_marseille","lat":43.26565,"lon":5.37297,"is_reserved":false,"is_disabled":false,"rental_uris":{"android":"levelo://app?vid=a639b820-7e59-4035-96cb-cf4c8016504d","ios":"levelo://app?vid=a639b820-7e59-4035-96cb-cf4c8016504d"},"vehicle_type_id":"4","last_reported":1752070225,"current_range_meters":21600,"station_id":"ce4bhg12rcd13ifvqf70","pricing_plan_id":"cebpf4jnsgd1na2vs0mg"},{"bike_id":"758efaf4-9f7e-4fbe-aa89-bb7f0d75a476","system_id":"levelo_inurba_marseille","lat":43.255012,"lon":5.376509,"is_reserved":false,"is_disabled":false,"rental_uris":{"android":"levelo://app?vid=758efaf4-9f7e-4fbe-aa89-bb7f0d75a476","ios":"levelo://app?vid=758efaf4-9f7e-4fbe-aa89-bb7f0d75a476"},"vehicle_type_id":"4","last_reported":1752070225,"current_range_meters":21600,"station_id":"ce4bhh12rcd13ifvqff0","pricing_plan_id":"cebpf4jnsgd1na2vs0mg"},{"bike_id":"12671aaf-df30-48df-969a-0e8ba311c0d9","system_id":"levelo_inurba_marseille","lat":43.299257,"lon":5.374755,"is_reserved":false,"is_disabled":false,"rental_uris":{"android":"levelo://app?vid=12671aaf-df30-48df-969a-0e8ba311c0d9","ios":"levelo://app?vid=12671aaf-df30-48df-969a-0e8ba311c0d9"},"vehicle_type_id":"4","last_reported":1752070225,"current_range_meters":22000,"station_id":"","pricing_plan_id":"cebpf4jnsgd1na2vs0mg"},{"bike_id":"24b17f7b-dff1-4936-b27a-7c2c6813a894","system_id":"levelo_inurba_marseille","lat":43.24572,"lon":5.37377,"is_reserved":false,"is_disabled":false,"rental_uris":{"android":"levelo://app?vid=24b17f7b-dff1-4936-b27a-7c2c6813a894","ios":"levelo://app?vid=24b17f7b-dff1-4936-b27a-7c2c6813a894"},"vehicle_type_id":"4","last_reported":1752070225,"current_range_meters":22000,"station_id":"","pricing_plan_id":"cebpf4jnsgd1na2vs0mg"},{"bike_id":"b6a3b089-6bc0-4cb4-b7ac-558ac5f5bcb4","system_id":"levelo_inurba_marseille","lat":43.29529,"lon":5.38534,"is_reserved":false,"is_disabled":false,"rental_uris":{"android":"levelo://app?vid=b6a3b089-6bc0-4cb4-b7ac-558ac5f5bcb4","ios":"levelo://app?vid=b6a3b089-6bc0-4cb4-b7ac-558ac5f5bcb4"},"vehicle_type_id":"4","last_reported":1752070225,"current_range_meters":22000,"station_id":"ce4bgih2rcd13ifvqba0","pricing_plan_id":"cebpf4jnsgd1na2vs0mg"},{"bike_id":"5a47dbc3-259f-405b-aae5-eb27140bbe63","system_id":"levelo_inurba_marseille","lat":43.31225,"lon":5.36879,"is_reserved":false,"is_disabled":false,"rental_uris":{"android":"levelo://app?vid=5a47dbc3-259f-405b-aae5-eb27140bbe63","ios":"levelo://app?vid=5a47dbc3-259f-405b-aae5-eb27140bbe63"},"vehicle_type_id":"4","last_reported":1752070225,"current_range_meters":22000,"station_id":"ce4bgl92rcd13ifvqbq0","pricing_plan_id":"cebpf4jnsgd1na2vs0mg"},{"bike_id":"0c26df09-d83c-4ca1-8f87-549a7edc4c4c","system_id":"levelo_inurba_marseille","lat":43.24398,"lon":5.37049,"is_reserved":false,"is_disabled":false,"rental_uris":{"android":"levelo://app?vid=0c26df09-d83c-4ca1-8f87-549a7edc4c4c","ios":"levelo://app?vid=0c26df09-d83c-4ca1-8f87-549a7edc4c4c"},"vehicle_type_id":"4","last_reported":1752070225,"current_range_meters":22000,"station_id":"ce4bhhh2rcd13ifvqfk0","pricing_plan_id":"cebpf4jnsgd1na2vs0mg"},{"bike_id":"b33f686b-6ecf-40dc-b3ec-99c379176757","system_id":"levelo_inurba_marseille","lat":43.23961,"lon":5.36641,"is_reserved":false,"is_disabled":false,"rental_uris":{"android":"levelo://app?vid=b33f686b-6ecf-40dc-b3ec-99c379176757","ios":"levelo://app?vid=b33f686b-6ecf-40dc-b3ec-99c379176757"},"vehicle_type_id":"4","last_reported":1752070225,"current_range_meters":22000,"station_id":"ce4bhi12rcd13ifvqfp0","pricing_plan_id":"cebpf4jnsgd1na2vs0mg"},{"bike_id":"dd669704-9ee0-422b-84c1-1e0f2725fe2e","system_id":"levelo_inurba_marseille","lat":43.26206,"lon":5.3793,"is_reserved":false,"is_disabled":false,"rental_uris":{"android":"levelo://app?vid=dd669704-9ee0-422b-84c1-1e0f2725fe2e","ios":"levelo://app?vid=dd669704-9ee0-422b-84c1-1e0f2725fe2e"},"vehicle_type_id":"4","last_reported":1752070225,"current_range_meters":22000,"station_id":"ce4bhjp2rcd13ifvqg90","pricing_plan_id":"cebpf4jnsgd1na2vs0mg"},{"bike_id":"3b935dfc-179a-4512-b00d-bb8fa978bd14","system_id":"levelo_inurba_marseille","lat":43.299,"lon":5.43664,"is_reserved":false,"is_disabled":false,"rental_uris":{"android":"levelo://app?vid=3b935dfc-179a-4512-b00d-bb8fa978bd14","ios":"levelo://app?vid=3b935dfc-179a-4512-b00d-bb8fa978bd14"},"vehicle_type_id":"4","last_reported":1752070225,"current_range_meters":22000,"station_id":"ce4bhpp2rcd13ifvqhfg","pricing_plan_id":"cebpf4jnsgd1na2vs0mg"},{"bike_id":"7405c651-a868-4f97-b0fd-445de387662c","system_id":"levelo_inurba_marseille","lat":43.21781,"lon":5.34582,"is_reserved":false,"is_disabled":false,"rental_uris":{"android":"levelo://app?vid=7405c651-a868-4f97-b0fd-445de387662c","ios":"levelo://app?vid=7405c651-a868-4f97-b0fd-445de387662c"},"vehicle_type_id":"4","last_reported":1752070225,"current_range_meters":22000,"station_id":"st_cvj6r9ubvosntc0bgbag","pricing_plan_id":"cebpf4jnsgd1na2vs0mg"},{"bike_id":"5d30ce09-1411-4882-8272-9f69b0e95aeb","system_id":"levelo_inurba_marseille","lat":43.28332,"lon":5.35021,"is_reserved":false,"is_disabled":false,"rental_uris":{"android":"levelo://app?vid=5d30ce09-1411-4882-8272-9f69b0e95aeb","ios":"levelo://app?vid=5d30ce09-1411-4882-8272-9f69b0e95aeb"},"vehicle_type_id":"4","last_reported":1752070225,"current_range_meters":22400,"station_id":"","pricing_plan_id":"cebpf4jnsgd1na2vs0mg"},{"bike_id":"8f89e4f3-495a-4317-bd6d-37a19186d65b","system_id":"levelo_inurba_marseille","lat":43.33723,"lon":5.39109,"is_reserved":false,"is_disabled":false,"rental_uris":{"android":"levelo://app?vid=8f89e4f3-495a-4317-bd6d-37a19186d65b","ios":"levelo://app?vid=8f89e4f3-495a-4317-bd6d-37a19186d65b"},"vehicle_type_id":"4","last_reported":1752070225,"current_range_meters":22400,"station_id":"","pricing_plan_id":"cebpf4jnsgd1na2vs0mg"},{"bike_id":"3239c2a0-3032-4e23-905d-35be40ea26ad","system_id":"levelo_inurba_marseille","lat":43.30936,"lon":5.40143,"is_reserved":false,"is_disabled":false,"rental_uris":{"android":"levelo://app?vid=3239c2a0-3032-4e23-905d-35be40ea26ad","ios":"levelo://app?vid=3239c2a0-3032-4e23-905d-35be40ea26ad"},"vehicle_type_id":"4","last_reported":1752070225,"current_range_meters":22400,"station_id":"ce4bgvp2rcd13ifvqct0","pricing_plan_id":"cebpf4jnsgd1na2vs0mg"},{"bike_id":"40ffae2e-3048-4d92-a768-254fb5711f6c","system_id":"levelo_inurba_marseille","lat":43.2951,"lon":5.39403,"is_reserved":false,"is_disabled":false,"rental_uris":{"android":"levelo://app?vid=40ffae2e-3048-4d92-a768-254fb5711f6c","ios":"levelo://app?vid=40ffae2e-3048-4d92-a768-254fb5711f6c"},"vehicle_type_id":"4","last_reported":1752070225,"current_range_meters":22400,"station_id":"ce4bh292rcd13ifvqdf0","pricing_plan_id":"cebpf4jnsgd1na2vs0mg"},{"bike_id":"c47e90c6-5c42-455d-85b9-46a16e465b6a","system_id":"levelo_inurba_marseille","lat":43.2943,"lon":5.39752,"is_reserved":false,"is_disabled":false,"rental_uris":{"android":"levelo://app?vid=c47e90c6-5c42-455d-85b9-46a16e465b6a","ios":"levelo://app?vid=c47e90c6-5c42-455d-85b9-46a16e465b6a"},"vehicle_type_id":"4","last_reported":1752070225,"current_range_meters":22400,"station_id":"ce4bh3h2rcd13ifvqdo0","pricing_plan_id":"cebpf4jnsgd1na2vs0mg"},{"bike_id":"ae9a9b3f-e2a0-4531-806d-5eea26e4b3a7","system_id":"levelo_inurba_marseille","lat":43.28398,"lon":5.35006,"is_reserved":false,"is_disabled":false,"rental_uris":{"android":"levelo://app?vid=ae9a9b3f-e2a0-4531-806d-5eea26e4b3a7","ios":"levelo://app?vid=ae9a9b3f-e2a0-4531-806d-5eea26e4b3a7"},"vehicle_type_id":"4","last_reported":1752070225,"current_range_meters":22400,"station_id":"ce4bhbh2rcd13ifvqepg","pricing_plan_id":"cebpf4jnsgd1na2vs0mg"},{"bike_id":"6006a9aa-40e9-4dd0-9916-778076e2eaee","system_id":"levelo_inurba_marseille","lat":43.28421,"lon":5.34999,"is_reserved":false,"is_disabled":false,"rental_uris":{"android":"levelo://app?vid=6006a9aa-40e9-4dd0-9916-778076e2eaee","ios":"levelo://app?vid=6006a9aa-40e9-4dd0-9916-778076e2eaee"},"vehicle_type_id":"4","last_reported":1752070225,"current_range_meters":22400,"station_id":"ce4bhbh2rcd13ifvqepg","pricing_plan_id":"cebpf4jnsgd1na2vs0mg"},{"bike_id":"b8b1969d-033f-4896-b684-2deb661d49bb","system_id":"levelo_inurba_marseille","lat":43.27437,"lon":5.3941,"is_reserved":false,"is_disabled":false,"rental_uris":{"android":"levelo://app?vid=b8b1969d-033f-4896-b684-2deb661d49bb","ios":"levelo://app?vid=b8b1969d-033f-4896-b684-2deb661d49bb"},"vehicle_type_id":"4","last_reported":1752070225,"current_range_meters":22400,"station_id":"ce4bhdp2rcd13ifvqf20","pricing_plan_id":"cebpf4jnsgd1na2vs0mg"},{"bike_id":"765a50e5-f97c-45cb-b7b4-86e4457ae2ab","system_id":"levelo_inurba_marseille","lat":43.27312,"lon":5.39074,"is_reserved":false,"is_disabled":false,"rental_uris":{"android":"levelo://app?vid=765a50e5-f97c-45cb-b7b4-86e4457ae2ab","ios":"levelo://app?vid=765a50e5-f97c-45cb-b7b4-86e4457ae2ab"},"vehicle_type_id":"4","last_reported":1752070225,"current_range_meters":22400,"station_id":"ce4bhgp2rcd13ifvqfe0","pricing_plan_id":"cebpf4jnsgd1na2vs0mg"},{"bike_id":"ad923ea5-e8e6-4b44-8d5f-f3cdd54fbd6c","system_id":"levelo_inurba_marseille","lat":43.25497,"lon":5.37654,"is_reserved":false,"is_disabled":false,"rental_uris":{"android":"levelo://app?vid=ad923ea5-e8e6-4b44-8d5f-f3cdd54fbd6c","ios":"levelo://app?vid=ad923ea5-e8e6-4b44-8d5f-f3cdd54fbd6c"},"vehicle_type_id":"4","last_reported":1752070225,"current_range_meters":22400,"station_id":"ce4bhh12rcd13ifvqff0","pricing_plan_id":"cebpf4jnsgd1na2vs0mg"},{"bike_id":"0f08dfca-0bfe-4b2f-892f-97a869e97723","system_id":"levelo_inurba_marseille","lat":43.23194,"lon":5.35556,"is_reserved":false,"is_disabled":false,"rental_uris":{"android":"levelo://app?vid=0f08dfca-0bfe-4b2f-892f-97a869e97723","ios":"levelo://app?vid=0f08dfca-0bfe-4b2f-892f-97a869e97723"},"vehicle_type_id":"4","last_reported":1752070225,"current_range_meters":22400,"station_id":"ce4bhu92rcd13ifvqi70","pricing_plan_id":"cebpf4jnsgd1na2vs0mg"},{"bike_id":"d08500b9-de3a-48ff-91b8-a1d08ec3b455","system_id":"levelo_inurba_marseille","lat":43.30121,"lon":5.36419,"is_reserved":false,"is_disabled":false,"rental_uris":{"android":"levelo://app?vid=d08500b9-de3a-48ff-91b8-a1d08ec3b455","ios":"levelo://app?vid=d08500b9-de3a-48ff-91b8-a1d08ec3b455"},"vehicle_type_id":"4","last_reported":1752070225,"current_range_meters":22800,"station_id":"","pricing_plan_id":"cebpf4jnsgd1na2vs0mg"},{"bike_id":"f64ea80f-2d40-46f6-af68-55052b037017","system_id":"levelo_inurba_marseille","lat":43.31931,"lon":5.37298,"is_reserved":false,"is_disabled":false,"rental_uris":{"android":"levelo://app?vid=f64ea80f-2d40-46f6-af68-55052b037017","ios":"levelo://app?vid=f64ea80f-2d40-46f6-af68-55052b037017"},"vehicle_type_id":"4","last_reported":1752070225,"current_range_meters":22800,"station_id":"","pricing_plan_id":"cebpf4jnsgd1na2vs0mg"},{"bike_id":"0d797aec-cb68-4012-9370-e291f0d35bf6","system_id":"levelo_inurba_marseille","lat":43.31496,"lon":5.37297,"is_reserved":false,"is_disabled":false,"rental_uris":{"android":"levelo://app?vid=0d797aec-cb68-4012-9370-e291f0d35bf6","ios":"levelo://app?vid=0d797aec-cb68-4012-9370-e291f0d35bf6"},"vehicle_type_id":"4","last_reported":1752070225,"current_range_meters":22800,"station_id":"ce4bgt12rcd13ifvqcd0","pricing_plan_id":"cebpf4jnsgd1na2vs0mg"},{"bike_id":"e510ade2-3bf1-4e76-bfa8-7ebe6d4288a2","system_id":"levelo_inurba_marseille","lat":43.28398,"lon":5.34993,"is_reserved":false,"is_disabled":false,"rental_uris":{"android":"levelo://app?vid=e510ade2-3bf1-4e76-bfa8-7ebe6d4288a2","ios":"levelo://app?vid=e510ade2-3bf1-4e76-bfa8-7ebe6d4288a2"},"vehicle_type_id":"4","last_reported":1752070225,"current_range_meters":22800,"station_id":"ce4bhbh2rcd13ifvqepg","pricing_plan_id":"cebpf4jnsgd1na2vs0mg"},{"bike_id":"919288ba-3ba6-4558-8fe3-96ccfbd3d0f2","system_id":"levelo_inurba_marseille","lat":43.28605,"lon":5.35121,"is_reserved":false,"is_disabled":false,"rental_uris":{"android":"levelo://app?vid=919288ba-3ba6-4558-8fe3-96ccfbd3d0f2","ios":"levelo://app?vid=919288ba-3ba6-4558-8fe3-96ccfbd3d0f2"},"vehicle_type_id":"4","last_reported":1752070225,"current_range_meters":22800,"station_id":"ce4bhch2rcd13ifvqeug","pricing_plan_id":"cebpf4jnsgd1na2vs0mg"},{"bike_id":"03300d87-497c-4e85-8bf2-8891fc52f05a","system_id":"levelo_inurba_marseille","lat":43.26215,"lon":5.3744,"is_reserved":false,"is_disabled":false,"rental_uris":{"android":"levelo://app?vid=03300d87-497c-4e85-8bf2-8891fc52f05a","ios":"levelo://app?vid=03300d87-497c-4e85-8bf2-8891fc52f05a"},"vehicle_type_id":"4","last_reported":1752070225,"current_range_meters":22800,"station_id":"ce4bhgp2rcd13ifvqfc0","pricing_plan_id":"cebpf4jnsgd1na2vs0mg"},{"bike_id":"a37c81c5-d096-4e6d-b1b3-5bbb8251fbd0","system_id":"levelo_inurba_marseille","lat":43.24391,"lon":5.37092,"is_reserved":false,"is_disabled":false,"rental_uris":{"android":"levelo://app?vid=a37c81c5-d096-4e6d-b1b3-5bbb8251fbd0","ios":"levelo://app?vid=a37c81c5-d096-4e6d-b1b3-5bbb8251fbd0"},"vehicle_type_id":"4","last_reported":1752070225,"current_range_meters":22800,"station_id":"ce4bhhh2rcd13ifvqfk0","pricing_plan_id":"cebpf4jnsgd1na2vs0mg"},