{"last_updated":1728044222,"ttl":60,"version":"2.2","data":{"bikes":[{"bike_id":"086b36b2-8fa9-4a21-a966-d0afeb3875cc","system_id":"levelo_inurba_marseille","lat":43.30159,"lon":5.38084,"is_reserved":false,"is_disabled":false,"rental_uris":{"android":"levelo://app?vid=086b36b2-8fa9-4a21-a966-d0afeb3875cc","ios":"levelo://app?vid=086b36b2-8fa9-4a21-a966-d0afeb3875cc"},"vehicle_type_id":"4","last_reported":1728044222,"current_range_meters":36000,"station_id":"ce4bgjp2rcd13ifvqbh0","pricing_plan_id":"cebpf4jnsgd1na2vs0mg"},{"bike_id":"d373ca15-154c-47aa-906f-b38d23b806e7","system_id":"levelo_inurba_marseille","lat":43.341444,"lon":5.40906,"is_reserved":false,"is_disabled":false,"rental_uris":{"android":"levelo://app?vid=d373ca15-154c-47aa-906f-b38d23b806e7","ios":"levelo://app?vid=d373ca15-154c-47aa-906f-b38d23b806e7"},"vehicle_type_id":"4","last_reported":1728044222,"current_range_meters":39200,"station_id":"ce4bhqh2rcd13ifvqhlg","pricing_plan_id":"cebpf4jnsgd1na2vs0mg"},{"bike_id":"ea1c4b47-df71-47c6-91fa-b3b8c49b241b","system_id":"levelo_inurba_marseille","lat":43.30159,"lon":5.38083,"is_reserved":false,"is_disabled":false,"rental_uris":{"android":"levelo://app?vid=ea1c4b47-df71-47c6-91fa-b3b8c49b241b","ios":"levelo://app?vid=ea1c4b47-df71-47c6-91fa-b3b8c49b241b"},"vehicle_type_id":"4","last_reported":1728044222,"current_range_meters":12400,"station_id":"ce4bgjp2rcd13ifvqbh0","pricing_plan_id":"cebpf4jnsgd1na2vs0mg"},{"bike_id":"8f6d54d8-2440-455a-a43c-edd14e7382cf","system_id":"levelo_inurba_marseille","lat":43.26681,"lon":5.38274,"is_reserved":false,"is_disabled":false,"rental_uris":{"android":"levelo://app?vid=8f6d54d8-2440-455a-a43c-edd14e7382cf","ios":"levelo://app?vid=8f6d54d8-2440-455a-a43c-edd14e7382cf"},"vehicle_type_id":"4","last_reported":1728044222,"current_range_meters":31200,"station_id":"ce4bhg92rcd13ifvqf90","pricing_plan_id":"cebpf4jnsgd1na2vs0mg"},{"bike_id":"6568cd16-4dc1-4687-aa0e-62511c6f8bbe","system_id":"levelo_inurba_marseille","lat":43.30147,"lon":5.37422,"is_reserved":false,"is_disabled":false,"rental_uris":{"android":"levelo://app?vid=6568cd16-4dc1-4687-aa0e-62511c6f8bbe","ios":"levelo://app?vid=6568cd16-4dc1-4687-aa0e-62511c6f8bbe"},"vehicle_type_id":"4","last_reported":1728044222,"current_range_meters":9600,"station_id":"ce4bgs92rcd13ifvqcc0","pricing_plan_id":"cebpf4jnsgd1na2vs0mg"},{"bike_id":"756088e4-bd38-4606-aa6f-cbbf1461af00","system_id":"levelo_inurba_marseille","lat":43.22936,"lon":5.35378,"is_reserved":false,"is_disabled":false,"rental_uris":{"android":"levelo://app?vid=756088e4-bd38-4606-aa6f-cbbf1461af00","ios":"levelo://app?vid=756088e4-bd38-4606-aa6f-cbbf1461af00"},"vehicle_type_id":"4","last_reported":1728044222,"current_range_meters":12400,"station_id":"cpo3532slgdg3j2ikp40","pricing_plan_id":"cebpf4jnsgd1na2vs0mg"},{"bike_id":"9f2a9aac-45ae-4ea4-b039-0bbaa12f46df","system_id":"levelo_inurba_marseille","lat":43.29973,"lon":5.38484,"is_reserved":false,"is_disabled":false,"rental_uris":{"android":"levelo://app?vid=9f2a9aac-45ae-4ea4-b039-0bbaa12f46df","ios":"levelo://app?vid=9f2a9aac-45ae-4ea4-b039-0bbaa12f46df"},"vehicle_type_id":"4","last_reported":1728044222,"current_range_meters":39200,"station_id":"ce4bgj92rcd13ifvqbd0","pricing_plan_id":"cebpf4jnsgd1na2vs0mg"},{"bike_id":"c08562f9-9a03-4b45-b081-1292119993c1","system_id":"levelo_inurba_marseille","lat":43.25821,"lon":5.39437,"is_reserved":false,"is_disabled":false,"rental_uris":{"android":"levelo://app?vid=c08562f9-9a03-4b45-b081-1292119993c1","ios":"levelo://app?vid=c08562f9-9a03-4b45-b081-1292119993c1"},"vehicle_type_id":"4","last_reported":1728044222,"current_range_meters":38400,"station_id":"ce4bhip2rcd13ifvqft0","pricing_plan_id":"cebpf4jnsgd1na2vs0mg"},{"bike_id":"4bd76817-ccb5-49e3-b292-b597fc400de9","system_id":"levelo_inurba_marseille","lat":43.30312,"lon":5.36912,"is_reserved":false,"is_disabled":false,"rental_uris":{"android":"levelo://app?vid=4bd76817-ccb5-49e3-b292-b597fc400de9","ios":"levelo://app?vid=4bd76817-ccb5-49e3-b292-b597fc400de9"},"vehicle_type_id":"4","last_reported":1728044222,"current_range_meters":17600,"station_id":"ce4bgqh2rcd13ifvqc5g","pricing_plan_id":"cebpf4jnsgd1na2vs0mg"},{"bike_id":"d670dfb8-d2ba-4938-ab00-8a24d634781b","system_id":"levelo_inurba_marseille","lat":43.25113,"lon":5.40319,"is_reserved":false,"is_disabled":false,"rental_uris":{"android":"levelo://app?vid=d670dfb8-d2ba-4938-ab00-8a24d634781b","ios":"levelo://app?vid=d670dfb8-d2ba-4938-ab00-8a24d634781b"},"vehicle_type_id":"4","last_reported":1728044222,"current_range_meters":20800,"station_id":"ce4bhlh2rcd13ifvqgig","pricing_plan_id":"cebpf4jnsgd1na2vs0mg"},{"bike_id":"5c68a0ab-2eb8-4e35-b1d0-fe83f6c92a47","system_id":"levelo_inurba_marseille","lat":43.2318,"lon":5.39986,"is_reserved":false,"is_disabled":false,"rental_uris":{"android":"levelo://app?vid=5c68a0ab-2eb8-4e35-b1d0-fe83f6c92a47","ios":"levelo://app?vid=5c68a0ab-2eb8-4e35-b1d0-fe83f6c92a47"},"vehicle_type_id":"4","last_reported":1728044222,"current_range_meters":8000,"station_id":"ce4bhn12rcd13ifvqgqg","pricing_plan_id":"cebpf4jnsgd1na2vs0mg"},{"bike_id":"2e1c7b49-498a-4425-a482-2b41e87e88a0","system_id":"levelo_inurba_marseille","lat":43.294342,"lon":5.397528,"is_reserved":false,"is_disabled":false,"rental_uris":{"android":"levelo://app?vid=2e1c7b49-498a-4425-a482-2b41e87e88a0","ios":"levelo://app?vid=2e1c7b49-498a-4425-a482-2b41e87e88a0"},"vehicle_type_id":"4","last_reported":1728044222,"current_range_meters":10000,"station_id":"ce4bgth2rcd13ifvqch0","pricing_plan_id":"cebpf4jnsgd1na2vs0mg"},{"bike_id":"6738955a-21f4-4c6b-9e63-7e2ec16d5a5c","system_id":"levelo_inurba_marseille","lat":43.287077,"lon":5.373756,"is_reserved":false,"is_disabled":false,"rental_uris":{"android":"levelo://app?vid=6738955a-21f4-4c6b-9e63-7e2ec16d5a5c","ios":"levelo://app?vid=6738955a-21f4-4c6b-9e63-7e2ec16d5a5c"},"vehicle_type_id":"4","last_reported":1728044222,"current_range_meters":20400,"station_id":"ce4bh3p2rcd13ifvqdq0","pricing_plan_id":"cebpf4jnsgd1na2vs0mg"},{"bike_id":"bfe1639e-1355-4b28-a259-4d88f752c6f8","system_id":"levelo_inurba_marseille","lat":43.279449,"lon":5.41043,"is_reserved":false,"is_disabled":false,"rental_uris":{"android":"levelo://app?vid=bfe1639e-1355-4b28-a259-4d88f752c6f8","ios":"levelo://app?vid=bfe1639e-1355-4b28-a259-4d88f752c6f8"},"vehicle_type_id":"4","last_reported":1728044222,"current_range_meters":24400,"station_id":"ce4bhnp2rcd13ifvqh0g","pricing_plan_id":"cebpf4jnsgd1na2vs0mg"},{"bike_id":"c90adaee-df93-4533-83ff-567ac174f7f6","system_id":"levelo_inurba_marseille","lat":43.29932,"lon":5.3655,"is_reserved":false,"is_disabled":false,"rental_uris":{"android":"levelo://app?vid=c90adaee-df93-4533-83ff-567ac174f7f6","ios":"levelo://app?vid=c90adaee-df93-4533-83ff-567ac174f7f6"},"vehicle_type_id":"4","last_reported":1728044222,"current_range_meters":30000,"station_id":"ce4bgm92rcd13ifvqbr0","pricing_plan_id":"cebpf4jnsgd1na2vs0mg"},{"bike_id":"36f33f43-e682-4988-b8e3-30da93b988da","system_id":"levelo_inurba_marseille","lat":43.26574,"lon":5.39013,"is_reserved":false,"is_disabled":false,"rental_uris":{"android":"levelo://app?vid=36f33f43-e682-4988-b8e3-30da93b988da","ios":"levelo://app?vid=36f33f43-e682-4988-b8e3-30da93b988da"},"vehicle_type_id":"4","last_reported":1728044222,"current_range_meters":13600,"station_id":"ce4bhe12rcd13ifvqf30","pricing_plan_id":"cebpf4jnsgd1na2vs0mg"},{"bike_id":"a99e0887-fb66-4880-8761-33fdb36b8615","system_id":"levelo_inurba_marseille","lat":43.23187,"lon":5.39985,"is_reserved":false,"is_disabled":false,"rental_uris":{"android":"levelo://app?vid=a99e0887-fb66-4880-8761-33fdb36b8615","ios":"levelo://app?vid=a99e0887-fb66-4880-8761-33fdb36b8615"},"vehicle_type_id":"4","last_reported":1728044222,"current_range_meters":10000,"station_id":"ce4bhn12rcd13ifvqgqg","pricing_plan_id":"cebpf4jnsgd1na2vs0mg"},{"bike_id":"cec46fd7-d9e5-47df-87c7-fbcd217fe57d","system_id":"levelo_inurba_marseille","lat":43.28724,"lon":5.36096,"is_reserved":false,"is_disabled":false,"rental_uris":{"android":"levelo://app?vid=cec46fd7-d9e5-47df-87c7-fbcd217fe57d","ios":"levelo://app?vid=cec46fd7-d9e5-47df-87c7-fbcd217fe57d"},"vehicle_type_id":"4","last_reported":1728044222,"current_range_meters":34800,"station_id":"cki0cbj6b192h4jlfktg","pricing_plan_id":"cebpf4jnsgd1na2vs0mg"},{"bike_id":"70b16941-da71-4d36-9416-b0245a151b17","system_id":"levelo_inurba_marseille","lat":43.302736,"lon":5.396734,"is_reserved":false,"is_disabled":false,"rental_uris":{"android":"levelo://app?vid=70b16941-da71-4d36-9416-b0245a151b17","ios":"levelo://app?vid=70b16941-da71-4d36-9416-b0245a151b17"},"vehicle_type_id":"4","last_reported":1728044222,"current_range_meters":36400,"station_id":"ce4bh112rcd13ifvqd90","pricing_plan_id":"cebpf4jnsgd1na2vs0mg"},{"bike_id":"50c3c6d7-aa39-476f-a465-090cb987a8fa","system_id":"levelo_inurba_marseille","lat":43.30535,"lon":5.36714,"is_reserved":false,"is_disabled":false,"rental_uris":{"android":"levelo://app?vid=50c3c6d7-aa39-476f-a465-090cb987a8fa","ios":"levelo://app?vid=50c3c6d7-aa39-476f-a465-090cb987a8fa"},"vehicle_type_id":"4","last_reported":1728044222,"current_range_meters":31200,"station_id":"ce4bgrp2rcd13ifvqc9g","pricing_plan_id":"cebpf4jnsgd1na2vs0mg"},{"bike_id":"508f3721-a33f-40e9-a457-dbaf47be4457","system_id":"levelo_inurba_marseille","lat":43.28106,"lon":5.37832,"is_reserved":false,"is_disabled":false,"rental_uris":{"android":"levelo://app?vid=508f3721-a33f-40e9-a457-dbaf47be4457","ios":"levelo://app?vid=508f3721-a33f-40e9-a457-dbaf47be4457"},"vehicle_type_id":"4","last_reported":1728044222,"current_range_meters":4000,"station_id":"ce4bha12rcd13ifvqee0","pricing_plan_id":"cebpf4jnsgd1na2vs0mg"},{"bike_id":"ec51460e-50f2-4177-912b-4228bab18ee1","system_id":"levelo_inurba_marseille","lat":43.29021,"lon":5.38131,"is_reserved":false,"is_disabled":false,"rental_uris":{"android":"levelo://app?vid=ec51460e-50f2-4177-912b-4228bab18ee1","ios":"levelo://app?vid=ec51460e-50f2-4177-912b-4228bab18ee1"},"vehicle_type_id":"4","last_reported":1728044222,"current_range_meters":38800,"station_id":"ce4bh4p2rcd13ifvqe1g","pricing_plan_id":"cebpf4jnsgd1na2vs0mg"},{"bike_id":"5d457fea-746b-46d8-82a0-9408e9fb45d0","system_id":"levelo_inurba_marseille","lat":43.29223,"lon":5.36058,"is_reserved":false,"is_disabled":false,"rental_uris":{"android":"levelo://app?vid=5d457fea-746b-46d8-82a0-9408e9fb45d0","ios":"levelo://app?vid=5d457fea-746b-46d8-82a0-9408e9fb45d0"},"vehicle_type_id":"4","last_reported":1728044222,"current_range_meters":4800,"station_id":"ce4bhbh2rcd13ifvqeqg","pricing_plan_id":"cebpf4jnsgd1na2vs0mg"},{"bike_id":"26f965dd-27bb-4149-95c9-f5a220b18b57","system_id":"levelo_inurba_marseille","lat":43.30929,"lon":5.40161,"is_reserved":false,"is_disabled":false,"rental_uris":{"android":"levelo://app?vid=26f965dd-27bb-4149-95c9-f5a220b18b57","ios":"levelo://app?vid=26f965dd-27bb-4149-95c9-f5a220b18b57"},"vehicle_type_id":"4","last_reported":1728044222,"current_range_meters":12000,"station_id":"ce4bgvp2rcd13ifvqct0","pricing_plan_id":"cebpf4jnsgd1na2vs0mg"},{"bike_id":"998dc9a1-9dc6-4c75-b72e-8b00bb514c1a","system_id":"levelo_inurba_marseille","lat":43.28274,"lon":5.35066,"is_reserved":false,"is_disabled":false,"rental_uris":{"android":"levelo://app?vid=998dc9a1-9dc6-4c75-b72e-8b00bb514c1a","ios":"levelo://app?vid=998dc9a1-9dc6-4c75-b72e-8b00bb514c1a"},"vehicle_type_id":"4","last_reported":1728044222,"current_range_meters":20400,"station_id":"ce4bhbp2rcd13ifvqerg","pricing_plan_id":"cebpf4jnsgd1na2vs0mg"},{"bike_id":"cb92aba5-4872-4e7f-a488-965e8c3995a3","system_id":"levelo_inurba_marseille","lat":43.29899,"lon":5.43664,"is_reserved":false,"is_disabled":false,"rental_uris":{"android":"levelo://app?vid=cb92aba5-4872-4e7f-a488-965e8c3995a3","ios":"levelo://app?vid=cb92aba5-4872-4e7f-a488-965e8c3995a3"},"vehicle_type_id":"4","last_reported":1728044222,"current_range_meters":31200,"station_id":"ce4bhpp2rcd13ifvqhfg","pricing_plan_id":"cebpf4jnsgd1na2vs0mg"},{"bike_id":"1cfb68e9-ae90-4ad3-833a-f1c7784a486f","system_id":"levelo_inurba_marseille","lat":43.27967,"lon":5.4008,"is_reserved":false,"is_disabled":false,"rental_uris":{"android":"levelo://app?vid=1cfb68e9-ae90-4ad3-833a-f1c7784a486f","ios":"levelo://app?vid=1cfb68e9-ae90-4ad3-833a-f1c7784a486f"},"vehicle_type_id":"4","last_reported":1728044222,"current_range_meters":37600,"station_id":"ce4bho12rcd13ifvqh2g","pricing_plan_id":"cebpf4jnsgd1na2vs0mg"},{"bike_id":"1a7ed56a-5ef7-4e31-a7f4-ad7577378a0a","system_id":"levelo_inurba_marseille","lat":43.26569,"lon":5.38997,"is_reserved":false,"is_disabled":false,"rental_uris":{"android":"levelo://app?vid=1a7ed56a-5ef7-4e31-a7f4-ad7577378a0a","ios":"levelo://app?vid=1a7ed56a-5ef7-4e31-a7f4-ad7577378a0a"},"vehicle_type_id":"4","last_reported":1728044222,"current_range_meters":38400,"station_id":"ce4bhe12rcd13ifvqf30","pricing_plan_id":"cebpf4jnsgd1na2vs0mg"},{"bike_id":"45b6d5ec-af92-4d90-9c58-9410249f785a","system_id":"levelo_inurba_marseille","lat":43.29307,"lon":5.37175,"is_reserved":false,"is_disabled":false,"rental_uris":{"android":"levelo://app?vid=45b6d5ec-af92-4d90-9c58-9410249f785a","ios":"levelo://app?vid=45b6d5ec-af92-4d90-9c58-9410249f785a"},"vehicle_type_id":"4","last_reported":1728044222,"current_range_meters":38400,"station_id":"ce4bgh92rcd13ifvqb40","pricing_plan_id":"cebpf4jnsgd1na2vs0mg"},{"bike_id":"bbe16d9f-1398-4ae8-9389-fdd330196eb0","system_id":"levelo_inurba_marseille","lat":43.28421,"lon":5.34994,"is_reserved":false,"is_disabled":false,"rental_uris":{"android":"levelo://app?vid=bbe16d9f-1398-4ae8-9389-fdd330196eb0","ios":"levelo://app?vid=bbe16d9f-1398-4ae8-9389-fdd330196eb0"},"vehicle_type_id":"4","last_reported":1728044222,"current_range_meters":38800,"station_id":"ce4bhbh2rcd13ifvqepg","pricing_plan_id":"cebpf4jnsgd1na2vs0mg"},{"bike_id":"e6b2df58-b4a0-4aec-933d-a62e42f34d34","system_id":"levelo_inurba_marseille","lat":43.33725,"lon":5.39195,"is_reserved":false,"is_disabled":false,"rental_uris":{"android":"levelo://app?vid=e6b2df58-b4a0-4aec-933d-a62e42f34d34","ios":"levelo://app?vid=e6b2df58-b4a0-4aec-933d-a62e42f34d34"},"vehicle_type_id":"4","last_reported":1728044222,"current_range_meters":20000,"station_id":"ce4bhr92rcd13ifvqhsg","pricing_plan_id":"cebpf4jnsgd1na2vs0mg"},{"bike_id":"403b9a65-80d1-462a-86d2-ae897d65bc96","system_id":"levelo_inurba_marseille","lat":43.30156,"lon":5.38086,"is_reserved":false,"is_disabled":false,"rental_uris":{"android":"levelo://app?vid=403b9a65-80d1-462a-86d2-ae897d65bc96","ios":"levelo://app?vid=403b9a65-80d1-462a-86d2-ae897d65bc96"},"vehicle_type_id":"4","last_reported":1728044222,"current_range_meters":38000,"station_id":"ce4bgjp2rcd13ifvqbh0","pricing_plan_id":"cebpf4jnsgd1na2vs0mg"},{"bike_id":"d77938b7-ff1e-465c-a8b9-4b07085a5cc9","system_id":"levelo_inurba_marseille","lat":43.23064,"lon":5.35496,"is_reserved":false,"is_disabled":false,"rental_uris":{"android":"levelo://app?vid=d77938b7-ff1e-465c-a8b9-4b07085a5cc9","ios":"levelo://app?vid=d77938b7-ff1e-465c-a8b9-4b07085a5cc9"},"vehicle_type_id":"4","last_reported":1728044222,"current_range_meters":20800,"station_id":"cpo3342slgdg3j2ifvpg","pricing_plan_id":"cebpf4jnsgd1na2vs0mg"},{"bike_id":"69c4eb56-058e-4af1-b352-7ce95220b25e","system_id":"levelo_inurba_marseille","lat":43.33764,"lon":5.37441,"is_reserved":false,"is_disabled":false,"rental_uris":{"android":"levelo://app?vid=69c4eb56-058e-4af1-b352-7ce95220b25e","ios":"levelo://app?vid=69c4eb56-058e-4af1-b352-7ce95220b25e"},"vehicle_type_id":"4","last_reported":1728044222,"current_range_meters":38800,"station_id":"","pricing_plan_id":"cebpf4jnsgd1na2vs0mg"},{"bike_id":"7eb7bc80-f0fe-4232-abbb-663f28d31718","system_id":"levelo_inurba_marseille","lat":43.24993,"lon":5.38937,"is_reserved":false,"is_disabled":false,"rental_uris":{"android":"levelo://app?vid=7eb7bc80-f0fe-4232-abbb-663f28d31718","ios":"levelo://app?vid=7eb7bc80-f0fe-4232-abbb-663f28d31718"},"vehicle_type_id":"4","last_reported":1728044222,"current_range_meters":23200,"station_id":"ce4bhgp2rcd13ifvqfd0","pricing_plan_id":"cebpf4jnsgd1na2vs0mg"},{"bike_id":"b15d64be-0ffe-4a3b-9e73-a08e6892885a","system_id":"levelo_inurba_marseille","lat":43.296196,"lon":5.371703,"is_reserved":false,"is_disabled":false,"rental_uris":{"android":"levelo://app?vid=b15d64be-0ffe-4a3b-9e73-a08e6892885a","ios":"levelo://app?vid=b15d64be-0ffe-4a3b-9e73-a08e6892885a"},"vehicle_type_id":"4","last_reported":1728044222,"current_range_meters":39200,"station_id":"ce4bgnh2rcd13ifvqc0g","pricing_plan_id":"cebpf4jnsgd1na2vs0mg"},{"bike_id":"f28a398b-7f19-43ef-8ecb-e2fd6365132e","system_id":"levelo_inurba_marseille","lat":43.27496,"lon":5.42452,"is_reserved":false,"is_disabled":false,"rental_uris":{"android":"levelo://app?vid=f28a398b-7f19-43ef-8ecb-e2fd6365132e","ios":"levelo://app?vid=f28a398b-7f19-43ef-8ecb-e2fd6365132e"},"vehicle_type_id":"4","last_reported":1728044222,"current_range_meters":30000,"station_id":"ce4bhn92rcd13ifvqgrg","pricing_plan_id":"cebpf4jnsgd1na2vs0mg"},{"bike_id":"566a9cf0-f209-4c9f-9e1e-a43a024de395","system_id":"levelo_inurba_marseille","lat":43.27379,"lon":5.36248,"is_reserved":false,"is_disabled":false,"rental_uris":{"android":"levelo://app?vid=566a9cf0-f209-4c9f-9e1e-a43a024de395","ios":"levelo://app?vid=566a9cf0-f209-4c9f-9e1e-a43a024de395"},"vehicle_type_id":"4","last_reported":1728044222,"current_range_meters":26000,"station_id":"ce4bhbh2rcd13ifvqeo0","pricing_plan_id":"cebpf4jnsgd1na2vs0mg"},{"bike_id":"b73551f1-4737-42f3-8efd-5f2fca843848","system_id":"levelo_inurba_marseille","lat":43.29897,"lon":5.43669,"is_reserved":false,"is_disabled":false,"rental_uris":{"android":"levelo://app?vid=b73551f1-4737-42f3-8efd-5f2fca843848","ios":"levelo://app?vid=b73551f1-4737-42f3-8efd-5f2fca843848"},"vehicle_type_id":"4","last_reported":1728044222,"current_range_meters":17600,"station_id":"ce4bhpp2rcd13ifvqhfg","pricing_plan_id":"cebpf4jnsgd1na2vs0mg"},{"bike_id":"998e1e96-d589-4646-9b9c-6f6d89a4cafd","system_id":"levelo_inurba_marseille","lat":43.318848,"lon":5.407377,"is_reserved":false,"is_disabled":false,"rental_uris":{"android":"levelo://app?vid=998e1e96-d589-4646-9b9c-6f6d89a4cafd","ios":"levelo://app?vid=998e1e96-d589-4646-9b9c-6f6d89a4cafd"},"vehicle_type_id":"4","last_reported":1728044222,"current_range_meters":6800,"station_id":"ce4bhq12rcd13ifvqhig","pricing_plan_id":"cebpf4jnsgd1na2vs0mg"},{"bike_id":"1d2f50f0-a92b-4cc3-8df7-4e1465139892","system_id":"levelo_inurba_marseille","lat":43.25589,"lon":5.38221,"is_reserved":false,"is_disabled":false,"rental_uris":{"android":"levelo://app?vid=1d2f50f0-a92b-4cc3-8df7-4e1465139892","ios":"levelo://app?vid=1d2f50f0-a92b-4cc3-8df7-4e1465139892"},"vehicle_type_id":"4","last_reported":1728044222,"current_range_meters":39200,"station_id":"ce4bhih2rcd13ifvqfs0","pricing_plan_id":"cebpf4jnsgd1na2vs0mg"},{"bike_id":"660b7f0e-99a7-4a74-8e9e-56567b169f93","system_id":"levelo_inurba_marseille","lat":43.25113,"lon":5.4032,"is_reserved":false,"is_disabled":false,"rental_uris":{"android":"levelo://app?vid=660b7f0e-99a7-4a74-8e9e-56567b169f93","ios":"levelo://app?vid=660b7f0e-99a7-4a74-8e9e-56567b169f93"},"vehicle_type_id":"4","last_reported":1728044222,"current_range_meters":26000,"station_id":"ce4bhlh2rcd13ifvqgig","pricing_plan_id":"cebpf4jnsgd1na2vs0mg"},{"bike_id":"5066fb3e-3c49-4c72-8370-e52313ab58c2","system_id":"levelo_inurba_marseille","lat":43.30916,"lon":5.36858,"is_reserved":false,"is_disabled":false,"rental_uris":{"android":"levelo://app?vid=5066fb3e-3c49-4c72-8370-e52313ab58c2","ios":"levelo://app?vid=5066fb3e-3c49-4c72-8370-e52313ab58c2"},"vehicle_type_id":"4","last_reported":1728044222,"current_range_meters":15200,"station_id":"ce4bgn92rcd13ifvqbvg","pricing_plan_id":"cebpf4jnsgd1na2vs0mg"},{"bike_id":"11b9e323-22dd-46c5-b334-f195b8ba8e6c","system_id":"levelo_inurba_marseille","lat":43.27073,"lon":5.42278,"is_reserved":false,"is_disabled":false,"rental_uris":{"android":"levelo://app?vid=11b9e323-22dd-46c5-b334-f195b8ba8e6c","ios":"levelo://app?vid=11b9e323-22dd-46c5-b334-f195b8ba8e6c"},"vehicle_type_id":"4","last_reported":1728044222,"current_range_meters":2800,"station_id":"ce4bhk92rcd13ifvqgb0","pricing_plan_id":"cebpf4jnsgd1na2vs0mg"},{"bike_id":"f6c40c9f-64a8-4a1f-ae26-580c0b304c1c","system_id":"levelo_inurba_marseille","lat":43.30432,"lon":5.38903,"is_reserved":false,"is_disabled":false,"rental_uris":{"android":"levelo://app?vid=f6c40c9f-64a8-4a1f-ae26-580c0b304c1c","ios":"levelo://app?vid=f6c40c9f-64a8-4a1f-ae26-580c0b304c1c"},"vehicle_type_id":"4","last_reported":1728044222,"current_range_meters":3600,"station_id":"ce4bgk12rcd13ifvqbi0","pricing_plan_id":"cebpf4jnsgd1na2vs0mg"},{"bike_id":"3f70306f-1741-4d2d-8040-398f49a11dda","system_id":"levelo_inurba_marseille","lat":43.23968,"lon":5.36622,"is_reserved":false,"is_disabled":false,"rental_uris":{"android":"levelo://app?vid=3f70306f-1741-4d2d-8040-398f49a11dda","ios":"levelo://app?vid=3f70306f-1741-4d2d-8040-398f49a11dda"},"vehicle_type_id":"4","last_reported":1728044222,"current_range_meters":38800,"station_id":"ce4bhi12rcd13ifvqfp0","pricing_plan_id":"cebpf4jnsgd1na2vs0mg"},{"bike_id":"e94ef389-8f41-4ef3-979b-ef3392751861","system_id":"levelo_inurba_marseille","lat":43.25116,"lon":5.40319,"is_reserved":false,"is_disabled":false,"rental_uris":{"android":"levelo://app?vid=e94ef389-8f41-4ef3-979b-ef3392751861","ios":"levelo://app?vid=e94ef389-8f41-4ef3-979b-ef3392751861"},"vehicle_type_id":"4","last_reported":1728044222,"current_range_meters":7200,"station_id":"ce4bhlh2rcd13ifvqgig","pricing_plan_id":"cebpf4jnsgd1na2vs0mg"},{"bike_id":"86a59fdf-5419-4bd8-a9ed-c91c60731103","system_id":"levelo_inurba_marseille","lat":43.30312,"lon":5.37917,"is_reserved":false,"is_disabled":false,"rental_uris":{"android":"levelo://app?vid=86a59fdf-5419-4bd8-a9ed-c91c60731103","ios":"levelo://app?vid=86a59fdf-5419-4bd8-a9ed-c91c60731103"},"vehicle_type_id":"4","last_reported":1728044222,"current_range_meters":18000,"station_id":"","pricing_plan_id":"cebpf4jnsgd1na2vs0mg"},{"bike_id":"e04a92a4-6a30-4ee8-8a65-0815173e9690","system_id":"levelo_inurba_marseille","lat":43.33613,"lon":5.41032,"is_reserved":false,"is_disabled":false,"rental_uris":{"android":"levelo://app?vid=e04a92a4-6a30-4ee8-8a65-0815173e9690","ios":"levelo://app?vid=e04a92a4-6a30-4ee8-8a65-0815173e9690"},"vehicle_type_id":"4","last_reported":1728044222,"current_range_meters":12000,"station_id":"ce4bhqh2rcd13ifvqhmg","pricing_plan_id":"cebpf4jnsgd1na2vs0mg"},{"bike_id":"8415ea03-c99e-45ae-a548-d6dca9836e16","system_id":"levelo_inurba_marseille","lat":43.25105,"lon":5.40325,"is_reserved":false,"is_disabled":false,"rental_uris":{"android":"levelo://app?vid=8415ea03-c99e-45ae-a548-d6dca9836e16","ios":"levelo://app?vid=8415ea03-c99e-45ae-a548-d6dca9836e16"},"vehicle_type_id":"4","last_reported":1728044222,"current_range_meters":33600,"station_id":"ce4bhlh2rcd13ifvqgig","pricing_plan_id":"cebpf4jnsgd1na2vs0mg"},{"bike_id":"a0b2b201-4661-4f03-9760-8c68fd26ba30","system_id":"levelo_inurba_marseille","lat":43.29227,"lon":5.36059,"is_reserved":false,"is_disabled":false,"rental_uris":{"android":"levelo://app?vid=a0b2b201-4661-4f03-9760-8c68fd26ba30","ios":"levelo://app?vid=a0b2b201-4661-4f03-9760-8c68fd26ba30"},"vehicle_type_id":"4","last_reported":1728044222,"current_range_meters":37600,"station_id":"ce4bhbh2rcd13ifvqeqg","pricing_plan_id":"cebpf4jnsgd1na2vs0mg"},{"bike_id":"aec95a22-ab80-4f47-abbb-194a060b590b","system_id":"levelo_inurba_marseille","lat":43.27557,"lon":5.38421,"is_reserved":false,"is_disabled":false,"rental_uris":{"android":"levelo://app?vid=aec95a22-ab80-4f47-abbb-194a060b590b","ios":"levelo://app?vid=aec95a22-ab80-4f47-abbb-194a060b590b"},"vehicle_type_id":"4","last_reported":1728044222,"current_range_meters":8000,"station_id":"ce4bhh92rcd13ifvqfi0","pricing_plan_id":"cebpf4jnsgd1na2vs0mg"},{"bike_id":"048e8818-0a09-48f9-8986-0767b4e90977","system_id":"levelo_inurba_marseille","lat":43.28941,"lon":5.38388,"is_reserved":false,"is_disabled":false,"rental_uris":{"android":"levelo://app?vid=048e8818-0a09-48f9-8986-0767b4e90977","ios":"levelo://app?vid=048e8818-0a09-48f9-8986-0767b4e90977"},"vehicle_type_id":"4","last_reported":1728044222,"current_range_meters":22800,"station_id":"ce4bh612rcd13ifvqe6g","pricing_plan_id":"cebpf4jnsgd1na2vs0mg"},{"bike_id":"370a207e-4106-4ac5-be2b-998af9608169","system_id":"levelo_inurba_marseille","lat":43.28032,"lon":5.36954,"is_reserved":false,"is_disabled":false,"rental_uris":{"android":"levelo://app?vid=370a207e-4106-4ac5-be2b-998af9608169","ios":"levelo://app?vid=370a207e-4106-4ac5-be2b-998af9608169"},"vehicle_type_id":"4","last_reported":1728044222,"current_range_meters":31200,"station_id":"ce4bha12rcd13ifvqef0","pricing_plan_id":"cebpf4jnsgd1na2vs0mg"},{"bike_id":"148189cb-3ce1-477a-ac84-bc75f9d80531","system_id":"levelo_inurba_marseille","lat":43.30637,"lon":5.40098,"is_reserved":false,"is_disabled":false,"rental_uris":{"android":"levelo://app?vid=148189cb-3ce1-477a-ac84-bc75f9d80531","ios":"levelo://app?vid=148189cb-3ce1-477a-ac84-bc75f9d80531"},"vehicle_type_id":"4","last_reported":1728044222,"current_range_meters":32400,"station_id":"ce4bh112rcd13ifvqda0","pricing_plan_id":"cebpf4jnsgd1na2vs0mg"},{"bike_id":"17dfb840-f8c0-4bc2-9c91-6aeef1a89e62","system_id":"levelo_inurba_marseille","lat":43.32539,"lon":5.41451,"is_reserved":false,"is_disabled":false,"rental_uris":{"android":"levelo://app?vid=17dfb840-f8c0-4bc2-9c91-6aeef1a89e62","ios":"levelo://app?vid=17dfb840-f8c0-4bc2-9c91-6aeef1a89e62"},"vehicle_type_id":"4","last_reported":1728044222,"current_range_meters":39200,"station_id":"ce4bhq12rcd13ifvqhhg","pricing_plan_id":"cebpf4jnsgd1na2vs0mg"},{"bike_id":"947c8588-2fdd-4b32-a8f4-4c225665f9e6","system_id":"levelo_inurba_marseille","lat":43.28854,"lon":5.35851,"is_reserved":false,"is_disabled":false,"rental_uris":{"android":"levelo://app?vid=947c8588-2fdd-4b32-a8f4-4c225665f9e6","ios":"levelo://app?vid=947c8588-2fdd-4b32-a8f4-4c225665f9e6"},"vehicle_type_id":"4","last_reported":1728044222,"current_range_meters":16800,"station_id":"ce4bhb12rcd13ifvqem0","pricing_plan_id":"cebpf4jnsgd1na2vs0mg"},{"bike_id":"4116a42b-3a07-4938-b83d-07bec4a2d803","system_id":"levelo_inurba_marseille","lat":43.30597,"lon":5.37219,"is_reserved":false,"is_disabled":false,"rental_uris":{"android":"levelo://app?vid=4116a42b-3a07-4938-b83d-07bec4a2d803","ios":"levelo://app?vid=4116a42b-3a07-4938-b83d-07bec4a2d803"},"vehicle_type_id":"4","last_reported":1728044222,"current_range_meters":31200,"station_id":"ce4bgqh2rcd13ifvqc4g","pricing_plan_id":"cebpf4jnsgd1na2vs0mg"},{"bike_id":"8db25c41-e666-468a-9db9-cff7789b58d5","system_id":"levelo_inurba_marseille","lat":43.28727,"lon":5.37928,"is_reserved":false,"is_disabled":false,"rental_uris":{"android":"levelo://app?vid=8db25c41-e666-468a-9db9-cff7789b58d5","ios":"levelo://app?vid=8db25c41-e666-468a-9db9-cff7789b58d5"},"vehicle_type_id":"4","last_reported":1728044222,"current_range_meters":17200,"station_id":"ce4bh9p2rcd13ifvqec0","pricing_plan_id":"cebpf4jnsgd1na2vs0mg"},{"bike_id":"1c10b30c-0ab7-4106-a6f3-908a099292be","system_id":"levelo_inurba_marseille","lat":43.32369,"lon":5.38882,"is_reserved":false,"is_disabled":false,"rental_uris":{"android":"levelo://app?vid=1c10b30c-0ab7-4106-a6f3-908a099292be","ios":"levelo://app?vid=1c10b30c-0ab7-4106-a6f3-908a099292be"},"vehicle_type_id":"4","last_reported":1728044222,"current_range_meters":16000,"station_id":"ce4bhqp2rcd13ifvqhog","pricing_plan_id":"cebpf4jnsgd1na2vs0mg"},{"bike_id":"85a60867-0292-479f-99a9-23810b153b98","system_id":"levelo_inurba_marseille","lat":43.27072,"lon":5.42277,"is_reserved":false,"is_disabled":false,"rental_uris":{"android":"levelo://app?vid=85a60867-0292-479f-99a9-23810b153b98","ios":"levelo://app?vid=85a60867-0292-479f-99a9-23810b153b98"},"vehicle_type_id":"4","last_reported":1728044222,"current_range_meters":8800,"station_id":"ce4bhk92rcd13ifvqgb0","pricing_plan_id":"cebpf4jnsgd1na2vs0mg"},{"bike_id":"e08c062f-61a2-493a-875d-6e296e2965d6","system_id":"levelo_inurba_marseille","lat":43.33757,"lon":5.37443,"is_reserved":false,"is_disabled":false,"rental_uris":{"android":"levelo://app?vid=e08c062f-61a2-493a-875d-6e296e2965d6","ios":"levelo://app?vid=e08c062f-61a2-493a-875d-6e296e2965d6"},"vehicle_type_id":"4","last_reported":1728044222,"current_range_meters":36000,"station_id":"","pricing_plan_id":"cebpf4jnsgd1na2vs0mg"},{"bike_id":"fa3d6ca4-2f87-4548-92ec-46dd58791c3a","system_id":"levelo_inurba_marseille","lat":43.2315,"lon":5.43717,"is_reserved":false,"is_disabled":false,"rental_uris":{"android":"levelo://app?vid=fa3d6ca4-2f87-4548-92ec-46dd58791c3a","ios":"levelo://app?vid=fa3d6ca4-2f87-4548-92ec-46dd58791c3a"},"vehicle_type_id":"4","last_reported":1728044222,"current_range_meters":8400,"station_id":"ce4bhmp2rcd13ifvqgog","pricing_plan_id":"cebpf4jnsgd1na2vs0mg"},{"bike_id":"d071871a-be0c-4c0d-bfd6-d200da0d0a2b","system_id":"levelo_inurba_marseille","lat":43.24074,"lon":5.37761,"is_reserved":false,"is_disabled":false,"rental_uris":{"android":"levelo://app?vid=d071871a-be0c-4c0d-bfd6-d200da0d0a2b","ios":"levelo://app?vid=d071871a-be0c-4c0d-bfd6-d200da0d0a2b"},"vehicle_type_id":"4","last_reported":1728044222,"current_range_meters":26800,"station_id":"ce4bhnp2rcd13ifvqgvg","pricing_plan_id":"cebpf4jnsgd1na2vs0mg"},{"bike_id":"4c81f33e-1ced-4cd3-9243-352462c111d0","system_id":"levelo_inurba_marseille","lat":43.28277,"lon":5.35071,"is_reserved":false,"is_disabled":false,"rental_uris":{"android":"levelo://app?vid=4c81f33e-1ced-4cd3-9243-352462c111d0","ios":"levelo://app?vid=4c81f33e-1ced-4cd3-9243-352462c111d0"},"vehicle_type_id":"4","last_reported":1728044222,"current_range_meters":40000,"station_id":"ce4bhbp2rcd13ifvqerg","pricing_plan_id":"cebpf4jnsgd1na2vs0mg"},{"bike_id":"d2940846-8984-465b-bbaa-9e158fa700fd","system_id":"levelo_inurba_marseille","lat":43.23968,"lon":5.36628,"is_reserved":false,"is_disabled":false,"rental_uris":{"android":"levelo://app?vid=d2940846-8984-465b-bbaa-9e158fa700fd","ios":"levelo://app?vid=d2940846-8984-465b-bbaa-9e158fa700fd"},"vehicle_type_id":"4","last_reported":1728044222,"current_range_meters":20400,"station_id":"ce4bhi12rcd13ifvqfp0","pricing_plan_id":"cebpf4jnsgd1na2vs0mg"},{"bike_id":"2cb8bcf5-3bf3-4f5c-93f7-4d7fb8441b84","system_id":"levelo_inurba_marseille","lat":43.29622,"lon":5.37155,"is_reserved":false,"is_disabled":false,"rental_uris":{"android":"levelo://app?vid=2cb8bcf5-3bf3-4f5c-93f7-4d7fb8441b84","ios":"levelo://app?vid=2cb8bcf5-3bf3-4f5c-93f7-4d7fb8441b84"},"vehicle_type_id":"4","last_reported":1728044222,"current_range_meters":38000,"station_id":"ce4bgnh2rcd13ifvqc0g","pricing_plan_id":"cebpf4jnsgd1na2vs0mg"},{"bike_id":"50d2b63f-76bd-44c5-81a8-af0d9d3b481c","system_id":"levelo_inurba_marseille","lat":43.32475,"lon":5.36562,"is_reserved":false,"is_disabled":false,"rental_uris":{"android":"levelo://app?vid=50d2b63f-76bd-44c5-81a8-af0d9d3b481c","ios":"levelo://app?vid=50d2b63f-76bd-44c5-81a8-af0d9d3b481c"},"vehicle_type_id":"4","last_reported":1728044222,"current_range_meters":23200,"station_id":"ce4bhs12rcd13ifvqhvg","pricing_plan_id":"cebpf4jnsgd1na2vs0mg"},{"bike_id":"e83a57ae-ea8c-4375-ac79-171048c711c5","system_id":"levelo_inurba_marseille","lat":43.24074,"lon":5.37758,"is_reserved":false,"is_disabled":false,"rental_uris":{"android":"levelo://app?vid=e83a57ae-ea8c-4375-ac79-171048c711c5","ios":"levelo://app?vid=e83a57ae-ea8c-4375-ac79-171048c711c5"},"vehicle_type_id":"4","last_reported":1728044222,"current_range_meters":14000,"station_id":"ce4bhnp2rcd13ifvqgvg","pricing_plan_id":"cebpf4jnsgd1na2vs0mg"},{"bike_id":"0ba825c7-416c-4ef8-8104-46a6222e4373","system_id":"levelo_inurba_marseille","lat":43.23151,"lon":5.43719,"is_reserved":false,"is_disabled":false,"rental_uris":{"android":"levelo://app?vid=0ba825c7-416c-4ef8-8104-46a6222e4373","ios":"levelo://app?vid=0ba825c7-416c-4ef8-8104-46a6222e4373"},"vehicle_type_id":"4","last_reported":1728044222,"current_range_meters":31200,"station_id":"ce4bhmp2rcd13ifvqgog","pricing_plan_id":"cebpf4jnsgd1na2vs0mg"},{"bike_id":"b3404529-2fc0-49b4-84f0-b644e8a2b421","system_id":"levelo_inurba_marseille","lat":43.25107,"lon":5.40323,"is_reserved":false,"is_disabled":false,"rental_uris":{"android":"levelo://app?vid=b3404529-2fc0-49b4-84f0-b644e8a2b421","ios":"levelo://app?vid=b3404529-2fc0-49b4-84f0-b644e8a2b421"},"vehicle_type_id":"4","last_reported":1728044222,"current_range_meters":33600,"station_id":"ce4bhlh2rcd13ifvqgig","pricing_plan_id":"cebpf4jnsgd1na2vs0mg"},{"bike_id":"12014e5f-9061-4078-ba17-f5b4421eab0c","system_id":"levelo_inurba_marseille","lat":43.23148,"lon":5.43724,"is_reserved":false,"is_disabled":false,"rental_uris":{"android":"levelo://app?vid=12014e5f-9061-4078-ba17-f5b4421eab0c","ios":"levelo://app?vid=12014e5f-9061-4078-ba17-f5b4421eab0c"},"vehicle_type_id":"4","last_reported":1728044222,"current_range_meters":12800,"station_id":"ce4bhmp2rcd13ifvqgog","pricing_plan_id":"cebpf4jnsgd1na2vs0mg"},{"bike_id":"c61846aa-2c58-473a-a7a9-3e027d79fbfd","system_id":"levelo_inurba_marseille","lat":43.29714,"lon":5.37691,"is_reserved":false,"is_disabled":false,"rental_uris":{"android":"levelo://app?vid=c61846aa-2c58-473a-a7a9-3e027d79fbfd","ios":"levelo://app?vid=c61846aa-2c58-473a-a7a9-3e027d79fbfd"},"vehicle_type_id":"4","last_reported":1728044222,"current_range_meters":7200,"station_id":"ce4bgkh2rcd13ifvqbl0","pricing_plan_id":"cebpf4jnsgd1na2vs0mg"},{"bike_id":"a9fcc434-f404-477b-bcd2-1ade3ac82822","system_id":"levelo_inurba_marseille","lat":43.29718,"lon":5.37695,"is_reserved":false,"is_disabled":false,"rental_uris":{"android":"levelo://app?vid=a9fcc434-f404-477b-bcd2-1ade3ac82822","ios":"levelo://app?vid=a9fcc434-f404-477b-bcd2-1ade3ac82822"},"vehicle_type_id":"4","last_reported":1728044222,"current_range_meters":32800,"station_id":"ce4bgkh2rcd13ifvqbl0","pricing_plan_id":"cebpf4jnsgd1na2vs0mg"},{"bike_id":"cec62897-bd90-4c3a-a531-cb7c5bfad195","system_id":"levelo_inurba_marseille","lat":43.26676,"lon":5.38276,"is_reserved":false,"is_disabled":false,"rental_uris":{"android":"levelo://app?vid=cec62897-bd90-4c3a-a531-cb7c5bfad195","ios":"levelo://app?vid=cec62897-bd90-4c3a-a531-cb7c5bfad195"},"vehicle_type_id":"4","last_reported":1728044222,"current_range_meters":24400,"station_id":"ce4bhg92rcd13ifvqf90","pricing_plan_id":"cebpf4jnsgd1na2vs0mg"},{"bike_id":"9e0100fa-38ba-4642-9558-80fa1a3178e7","system_id":"levelo_inurba_marseille","lat":43.30598,"lon":5.39358,"is_reserved":false,"is_disabled":false,"rental_uris":{"android":"levelo://app?vid=9e0100fa-38ba-4642-9558-80fa1a3178e7","ios":"levelo://app?vid=9e0100fa-38ba-4642-9558-80fa1a3178e7"},"vehicle_type_id":"4","last_reported":1728044222,"current_range_meters":38000,"station_id":"ce4bh0p2rcd13ifvqd80","pricing_plan_id":"cebpf4jnsgd1na2vs0mg"},{"bike_id":"1d5d0320-b5c1-4d40-9ed0-d9d06ebbfe10","system_id":"levelo_inurba_marseille","lat":43.24076,"lon":5.37759,"is_reserved":false,"is_disabled":false,"rental_uris":{"android":"levelo://app?vid=1d5d0320-b5c1-4d40-9ed0-d9d06ebbfe10","ios":"levelo://app?vid=1d5d0320-b5c1-4d40-9ed0-d9d06ebbfe10"},"vehicle_type_id":"4","last_reported":1728044222,"current_range_meters":38800,"station_id":"ce4bhnp2rcd13ifvqgvg","pricing_plan_id":"cebpf4jnsgd1na2vs0mg"},{"bike_id":"a8d4ceec-1148-4bb5-9909-ced0135a6d98","system_id":"levelo_inurba_marseille","lat":43.3108,"lon":5.38347,"is_reserved":false,"is_disabled":false,"rental_uris":{"android":"levelo://app?vid=a8d4ceec-1148-4bb5-9909-ced0135a6d98","ios":"levelo://app?vid=a8d4ceec-1148-4bb5-9909-ced0135a6d98"},"vehicle_type_id":"4","last_reported":1728044222,"current_range_meters":17600,"station_id":"ce4bgv92rcd13ifvqcr0","pricing_plan_id":"cebpf4jnsgd1na2vs0mg"},{"bike_id":"fac68ba1-12b7-4293-b3c7-c99fbf2a6836","system_id":"levelo_inurba_marseille","lat":43.315674,"lon":5.403824,"is_reserved":false,"is_disabled":false,"rental_uris":{"android":"levelo://app?vid=fac68ba1-12b7-4293-b3c7-c99fbf2a6836","ios":"levelo://app?vid=fac68ba1-12b7-4293-b3c7-c99fbf2a6836"},"vehicle_type_id":"4","last_reported":1728044222,"current_range_meters":2000,"station_id":"ce4bh012rcd13ifvqd00","pricing_plan_id":"cebpf4jnsgd1na2vs0mg"},{"bike_id":"fd872ba7-9877-4e67-9269-d8995abba644","system_id":"levelo_inurba_marseille","lat":43.22936,"lon":5.35378,"is_reserved":false,"is_disabled":false,"rental_uris":{"android":"levelo://app?vid=fd872ba7-9877-4e67-9269-d8995abba644","ios":"levelo://app?vid=fd872ba7-9877-4e67-9269-d8995abba644"},"vehicle_type_id":"4","last_reported":1728044222,"current_range_meters":20400,"station_id":"cpo3532slgdg3j2ikp40","pricing_plan_id":"cebpf4jnsgd1na2vs0mg"},{"bike_id":"1fe8fdf8-8d27-4463-bb72-251b705e2f60","system_id":"levelo_inurba_marseille","lat":43.30294,"lon":5.37686,"is_reserved":false,"is_disabled":false,"rental_uris":{"android":"levelo://app?vid=1fe8fdf8-8d27-4463-bb72-251b705e2f60","ios":"levelo://app?vid=1fe8fdf8-8d27-4463-bb72-251b705e2f60"},"vehicle_type_id":"4","last_reported":1728044222,"current_range_meters":38400,"station_id":"ce4bguh2rcd13ifvqcj0","pricing_plan_id":"cebpf4jnsgd1na2vs0mg"},{"bike_id":"c9e511dc-193c-4abd-b04b-c991cced6d20","system_id":"levelo_inurba_marseille","lat":43.298981,"lon":5.37463,"is_reserved":false,"is_disabled":false,"rental_uris":{"android":"levelo://app?vid=c9e511dc-193c-4abd-b04b-c991cced6d20","ios":"levelo://app?vid=c9e511dc-193c-4abd-b04b-c991cced6d20"},"vehicle_type_id":"4","last_reported":1728044222,"current_range_meters":3200,"station_id":"ce4bgjh2rcd13ifvqbg0","pricing_plan_id":"cebpf4jnsgd1na2vs0mg"},{"bike_id":"4d759cc2-49f1-4fba-8bc1-c1bbfc259f27","system_id":"levelo_inurba_marseille","lat":43.3235,"lon":5.40616,"is_reserved":false,"is_disabled":false,"rental_uris":{"android":"levelo://app?vid=4d759cc2-49f1-4fba-8bc1-c1bbfc259f27","ios":"levelo://app?vid=4d759cc2-49f1-4fba-8bc1-c1bbfc259f27"},"vehicle_type_id":"4","last_reported":1728044222,"current_range_meters":38800,"station_id":"ce4bhq92rcd13ifvqhjg","pricing_plan_id":"cebpf4jnsgd1na2vs0mg"},{"bike_id":"b1cf9b54-52ae-4761-a381-7be9385fd316","system_id":"levelo_inurba_marseille","lat":43.337444,"lon":5.374475,"is_reserved":false,"is_disabled":false,"rental_uris":{"android":"levelo://app?vid=b1cf9b54-52ae-4761-a381-7be9385fd316","ios":"levelo://app?vid=b1cf9b54-52ae-4761-a381-7be9385fd316"},"vehicle_type_id":"4","last_reported":1728044222,"current_range_meters":38400,"station_id":"","pricing_plan_id":"cebpf4jnsgd1na2vs0mg"},{"bike_id":"0fbc28cc-82c7-454d-a6f4-134207a966fc","system_id":"levelo_inurba_marseille","lat":43.27599,"lon":5.36085,"is_reserved":false,"is_disabled":false,"rental_uris":{"android":"levelo://app?vid=0fbc28cc-82c7-454d-a6f4-134207a966fc","ios":"levelo://app?vid=0fbc28cc-82c7-454d-a6f4-134207a966fc"},"vehicle_type_id":"4","last_reported":1728044222,"current_range_meters":31200,"station_id":"ce4bgj92rcd13ifvqbe0","pricing_plan_id":"cebpf4jnsgd1na2vs0mg"},{"bike_id":"cf94d4e6-41d1-423f-8e5e-7662edee36c3","system_id":"levelo_inurba_marseille","lat":43.30339,"lon":5.40438,"is_reserved":false,"is_disabled":false,"rental_uris":{"android":"levelo://app?vid=cf94d4e6-41d1-423f-8e5e-7662edee36c3","ios":"levelo://app?vid=cf94d4e6-41d1-423f-8e5e-7662edee36c3"},"vehicle_type_id":"4","last_reported":1728044222,"current_range_meters":14000,"station_id":"ce4bh012rcd13ifvqd10","pricing_plan_id":"cebpf4jnsgd1na2vs0mg"},{"bike_id":"49063f21-e291-44ec-81fb-9bc376029bbe","system_id":"levelo_inurba_marseille","lat":43.29262,"lon":5.38436,"is_reserved":false,"is_disabled":false,"rental_uris":{"android":"levelo://app?vid=49063f21-e291-44ec-81fb-9bc376029bbe","ios":"levelo://app?vid=49063f21-e291-44ec-81fb-9bc376029bbe"},"vehicle_type_id":"4","last_reported":1728044222,"current_range_meters":31200,"station_id":"ce4bh692rcd13ifvqea0","pricing_plan_id":"cebpf4jnsgd1na2vs0mg"},{"bike_id":"a5ae2fd2-f56e-447e-b7fc-028b85fc1007","system_id":"levelo_inurba_marseille","lat":43.30599,"lon":5.39362,"is_reserved":false,"is_disabled":false,"rental_uris":{"android":"levelo://app?vid=a5ae2fd2-f56e-447e-b7fc-028b85fc1007","ios":"levelo://app?vid=a5ae2fd2-f56e-447e-b7fc-028b85fc1007"},"vehicle_type_id":"4","last_reported":1728044222,"current_range_meters":38800,"station_id":"ce4bh0p2rcd13ifvqd80","pricing_plan_id":"cebpf4jnsgd1na2vs0mg"},{"bike_id":"d17d2741-74b8-4ec3-a129-9f64ec1e8947","system_id":"levelo_inurba_marseille","lat":43.24074,"lon":5.37765,"is_reserved":false,"is_disabled":false,"rental_uris":{"android":"levelo://app?vid=d17d2741-74b8-4ec3-a129-9f64ec1e8947","ios":"levelo://app?vid=d17d2741-74b8-4ec3-a129-9f64ec1e8947"},"vehicle_type_id":"4","last_reported":1728044222,"current_range_meters":22400,"station_id":"ce4bhnp2rcd13ifvqgvg","pricing_plan_id":"cebpf4jnsgd1na2vs0mg"},{"bike_id":"294c9d5c-e674-4ee2-aa5d-646145ca34dd","system_id":"levelo_inurba_marseille","lat":43.29231,"lon":5.36061,"is_reserved":false,"is_disabled":false,"rental_uris":{"android":"levelo://app?vid=294c9d5c-e674-4ee2-aa5d-646145ca34dd","ios":"levelo://app?vid=294c9d5c-e674-4ee2-aa5d-646145ca34dd"},"vehicle_type_id":"4","last_reported":1728044222,"current_range_meters":32800,"station_id":"ce4bhbh2rcd13ifvqeqg","pricing_plan_id":"cebpf4jnsgd1na2vs0mg"},{"bike_id":"701b8437-b310-4f49-bddd-d1435729e916","system_id":"levelo_inurba_marseille","lat":43.29307,"lon":5.37462,"is_reserved":false,"is_disabled":false,"rental_uris":{"android":"levelo://app?vid=701b8437-b310-4f49-bddd-d1435729e916","ios":"levelo://app?vid=701b8437-b310-4f49-bddd-d1435729e916"},"vehicle_type_id":"4","last_reported":1728044222,"current_range_meters":38400,"station_id":"ce4bgi12rcd13ifvqb70","pricing_plan_id":"cebpf4jnsgd1na2vs0mg"},{"bike_id":"e36e9ca6-d8b2-4997-8123-e4fa7b66731b","system_id":"levelo_inurba_marseille","lat":43.30801,"lon":5.43525,"is_reserved":false,"is_disabled":false,"rental_uris":{"android":"levelo://app?vid=e36e9ca6-d8b2-4997-8123-e4fa7b66731b","ios":"levelo://app?vid=e36e9ca6-d8b2-4997-8123-e4fa7b66731b"},"vehicle_type_id":"4","last_reported":1728044222,"current_range_meters":11600,"station_id":"ce4bhph2rcd13ifvqheg","pricing_plan_id":"cebpf4jnsgd1na2vs0mg"},{"bike_id":"2a2abcd2-161e-4c0a-bd7f-44cf66014eda","system_id":"levelo_inurba_marseille","lat":43.26685,"lon":5.38276,"is_reserved":false,"is_disabled":false,"rental_uris":{"android":"levelo://app?vid=2a2abcd2-161e-4c0a-bd7f-44cf66014eda","ios":"levelo://app?vid=2a2abcd2-161e-4c0a-bd7f-44cf66014eda"},"vehicle_type_id":"4","last_reported":1728044222,"current_range_meters":24800,"station_id":"ce4bhg92rcd13ifvqf90","pricing_plan_id":"cebpf4jnsgd1na2vs0mg"},{"bike_id":"ae7ead5c-a3e1-48fd-b4db-06713789154e","system_id":"levelo_inurba_marseille","lat":43.337444,"lon":5.374475,"is_reserved":false,"is_disabled":false,"rental_uris":{"android":"levelo://app?vid=ae7ead5c-a3e1-48fd-b4db-06713789154e","ios":"levelo://app?vid=ae7ead5c-a3e1-48fd-b4db-06713789154e"},"vehicle_type_id":"4","last_reported":1728044222,"current_range_meters":12000,"station_id":"","pricing_plan_id":"cebpf4jnsgd1na2vs0mg"},{"bike_id":"5785721a-bcaf-4409-b747-138e90254d06","system_id":"levelo_inurba_marseille","lat":43.28972,"lon":5.37824,"is_reserved":false,"is_disabled":false,"rental_uris":{"android":"levelo://app?vid=5785721a-bcaf-4409-b747-138e90254d06","ios":"levelo://app?vid=5785721a-bcaf-4409-b747-138e90254d06"},"vehicle_type_id":"4","last_reported":1728044222,"current_range_meters":36400,"station_id":"ce4bh9p2rcd13ifvqed0","pricing_plan_id":"cebpf4jnsgd1na2vs0mg"},{"bike_id":"43796356-31fd-4de5-b95c-f5fd895b2419","system_id":"levelo_inurba_marseille","lat":43.23153,"lon":5.43717,"is_reserved":false,"is_disabled":false,"rental_uris":{"android":"levelo://app?vid=43796356-31fd-4de5-b95c-f5fd895b2419","ios":"levelo://app?vid=43796356-31fd-4de5-b95c-f5fd895b2419"},"vehicle_type_id":"4","last_reported":1728044222,"current_range_meters":12400,"station_id":"ce4bhmp2rcd13ifvqgog","pricing_plan_id":"cebpf4jnsgd1na2vs0mg"},{"bike_id":"d69d5b0e-5929-4368-b320-cca623686889","system_id":"levelo_inurba_marseille","lat":43.32344,"lon":5.40621,"is_reserved":false,"is_disabled":false,"rental_uris":{"android":"levelo://app?vid=d69d5b0e-5929-4368-b320-cca623686889","ios":"levelo://app?vid=d69d5b0e-5929-4368-b320-cca623686889"},"vehicle_type_id":"4","last_reported":1728044222,"current_range_meters":38800,"station_id":"ce4bhq92rcd13ifvqhjg","pricing_plan_id":"cebpf4jnsgd1na2vs0mg"},{"bike_id":"7ac19322-2e6f-44f1-b1f4-2cb8b9ddadba","system_id":"levelo_inurba_marseille","lat":43.3091,"lon":5.36851,"is_reserved":false,"is_disabled":false,"rental_uris":{"android":"levelo://app?vid=7ac19322-2e6f-44f1-b1f4-2cb8b9ddadba","ios":"levelo://app?vid=7ac19322-2e6f-44f1-b1f4-2cb8b9ddadba"},"vehicle_type_id":"4","last_reported":1728044222,"current_range_meters":38000,"station_id":"ce4bgn92rcd13ifvqbvg","pricing_plan_id":"cebpf4jnsgd1na2vs0mg"},{"bike_id":"89e55a2e-9260-4384-9c0c-facce8c031d5","system_id":"levelo_inurba_marseille","lat":43.30144,"lon":5.37423,"is_reserved":false,"is_disabled":false,"rental_uris":{"android":"levelo://app?vid=89e55a2e-9260-4384-9c0c-facce8c031d5","ios":"levelo://app?vid=89e55a2e-9260-4384-9c0c-facce8c031d5"},"vehicle_type_id":"4","last_reported":1728044222,"current_range_meters":16400,"station_id":"ce4bgs92rcd13ifvqcc0","pricing_plan_id":"cebpf4jnsgd1na2vs0mg"},{"bike_id":"4e8a053d-2e5c-45cd-9b38-a53719cc4752","system_id":"levelo_inurba_marseille","lat":43.29261,"lon":5.3844,"is_reserved":false,"is_disabled":false,"rental_uris":{"android":"levelo://app?vid=4e8a053d-2e5c-45cd-9b38-a53719cc4752","ios":"levelo://app?vid=4e8a053d-2e5c-45cd-9b38-a53719cc4752"},"vehicle_type_id":"4","last_reported":1728044222,"current_range_meters":7200,"station_id":"ce4bh692rcd13ifvqea0","pricing_plan_id":"cebpf4jnsgd1na2vs0mg"},{"bike_id":"dbf2a6e0-ab01-462a-ac7b-6150f20c356b","system_id":"levelo_inurba_marseille","lat":43.29804,"lon":5.3811,"is_reserved":false,"is_disabled":false,"rental_uris":{"android":"levelo://app?vid=dbf2a6e0-ab01-462a-ac7b-6150f20c356b","ios":"levelo://app?vid=dbf2a6e0-ab01-462a-ac7b-6150f20c356b"},"vehicle_type_id":"4","last_reported":1728044222,"current_range_meters":31200,"station_id":"ce4bgip2rcd13ifvqbb0","pricing_plan_id":"cebpf4jnsgd1na2vs0mg"},{"bike_id":"50e6aeb8-7e25-4c09-9781-24c9f5d23dff","system_id":"levelo_inurba_marseille","lat":43.33758,"lon":5.37437,"is_reserved":false,"is_disabled":false,"rental_uris":{"android":"levelo://app?vid=50e6aeb8-7e25-4c09-9781-24c9f5d23dff","ios":"levelo://app?vid=50e6aeb8-7e25-4c09-9781-24c9f5d23dff"},"vehicle_type_id":"4","last_reported":1728044222,"current_range_meters":32800,"station_id":"","pricing_plan_id":"cebpf4jnsgd1na2vs0mg"},{"bike_id":"4061a425-0fa8-4b85-ba2e-dd23d5b416e9","system_id":"levelo_inurba_marseille","lat":43.28861,"lon":5.35834,"is_reserved":false,"is_disabled":false,"rental_uris":{"android":"levelo://app?vid=4061a425-0fa8-4b85-ba2e-dd23d5b416e9","ios":"levelo://app?vid=4061a425-0fa8-4b85-ba2e-dd23d5b416e9"},"vehicle_type_id":"4","last_reported":1728044222,"current_range_meters":32400,"station_id":"ce4bhb12rcd13ifvqem0","pricing_plan_id":"cebpf4jnsgd1na2vs0mg"},{"bike_id":"2fa80a2d-1591-492e-b225-696fcb5c87fd","system_id":"levelo_inurba_marseille","lat":43.2656,"lon":5.37289,"is_reserved":false,"is_disabled":false,"rental_uris":{"android":"levelo://app?vid=2fa80a2d-1591-492e-b225-696fcb5c87fd","ios":"levelo://app?vid=2fa80a2d-1591-492e-b225-696fcb5c87fd"},"vehicle_type_id":"4","last_reported":1728044222,"current_range_meters":30400,"station_id":"ce4bhg12rcd13ifvqf70","pricing_plan_id":"cebpf4jnsgd1na2vs0mg"},{"bike_id":"0abf7d73-42db-4c84-a320-8d631d86f831","system_id":"levelo_inurba_marseille","lat":43.26574,"lon":5.39011,"is_reserved":false,"is_disabled":false,"rental_uris":{"android":"levelo://app?vid=0abf7d73-42db-4c84-a320-8d631d86f831","ios":"levelo://app?vid=0abf7d73-42db-4c84-a320-8d631d86f831"},"vehicle_type_id":"4","last_reported":1728044222,"current_range_meters":16400,"station_id":"ce4bhe12rcd13ifvqf30","pricing_plan_id":"cebpf4jnsgd1na2vs0mg"},{"bike_id":"4021fd9a-5036-4b88-9998-f4be984c87e4","system_id":"levelo_inurba_marseille","lat":43.30603,"lon":5.37223,"is_reserved":false,"is_disabled":false,"rental_uris":{"android":"levelo://app?vid=4021fd9a-5036-4b88-9998-f4be984c87e4","ios":"levelo://app?vid=4021fd9a-5036-4b88-9998-f4be984c87e4"},"vehicle_type_id":"4","last_reported":1728044222,"current_range_meters":4800,"station_id":"ce4bgqh2rcd13ifvqc4g","pricing_plan_id":"cebpf4jnsgd1na2vs0mg"},{"bike_id":"074d5e95-2b6a-46e7-93cb-32ce23db1229","system_id":"levelo_inurba_marseille","lat":43.29025,"lon":5.38141,"is_reserved":false,"is_disabled":false,"rental_uris":{"android":"levelo://app?vid=074d5e95-2b6a-46e7-93cb-32ce23db1229","ios":"levelo://app?vid=074d5e95-2b6a-46e7-93cb-32ce23db1229"},"vehicle_type_id":"4","last_reported":1728044222,"current_range_meters":31200,"station_id":"ce4bh4p2rcd13ifvqe1g","pricing_plan_id":"cebpf4jnsgd1na2vs0mg"},{"bike_id":"715cf460-c3af-4310-8a43-31f916896928","system_id":"levelo_inurba_marseille","lat":43.31263,"lon":5.4016,"is_reserved":false,"is_disabled":false,"rental_uris":{"android":"levelo://app?vid=715cf460-c3af-4310-8a43-31f916896928","ios":"levelo://app?vid=715cf460-c3af-4310-8a43-31f916896928"},"vehicle_type_id":"4","last_reported":1728044222,"current_range_meters":25200,"station_id":"ce4bh092rcd13ifvqd30","pricing_plan_id":"cebpf4jnsgd1na2vs0mg"},{"bike_id":"a1c3f8ed-b4ed-44b7-8973-2ece15e812f0","system_id":"levelo_inurba_marseille","lat":43.26946,"lon":5.38641,"is_reserved":false,"is_disabled":false,"rental_uris":{"android":"levelo://app?vid=a1c3f8ed-b4ed-44b7-8973-2ece15e812f0","ios":"levelo://app?vid=a1c3f8ed-b4ed-44b7-8973-2ece15e812f0"},"vehicle_type_id":"4","last_reported":1728044222,"current_range_meters":20800,"station_id":"ce4bhh92rcd13ifvqfh0","pricing_plan_id":"cebpf4jnsgd1na2vs0mg"},{"bike_id":"296d1e43-be60-4f11-b5c4-f5a90f535aac","system_id":"levelo_inurba_marseille","lat":43.29226,"lon":5.36057,"is_reserved":false,"is_disabled":false,"rental_uris":{"android":"levelo://app?vid=296d1e43-be60-4f11-b5c4-f5a90f535aac","ios":"levelo://app?vid=296d1e43-be60-4f11-b5c4-f5a90f535aac"},"vehicle_type_id":"4","last_reported":1728044222,"current_range_meters":24000,"station_id":"ce4bhbh2rcd13ifvqeqg","pricing_plan_id":"cebpf4jnsgd1na2vs0mg"},{"bike_id":"01b44d4b-37cf-4cbe-a547-4c2508cea865","system_id":"levelo_inurba_marseille","lat":43.30926,"lon":5.4014,"is_reserved":false,"is_disabled":false,"rental_uris":{"android":"levelo://app?vid=01b44d4b-37cf-4cbe-a547-4c2508cea865","ios":"levelo://app?vid=01b44d4b-37cf-4cbe-a547-4c2508cea865"},"vehicle_type_id":"4","last_reported":1728044222,"current_range_meters":38800,"station_id":"ce4bgvp2rcd13ifvqct0","pricing_plan_id":"cebpf4jnsgd1na2vs0mg"},{"bike_id":"f8ed13ba-0f92-4c24-a66c-ce1d50a499a4","system_id":"levelo_inurba_marseille","lat":43.3091,"lon":5.3685,"is_reserved":false,"is_disabled":false,"rental_uris":{"android":"levelo://app?vid=f8ed13ba-0f92-4c24-a66c-ce1d50a499a4","ios":"levelo://app?vid=f8ed13ba-0f92-4c24-a66c-ce1d50a499a4"},"vehicle_type_id":"4","last_reported":1728044222,"current_range_meters":16400,"station_id":"ce4bgn92rcd13ifvqbvg","pricing_plan_id":"cebpf4jnsgd1na2vs0mg"},{"bike_id":"b7cd3224-74ff-426f-8638-1fd36adc9f26","system_id":"levelo_inurba_marseille","lat":43.24994,"lon":5.38941,"is_reserved":false,"is_disabled":false,"rental_uris":{"android":"levelo://app?vid=b7cd3224-74ff-426f-8638-1fd36adc9f26","ios":"levelo://app?vid=b7cd3224-74ff-426f-8638-1fd36adc9f26"},"vehicle_type_id":"4","last_reported":1728044222,"current_range_meters":9200,"station_id":"ce4bhgp2rcd13ifvqfd0","pricing_plan_id":"cebpf4jnsgd1na2vs0mg"},{"bike_id":"6ce60676-3f86-4aaa-a5df-572436c32ad4","system_id":"levelo_inurba_marseille","lat":43.23203,"lon":5.35547,"is_reserved":false,"is_disabled":false,"rental_uris":{"android":"levelo://app?vid=6ce60676-3f86-4aaa-a5df-572436c32ad4","ios":"levelo://app?vid=6ce60676-3f86-4aaa-a5df-572436c32ad4"},"vehicle_type_id":"4","last_reported":1728044222,"current_range_meters":15200,"station_id":"ce4bhu92rcd13ifvqi70","pricing_plan_id":"cebpf4jnsgd1na2vs0mg"},{"bike_id":"1e4e1918-7de6-48d2-9d23-b031cc9cd1e8","system_id":"levelo_inurba_marseille","lat":43.26953,"lon":5.38627,"is_reserved":false,"is_disabled":false,"rental_uris":{"android":"levelo://app?vid=1e4e1918-7de6-48d2-9d23-b031cc9cd1e8","ios":"levelo://app?vid=1e4e1918-7de6-48d2-9d23-b031cc9cd1e8"},"vehicle_type_id":"4","last_reported":1728044222,"current_range_meters":32400,"station_id":"ce4bhh92rcd13ifvqfh0","pricing_plan_id":"cebpf4jnsgd1na2vs0mg"},{"bike_id":"335f52fc-7fd1-4e5a-9d05-4ff7264d2883","system_id":"levelo_inurba_marseille","lat":43.24078,"lon":5.37761,"is_reserved":false,"is_disabled":false,"rental_uris":{"android":"levelo://app?vid=335f52fc-7fd1-4e5a-9d05-4ff7264d2883","ios":"levelo://app?vid=335f52fc-7fd1-4e5a-9d05-4ff7264d2883"},"vehicle_type_id":"4","last_reported":1728044222,"current_range_meters":35600,"station_id":"ce4bhnp2rcd13ifvqgvg","pricing_plan_id":"cebpf4jnsgd1na2vs0mg"},{"bike_id":"4bb721f3-7825-4934-80e2-04c63176db63","system_id":"levelo_inurba_marseille","lat":43.29582,"lon":5.36742,"is_reserved":false,"is_disabled":false,"rental_uris":{"android":"levelo://app?vid=4bb721f3-7825-4934-80e2-04c63176db63","ios":"levelo://app?vid=4bb721f3-7825-4934-80e2-04c63176db63"},"vehicle_type_id":"4","last_reported":1728044222,"current_range_meters":35600,"station_id":"ce4bgph2rcd13ifvqc2g","pricing_plan_id":"cebpf4jnsgd1na2vs0mg"},{"bike_id":"3c374c13-9929-493c-bbaf-bc13e28cb7c2","system_id":"levelo_inurba_marseille","lat":43.30555,"lon":5.36533,"is_reserved":false,"is_disabled":false,"rental_uris":{"android":"levelo://app?vid=3c374c13-9929-493c-bbaf-bc13e28cb7c2","ios":"levelo://app?vid=3c374c13-9929-493c-bbaf-bc13e28cb7c2"},"vehicle_type_id":"4","last_reported":1728044222,"current_range_meters":6000,"station_id":"ce4bgs12rcd13ifvqcag","pricing_plan_id":"cebpf4jnsgd1na2vs0mg"},{"bike_id":"05edd5d2-5d26-4193-80a7-6c94732c4d15","system_id":"levelo_inurba_marseille","lat":43.284027,"lon":5.349789,"is_reserved":false,"is_disabled":false,"rental_uris":{"android":"levelo://app?vid=05edd5d2-5d26-4193-80a7-6c94732c4d15","ios":"levelo://app?vid=05edd5d2-5d26-4193-80a7-6c94732c4d15"},"vehicle_type_id":"4","last_reported":1728044222,"current_range_meters":9600,"station_id":"ce4bhbh2rcd13ifvqepg","pricing_plan_id":"cebpf4jnsgd1na2vs0mg"},{"bike_id":"d08e055a-f3b3-478a-b145-75801e3e079f","system_id":"levelo_inurba_marseille","lat":43.3028,"lon":5.37714,"is_reserved":false,"is_disabled":false,"rental_uris":{"android":"levelo://app?vid=d08e055a-f3b3-478a-b145-75801e3e079f","ios":"levelo://app?vid=d08e055a-f3b3-478a-b145-75801e3e079f"},"vehicle_type_id":"4","last_reported":1728044222,"current_range_meters":28800,"station_id":"ce4bguh2rcd13ifvqcj0","pricing_plan_id":"cebpf4jnsgd1na2vs0mg"},{"bike_id":"1f41d198-7e72-428d-ba92-9384b13a4ba2","system_id":"levelo_inurba_marseille","lat":43.2849,"lon":5.38417,"is_reserved":false,"is_disabled":false,"rental_uris":{"android":"levelo://app?vid=1f41d198-7e72-428d-ba92-9384b13a4ba2","ios":"levelo://app?vid=1f41d198-7e72-428d-ba92-9384b13a4ba2"},"vehicle_type_id":"4","last_reported":1728044222,"current_range_meters":38800,"station_id":"ce4bh512rcd13ifvqe3g","pricing_plan_id":"cebpf4jnsgd1na2vs0mg"},{"bike_id":"6ec02eea-a577-47ff-ade9-fa935ffce596","system_id":"levelo_inurba_marseille","lat":43.308967,"lon":5.372057,"is_reserved":false,"is_disabled":false,"rental_uris":{"android":"levelo://app?vid=6ec02eea-a577-47ff-ade9-fa935ffce596","ios":"levelo://app?vid=6ec02eea-a577-47ff-ade9-fa935ffce596"},"vehicle_type_id":"4","last_reported":1728044222,"current_range_meters":39200,"station_id":"ce4bguh2rcd13ifvqckg","pricing_plan_id":"cebpf4jnsgd1na2vs0mg"},{"bike_id":"ba74607d-a64b-433c-8f3a-96e980f7dd37","system_id":"levelo_inurba_marseille","lat":43.30601,"lon":5.39369,"is_reserved":false,"is_disabled":false,"rental_uris":{"android":"levelo://app?vid=ba74607d-a64b-433c-8f3a-96e980f7dd37","ios":"levelo://app?vid=ba74607d-a64b-433c-8f3a-96e980f7dd37"},"vehicle_type_id":"4","last_reported":1728044222,"current_range_meters":9200,"station_id":"ce4bh0p2rcd13ifvqd80","pricing_plan_id":"cebpf4jnsgd1na2vs0mg"},{"bike_id":"ac491eed-1fef-4832-b4ca-d42b5b54f337","system_id":"levelo_inurba_marseille","lat":43.28425,"lon":5.34987,"is_reserved":false,"is_disabled":false,"rental_uris":{"android":"levelo://app?vid=ac491eed-1fef-4832-b4ca-d42b5b54f337","ios":"levelo://app?vid=ac491eed-1fef-4832-b4ca-d42b5b54f337"},"vehicle_type_id":"4","last_reported":1728044222,"current_range_meters":36800,"station_id":"ce4bhbh2rcd13ifvqepg","pricing_plan_id":"cebpf4jnsgd1na2vs0mg"},{"bike_id":"bb5f5452-4b9b-417d-b148-b396a874f3d9","system_id":"levelo_inurba_marseille","lat":43.33748,"lon":5.3742,"is_reserved":false,"is_disabled":false,"rental_uris":{"android":"levelo://app?vid=bb5f5452-4b9b-417d-b148-b396a874f3d9","ios":"levelo://app?vid=bb5f5452-4b9b-417d-b148-b396a874f3d9"},"vehicle_type_id":"4","last_reported":1728044222,"current_range_meters":37600,"station_id":"","pricing_plan_id":"cebpf4jnsgd1na2vs0mg"},{"bike_id":"cf75fcd0-40fe-4329-888f-df8125d6bb8f","system_id":"levelo_inurba_marseille","lat":43.28715,"lon":5.37931,"is_reserved":false,"is_disabled":false,"rental_uris":{"android":"levelo://app?vid=cf75fcd0-40fe-4329-888f-df8125d6bb8f","ios":"levelo://app?vid=cf75fcd0-40fe-4329-888f-df8125d6bb8f"},"vehicle_type_id":"4","last_reported":1728044222,"current_range_meters":12400,"station_id":"ce4bh9p2rcd13ifvqec0","pricing_plan_id":"cebpf4jnsgd1na2vs0mg"},{"bike_id":"0a59fef2-d212-4155-9925-108d390ac81f","system_id":"levelo_inurba_marseille","lat":43.23157,"lon":5.43701,"is_reserved":false,"is_disabled":false,"rental_uris":{"android":"levelo://app?vid=0a59fef2-d212-4155-9925-108d390ac81f","ios":"levelo://app?vid=0a59fef2-d212-4155-9925-108d390ac81f"},"vehicle_type_id":"4","last_reported":1728044222,"current_range_meters":36400,"station_id":"ce4bhmp2rcd13ifvqgog","pricing_plan_id":"cebpf4jnsgd1na2vs0mg"},{"bike_id":"a6692f1f-5525-4523-bd49-a7c219bc26c1","system_id":"levelo_inurba_marseille","lat":43.26555,"lon":5.3729,"is_reserved":false,"is_disabled":false,"rental_uris":{"android":"levelo://app?vid=a6692f1f-5525-4523-bd49-a7c219bc26c1","ios":"levelo://app?vid=a6692f1f-5525-4523-bd49-a7c219bc26c1"},"vehicle_type_id":"4","last_reported":1728044222,"current_range_meters":32800,"station_id":"ce4bhg12rcd13ifvqf70","pricing_plan_id":"cebpf4jnsgd1na2vs0mg"},{"bike_id":"dd9a8e27-9e75-4d65-b7f9-fd1b28ca7f6e","system_id":"levelo_inurba_marseille","lat":43.2315,"lon":5.43713,"is_reserved":false,"is_disabled":false,"rental_uris":{"android":"levelo://app?vid=dd9a8e27-9e75-4d65-b7f9-fd1b28ca7f6e","ios":"levelo://app?vid=dd9a8e27-9e75-4d65-b7f9-fd1b28ca7f6e"},"vehicle_type_id":"4","last_reported":1728044222,"current_range_meters":29600,"station_id":"ce4bhmp2rcd13ifvqgog","pricing_plan_id":"cebpf4jnsgd1na2vs0mg"},{"bike_id":"f28532ab-2844-4c68-acee-baaa073b03fa","system_id":"levelo_inurba_marseille","lat":43.32487,"lon":5.36561,"is_reserved":false,"is_disabled":false,"rental_uris":{"android":"levelo://app?vid=f28532ab-2844-4c68-acee-baaa073b03fa","ios":"levelo://app?vid=f28532ab-2844-4c68-acee-baaa073b03fa"},"vehicle_type_id":"4","last_reported":1728044222,"current_range_meters":37600,"station_id":"ce4bhs12rcd13ifvqhvg","pricing_plan_id":"cebpf4jnsgd1na2vs0mg"},{"bike_id":"dc787cf3-9c71-4759-b62d-16b8b278f9af","system_id":"levelo_inurba_marseille","lat":43.33763,"lon":5.37444,"is_reserved":false,"is_disabled":false,"rental_uris":{"android":"levelo://app?vid=dc787cf3-9c71-4759-b62d-16b8b278f9af","ios":"levelo://app?vid=dc787cf3-9c71-4759-b62d-16b8b278f9af"},"vehicle_type_id":"4","last_reported":1728044222,"current_range_meters":36400,"station_id":"","pricing_plan_id":"cebpf4jnsgd1na2vs0mg"},{"bike_id":"6a672c5c-ed76-445c-8c0d-b29d6a69ce4d","system_id":"levelo_inurba_marseille","lat":43.23158,"lon":5.43728,"is_reserved":false,"is_disabled":false,"rental_uris":{"android":"levelo://app?vid=6a672c5c-ed76-445c-8c0d-b29d6a69ce4d","ios":"levelo://app?vid=6a672c5c-ed76-445c-8c0d-b29d6a69ce4d"},"vehicle_type_id":"4","last_reported":1728044222,"current_range_meters":36400,"station_id":"ce4bhmp2rcd13ifvqgog","pricing_plan_id":"cebpf4jnsgd1na2vs0mg"},{"bike_id":"d602bb9e-b75e-4df7-8d65-c5a2586c9b89","system_id":"levelo_inurba_marseille","lat":43.29856,"lon":5.36286,"is_reserved":false,"is_disabled":false,"rental_uris":{"android":"levelo://app?vid=d602bb9e-b75e-4df7-8d65-c5a2586c9b89","ios":"levelo://app?vid=d602bb9e-b75e-4df7-8d65-c5a2586c9b89"},"vehicle_type_id":"4","last_reported":1728044222,"current_range_meters":28400,"station_id":"ce4bgpp2rcd13ifvqc3g","pricing_plan_id":"cebpf4jnsgd1na2vs0mg"},{"bike_id":"0df22634-8a99-4927-af03-09431c9e9149","system_id":"levelo_inurba_marseille","lat":43.25485,"lon":5.37648,"is_reserved":false,"is_disabled":false,"rental_uris":{"android":"levelo://app?vid=0df22634-8a99-4927-af03-09431c9e9149","ios":"levelo://app?vid=0df22634-8a99-4927-af03-09431c9e9149"},"vehicle_type_id":"4","last_reported":1728044222,"current_range_meters":22000,"station_id":"ce4bhh12rcd13ifvqff0","pricing_plan_id":"cebpf4jnsgd1na2vs0mg"},{"bike_id":"4a6d82ea-4a93-4702-b867-6ab3478675d0","system_id":"levelo_inurba_marseille","lat":43.30157,"lon":5.38086,"is_reserved":false,"is_disabled":false,"rental_uris":{"android":"levelo://app?vid=4a6d82ea-4a93-4702-b867-6ab3478675d0","ios":"levelo://app?vid=4a6d82ea-4a93-4702-b867-6ab3478675d0"},"vehicle_type_id":"4","last_reported":1728044222,"current_range_meters":37600,"station_id":"ce4bgjp2rcd13ifvqbh0","pricing_plan_id":"cebpf4jnsgd1na2vs0mg"},{"bike_id":"4aa2d78a-2df8-40f1-b44e-a41cc0b2e120","system_id":"levelo_inurba_marseille","lat":43.30529,"lon":5.36699,"is_reserved":false,"is_disabled":false,"rental_uris":{"android":"levelo://app?vid=4aa2d78a-2df8-40f1-b44e-a41cc0b2e120","ios":"levelo://app?vid=4aa2d78a-2df8-40f1-b44e-a41cc0b2e120"},"vehicle_type_id":"4","last_reported":1728044222,"current_range_meters":3600,"station_id":"ce4bgrp2rcd13ifvqc9g","pricing_plan_id":"cebpf4jnsgd1na2vs0mg"},{"bike_id":"4fbb655e-1d8a-4585-925b-e1e954d2900d","system_id":"levelo_inurba_marseille","lat":43.26025,"lon":5.37549,"is_reserved":false,"is_disabled":false,"rental_uris":{"android":"levelo://app?vid=4fbb655e-1d8a-4585-925b-e1e954d2900d","ios":"levelo://app?vid=4fbb655e-1d8a-4585-925b-e1e954d2900d"},"vehicle_type_id":"4","last_reported":1728044222,"current_range_meters":38400,"station_id":"ce4bhgh2rcd13ifvqfa0","pricing_plan_id":"cebpf4jnsgd1na2vs0mg"},{"bike_id":"26e591a2-512f-4737-8ce5-02a636d114e4","system_id":"levelo_inurba_marseille","lat":43.29848,"lon":5.36285,"is_reserved":false,"is_disabled":false,"rental_uris":{"android":"levelo://app?vid=26e591a2-512f-4737-8ce5-02a636d114e4","ios":"levelo://app?vid=26e591a2-512f-4737-8ce5-02a636d114e4"},"vehicle_type_id":"4","last_reported":1728044222,"current_range_meters":25600,"station_id":"ce4bgpp2rcd13ifvqc3g","pricing_plan_id":"cebpf4jnsgd1na2vs0mg"},{"bike_id":"6ae943e4-7b2f-41f2-adfa-724663bbbdc2","system_id":"levelo_inurba_marseille","lat":43.27985,"lon":5.38759,"is_reserved":false,"is_disabled":false,"rental_uris":{"android":"levelo://app?vid=6ae943e4-7b2f-41f2-adfa-724663bbbdc2","ios":"levelo://app?vid=6ae943e4-7b2f-41f2-adfa-724663bbbdc2"},"vehicle_type_id":"4","last_reported":1728044222,"current_range_meters":23200,"station_id":"ce4bhg12rcd13ifvqf80","pricing_plan_id":"cebpf4jnsgd1na2vs0mg"},{"bike_id":"c8e4ff73-620c-4248-92f7-758d5098242c","system_id":"levelo_inurba_marseille","lat":43.22931,"lon":5.35376,"is_reserved":false,"is_disabled":false,"rental_uris":{"android":"levelo://app?vid=c8e4ff73-620c-4248-92f7-758d5098242c","ios":"levelo://app?vid=c8e4ff73-620c-4248-92f7-758d5098242c"},"vehicle_type_id":"4","last_reported":1728044222,"current_range_meters":21600,"station_id":"cpo3532slgdg3j2ikp40","pricing_plan_id":"cebpf4jnsgd1na2vs0mg"},{"bike_id":"583eb2a3-c703-4842-8648-2706b2b88008","system_id":"levelo_inurba_marseille","lat":43.28152,"lon":5.42642,"is_reserved":false,"is_disabled":false,"rental_uris":{"android":"levelo://app?vid=583eb2a3-c703-4842-8648-2706b2b88008","ios":"levelo://app?vid=583eb2a3-c703-4842-8648-2706b2b88008"},"vehicle_type_id":"4","last_reported":1728044222,"current_range_meters":4800,"station_id":"ce4bhnh2rcd13ifvqgug","pricing_plan_id":"cebpf4jnsgd1na2vs0mg"},{"bike_id":"17760e55-403f-4b1c-9bd6-a7b36457e5ef","system_id":"levelo_inurba_marseille","lat":43.29789,"lon":5.38112,"is_reserved":false,"is_disabled":false,"rental_uris":{"android":"levelo://app?vid=17760e55-403f-4b1c-9bd6-a7b36457e5ef","ios":"levelo://app?vid=17760e55-403f-4b1c-9bd6-a7b36457e5ef"},"vehicle_type_id":"4","last_reported":1728044222,"current_range_meters":2000,"station_id":"ce4bgip2rcd13ifvqbb0","pricing_plan_id":"cebpf4jnsgd1na2vs0mg"},{"bike_id":"63d3fee3-6928-4a38-8569-ec3f853b927e","system_id":"levelo_inurba_marseille","lat":43.26776,"lon":5.39418,"is_reserved":false,"is_disabled":false,"rental_uris":{"android":"levelo://app?vid=63d3fee3-6928-4a38-8569-ec3f853b927e","ios":"levelo://app?vid=63d3fee3-6928-4a38-8569-ec3f853b927e"},"vehicle_type_id":"4","last_reported":1728044222,"current_range_meters":8000,"station_id":"ce4bhh12rcd13ifvqfg0","pricing_plan_id":"cebpf4jnsgd1na2vs0mg"},{"bike_id":"acf4470d-799e-41df-aa24-c002873429d6","system_id":"levelo_inurba_marseille","lat":43.29967,"lon":5.38494,"is_reserved":false,"is_disabled":false,"rental_uris":{"android":"levelo://app?vid=acf4470d-799e-41df-aa24-c002873429d6","ios":"levelo://app?vid=acf4470d-799e-41df-aa24-c002873429d6"},"vehicle_type_id":"4","last_reported":1728044222,"current_range_meters":6000,"station_id":"ce4bgj92rcd13ifvqbd0","pricing_plan_id":"cebpf4jnsgd1na2vs0mg"},{"bike_id":"45d31274-a34d-4398-bc46-47f1f0553446","system_id":"levelo_inurba_marseille","lat":43.28931,"lon":5.36632,"is_reserved":false,"is_disabled":false,"rental_uris":{"android":"levelo://app?vid=45d31274-a34d-4398-bc46-47f1f0553446","ios":"levelo://app?vid=45d31274-a34d-4398-bc46-47f1f0553446"},"vehicle_type_id":"4","last_reported":1728044222,"current_range_meters":28400,"station_id":"ce4bhap2rcd13ifvqek0","pricing_plan_id":"cebpf4jnsgd1na2vs0mg"},{"bike_id":"77c59eab-5250-44c4-be86-099c0defe9c4","system_id":"levelo_inurba_marseille","lat":43.33751,"lon":5.37436,"is_reserved":false,"is_disabled":false,"rental_uris":{"android":"levelo://app?vid=77c59eab-5250-44c4-be86-099c0defe9c4","ios":"levelo://app?vid=77c59eab-5250-44c4-be86-099c0defe9c4"},"vehicle_type_id":"4","last_reported":1728044222,"current_range_meters":30800,"station_id":"","pricing_plan_id":"cebpf4jnsgd1na2vs0mg"},{"bike_id":"d39fe60d-adbe-4ff4-9a70-44533f0060ba","system_id":"levelo_inurba_marseille","lat":43.26947,"lon":5.40245,"is_reserved":false,"is_disabled":false,"rental_uris":{"android":"levelo://app?vid=d39fe60d-adbe-4ff4-9a70-44533f0060ba","ios":"levelo://app?vid=d39fe60d-adbe-4ff4-9a70-44533f0060ba"},"vehicle_type_id":"4","last_reported":1728044222,"current_range_meters":38800,"station_id":"cjm6bp8fraef2m0cb0m0","pricing_plan_id":"cebpf4jnsgd1na2vs0mg"},{"bike_id":"e693d094-87e4-432c-8e32-e582c0f7083a","system_id":"levelo_inurba_marseille","lat":43.29586,"lon":5.3674,"is_reserved":false,"is_disabled":false,"rental_uris":{"android":"levelo://app?vid=e693d094-87e4-432c-8e32-e582c0f7083a","ios":"levelo://app?vid=e693d094-87e4-432c-8e32-e582c0f7083a"},"vehicle_type_id":"4","last_reported":1728044222,"current_range_meters":36800,"station_id":"ce4bgph2rcd13ifvqc2g","pricing_plan_id":"cebpf4jnsgd1na2vs0mg"},{"bike_id":"8a828685-71af-4996-b67e-0dddc65a36a6","system_id":"levelo_inurba_marseille","lat":43.28465,"lon":5.35885,"is_reserved":false,"is_disabled":false,"rental_uris":{"android":"levelo://app?vid=8a828685-71af-4996-b67e-0dddc65a36a6","ios":"levelo://app?vid=8a828685-71af-4996-b67e-0dddc65a36a6"},"vehicle_type_id":"4","last_reported":1728044222,"current_range_meters":6400,"station_id":"ce4bhah2rcd13ifvqei0","pricing_plan_id":"cebpf4jnsgd1na2vs0mg"},{"bike_id":"a9422961-cf7b-429a-818a-31f530dda1b5","system_id":"levelo_inurba_marseille","lat":43.27053,"lon":5.4026,"is_reserved":false,"is_disabled":false,"rental_uris":{"android":"levelo://app?vid=a9422961-cf7b-429a-818a-31f530dda1b5","ios":"levelo://app?vid=a9422961-cf7b-429a-818a-31f530dda1b5"},"vehicle_type_id":"4","last_reported":1728044222,"current_range_meters":20000,"station_id":"ce4bhk92rcd13ifvqgc0","pricing_plan_id":"cebpf4jnsgd1na2vs0mg"},{"bike_id":"93098334-5766-41ec-9f29-124ede017eb4","system_id":"levelo_inurba_marseille","lat":43.31362,"lon":5.36689,"is_reserved":false,"is_disabled":false,"rental_uris":{"android":"levelo://app?vid=93098334-5766-41ec-9f29-124ede017eb4","ios":"levelo://app?vid=93098334-5766-41ec-9f29-124ede017eb4"},"vehicle_type_id":"4","last_reported":1728044222,"current_range_meters":34000,"station_id":"ce4bgr92rcd13ifvqc6g","pricing_plan_id":"cebpf4jnsgd1na2vs0mg"},{"bike_id":"8024dbc1-909c-4b07-9976-cc70ce4f82f6","system_id":"levelo_inurba_marseille","lat":43.24076,"lon":5.37759,"is_reserved":false,"is_disabled":false,"rental_uris":{"android":"levelo://app?vid=8024dbc1-909c-4b07-9976-cc70ce4f82f6","ios":"levelo://app?vid=8024dbc1-909c-4b07-9976-cc70ce4f82f6"},"vehicle_type_id":"4","last_reported":1728044222,"current_range_meters":33600,"station_id":"ce4bhnp2rcd13ifvqgvg","pricing_plan_id":"cebpf4jnsgd1na2vs0mg"},{"bike_id":"9a3c9619-494d-4081-85df-08dc3e9fd8a7","system_id":"levelo_inurba_marseille","lat":43.24076,"lon":5.37756,"is_reserved":false,"is_disabled":false,"rental_uris":{"android":"levelo://app?vid=9a3c9619-494d-4081-85df-08dc3e9fd8a7","ios":"levelo://app?vid=9a3c9619-494d-4081-85df-08dc3e9fd8a7"},"vehicle_type_id":"4","last_reported":1728044222,"current_range_meters":26000,"station_id":"ce4bhnp2rcd13ifvqgvg","pricing_plan_id":"cebpf4jnsgd1na2vs0mg"},{"bike_id":"8a229f4f-6d87-46fd-aad7-58d0f664d406","system_id":"levelo_inurba_marseille","lat":43.24071,"lon":5.37765,"is_reserved":false,"is_disabled":false,"rental_uris":{"android":"levelo://app?vid=8a229f4f-6d87-46fd-aad7-58d0f664d406","ios":"levelo://app?vid=8a229f4f-6d87-46fd-aad7-58d0f664d406"},"vehicle_type_id":"4","last_reported":1728044222,"current_range_meters":6800,"station_id":"ce4bhnp2rcd13ifvqgvg","pricing_plan_id":"cebpf4jnsgd1na2vs0mg"},{"bike_id":"e6971d0a-74dc-4102-8342-90f1c3d1831e","system_id":"levelo_inurba_marseille","lat":43.30539,"lon":5.3844,"is_reserved":false,"is_disabled":false,"rental_uris":{"android":"levelo://app?vid=e6971d0a-74dc-4102-8342-90f1c3d1831e","ios":"levelo://app?vid=e6971d0a-74dc-4102-8342-90f1c3d1831e"},"vehicle_type_id":"4","last_reported":1728044222,"current_range_meters":38800,"station_id":"ce4bgg92rcd13ifvqb30","pricing_plan_id":"cebpf4jnsgd1na2vs0mg"},{"bike_id":"430b0534-c0a3-4c25-ab6f-2bad06c8960d","system_id":"levelo_inurba_marseille","lat":43.23158,"lon":5.437,"is_reserved":false,"is_disabled":false,"rental_uris":{"android":"levelo://app?vid=430b0534-c0a3-4c25-ab6f-2bad06c8960d","ios":"levelo://app?vid=430b0534-c0a3-4c25-ab6f-2bad06c8960d"},"vehicle_type_id":"4","last_reported":1728044222,"current_range_meters":29600,"station_id":"ce4bhmp2rcd13ifvqgog","pricing_plan_id":"cebpf4jnsgd1na2vs0mg"},{"bike_id":"f34833af-9c50-4ded-b015-e20d6de55c39","system_id":"levelo_inurba_marseille","lat":43.31757,"lon":5.39019,"is_reserved":false,"is_disabled":false,"rental_uris":{"android":"levelo://app?vid=f34833af-9c50-4ded-b015-e20d6de55c39","ios":"levelo://app?vid=f34833af-9c50-4ded-b015-e20d6de55c39"},"vehicle_type_id":"4","last_reported":1728044222,"current_range_meters":28000,"station_id":"ce4bhqp2rcd13ifvqhng","pricing_plan_id":"cebpf4jnsgd1na2vs0mg"},{"bike_id":"56c4a9ac-23c6-4c4b-8f88-52fae3c81a32","system_id":"levelo_inurba_marseille","lat":43.29196,"lon":5.35798,"is_reserved":false,"is_disabled":false,"rental_uris":{"android":"levelo://app?vid=56c4a9ac-23c6-4c4b-8f88-52fae3c81a32","ios":"levelo://app?vid=56c4a9ac-23c6-4c4b-8f88-52fae3c81a32"},"vehicle_type_id":"4","last_reported":1728044222,"current_range_meters":14800,"station_id":"ce4bhb12rcd13ifvqel0","pricing_plan_id":"cebpf4jnsgd1na2vs0mg"},{"bike_id":"892485c4-e35e-434d-bf36-60767c50f265","system_id":"levelo_inurba_marseille","lat":43.27492,"lon":5.42467,"is_reserved":false,"is_disabled":false,"rental_uris":{"android":"levelo://app?vid=892485c4-e35e-434d-bf36-60767c50f265","ios":"levelo://app?vid=892485c4-e35e-434d-bf36-60767c50f265"},"vehicle_type_id":"4","last_reported":1728044222,"current_range_meters":14000,"station_id":"ce4bhn92rcd13ifvqgrg","pricing_plan_id":"cebpf4jnsgd1na2vs0mg"},{"bike_id":"4b8c3ce7-8894-4e0c-889e-cc077634d718","system_id":"levelo_inurba_marseille","lat":43.24653,"lon":5.38894,"is_reserved":false,"is_disabled":false,"rental_uris":{"android":"levelo://app?vid=4b8c3ce7-8894-4e0c-889e-cc077634d718","ios":"levelo://app?vid=4b8c3ce7-8894-4e0c-889e-cc077634d718"},"vehicle_type_id":"4","last_reported":1728044222,"current_range_meters":20000,"station_id":"ce4bhg12rcd13ifvqf60","pricing_plan_id":"cebpf4jnsgd1na2vs0mg"},{"bike_id":"fdb68aa5-0a31-4ff3-9837-ee5d5fa5bae6","system_id":"levelo_inurba_marseille","lat":43.23148,"lon":5.43705,"is_reserved":false,"is_disabled":false,"rental_uris":{"android":"levelo://app?vid=fdb68aa5-0a31-4ff3-9837-ee5d5fa5bae6","ios":"levelo://app?vid=fdb68aa5-0a31-4ff3-9837-ee5d5fa5bae6"},"vehicle_type_id":"4","last_reported":1728044222,"current_range_meters":40000,"station_id":"ce4bhmp2rcd13ifvqgog","pricing_plan_id":"cebpf4jnsgd1na2vs0mg"},{"bike_id":"1bb16e86-9cd8-4c34-b590-d657ac831893","system_id":"levelo_inurba_marseille","lat":43.31687,"lon":5.40478,"is_reserved":false,"is_disabled":false,"rental_uris":{"android":"levelo://app?vid=1bb16e86-9cd8-4c34-b590-d657ac831893","ios":"levelo://app?vid=1bb16e86-9cd8-4c34-b590-d657ac831893"},"vehicle_type_id":"4","last_reported":1728044222,"current_range_meters":5600,"station_id":"ce4bh012rcd13ifvqd00","pricing_plan_id":"cebpf4jnsgd1na2vs0mg"},{"bike_id":"2791323e-e089-44b9-93c7-4371a023d06b","system_id":"levelo_inurba_marseille","lat":43.29366,"lon":5.37847,"is_reserved":false,"is_disabled":false,"rental_uris":{"android":"levelo://app?vid=2791323e-e089-44b9-93c7-4371a023d06b","ios":"levelo://app?vid=2791323e-e089-44b9-93c7-4371a023d06b"},"vehicle_type_id":"4","last_reported":1728044222,"current_range_meters":36400,"station_id":"ce4bgjh2rcd13ifvqbf0","pricing_plan_id":"cebpf4jnsgd1na2vs0mg"},{"bike_id":"b417a8d0-1fac-4a2b-9294-35cea48e57c1","system_id":"levelo_inurba_marseille","lat":43.33027,"lon":5.39045,"is_reserved":false,"is_disabled":false,"rental_uris":{"android":"levelo://app?vid=b417a8d0-1fac-4a2b-9294-35cea48e57c1","ios":"levelo://app?vid=b417a8d0-1fac-4a2b-9294-35cea48e57c1"},"vehicle_type_id":"4","last_reported":1728044222,"current_range_meters":28400,"station_id":"ce4bhr92rcd13ifvqhrg","pricing_plan_id":"cebpf4jnsgd1na2vs0mg"},{"bike_id":"cd4bb195-6ace-4918-bb91-0bb2a48ddbfe","system_id":"levelo_inurba_marseille","lat":43.24806,"lon":5.37452,"is_reserved":false,"is_disabled":false,"rental_uris":{"android":"levelo://app?vid=cd4bb195-6ace-4918-bb91-0bb2a48ddbfe","ios":"levelo://app?vid=cd4bb195-6ace-4918-bb91-0bb2a48ddbfe"},"vehicle_type_id":"4","last_reported":1728044222,"current_range_meters":33600,"station_id":"ce4bhgh2rcd13ifvqfb0","pricing_plan_id":"cebpf4jnsgd1na2vs0mg"},{"bike_id":"52acd51a-f333-47ab-b523-a252f640adb0","system_id":"levelo_inurba_marseille","lat":43.27945,"lon":5.41045,"is_reserved":false,"is_disabled":false,"rental_uris":{"android":"levelo://app?vid=52acd51a-f333-47ab-b523-a252f640adb0","ios":"levelo://app?vid=52acd51a-f333-47ab-b523-a252f640adb0"},"vehicle_type_id":"4","last_reported":1728044222,"current_range_meters":16000,"station_id":"ce4bhnp2rcd13ifvqh0g","pricing_plan_id":"cebpf4jnsgd1na2vs0mg"},{"bike_id":"81135a2f-3484-4943-8cb1-e9f527d2c044","system_id":"levelo_inurba_marseille","lat":43.23187,"lon":5.39974,"is_reserved":false,"is_disabled":false,"rental_uris":{"android":"levelo://app?vid=81135a2f-3484-4943-8cb1-e9f527d2c044","ios":"levelo://app?vid=81135a2f-3484-4943-8cb1-e9f527d2c044"},"vehicle_type_id":"4","last_reported":1728044222,"current_range_meters":38400,"station_id":"ce4bhn12rcd13ifvqgqg","pricing_plan_id":"cebpf4jnsgd1na2vs0mg"},{"bike_id":"c8e8265a-4e35-4304-bc30-1eaf48ba054a","system_id":"levelo_inurba_marseille","lat":43.30597,"lon":5.37213,"is_reserved":false,"is_disabled":false,"rental_uris":{"android":"levelo://app?vid=c8e8265a-4e35-4304-bc30-1eaf48ba054a","ios":"levelo://app?vid=c8e8265a-4e35-4304-bc30-1eaf48ba054a"},"vehicle_type_id":"4","last_reported":1728044222,"current_range_meters":33200,"station_id":"ce4bgqh2rcd13ifvqc4g","pricing_plan_id":"cebpf4jnsgd1na2vs0mg"},{"bike_id":"476a6893-5de7-415b-ace0-e025751606f2","system_id":"levelo_inurba_marseille","lat":43.25004,"lon":5.38925,"is_reserved":false,"is_disabled":false,"rental_uris":{"android":"levelo://app?vid=476a6893-5de7-415b-ace0-e025751606f2","ios":"levelo://app?vid=476a6893-5de7-415b-ace0-e025751606f2"},"vehicle_type_id":"4","last_reported":1728044222,"current_range_meters":14400,"station_id":"ce4bhgp2rcd13ifvqfd0","pricing_plan_id":"cebpf4jnsgd1na2vs0mg"},{"bike_id":"cce03b88-5482-4e13-8ad1-d2b255858149","system_id":"levelo_inurba_marseille","lat":43.2707,"lon":5.42274,"is_reserved":false,"is_disabled":false,"rental_uris":{"android":"levelo://app?vid=cce03b88-5482-4e13-8ad1-d2b255858149","ios":"levelo://app?vid=cce03b88-5482-4e13-8ad1-d2b255858149"},"vehicle_type_id":"4","last_reported":1728044222,"current_range_meters":32400,"station_id":"ce4bhk92rcd13ifvqgb0","pricing_plan_id":"cebpf4jnsgd1na2vs0mg"},{"bike_id":"3d743f14-6bda-4d52-ac79-3261a0662f90","system_id":"levelo_inurba_marseille","lat":43.25082,"lon":5.39513,"is_reserved":false,"is_disabled":false,"rental_uris":{"android":"levelo://app?vid=3d743f14-6bda-4d52-ac79-3261a0662f90","ios":"levelo://app?vid=3d743f14-6bda-4d52-ac79-3261a0662f90"},"vehicle_type_id":"4","last_reported":1728044222,"current_range_meters":40000,"station_id":"ce4bhm12rcd13ifvqgkg","pricing_plan_id":"cebpf4jnsgd1na2vs0mg"},{"bike_id":"1e4b9dd3-b33a-4d2a-8266-ed32618ab5b8","system_id":"levelo_inurba_marseille","lat":43.23151,"lon":5.4372,"is_reserved":false,"is_disabled":false,"rental_uris":{"android":"levelo://app?vid=1e4b9dd3-b33a-4d2a-8266-ed32618ab5b8","ios":"levelo://app?vid=1e4b9dd3-b33a-4d2a-8266-ed32618ab5b8"},"vehicle_type_id":"4","last_reported":1728044222,"current_range_meters":20400,"station_id":"ce4bhmp2rcd13ifvqgog","pricing_plan_id":"cebpf4jnsgd1na2vs0mg"},{"bike_id":"618dbd70-d2c5-4e8c-b885-8315978f5f74","system_id":"levelo_inurba_marseille","lat":43.29581,"lon":5.36734,"is_reserved":false,"is_disabled":false,"rental_uris":{"android":"levelo://app?vid=618dbd70-d2c5-4e8c-b885-8315978f5f74","ios":"levelo://app?vid=618dbd70-d2c5-4e8c-b885-8315978f5f74"},"vehicle_type_id":"4","last_reported":1728044222,"current_range_meters":36800,"station_id":"ce4bgph2rcd13ifvqc2g","pricing_plan_id":"cebpf4jnsgd1na2vs0mg"},{"bike_id":"91f5d4d0-29b4-416e-b80a-21fa1cdd290c","system_id":"levelo_inurba_marseille","lat":43.25027,"lon":5.375498,"is_reserved":false,"is_disabled":false,"rental_uris":{"android":"levelo://app?vid=91f5d4d0-29b4-416e-b80a-21fa1cdd290c","ios":"levelo://app?vid=91f5d4d0-29b4-416e-b80a-21fa1cdd290c"},"vehicle_type_id":"4","last_reported":1728044222,"current_range_meters":16800,"station_id":"","pricing_plan_id":"cebpf4jnsgd1na2vs0mg"},{"bike_id":"40b2373a-7070-42de-901f-39a4ae88c96a","system_id":"levelo_inurba_marseille","lat":43.31709,"lon":5.43707,"is_reserved":false,"is_disabled":false,"rental_uris":{"android":"levelo://app?vid=40b2373a-7070-42de-901f-39a4ae88c96a","ios":"levelo://app?vid=40b2373a-7070-42de-901f-39a4ae88c96a"},"vehicle_type_id":"4","last_reported":1728044222,"current_range_meters":22000,"station_id":"ce4bhp92rcd13ifvqhcg","pricing_plan_id":"cebpf4jnsgd1na2vs0mg"},{"bike_id":"411a622e-0c64-4ae7-ab3a-3b4f2603408c","system_id":"levelo_inurba_marseille","lat":43.29901,"lon":5.43676,"is_reserved":false,"is_disabled":false,"rental_uris":{"android":"levelo://app?vid=411a622e-0c64-4ae7-ab3a-3b4f2603408c","ios":"levelo://app?vid=411a622e-0c64-4ae7-ab3a-3b4f2603408c"},"vehicle_type_id":"4","last_reported":1728044222,"current_range_meters":33600,"station_id":"ce4bhpp2rcd13ifvqhfg","pricing_plan_id":"cebpf4jnsgd1na2vs0mg"},{"bike_id":"d9513a24-3235-43a7-b9a5-1c5cfe37603f","system_id":"levelo_inurba_marseille","lat":43.23056,"lon":5.35493,"is_reserved":false,"is_disabled":false,"rental_uris":{"android":"levelo://app?vid=d9513a24-3235-43a7-b9a5-1c5cfe37603f","ios":"levelo://app?vid=d9513a24-3235-43a7-b9a5-1c5cfe37603f"},"vehicle_type_id":"4","last_reported":1728044222,"current_range_meters":25600,"station_id":"cpo3342slgdg3j2ifvpg","pricing_plan_id":"cebpf4jnsgd1na2vs0mg"},{"bike_id":"2e5aa277-3b7b-4a32-a3af-4d53c5329233","system_id":"levelo_inurba_marseille","lat":43.239655,"lon":5.438619,"is_reserved":false,"is_disabled":false,"rental_uris":{"android":"levelo://app?vid=2e5aa277-3b7b-4a32-a3af-4d53c5329233","ios":"levelo://app?vid=2e5aa277-3b7b-4a32-a3af-4d53c5329233"},"vehicle_type_id":"4","last_reported":1728044222,"current_range_meters":19600,"station_id":"","pricing_plan_id":"cebpf4jnsgd1na2vs0mg"},{"bike_id":"7bdcdbb9-b52f-4b42-9e65-be051a80cf8b","system_id":"levelo_inurba_marseille","lat":43.32491,"lon":5.36567,"is_reserved":false,"is_disabled":false,"rental_uris":{"android":"levelo://app?vid=7bdcdbb9-b52f-4b42-9e65-be051a80cf8b","ios":"levelo://app?vid=7bdcdbb9-b52f-4b42-9e65-be051a80cf8b"},"vehicle_type_id":"4","last_reported":1728044222,"current_range_meters":8400,"station_id":"ce4bhs12rcd13ifvqhvg","pricing_plan_id":"cebpf4jnsgd1na2vs0mg"},{"bike_id":"94e4dd2d-e7bd-49e1-b37f-aa1436b68abc","system_id":"levelo_inurba_marseille","lat":43.30786,"lon":5.38179,"is_reserved":false,"is_disabled":false,"rental_uris":{"android":"levelo://app?vid=94e4dd2d-e7bd-49e1-b37f-aa1436b68abc","ios":"levelo://app?vid=94e4dd2d-e7bd-49e1-b37f-aa1436b68abc"},"vehicle_type_id":"4","last_reported":1728044222,"current_range_meters":22800,"station_id":"ce4bgt12rcd13ifvqce0","pricing_plan_id":"cebpf4jnsgd1na2vs0mg"},{"bike_id":"4bd008e2-ced4-419f-9986-7bdf08969ddd","system_id":"levelo_inurba_marseille","lat":43.3092,"lon":5.36848,"is_reserved":false,"is_disabled":false,"rental_uris":{"android":"levelo://app?vid=4bd008e2-ced4-419f-9986-7bdf08969ddd","ios":"levelo://app?vid=4bd008e2-ced4-419f-9986-7bdf08969ddd"},"vehicle_type_id":"4","last_reported":1728044222,"current_range_meters":36400,"station_id":"ce4bgn92rcd13ifvqbvg","pricing_plan_id":"cebpf4jnsgd1na2vs0mg"},{"bike_id":"8a0e0700-6a9b-403f-8a8f-341648bd54d3","system_id":"levelo_inurba_marseille","lat":43.30144,"lon":5.37412,"is_reserved":false,"is_disabled":false,"rental_uris":{"android":"levelo://app?vid=8a0e0700-6a9b-403f-8a8f-341648bd54d3","ios":"levelo://app?vid=8a0e0700-6a9b-403f-8a8f-341648bd54d3"},"vehicle_type_id":"4","last_reported":1728044222,"current_range_meters":4800,"station_id":"ce4bgs92rcd13ifvqcc0","pricing_plan_id":"cebpf4jnsgd1na2vs0mg"},{"bike_id":"9b22f0b2-ab71-42d9-ba98-ecd6dfd8ae23","system_id":"levelo_inurba_marseille","lat":43.28932,"lon":5.38396,"is_reserved":false,"is_disabled":false,"rental_uris":{"android":"levelo://app?vid=9b22f0b2-ab71-42d9-ba98-ecd6dfd8ae23","ios":"levelo://app?vid=9b22f0b2-ab71-42d9-ba98-ecd6dfd8ae23"},"vehicle_type_id":"4","last_reported":1728044222,"current_range_meters":39200,"station_id":"ce4bh612rcd13ifvqe6g","pricing_plan_id":"cebpf4jnsgd1na2vs0mg"},{"bike_id":"4e0c83a2-b0c3-4894-8559-e509681998d3","system_id":"levelo_inurba_marseille","lat":43.31124,"lon":5.3833,"is_reserved":false,"is_disabled":false,"rental_uris":{"android":"levelo://app?vid=4e0c83a2-b0c3-4894-8559-e509681998d3","ios":"levelo://app?vid=4e0c83a2-b0c3-4894-8559-e509681998d3"},"vehicle_type_id":"4","last_reported":1728044222,"current_range_meters":23200,"station_id":"","pricing_plan_id":"cebpf4jnsgd1na2vs0mg"},{"bike_id":"dc852ba8-32f2-497f-a66a-6178eae58d48","system_id":"levelo_inurba_marseille","lat":43.32485,"lon":5.36565,"is_reserved":false,"is_disabled":false,"rental_uris":{"android":"levelo://app?vid=dc852ba8-32f2-497f-a66a-6178eae58d48","ios":"levelo://app?vid=dc852ba8-32f2-497f-a66a-6178eae58d48"},"vehicle_type_id":"4","last_reported":1728044222,"current_range_meters":11600,"station_id":"ce4bhs12rcd13ifvqhvg","pricing_plan_id":"cebpf4jnsgd1na2vs0mg"},{"bike_id":"701c6d99-5cc9-4f4a-aff8-cbd84ddd36e7","system_id":"levelo_inurba_marseille","lat":43.25108,"lon":5.40321,"is_reserved":false,"is_disabled":false,"rental_uris":{"android":"levelo://app?vid=701c6d99-5cc9-4f4a-aff8-cbd84ddd36e7","ios":"levelo://app?vid=701c6d99-5cc9-4f4a-aff8-cbd84ddd36e7"},"vehicle_type_id":"4","last_reported":1728044222,"current_range_meters":39200,"station_id":"ce4bhlh2rcd13ifvqgig","pricing_plan_id":"cebpf4jnsgd1na2vs0mg"},{"bike_id":"6bff8717-b220-4196-af64-4f5ae31911b8","system_id":"levelo_inurba_marseille","lat":43.2981,"lon":5.38102,"is_reserved":false,"is_disabled":false,"rental_uris":{"android":"levelo://app?vid=6bff8717-b220-4196-af64-4f5ae31911b8","ios":"levelo://app?vid=6bff8717-b220-4196-af64-4f5ae31911b8"},"vehicle_type_id":"4","last_reported":1728044222,"current_range_meters":38800,"station_id":"ce4bgip2rcd13ifvqbb0","pricing_plan_id":"cebpf4jnsgd1na2vs0mg"},{"bike_id":"45a3c24c-a2ed-4de3-a00f-a5a2d6cf6363","system_id":"levelo_inurba_marseille","lat":43.26036,"lon":5.37541,"is_reserved":false,"is_disabled":false,"rental_uris":{"android":"levelo://app?vid=45a3c24c-a2ed-4de3-a00f-a5a2d6cf6363","ios":"levelo://app?vid=45a3c24c-a2ed-4de3-a00f-a5a2d6cf6363"},"vehicle_type_id":"4","last_reported":1728044222,"current_range_meters":32000,"station_id":"ce4bhgh2rcd13ifvqfa0","pricing_plan_id":"cebpf4jnsgd1na2vs0mg"},{"bike_id":"d9098bcd-5dc6-4a40-a060-f6b850817939","system_id":"levelo_inurba_marseille","lat":43.25936,"lon":5.40908,"is_reserved":false,"is_disabled":false,"rental_uris":{"android":"levelo://app?vid=d9098bcd-5dc6-4a40-a060-f6b850817939","ios":"levelo://app?vid=d9098bcd-5dc6-4a40-a060-f6b850817939"},"vehicle_type_id":"4","last_reported":1728044222,"current_range_meters":33600,"station_id":"ce4bhm92rcd13ifvqglg","pricing_plan_id":"cebpf4jnsgd1na2vs0mg"},{"bike_id":"b378dfd1-c1cc-4a36-864e-c1a62b564295","system_id":"levelo_inurba_marseille","lat":43.23157,"lon":5.43704,"is_reserved":false,"is_disabled":false,"rental_uris":{"android":"levelo://app?vid=b378dfd1-c1cc-4a36-864e-c1a62b564295","ios":"levelo://app?vid=b378dfd1-c1cc-4a36-864e-c1a62b564295"},"vehicle_type_id":"4","last_reported":1728044222,"current_range_meters":29600,"station_id":"ce4bhmp2rcd13ifvqgog","pricing_plan_id":"cebpf4jnsgd1na2vs0mg"},{"bike_id":"c1a69bfc-24e0-4a66-9678-757365f9eded","system_id":"levelo_inurba_marseille","lat":43.30797,"lon":5.43519,"is_reserved":false,"is_disabled":false,"rental_uris":{"android":"levelo://app?vid=c1a69bfc-24e0-4a66-9678-757365f9eded","ios":"levelo://app?vid=c1a69bfc-24e0-4a66-9678-757365f9eded"},"vehicle_type_id":"4","last_reported":1728044222,"current_range_meters":10000,"station_id":"ce4bhph2rcd13ifvqheg","pricing_plan_id":"cebpf4jnsgd1na2vs0mg"},{"bike_id":"cc8612c2-298f-4c0f-9e0f-914f9ab06767","system_id":"levelo_inurba_marseille","lat":43.24657,"lon":5.38882,"is_reserved":false,"is_disabled":false,"rental_uris":{"android":"levelo://app?vid=cc8612c2-298f-4c0f-9e0f-914f9ab06767","ios":"levelo://app?vid=cc8612c2-298f-4c0f-9e0f-914f9ab06767"},"vehicle_type_id":"4","last_reported":1728044222,"current_range_meters":27600,"station_id":"ce4bhg12rcd13ifvqf60","pricing_plan_id":"cebpf4jnsgd1na2vs0mg"},{"bike_id":"ae3919ca-a5d8-427a-8abb-caaa5f4e61f5","system_id":"levelo_inurba_marseille","lat":43.29976,"lon":5.38481,"is_reserved":false,"is_disabled":false,"rental_uris":{"android":"levelo://app?vid=ae3919ca-a5d8-427a-8abb-caaa5f4e61f5","ios":"levelo://app?vid=ae3919ca-a5d8-427a-8abb-caaa5f4e61f5"},"vehicle_type_id":"4","last_reported":1728044222,"current_range_meters":36400,"station_id":"ce4bgj92rcd13ifvqbd0","pricing_plan_id":"cebpf4jnsgd1na2vs0mg"},{"bike_id":"76fd0ec5-b981-4140-9049-e03884a9ef31","system_id":"levelo_inurba_marseille","lat":43.27182,"lon":5.40991,"is_reserved":false,"is_disabled":false,"rental_uris":{"android":"levelo://app?vid=76fd0ec5-b981-4140-9049-e03884a9ef31","ios":"levelo://app?vid=76fd0ec5-b981-4140-9049-e03884a9ef31"},"vehicle_type_id":"4","last_reported":1728044222,"current_range_meters":39200,"station_id":"ce4bhl12rcd13ifvqgf0","pricing_plan_id":"cebpf4jnsgd1na2vs0mg"},{"bike_id":"eb387d80-1a2b-4338-9dfc-d920fff731e3","system_id":"levelo_inurba_marseille","lat":43.23143,"lon":5.43721,"is_reserved":false,"is_disabled":false,"rental_uris":{"android":"levelo://app?vid=eb387d80-1a2b-4338-9dfc-d920fff731e3","ios":"levelo://app?vid=eb387d80-1a2b-4338-9dfc-d920fff731e3"},"vehicle_type_id":"4","last_reported":1728044222,"current_range_meters":38800,"station_id":"ce4bhmp2rcd13ifvqgog","pricing_plan_id":"cebpf4jnsgd1na2vs0mg"},{"bike_id":"3a592867-9d22-4d83-aeeb-a6898d779c97","system_id":"levelo_inurba_marseille","lat":43.30942,"lon":5.3904,"is_reserved":false,"is_disabled":false,"rental_uris":{"android":"levelo://app?vid=3a592867-9d22-4d83-aeeb-a6898d779c97","ios":"levelo://app?vid=3a592867-9d22-4d83-aeeb-a6898d779c97"},"vehicle_type_id":"4","last_reported":1728044222,"current_range_meters":10000,"station_id":"ce4bgup2rcd13ifvqco0","pricing_plan_id":"cebpf4jnsgd1na2vs0mg"},{"bike_id":"89d1fbce-1f32-425c-9c4c-5dd75f86b29a","system_id":"levelo_inurba_marseille","lat":43.29008,"lon":5.35605,"is_reserved":false,"is_disabled":false,"rental_uris":{"android":"levelo://app?vid=89d1fbce-1f32-425c-9c4c-5dd75f86b29a","ios":"levelo://app?vid=89d1fbce-1f32-425c-9c4c-5dd75f86b29a"},"vehicle_type_id":"4","last_reported":1728044222,"current_range_meters":36800,"station_id":"ce4bhb92rcd13ifvqen0","pricing_plan_id":"cebpf4jnsgd1na2vs0mg"},{"bike_id":"7d245179-adb3-498a-a854-702aec93e1fc","system_id":"levelo_inurba_marseille","lat":43.28434,"lon":5.39183,"is_reserved":false,"is_disabled":false,"rental_uris":{"android":"levelo://app?vid=7d245179-adb3-498a-a854-702aec93e1fc","ios":"levelo://app?vid=7d245179-adb3-498a-a854-702aec93e1fc"},"vehicle_type_id":"4","last_reported":1728044222,"current_range_meters":3200,"station_id":"ce4bhoh2rcd13ifvqh5g","pricing_plan_id":"cebpf4jnsgd1na2vs0mg"},{"bike_id":"834c777d-7c77-4f44-b2dc-6643b97a7854","system_id":"levelo_inurba_marseille","lat":43.33613,"lon":5.41022,"is_reserved":false,"is_disabled":false,"rental_uris":{"android":"levelo://app?vid=834c777d-7c77-4f44-b2dc-6643b97a7854","ios":"levelo://app?vid=834c777d-7c77-4f44-b2dc-6643b97a7854"},"vehicle_type_id":"4","last_reported":1728044222,"current_range_meters":38800,"station_id":"ce4bhqh2rcd13ifvqhmg","pricing_plan_id":"cebpf4jnsgd1na2vs0mg"},{"bike_id":"444a7ed2-96c5-4c8b-ae5d-24c9adc9ae0e","system_id":"levelo_inurba_marseille","lat":43.2465,"lon":5.38896,"is_reserved":false,"is_disabled":false,"rental_uris":{"android":"levelo://app?vid=444a7ed2-96c5-4c8b-ae5d-24c9adc9ae0e","ios":"levelo://app?vid=444a7ed2-96c5-4c8b-ae5d-24c9adc9ae0e"},"vehicle_type_id":"4","last_reported":1728044222,"current_range_meters":34800,"station_id":"ce4bhg12rcd13ifvqf60","pricing_plan_id":"cebpf4jnsgd1na2vs0mg"},{"bike_id":"21cb7f3b-0c74-4a25-9118-73cb82a75413","system_id":"levelo_inurba_marseille","lat":43.314884,"lon":5.373118,"is_reserved":false,"is_disabled":false,"rental_uris":{"android":"levelo://app?vid=21cb7f3b-0c74-4a25-9118-73cb82a75413","ios":"levelo://app?vid=21cb7f3b-0c74-4a25-9118-73cb82a75413"},"vehicle_type_id":"4","last_reported":1728044222,"current_range_meters":29600,"station_id":"ce4bgt12rcd13ifvqcd0","pricing_plan_id":"cebpf4jnsgd1na2vs0mg"},{"bike_id":"613dddd7-b6d5-4ce7-b0cc-11c99bc21e50","system_id":"levelo_inurba_marseille","lat":43.30544,"lon":5.36706,"is_reserved":false,"is_disabled":false,"rental_uris":{"android":"levelo://app?vid=613dddd7-b6d5-4ce7-b0cc-11c99bc21e50","ios":"levelo://app?vid=613dddd7-b6d5-4ce7-b0cc-11c99bc21e50"},"vehicle_type_id":"4","last_reported":1728044222,"current_range_meters":32800,"station_id":"ce4bgrp2rcd13ifvqc9g","pricing_plan_id":"cebpf4jnsgd1na2vs0mg"},{"bike_id":"abedcaca-ce9a-464c-8437-8a94d42dcb16","system_id":"levelo_inurba_marseille","lat":43.2985,"lon":5.36274,"is_reserved":false,"is_disabled":false,"rental_uris":{"android":"levelo://app?vid=abedcaca-ce9a-464c-8437-8a94d42dcb16","ios":"levelo://app?vid=abedcaca-ce9a-464c-8437-8a94d42dcb16"},"vehicle_type_id":"4","last_reported":1728044222,"current_range_meters":38800,"station_id":"ce4bgpp2rcd13ifvqc3g","pricing_plan_id":"cebpf4jnsgd1na2vs0mg"},{"bike_id":"650262df-c1d1-46ae-ad74-907bc1d8f23e","system_id":"levelo_inurba_marseille","lat":43.28445,"lon":5.39188,"is_reserved":false,"is_disabled":false,"rental_uris":{"android":"levelo://app?vid=650262df-c1d1-46ae-ad74-907bc1d8f23e","ios":"levelo://app?vid=650262df-c1d1-46ae-ad74-907bc1d8f23e"},"vehicle_type_id":"4","last_reported":1728044222,"current_range_meters":22800,"station_id":"ce4bhoh2rcd13ifvqh5g","pricing_plan_id":"cebpf4jnsgd1na2vs0mg"},{"bike_id":"34ebef32-9733-4577-9591-610d131a8db3","system_id":"levelo_inurba_marseille","lat":43.29601,"lon":5.38102,"is_reserved":false,"is_disabled":false,"rental_uris":{"android":"levelo://app?vid=34ebef32-9733-4577-9591-610d131a8db3","ios":"levelo://app?vid=34ebef32-9733-4577-9591-610d131a8db3"},"vehicle_type_id":"4","last_reported":1728044222,"current_range_meters":37600,"station_id":"ce4bgl12rcd13ifvqbo0","pricing_plan_id":"cebpf4jnsgd1na2vs0mg"},{"bike_id":"645654cd-45ca-4e94-8102-c011dccf5ed2","system_id":"levelo_inurba_marseille","lat":43.26067,"lon":5.39396,"is_reserved":false,"is_disabled":false,"rental_uris":{"android":"levelo://app?vid=645654cd-45ca-4e94-8102-c011dccf5ed2","ios":"levelo://app?vid=645654cd-45ca-4e94-8102-c011dccf5ed2"},"vehicle_type_id":"4","last_reported":1728044222,"current_range_meters":27600,"station_id":"ce4bhh92rcd13ifvqfj0","pricing_plan_id":"cebpf4jnsgd1na2vs0mg"},{"bike_id":"3df9071c-0b2b-4eb1-afaa-6b0e1596a914","system_id":"levelo_inurba_marseille","lat":43.29602,"lon":5.38109,"is_reserved":false,"is_disabled":false,"rental_uris":{"android":"levelo://app?vid=3df9071c-0b2b-4eb1-afaa-6b0e1596a914","ios":"levelo://app?vid=3df9071c-0b2b-4eb1-afaa-6b0e1596a914"},"vehicle_type_id":"4","last_reported":1728044222,"current_range_meters":25200,"station_id":"ce4bgl12rcd13ifvqbo0","pricing_plan_id":"cebpf4jnsgd1na2vs0mg"},{"bike_id":"45bc0c60-d33b-4001-a2f3-c2070663ee37","system_id":"levelo_inurba_marseille","lat":43.31341,"lon":5.3671,"is_reserved":false,"is_disabled":false,"rental_uris":{"android":"levelo://app?vid=45bc0c60-d33b-4001-a2f3-c2070663ee37","ios":"levelo://app?vid=45bc0c60-d33b-4001-a2f3-c2070663ee37"},"vehicle_type_id":"4","last_reported":1728044222,"current_range_meters":39200,"station_id":"ce4bgr92rcd13ifvqc6g","pricing_plan_id":"cebpf4jnsgd1na2vs0mg"},{"bike_id":"da159afb-d6ad-4bc8-a3de-e348ce2b41eb","system_id":"levelo_inurba_marseille","lat":43.32486,"lon":5.36562,"is_reserved":false,"is_disabled":false,"rental_uris":{"android":"levelo://app?vid=da159afb-d6ad-4bc8-a3de-e348ce2b41eb","ios":"levelo://app?vid=da159afb-d6ad-4bc8-a3de-e348ce2b41eb"},"vehicle_type_id":"4","last_reported":1728044222,"current_range_meters":38000,"station_id":"ce4bhs12rcd13ifvqhvg","pricing_plan_id":"cebpf4jnsgd1na2vs0mg"},{"bike_id":"26f290bb-1447-4f43-ab6d-1590e2a06a4b","system_id":"levelo_inurba_marseille","lat":43.30509,"lon":5.38047,"is_reserved":false,"is_disabled":false,"rental_uris":{"android":"levelo://app?vid=26f290bb-1447-4f43-ab6d-1590e2a06a4b","ios":"levelo://app?vid=26f290bb-1447-4f43-ab6d-1590e2a06a4b"},"vehicle_type_id":"4","last_reported":1728044222,"current_range_meters":34000,"station_id":"","pricing_plan_id":"cebpf4jnsgd1na2vs0mg"},{"bike_id":"8eafa450-6fa9-4c0d-abd8-b08502622cd5","system_id":"levelo_inurba_marseille","lat":43.34138,"lon":5.40896,"is_reserved":false,"is_disabled":false,"rental_uris":{"android":"levelo://app?vid=8eafa450-6fa9-4c0d-abd8-b08502622cd5","ios":"levelo://app?vid=8eafa450-6fa9-4c0d-abd8-b08502622cd5"},"vehicle_type_id":"4","last_reported":1728044222,"current_range_meters":38800,"station_id":"ce4bhqh2rcd13ifvqhlg","pricing_plan_id":"cebpf4jnsgd1na2vs0mg"},{"bike_id":"a8fbdfd9-61c0-44e5-8910-8c7f587455af","system_id":"levelo_inurba_marseille","lat":43.255771,"lon":5.382217,"is_reserved":false,"is_disabled":false,"rental_uris":{"android":"levelo://app?vid=a8fbdfd9-61c0-44e5-8910-8c7f587455af","ios":"levelo://app?vid=a8fbdfd9-61c0-44e5-8910-8c7f587455af"},"vehicle_type_id":"4","last_reported":1728044222,"current_range_meters":12800,"station_id":"ce4bhm12rcd13ifvqgkg","pricing_plan_id":"cebpf4jnsgd1na2vs0mg"},{"bike_id":"908cf306-5b9d-4364-95bc-4d3d439e8af7","system_id":"levelo_inurba_marseille","lat":43.32542,"lon":5.41437,"is_reserved":false,"is_disabled":false,"rental_uris":{"android":"levelo://app?vid=908cf306-5b9d-4364-95bc-4d3d439e8af7","ios":"levelo://app?vid=908cf306-5b9d-4364-95bc-4d3d439e8af7"},"vehicle_type_id":"4","last_reported":1728044222,"current_range_meters":22400,"station_id":"ce4bhq12rcd13ifvqhhg","pricing_plan_id":"cebpf4jnsgd1na2vs0mg"},{"bike_id":"40eee244-96c8-4790-ae6d-dd0cb3dac76d","system_id":"levelo_inurba_marseille","lat":43.337335,"lon":5.391845,"is_reserved":false,"is_disabled":false,"rental_uris":{"android":"levelo://app?vid=40eee244-96c8-4790-ae6d-dd0cb3dac76d","ios":"levelo://app?vid=40eee244-96c8-4790-ae6d-dd0cb3dac76d"},"vehicle_type_id":"4","last_reported":1728044222,"current_range_meters":33600,"station_id":"ce4bhr92rcd13ifvqhsg","pricing_plan_id":"cebpf4jnsgd1na2vs0mg"},{"bike_id":"31ef9594-86a7-41ae-8346-cf2b670b13ed","system_id":"levelo_inurba_marseille","lat":43.28272,"lon":5.35061,"is_reserved":false,"is_disabled":false,"rental_uris":{"android":"levelo://app?vid=31ef9594-86a7-41ae-8346-cf2b670b13ed","ios":"levelo://app?vid=31ef9594-86a7-41ae-8346-cf2b670b13ed"},"vehicle_type_id":"4","last_reported":1728044222,"current_range_meters":3600,"station_id":"ce4bhbp2rcd13ifvqerg","pricing_plan_id":"cebpf4jnsgd1na2vs0mg"},{"bike_id":"9153b943-6af7-4c89-a75b-407ef7290292","system_id":"levelo_inurba_marseille","lat":43.33724,"lon":5.39187,"is_reserved":false,"is_disabled":false,"rental_uris":{"android":"levelo://app?vid=9153b943-6af7-4c89-a75b-407ef7290292","ios":"levelo://app?vid=9153b943-6af7-4c89-a75b-407ef7290292"},"vehicle_type_id":"4","last_reported":1728044222,"current_range_meters":39200,"station_id":"ce4bhr92rcd13ifvqhsg","pricing_plan_id":"cebpf4jnsgd1na2vs0mg"},{"bike_id":"945db574-611e-44bd-b7af-2308ff04fc92","system_id":"levelo_inurba_marseille","lat":43.30159,"lon":5.3808,"is_reserved":false,"is_disabled":false,"rental_uris":{"android":"levelo://app?vid=945db574-611e-44bd-b7af-2308ff04fc92","ios":"levelo://app?vid=945db574-611e-44bd-b7af-2308ff04fc92"},"vehicle_type_id":"4","last_reported":1728044222,"current_range_meters":26800,"station_id":"ce4bgjp2rcd13ifvqbh0","pricing_plan_id":"cebpf4jnsgd1na2vs0mg"},{"bike_id":"4a2bcbd7-99f0-4bdc-9b30-db0c2aba643c","system_id":"levelo_inurba_marseille","lat":43.31757,"lon":5.39008,"is_reserved":false,"is_disabled":false,"rental_uris":{"android":"levelo://app?vid=4a2bcbd7-99f0-4bdc-9b30-db0c2aba643c","ios":"levelo://app?vid=4a2bcbd7-99f0-4bdc-9b30-db0c2aba643c"},"vehicle_type_id":"4","last_reported":1728044222,"current_range_meters":26800,"station_id":"ce4bhqp2rcd13ifvqhng","pricing_plan_id":"cebpf4jnsgd1na2vs0mg"},{"bike_id":"1255a080-8387-47c7-a9c4-0bf43b64c52c","system_id":"levelo_inurba_marseille","lat":43.278365,"lon":5.392073,"is_reserved":false,"is_disabled":false,"rental_uris":{"android":"levelo://app?vid=1255a080-8387-47c7-a9c4-0bf43b64c52c","ios":"levelo://app?vid=1255a080-8387-47c7-a9c4-0bf43b64c52c"},"vehicle_type_id":"4","last_reported":1728044222,"current_range_meters":38400,"station_id":"ce4bhjp2rcd13ifvqga0","pricing_plan_id":"cebpf4jnsgd1na2vs0mg"},