{"last_updated":1708117558,"ttl":30,"version":"2.2","data":{"bikes":[{"bike_id":"99f675f3-2d06-421e-a914-457b999be22a","system_id":"levelo_inurba_marseille","lat":43.31341,"lon":5.367098,"is_reserved":false,"is_disabled":false,"rental_uris":{"android":"levelo://app?vid=99f675f3-2d06-421e-a914-457b999be22a","ios":"levelo://app?vid=99f675f3-2d06-421e-a914-457b999be22a"},"vehicle_type_id":"4","last_reported":1708117558,"current_range_meters":24400,"station_id":"ce4bgr92rcd13ifvqc6g","pricing_plan_id":"cebpf4jnsgd1na2vs0mg"},{"bike_id":"c55a03ef-bcd8-419e-b680-62c8ee59cb0a","system_id":"levelo_inurba_marseille","lat":43.312239,"lon":5.368562,"is_reserved":false,"is_disabled":false,"rental_uris":{"android":"levelo://app?vid=c55a03ef-bcd8-419e-b680-62c8ee59cb0a","ios":"levelo://app?vid=c55a03ef-bcd8-419e-b680-62c8ee59cb0a"},"vehicle_type_id":"4","last_reported":1708117558,"current_range_meters":10000,"station_id":"ce4bgl92rcd13ifvqbq0","pricing_plan_id":"cebpf4jnsgd1na2vs0mg"},{"bike_id":"2c499ef8-6095-4c48-8b4e-5c66657a5142","system_id":"levelo_inurba_marseille","lat":43.312239,"lon":5.368562,"is_reserved":false,"is_disabled":false,"rental_uris":{"android":"levelo://app?vid=2c499ef8-6095-4c48-8b4e-5c66657a5142","ios":"levelo://app?vid=2c499ef8-6095-4c48-8b4e-5c66657a5142"},"vehicle_type_id":"4","last_reported":1708117558,"current_range_meters":9200,"station_id":"ce4bgl92rcd13ifvqbq0","pricing_plan_id":"cebpf4jnsgd1na2vs0mg"},{"bike_id":"14593999-a517-4800-aa4b-684b990e0429","system_id":"levelo_inurba_marseille","lat":43.309076,"lon":5.368465,"is_reserved":false,"is_disabled":false,"rental_uris":{"android":"levelo://app?vid=14593999-a517-4800-aa4b-684b990e0429","ios":"levelo://app?vid=14593999-a517-4800-aa4b-684b990e0429"},"vehicle_type_id":"4","last_reported":1708117558,"current_range_meters":30000,"station_id":"ce4bgn92rcd13ifvqbvg","pricing_plan_id":"cebpf4jnsgd1na2vs0mg"},{"bike_id":"d557c19e-3001-47a2-971b-f506ad1f3598","system_id":"levelo_inurba_marseille","lat":43.309076,"lon":5.368465,"is_reserved":false,"is_disabled":false,"rental_uris":{"android":"levelo://app?vid=d557c19e-3001-47a2-971b-f506ad1f3598","ios":"levelo://app?vid=d557c19e-3001-47a2-971b-f506ad1f3598"},"vehicle_type_id":"4","last_reported":1708117558,"current_range_meters":23200,"station_id":"ce4bgn92rcd13ifvqbvg","pricing_plan_id":"cebpf4jnsgd1na2vs0mg"},{"bike_id":"5f896cac-5c87-4996-b8ad-a4ced64222fb","system_id":"levelo_inurba_marseille","lat":43.31485,"lon":5.373,"is_reserved":false,"is_disabled":false,"rental_uris":{"android":"levelo://app?vid=5f896cac-5c87-4996-b8ad-a4ced64222fb","ios":"levelo://app?vid=5f896cac-5c87-4996-b8ad-a4ced64222fb"},"vehicle_type_id":"4","last_reported":1708117558,"current_range_meters":19600,"station_id":"ce4bgt12rcd13ifvqcd0","pricing_plan_id":"cebpf4jnsgd1na2vs0mg"},{"bike_id":"6f7b6296-dc1d-4580-b54a-dc1170b224fe","system_id":"levelo_inurba_marseille","lat":43.30891,"lon":5.372,"is_reserved":false,"is_disabled":false,"rental_uris":{"android":"levelo://app?vid=6f7b6296-dc1d-4580-b54a-dc1170b224fe","ios":"levelo://app?vid=6f7b6296-dc1d-4580-b54a-dc1170b224fe"},"vehicle_type_id":"4","last_reported":1708117558,"current_range_meters":0,"station_id":"ce4bguh2rcd13ifvqckg","pricing_plan_id":"cebpf4jnsgd1na2vs0mg"},{"bike_id":"0c545ea8-4b29-474f-8858-3d2656c93003","system_id":"levelo_inurba_marseille","lat":43.305989,"lon":5.37225,"is_reserved":false,"is_disabled":false,"rental_uris":{"android":"levelo://app?vid=0c545ea8-4b29-474f-8858-3d2656c93003","ios":"levelo://app?vid=0c545ea8-4b29-474f-8858-3d2656c93003"},"vehicle_type_id":"4","last_reported":1708117558,"current_range_meters":0,"station_id":"ce4bgqh2rcd13ifvqc4g","pricing_plan_id":"cebpf4jnsgd1na2vs0mg"},{"bike_id":"e173dd02-1cd4-4dd4-bab5-66a19bd57874","system_id":"levelo_inurba_marseille","lat":43.30611,"lon":5.37247,"is_reserved":false,"is_disabled":false,"rental_uris":{"android":"levelo://app?vid=e173dd02-1cd4-4dd4-bab5-66a19bd57874","ios":"levelo://app?vid=e173dd02-1cd4-4dd4-bab5-66a19bd57874"},"vehicle_type_id":"4","last_reported":1708117558,"current_range_meters":14000,"station_id":"ce4bgqh2rcd13ifvqc4g","pricing_plan_id":"cebpf4jnsgd1na2vs0mg"},{"bike_id":"86d72424-de2a-491f-b97d-12c8f06e7e92","system_id":"levelo_inurba_marseille","lat":43.305989,"lon":5.37225,"is_reserved":false,"is_disabled":false,"rental_uris":{"android":"levelo://app?vid=86d72424-de2a-491f-b97d-12c8f06e7e92","ios":"levelo://app?vid=86d72424-de2a-491f-b97d-12c8f06e7e92"},"vehicle_type_id":"4","last_reported":1708117558,"current_range_meters":2400,"station_id":"ce4bgqh2rcd13ifvqc4g","pricing_plan_id":"cebpf4jnsgd1na2vs0mg"},{"bike_id":"f21d5faf-579a-420d-80eb-41e4333e8941","system_id":"levelo_inurba_marseille","lat":43.31124,"lon":5.37766,"is_reserved":false,"is_disabled":false,"rental_uris":{"android":"levelo://app?vid=f21d5faf-579a-420d-80eb-41e4333e8941","ios":"levelo://app?vid=f21d5faf-579a-420d-80eb-41e4333e8941"},"vehicle_type_id":"4","last_reported":1708117558,"current_range_meters":4400,"station_id":"ce4bgt92rcd13ifvqcg0","pricing_plan_id":"cebpf4jnsgd1na2vs0mg"},{"bike_id":"b048fd87-eadc-4e97-8e80-4ff65f5e2991","system_id":"levelo_inurba_marseille","lat":43.305989,"lon":5.37225,"is_reserved":false,"is_disabled":false,"rental_uris":{"android":"levelo://app?vid=b048fd87-eadc-4e97-8e80-4ff65f5e2991","ios":"levelo://app?vid=b048fd87-eadc-4e97-8e80-4ff65f5e2991"},"vehicle_type_id":"4","last_reported":1708117558,"current_range_meters":10400,"station_id":"ce4bgqh2rcd13ifvqc4g","pricing_plan_id":"cebpf4jnsgd1na2vs0mg"},{"bike_id":"75dda7a1-6df3-4c8d-9511-fb711e1f5f2c","system_id":"levelo_inurba_marseille","lat":43.311131,"lon":5.377651,"is_reserved":false,"is_disabled":false,"rental_uris":{"android":"levelo://app?vid=75dda7a1-6df3-4c8d-9511-fb711e1f5f2c","ios":"levelo://app?vid=75dda7a1-6df3-4c8d-9511-fb711e1f5f2c"},"vehicle_type_id":"4","last_reported":1708117558,"current_range_meters":11600,"station_id":"ce4bgt92rcd13ifvqcg0","pricing_plan_id":"cebpf4jnsgd1na2vs0mg"},{"bike_id":"b29f639d-2d17-4f5f-b749-b9d7419d46dd","system_id":"levelo_inurba_marseille","lat":43.311125,"lon":5.377624,"is_reserved":false,"is_disabled":false,"rental_uris":{"android":"levelo://app?vid=b29f639d-2d17-4f5f-b749-b9d7419d46dd","ios":"levelo://app?vid=b29f639d-2d17-4f5f-b749-b9d7419d46dd"},"vehicle_type_id":"4","last_reported":1708117558,"current_range_meters":14400,"station_id":"ce4bgt92rcd13ifvqcg0","pricing_plan_id":"cebpf4jnsgd1na2vs0mg"},{"bike_id":"c8148a3f-4257-44da-a020-1ab2ec9c8c14","system_id":"levelo_inurba_marseille","lat":43.311131,"lon":5.377651,"is_reserved":false,"is_disabled":false,"rental_uris":{"android":"levelo://app?vid=c8148a3f-4257-44da-a020-1ab2ec9c8c14","ios":"levelo://app?vid=c8148a3f-4257-44da-a020-1ab2ec9c8c14"},"vehicle_type_id":"4","last_reported":1708117558,"current_range_meters":25200,"station_id":"ce4bgt92rcd13ifvqcg0","pricing_plan_id":"cebpf4jnsgd1na2vs0mg"},{"bike_id":"158503ae-058a-4ea5-808c-478cd959b7d4","system_id":"levelo_inurba_marseille","lat":43.311125,"lon":5.377624,"is_reserved":false,"is_disabled":false,"rental_uris":{"android":"levelo://app?vid=158503ae-058a-4ea5-808c-478cd959b7d4","ios":"levelo://app?vid=158503ae-058a-4ea5-808c-478cd959b7d4"},"vehicle_type_id":"4","last_reported":1708117558,"current_range_meters":0,"station_id":"ce4bgt92rcd13ifvqcg0","pricing_plan_id":"cebpf4jnsgd1na2vs0mg"},{"bike_id":"04f0f927-e3a8-4251-bac5-559c24688be0","system_id":"levelo_inurba_marseille","lat":43.305989,"lon":5.37225,"is_reserved":false,"is_disabled":false,"rental_uris":{"android":"levelo://app?vid=04f0f927-e3a8-4251-bac5-559c24688be0","ios":"levelo://app?vid=04f0f927-e3a8-4251-bac5-559c24688be0"},"vehicle_type_id":"4","last_reported":1708117558,"current_range_meters":9600,"station_id":"ce4bgqh2rcd13ifvqc4g","pricing_plan_id":"cebpf4jnsgd1na2vs0mg"},{"bike_id":"a6a918b2-ba15-48c2-8b48-d26172fdde42","system_id":"levelo_inurba_marseille","lat":43.307945,"lon":5.376487,"is_reserved":false,"is_disabled":false,"rental_uris":{"android":"levelo://app?vid=a6a918b2-ba15-48c2-8b48-d26172fdde42","ios":"levelo://app?vid=a6a918b2-ba15-48c2-8b48-d26172fdde42"},"vehicle_type_id":"4","last_reported":1708117558,"current_range_meters":26400,"station_id":"ce4bgv92rcd13ifvqcq0","pricing_plan_id":"cebpf4jnsgd1na2vs0mg"},{"bike_id":"0f735614-5b8a-4641-b044-759d38f3f2cd","system_id":"levelo_inurba_marseille","lat":43.307945,"lon":5.376487,"is_reserved":false,"is_disabled":false,"rental_uris":{"android":"levelo://app?vid=0f735614-5b8a-4641-b044-759d38f3f2cd","ios":"levelo://app?vid=0f735614-5b8a-4641-b044-759d38f3f2cd"},"vehicle_type_id":"4","last_reported":1708117558,"current_range_meters":31200,"station_id":"ce4bgv92rcd13ifvqcq0","pricing_plan_id":"cebpf4jnsgd1na2vs0mg"},{"bike_id":"4e663044-41f1-46f1-836b-50cb5b98f3a3","system_id":"levelo_inurba_marseille","lat":43.307945,"lon":5.376487,"is_reserved":false,"is_disabled":false,"rental_uris":{"android":"levelo://app?vid=4e663044-41f1-46f1-836b-50cb5b98f3a3","ios":"levelo://app?vid=4e663044-41f1-46f1-836b-50cb5b98f3a3"},"vehicle_type_id":"4","last_reported":1708117558,"current_range_meters":0,"station_id":"ce4bgv92rcd13ifvqcq0","pricing_plan_id":"cebpf4jnsgd1na2vs0mg"},{"bike_id":"62a13584-ebfe-4423-a4b2-371a980b51bb","system_id":"levelo_inurba_marseille","lat":43.307945,"lon":5.376487,"is_reserved":false,"is_disabled":false,"rental_uris":{"android":"levelo://app?vid=62a13584-ebfe-4423-a4b2-371a980b51bb","ios":"levelo://app?vid=62a13584-ebfe-4423-a4b2-371a980b51bb"},"vehicle_type_id":"4","last_reported":1708117558,"current_range_meters":1600,"station_id":"ce4bgv92rcd13ifvqcq0","pricing_plan_id":"cebpf4jnsgd1na2vs0mg"},{"bike_id":"d339509a-d341-4433-a4ab-e1ff016c074c","system_id":"levelo_inurba_marseille","lat":43.307945,"lon":5.376487,"is_reserved":false,"is_disabled":false,"rental_uris":{"android":"levelo://app?vid=d339509a-d341-4433-a4ab-e1ff016c074c","ios":"levelo://app?vid=d339509a-d341-4433-a4ab-e1ff016c074c"},"vehicle_type_id":"4","last_reported":1708117558,"current_range_meters":19200,"station_id":"ce4bgv92rcd13ifvqcq0","pricing_plan_id":"cebpf4jnsgd1na2vs0mg"},{"bike_id":"b8503d1f-72be-4134-9519-07cbef17fa5a","system_id":"levelo_inurba_marseille","lat":43.307945,"lon":5.376487,"is_reserved":false,"is_disabled":false,"rental_uris":{"android":"levelo://app?vid=b8503d1f-72be-4134-9519-07cbef17fa5a","ios":"levelo://app?vid=b8503d1f-72be-4134-9519-07cbef17fa5a"},"vehicle_type_id":"4","last_reported":1708117558,"current_range_meters":29600,"station_id":"ce4bgv92rcd13ifvqcq0","pricing_plan_id":"cebpf4jnsgd1na2vs0mg"},{"bike_id":"7fd0400b-97cc-46e6-8569-2bae6fa3174c","system_id":"levelo_inurba_marseille","lat":43.30778,"lon":5.376507,"is_reserved":false,"is_disabled":false,"rental_uris":{"android":"levelo://app?vid=7fd0400b-97cc-46e6-8569-2bae6fa3174c","ios":"levelo://app?vid=7fd0400b-97cc-46e6-8569-2bae6fa3174c"},"vehicle_type_id":"4","last_reported":1708117558,"current_range_meters":0,"station_id":"ce4bgv92rcd13ifvqcq0","pricing_plan_id":"cebpf4jnsgd1na2vs0mg"},{"bike_id":"6a093532-5172-45e8-a863-3112288d0277","system_id":"levelo_inurba_marseille","lat":43.30784,"lon":5.37663,"is_reserved":false,"is_disabled":false,"rental_uris":{"android":"levelo://app?vid=6a093532-5172-45e8-a863-3112288d0277","ios":"levelo://app?vid=6a093532-5172-45e8-a863-3112288d0277"},"vehicle_type_id":"4","last_reported":1708117558,"current_range_meters":7200,"station_id":"ce4bgv92rcd13ifvqcq0","pricing_plan_id":"cebpf4jnsgd1na2vs0mg"},{"bike_id":"796f5d9d-fe2a-4113-9f6e-dc9c2d0e101a","system_id":"levelo_inurba_marseille","lat":43.3078,"lon":5.3766,"is_reserved":false,"is_disabled":false,"rental_uris":{"android":"levelo://app?vid=796f5d9d-fe2a-4113-9f6e-dc9c2d0e101a","ios":"levelo://app?vid=796f5d9d-fe2a-4113-9f6e-dc9c2d0e101a"},"vehicle_type_id":"4","last_reported":1708117558,"current_range_meters":400,"station_id":"ce4bgv92rcd13ifvqcq0","pricing_plan_id":"cebpf4jnsgd1na2vs0mg"},{"bike_id":"cc5957e6-fbd1-424d-9cd7-351143fc571e","system_id":"levelo_inurba_marseille","lat":43.317075,"lon":5.377367,"is_reserved":false,"is_disabled":false,"rental_uris":{"android":"levelo://app?vid=cc5957e6-fbd1-424d-9cd7-351143fc571e","ios":"levelo://app?vid=cc5957e6-fbd1-424d-9cd7-351143fc571e"},"vehicle_type_id":"4","last_reported":1708117558,"current_range_meters":22800,"station_id":"ce4bgth2rcd13ifvqch0","pricing_plan_id":"cebpf4jnsgd1na2vs0mg"},{"bike_id":"a9531e14-b43f-4c5b-9c30-9a60ea895c45","system_id":"levelo_inurba_marseille","lat":43.317075,"lon":5.377367,"is_reserved":false,"is_disabled":false,"rental_uris":{"android":"levelo://app?vid=a9531e14-b43f-4c5b-9c30-9a60ea895c45","ios":"levelo://app?vid=a9531e14-b43f-4c5b-9c30-9a60ea895c45"},"vehicle_type_id":"4","last_reported":1708117558,"current_range_meters":31200,"station_id":"ce4bgth2rcd13ifvqch0","pricing_plan_id":"cebpf4jnsgd1na2vs0mg"},{"bike_id":"e8396d9b-01ad-42aa-ae6a-25e7361077f6","system_id":"levelo_inurba_marseille","lat":43.317075,"lon":5.377367,"is_reserved":false,"is_disabled":false,"rental_uris":{"android":"levelo://app?vid=e8396d9b-01ad-42aa-ae6a-25e7361077f6","ios":"levelo://app?vid=e8396d9b-01ad-42aa-ae6a-25e7361077f6"},"vehicle_type_id":"4","last_reported":1708117558,"current_range_meters":31200,"station_id":"ce4bgth2rcd13ifvqch0","pricing_plan_id":"cebpf4jnsgd1na2vs0mg"},{"bike_id":"e841ab86-75f1-48f4-99c6-c0452dc2f6ec","system_id":"levelo_inurba_marseille","lat":43.31705,"lon":5.37782,"is_reserved":false,"is_disabled":false,"rental_uris":{"android":"levelo://app?vid=e841ab86-75f1-48f4-99c6-c0452dc2f6ec","ios":"levelo://app?vid=e841ab86-75f1-48f4-99c6-c0452dc2f6ec"},"vehicle_type_id":"4","last_reported":1708117558,"current_range_meters":19200,"station_id":"ce4bgth2rcd13ifvqch0","pricing_plan_id":"cebpf4jnsgd1na2vs0mg"},{"bike_id":"732b5edc-3174-4cab-906b-666e39022afe","system_id":"levelo_inurba_marseille","lat":43.315293,"lon":5.380349,"is_reserved":false,"is_disabled":false,"rental_uris":{"android":"levelo://app?vid=732b5edc-3174-4cab-906b-666e39022afe","ios":"levelo://app?vid=732b5edc-3174-4cab-906b-666e39022afe"},"vehicle_type_id":"4","last_reported":1708117558,"current_range_meters":22800,"station_id":"ce4bhsp2rcd13ifvqi50","pricing_plan_id":"cebpf4jnsgd1na2vs0mg"},{"bike_id":"bd358fc6-c8f1-4017-aba5-09b1b508f5e5","system_id":"levelo_inurba_marseille","lat":43.315293,"lon":5.380349,"is_reserved":false,"is_disabled":false,"rental_uris":{"android":"levelo://app?vid=bd358fc6-c8f1-4017-aba5-09b1b508f5e5","ios":"levelo://app?vid=bd358fc6-c8f1-4017-aba5-09b1b508f5e5"},"vehicle_type_id":"4","last_reported":1708117558,"current_range_meters":26400,"station_id":"ce4bhsp2rcd13ifvqi50","pricing_plan_id":"cebpf4jnsgd1na2vs0mg"},{"bike_id":"f063f7c6-9865-43d5-bee8-3cf99eaf72dc","system_id":"levelo_inurba_marseille","lat":43.301939,"lon":5.366286,"is_reserved":false,"is_disabled":false,"rental_uris":{"android":"levelo://app?vid=f063f7c6-9865-43d5-bee8-3cf99eaf72dc","ios":"levelo://app?vid=f063f7c6-9865-43d5-bee8-3cf99eaf72dc"},"vehicle_type_id":"4","last_reported":1708117558,"current_range_meters":18800,"station_id":"ce4bgrh2rcd13ifvqc8g","pricing_plan_id":"cebpf4jnsgd1na2vs0mg"},{"bike_id":"9b5b66b3-dd66-4257-acbb-4730758d57ce","system_id":"levelo_inurba_marseille","lat":43.308012,"lon":5.381511,"is_reserved":false,"is_disabled":false,"rental_uris":{"android":"levelo://app?vid=9b5b66b3-dd66-4257-acbb-4730758d57ce","ios":"levelo://app?vid=9b5b66b3-dd66-4257-acbb-4730758d57ce"},"vehicle_type_id":"4","last_reported":1708117558,"current_range_meters":22400,"station_id":"ce4bgt12rcd13ifvqce0","pricing_plan_id":"cebpf4jnsgd1na2vs0mg"},{"bike_id":"46ca02c8-461d-4f56-a1d9-1cd8e58a3553","system_id":"levelo_inurba_marseille","lat":43.323464,"lon":5.406297,"is_reserved":false,"is_disabled":false,"rental_uris":{"android":"levelo://app?vid=46ca02c8-461d-4f56-a1d9-1cd8e58a3553","ios":"levelo://app?vid=46ca02c8-461d-4f56-a1d9-1cd8e58a3553"},"vehicle_type_id":"4","last_reported":1708117558,"current_range_meters":10800,"station_id":"ce4bhq92rcd13ifvqhjg","pricing_plan_id":"cebpf4jnsgd1na2vs0mg"},{"bike_id":"1db0c1ff-033e-47ff-86e2-65b7c6de89af","system_id":"levelo_inurba_marseille","lat":43.304606,"lon":5.379026,"is_reserved":false,"is_disabled":false,"rental_uris":{"android":"levelo://app?vid=1db0c1ff-033e-47ff-86e2-65b7c6de89af","ios":"levelo://app?vid=1db0c1ff-033e-47ff-86e2-65b7c6de89af"},"vehicle_type_id":"4","last_reported":1708117558,"current_range_meters":18800,"station_id":"ce4bgup2rcd13ifvqcn0","pricing_plan_id":"cebpf4jnsgd1na2vs0mg"},{"bike_id":"bdf413bc-b5f6-465f-96af-fb1eccecbb9b","system_id":"levelo_inurba_marseille","lat":43.304606,"lon":5.379026,"is_reserved":false,"is_disabled":false,"rental_uris":{"android":"levelo://app?vid=bdf413bc-b5f6-465f-96af-fb1eccecbb9b","ios":"levelo://app?vid=bdf413bc-b5f6-465f-96af-fb1eccecbb9b"},"vehicle_type_id":"4","last_reported":1708117558,"current_range_meters":8800,"station_id":"ce4bgup2rcd13ifvqcn0","pricing_plan_id":"cebpf4jnsgd1na2vs0mg"},{"bike_id":"9bb254d9-8198-4c6e-b5f9-b9a7ff50c211","system_id":"levelo_inurba_marseille","lat":43.304606,"lon":5.379026,"is_reserved":false,"is_disabled":false,"rental_uris":{"android":"levelo://app?vid=9bb254d9-8198-4c6e-b5f9-b9a7ff50c211","ios":"levelo://app?vid=9bb254d9-8198-4c6e-b5f9-b9a7ff50c211"},"vehicle_type_id":"4","last_reported":1708117558,"current_range_meters":17600,"station_id":"ce4bgup2rcd13ifvqcn0","pricing_plan_id":"cebpf4jnsgd1na2vs0mg"},{"bike_id":"75be774e-6a89-4c9d-bb07-3b65c8711b51","system_id":"levelo_inurba_marseille","lat":43.324771,"lon":5.36557,"is_reserved":false,"is_disabled":false,"rental_uris":{"android":"levelo://app?vid=75be774e-6a89-4c9d-bb07-3b65c8711b51","ios":"levelo://app?vid=75be774e-6a89-4c9d-bb07-3b65c8711b51"},"vehicle_type_id":"4","last_reported":1708117558,"current_range_meters":4000,"station_id":"ce4bhs12rcd13ifvqhvg","pricing_plan_id":"cebpf4jnsgd1na2vs0mg"},{"bike_id":"8bcd21a3-369e-4435-b470-f8cd6265a2ad","system_id":"levelo_inurba_marseille","lat":43.324771,"lon":5.36557,"is_reserved":false,"is_disabled":false,"rental_uris":{"android":"levelo://app?vid=8bcd21a3-369e-4435-b470-f8cd6265a2ad","ios":"levelo://app?vid=8bcd21a3-369e-4435-b470-f8cd6265a2ad"},"vehicle_type_id":"4","last_reported":1708117558,"current_range_meters":12800,"station_id":"ce4bhs12rcd13ifvqhvg","pricing_plan_id":"cebpf4jnsgd1na2vs0mg"},{"bike_id":"3af487a9-52e6-47a1-b645-48e1c5e124c8","system_id":"levelo_inurba_marseille","lat":43.324771,"lon":5.36557,"is_reserved":false,"is_disabled":false,"rental_uris":{"android":"levelo://app?vid=3af487a9-52e6-47a1-b645-48e1c5e124c8","ios":"levelo://app?vid=3af487a9-52e6-47a1-b645-48e1c5e124c8"},"vehicle_type_id":"4","last_reported":1708117558,"current_range_meters":16000,"station_id":"ce4bhs12rcd13ifvqhvg","pricing_plan_id":"cebpf4jnsgd1na2vs0mg"},{"bike_id":"47024265-3d51-4a77-b25d-6d74135771d6","system_id":"levelo_inurba_marseille","lat":43.324795,"lon":5.365502,"is_reserved":false,"is_disabled":false,"rental_uris":{"android":"levelo://app?vid=47024265-3d51-4a77-b25d-6d74135771d6","ios":"levelo://app?vid=47024265-3d51-4a77-b25d-6d74135771d6"},"vehicle_type_id":"4","last_reported":1708117558,"current_range_meters":6400,"station_id":"ce4bhs12rcd13ifvqhvg","pricing_plan_id":"cebpf4jnsgd1na2vs0mg"},{"bike_id":"f08b84a4-2f15-4435-87f0-1dd407262584","system_id":"levelo_inurba_marseille","lat":43.324771,"lon":5.36557,"is_reserved":false,"is_disabled":false,"rental_uris":{"android":"levelo://app?vid=f08b84a4-2f15-4435-87f0-1dd407262584","ios":"levelo://app?vid=f08b84a4-2f15-4435-87f0-1dd407262584"},"vehicle_type_id":"4","last_reported":1708117558,"current_range_meters":13200,"station_id":"ce4bhs12rcd13ifvqhvg","pricing_plan_id":"cebpf4jnsgd1na2vs0mg"},{"bike_id":"e4b61d04-1f65-4b69-987e-48eb73204e86","system_id":"levelo_inurba_marseille","lat":43.324771,"lon":5.36557,"is_reserved":false,"is_disabled":false,"rental_uris":{"android":"levelo://app?vid=e4b61d04-1f65-4b69-987e-48eb73204e86","ios":"levelo://app?vid=e4b61d04-1f65-4b69-987e-48eb73204e86"},"vehicle_type_id":"4","last_reported":1708117558,"current_range_meters":9200,"station_id":"ce4bhs12rcd13ifvqhvg","pricing_plan_id":"cebpf4jnsgd1na2vs0mg"},{"bike_id":"99c81edb-b57e-438c-8ec6-cc469446db51","system_id":"levelo_inurba_marseille","lat":43.324771,"lon":5.36557,"is_reserved":false,"is_disabled":false,"rental_uris":{"android":"levelo://app?vid=99c81edb-b57e-438c-8ec6-cc469446db51","ios":"levelo://app?vid=99c81edb-b57e-438c-8ec6-cc469446db51"},"vehicle_type_id":"4","last_reported":1708117558,"current_range_meters":5200,"station_id":"ce4bhs12rcd13ifvqhvg","pricing_plan_id":"cebpf4jnsgd1na2vs0mg"},{"bike_id":"93aee7d5-5efc-4021-bab5-b9810878aeb9","system_id":"levelo_inurba_marseille","lat":43.324771,"lon":5.36557,"is_reserved":false,"is_disabled":false,"rental_uris":{"android":"levelo://app?vid=93aee7d5-5efc-4021-bab5-b9810878aeb9","ios":"levelo://app?vid=93aee7d5-5efc-4021-bab5-b9810878aeb9"},"vehicle_type_id":"4","last_reported":1708117558,"current_range_meters":22400,"station_id":"ce4bhs12rcd13ifvqhvg","pricing_plan_id":"cebpf4jnsgd1na2vs0mg"},{"bike_id":"b2c25537-9fb2-4a88-a723-17c3e20f74a6","system_id":"levelo_inurba_marseille","lat":43.302784,"lon":5.377158,"is_reserved":false,"is_disabled":false,"rental_uris":{"android":"levelo://app?vid=b2c25537-9fb2-4a88-a723-17c3e20f74a6","ios":"levelo://app?vid=b2c25537-9fb2-4a88-a723-17c3e20f74a6"},"vehicle_type_id":"4","last_reported":1708117558,"current_range_meters":24000,"station_id":"ce4bguh2rcd13ifvqcj0","pricing_plan_id":"cebpf4jnsgd1na2vs0mg"},{"bike_id":"e84307a4-1005-4a73-b5c0-7cdae7b9beda","system_id":"levelo_inurba_marseille","lat":43.310804,"lon":5.38359,"is_reserved":false,"is_disabled":false,"rental_uris":{"android":"levelo://app?vid=e84307a4-1005-4a73-b5c0-7cdae7b9beda","ios":"levelo://app?vid=e84307a4-1005-4a73-b5c0-7cdae7b9beda"},"vehicle_type_id":"4","last_reported":1708117558,"current_range_meters":4400,"station_id":"ce4bgv92rcd13ifvqcr0","pricing_plan_id":"cebpf4jnsgd1na2vs0mg"},{"bike_id":"ac20c383-7236-4355-8333-e4847f4c7322","system_id":"levelo_inurba_marseille","lat":43.310753,"lon":5.38362,"is_reserved":false,"is_disabled":false,"rental_uris":{"android":"levelo://app?vid=ac20c383-7236-4355-8333-e4847f4c7322","ios":"levelo://app?vid=ac20c383-7236-4355-8333-e4847f4c7322"},"vehicle_type_id":"4","last_reported":1708117558,"current_range_meters":0,"station_id":"ce4bgv92rcd13ifvqcr0","pricing_plan_id":"cebpf4jnsgd1na2vs0mg"},{"bike_id":"adcffdb8-8192-4d39-8fad-dcd722d3ce49","system_id":"levelo_inurba_marseille","lat":43.302784,"lon":5.377158,"is_reserved":false,"is_disabled":false,"rental_uris":{"android":"levelo://app?vid=adcffdb8-8192-4d39-8fad-dcd722d3ce49","ios":"levelo://app?vid=adcffdb8-8192-4d39-8fad-dcd722d3ce49"},"vehicle_type_id":"4","last_reported":1708117558,"current_range_meters":10000,"station_id":"ce4bguh2rcd13ifvqcj0","pricing_plan_id":"cebpf4jnsgd1na2vs0mg"},{"bike_id":"253f57d7-e42e-4792-99e9-60a4836727c6","system_id":"levelo_inurba_marseille","lat":43.31999,"lon":5.38149,"is_reserved":false,"is_disabled":false,"rental_uris":{"android":"levelo://app?vid=253f57d7-e42e-4792-99e9-60a4836727c6","ios":"levelo://app?vid=253f57d7-e42e-4792-99e9-60a4836727c6"},"vehicle_type_id":"4","last_reported":1708117558,"current_range_meters":29200,"station_id":"ce4bhr12rcd13ifvqhpg","pricing_plan_id":"cebpf4jnsgd1na2vs0mg"},{"bike_id":"a778d218-c4c3-494a-b4df-fc23ae99fc31","system_id":"levelo_inurba_marseille","lat":43.31999,"lon":5.3815,"is_reserved":false,"is_disabled":false,"rental_uris":{"android":"levelo://app?vid=a778d218-c4c3-494a-b4df-fc23ae99fc31","ios":"levelo://app?vid=a778d218-c4c3-494a-b4df-fc23ae99fc31"},"vehicle_type_id":"4","last_reported":1708117558,"current_range_meters":29600,"station_id":"ce4bhr12rcd13ifvqhpg","pricing_plan_id":"cebpf4jnsgd1na2vs0mg"},{"bike_id":"a01b2ae4-3880-4ec4-8bd9-6e5e09b4e373","system_id":"levelo_inurba_marseille","lat":43.31996,"lon":5.38153,"is_reserved":false,"is_disabled":false,"rental_uris":{"android":"levelo://app?vid=a01b2ae4-3880-4ec4-8bd9-6e5e09b4e373","ios":"levelo://app?vid=a01b2ae4-3880-4ec4-8bd9-6e5e09b4e373"},"vehicle_type_id":"4","last_reported":1708117558,"current_range_meters":14000,"station_id":"ce4bhr12rcd13ifvqhpg","pricing_plan_id":"cebpf4jnsgd1na2vs0mg"},{"bike_id":"2d76af47-c728-4336-9ab6-040dda11a28b","system_id":"levelo_inurba_marseille","lat":43.31994,"lon":5.38156,"is_reserved":false,"is_disabled":false,"rental_uris":{"android":"levelo://app?vid=2d76af47-c728-4336-9ab6-040dda11a28b","ios":"levelo://app?vid=2d76af47-c728-4336-9ab6-040dda11a28b"},"vehicle_type_id":"4","last_reported":1708117558,"current_range_meters":6800,"station_id":"ce4bhr12rcd13ifvqhpg","pricing_plan_id":"cebpf4jnsgd1na2vs0mg"},{"bike_id":"9d8c0a3b-7f60-4523-aa49-51e9485356f5","system_id":"levelo_inurba_marseille","lat":43.31996,"lon":5.38156,"is_reserved":false,"is_disabled":false,"rental_uris":{"android":"levelo://app?vid=9d8c0a3b-7f60-4523-aa49-51e9485356f5","ios":"levelo://app?vid=9d8c0a3b-7f60-4523-aa49-51e9485356f5"},"vehicle_type_id":"4","last_reported":1708117558,"current_range_meters":11600,"station_id":"ce4bhr12rcd13ifvqhpg","pricing_plan_id":"cebpf4jnsgd1na2vs0mg"},{"bike_id":"fcd1c5ff-7ff1-45d7-a993-8e4b91a97aff","system_id":"levelo_inurba_marseille","lat":43.31996,"lon":5.38157,"is_reserved":false,"is_disabled":false,"rental_uris":{"android":"levelo://app?vid=fcd1c5ff-7ff1-45d7-a993-8e4b91a97aff","ios":"levelo://app?vid=fcd1c5ff-7ff1-45d7-a993-8e4b91a97aff"},"vehicle_type_id":"4","last_reported":1708117558,"current_range_meters":27600,"station_id":"ce4bhr12rcd13ifvqhpg","pricing_plan_id":"cebpf4jnsgd1na2vs0mg"},{"bike_id":"cec17300-11df-45f5-9fc2-654bdac57e67","system_id":"levelo_inurba_marseille","lat":43.31997,"lon":5.38159,"is_reserved":false,"is_disabled":false,"rental_uris":{"android":"levelo://app?vid=cec17300-11df-45f5-9fc2-654bdac57e67","ios":"levelo://app?vid=cec17300-11df-45f5-9fc2-654bdac57e67"},"vehicle_type_id":"4","last_reported":1708117558,"current_range_meters":29200,"station_id":"ce4bhr12rcd13ifvqhpg","pricing_plan_id":"cebpf4jnsgd1na2vs0mg"},{"bike_id":"69ea3702-ffbe-43c1-9f15-a1d85c37370d","system_id":"levelo_inurba_marseille","lat":43.32004,"lon":5.38157,"is_reserved":false,"is_disabled":false,"rental_uris":{"android":"levelo://app?vid=69ea3702-ffbe-43c1-9f15-a1d85c37370d","ios":"levelo://app?vid=69ea3702-ffbe-43c1-9f15-a1d85c37370d"},"vehicle_type_id":"4","last_reported":1708117558,"current_range_meters":3600,"station_id":"ce4bhr12rcd13ifvqhpg","pricing_plan_id":"cebpf4jnsgd1na2vs0mg"},{"bike_id":"bd01a1d5-d7aa-4fe5-af38-de04e45e97d7","system_id":"levelo_inurba_marseille","lat":43.313571,"lon":5.384829,"is_reserved":false,"is_disabled":false,"rental_uris":{"android":"levelo://app?vid=bd01a1d5-d7aa-4fe5-af38-de04e45e97d7","ios":"levelo://app?vid=bd01a1d5-d7aa-4fe5-af38-de04e45e97d7"},"vehicle_type_id":"4","last_reported":1708117558,"current_range_meters":27200,"station_id":"ce4bgt92rcd13ifvqcf0","pricing_plan_id":"cebpf4jnsgd1na2vs0mg"},{"bike_id":"9fbb4e5c-c2cb-4136-b379-691aae86b933","system_id":"levelo_inurba_marseille","lat":43.313571,"lon":5.384829,"is_reserved":false,"is_disabled":false,"rental_uris":{"android":"levelo://app?vid=9fbb4e5c-c2cb-4136-b379-691aae86b933","ios":"levelo://app?vid=9fbb4e5c-c2cb-4136-b379-691aae86b933"},"vehicle_type_id":"4","last_reported":1708117558,"current_range_meters":19600,"station_id":"ce4bgt92rcd13ifvqcf0","pricing_plan_id":"cebpf4jnsgd1na2vs0mg"},{"bike_id":"c5d09069-a7f7-4527-a2b9-a58a1f131149","system_id":"levelo_inurba_marseille","lat":43.29951,"lon":5.36534,"is_reserved":false,"is_disabled":false,"rental_uris":{"android":"levelo://app?vid=c5d09069-a7f7-4527-a2b9-a58a1f131149","ios":"levelo://app?vid=c5d09069-a7f7-4527-a2b9-a58a1f131149"},"vehicle_type_id":"4","last_reported":1708117558,"current_range_meters":18800,"station_id":"ce4bgm92rcd13ifvqbr0","pricing_plan_id":"cebpf4jnsgd1na2vs0mg"},{"bike_id":"d54ce96f-0036-43e0-9113-1b7a2b727bb4","system_id":"levelo_inurba_marseille","lat":43.299222,"lon":5.365554,"is_reserved":false,"is_disabled":false,"rental_uris":{"android":"levelo://app?vid=d54ce96f-0036-43e0-9113-1b7a2b727bb4","ios":"levelo://app?vid=d54ce96f-0036-43e0-9113-1b7a2b727bb4"},"vehicle_type_id":"4","last_reported":1708117558,"current_range_meters":400,"station_id":"ce4bgm92rcd13ifvqbr0","pricing_plan_id":"cebpf4jnsgd1na2vs0mg"},{"bike_id":"653d4896-4000-47fc-80b7-c0965600d058","system_id":"levelo_inurba_marseille","lat":43.298433,"lon":5.362774,"is_reserved":false,"is_disabled":false,"rental_uris":{"android":"levelo://app?vid=653d4896-4000-47fc-80b7-c0965600d058","ios":"levelo://app?vid=653d4896-4000-47fc-80b7-c0965600d058"},"vehicle_type_id":"4","last_reported":1708117558,"current_range_meters":4000,"station_id":"ce4bgpp2rcd13ifvqc3g","pricing_plan_id":"cebpf4jnsgd1na2vs0mg"},{"bike_id":"31289bdb-ec35-407e-965e-c237f8f4b34d","system_id":"levelo_inurba_marseille","lat":43.305364,"lon":5.384119,"is_reserved":false,"is_disabled":false,"rental_uris":{"android":"levelo://app?vid=31289bdb-ec35-407e-965e-c237f8f4b34d","ios":"levelo://app?vid=31289bdb-ec35-407e-965e-c237f8f4b34d"},"vehicle_type_id":"4","last_reported":1708117558,"current_range_meters":1200,"station_id":"ce4bgg92rcd13ifvqb30","pricing_plan_id":"cebpf4jnsgd1na2vs0mg"},{"bike_id":"4d1fbb1e-4169-49a1-8a6b-02aa12457edb","system_id":"levelo_inurba_marseille","lat":43.30542,"lon":5.384237,"is_reserved":false,"is_disabled":false,"rental_uris":{"android":"levelo://app?vid=4d1fbb1e-4169-49a1-8a6b-02aa12457edb","ios":"levelo://app?vid=4d1fbb1e-4169-49a1-8a6b-02aa12457edb"},"vehicle_type_id":"4","last_reported":1708117558,"current_range_meters":4000,"station_id":"ce4bgg92rcd13ifvqb30","pricing_plan_id":"cebpf4jnsgd1na2vs0mg"},{"bike_id":"1d6dbbd7-cb8c-4012-a162-fa23f6a843b3","system_id":"levelo_inurba_marseille","lat":43.305364,"lon":5.384119,"is_reserved":false,"is_disabled":false,"rental_uris":{"android":"levelo://app?vid=1d6dbbd7-cb8c-4012-a162-fa23f6a843b3","ios":"levelo://app?vid=1d6dbbd7-cb8c-4012-a162-fa23f6a843b3"},"vehicle_type_id":"4","last_reported":1708117558,"current_range_meters":2800,"station_id":"ce4bgg92rcd13ifvqb30","pricing_plan_id":"cebpf4jnsgd1na2vs0mg"},{"bike_id":"77e0be27-0e5e-4d44-8bd5-b92c18b7925b","system_id":"levelo_inurba_marseille","lat":43.305364,"lon":5.384119,"is_reserved":false,"is_disabled":false,"rental_uris":{"android":"levelo://app?vid=77e0be27-0e5e-4d44-8bd5-b92c18b7925b","ios":"levelo://app?vid=77e0be27-0e5e-4d44-8bd5-b92c18b7925b"},"vehicle_type_id":"4","last_reported":1708117558,"current_range_meters":6800,"station_id":"ce4bgg92rcd13ifvqb30","pricing_plan_id":"cebpf4jnsgd1na2vs0mg"},{"bike_id":"5733a977-c3a2-4daa-a641-70fc3e793e54","system_id":"levelo_inurba_marseille","lat":43.305364,"lon":5.384119,"is_reserved":false,"is_disabled":false,"rental_uris":{"android":"levelo://app?vid=5733a977-c3a2-4daa-a641-70fc3e793e54","ios":"levelo://app?vid=5733a977-c3a2-4daa-a641-70fc3e793e54"},"vehicle_type_id":"4","last_reported":1708117558,"current_range_meters":24400,"station_id":"ce4bgg92rcd13ifvqb30","pricing_plan_id":"cebpf4jnsgd1na2vs0mg"},{"bike_id":"49cc9468-563e-480d-8c79-836e5e183c7e","system_id":"levelo_inurba_marseille","lat":43.305364,"lon":5.384119,"is_reserved":false,"is_disabled":false,"rental_uris":{"android":"levelo://app?vid=49cc9468-563e-480d-8c79-836e5e183c7e","ios":"levelo://app?vid=49cc9468-563e-480d-8c79-836e5e183c7e"},"vehicle_type_id":"4","last_reported":1708117558,"current_range_meters":4000,"station_id":"ce4bgg92rcd13ifvqb30","pricing_plan_id":"cebpf4jnsgd1na2vs0mg"},{"bike_id":"b2c5ce2e-4153-4bea-95fb-e5b3cef15237","system_id":"levelo_inurba_marseille","lat":43.29843,"lon":5.36268,"is_reserved":false,"is_disabled":false,"rental_uris":{"android":"levelo://app?vid=b2c5ce2e-4153-4bea-95fb-e5b3cef15237","ios":"levelo://app?vid=b2c5ce2e-4153-4bea-95fb-e5b3cef15237"},"vehicle_type_id":"4","last_reported":1708117558,"current_range_meters":800,"station_id":"ce4bgpp2rcd13ifvqc3g","pricing_plan_id":"cebpf4jnsgd1na2vs0mg"},{"bike_id":"fa4d9a35-e56e-4d74-b134-c684a94f293d","system_id":"levelo_inurba_marseille","lat":43.305364,"lon":5.384119,"is_reserved":false,"is_disabled":false,"rental_uris":{"android":"levelo://app?vid=fa4d9a35-e56e-4d74-b134-c684a94f293d","ios":"levelo://app?vid=fa4d9a35-e56e-4d74-b134-c684a94f293d"},"vehicle_type_id":"4","last_reported":1708117558,"current_range_meters":7600,"station_id":"ce4bgg92rcd13ifvqb30","pricing_plan_id":"cebpf4jnsgd1na2vs0mg"},{"bike_id":"7944fd32-7157-46eb-806f-7fadc094c2fc","system_id":"levelo_inurba_marseille","lat":43.305364,"lon":5.384119,"is_reserved":false,"is_disabled":false,"rental_uris":{"android":"levelo://app?vid=7944fd32-7157-46eb-806f-7fadc094c2fc","ios":"levelo://app?vid=7944fd32-7157-46eb-806f-7fadc094c2fc"},"vehicle_type_id":"4","last_reported":1708117558,"current_range_meters":9600,"station_id":"ce4bgg92rcd13ifvqb30","pricing_plan_id":"cebpf4jnsgd1na2vs0mg"},{"bike_id":"a5f7fc7e-57a8-4917-a9dd-bbe0bc82a8a8","system_id":"levelo_inurba_marseille","lat":43.311722,"lon":5.387247,"is_reserved":false,"is_disabled":false,"rental_uris":{"android":"levelo://app?vid=a5f7fc7e-57a8-4917-a9dd-bbe0bc82a8a8","ios":"levelo://app?vid=a5f7fc7e-57a8-4917-a9dd-bbe0bc82a8a8"},"vehicle_type_id":"4","last_reported":1708117558,"current_range_meters":30000,"station_id":"ce4bgv12rcd13ifvqcp0","pricing_plan_id":"cebpf4jnsgd1na2vs0mg"},{"bike_id":"c1a5af98-1ff5-4ac9-910b-75ef0db67d4a","system_id":"levelo_inurba_marseille","lat":43.311722,"lon":5.387247,"is_reserved":false,"is_disabled":false,"rental_uris":{"android":"levelo://app?vid=c1a5af98-1ff5-4ac9-910b-75ef0db67d4a","ios":"levelo://app?vid=c1a5af98-1ff5-4ac9-910b-75ef0db67d4a"},"vehicle_type_id":"4","last_reported":1708117558,"current_range_meters":6400,"station_id":"ce4bgv12rcd13ifvqcp0","pricing_plan_id":"cebpf4jnsgd1na2vs0mg"},{"bike_id":"e221b816-7599-441c-8834-aceeb9f3ff5a","system_id":"levelo_inurba_marseille","lat":43.299243,"lon":5.37481,"is_reserved":false,"is_disabled":false,"rental_uris":{"android":"levelo://app?vid=e221b816-7599-441c-8834-aceeb9f3ff5a","ios":"levelo://app?vid=e221b816-7599-441c-8834-aceeb9f3ff5a"},"vehicle_type_id":"4","last_reported":1708117558,"current_range_meters":20000,"station_id":"ce4bgjh2rcd13ifvqbg0","pricing_plan_id":"cebpf4jnsgd1na2vs0mg"},{"bike_id":"70eafe38-1027-4423-ac4b-7fe911837f5c","system_id":"levelo_inurba_marseille","lat":43.32659,"lon":5.37446,"is_reserved":false,"is_disabled":false,"rental_uris":{"android":"levelo://app?vid=70eafe38-1027-4423-ac4b-7fe911837f5c","ios":"levelo://app?vid=70eafe38-1027-4423-ac4b-7fe911837f5c"},"vehicle_type_id":"4","last_reported":1708117558,"current_range_meters":11600,"station_id":"","pricing_plan_id":"cebpf4jnsgd1na2vs0mg"},{"bike_id":"8869bce6-27b8-4dd6-a5f9-9f2125b32580","system_id":"levelo_inurba_marseille","lat":43.297794,"lon":5.370888,"is_reserved":false,"is_disabled":false,"rental_uris":{"android":"levelo://app?vid=8869bce6-27b8-4dd6-a5f9-9f2125b32580","ios":"levelo://app?vid=8869bce6-27b8-4dd6-a5f9-9f2125b32580"},"vehicle_type_id":"4","last_reported":1708117558,"current_range_meters":19200,"station_id":"ce4bgop2rcd13ifvqc1g","pricing_plan_id":"cebpf4jnsgd1na2vs0mg"},{"bike_id":"3d149655-a53b-43cc-af49-d0904740e2d1","system_id":"levelo_inurba_marseille","lat":43.322872,"lon":5.382756,"is_reserved":false,"is_disabled":false,"rental_uris":{"android":"levelo://app?vid=3d149655-a53b-43cc-af49-d0904740e2d1","ios":"levelo://app?vid=3d149655-a53b-43cc-af49-d0904740e2d1"},"vehicle_type_id":"4","last_reported":1708117558,"current_range_meters":12800,"station_id":"ce4bhr12rcd13ifvqhqg","pricing_plan_id":"cebpf4jnsgd1na2vs0mg"},{"bike_id":"dd2be7c7-d39e-42f9-b4aa-905d49619990","system_id":"levelo_inurba_marseille","lat":43.322872,"lon":5.382756,"is_reserved":false,"is_disabled":false,"rental_uris":{"android":"levelo://app?vid=dd2be7c7-d39e-42f9-b4aa-905d49619990","ios":"levelo://app?vid=dd2be7c7-d39e-42f9-b4aa-905d49619990"},"vehicle_type_id":"4","last_reported":1708117558,"current_range_meters":17600,"station_id":"ce4bhr12rcd13ifvqhqg","pricing_plan_id":"cebpf4jnsgd1na2vs0mg"},{"bike_id":"3de251e7-275d-4ce6-b31d-dac248ec4967","system_id":"levelo_inurba_marseille","lat":43.322872,"lon":5.382756,"is_reserved":false,"is_disabled":false,"rental_uris":{"android":"levelo://app?vid=3de251e7-275d-4ce6-b31d-dac248ec4967","ios":"levelo://app?vid=3de251e7-275d-4ce6-b31d-dac248ec4967"},"vehicle_type_id":"4","last_reported":1708117558,"current_range_meters":27200,"station_id":"ce4bhr12rcd13ifvqhqg","pricing_plan_id":"cebpf4jnsgd1na2vs0mg"},{"bike_id":"83b5f419-4266-4c2c-b6fb-35828173d4ce","system_id":"levelo_inurba_marseille","lat":43.322872,"lon":5.382756,"is_reserved":false,"is_disabled":false,"rental_uris":{"android":"levelo://app?vid=83b5f419-4266-4c2c-b6fb-35828173d4ce","ios":"levelo://app?vid=83b5f419-4266-4c2c-b6fb-35828173d4ce"},"vehicle_type_id":"4","last_reported":1708117558,"current_range_meters":30800,"station_id":"ce4bhr12rcd13ifvqhqg","pricing_plan_id":"cebpf4jnsgd1na2vs0mg"},{"bike_id":"133959c5-6fe0-474d-be2d-d408a364bacc","system_id":"levelo_inurba_marseille","lat":43.322872,"lon":5.382756,"is_reserved":false,"is_disabled":false,"rental_uris":{"android":"levelo://app?vid=133959c5-6fe0-474d-be2d-d408a364bacc","ios":"levelo://app?vid=133959c5-6fe0-474d-be2d-d408a364bacc"},"vehicle_type_id":"4","last_reported":1708117558,"current_range_meters":17200,"station_id":"ce4bhr12rcd13ifvqhqg","pricing_plan_id":"cebpf4jnsgd1na2vs0mg"},{"bike_id":"4e3b44c3-d23d-43af-8570-7b92afd3cb93","system_id":"levelo_inurba_marseille","lat":43.322872,"lon":5.382756,"is_reserved":false,"is_disabled":false,"rental_uris":{"android":"levelo://app?vid=4e3b44c3-d23d-43af-8570-7b92afd3cb93","ios":"levelo://app?vid=4e3b44c3-d23d-43af-8570-7b92afd3cb93"},"vehicle_type_id":"4","last_reported":1708117558,"current_range_meters":19200,"station_id":"ce4bhr12rcd13ifvqhqg","pricing_plan_id":"cebpf4jnsgd1na2vs0mg"},{"bike_id":"ec21c626-faeb-41e5-9192-4d2bef3ee4d3","system_id":"levelo_inurba_marseille","lat":43.3282,"lon":5.36671,"is_reserved":false,"is_disabled":false,"rental_uris":{"android":"levelo://app?vid=ec21c626-faeb-41e5-9192-4d2bef3ee4d3","ios":"levelo://app?vid=ec21c626-faeb-41e5-9192-4d2bef3ee4d3"},"vehicle_type_id":"4","last_reported":1708117558,"current_range_meters":0,"station_id":"ce4bhs92rcd13ifvqi0g","pricing_plan_id":"cebpf4jnsgd1na2vs0mg"},{"bike_id":"e4cc1337-7654-41c0-8296-b1f3b25edb39","system_id":"levelo_inurba_marseille","lat":43.32822,"lon":5.36683,"is_reserved":false,"is_disabled":false,"rental_uris":{"android":"levelo://app?vid=e4cc1337-7654-41c0-8296-b1f3b25edb39","ios":"levelo://app?vid=e4cc1337-7654-41c0-8296-b1f3b25edb39"},"vehicle_type_id":"4","last_reported":1708117558,"current_range_meters":16800,"station_id":"ce4bhs92rcd13ifvqi0g","pricing_plan_id":"cebpf4jnsgd1na2vs0mg"},{"bike_id":"4a0314a3-53ac-4faf-a81a-365240b15a43","system_id":"levelo_inurba_marseille","lat":43.32822,"lon":5.36679,"is_reserved":false,"is_disabled":false,"rental_uris":{"android":"levelo://app?vid=4a0314a3-53ac-4faf-a81a-365240b15a43","ios":"levelo://app?vid=4a0314a3-53ac-4faf-a81a-365240b15a43"},"vehicle_type_id":"4","last_reported":1708117558,"current_range_meters":20800,"station_id":"ce4bhs92rcd13ifvqi0g","pricing_plan_id":"cebpf4jnsgd1na2vs0mg"},{"bike_id":"4364d526-b2e7-474b-92eb-049adc182d55","system_id":"levelo_inurba_marseille","lat":43.32823,"lon":5.36683,"is_reserved":false,"is_disabled":false,"rental_uris":{"android":"levelo://app?vid=4364d526-b2e7-474b-92eb-049adc182d55","ios":"levelo://app?vid=4364d526-b2e7-474b-92eb-049adc182d55"},"vehicle_type_id":"4","last_reported":1708117558,"current_range_meters":0,"station_id":"ce4bhs92rcd13ifvqi0g","pricing_plan_id":"cebpf4jnsgd1na2vs0mg"},{"bike_id":"c9b88aad-86c2-4a51-9436-08e8586a0048","system_id":"levelo_inurba_marseille","lat":43.328371,"lon":5.366909,"is_reserved":false,"is_disabled":false,"rental_uris":{"android":"levelo://app?vid=c9b88aad-86c2-4a51-9436-08e8586a0048","ios":"levelo://app?vid=c9b88aad-86c2-4a51-9436-08e8586a0048"},"vehicle_type_id":"4","last_reported":1708117558,"current_range_meters":10000,"station_id":"ce4bhs92rcd13ifvqi0g","pricing_plan_id":"cebpf4jnsgd1na2vs0mg"},{"bike_id":"b354d40e-f748-45df-b8a4-085ee0f39b31","system_id":"levelo_inurba_marseille","lat":43.32824,"lon":5.36682,"is_reserved":false,"is_disabled":false,"rental_uris":{"android":"levelo://app?vid=b354d40e-f748-45df-b8a4-085ee0f39b31","ios":"levelo://app?vid=b354d40e-f748-45df-b8a4-085ee0f39b31"},"vehicle_type_id":"4","last_reported":1708117558,"current_range_meters":14800,"station_id":"ce4bhs92rcd13ifvqi0g","pricing_plan_id":"cebpf4jnsgd1na2vs0mg"},{"bike_id":"d059372d-713e-4306-a0dc-ef5b2b5ad059","system_id":"levelo_inurba_marseille","lat":43.328251,"lon":5.36672,"is_reserved":false,"is_disabled":false,"rental_uris":{"android":"levelo://app?vid=d059372d-713e-4306-a0dc-ef5b2b5ad059","ios":"levelo://app?vid=d059372d-713e-4306-a0dc-ef5b2b5ad059"},"vehicle_type_id":"4","last_reported":1708117558,"current_range_meters":26000,"station_id":"ce4bhs92rcd13ifvqi0g","pricing_plan_id":"cebpf4jnsgd1na2vs0mg"},{"bike_id":"cc924a54-60e4-4421-b12c-5aa0bb659927","system_id":"levelo_inurba_marseille","lat":43.32826,"lon":5.36683,"is_reserved":false,"is_disabled":false,"rental_uris":{"android":"levelo://app?vid=cc924a54-60e4-4421-b12c-5aa0bb659927","ios":"levelo://app?vid=cc924a54-60e4-4421-b12c-5aa0bb659927"},"vehicle_type_id":"4","last_reported":1708117558,"current_range_meters":6000,"station_id":"ce4bhs92rcd13ifvqi0g","pricing_plan_id":"cebpf4jnsgd1na2vs0mg"},{"bike_id":"18e2c73a-6142-4193-b7b8-60c34b367900","system_id":"levelo_inurba_marseille","lat":43.32826,"lon":5.36675,"is_reserved":false,"is_disabled":false,"rental_uris":{"android":"levelo://app?vid=18e2c73a-6142-4193-b7b8-60c34b367900","ios":"levelo://app?vid=18e2c73a-6142-4193-b7b8-60c34b367900"},"vehicle_type_id":"4","last_reported":1708117558,"current_range_meters":24800,"station_id":"ce4bhs92rcd13ifvqi0g","pricing_plan_id":"cebpf4jnsgd1na2vs0mg"},{"bike_id":"3833ec15-b081-4b20-84c5-72daf8aa7006","system_id":"levelo_inurba_marseille","lat":43.32827,"lon":5.36682,"is_reserved":false,"is_disabled":false,"rental_uris":{"android":"levelo://app?vid=3833ec15-b081-4b20-84c5-72daf8aa7006","ios":"levelo://app?vid=3833ec15-b081-4b20-84c5-72daf8aa7006"},"vehicle_type_id":"4","last_reported":1708117558,"current_range_meters":25200,"station_id":"ce4bhs92rcd13ifvqi0g","pricing_plan_id":"cebpf4jnsgd1na2vs0mg"},{"bike_id":"ecc597d3-f2ea-41b5-b374-bc2279e4f21f","system_id":"levelo_inurba_marseille","lat":43.32828,"lon":5.36685,"is_reserved":false,"is_disabled":false,"rental_uris":{"android":"levelo://app?vid=ecc597d3-f2ea-41b5-b374-bc2279e4f21f","ios":"levelo://app?vid=ecc597d3-f2ea-41b5-b374-bc2279e4f21f"},"vehicle_type_id":"4","last_reported":1708117558,"current_range_meters":1600,"station_id":"ce4bhs92rcd13ifvqi0g","pricing_plan_id":"cebpf4jnsgd1na2vs0mg"},{"bike_id":"3ce3bf05-0e26-4ba4-9a11-4781ff3d0eb6","system_id":"levelo_inurba_marseille","lat":43.328371,"lon":5.366909,"is_reserved":false,"is_disabled":false,"rental_uris":{"android":"levelo://app?vid=3ce3bf05-0e26-4ba4-9a11-4781ff3d0eb6","ios":"levelo://app?vid=3ce3bf05-0e26-4ba4-9a11-4781ff3d0eb6"},"vehicle_type_id":"4","last_reported":1708117558,"current_range_meters":6800,"station_id":"ce4bhs92rcd13ifvqi0g","pricing_plan_id":"cebpf4jnsgd1na2vs0mg"},{"bike_id":"76fab19c-4635-49a9-87e2-a2a0eadf1764","system_id":"levelo_inurba_marseille","lat":43.32831,"lon":5.36684,"is_reserved":false,"is_disabled":false,"rental_uris":{"android":"levelo://app?vid=76fab19c-4635-49a9-87e2-a2a0eadf1764","ios":"levelo://app?vid=76fab19c-4635-49a9-87e2-a2a0eadf1764"},"vehicle_type_id":"4","last_reported":1708117558,"current_range_meters":0,"station_id":"ce4bhs92rcd13ifvqi0g","pricing_plan_id":"cebpf4jnsgd1na2vs0mg"},{"bike_id":"d199adf1-98d0-44f2-b8f5-c02187d5b2e3","system_id":"levelo_inurba_marseille","lat":43.297163,"lon":5.365866,"is_reserved":false,"is_disabled":false,"rental_uris":{"android":"levelo://app?vid=d199adf1-98d0-44f2-b8f5-c02187d5b2e3","ios":"levelo://app?vid=d199adf1-98d0-44f2-b8f5-c02187d5b2e3"},"vehicle_type_id":"4","last_reported":1708117558,"current_range_meters":18800,"station_id":"ce4bgn12rcd13ifvqbt0","pricing_plan_id":"cebpf4jnsgd1na2vs0mg"},{"bike_id":"f23daf79-1d7c-4534-81e4-4baed53eef42","system_id":"levelo_inurba_marseille","lat":43.29711,"lon":5.3661,"is_reserved":false,"is_disabled":false,"rental_uris":{"android":"levelo://app?vid=f23daf79-1d7c-4534-81e4-4baed53eef42","ios":"levelo://app?vid=f23daf79-1d7c-4534-81e4-4baed53eef42"},"vehicle_type_id":"4","last_reported":1708117558,"current_range_meters":0,"station_id":"ce4bgn12rcd13ifvqbt0","pricing_plan_id":"cebpf4jnsgd1na2vs0mg"},{"bike_id":"4da49b2c-f41c-4070-b453-dfc8b8bb5e8e","system_id":"levelo_inurba_marseille","lat":43.32595,"lon":5.37897,"is_reserved":false,"is_disabled":false,"rental_uris":{"android":"levelo://app?vid=4da49b2c-f41c-4070-b453-dfc8b8bb5e8e","ios":"levelo://app?vid=4da49b2c-f41c-4070-b453-dfc8b8bb5e8e"},"vehicle_type_id":"4","last_reported":1708117558,"current_range_meters":16800,"station_id":"","pricing_plan_id":"cebpf4jnsgd1na2vs0mg"},{"bike_id":"73894429-1d86-4142-8100-5354f94fa833","system_id":"levelo_inurba_marseille","lat":43.311722,"lon":5.387247,"is_reserved":false,"is_disabled":false,"rental_uris":{"android":"levelo://app?vid=73894429-1d86-4142-8100-5354f94fa833","ios":"levelo://app?vid=73894429-1d86-4142-8100-5354f94fa833"},"vehicle_type_id":"4","last_reported":1708117558,"current_range_meters":22800,"station_id":"ce4bgv12rcd13ifvqcp0","pricing_plan_id":"cebpf4jnsgd1na2vs0mg"},{"bike_id":"cf199a32-4cc5-45df-8915-95fba9c1ee91","system_id":"levelo_inurba_marseille","lat":43.29573,"lon":5.367355,"is_reserved":false,"is_disabled":false,"rental_uris":{"android":"levelo://app?vid=cf199a32-4cc5-45df-8915-95fba9c1ee91","ios":"levelo://app?vid=cf199a32-4cc5-45df-8915-95fba9c1ee91"},"vehicle_type_id":"4","last_reported":1708117558,"current_range_meters":2400,"station_id":"ce4bgph2rcd13ifvqc2g","pricing_plan_id":"cebpf4jnsgd1na2vs0mg"},{"bike_id":"68ca9b29-2e16-4a1e-b0b9-b52cbb726b3c","system_id":"levelo_inurba_marseille","lat":43.29573,"lon":5.367355,"is_reserved":false,"is_disabled":false,"rental_uris":{"android":"levelo://app?vid=68ca9b29-2e16-4a1e-b0b9-b52cbb726b3c","ios":"levelo://app?vid=68ca9b29-2e16-4a1e-b0b9-b52cbb726b3c"},"vehicle_type_id":"4","last_reported":1708117558,"current_range_meters":0,"station_id":"ce4bgph2rcd13ifvqc2g","pricing_plan_id":"cebpf4jnsgd1na2vs0mg"},{"bike_id":"b50e8e30-3b6e-4289-8206-07994ee8246e","system_id":"levelo_inurba_marseille","lat":43.29573,"lon":5.367355,"is_reserved":false,"is_disabled":false,"rental_uris":{"android":"levelo://app?vid=b50e8e30-3b6e-4289-8206-07994ee8246e","ios":"levelo://app?vid=b50e8e30-3b6e-4289-8206-07994ee8246e"},"vehicle_type_id":"4","last_reported":1708117558,"current_range_meters":26800,"station_id":"ce4bgph2rcd13ifvqc2g","pricing_plan_id":"cebpf4jnsgd1na2vs0mg"},{"bike_id":"48c8340f-57d4-46e2-8312-d00ca4133cb7","system_id":"levelo_inurba_marseille","lat":43.29573,"lon":5.367355,"is_reserved":false,"is_disabled":false,"rental_uris":{"android":"levelo://app?vid=48c8340f-57d4-46e2-8312-d00ca4133cb7","ios":"levelo://app?vid=48c8340f-57d4-46e2-8312-d00ca4133cb7"},"vehicle_type_id":"4","last_reported":1708117558,"current_range_meters":16000,"station_id":"ce4bgph2rcd13ifvqc2g","pricing_plan_id":"cebpf4jnsgd1na2vs0mg"},{"bike_id":"2b500875-05af-41e2-83db-a99bff9e46b3","system_id":"levelo_inurba_marseille","lat":43.29573,"lon":5.367355,"is_reserved":false,"is_disabled":false,"rental_uris":{"android":"levelo://app?vid=2b500875-05af-41e2-83db-a99bff9e46b3","ios":"levelo://app?vid=2b500875-05af-41e2-83db-a99bff9e46b3"},"vehicle_type_id":"4","last_reported":1708117558,"current_range_meters":15200,"station_id":"ce4bgph2rcd13ifvqc2g","pricing_plan_id":"cebpf4jnsgd1na2vs0mg"},{"bike_id":"a4be7a64-ce24-43b3-874b-8adbd842d90b","system_id":"levelo_inurba_marseille","lat":43.29573,"lon":5.367355,"is_reserved":false,"is_disabled":false,"rental_uris":{"android":"levelo://app?vid=a4be7a64-ce24-43b3-874b-8adbd842d90b","ios":"levelo://app?vid=a4be7a64-ce24-43b3-874b-8adbd842d90b"},"vehicle_type_id":"4","last_reported":1708117558,"current_range_meters":19600,"station_id":"ce4bgph2rcd13ifvqc2g","pricing_plan_id":"cebpf4jnsgd1na2vs0mg"},{"bike_id":"de1551cc-421b-4629-b0d0-1a3ef71abf4b","system_id":"levelo_inurba_marseille","lat":43.299028,"lon":5.381509,"is_reserved":false,"is_disabled":false,"rental_uris":{"android":"levelo://app?vid=de1551cc-421b-4629-b0d0-1a3ef71abf4b","ios":"levelo://app?vid=de1551cc-421b-4629-b0d0-1a3ef71abf4b"},"vehicle_type_id":"4","last_reported":1708117558,"current_range_meters":6400,"station_id":"ce4bgj12rcd13ifvqbc0","pricing_plan_id":"cebpf4jnsgd1na2vs0mg"},{"bike_id":"2264ef29-8c80-49e6-b933-81f4dcd584ab","system_id":"levelo_inurba_marseille","lat":43.296921,"lon":5.376579,"is_reserved":false,"is_disabled":false,"rental_uris":{"android":"levelo://app?vid=2264ef29-8c80-49e6-b933-81f4dcd584ab","ios":"levelo://app?vid=2264ef29-8c80-49e6-b933-81f4dcd584ab"},"vehicle_type_id":"4","last_reported":1708117558,"current_range_meters":0,"station_id":"ce4bgkh2rcd13ifvqbl0","pricing_plan_id":"cebpf4jnsgd1na2vs0mg"},{"bike_id":"5f8501c5-49fb-4334-8729-487b2735fd31","system_id":"levelo_inurba_marseille","lat":43.299028,"lon":5.381509,"is_reserved":false,"is_disabled":false,"rental_uris":{"android":"levelo://app?vid=5f8501c5-49fb-4334-8729-487b2735fd31","ios":"levelo://app?vid=5f8501c5-49fb-4334-8729-487b2735fd31"},"vehicle_type_id":"4","last_reported":1708117558,"current_range_meters":27200,"station_id":"ce4bgj12rcd13ifvqbc0","pricing_plan_id":"cebpf4jnsgd1na2vs0mg"},{"bike_id":"b0cec00e-72a3-4b21-b9c7-495336208bb1","system_id":"levelo_inurba_marseille","lat":43.299028,"lon":5.381509,"is_reserved":false,"is_disabled":false,"rental_uris":{"android":"levelo://app?vid=b0cec00e-72a3-4b21-b9c7-495336208bb1","ios":"levelo://app?vid=b0cec00e-72a3-4b21-b9c7-495336208bb1"},"vehicle_type_id":"4","last_reported":1708117558,"current_range_meters":10800,"station_id":"ce4bgj12rcd13ifvqbc0","pricing_plan_id":"cebpf4jnsgd1na2vs0mg"},{"bike_id":"47cbab22-20ac-47bd-aa6f-cdebd05b475b","system_id":"levelo_inurba_marseille","lat":43.317557,"lon":5.390173,"is_reserved":false,"is_disabled":false,"rental_uris":{"android":"levelo://app?vid=47cbab22-20ac-47bd-aa6f-cdebd05b475b","ios":"levelo://app?vid=47cbab22-20ac-47bd-aa6f-cdebd05b475b"},"vehicle_type_id":"4","last_reported":1708117558,"current_range_meters":28400,"station_id":"ce4bhqp2rcd13ifvqhng","pricing_plan_id":"cebpf4jnsgd1na2vs0mg"},{"bike_id":"1b7a4234-bddd-44fc-a528-80a01224d060","system_id":"levelo_inurba_marseille","lat":43.3176,"lon":5.3901,"is_reserved":false,"is_disabled":false,"rental_uris":{"android":"levelo://app?vid=1b7a4234-bddd-44fc-a528-80a01224d060","ios":"levelo://app?vid=1b7a4234-bddd-44fc-a528-80a01224d060"},"vehicle_type_id":"4","last_reported":1708117558,"current_range_meters":2400,"station_id":"ce4bhqp2rcd13ifvqhng","pricing_plan_id":"cebpf4jnsgd1na2vs0mg"},{"bike_id":"8b19d0ec-456b-4753-8097-2e2ef0dad484","system_id":"levelo_inurba_marseille","lat":43.317557,"lon":5.390173,"is_reserved":false,"is_disabled":false,"rental_uris":{"android":"levelo://app?vid=8b19d0ec-456b-4753-8097-2e2ef0dad484","ios":"levelo://app?vid=8b19d0ec-456b-4753-8097-2e2ef0dad484"},"vehicle_type_id":"4","last_reported":1708117558,"current_range_meters":14000,"station_id":"ce4bhqp2rcd13ifvqhng","pricing_plan_id":"cebpf4jnsgd1na2vs0mg"},{"bike_id":"ed10a435-1a4b-4dcb-9298-e3f009503610","system_id":"levelo_inurba_marseille","lat":43.317557,"lon":5.390173,"is_reserved":false,"is_disabled":false,"rental_uris":{"android":"levelo://app?vid=ed10a435-1a4b-4dcb-9298-e3f009503610","ios":"levelo://app?vid=ed10a435-1a4b-4dcb-9298-e3f009503610"},"vehicle_type_id":"4","last_reported":1708117558,"current_range_meters":27600,"station_id":"ce4bhqp2rcd13ifvqhng","pricing_plan_id":"cebpf4jnsgd1na2vs0mg"},{"bike_id":"92c4433a-1432-4883-85e8-2b2d9843ff33","system_id":"levelo_inurba_marseille","lat":43.3176,"lon":5.39012,"is_reserved":false,"is_disabled":false,"rental_uris":{"android":"levelo://app?vid=92c4433a-1432-4883-85e8-2b2d9843ff33","ios":"levelo://app?vid=92c4433a-1432-4883-85e8-2b2d9843ff33"},"vehicle_type_id":"4","last_reported":1708117558,"current_range_meters":9200,"station_id":"ce4bhqp2rcd13ifvqhng","pricing_plan_id":"cebpf4jnsgd1na2vs0mg"},{"bike_id":"d7ff2894-9c5e-41d5-878d-d5d27747d579","system_id":"levelo_inurba_marseille","lat":43.317557,"lon":5.390173,"is_reserved":false,"is_disabled":false,"rental_uris":{"android":"levelo://app?vid=d7ff2894-9c5e-41d5-878d-d5d27747d579","ios":"levelo://app?vid=d7ff2894-9c5e-41d5-878d-d5d27747d579"},"vehicle_type_id":"4","last_reported":1708117558,"current_range_meters":14800,"station_id":"ce4bhqp2rcd13ifvqhng","pricing_plan_id":"cebpf4jnsgd1na2vs0mg"},{"bike_id":"f6535c2f-d091-4f83-8ee7-dcd26141ca83","system_id":"levelo_inurba_marseille","lat":43.31759,"lon":5.39016,"is_reserved":false,"is_disabled":false,"rental_uris":{"android":"levelo://app?vid=f6535c2f-d091-4f83-8ee7-dcd26141ca83","ios":"levelo://app?vid=f6535c2f-d091-4f83-8ee7-dcd26141ca83"},"vehicle_type_id":"4","last_reported":1708117558,"current_range_meters":19600,"station_id":"ce4bhqp2rcd13ifvqhng","pricing_plan_id":"cebpf4jnsgd1na2vs0mg"},{"bike_id":"b3dcb9ba-bf07-48c1-aada-2fbdb761a352","system_id":"levelo_inurba_marseille","lat":43.317557,"lon":5.390173,"is_reserved":false,"is_disabled":false,"rental_uris":{"android":"levelo://app?vid=b3dcb9ba-bf07-48c1-aada-2fbdb761a352","ios":"levelo://app?vid=b3dcb9ba-bf07-48c1-aada-2fbdb761a352"},"vehicle_type_id":"4","last_reported":1708117558,"current_range_meters":31200,"station_id":"ce4bhqp2rcd13ifvqhng","pricing_plan_id":"cebpf4jnsgd1na2vs0mg"},{"bike_id":"a203661e-355b-42f4-9955-ac4c89f27d54","system_id":"levelo_inurba_marseille","lat":43.317557,"lon":5.390173,"is_reserved":false,"is_disabled":false,"rental_uris":{"android":"levelo://app?vid=a203661e-355b-42f4-9955-ac4c89f27d54","ios":"levelo://app?vid=a203661e-355b-42f4-9955-ac4c89f27d54"},"vehicle_type_id":"4","last_reported":1708117558,"current_range_meters":32000,"station_id":"ce4bhqp2rcd13ifvqhng","pricing_plan_id":"cebpf4jnsgd1na2vs0mg"},{"bike_id":"6ccb21c5-f410-4f97-a31b-5d3674cc4c24","system_id":"levelo_inurba_marseille","lat":43.317557,"lon":5.390173,"is_reserved":false,"is_disabled":false,"rental_uris":{"android":"levelo://app?vid=6ccb21c5-f410-4f97-a31b-5d3674cc4c24","ios":"levelo://app?vid=6ccb21c5-f410-4f97-a31b-5d3674cc4c24"},"vehicle_type_id":"4","last_reported":1708117558,"current_range_meters":32000,"station_id":"ce4bhqp2rcd13ifvqhng","pricing_plan_id":"cebpf4jnsgd1na2vs0mg"},{"bike_id":"2ca97d81-6eeb-49fd-a3cc-b94b782f5563","system_id":"levelo_inurba_marseille","lat":43.31759,"lon":5.39018,"is_reserved":false,"is_disabled":false,"rental_uris":{"android":"levelo://app?vid=2ca97d81-6eeb-49fd-a3cc-b94b782f5563","ios":"levelo://app?vid=2ca97d81-6eeb-49fd-a3cc-b94b782f5563"},"vehicle_type_id":"4","last_reported":1708117558,"current_range_meters":28400,"station_id":"ce4bhqp2rcd13ifvqhng","pricing_plan_id":"cebpf4jnsgd1na2vs0mg"},{"bike_id":"3edc7f72-aa1e-4feb-820d-899f3aaa6755","system_id":"levelo_inurba_marseille","lat":43.317557,"lon":5.390173,"is_reserved":false,"is_disabled":false,"rental_uris":{"android":"levelo://app?vid=3edc7f72-aa1e-4feb-820d-899f3aaa6755","ios":"levelo://app?vid=3edc7f72-aa1e-4feb-820d-899f3aaa6755"},"vehicle_type_id":"4","last_reported":1708117558,"current_range_meters":19200,"station_id":"ce4bhqp2rcd13ifvqhng","pricing_plan_id":"cebpf4jnsgd1na2vs0mg"},{"bike_id":"ed87d69f-71e3-4a80-a6a0-6a1355afd957","system_id":"levelo_inurba_marseille","lat":43.31755,"lon":5.39022,"is_reserved":false,"is_disabled":false,"rental_uris":{"android":"levelo://app?vid=ed87d69f-71e3-4a80-a6a0-6a1355afd957","ios":"levelo://app?vid=ed87d69f-71e3-4a80-a6a0-6a1355afd957"},"vehicle_type_id":"4","last_reported":1708117558,"current_range_meters":15200,"station_id":"ce4bhqp2rcd13ifvqhng","pricing_plan_id":"cebpf4jnsgd1na2vs0mg"},{"bike_id":"a6a35326-c2ab-4de8-af71-87d4bfa74e0b","system_id":"levelo_inurba_marseille","lat":43.317557,"lon":5.390173,"is_reserved":false,"is_disabled":false,"rental_uris":{"android":"levelo://app?vid=a6a35326-c2ab-4de8-af71-87d4bfa74e0b","ios":"levelo://app?vid=a6a35326-c2ab-4de8-af71-87d4bfa74e0b"},"vehicle_type_id":"4","last_reported":1708117558,"current_range_meters":31200,"station_id":"ce4bhqp2rcd13ifvqhng","pricing_plan_id":"cebpf4jnsgd1na2vs0mg"},{"bike_id":"0ddd06ca-78d6-4fdc-92ed-9c8ef81f47fe","system_id":"levelo_inurba_marseille","lat":43.317557,"lon":5.390173,"is_reserved":false,"is_disabled":false,"rental_uris":{"android":"levelo://app?vid=0ddd06ca-78d6-4fdc-92ed-9c8ef81f47fe","ios":"levelo://app?vid=0ddd06ca-78d6-4fdc-92ed-9c8ef81f47fe"},"vehicle_type_id":"4","last_reported":1708117558,"current_range_meters":32000,"station_id":"ce4bhqp2rcd13ifvqhng","pricing_plan_id":"cebpf4jnsgd1na2vs0mg"},{"bike_id":"44c0a2a0-88a3-4e19-8fc3-deba4ee3e011","system_id":"levelo_inurba_marseille","lat":43.317557,"lon":5.390173,"is_reserved":false,"is_disabled":false,"rental_uris":{"android":"levelo://app?vid=44c0a2a0-88a3-4e19-8fc3-deba4ee3e011","ios":"levelo://app?vid=44c0a2a0-88a3-4e19-8fc3-deba4ee3e011"},"vehicle_type_id":"4","last_reported":1708117558,"current_range_meters":25200,"station_id":"ce4bhqp2rcd13ifvqhng","pricing_plan_id":"cebpf4jnsgd1na2vs0mg"},{"bike_id":"8e971b24-2a2c-425a-b415-53db1302ab01","system_id":"levelo_inurba_marseille","lat":43.29576,"lon":5.37509,"is_reserved":false,"is_disabled":false,"rental_uris":{"android":"levelo://app?vid=8e971b24-2a2c-425a-b415-53db1302ab01","ios":"levelo://app?vid=8e971b24-2a2c-425a-b415-53db1302ab01"},"vehicle_type_id":"4","last_reported":1708117558,"current_range_meters":0,"station_id":"ce4bgh92rcd13ifvqb50","pricing_plan_id":"cebpf4jnsgd1na2vs0mg"},{"bike_id":"f5ec897a-37e4-4d41-884c-d6b2ccb40d45","system_id":"levelo_inurba_marseille","lat":43.295748,"lon":5.37522,"is_reserved":false,"is_disabled":false,"rental_uris":{"android":"levelo://app?vid=f5ec897a-37e4-4d41-884c-d6b2ccb40d45","ios":"levelo://app?vid=f5ec897a-37e4-4d41-884c-d6b2ccb40d45"},"vehicle_type_id":"4","last_reported":1708117558,"current_range_meters":0,"station_id":"ce4bgh92rcd13ifvqb50","pricing_plan_id":"cebpf4jnsgd1na2vs0mg"},{"bike_id":"dae49283-3927-4d17-b5d5-b61512bfca4d","system_id":"levelo_inurba_marseille","lat":43.304274,"lon":5.388873,"is_reserved":false,"is_disabled":false,"rental_uris":{"android":"levelo://app?vid=dae49283-3927-4d17-b5d5-b61512bfca4d","ios":"levelo://app?vid=dae49283-3927-4d17-b5d5-b61512bfca4d"},"vehicle_type_id":"4","last_reported":1708117558,"current_range_meters":15600,"station_id":"ce4bgk12rcd13ifvqbi0","pricing_plan_id":"cebpf4jnsgd1na2vs0mg"},{"bike_id":"e0850c4f-8050-4394-a8be-475b0fea388c","system_id":"levelo_inurba_marseille","lat":43.295648,"lon":5.37507,"is_reserved":false,"is_disabled":false,"rental_uris":{"android":"levelo://app?vid=e0850c4f-8050-4394-a8be-475b0fea388c","ios":"levelo://app?vid=e0850c4f-8050-4394-a8be-475b0fea388c"},"vehicle_type_id":"4","last_reported":1708117558,"current_range_meters":0,"station_id":"ce4bgh92rcd13ifvqb50","pricing_plan_id":"cebpf4jnsgd1na2vs0mg"},{"bike_id":"b5f48342-8434-43cb-aee6-fb15560e1acf","system_id":"levelo_inurba_marseille","lat":43.29618,"lon":5.37722,"is_reserved":false,"is_disabled":false,"rental_uris":{"android":"levelo://app?vid=b5f48342-8434-43cb-aee6-fb15560e1acf","ios":"levelo://app?vid=b5f48342-8434-43cb-aee6-fb15560e1acf"},"vehicle_type_id":"4","last_reported":1708117558,"current_range_meters":0,"station_id":"ce4bgi92rcd13ifvqb90","pricing_plan_id":"cebpf4jnsgd1na2vs0mg"},{"bike_id":"a821f5c6-f918-4d8f-ae20-10b0f32c86fa","system_id":"levelo_inurba_marseille","lat":43.32364,"lon":5.38877,"is_reserved":false,"is_disabled":false,"rental_uris":{"android":"levelo://app?vid=a821f5c6-f918-4d8f-ae20-10b0f32c86fa","ios":"levelo://app?vid=a821f5c6-f918-4d8f-ae20-10b0f32c86fa"},"vehicle_type_id":"4","last_reported":1708117558,"current_range_meters":10000,"station_id":"ce4bhqp2rcd13ifvqhog","pricing_plan_id":"cebpf4jnsgd1na2vs0mg"},{"bike_id":"28f989fa-bfde-4b0a-85ae-f5f93bc020bb","system_id":"levelo_inurba_marseille","lat":43.32367,"lon":5.388836,"is_reserved":false,"is_disabled":false,"rental_uris":{"android":"levelo://app?vid=28f989fa-bfde-4b0a-85ae-f5f93bc020bb","ios":"levelo://app?vid=28f989fa-bfde-4b0a-85ae-f5f93bc020bb"},"vehicle_type_id":"4","last_reported":1708117558,"current_range_meters":17600,"station_id":"ce4bhqp2rcd13ifvqhog","pricing_plan_id":"cebpf4jnsgd1na2vs0mg"},{"bike_id":"7b8ae2a5-fea4-420f-9e1d-5f67a20c6887","system_id":"levelo_inurba_marseille","lat":43.32367,"lon":5.388836,"is_reserved":false,"is_disabled":false,"rental_uris":{"android":"levelo://app?vid=7b8ae2a5-fea4-420f-9e1d-5f67a20c6887","ios":"levelo://app?vid=7b8ae2a5-fea4-420f-9e1d-5f67a20c6887"},"vehicle_type_id":"4","last_reported":1708117558,"current_range_meters":15600,"station_id":"ce4bhqp2rcd13ifvqhog","pricing_plan_id":"cebpf4jnsgd1na2vs0mg"},{"bike_id":"67e8879b-193d-41fb-b133-c51309ca16e8","system_id":"levelo_inurba_marseille","lat":43.32367,"lon":5.388836,"is_reserved":false,"is_disabled":false,"rental_uris":{"android":"levelo://app?vid=67e8879b-193d-41fb-b133-c51309ca16e8","ios":"levelo://app?vid=67e8879b-193d-41fb-b133-c51309ca16e8"},"vehicle_type_id":"4","last_reported":1708117558,"current_range_meters":27200,"station_id":"ce4bhqp2rcd13ifvqhog","pricing_plan_id":"cebpf4jnsgd1na2vs0mg"},{"bike_id":"38b2af8c-4bf0-4e39-8b67-9db9ecd30f9d","system_id":"levelo_inurba_marseille","lat":43.32367,"lon":5.388836,"is_reserved":false,"is_disabled":false,"rental_uris":{"android":"levelo://app?vid=38b2af8c-4bf0-4e39-8b67-9db9ecd30f9d","ios":"levelo://app?vid=38b2af8c-4bf0-4e39-8b67-9db9ecd30f9d"},"vehicle_type_id":"4","last_reported":1708117558,"current_range_meters":13600,"station_id":"ce4bhqp2rcd13ifvqhog","pricing_plan_id":"cebpf4jnsgd1na2vs0mg"},{"bike_id":"9a785585-c85b-4fa3-85aa-80d29ca57d9f","system_id":"levelo_inurba_marseille","lat":43.32367,"lon":5.388836,"is_reserved":false,"is_disabled":false,"rental_uris":{"android":"levelo://app?vid=9a785585-c85b-4fa3-85aa-80d29ca57d9f","ios":"levelo://app?vid=9a785585-c85b-4fa3-85aa-80d29ca57d9f"},"vehicle_type_id":"4","last_reported":1708117558,"current_range_meters":29200,"station_id":"ce4bhqp2rcd13ifvqhog","pricing_plan_id":"cebpf4jnsgd1na2vs0mg"},{"bike_id":"2327eaa2-eb6d-4642-af18-22514541f9a8","system_id":"levelo_inurba_marseille","lat":43.32365,"lon":5.38883,"is_reserved":false,"is_disabled":false,"rental_uris":{"android":"levelo://app?vid=2327eaa2-eb6d-4642-af18-22514541f9a8","ios":"levelo://app?vid=2327eaa2-eb6d-4642-af18-22514541f9a8"},"vehicle_type_id":"4","last_reported":1708117558,"current_range_meters":20800,"station_id":"ce4bhqp2rcd13ifvqhog","pricing_plan_id":"cebpf4jnsgd1na2vs0mg"},{"bike_id":"a8a3ad88-3aa3-4deb-a961-f2c130a0207e","system_id":"levelo_inurba_marseille","lat":43.32365,"lon":5.38883,"is_reserved":false,"is_disabled":false,"rental_uris":{"android":"levelo://app?vid=a8a3ad88-3aa3-4deb-a961-f2c130a0207e","ios":"levelo://app?vid=a8a3ad88-3aa3-4deb-a961-f2c130a0207e"},"vehicle_type_id":"4","last_reported":1708117558,"current_range_meters":27600,"station_id":"ce4bhqp2rcd13ifvqhog","pricing_plan_id":"cebpf4jnsgd1na2vs0mg"},{"bike_id":"fceacd93-f4c6-434d-bb12-36d15d3b0640","system_id":"levelo_inurba_marseille","lat":43.32367,"lon":5.388836,"is_reserved":false,"is_disabled":false,"rental_uris":{"android":"levelo://app?vid=fceacd93-f4c6-434d-bb12-36d15d3b0640","ios":"levelo://app?vid=fceacd93-f4c6-434d-bb12-36d15d3b0640"},"vehicle_type_id":"4","last_reported":1708117558,"current_range_meters":29200,"station_id":"ce4bhqp2rcd13ifvqhog","pricing_plan_id":"cebpf4jnsgd1na2vs0mg"},{"bike_id":"11f16d73-52cf-4b59-8120-4e257d4d363b","system_id":"levelo_inurba_marseille","lat":43.32367,"lon":5.388836,"is_reserved":false,"is_disabled":false,"rental_uris":{"android":"levelo://app?vid=11f16d73-52cf-4b59-8120-4e257d4d363b","ios":"levelo://app?vid=11f16d73-52cf-4b59-8120-4e257d4d363b"},"vehicle_type_id":"4","last_reported":1708117558,"current_range_meters":12400,"station_id":"ce4bhqp2rcd13ifvqhog","pricing_plan_id":"cebpf4jnsgd1na2vs0mg"},{"bike_id":"f9386ca3-cf78-41ba-b174-602a0647c8e4","system_id":"levelo_inurba_marseille","lat":43.32367,"lon":5.38882,"is_reserved":false,"is_disabled":false,"rental_uris":{"android":"levelo://app?vid=f9386ca3-cf78-41ba-b174-602a0647c8e4","ios":"levelo://app?vid=f9386ca3-cf78-41ba-b174-602a0647c8e4"},"vehicle_type_id":"4","last_reported":1708117558,"current_range_meters":16400,"station_id":"ce4bhqp2rcd13ifvqhog","pricing_plan_id":"cebpf4jnsgd1na2vs0mg"},{"bike_id":"47eafb4f-c4f4-4c49-adff-f0631aa24f49","system_id":"levelo_inurba_marseille","lat":43.32367,"lon":5.388836,"is_reserved":false,"is_disabled":false,"rental_uris":{"android":"levelo://app?vid=47eafb4f-c4f4-4c49-adff-f0631aa24f49","ios":"levelo://app?vid=47eafb4f-c4f4-4c49-adff-f0631aa24f49"},"vehicle_type_id":"4","last_reported":1708117558,"current_range_meters":22000,"station_id":"ce4bhqp2rcd13ifvqhog","pricing_plan_id":"cebpf4jnsgd1na2vs0mg"},{"bike_id":"2b3d10c6-7c6b-4884-b4f1-95d3d357ee21","system_id":"levelo_inurba_marseille","lat":43.32367,"lon":5.388836,"is_reserved":false,"is_disabled":false,"rental_uris":{"android":"levelo://app?vid=2b3d10c6-7c6b-4884-b4f1-95d3d357ee21","ios":"levelo://app?vid=2b3d10c6-7c6b-4884-b4f1-95d3d357ee21"},"vehicle_type_id":"4","last_reported":1708117558,"current_range_meters":7600,"station_id":"ce4bhqp2rcd13ifvqhog","pricing_plan_id":"cebpf4jnsgd1na2vs0mg"},{"bike_id":"6af73b7c-3333-47f9-9c52-fb4e2c063bc2","system_id":"levelo_inurba_marseille","lat":43.32367,"lon":5.388836,"is_reserved":false,"is_disabled":false,"rental_uris":{"android":"levelo://app?vid=6af73b7c-3333-47f9-9c52-fb4e2c063bc2","ios":"levelo://app?vid=6af73b7c-3333-47f9-9c52-fb4e2c063bc2"},"vehicle_type_id":"4","last_reported":1708117558,"current_range_meters":15200,"station_id":"ce4bhqp2rcd13ifvqhog","pricing_plan_id":"cebpf4jnsgd1na2vs0mg"},{"bike_id":"39218043-babe-4383-8f3e-ac96355ba56e","system_id":"levelo_inurba_marseille","lat":43.32367,"lon":5.388836,"is_reserved":false,"is_disabled":false,"rental_uris":{"android":"levelo://app?vid=39218043-babe-4383-8f3e-ac96355ba56e","ios":"levelo://app?vid=39218043-babe-4383-8f3e-ac96355ba56e"},"vehicle_type_id":"4","last_reported":1708117558,"current_range_meters":8000,"station_id":"ce4bhqp2rcd13ifvqhog","pricing_plan_id":"cebpf4jnsgd1na2vs0mg"},{"bike_id":"e979be13-7d82-45e3-be83-82cd14dc0218","system_id":"levelo_inurba_marseille","lat":43.32367,"lon":5.388836,"is_reserved":false,"is_disabled":false,"rental_uris":{"android":"levelo://app?vid=e979be13-7d82-45e3-be83-82cd14dc0218","ios":"levelo://app?vid=e979be13-7d82-45e3-be83-82cd14dc0218"},"vehicle_type_id":"4","last_reported":1708117558,"current_range_meters":21600,"station_id":"ce4bhqp2rcd13ifvqhog","pricing_plan_id":"cebpf4jnsgd1na2vs0mg"},{"bike_id":"bd9ed7ac-3cbe-4300-a756-981bd922c86a","system_id":"levelo_inurba_marseille","lat":43.29602,"lon":5.381084,"is_reserved":false,"is_disabled":false,"rental_uris":{"android":"levelo://app?vid=bd9ed7ac-3cbe-4300-a756-981bd922c86a","ios":"levelo://app?vid=bd9ed7ac-3cbe-4300-a756-981bd922c86a"},"vehicle_type_id":"4","last_reported":1708117558,"current_range_meters":28000,"station_id":"ce4bgl12rcd13ifvqbo0","pricing_plan_id":"cebpf4jnsgd1na2vs0mg"},{"bike_id":"b1f29926-faa7-4389-ace6-cedb8fc3f8e7","system_id":"levelo_inurba_marseille","lat":43.29602,"lon":5.381084,"is_reserved":false,"is_disabled":false,"rental_uris":{"android":"levelo://app?vid=b1f29926-faa7-4389-ace6-cedb8fc3f8e7","ios":"levelo://app?vid=b1f29926-faa7-4389-ace6-cedb8fc3f8e7"},"vehicle_type_id":"4","last_reported":1708117558,"current_range_meters":22800,"station_id":"ce4bgl12rcd13ifvqbo0","pricing_plan_id":"cebpf4jnsgd1na2vs0mg"},{"bike_id":"abd11e8b-3dfc-46d1-8e24-ad98cd4efeec","system_id":"levelo_inurba_marseille","lat":43.29602,"lon":5.381084,"is_reserved":false,"is_disabled":false,"rental_uris":{"android":"levelo://app?vid=abd11e8b-3dfc-46d1-8e24-ad98cd4efeec","ios":"levelo://app?vid=abd11e8b-3dfc-46d1-8e24-ad98cd4efeec"},"vehicle_type_id":"4","last_reported":1708117558,"current_range_meters":30800,"station_id":"ce4bgl12rcd13ifvqbo0","pricing_plan_id":"cebpf4jnsgd1na2vs0mg"},{"bike_id":"baf3c8e0-fefe-47bc-935e-8e63282f0c09","system_id":"levelo_inurba_marseille","lat":43.29311,"lon":5.37172,"is_reserved":false,"is_disabled":false,"rental_uris":{"android":"levelo://app?vid=baf3c8e0-fefe-47bc-935e-8e63282f0c09","ios":"levelo://app?vid=baf3c8e0-fefe-47bc-935e-8e63282f0c09"},"vehicle_type_id":"4","last_reported":1708117558,"current_range_meters":13200,"station_id":"ce4bgh92rcd13ifvqb40","pricing_plan_id":"cebpf4jnsgd1na2vs0mg"},{"bike_id":"8c9a989a-9b6b-45bb-a7d9-65dd4e1e7ec1","system_id":"levelo_inurba_marseille","lat":43.29311,"lon":5.37176,"is_reserved":false,"is_disabled":false,"rental_uris":{"android":"levelo://app?vid=8c9a989a-9b6b-45bb-a7d9-65dd4e1e7ec1","ios":"levelo://app?vid=8c9a989a-9b6b-45bb-a7d9-65dd4e1e7ec1"},"vehicle_type_id":"4","last_reported":1708117558,"current_range_meters":26800,"station_id":"ce4bgh92rcd13ifvqb40","pricing_plan_id":"cebpf4jnsgd1na2vs0mg"},{"bike_id":"e409b0c0-9e03-48d6-a8f9-dfeafa3fc1db","system_id":"levelo_inurba_marseille","lat":43.2931,"lon":5.37173,"is_reserved":false,"is_disabled":false,"rental_uris":{"android":"levelo://app?vid=e409b0c0-9e03-48d6-a8f9-dfeafa3fc1db","ios":"levelo://app?vid=e409b0c0-9e03-48d6-a8f9-dfeafa3fc1db"},"vehicle_type_id":"4","last_reported":1708117558,"current_range_meters":24400,"station_id":"ce4bgh92rcd13ifvqb40","pricing_plan_id":"cebpf4jnsgd1na2vs0mg"},{"bike_id":"72dc7060-9b44-4ed6-ba0d-6dcc02550ed6","system_id":"levelo_inurba_marseille","lat":43.293087,"lon":5.371681,"is_reserved":false,"is_disabled":false,"rental_uris":{"android":"levelo://app?vid=72dc7060-9b44-4ed6-ba0d-6dcc02550ed6","ios":"levelo://app?vid=72dc7060-9b44-4ed6-ba0d-6dcc02550ed6"},"vehicle_type_id":"4","last_reported":1708117558,"current_range_meters":8000,"station_id":"ce4bgh92rcd13ifvqb40","pricing_plan_id":"cebpf4jnsgd1na2vs0mg"},{"bike_id":"dcef5fd7-fbce-4369-a80f-f96ff5b97340","system_id":"levelo_inurba_marseille","lat":43.29305,"lon":5.37158,"is_reserved":false,"is_disabled":false,"rental_uris":{"android":"levelo://app?vid=dcef5fd7-fbce-4369-a80f-f96ff5b97340","ios":"levelo://app?vid=dcef5fd7-fbce-4369-a80f-f96ff5b97340"},"vehicle_type_id":"4","last_reported":1708117558,"current_range_meters":18800,"station_id":"ce4bgh92rcd13ifvqb40","pricing_plan_id":"cebpf4jnsgd1na2vs0mg"},{"bike_id":"b450662b-3e15-472f-8400-8994d5a29e21","system_id":"levelo_inurba_marseille","lat":43.29308,"lon":5.37185,"is_reserved":false,"is_disabled":false,"rental_uris":{"android":"levelo://app?vid=b450662b-3e15-472f-8400-8994d5a29e21","ios":"levelo://app?vid=b450662b-3e15-472f-8400-8994d5a29e21"},"vehicle_type_id":"4","last_reported":1708117558,"current_range_meters":11200,"station_id":"ce4bgh92rcd13ifvqb40","pricing_plan_id":"cebpf4jnsgd1na2vs0mg"},{"bike_id":"dba8cfc3-0802-4910-9757-a7e7856da674","system_id":"levelo_inurba_marseille","lat":43.293058,"lon":5.371735,"is_reserved":false,"is_disabled":false,"rental_uris":{"android":"levelo://app?vid=dba8cfc3-0802-4910-9757-a7e7856da674","ios":"levelo://app?vid=dba8cfc3-0802-4910-9757-a7e7856da674"},"vehicle_type_id":"4","last_reported":1708117558,"current_range_meters":13200,"station_id":"ce4bgh92rcd13ifvqb40","pricing_plan_id":"cebpf4jnsgd1na2vs0mg"},{"bike_id":"d5e3ff2a-bc7a-4432-902a-008f5d70ec31","system_id":"levelo_inurba_marseille","lat":43.29305,"lon":5.37171,"is_reserved":false,"is_disabled":false,"rental_uris":{"android":"levelo://app?vid=d5e3ff2a-bc7a-4432-902a-008f5d70ec31","ios":"levelo://app?vid=d5e3ff2a-bc7a-4432-902a-008f5d70ec31"},"vehicle_type_id":"4","last_reported":1708117558,"current_range_meters":5600,"station_id":"ce4bgh92rcd13ifvqb40","pricing_plan_id":"cebpf4jnsgd1na2vs0mg"},{"bike_id":"6efe22c9-680d-473c-b4c3-e40bbdd66613","system_id":"levelo_inurba_marseille","lat":43.29277,"lon":5.36843,"is_reserved":false,"is_disabled":false,"rental_uris":{"android":"levelo://app?vid=6efe22c9-680d-473c-b4c3-e40bbdd66613","ios":"levelo://app?vid=6efe22c9-680d-473c-b4c3-e40bbdd66613"},"vehicle_type_id":"4","last_reported":1708117558,"current_range_meters":5200,"station_id":"ce4bhbp2rcd13ifvqesg","pricing_plan_id":"cebpf4jnsgd1na2vs0mg"},{"bike_id":"f799753a-0675-4478-bf0d-baa1240bcfa1","system_id":"levelo_inurba_marseille","lat":43.293249,"lon":5.371578,"is_reserved":false,"is_disabled":false,"rental_uris":{"android":"levelo://app?vid=f799753a-0675-4478-bf0d-baa1240bcfa1","ios":"levelo://app?vid=f799753a-0675-4478-bf0d-baa1240bcfa1"},"vehicle_type_id":"4","last_reported":1708117558,"current_range_meters":14400,"station_id":"ce4bgh92rcd13ifvqb40","pricing_plan_id":"cebpf4jnsgd1na2vs0mg"},{"bike_id":"9f7bcc7c-7aa0-46b0-9c23-cf199f6bc20d","system_id":"levelo_inurba_marseille","lat":43.29312,"lon":5.37229,"is_reserved":false,"is_disabled":false,"rental_uris":{"android":"levelo://app?vid=9f7bcc7c-7aa0-46b0-9c23-cf199f6bc20d","ios":"levelo://app?vid=9f7bcc7c-7aa0-46b0-9c23-cf199f6bc20d"},"vehicle_type_id":"4","last_reported":1708117558,"current_range_meters":16800,"station_id":"ce4bgh92rcd13ifvqb40","pricing_plan_id":"cebpf4jnsgd1na2vs0mg"},{"bike_id":"e6068e8c-eb50-44ff-874f-c10aa17e6d95","system_id":"levelo_inurba_marseille","lat":43.29305,"lon":5.3718,"is_reserved":false,"is_disabled":false,"rental_uris":{"android":"levelo://app?vid=e6068e8c-eb50-44ff-874f-c10aa17e6d95","ios":"levelo://app?vid=e6068e8c-eb50-44ff-874f-c10aa17e6d95"},"vehicle_type_id":"4","last_reported":1708117558,"current_range_meters":0,"station_id":"ce4bgh92rcd13ifvqb40","pricing_plan_id":"cebpf4jnsgd1na2vs0mg"},{"bike_id":"4e8f7754-0328-4681-a32c-3bf490c94ac6","system_id":"levelo_inurba_marseille","lat":43.29303,"lon":5.37183,"is_reserved":false,"is_disabled":false,"rental_uris":{"android":"levelo://app?vid=4e8f7754-0328-4681-a32c-3bf490c94ac6","ios":"levelo://app?vid=4e8f7754-0328-4681-a32c-3bf490c94ac6"},"vehicle_type_id":"4","last_reported":1708117558,"current_range_meters":30000,"station_id":"ce4bgh92rcd13ifvqb40","pricing_plan_id":"cebpf4jnsgd1na2vs0mg"},{"bike_id":"d405518c-d6da-4111-9568-461ce339f9d6","system_id":"levelo_inurba_marseille","lat":43.292749,"lon":5.368402,"is_reserved":false,"is_disabled":false,"rental_uris":{"android":"levelo://app?vid=d405518c-d6da-4111-9568-461ce339f9d6","ios":"levelo://app?vid=d405518c-d6da-4111-9568-461ce339f9d6"},"vehicle_type_id":"4","last_reported":1708117558,"current_range_meters":2000,"station_id":"ce4bhbp2rcd13ifvqesg","pricing_plan_id":"cebpf4jnsgd1na2vs0mg"},{"bike_id":"8d4550b3-0fb0-4fe9-8dfa-4f4417d2b2eb","system_id":"levelo_inurba_marseille","lat":43.29278,"lon":5.37176,"is_reserved":false,"is_disabled":false,"rental_uris":{"android":"levelo://app?vid=8d4550b3-0fb0-4fe9-8dfa-4f4417d2b2eb","ios":"levelo://app?vid=8d4550b3-0fb0-4fe9-8dfa-4f4417d2b2eb"},"vehicle_type_id":"4","last_reported":1708117558,"current_range_meters":5200,"station_id":"ce4bgh92rcd13ifvqb40","pricing_plan_id":"cebpf4jnsgd1na2vs0mg"},{"bike_id":"fa61bcfe-6d62-4035-ac4f-e420b95f3240","system_id":"levelo_inurba_marseille","lat":43.29307,"lon":5.37463,"is_reserved":false,"is_disabled":false,"rental_uris":{"android":"levelo://app?vid=fa61bcfe-6d62-4035-ac4f-e420b95f3240","ios":"levelo://app?vid=fa61bcfe-6d62-4035-ac4f-e420b95f3240"},"vehicle_type_id":"4","last_reported":1708117558,"current_range_meters":0,"station_id":"ce4bgi12rcd13ifvqb70","pricing_plan_id":"cebpf4jnsgd1na2vs0mg"},{"bike_id":"50874a50-6dc8-4a42-9746-c5c98f50b261","system_id":"levelo_inurba_marseille","lat":43.29304,"lon":5.37449,"is_reserved":false,"is_disabled":false,"rental_uris":{"android":"levelo://app?vid=50874a50-6dc8-4a42-9746-c5c98f50b261","ios":"levelo://app?vid=50874a50-6dc8-4a42-9746-c5c98f50b261"},"vehicle_type_id":"4","last_reported":1708117558,"current_range_meters":0,"station_id":"ce4bgi12rcd13ifvqb70","pricing_plan_id":"cebpf4jnsgd1na2vs0mg"},{"bike_id":"6c32752e-411b-4609-b976-64d9e20ba770","system_id":"levelo_inurba_marseille","lat":43.293009,"lon":5.374584,"is_reserved":false,"is_disabled":false,"rental_uris":{"android":"levelo://app?vid=6c32752e-411b-4609-b976-64d9e20ba770","ios":"levelo://app?vid=6c32752e-411b-4609-b976-64d9e20ba770"},"vehicle_type_id":"4","last_reported":1708117558,"current_range_meters":3600,"station_id":"ce4bgi12rcd13ifvqb70","pricing_plan_id":"cebpf4jnsgd1na2vs0mg"},{"bike_id":"791e5121-8cff-4182-b4a8-ba55b50058df","system_id":"levelo_inurba_marseille","lat":43.29299,"lon":5.374513,"is_reserved":false,"is_disabled":false,"rental_uris":{"android":"levelo://app?vid=791e5121-8cff-4182-b4a8-ba55b50058df","ios":"levelo://app?vid=791e5121-8cff-4182-b4a8-ba55b50058df"},"vehicle_type_id":"4","last_reported":1708117558,"current_range_meters":17200,"station_id":"ce4bgi12rcd13ifvqb70","pricing_plan_id":"cebpf4jnsgd1na2vs0mg"},{"bike_id":"540d72db-bfb1-4513-b2c8-82b4c3dd5b39","system_id":"levelo_inurba_marseille","lat":43.293009,"lon":5.374584,"is_reserved":false,"is_disabled":false,"rental_uris":{"android":"levelo://app?vid=540d72db-bfb1-4513-b2c8-82b4c3dd5b39","ios":"levelo://app?vid=540d72db-bfb1-4513-b2c8-82b4c3dd5b39"},"vehicle_type_id":"4","last_reported":1708117558,"current_range_meters":0,"station_id":"ce4bgi12rcd13ifvqb70","pricing_plan_id":"cebpf4jnsgd1na2vs0mg"},{"bike_id":"a2867b12-09f0-47ec-a9f8-ffe2ab815d1c","system_id":"levelo_inurba_marseille","lat":43.293009,"lon":5.374584,"is_reserved":false,"is_disabled":false,"rental_uris":{"android":"levelo://app?vid=a2867b12-09f0-47ec-a9f8-ffe2ab815d1c","ios":"levelo://app?vid=a2867b12-09f0-47ec-a9f8-ffe2ab815d1c"},"vehicle_type_id":"4","last_reported":1708117558,"current_range_meters":15200,"station_id":"ce4bgi12rcd13ifvqb70","pricing_plan_id":"cebpf4jnsgd1na2vs0mg"},{"bike_id":"19e0bc0a-abd9-4096-aedf-1fbecf7c6c76","system_id":"levelo_inurba_marseille","lat":43.2938,"lon":5.37838,"is_reserved":false,"is_disabled":false,"rental_uris":{"android":"levelo://app?vid=19e0bc0a-abd9-4096-aedf-1fbecf7c6c76","ios":"levelo://app?vid=19e0bc0a-abd9-4096-aedf-1fbecf7c6c76"},"vehicle_type_id":"4","last_reported":1708117558,"current_range_meters":800,"station_id":"ce4bgjh2rcd13ifvqbf0","pricing_plan_id":"cebpf4jnsgd1na2vs0mg"},{"bike_id":"b00d68b5-6599-492d-a888-380c3b87a13c","system_id":"levelo_inurba_marseille","lat":43.2936,"lon":5.37835,"is_reserved":false,"is_disabled":false,"rental_uris":{"android":"levelo://app?vid=b00d68b5-6599-492d-a888-380c3b87a13c","ios":"levelo://app?vid=b00d68b5-6599-492d-a888-380c3b87a13c"},"vehicle_type_id":"4","last_reported":1708117558,"current_range_meters":12400,"station_id":"ce4bgjh2rcd13ifvqbf0","pricing_plan_id":"cebpf4jnsgd1na2vs0mg"},{"bike_id":"24079362-71e6-498b-9650-d1d3c4c9320f","system_id":"levelo_inurba_marseille","lat":43.2936,"lon":5.37835,"is_reserved":false,"is_disabled":false,"rental_uris":{"android":"levelo://app?vid=24079362-71e6-498b-9650-d1d3c4c9320f","ios":"levelo://app?vid=24079362-71e6-498b-9650-d1d3c4c9320f"},"vehicle_type_id":"4","last_reported":1708117558,"current_range_meters":6000,"station_id":"ce4bgjh2rcd13ifvqbf0","pricing_plan_id":"cebpf4jnsgd1na2vs0mg"},{"bike_id":"8817e565-13ce-47f3-ad6b-d1fd9bf29d7a","system_id":"levelo_inurba_marseille","lat":43.293754,"lon":5.378524,"is_reserved":false,"is_disabled":false,"rental_uris":{"android":"levelo://app?vid=8817e565-13ce-47f3-ad6b-d1fd9bf29d7a","ios":"levelo://app?vid=8817e565-13ce-47f3-ad6b-d1fd9bf29d7a"},"vehicle_type_id":"4","last_reported":1708117558,"current_range_meters":0,"station_id":"ce4bgjh2rcd13ifvqbf0","pricing_plan_id":"cebpf4jnsgd1na2vs0mg"},{"bike_id":"27a05bf5-832d-459c-a634-3119247466f8","system_id":"levelo_inurba_marseille","lat":43.2936,"lon":5.37835,"is_reserved":false,"is_disabled":false,"rental_uris":{"android":"levelo://app?vid=27a05bf5-832d-459c-a634-3119247466f8","ios":"levelo://app?vid=27a05bf5-832d-459c-a634-3119247466f8"},"vehicle_type_id":"4","last_reported":1708117558,"current_range_meters":9600,"station_id":"ce4bgjh2rcd13ifvqbf0","pricing_plan_id":"cebpf4jnsgd1na2vs0mg"},{"bike_id":"855e8dc8-f288-4792-8057-b89c36703e8c","system_id":"levelo_inurba_marseille","lat":43.29374,"lon":5.37867,"is_reserved":false,"is_disabled":false,"rental_uris":{"android":"levelo://app?vid=855e8dc8-f288-4792-8057-b89c36703e8c","ios":"levelo://app?vid=855e8dc8-f288-4792-8057-b89c36703e8c"},"vehicle_type_id":"4","last_reported":1708117558,"current_range_meters":0,"station_id":"ce4bgjh2rcd13ifvqbf0","pricing_plan_id":"cebpf4jnsgd1na2vs0mg"},{"bike_id":"24d0b294-36bc-4472-9d75-66c7e9da4f4a","system_id":"levelo_inurba_marseille","lat":43.292311,"lon":5.360731,"is_reserved":false,"is_disabled":false,"rental_uris":{"android":"levelo://app?vid=24d0b294-36bc-4472-9d75-66c7e9da4f4a","ios":"levelo://app?vid=24d0b294-36bc-4472-9d75-66c7e9da4f4a"},"vehicle_type_id":"4","last_reported":1708117558,"current_range_meters":30400,"station_id":"ce4bhbh2rcd13ifvqeqg","pricing_plan_id":"cebpf4jnsgd1na2vs0mg"},{"bike_id":"5891ac4e-1b61-4f05-bccb-975361ac5ee4","system_id":"levelo_inurba_marseille","lat":43.292738,"lon":5.376218,"is_reserved":false,"is_disabled":false,"rental_uris":{"android":"levelo://app?vid=5891ac4e-1b61-4f05-bccb-975361ac5ee4","ios":"levelo://app?vid=5891ac4e-1b61-4f05-bccb-975361ac5ee4"},"vehicle_type_id":"4","last_reported":1708117558,"current_range_meters":6000,"station_id":"","pricing_plan_id":"cebpf4jnsgd1na2vs0mg"},{"bike_id":"a7735ef4-c4d8-4b42-82f0-3d3468f3d2ee","system_id":"levelo_inurba_marseille","lat":43.298764,"lon":5.388973,"is_reserved":false,"is_disabled":false,"rental_uris":{"android":"levelo://app?vid=a7735ef4-c4d8-4b42-82f0-3d3468f3d2ee","ios":"levelo://app?vid=a7735ef4-c4d8-4b42-82f0-3d3468f3d2ee"},"vehicle_type_id":"4","last_reported":1708117558,"current_range_meters":28800,"station_id":"ce4bh392rcd13ifvqdl0","pricing_plan_id":"cebpf4jnsgd1na2vs0mg"},{"bike_id":"51489afb-13f3-42a6-82aa-aa6b0d7ceca8","system_id":"levelo_inurba_marseille","lat":43.291675,"lon":5.371583,"is_reserved":false,"is_disabled":false,"rental_uris":{"android":"levelo://app?vid=51489afb-13f3-42a6-82aa-aa6b0d7ceca8","ios":"levelo://app?vid=51489afb-13f3-42a6-82aa-aa6b0d7ceca8"},"vehicle_type_id":"4","last_reported":1708117558,"current_range_meters":19200,"station_id":"ce4bha92rcd13ifvqeh0","pricing_plan_id":"cebpf4jnsgd1na2vs0mg"},{"bike_id":"04a28dd4-ee3f-43ea-b07c-cd2fb4e61d12","system_id":"levelo_inurba_marseille","lat":43.298764,"lon":5.388973,"is_reserved":false,"is_disabled":false,"rental_uris":{"android":"levelo://app?vid=04a28dd4-ee3f-43ea-b07c-cd2fb4e61d12","ios":"levelo://app?vid=04a28dd4-ee3f-43ea-b07c-cd2fb4e61d12"},"vehicle_type_id":"4","last_reported":1708117558,"current_range_meters":4800,"station_id":"ce4bh392rcd13ifvqdl0","pricing_plan_id":"cebpf4jnsgd1na2vs0mg"},{"bike_id":"acac2617-4bf9-4f31-bc74-e2aab28e2bac","system_id":"levelo_inurba_marseille","lat":43.309038,"lon":5.396546,"is_reserved":false,"is_disabled":false,"rental_uris":{"android":"levelo://app?vid=acac2617-4bf9-4f31-bc74-e2aab28e2bac","ios":"levelo://app?vid=acac2617-4bf9-4f31-bc74-e2aab28e2bac"},"vehicle_type_id":"4","last_reported":1708117558,"current_range_meters":22000,"station_id":"ce4bh012rcd13ifvqcv0","pricing_plan_id":"cebpf4jnsgd1na2vs0mg"},{"bike_id":"b28cafae-2299-43c9-8822-a996762c9a6b","system_id":"levelo_inurba_marseille","lat":43.291994,"lon":5.357886,"is_reserved":false,"is_disabled":false,"rental_uris":{"android":"levelo://app?vid=b28cafae-2299-43c9-8822-a996762c9a6b","ios":"levelo://app?vid=b28cafae-2299-43c9-8822-a996762c9a6b"},"vehicle_type_id":"4","last_reported":1708117558,"current_range_meters":20800,"station_id":"ce4bhb12rcd13ifvqel0","pricing_plan_id":"cebpf4jnsgd1na2vs0mg"},{"bike_id":"bf98dd22-8f43-4c0d-abd4-4723071e5b9e","system_id":"levelo_inurba_marseille","lat":43.313291,"lon":5.396838,"is_reserved":false,"is_disabled":false,"rental_uris":{"android":"levelo://app?vid=bf98dd22-8f43-4c0d-abd4-4723071e5b9e","ios":"levelo://app?vid=bf98dd22-8f43-4c0d-abd4-4723071e5b9e"},"vehicle_type_id":"4","last_reported":1708117558,"current_range_meters":11600,"station_id":"ce4bgvp2rcd13ifvqcu0","pricing_plan_id":"cebpf4jnsgd1na2vs0mg"},{"bike_id":"b9e16807-e8b3-4091-b482-d57651cf7421","system_id":"levelo_inurba_marseille","lat":43.313291,"lon":5.396838,"is_reserved":false,"is_disabled":false,"rental_uris":{"android":"levelo://app?vid=b9e16807-e8b3-4091-b482-d57651cf7421","ios":"levelo://app?vid=b9e16807-e8b3-4091-b482-d57651cf7421"},"vehicle_type_id":"4","last_reported":1708117558,"current_range_meters":11200,"station_id":"ce4bgvp2rcd13ifvqcu0","pricing_plan_id":"cebpf4jnsgd1na2vs0mg"},{"bike_id":"9b1a9ed7-8d47-4f4e-9609-e389aa17fb75","system_id":"levelo_inurba_marseille","lat":43.309038,"lon":5.396546,"is_reserved":false,"is_disabled":false,"rental_uris":{"android":"levelo://app?vid=9b1a9ed7-8d47-4f4e-9609-e389aa17fb75","ios":"levelo://app?vid=9b1a9ed7-8d47-4f4e-9609-e389aa17fb75"},"vehicle_type_id":"4","last_reported":1708117558,"current_range_meters":1600,"station_id":"ce4bh012rcd13ifvqcv0","pricing_plan_id":"cebpf4jnsgd1na2vs0mg"},{"bike_id":"7278dac8-7bba-48ba-a0cd-9a7c6cd99a07","system_id":"levelo_inurba_marseille","lat":43.313291,"lon":5.396838,"is_reserved":false,"is_disabled":false,"rental_uris":{"android":"levelo://app?vid=7278dac8-7bba-48ba-a0cd-9a7c6cd99a07","ios":"levelo://app?vid=7278dac8-7bba-48ba-a0cd-9a7c6cd99a07"},"vehicle_type_id":"4","last_reported":1708117558,"current_range_meters":27200,"station_id":"ce4bgvp2rcd13ifvqcu0","pricing_plan_id":"cebpf4jnsgd1na2vs0mg"},{"bike_id":"c50c5f2c-6aed-489e-88ef-b1d2302a7c93","system_id":"levelo_inurba_marseille","lat":43.31327,"lon":5.39694,"is_reserved":false,"is_disabled":false,"rental_uris":{"android":"levelo://app?vid=c50c5f2c-6aed-489e-88ef-b1d2302a7c93","ios":"levelo://app?vid=c50c5f2c-6aed-489e-88ef-b1d2302a7c93"},"vehicle_type_id":"4","last_reported":1708117558,"current_range_meters":12400,"station_id":"ce4bgvp2rcd13ifvqcu0","pricing_plan_id":"cebpf4jnsgd1na2vs0mg"},{"bike_id":"65957180-fc1c-487a-8de2-5d55b67a182a","system_id":"levelo_inurba_marseille","lat":43.313299,"lon":5.396941,"is_reserved":false,"is_disabled":false,"rental_uris":{"android":"levelo://app?vid=65957180-fc1c-487a-8de2-5d55b67a182a","ios":"levelo://app?vid=65957180-fc1c-487a-8de2-5d55b67a182a"},"vehicle_type_id":"4","last_reported":1708117558,"current_range_meters":8000,"station_id":"ce4bgvp2rcd13ifvqcu0","pricing_plan_id":"cebpf4jnsgd1na2vs0mg"},{"bike_id":"f57027df-0992-4745-a6ca-a9a4b9829f5b","system_id":"levelo_inurba_marseille","lat":43.309038,"lon":5.396546,"is_reserved":false,"is_disabled":false,"rental_uris":{"android":"levelo://app?vid=f57027df-0992-4745-a6ca-a9a4b9829f5b","ios":"levelo://app?vid=f57027df-0992-4745-a6ca-a9a4b9829f5b"},"vehicle_type_id":"4","last_reported":1708117558,"current_range_meters":7600,"station_id":"ce4bh012rcd13ifvqcv0","pricing_plan_id":"cebpf4jnsgd1na2vs0mg"},{"bike_id":"aed46dd0-7490-4249-8078-034e0943f732","system_id":"levelo_inurba_marseille","lat":43.29542,"lon":5.3854,"is_reserved":false,"is_disabled":false,"rental_uris":{"android":"levelo://app?vid=aed46dd0-7490-4249-8078-034e0943f732","ios":"levelo://app?vid=aed46dd0-7490-4249-8078-034e0943f732"},"vehicle_type_id":"4","last_reported":1708117558,"current_range_meters":14400,"station_id":"ce4bgih2rcd13ifvqba0","pricing_plan_id":"cebpf4jnsgd1na2vs0mg"},{"bike_id":"808a1023-05a0-4a9d-aced-7378cbf3f31e","system_id":"levelo_inurba_marseille","lat":43.2954,"lon":5.38541,"is_reserved":false,"is_disabled":false,"rental_uris":{"android":"levelo://app?vid=808a1023-05a0-4a9d-aced-7378cbf3f31e","ios":"levelo://app?vid=808a1023-05a0-4a9d-aced-7378cbf3f31e"},"vehicle_type_id":"4","last_reported":1708117558,"current_range_meters":7600,"station_id":"ce4bgih2rcd13ifvqba0","pricing_plan_id":"cebpf4jnsgd1na2vs0mg"},{"bike_id":"b0cca690-e5c6-4c45-8e64-f407255f6098","system_id":"levelo_inurba_marseille","lat":43.29537,"lon":5.38537,"is_reserved":false,"is_disabled":false,"rental_uris":{"android":"levelo://app?vid=b0cca690-e5c6-4c45-8e64-f407255f6098","ios":"levelo://app?vid=b0cca690-e5c6-4c45-8e64-f407255f6098"},"vehicle_type_id":"4","last_reported":1708117558,"current_range_meters":19200,"station_id":"ce4bgih2rcd13ifvqba0","pricing_plan_id":"cebpf4jnsgd1na2vs0mg"},{"bike_id":"23e1971a-1eb2-47bc-b976-9eb22f12de57","system_id":"levelo_inurba_marseille","lat":43.29539,"lon":5.38541,"is_reserved":false,"is_disabled":false,"rental_uris":{"android":"levelo://app?vid=23e1971a-1eb2-47bc-b976-9eb22f12de57","ios":"levelo://app?vid=23e1971a-1eb2-47bc-b976-9eb22f12de57"},"vehicle_type_id":"4","last_reported":1708117558,"current_range_meters":30000,"station_id":"ce4bgih2rcd13ifvqba0","pricing_plan_id":"cebpf4jnsgd1na2vs0mg"},{"bike_id":"0e50de79-4ee6-45d7-be00-42fea5d0a3c7","system_id":"levelo_inurba_marseille","lat":43.29536,"lon":5.38536,"is_reserved":false,"is_disabled":false,"rental_uris":{"android":"levelo://app?vid=0e50de79-4ee6-45d7-be00-42fea5d0a3c7","ios":"levelo://app?vid=0e50de79-4ee6-45d7-be00-42fea5d0a3c7"},"vehicle_type_id":"4","last_reported":1708117558,"current_range_meters":14400,"station_id":"ce4bgih2rcd13ifvqba0","pricing_plan_id":"cebpf4jnsgd1na2vs0mg"},{"bike_id":"46be199f-e49f-4512-90eb-6bec4cd1fa58","system_id":"levelo_inurba_marseille","lat":43.29529,"lon":5.385581,"is_reserved":false,"is_disabled":false,"rental_uris":{"android":"levelo://app?vid=46be199f-e49f-4512-90eb-6bec4cd1fa58","ios":"levelo://app?vid=46be199f-e49f-4512-90eb-6bec4cd1fa58"},"vehicle_type_id":"4","last_reported":1708117558,"current_range_meters":26400,"station_id":"ce4bgih2rcd13ifvqba0","pricing_plan_id":"cebpf4jnsgd1na2vs0mg"},{"bike_id":"f0538bdc-c691-4a08-84bc-f93c63168e45","system_id":"levelo_inurba_marseille","lat":43.2954,"lon":5.38544,"is_reserved":false,"is_disabled":false,"rental_uris":{"android":"levelo://app?vid=f0538bdc-c691-4a08-84bc-f93c63168e45","ios":"levelo://app?vid=f0538bdc-c691-4a08-84bc-f93c63168e45"},"vehicle_type_id":"4","last_reported":1708117558,"current_range_meters":26800,"station_id":"ce4bgih2rcd13ifvqba0","pricing_plan_id":"cebpf4jnsgd1na2vs0mg"},{"bike_id":"d914d257-e6c5-446b-8664-959aa9acc16f","system_id":"levelo_inurba_marseille","lat":43.29529,"lon":5.385581,"is_reserved":false,"is_disabled":false,"rental_uris":{"android":"levelo://app?vid=d914d257-e6c5-446b-8664-959aa9acc16f","ios":"levelo://app?vid=d914d257-e6c5-446b-8664-959aa9acc16f"},"vehicle_type_id":"4","last_reported":1708117558,"current_range_meters":18800,"station_id":"ce4bgih2rcd13ifvqba0","pricing_plan_id":"cebpf4jnsgd1na2vs0mg"},{"bike_id":"ec4d0e2d-a2b2-4e5a-8080-6e1b5da8342a","system_id":"levelo_inurba_marseille","lat":43.295458,"lon":5.385552,"is_reserved":false,"is_disabled":false,"rental_uris":{"android":"levelo://app?vid=ec4d0e2d-a2b2-4e5a-8080-6e1b5da8342a","ios":"levelo://app?vid=ec4d0e2d-a2b2-4e5a-8080-6e1b5da8342a"},"vehicle_type_id":"4","last_reported":1708117558,"current_range_meters":4400,"station_id":"ce4bgih2rcd13ifvqba0","pricing_plan_id":"cebpf4jnsgd1na2vs0mg"},{"bike_id":"2ab949ef-a934-4989-b5df-056c303f3a62","system_id":"levelo_inurba_marseille","lat":43.2954,"lon":5.38545,"is_reserved":false,"is_disabled":false,"rental_uris":{"android":"levelo://app?vid=2ab949ef-a934-4989-b5df-056c303f3a62","ios":"levelo://app?vid=2ab949ef-a934-4989-b5df-056c303f3a62"},"vehicle_type_id":"4","last_reported":1708117558,"current_range_meters":27600,"station_id":"ce4bgih2rcd13ifvqba0","pricing_plan_id":"cebpf4jnsgd1na2vs0mg"},{"bike_id":"52babf1d-fe2c-426c-b240-1919f36615ef","system_id":"levelo_inurba_marseille","lat":43.29529,"lon":5.385581,"is_reserved":false,"is_disabled":false,"rental_uris":{"android":"levelo://app?vid=52babf1d-fe2c-426c-b240-1919f36615ef","ios":"levelo://app?vid=52babf1d-fe2c-426c-b240-1919f36615ef"},"vehicle_type_id":"4","last_reported":1708117558,"current_range_meters":14400,"station_id":"ce4bgih2rcd13ifvqba0","pricing_plan_id":"cebpf4jnsgd1na2vs0mg"},{"bike_id":"9c8a1539-12b9-45fc-8484-62b8c58c8fdd","system_id":"levelo_inurba_marseille","lat":43.29529,"lon":5.385581,"is_reserved":false,"is_disabled":false,"rental_uris":{"android":"levelo://app?vid=9c8a1539-12b9-45fc-8484-62b8c58c8fdd","ios":"levelo://app?vid=9c8a1539-12b9-45fc-8484-62b8c58c8fdd"},"vehicle_type_id":"4","last_reported":1708117558,"current_range_meters":0,"station_id":"ce4bgih2rcd13ifvqba0","pricing_plan_id":"cebpf4jnsgd1na2vs0mg"},{"bike_id":"805dd9ee-17cd-4387-9b44-4ab87a7309de","system_id":"levelo_inurba_marseille","lat":43.29538,"lon":5.38543,"is_reserved":false,"is_disabled":false,"rental_uris":{"android":"levelo://app?vid=805dd9ee-17cd-4387-9b44-4ab87a7309de","ios":"levelo://app?vid=805dd9ee-17cd-4387-9b44-4ab87a7309de"},"vehicle_type_id":"4","last_reported":1708117558,"current_range_meters":23600,"station_id":"ce4bgih2rcd13ifvqba0","pricing_plan_id":"cebpf4jnsgd1na2vs0mg"},{"bike_id":"1dd08881-49ee-48d4-92cc-bc805af06e69","system_id":"levelo_inurba_marseille","lat":43.29539,"lon":5.38545,"is_reserved":false,"is_disabled":false,"rental_uris":{"android":"levelo://app?vid=1dd08881-49ee-48d4-92cc-bc805af06e69","ios":"levelo://app?vid=1dd08881-49ee-48d4-92cc-bc805af06e69"},"vehicle_type_id":"4","last_reported":1708117558,"current_range_meters":30800,"station_id":"ce4bgih2rcd13ifvqba0","pricing_plan_id":"cebpf4jnsgd1na2vs0mg"},{"bike_id":"deabaf79-93d0-49ea-8fe7-aa8855533a52","system_id":"levelo_inurba_marseille","lat":43.295393,"lon":5.385457,"is_reserved":false,"is_disabled":false,"rental_uris":{"android":"levelo://app?vid=deabaf79-93d0-49ea-8fe7-aa8855533a52","ios":"levelo://app?vid=deabaf79-93d0-49ea-8fe7-aa8855533a52"},"vehicle_type_id":"4","last_reported":1708117558,"current_range_meters":6400,"station_id":"ce4bgih2rcd13ifvqba0","pricing_plan_id":"cebpf4jnsgd1na2vs0mg"},{"bike_id":"8f632f4b-83d6-470c-af67-ee457fd47db2","system_id":"levelo_inurba_marseille","lat":43.29535,"lon":5.38538,"is_reserved":false,"is_disabled":false,"rental_uris":{"android":"levelo://app?vid=8f632f4b-83d6-470c-af67-ee457fd47db2","ios":"levelo://app?vid=8f632f4b-83d6-470c-af67-ee457fd47db2"},"vehicle_type_id":"4","last_reported":1708117558,"current_range_meters":5200,"station_id":"ce4bgih2rcd13ifvqba0","pricing_plan_id":"cebpf4jnsgd1na2vs0mg"},{"bike_id":"bacd9a6e-915c-4c98-8944-7e83ae30d7b7","system_id":"levelo_inurba_marseille","lat":43.29529,"lon":5.385581,"is_reserved":false,"is_disabled":false,"rental_uris":{"android":"levelo://app?vid=bacd9a6e-915c-4c98-8944-7e83ae30d7b7","ios":"levelo://app?vid=bacd9a6e-915c-4c98-8944-7e83ae30d7b7"},"vehicle_type_id":"4","last_reported":1708117558,"current_range_meters":30400,"station_id":"ce4bgih2rcd13ifvqba0","pricing_plan_id":"cebpf4jnsgd1na2vs0mg"},{"bike_id":"e2adfb96-ee80-4f64-9690-c111f2763c58","system_id":"levelo_inurba_marseille","lat":43.29535,"lon":5.38539,"is_reserved":false,"is_disabled":false,"rental_uris":{"android":"levelo://app?vid=e2adfb96-ee80-4f64-9690-c111f2763c58","ios":"levelo://app?vid=e2adfb96-ee80-4f64-9690-c111f2763c58"},"vehicle_type_id":"4","last_reported":1708117558,"current_range_meters":5200,"station_id":"ce4bgih2rcd13ifvqba0","pricing_plan_id":"cebpf4jnsgd1na2vs0mg"},{"bike_id":"05e42af3-f18f-4c90-a407-6b4134918383","system_id":"levelo_inurba_marseille","lat":43.29535,"lon":5.38542,"is_reserved":false,"is_disabled":false,"rental_uris":{"android":"levelo://app?vid=05e42af3-f18f-4c90-a407-6b4134918383","ios":"levelo://app?vid=05e42af3-f18f-4c90-a407-6b4134918383"},"vehicle_type_id":"4","last_reported":1708117558,"current_range_meters":2800,"station_id":"ce4bgih2rcd13ifvqba0","pricing_plan_id":"cebpf4jnsgd1na2vs0mg"},{"bike_id":"168214b0-12bf-4e20-a9be-f26c614f10ec","system_id":"levelo_inurba_marseille","lat":43.29536,"lon":5.38544,"is_reserved":false,"is_disabled":false,"rental_uris":{"android":"levelo://app?vid=168214b0-12bf-4e20-a9be-f26c614f10ec","ios":"levelo://app?vid=168214b0-12bf-4e20-a9be-f26c614f10ec"},"vehicle_type_id":"4","last_reported":1708117558,"current_range_meters":26000,"station_id":"ce4bgih2rcd13ifvqba0","pricing_plan_id":"cebpf4jnsgd1na2vs0mg"},{"bike_id":"49e94faa-2d38-4365-a10f-672191f6c2e0","system_id":"levelo_inurba_marseille","lat":43.29535,"lon":5.38544,"is_reserved":false,"is_disabled":false,"rental_uris":{"android":"levelo://app?vid=49e94faa-2d38-4365-a10f-672191f6c2e0","ios":"levelo://app?vid=49e94faa-2d38-4365-a10f-672191f6c2e0"},"vehicle_type_id":"4","last_reported":1708117558,"current_range_meters":25600,"station_id":"ce4bgih2rcd13ifvqba0","pricing_plan_id":"cebpf4jnsgd1na2vs0mg"},{"bike_id":"fead519c-6e6a-48c9-af74-8d0dcc640f42","system_id":"levelo_inurba_marseille","lat":43.295352,"lon":5.385448,"is_reserved":false,"is_disabled":false,"rental_uris":{"android":"levelo://app?vid=fead519c-6e6a-48c9-af74-8d0dcc640f42","ios":"levelo://app?vid=fead519c-6e6a-48c9-af74-8d0dcc640f42"},"vehicle_type_id":"4","last_reported":1708117558,"current_range_meters":18000,"station_id":"ce4bgih2rcd13ifvqba0","pricing_plan_id":"cebpf4jnsgd1na2vs0mg"},{"bike_id":"ee6928cc-8647-42ba-80b1-e0f137462190","system_id":"levelo_inurba_marseille","lat":43.29534,"lon":5.38543,"is_reserved":false,"is_disabled":false,"rental_uris":{"android":"levelo://app?vid=ee6928cc-8647-42ba-80b1-e0f137462190","ios":"levelo://app?vid=ee6928cc-8647-42ba-80b1-e0f137462190"},"vehicle_type_id":"4","last_reported":1708117558,"current_range_meters":22400,"station_id":"ce4bgih2rcd13ifvqba0","pricing_plan_id":"cebpf4jnsgd1na2vs0mg"},{"bike_id":"76e96a84-7ccd-4610-b5f6-dd5dd9a4ef10","system_id":"levelo_inurba_marseille","lat":43.295321,"lon":5.385399,"is_reserved":false,"is_disabled":false,"rental_uris":{"android":"levelo://app?vid=76e96a84-7ccd-4610-b5f6-dd5dd9a4ef10","ios":"levelo://app?vid=76e96a84-7ccd-4610-b5f6-dd5dd9a4ef10"},"vehicle_type_id":"4","last_reported":1708117558,"current_range_meters":20400,"station_id":"ce4bgih2rcd13ifvqba0","pricing_plan_id":"cebpf4jnsgd1na2vs0mg"},{"bike_id":"238143ec-b6e1-4f7b-b710-e687e7918a26","system_id":"levelo_inurba_marseille","lat":43.29533,"lon":5.38542,"is_reserved":false,"is_disabled":false,"rental_uris":{"android":"levelo://app?vid=238143ec-b6e1-4f7b-b710-e687e7918a26","ios":"levelo://app?vid=238143ec-b6e1-4f7b-b710-e687e7918a26"},"vehicle_type_id":"4","last_reported":1708117558,"current_range_meters":2800,"station_id":"ce4bgih2rcd13ifvqba0","pricing_plan_id":"cebpf4jnsgd1na2vs0mg"},{"bike_id":"b0c65d1d-8fdc-42a4-9f12-78ce53a3274a","system_id":"levelo_inurba_marseille","lat":43.29534,"lon":5.38544,"is_reserved":false,"is_disabled":false,"rental_uris":{"android":"levelo://app?vid=b0c65d1d-8fdc-42a4-9f12-78ce53a3274a","ios":"levelo://app?vid=b0c65d1d-8fdc-42a4-9f12-78ce53a3274a"},"vehicle_type_id":"4","last_reported":1708117558,"current_range_meters":11600,"station_id":"ce4bgih2rcd13ifvqba0","pricing_plan_id":"cebpf4jnsgd1na2vs0mg"},{"bike_id":"e0a246ee-2274-4ad0-94d1-d8dc0bd57962","system_id":"levelo_inurba_marseille","lat":43.29532,"lon":5.38542,"is_reserved":false,"is_disabled":false,"rental_uris":{"android":"levelo://app?vid=e0a246ee-2274-4ad0-94d1-d8dc0bd57962","ios":"levelo://app?vid=e0a246ee-2274-4ad0-94d1-d8dc0bd57962"},"vehicle_type_id":"4","last_reported":1708117558,"current_range_meters":11200,"station_id":"ce4bgih2rcd13ifvqba0","pricing_plan_id":"cebpf4jnsgd1na2vs0mg"},{"bike_id":"d854582c-cbf6-4974-81d1-abb702446985","system_id":"levelo_inurba_marseille","lat":43.29529,"lon":5.385581,"is_reserved":false,"is_disabled":false,"rental_uris":{"android":"levelo://app?vid=d854582c-cbf6-4974-81d1-abb702446985","ios":"levelo://app?vid=d854582c-cbf6-4974-81d1-abb702446985"},