{"last_updated":1770515011,"ttl":60,"version":"2.2","data":{"bikes":[{"bike_id":"6b9ad2f0-0d88-40ff-a88f-7ddf87de7fb0","system_id":"levelo_inurba_marseille","lat":43.298891,"lon":5.436745,"is_reserved":false,"is_disabled":false,"rental_uris":{"android":"levelo://app?vid=6b9ad2f0-0d88-40ff-a88f-7ddf87de7fb0","ios":"levelo://app?vid=6b9ad2f0-0d88-40ff-a88f-7ddf87de7fb0"},"vehicle_type_id":"4","last_reported":1770515012,"current_range_meters":2800,"station_id":"ce4bhpp2rcd13ifvqhfg","pricing_plan_id":"cebpf4jnsgd1na2vs0mg"},{"bike_id":"aee172b4-1155-4469-a9c0-0f1e33daab5e","system_id":"levelo_inurba_marseille","lat":43.31364,"lon":5.38496,"is_reserved":false,"is_disabled":false,"rental_uris":{"android":"levelo://app?vid=aee172b4-1155-4469-a9c0-0f1e33daab5e","ios":"levelo://app?vid=aee172b4-1155-4469-a9c0-0f1e33daab5e"},"vehicle_type_id":"4","last_reported":1770515012,"current_range_meters":2800,"station_id":"ce4bgt92rcd13ifvqcf0","pricing_plan_id":"cebpf4jnsgd1na2vs0mg"},{"bike_id":"93add877-ee9d-4ae2-87c0-e59246a2e4b1","system_id":"levelo_inurba_marseille","lat":43.22932,"lon":5.3537,"is_reserved":false,"is_disabled":false,"rental_uris":{"android":"levelo://app?vid=93add877-ee9d-4ae2-87c0-e59246a2e4b1","ios":"levelo://app?vid=93add877-ee9d-4ae2-87c0-e59246a2e4b1"},"vehicle_type_id":"4","last_reported":1770515012,"current_range_meters":2800,"station_id":"cpo3532slgdg3j2ikp40","pricing_plan_id":"cebpf4jnsgd1na2vs0mg"},{"bike_id":"471239c2-c2fb-467f-a158-99ce5c613ea0","system_id":"levelo_inurba_marseille","lat":43.27953,"lon":5.3871,"is_reserved":false,"is_disabled":false,"rental_uris":{"android":"levelo://app?vid=471239c2-c2fb-467f-a158-99ce5c613ea0","ios":"levelo://app?vid=471239c2-c2fb-467f-a158-99ce5c613ea0"},"vehicle_type_id":"4","last_reported":1770515012,"current_range_meters":2800,"station_id":"ce4bhg12rcd13ifvqf80","pricing_plan_id":"cebpf4jnsgd1na2vs0mg"},{"bike_id":"ab55cc20-b94d-45e5-879c-71ae04584b70","system_id":"levelo_inurba_marseille","lat":43.29548,"lon":5.42306,"is_reserved":false,"is_disabled":true,"rental_uris":{"android":"levelo://app?vid=ab55cc20-b94d-45e5-879c-71ae04584b70","ios":"levelo://app?vid=ab55cc20-b94d-45e5-879c-71ae04584b70"},"vehicle_type_id":"4","last_reported":1770515012,"current_range_meters":2800,"station_id":"ce4bhph2rcd13ifvqhdg","pricing_plan_id":"cebpf4jnsgd1na2vs0mg"},{"bike_id":"5bbff642-0168-44b6-a018-2f4e649b181a","system_id":"levelo_inurba_marseille","lat":43.2904,"lon":5.3687,"is_reserved":false,"is_disabled":true,"rental_uris":{"android":"levelo://app?vid=5bbff642-0168-44b6-a018-2f4e649b181a","ios":"levelo://app?vid=5bbff642-0168-44b6-a018-2f4e649b181a"},"vehicle_type_id":"4","last_reported":1770515012,"current_range_meters":2800,"station_id":"ce4bhah2rcd13ifvqej0","pricing_plan_id":"cebpf4jnsgd1na2vs0mg"},{"bike_id":"9d9ada7e-8bfb-4948-82e1-5314689a8b39","system_id":"levelo_inurba_marseille","lat":43.33565,"lon":5.37455,"is_reserved":false,"is_disabled":false,"rental_uris":{"android":"levelo://app?vid=9d9ada7e-8bfb-4948-82e1-5314689a8b39","ios":"levelo://app?vid=9d9ada7e-8bfb-4948-82e1-5314689a8b39"},"vehicle_type_id":"4","last_reported":1770515012,"current_range_meters":2800,"station_id":"st_d46tts09ee8s73dlu43g","pricing_plan_id":"cebpf4jnsgd1na2vs0mg"},{"bike_id":"2ca5b2b3-c8e6-4887-9c11-53a69e745ddf","system_id":"levelo_inurba_marseille","lat":43.30197,"lon":5.38049,"is_reserved":false,"is_disabled":false,"rental_uris":{"android":"levelo://app?vid=2ca5b2b3-c8e6-4887-9c11-53a69e745ddf","ios":"levelo://app?vid=2ca5b2b3-c8e6-4887-9c11-53a69e745ddf"},"vehicle_type_id":"4","last_reported":1770515012,"current_range_meters":2800,"station_id":"ce4bgjp2rcd13ifvqbh0","pricing_plan_id":"cebpf4jnsgd1na2vs0mg"},{"bike_id":"a0061352-7209-49df-9665-b8b8143c6c1d","system_id":"levelo_inurba_marseille","lat":43.31045,"lon":5.371744,"is_reserved":false,"is_disabled":false,"rental_uris":{"android":"levelo://app?vid=a0061352-7209-49df-9665-b8b8143c6c1d","ios":"levelo://app?vid=a0061352-7209-49df-9665-b8b8143c6c1d"},"vehicle_type_id":"4","last_reported":1770515012,"current_range_meters":2800,"station_id":"st_d4kl2rp97mjs73e7tdfg","pricing_plan_id":"cebpf4jnsgd1na2vs0mg"},{"bike_id":"4d2412c0-808c-4e60-921a-9f5400f8ccf2","system_id":"levelo_inurba_marseille","lat":43.25374,"lon":5.421423,"is_reserved":false,"is_disabled":false,"rental_uris":{"android":"levelo://app?vid=4d2412c0-808c-4e60-921a-9f5400f8ccf2","ios":"levelo://app?vid=4d2412c0-808c-4e60-921a-9f5400f8ccf2"},"vehicle_type_id":"4","last_reported":1770515012,"current_range_meters":2800,"station_id":"st_d2m65c5bi1j21697t3ng","pricing_plan_id":"cebpf4jnsgd1na2vs0mg"},{"bike_id":"d178c746-70d1-4f9e-9ef4-edd4dba4ce93","system_id":"levelo_inurba_marseille","lat":43.28853,"lon":5.39311,"is_reserved":false,"is_disabled":false,"rental_uris":{"android":"levelo://app?vid=d178c746-70d1-4f9e-9ef4-edd4dba4ce93","ios":"levelo://app?vid=d178c746-70d1-4f9e-9ef4-edd4dba4ce93"},"vehicle_type_id":"4","last_reported":1770515012,"current_range_meters":2800,"station_id":"ce4bh2p2rcd13ifvqdi0","pricing_plan_id":"cebpf4jnsgd1na2vs0mg"},{"bike_id":"45c4c8ad-7dd6-4311-a688-e35223663601","system_id":"levelo_inurba_marseille","lat":43.305375,"lon":5.365491,"is_reserved":false,"is_disabled":false,"rental_uris":{"android":"levelo://app?vid=45c4c8ad-7dd6-4311-a688-e35223663601","ios":"levelo://app?vid=45c4c8ad-7dd6-4311-a688-e35223663601"},"vehicle_type_id":"4","last_reported":1770515012,"current_range_meters":3200,"station_id":"","pricing_plan_id":"cebpf4jnsgd1na2vs0mg"},{"bike_id":"0bce0260-62e5-407e-9a1f-227a5e8e5f05","system_id":"levelo_inurba_marseille","lat":43.31527,"lon":5.38037,"is_reserved":false,"is_disabled":false,"rental_uris":{"android":"levelo://app?vid=0bce0260-62e5-407e-9a1f-227a5e8e5f05","ios":"levelo://app?vid=0bce0260-62e5-407e-9a1f-227a5e8e5f05"},"vehicle_type_id":"4","last_reported":1770515012,"current_range_meters":3200,"station_id":"ce4bhsp2rcd13ifvqi50","pricing_plan_id":"cebpf4jnsgd1na2vs0mg"},{"bike_id":"67a058aa-1fc3-41cd-8938-ba0644768af1","system_id":"levelo_inurba_marseille","lat":43.29075,"lon":5.38063,"is_reserved":false,"is_disabled":false,"rental_uris":{"android":"levelo://app?vid=67a058aa-1fc3-41cd-8938-ba0644768af1","ios":"levelo://app?vid=67a058aa-1fc3-41cd-8938-ba0644768af1"},"vehicle_type_id":"4","last_reported":1770515012,"current_range_meters":3200,"station_id":"","pricing_plan_id":"cebpf4jnsgd1na2vs0mg"},{"bike_id":"a832ddf3-c616-4d2c-9dd2-c193872b9b01","system_id":"levelo_inurba_marseille","lat":43.273,"lon":5.39087,"is_reserved":false,"is_disabled":false,"rental_uris":{"android":"levelo://app?vid=a832ddf3-c616-4d2c-9dd2-c193872b9b01","ios":"levelo://app?vid=a832ddf3-c616-4d2c-9dd2-c193872b9b01"},"vehicle_type_id":"4","last_reported":1770515012,"current_range_meters":3200,"station_id":"ce4bhgp2rcd13ifvqfe0","pricing_plan_id":"cebpf4jnsgd1na2vs0mg"},{"bike_id":"18d0039c-a946-4b11-ab50-c50b5f8a36d0","system_id":"levelo_inurba_marseille","lat":43.28706,"lon":5.39996,"is_reserved":false,"is_disabled":false,"rental_uris":{"android":"levelo://app?vid=18d0039c-a946-4b11-ab50-c50b5f8a36d0","ios":"levelo://app?vid=18d0039c-a946-4b11-ab50-c50b5f8a36d0"},"vehicle_type_id":"4","last_reported":1770515012,"current_range_meters":3200,"station_id":"ce4bho92rcd13ifvqh3g","pricing_plan_id":"cebpf4jnsgd1na2vs0mg"},{"bike_id":"011daa92-6d39-4283-acb4-52bfa4d16625","system_id":"levelo_inurba_marseille","lat":43.229359,"lon":5.3538,"is_reserved":false,"is_disabled":false,"rental_uris":{"android":"levelo://app?vid=011daa92-6d39-4283-acb4-52bfa4d16625","ios":"levelo://app?vid=011daa92-6d39-4283-acb4-52bfa4d16625"},"vehicle_type_id":"4","last_reported":1770515012,"current_range_meters":3200,"station_id":"cpo3532slgdg3j2ikp40","pricing_plan_id":"cebpf4jnsgd1na2vs0mg"},{"bike_id":"886aa8af-dd33-4a7f-8aa1-138af7a04543","system_id":"levelo_inurba_marseille","lat":43.303076,"lon":5.36895,"is_reserved":false,"is_disabled":false,"rental_uris":{"android":"levelo://app?vid=886aa8af-dd33-4a7f-8aa1-138af7a04543","ios":"levelo://app?vid=886aa8af-dd33-4a7f-8aa1-138af7a04543"},"vehicle_type_id":"4","last_reported":1770515012,"current_range_meters":3200,"station_id":"","pricing_plan_id":"cebpf4jnsgd1na2vs0mg"},{"bike_id":"762d17af-af27-45ae-8011-3c290ff80fd9","system_id":"levelo_inurba_marseille","lat":43.24178,"lon":5.36396,"is_reserved":false,"is_disabled":false,"rental_uris":{"android":"levelo://app?vid=762d17af-af27-45ae-8011-3c290ff80fd9","ios":"levelo://app?vid=762d17af-af27-45ae-8011-3c290ff80fd9"},"vehicle_type_id":"4","last_reported":1770515012,"current_range_meters":3200,"station_id":"cpo36qri1sfpv3e86is0","pricing_plan_id":"cebpf4jnsgd1na2vs0mg"},{"bike_id":"b577b490-0dcd-4919-9783-e96a402c45ab","system_id":"levelo_inurba_marseille","lat":43.284124,"lon":5.375175,"is_reserved":false,"is_disabled":false,"rental_uris":{"android":"levelo://app?vid=b577b490-0dcd-4919-9783-e96a402c45ab","ios":"levelo://app?vid=b577b490-0dcd-4919-9783-e96a402c45ab"},"vehicle_type_id":"4","last_reported":1770515012,"current_range_meters":3200,"station_id":"ce4bh412rcd13ifvqds0","pricing_plan_id":"cebpf4jnsgd1na2vs0mg"},{"bike_id":"f5b27743-7338-4c04-b84d-ca79ac5e7ef4","system_id":"levelo_inurba_marseille","lat":43.2872,"lon":5.36094,"is_reserved":false,"is_disabled":false,"rental_uris":{"android":"levelo://app?vid=f5b27743-7338-4c04-b84d-ca79ac5e7ef4","ios":"levelo://app?vid=f5b27743-7338-4c04-b84d-ca79ac5e7ef4"},"vehicle_type_id":"4","last_reported":1770515012,"current_range_meters":3600,"station_id":"cki0cbj6b192h4jlfktg","pricing_plan_id":"cebpf4jnsgd1na2vs0mg"},{"bike_id":"ce1e9331-2aac-408d-bd20-54f1c7e6b9f1","system_id":"levelo_inurba_marseille","lat":43.31083,"lon":5.38422,"is_reserved":false,"is_disabled":false,"rental_uris":{"android":"levelo://app?vid=ce1e9331-2aac-408d-bd20-54f1c7e6b9f1","ios":"levelo://app?vid=ce1e9331-2aac-408d-bd20-54f1c7e6b9f1"},"vehicle_type_id":"4","last_reported":1770515012,"current_range_meters":3600,"station_id":"","pricing_plan_id":"cebpf4jnsgd1na2vs0mg"},{"bike_id":"44df0d6d-61a2-46ab-9bf9-ae3cec90cb8f","system_id":"levelo_inurba_marseille","lat":43.25004,"lon":5.38903,"is_reserved":false,"is_disabled":true,"rental_uris":{"android":"levelo://app?vid=44df0d6d-61a2-46ab-9bf9-ae3cec90cb8f","ios":"levelo://app?vid=44df0d6d-61a2-46ab-9bf9-ae3cec90cb8f"},"vehicle_type_id":"4","last_reported":1770515012,"current_range_meters":3600,"station_id":"ce4bhgp2rcd13ifvqfd0","pricing_plan_id":"cebpf4jnsgd1na2vs0mg"},{"bike_id":"ce2a5aae-c595-44c0-87d3-56c0d4480198","system_id":"levelo_inurba_marseille","lat":43.29556,"lon":5.42287,"is_reserved":false,"is_disabled":false,"rental_uris":{"android":"levelo://app?vid=ce2a5aae-c595-44c0-87d3-56c0d4480198","ios":"levelo://app?vid=ce2a5aae-c595-44c0-87d3-56c0d4480198"},"vehicle_type_id":"4","last_reported":1770515012,"current_range_meters":3600,"station_id":"ce4bhph2rcd13ifvqhdg","pricing_plan_id":"cebpf4jnsgd1na2vs0mg"},{"bike_id":"427b4afc-b7dd-4e77-a7c1-6686018850e8","system_id":"levelo_inurba_marseille","lat":43.27921,"lon":5.41043,"is_reserved":false,"is_disabled":false,"rental_uris":{"android":"levelo://app?vid=427b4afc-b7dd-4e77-a7c1-6686018850e8","ios":"levelo://app?vid=427b4afc-b7dd-4e77-a7c1-6686018850e8"},"vehicle_type_id":"4","last_reported":1770515012,"current_range_meters":4000,"station_id":"ce4bhnp2rcd13ifvqh0g","pricing_plan_id":"cebpf4jnsgd1na2vs0mg"},{"bike_id":"082c6167-f943-4767-9df3-19b6044ff5f3","system_id":"levelo_inurba_marseille","lat":43.30601,"lon":5.37231,"is_reserved":false,"is_disabled":false,"rental_uris":{"android":"levelo://app?vid=082c6167-f943-4767-9df3-19b6044ff5f3","ios":"levelo://app?vid=082c6167-f943-4767-9df3-19b6044ff5f3"},"vehicle_type_id":"4","last_reported":1770515012,"current_range_meters":4000,"station_id":"ce4bgqh2rcd13ifvqc4g","pricing_plan_id":"cebpf4jnsgd1na2vs0mg"},{"bike_id":"cda67a55-cd0b-4996-80a6-9f94ffa5040f","system_id":"levelo_inurba_marseille","lat":43.26079,"lon":5.39384,"is_reserved":false,"is_disabled":false,"rental_uris":{"android":"levelo://app?vid=cda67a55-cd0b-4996-80a6-9f94ffa5040f","ios":"levelo://app?vid=cda67a55-cd0b-4996-80a6-9f94ffa5040f"},"vehicle_type_id":"4","last_reported":1770515012,"current_range_meters":4000,"station_id":"ce4bhh92rcd13ifvqfj0","pricing_plan_id":"cebpf4jnsgd1na2vs0mg"},{"bike_id":"84c8699d-c437-4eea-b1ad-8edc224bad99","system_id":"levelo_inurba_marseille","lat":43.24964,"lon":5.40478,"is_reserved":false,"is_disabled":false,"rental_uris":{"android":"levelo://app?vid=84c8699d-c437-4eea-b1ad-8edc224bad99","ios":"levelo://app?vid=84c8699d-c437-4eea-b1ad-8edc224bad99"},"vehicle_type_id":"4","last_reported":1770515012,"current_range_meters":4000,"station_id":"st_d2ngiaodas8pm72gd1h0","pricing_plan_id":"cebpf4jnsgd1na2vs0mg"},{"bike_id":"2c12c7cc-4b9d-40cf-9cb0-31d26b85d750","system_id":"levelo_inurba_marseille","lat":43.26199,"lon":5.37927,"is_reserved":false,"is_disabled":false,"rental_uris":{"android":"levelo://app?vid=2c12c7cc-4b9d-40cf-9cb0-31d26b85d750","ios":"levelo://app?vid=2c12c7cc-4b9d-40cf-9cb0-31d26b85d750"},"vehicle_type_id":"4","last_reported":1770515012,"current_range_meters":4000,"station_id":"ce4bhjp2rcd13ifvqg90","pricing_plan_id":"cebpf4jnsgd1na2vs0mg"},{"bike_id":"4553b9ae-95be-4d03-9d86-2a4c79a4ffcc","system_id":"levelo_inurba_marseille","lat":43.28911,"lon":5.39844,"is_reserved":false,"is_disabled":false,"rental_uris":{"android":"levelo://app?vid=4553b9ae-95be-4d03-9d86-2a4c79a4ffcc","ios":"levelo://app?vid=4553b9ae-95be-4d03-9d86-2a4c79a4ffcc"},"vehicle_type_id":"4","last_reported":1770515012,"current_range_meters":4000,"station_id":"","pricing_plan_id":"cebpf4jnsgd1na2vs0mg"},{"bike_id":"6622ecdf-5979-47a5-b9a2-8e881f3db9ee","system_id":"levelo_inurba_marseille","lat":43.27995,"lon":5.40018,"is_reserved":false,"is_disabled":false,"rental_uris":{"android":"levelo://app?vid=6622ecdf-5979-47a5-b9a2-8e881f3db9ee","ios":"levelo://app?vid=6622ecdf-5979-47a5-b9a2-8e881f3db9ee"},"vehicle_type_id":"4","last_reported":1770515012,"current_range_meters":4000,"station_id":"ce4bho92rcd13ifvqh4g","pricing_plan_id":"cebpf4jnsgd1na2vs0mg"},{"bike_id":"4fd33ec2-191e-42f6-b2f1-474419accee2","system_id":"levelo_inurba_marseille","lat":43.26064,"lon":5.39397,"is_reserved":false,"is_disabled":false,"rental_uris":{"android":"levelo://app?vid=4fd33ec2-191e-42f6-b2f1-474419accee2","ios":"levelo://app?vid=4fd33ec2-191e-42f6-b2f1-474419accee2"},"vehicle_type_id":"4","last_reported":1770515012,"current_range_meters":4000,"station_id":"ce4bhh92rcd13ifvqfj0","pricing_plan_id":"cebpf4jnsgd1na2vs0mg"},{"bike_id":"c5955de7-9ab5-4c95-be4c-788242dce2d4","system_id":"levelo_inurba_marseille","lat":43.32127,"lon":5.36775,"is_reserved":false,"is_disabled":false,"rental_uris":{"android":"levelo://app?vid=c5955de7-9ab5-4c95-be4c-788242dce2d4","ios":"levelo://app?vid=c5955de7-9ab5-4c95-be4c-788242dce2d4"},"vehicle_type_id":"4","last_reported":1770515012,"current_range_meters":4000,"station_id":"ce4bhrh2rcd13ifvqhug","pricing_plan_id":"cebpf4jnsgd1na2vs0mg"},{"bike_id":"75973dfd-67b6-4600-ac05-d521b143bd83","system_id":"levelo_inurba_marseille","lat":43.24464,"lon":5.42546,"is_reserved":false,"is_disabled":false,"rental_uris":{"android":"levelo://app?vid=75973dfd-67b6-4600-ac05-d521b143bd83","ios":"levelo://app?vid=75973dfd-67b6-4600-ac05-d521b143bd83"},"vehicle_type_id":"4","last_reported":1770515012,"current_range_meters":4000,"station_id":"st_d4a3vfp97mjs738cd8kg","pricing_plan_id":"cebpf4jnsgd1na2vs0mg"},{"bike_id":"992cbcc2-ba44-4d02-a131-2233e54b7ed3","system_id":"levelo_inurba_marseille","lat":43.30307,"lon":5.36896,"is_reserved":false,"is_disabled":false,"rental_uris":{"android":"levelo://app?vid=992cbcc2-ba44-4d02-a131-2233e54b7ed3","ios":"levelo://app?vid=992cbcc2-ba44-4d02-a131-2233e54b7ed3"},"vehicle_type_id":"4","last_reported":1770515012,"current_range_meters":4000,"station_id":"ce4bgqh2rcd13ifvqc5g","pricing_plan_id":"cebpf4jnsgd1na2vs0mg"},{"bike_id":"55e6acf3-2487-453e-b1e8-9b4bb25c70bc","system_id":"levelo_inurba_marseille","lat":43.31692,"lon":5.40477,"is_reserved":false,"is_disabled":false,"rental_uris":{"android":"levelo://app?vid=55e6acf3-2487-453e-b1e8-9b4bb25c70bc","ios":"levelo://app?vid=55e6acf3-2487-453e-b1e8-9b4bb25c70bc"},"vehicle_type_id":"4","last_reported":1770515012,"current_range_meters":4400,"station_id":"ce4bh012rcd13ifvqd00","pricing_plan_id":"cebpf4jnsgd1na2vs0mg"},{"bike_id":"ad59c976-8167-4012-b274-13dabb35f23b","system_id":"levelo_inurba_marseille","lat":43.29048,"lon":5.37152,"is_reserved":false,"is_disabled":true,"rental_uris":{"android":"levelo://app?vid=ad59c976-8167-4012-b274-13dabb35f23b","ios":"levelo://app?vid=ad59c976-8167-4012-b274-13dabb35f23b"},"vehicle_type_id":"4","last_reported":1770515012,"current_range_meters":4400,"station_id":"ce4bh5p2rcd13ifvqe4g","pricing_plan_id":"cebpf4jnsgd1na2vs0mg"},{"bike_id":"7227446b-610e-4be4-97ad-4ce3c6f17651","system_id":"levelo_inurba_marseille","lat":43.29394,"lon":5.37456,"is_reserved":false,"is_disabled":true,"rental_uris":{"android":"levelo://app?vid=7227446b-610e-4be4-97ad-4ce3c6f17651","ios":"levelo://app?vid=7227446b-610e-4be4-97ad-4ce3c6f17651"},"vehicle_type_id":"4","last_reported":1770515012,"current_range_meters":4400,"station_id":"","pricing_plan_id":"cebpf4jnsgd1na2vs0mg"},{"bike_id":"95772f58-1198-4605-b56d-d2a0cbf4f4d6","system_id":"levelo_inurba_marseille","lat":43.30645,"lon":5.401,"is_reserved":false,"is_disabled":false,"rental_uris":{"android":"levelo://app?vid=95772f58-1198-4605-b56d-d2a0cbf4f4d6","ios":"levelo://app?vid=95772f58-1198-4605-b56d-d2a0cbf4f4d6"},"vehicle_type_id":"4","last_reported":1770515012,"current_range_meters":4400,"station_id":"ce4bh112rcd13ifvqda0","pricing_plan_id":"cebpf4jnsgd1na2vs0mg"},{"bike_id":"ba1b98b8-d6fd-4ac5-9eda-8035e3140fb6","system_id":"levelo_inurba_marseille","lat":43.211905,"lon":5.350764,"is_reserved":false,"is_disabled":false,"rental_uris":{"android":"levelo://app?vid=ba1b98b8-d6fd-4ac5-9eda-8035e3140fb6","ios":"levelo://app?vid=ba1b98b8-d6fd-4ac5-9eda-8035e3140fb6"},"vehicle_type_id":"4","last_reported":1770515012,"current_range_meters":4400,"station_id":"st_cvj6sg6p6f1abm77japg","pricing_plan_id":"cebpf4jnsgd1na2vs0mg"},{"bike_id":"13ce2358-2d78-4000-bbd2-230bee171af5","system_id":"levelo_inurba_marseille","lat":43.28604,"lon":5.3988,"is_reserved":false,"is_disabled":false,"rental_uris":{"android":"levelo://app?vid=13ce2358-2d78-4000-bbd2-230bee171af5","ios":"levelo://app?vid=13ce2358-2d78-4000-bbd2-230bee171af5"},"vehicle_type_id":"4","last_reported":1770515012,"current_range_meters":4800,"station_id":"st_d4a7ka997mjs738ck50g","pricing_plan_id":"cebpf4jnsgd1na2vs0mg"},{"bike_id":"62801c7a-0680-4717-9eec-a2fc8f05e27c","system_id":"levelo_inurba_marseille","lat":43.27968,"lon":5.38704,"is_reserved":false,"is_disabled":false,"rental_uris":{"android":"levelo://app?vid=62801c7a-0680-4717-9eec-a2fc8f05e27c","ios":"levelo://app?vid=62801c7a-0680-4717-9eec-a2fc8f05e27c"},"vehicle_type_id":"4","last_reported":1770515012,"current_range_meters":4800,"station_id":"ce4bhg12rcd13ifvqf80","pricing_plan_id":"cebpf4jnsgd1na2vs0mg"},{"bike_id":"34a55f58-a955-4283-bcd6-91c6f2bdcd18","system_id":"levelo_inurba_marseille","lat":43.26528,"lon":5.39388,"is_reserved":false,"is_disabled":false,"rental_uris":{"android":"levelo://app?vid=34a55f58-a955-4283-bcd6-91c6f2bdcd18","ios":"levelo://app?vid=34a55f58-a955-4283-bcd6-91c6f2bdcd18"},"vehicle_type_id":"4","last_reported":1770515012,"current_range_meters":4800,"station_id":"","pricing_plan_id":"cebpf4jnsgd1na2vs0mg"},{"bike_id":"831f769d-3737-493b-9a0b-9d0ea0dc33c9","system_id":"levelo_inurba_marseille","lat":43.30894,"lon":5.36859,"is_reserved":false,"is_disabled":false,"rental_uris":{"android":"levelo://app?vid=831f769d-3737-493b-9a0b-9d0ea0dc33c9","ios":"levelo://app?vid=831f769d-3737-493b-9a0b-9d0ea0dc33c9"},"vehicle_type_id":"4","last_reported":1770515012,"current_range_meters":4800,"station_id":"ce4bgn92rcd13ifvqbvg","pricing_plan_id":"cebpf4jnsgd1na2vs0mg"},{"bike_id":"31d03209-100c-46c3-a91a-f245689b3991","system_id":"levelo_inurba_marseille","lat":43.29063,"lon":5.37166,"is_reserved":false,"is_disabled":false,"rental_uris":{"android":"levelo://app?vid=31d03209-100c-46c3-a91a-f245689b3991","ios":"levelo://app?vid=31d03209-100c-46c3-a91a-f245689b3991"},"vehicle_type_id":"4","last_reported":1770515012,"current_range_meters":4800,"station_id":"ce4bh5p2rcd13ifvqe4g","pricing_plan_id":"cebpf4jnsgd1na2vs0mg"},{"bike_id":"0c4446e4-dec5-4a86-afc0-7521e5bd1dd8","system_id":"levelo_inurba_marseille","lat":43.24075,"lon":5.37755,"is_reserved":false,"is_disabled":false,"rental_uris":{"android":"levelo://app?vid=0c4446e4-dec5-4a86-afc0-7521e5bd1dd8","ios":"levelo://app?vid=0c4446e4-dec5-4a86-afc0-7521e5bd1dd8"},"vehicle_type_id":"4","last_reported":1770515012,"current_range_meters":4800,"station_id":"ce4bhnp2rcd13ifvqgvg","pricing_plan_id":"cebpf4jnsgd1na2vs0mg"},{"bike_id":"22a18f5a-e84b-4706-acdf-fdede8aeea20","system_id":"levelo_inurba_marseille","lat":43.25874,"lon":5.39904,"is_reserved":false,"is_disabled":false,"rental_uris":{"android":"levelo://app?vid=22a18f5a-e84b-4706-acdf-fdede8aeea20","ios":"levelo://app?vid=22a18f5a-e84b-4706-acdf-fdede8aeea20"},"vehicle_type_id":"4","last_reported":1770515012,"current_range_meters":4800,"station_id":"ce4bhl92rcd13ifvqghg","pricing_plan_id":"cebpf4jnsgd1na2vs0mg"},{"bike_id":"8f456931-6682-4563-a722-91f6bad4b5cf","system_id":"levelo_inurba_marseille","lat":43.29065,"lon":5.3755,"is_reserved":false,"is_disabled":false,"rental_uris":{"android":"levelo://app?vid=8f456931-6682-4563-a722-91f6bad4b5cf","ios":"levelo://app?vid=8f456931-6682-4563-a722-91f6bad4b5cf"},"vehicle_type_id":"4","last_reported":1770515012,"current_range_meters":4800,"station_id":"ce4bh692rcd13ifvqe90","pricing_plan_id":"cebpf4jnsgd1na2vs0mg"},{"bike_id":"3926a99e-82ca-4ee7-a161-a486379736ee","system_id":"levelo_inurba_marseille","lat":43.29872,"lon":5.36877,"is_reserved":false,"is_disabled":false,"rental_uris":{"android":"levelo://app?vid=3926a99e-82ca-4ee7-a161-a486379736ee","ios":"levelo://app?vid=3926a99e-82ca-4ee7-a161-a486379736ee"},"vehicle_type_id":"4","last_reported":1770515012,"current_range_meters":5600,"station_id":"","pricing_plan_id":"cebpf4jnsgd1na2vs0mg"},{"bike_id":"3879a791-2cb6-4a31-b2ea-7fabd25cc045","system_id":"levelo_inurba_marseille","lat":43.2973,"lon":5.38072,"is_reserved":false,"is_disabled":false,"rental_uris":{"android":"levelo://app?vid=3879a791-2cb6-4a31-b2ea-7fabd25cc045","ios":"levelo://app?vid=3879a791-2cb6-4a31-b2ea-7fabd25cc045"},"vehicle_type_id":"4","last_reported":1770515012,"current_range_meters":5600,"station_id":"","pricing_plan_id":"cebpf4jnsgd1na2vs0mg"},{"bike_id":"c2a8a439-33fe-49c7-8bf3-4333c7082516","system_id":"levelo_inurba_marseille","lat":43.27939,"lon":5.41056,"is_reserved":false,"is_disabled":false,"rental_uris":{"android":"levelo://app?vid=c2a8a439-33fe-49c7-8bf3-4333c7082516","ios":"levelo://app?vid=c2a8a439-33fe-49c7-8bf3-4333c7082516"},"vehicle_type_id":"4","last_reported":1770515012,"current_range_meters":5600,"station_id":"ce4bhnp2rcd13ifvqh0g","pricing_plan_id":"cebpf4jnsgd1na2vs0mg"},{"bike_id":"2c09a0f9-e9a0-4d52-b227-0d1dbfce5311","system_id":"levelo_inurba_marseille","lat":43.23785,"lon":5.366318,"is_reserved":false,"is_disabled":false,"rental_uris":{"android":"levelo://app?vid=2c09a0f9-e9a0-4d52-b227-0d1dbfce5311","ios":"levelo://app?vid=2c09a0f9-e9a0-4d52-b227-0d1dbfce5311"},"vehicle_type_id":"4","last_reported":1770515012,"current_range_meters":5600,"station_id":"st_d3nk18o9ro0c73en2l3g","pricing_plan_id":"cebpf4jnsgd1na2vs0mg"},{"bike_id":"e28e99f8-7d45-40f8-98b3-b070827fc4f2","system_id":"levelo_inurba_marseille","lat":43.22557,"lon":5.41633,"is_reserved":false,"is_disabled":false,"rental_uris":{"android":"levelo://app?vid=e28e99f8-7d45-40f8-98b3-b070827fc4f2","ios":"levelo://app?vid=e28e99f8-7d45-40f8-98b3-b070827fc4f2"},"vehicle_type_id":"4","last_reported":1770515012,"current_range_meters":5600,"station_id":"st_d2o4gvlbi1j2169b742g","pricing_plan_id":"cebpf4jnsgd1na2vs0mg"},{"bike_id":"8efb4574-340b-4df3-a8c1-1e7cd9ceeacf","system_id":"levelo_inurba_marseille","lat":43.23191,"lon":5.39991,"is_reserved":false,"is_disabled":false,"rental_uris":{"android":"levelo://app?vid=8efb4574-340b-4df3-a8c1-1e7cd9ceeacf","ios":"levelo://app?vid=8efb4574-340b-4df3-a8c1-1e7cd9ceeacf"},"vehicle_type_id":"4","last_reported":1770515012,"current_range_meters":5600,"station_id":"ce4bhn12rcd13ifvqgqg","pricing_plan_id":"cebpf4jnsgd1na2vs0mg"},{"bike_id":"9ba83d1b-f7bb-42d4-9de7-cbaf279c8ab2","system_id":"levelo_inurba_marseille","lat":43.31713,"lon":5.42398,"is_reserved":false,"is_disabled":false,"rental_uris":{"android":"levelo://app?vid=9ba83d1b-f7bb-42d4-9de7-cbaf279c8ab2","ios":"levelo://app?vid=9ba83d1b-f7bb-42d4-9de7-cbaf279c8ab2"},"vehicle_type_id":"4","last_reported":1770515012,"current_range_meters":5600,"station_id":"ce4bhp92rcd13ifvqhbg","pricing_plan_id":"cebpf4jnsgd1na2vs0mg"},{"bike_id":"03414a6d-caa9-4966-8ffd-1cbcbc02f0d6","system_id":"levelo_inurba_marseille","lat":43.24378,"lon":5.37057,"is_reserved":false,"is_disabled":false,"rental_uris":{"android":"levelo://app?vid=03414a6d-caa9-4966-8ffd-1cbcbc02f0d6","ios":"levelo://app?vid=03414a6d-caa9-4966-8ffd-1cbcbc02f0d6"},"vehicle_type_id":"4","last_reported":1770515012,"current_range_meters":5600,"station_id":"ce4bhhh2rcd13ifvqfk0","pricing_plan_id":"cebpf4jnsgd1na2vs0mg"},{"bike_id":"695a138c-9117-4798-9030-e462ffee3fe5","system_id":"levelo_inurba_marseille","lat":43.24821,"lon":5.37438,"is_reserved":false,"is_disabled":false,"rental_uris":{"android":"levelo://app?vid=695a138c-9117-4798-9030-e462ffee3fe5","ios":"levelo://app?vid=695a138c-9117-4798-9030-e462ffee3fe5"},"vehicle_type_id":"4","last_reported":1770515012,"current_range_meters":5600,"station_id":"ce4bhgh2rcd13ifvqfb0","pricing_plan_id":"cebpf4jnsgd1na2vs0mg"},{"bike_id":"f20a5a19-b64f-43fc-a144-51cc563f05e0","system_id":"levelo_inurba_marseille","lat":43.30798,"lon":5.38164,"is_reserved":false,"is_disabled":false,"rental_uris":{"android":"levelo://app?vid=f20a5a19-b64f-43fc-a144-51cc563f05e0","ios":"levelo://app?vid=f20a5a19-b64f-43fc-a144-51cc563f05e0"},"vehicle_type_id":"4","last_reported":1770515012,"current_range_meters":5600,"station_id":"ce4bgt12rcd13ifvqce0","pricing_plan_id":"cebpf4jnsgd1na2vs0mg"},{"bike_id":"a0a67bd8-5c45-40bf-b3cf-4bc191cf8630","system_id":"levelo_inurba_marseille","lat":43.231458,"lon":5.437288,"is_reserved":false,"is_disabled":false,"rental_uris":{"android":"levelo://app?vid=a0a67bd8-5c45-40bf-b3cf-4bc191cf8630","ios":"levelo://app?vid=a0a67bd8-5c45-40bf-b3cf-4bc191cf8630"},"vehicle_type_id":"4","last_reported":1770515012,"current_range_meters":6000,"station_id":"ce4bhmp2rcd13ifvqgog","pricing_plan_id":"cebpf4jnsgd1na2vs0mg"},{"bike_id":"fb50550a-664f-432c-81a9-9b6ae7c31a3f","system_id":"levelo_inurba_marseille","lat":43.269639,"lon":5.386205,"is_reserved":false,"is_disabled":false,"rental_uris":{"android":"levelo://app?vid=fb50550a-664f-432c-81a9-9b6ae7c31a3f","ios":"levelo://app?vid=fb50550a-664f-432c-81a9-9b6ae7c31a3f"},"vehicle_type_id":"4","last_reported":1770515012,"current_range_meters":6000,"station_id":"ce4bhh92rcd13ifvqfh0","pricing_plan_id":"cebpf4jnsgd1na2vs0mg"},{"bike_id":"ba7d3998-6aab-413e-bad5-f6845958284b","system_id":"levelo_inurba_marseille","lat":43.25121,"lon":5.40311,"is_reserved":false,"is_disabled":false,"rental_uris":{"android":"levelo://app?vid=ba7d3998-6aab-413e-bad5-f6845958284b","ios":"levelo://app?vid=ba7d3998-6aab-413e-bad5-f6845958284b"},"vehicle_type_id":"4","last_reported":1770515012,"current_range_meters":6000,"station_id":"ce4bhlh2rcd13ifvqgig","pricing_plan_id":"cebpf4jnsgd1na2vs0mg"},{"bike_id":"7bddda00-b4a3-467e-857f-177f6c856946","system_id":"levelo_inurba_marseille","lat":43.27994,"lon":5.40004,"is_reserved":false,"is_disabled":false,"rental_uris":{"android":"levelo://app?vid=7bddda00-b4a3-467e-857f-177f6c856946","ios":"levelo://app?vid=7bddda00-b4a3-467e-857f-177f6c856946"},"vehicle_type_id":"4","last_reported":1770515012,"current_range_meters":6000,"station_id":"ce4bho92rcd13ifvqh4g","pricing_plan_id":"cebpf4jnsgd1na2vs0mg"},{"bike_id":"95ddcd5a-bf89-4af0-8832-e9e870a74381","system_id":"levelo_inurba_marseille","lat":43.26222,"lon":5.38857,"is_reserved":false,"is_disabled":false,"rental_uris":{"android":"levelo://app?vid=95ddcd5a-bf89-4af0-8832-e9e870a74381","ios":"levelo://app?vid=95ddcd5a-bf89-4af0-8832-e9e870a74381"},"vehicle_type_id":"4","last_reported":1770515012,"current_range_meters":6000,"station_id":"","pricing_plan_id":"cebpf4jnsgd1na2vs0mg"},{"bike_id":"d7b7c118-575b-4f69-a01a-1a37afc992ca","system_id":"levelo_inurba_marseille","lat":43.32319,"lon":5.38897,"is_reserved":false,"is_disabled":false,"rental_uris":{"android":"levelo://app?vid=d7b7c118-575b-4f69-a01a-1a37afc992ca","ios":"levelo://app?vid=d7b7c118-575b-4f69-a01a-1a37afc992ca"},"vehicle_type_id":"4","last_reported":1770515012,"current_range_meters":6000,"station_id":"ce4bhqp2rcd13ifvqhog","pricing_plan_id":"cebpf4jnsgd1na2vs0mg"},{"bike_id":"f5b3c0bc-b0db-4532-8e2f-eae93141d573","system_id":"levelo_inurba_marseille","lat":43.3354,"lon":5.37452,"is_reserved":false,"is_disabled":false,"rental_uris":{"android":"levelo://app?vid=f5b3c0bc-b0db-4532-8e2f-eae93141d573","ios":"levelo://app?vid=f5b3c0bc-b0db-4532-8e2f-eae93141d573"},"vehicle_type_id":"4","last_reported":1770515012,"current_range_meters":6000,"station_id":"st_d46tts09ee8s73dlu43g","pricing_plan_id":"cebpf4jnsgd1na2vs0mg"},{"bike_id":"1780f274-efef-4868-ad51-2e25c5373fc0","system_id":"levelo_inurba_marseille","lat":43.270676,"lon":5.422748,"is_reserved":false,"is_disabled":false,"rental_uris":{"android":"levelo://app?vid=1780f274-efef-4868-ad51-2e25c5373fc0","ios":"levelo://app?vid=1780f274-efef-4868-ad51-2e25c5373fc0"},"vehicle_type_id":"4","last_reported":1770515012,"current_range_meters":6000,"station_id":"ce4bhk92rcd13ifvqgb0","pricing_plan_id":"cebpf4jnsgd1na2vs0mg"},{"bike_id":"3b71a1ad-0888-4e5c-82a0-0dec693b29d4","system_id":"levelo_inurba_marseille","lat":43.31108,"lon":5.38136,"is_reserved":false,"is_disabled":false,"rental_uris":{"android":"levelo://app?vid=3b71a1ad-0888-4e5c-82a0-0dec693b29d4","ios":"levelo://app?vid=3b71a1ad-0888-4e5c-82a0-0dec693b29d4"},"vehicle_type_id":"4","last_reported":1770515012,"current_range_meters":6000,"station_id":"","pricing_plan_id":"cebpf4jnsgd1na2vs0mg"},{"bike_id":"c3cea571-fb42-4ad7-864e-47ef8f4c3f2d","system_id":"levelo_inurba_marseille","lat":43.23187,"lon":5.35552,"is_reserved":false,"is_disabled":false,"rental_uris":{"android":"levelo://app?vid=c3cea571-fb42-4ad7-864e-47ef8f4c3f2d","ios":"levelo://app?vid=c3cea571-fb42-4ad7-864e-47ef8f4c3f2d"},"vehicle_type_id":"4","last_reported":1770515012,"current_range_meters":6000,"station_id":"ce4bhu92rcd13ifvqi70","pricing_plan_id":"cebpf4jnsgd1na2vs0mg"},{"bike_id":"1204a6ff-2849-4a7e-ac1a-dbb7e4c916de","system_id":"levelo_inurba_marseille","lat":43.2835,"lon":5.38101,"is_reserved":false,"is_disabled":false,"rental_uris":{"android":"levelo://app?vid=1204a6ff-2849-4a7e-ac1a-dbb7e4c916de","ios":"levelo://app?vid=1204a6ff-2849-4a7e-ac1a-dbb7e4c916de"},"vehicle_type_id":"4","last_reported":1770515012,"current_range_meters":6000,"station_id":"ce4bh412rcd13ifvqdr0","pricing_plan_id":"cebpf4jnsgd1na2vs0mg"},{"bike_id":"37810020-311e-4142-81ed-743738c6fb89","system_id":"levelo_inurba_marseille","lat":43.30742,"lon":5.42458,"is_reserved":false,"is_disabled":false,"rental_uris":{"android":"levelo://app?vid=37810020-311e-4142-81ed-743738c6fb89","ios":"levelo://app?vid=37810020-311e-4142-81ed-743738c6fb89"},"vehicle_type_id":"4","last_reported":1770515012,"current_range_meters":6000,"station_id":"st_cvj6ca6bvosntc0bfgr0","pricing_plan_id":"cebpf4jnsgd1na2vs0mg"},{"bike_id":"5b9674b1-287c-4f45-8b09-1bb826924c7c","system_id":"levelo_inurba_marseille","lat":43.30599,"lon":5.39353,"is_reserved":false,"is_disabled":false,"rental_uris":{"android":"levelo://app?vid=5b9674b1-287c-4f45-8b09-1bb826924c7c","ios":"levelo://app?vid=5b9674b1-287c-4f45-8b09-1bb826924c7c"},"vehicle_type_id":"4","last_reported":1770515012,"current_range_meters":6000,"station_id":"ce4bh0p2rcd13ifvqd80","pricing_plan_id":"cebpf4jnsgd1na2vs0mg"},{"bike_id":"71f0848e-0da5-42b2-bd09-102003c22f59","system_id":"levelo_inurba_marseille","lat":43.24952,"lon":5.40491,"is_reserved":false,"is_disabled":false,"rental_uris":{"android":"levelo://app?vid=71f0848e-0da5-42b2-bd09-102003c22f59","ios":"levelo://app?vid=71f0848e-0da5-42b2-bd09-102003c22f59"},"vehicle_type_id":"4","last_reported":1770515012,"current_range_meters":6000,"station_id":"st_d2ngiaodas8pm72gd1h0","pricing_plan_id":"cebpf4jnsgd1na2vs0mg"},{"bike_id":"b834e44c-7a6b-44e2-8b98-4864f68f72bc","system_id":"levelo_inurba_marseille","lat":43.25834,"lon":5.39444,"is_reserved":false,"is_disabled":false,"rental_uris":{"android":"levelo://app?vid=b834e44c-7a6b-44e2-8b98-4864f68f72bc","ios":"levelo://app?vid=b834e44c-7a6b-44e2-8b98-4864f68f72bc"},"vehicle_type_id":"4","last_reported":1770515012,"current_range_meters":6400,"station_id":"ce4bhip2rcd13ifvqft0","pricing_plan_id":"cebpf4jnsgd1na2vs0mg"},{"bike_id":"e8b3f3bc-4896-4dbc-afc4-dfc343612c09","system_id":"levelo_inurba_marseille","lat":43.314387,"lon":5.366947,"is_reserved":false,"is_disabled":false,"rental_uris":{"android":"levelo://app?vid=e8b3f3bc-4896-4dbc-afc4-dfc343612c09","ios":"levelo://app?vid=e8b3f3bc-4896-4dbc-afc4-dfc343612c09"},"vehicle_type_id":"4","last_reported":1770515012,"current_range_meters":6400,"station_id":"","pricing_plan_id":"cebpf4jnsgd1na2vs0mg"},{"bike_id":"3424fe65-7365-4a3d-b40c-9b25ec3af19d","system_id":"levelo_inurba_marseille","lat":43.31322,"lon":5.38722,"is_reserved":false,"is_disabled":false,"rental_uris":{"android":"levelo://app?vid=3424fe65-7365-4a3d-b40c-9b25ec3af19d","ios":"levelo://app?vid=3424fe65-7365-4a3d-b40c-9b25ec3af19d"},"vehicle_type_id":"4","last_reported":1770515012,"current_range_meters":6400,"station_id":"","pricing_plan_id":"cebpf4jnsgd1na2vs0mg"},{"bike_id":"82f38651-b135-48cf-bb30-2efbdc34233b","system_id":"levelo_inurba_marseille","lat":43.298173,"lon":5.440698,"is_reserved":false,"is_disabled":false,"rental_uris":{"android":"levelo://app?vid=82f38651-b135-48cf-bb30-2efbdc34233b","ios":"levelo://app?vid=82f38651-b135-48cf-bb30-2efbdc34233b"},"vehicle_type_id":"4","last_reported":1770515012,"current_range_meters":6400,"station_id":"st_d3jp68qikq2c7381ktn0","pricing_plan_id":"cebpf4jnsgd1na2vs0mg"},{"bike_id":"b92cefea-b054-4668-8b8f-6f3d47fab6c0","system_id":"levelo_inurba_marseille","lat":43.32108,"lon":5.36753,"is_reserved":false,"is_disabled":false,"rental_uris":{"android":"levelo://app?vid=b92cefea-b054-4668-8b8f-6f3d47fab6c0","ios":"levelo://app?vid=b92cefea-b054-4668-8b8f-6f3d47fab6c0"},"vehicle_type_id":"4","last_reported":1770515012,"current_range_meters":6400,"station_id":"ce4bhrh2rcd13ifvqhug","pricing_plan_id":"cebpf4jnsgd1na2vs0mg"},{"bike_id":"c9d2bfb2-7471-46bf-97d6-14603771c306","system_id":"levelo_inurba_marseille","lat":43.24385,"lon":5.37044,"is_reserved":false,"is_disabled":false,"rental_uris":{"android":"levelo://app?vid=c9d2bfb2-7471-46bf-97d6-14603771c306","ios":"levelo://app?vid=c9d2bfb2-7471-46bf-97d6-14603771c306"},"vehicle_type_id":"4","last_reported":1770515012,"current_range_meters":6400,"station_id":"ce4bhhh2rcd13ifvqfk0","pricing_plan_id":"cebpf4jnsgd1na2vs0mg"},{"bike_id":"55701a05-0afd-44f2-b5ec-65dd45bfe15c","system_id":"levelo_inurba_marseille","lat":43.23962,"lon":5.3662,"is_reserved":false,"is_disabled":false,"rental_uris":{"android":"levelo://app?vid=55701a05-0afd-44f2-b5ec-65dd45bfe15c","ios":"levelo://app?vid=55701a05-0afd-44f2-b5ec-65dd45bfe15c"},"vehicle_type_id":"4","last_reported":1770515012,"current_range_meters":6400,"station_id":"ce4bhi12rcd13ifvqfp0","pricing_plan_id":"cebpf4jnsgd1na2vs0mg"},{"bike_id":"07fe9fa6-8ba5-4426-9dc7-81b5cb2cb051","system_id":"levelo_inurba_marseille","lat":43.26575,"lon":5.40309,"is_reserved":false,"is_disabled":false,"rental_uris":{"android":"levelo://app?vid=07fe9fa6-8ba5-4426-9dc7-81b5cb2cb051","ios":"levelo://app?vid=07fe9fa6-8ba5-4426-9dc7-81b5cb2cb051"},"vehicle_type_id":"4","last_reported":1770515012,"current_range_meters":6400,"station_id":"ce4bhmp2rcd13ifvqgng","pricing_plan_id":"cebpf4jnsgd1na2vs0mg"},{"bike_id":"811ecfab-1e6f-4cd1-8960-403c2a502307","system_id":"levelo_inurba_marseille","lat":43.22929,"lon":5.35394,"is_reserved":false,"is_disabled":false,"rental_uris":{"android":"levelo://app?vid=811ecfab-1e6f-4cd1-8960-403c2a502307","ios":"levelo://app?vid=811ecfab-1e6f-4cd1-8960-403c2a502307"},"vehicle_type_id":"4","last_reported":1770515012,"current_range_meters":6400,"station_id":"cpo3532slgdg3j2ikp40","pricing_plan_id":"cebpf4jnsgd1na2vs0mg"},{"bike_id":"6b6b3044-dd0e-4787-8945-aab93fdd08a2","system_id":"levelo_inurba_marseille","lat":43.298206,"lon":5.374005,"is_reserved":false,"is_disabled":false,"rental_uris":{"android":"levelo://app?vid=6b6b3044-dd0e-4787-8945-aab93fdd08a2","ios":"levelo://app?vid=6b6b3044-dd0e-4787-8945-aab93fdd08a2"},"vehicle_type_id":"4","last_reported":1770515012,"current_range_meters":6400,"station_id":"","pricing_plan_id":"cebpf4jnsgd1na2vs0mg"},{"bike_id":"b805cbda-0bcb-43b5-8f11-56fc15ee2f84","system_id":"levelo_inurba_marseille","lat":43.261989,"lon":5.374484,"is_reserved":false,"is_disabled":false,"rental_uris":{"android":"levelo://app?vid=b805cbda-0bcb-43b5-8f11-56fc15ee2f84","ios":"levelo://app?vid=b805cbda-0bcb-43b5-8f11-56fc15ee2f84"},"vehicle_type_id":"4","last_reported":1770515012,"current_range_meters":6400,"station_id":"ce4bhgp2rcd13ifvqfc0","pricing_plan_id":"cebpf4jnsgd1na2vs0mg"},{"bike_id":"a4959c04-5ae9-4c6e-808c-78065e42d366","system_id":"levelo_inurba_marseille","lat":43.27818,"lon":5.40699,"is_reserved":false,"is_disabled":false,"rental_uris":{"android":"levelo://app?vid=a4959c04-5ae9-4c6e-808c-78065e42d366","ios":"levelo://app?vid=a4959c04-5ae9-4c6e-808c-78065e42d366"},"vehicle_type_id":"4","last_reported":1770515012,"current_range_meters":6400,"station_id":"ce4bhnh2rcd13ifvqgtg","pricing_plan_id":"cebpf4jnsgd1na2vs0mg"},{"bike_id":"13a66910-aa65-4559-ba7a-e63b61e82f6f","system_id":"levelo_inurba_marseille","lat":43.29568,"lon":5.42306,"is_reserved":false,"is_disabled":false,"rental_uris":{"android":"levelo://app?vid=13a66910-aa65-4559-ba7a-e63b61e82f6f","ios":"levelo://app?vid=13a66910-aa65-4559-ba7a-e63b61e82f6f"},"vehicle_type_id":"4","last_reported":1770515012,"current_range_meters":6400,"station_id":"ce4bhph2rcd13ifvqhdg","pricing_plan_id":"cebpf4jnsgd1na2vs0mg"},{"bike_id":"ff981718-737a-46d1-b7ba-67de65affffe","system_id":"levelo_inurba_marseille","lat":43.25859,"lon":5.3991,"is_reserved":false,"is_disabled":false,"rental_uris":{"android":"levelo://app?vid=ff981718-737a-46d1-b7ba-67de65affffe","ios":"levelo://app?vid=ff981718-737a-46d1-b7ba-67de65affffe"},"vehicle_type_id":"4","last_reported":1770515012,"current_range_meters":6400,"station_id":"ce4bhl92rcd13ifvqghg","pricing_plan_id":"cebpf4jnsgd1na2vs0mg"},{"bike_id":"72ea63b3-1230-4860-ad81-641e0e69dbb6","system_id":"levelo_inurba_marseille","lat":43.27993,"lon":5.40005,"is_reserved":false,"is_disabled":false,"rental_uris":{"android":"levelo://app?vid=72ea63b3-1230-4860-ad81-641e0e69dbb6","ios":"levelo://app?vid=72ea63b3-1230-4860-ad81-641e0e69dbb6"},"vehicle_type_id":"4","last_reported":1770515012,"current_range_meters":6400,"station_id":"ce4bho92rcd13ifvqh4g","pricing_plan_id":"cebpf4jnsgd1na2vs0mg"},{"bike_id":"a85d500c-1b7e-4b3f-bba8-c0b38aec10c6","system_id":"levelo_inurba_marseille","lat":43.25924,"lon":5.40883,"is_reserved":false,"is_disabled":false,"rental_uris":{"android":"levelo://app?vid=a85d500c-1b7e-4b3f-bba8-c0b38aec10c6","ios":"levelo://app?vid=a85d500c-1b7e-4b3f-bba8-c0b38aec10c6"},"vehicle_type_id":"4","last_reported":1770515012,"current_range_meters":6400,"station_id":"ce4bhm92rcd13ifvqglg","pricing_plan_id":"cebpf4jnsgd1na2vs0mg"},{"bike_id":"4308129b-6751-4273-bbe8-20208f30cb65","system_id":"levelo_inurba_marseille","lat":43.22928,"lon":5.35386,"is_reserved":false,"is_disabled":false,"rental_uris":{"android":"levelo://app?vid=4308129b-6751-4273-bbe8-20208f30cb65","ios":"levelo://app?vid=4308129b-6751-4273-bbe8-20208f30cb65"},"vehicle_type_id":"4","last_reported":1770515012,"current_range_meters":6400,"station_id":"cpo3532slgdg3j2ikp40","pricing_plan_id":"cebpf4jnsgd1na2vs0mg"},{"bike_id":"72bda1ac-8887-4b27-9e63-8abca8128156","system_id":"levelo_inurba_marseille","lat":43.31044,"lon":5.3717,"is_reserved":false,"is_disabled":false,"rental_uris":{"android":"levelo://app?vid=72bda1ac-8887-4b27-9e63-8abca8128156","ios":"levelo://app?vid=72bda1ac-8887-4b27-9e63-8abca8128156"},"vehicle_type_id":"4","last_reported":1770515012,"current_range_meters":6400,"station_id":"st_d4kl2rp97mjs73e7tdfg","pricing_plan_id":"cebpf4jnsgd1na2vs0mg"},{"bike_id":"98794222-3714-41d8-945d-7f3fd3af2bf0","system_id":"levelo_inurba_marseille","lat":43.24816,"lon":5.37446,"is_reserved":false,"is_disabled":false,"rental_uris":{"android":"levelo://app?vid=98794222-3714-41d8-945d-7f3fd3af2bf0","ios":"levelo://app?vid=98794222-3714-41d8-945d-7f3fd3af2bf0"},"vehicle_type_id":"4","last_reported":1770515012,"current_range_meters":6400,"station_id":"ce4bhgh2rcd13ifvqfb0","pricing_plan_id":"cebpf4jnsgd1na2vs0mg"},{"bike_id":"3aed5847-38a3-483f-a302-c0e755a4674d","system_id":"levelo_inurba_marseille","lat":43.26401,"lon":5.41041,"is_reserved":false,"is_disabled":false,"rental_uris":{"android":"levelo://app?vid=3aed5847-38a3-483f-a302-c0e755a4674d","ios":"levelo://app?vid=3aed5847-38a3-483f-a302-c0e755a4674d"},"vehicle_type_id":"4","last_reported":1770515012,"current_range_meters":6400,"station_id":"","pricing_plan_id":"cebpf4jnsgd1na2vs0mg"},{"bike_id":"f9d37266-9682-498f-a6e7-d7da4f9102e7","system_id":"levelo_inurba_marseille","lat":43.30897,"lon":5.36875,"is_reserved":false,"is_disabled":false,"rental_uris":{"android":"levelo://app?vid=f9d37266-9682-498f-a6e7-d7da4f9102e7","ios":"levelo://app?vid=f9d37266-9682-498f-a6e7-d7da4f9102e7"},"vehicle_type_id":"4","last_reported":1770515012,"current_range_meters":6400,"station_id":"ce4bgn92rcd13ifvqbvg","pricing_plan_id":"cebpf4jnsgd1na2vs0mg"},{"bike_id":"ac7495b1-c2ec-4a50-847c-86b968614ded","system_id":"levelo_inurba_marseille","lat":43.307437,"lon":5.395864,"is_reserved":false,"is_disabled":false,"rental_uris":{"android":"levelo://app?vid=ac7495b1-c2ec-4a50-847c-86b968614ded","ios":"levelo://app?vid=ac7495b1-c2ec-4a50-847c-86b968614ded"},"vehicle_type_id":"4","last_reported":1770515012,"current_range_meters":6400,"station_id":"ce4bh012rcd13ifvqcv0","pricing_plan_id":"cebpf4jnsgd1na2vs0mg"},{"bike_id":"b0331170-4722-484f-85fa-ff26f59380f0","system_id":"levelo_inurba_marseille","lat":43.29499,"lon":5.43295,"is_reserved":false,"is_disabled":false,"rental_uris":{"android":"levelo://app?vid=b0331170-4722-484f-85fa-ff26f59380f0","ios":"levelo://app?vid=b0331170-4722-484f-85fa-ff26f59380f0"},"vehicle_type_id":"4","last_reported":1770515012,"current_range_meters":6400,"station_id":"st_d3j5ugp08ojc73fj9d10","pricing_plan_id":"cebpf4jnsgd1na2vs0mg"},{"bike_id":"bb5cab08-186f-4af0-9cfa-2f009cafe5c6","system_id":"levelo_inurba_marseille","lat":43.22918,"lon":5.35381,"is_reserved":false,"is_disabled":false,"rental_uris":{"android":"levelo://app?vid=bb5cab08-186f-4af0-9cfa-2f009cafe5c6","ios":"levelo://app?vid=bb5cab08-186f-4af0-9cfa-2f009cafe5c6"},"vehicle_type_id":"4","last_reported":1770515012,"current_range_meters":6800,"station_id":"cpo3532slgdg3j2ikp40","pricing_plan_id":"cebpf4jnsgd1na2vs0mg"},{"bike_id":"8447ecbd-39cd-405d-b959-6454fa2aa80a","system_id":"levelo_inurba_marseille","lat":43.30138,"lon":5.39846,"is_reserved":false,"is_disabled":false,"rental_uris":{"android":"levelo://app?vid=8447ecbd-39cd-405d-b959-6454fa2aa80a","ios":"levelo://app?vid=8447ecbd-39cd-405d-b959-6454fa2aa80a"},"vehicle_type_id":"4","last_reported":1770515012,"current_range_meters":6800,"station_id":"ce4bh0h2rcd13ifvqd40","pricing_plan_id":"cebpf4jnsgd1na2vs0mg"},{"bike_id":"9dadd4c2-97fc-4ce7-a20f-b7c55300a138","system_id":"levelo_inurba_marseille","lat":43.29814,"lon":5.4406,"is_reserved":false,"is_disabled":false,"rental_uris":{"android":"levelo://app?vid=9dadd4c2-97fc-4ce7-a20f-b7c55300a138","ios":"levelo://app?vid=9dadd4c2-97fc-4ce7-a20f-b7c55300a138"},"vehicle_type_id":"4","last_reported":1770515012,"current_range_meters":6800,"station_id":"st_d3jp68qikq2c7381ktn0","pricing_plan_id":"cebpf4jnsgd1na2vs0mg"},{"bike_id":"a8166b5b-d24f-4bfd-bc3a-e719ac9d4b2e","system_id":"levelo_inurba_marseille","lat":43.280405,"lon":5.408878,"is_reserved":false,"is_disabled":false,"rental_uris":{"android":"levelo://app?vid=a8166b5b-d24f-4bfd-bc3a-e719ac9d4b2e","ios":"levelo://app?vid=a8166b5b-d24f-4bfd-bc3a-e719ac9d4b2e"},"vehicle_type_id":"4","last_reported":1770515012,"current_range_meters":6800,"station_id":"","pricing_plan_id":"cebpf4jnsgd1na2vs0mg"},{"bike_id":"4940192c-cd9e-43b0-a8dd-fd4c04e7805e","system_id":"levelo_inurba_marseille","lat":43.22559,"lon":5.41647,"is_reserved":false,"is_disabled":false,"rental_uris":{"android":"levelo://app?vid=4940192c-cd9e-43b0-a8dd-fd4c04e7805e","ios":"levelo://app?vid=4940192c-cd9e-43b0-a8dd-fd4c04e7805e"},"vehicle_type_id":"4","last_reported":1770515012,"current_range_meters":6800,"station_id":"st_d2o4gvlbi1j2169b742g","pricing_plan_id":"cebpf4jnsgd1na2vs0mg"},{"bike_id":"32641f13-9d93-4f9b-b623-ce0c373ebef8","system_id":"levelo_inurba_marseille","lat":43.284995,"lon":5.384047,"is_reserved":false,"is_disabled":false,"rental_uris":{"android":"levelo://app?vid=32641f13-9d93-4f9b-b623-ce0c373ebef8","ios":"levelo://app?vid=32641f13-9d93-4f9b-b623-ce0c373ebef8"},"vehicle_type_id":"4","last_reported":1770515012,"current_range_meters":6800,"station_id":"ce4bh512rcd13ifvqe3g","pricing_plan_id":"cebpf4jnsgd1na2vs0mg"},{"bike_id":"386b4487-f2a2-455b-8ef5-022f78fae20f","system_id":"levelo_inurba_marseille","lat":43.248243,"lon":5.374636,"is_reserved":false,"is_disabled":false,"rental_uris":{"android":"levelo://app?vid=386b4487-f2a2-455b-8ef5-022f78fae20f","ios":"levelo://app?vid=386b4487-f2a2-455b-8ef5-022f78fae20f"},"vehicle_type_id":"4","last_reported":1770515012,"current_range_meters":6800,"station_id":"ce4bhgh2rcd13ifvqfb0","pricing_plan_id":"cebpf4jnsgd1na2vs0mg"},{"bike_id":"574a237c-726e-4c0f-b75b-afd451cb0719","system_id":"levelo_inurba_marseille","lat":43.2416,"lon":5.3974,"is_reserved":false,"is_disabled":false,"rental_uris":{"android":"levelo://app?vid=574a237c-726e-4c0f-b75b-afd451cb0719","ios":"levelo://app?vid=574a237c-726e-4c0f-b75b-afd451cb0719"},"vehicle_type_id":"4","last_reported":1770515012,"current_range_meters":6800,"station_id":"ce4bhn12rcd13ifvqgpg","pricing_plan_id":"cebpf4jnsgd1na2vs0mg"},{"bike_id":"699fac07-9b50-471a-988d-02036968b5f7","system_id":"levelo_inurba_marseille","lat":43.29034,"lon":5.38648,"is_reserved":false,"is_disabled":false,"rental_uris":{"android":"levelo://app?vid=699fac07-9b50-471a-988d-02036968b5f7","ios":"levelo://app?vid=699fac07-9b50-471a-988d-02036968b5f7"},"vehicle_type_id":"4","last_reported":1770515012,"current_range_meters":6800,"station_id":"ce4bh4p2rcd13ifvqe0g","pricing_plan_id":"cebpf4jnsgd1na2vs0mg"},{"bike_id":"6d4d7125-f230-40ff-9866-8a80f2da0b0b","system_id":"levelo_inurba_marseille","lat":43.22933,"lon":5.35374,"is_reserved":false,"is_disabled":false,"rental_uris":{"android":"levelo://app?vid=6d4d7125-f230-40ff-9866-8a80f2da0b0b","ios":"levelo://app?vid=6d4d7125-f230-40ff-9866-8a80f2da0b0b"},"vehicle_type_id":"4","last_reported":1770515012,"current_range_meters":6800,"station_id":"cpo3532slgdg3j2ikp40","pricing_plan_id":"cebpf4jnsgd1na2vs0mg"},{"bike_id":"7d133632-afa7-496a-89cf-31f9337d1c83","system_id":"levelo_inurba_marseille","lat":43.29065,"lon":5.37159,"is_reserved":false,"is_disabled":true,"rental_uris":{"android":"levelo://app?vid=7d133632-afa7-496a-89cf-31f9337d1c83","ios":"levelo://app?vid=7d133632-afa7-496a-89cf-31f9337d1c83"},"vehicle_type_id":"4","last_reported":1770515012,"current_range_meters":6800,"station_id":"ce4bh5p2rcd13ifvqe4g","pricing_plan_id":"cebpf4jnsgd1na2vs0mg"},{"bike_id":"da01ebd3-fc49-4158-857b-11e2862b753c","system_id":"levelo_inurba_marseille","lat":43.3066,"lon":5.40087,"is_reserved":false,"is_disabled":false,"rental_uris":{"android":"levelo://app?vid=da01ebd3-fc49-4158-857b-11e2862b753c","ios":"levelo://app?vid=da01ebd3-fc49-4158-857b-11e2862b753c"},"vehicle_type_id":"4","last_reported":1770515012,"current_range_meters":6800,"station_id":"ce4bh112rcd13ifvqda0","pricing_plan_id":"cebpf4jnsgd1na2vs0mg"},{"bike_id":"9c27da16-0b95-483f-acc9-aaafd261f73e","system_id":"levelo_inurba_marseille","lat":43.30898,"lon":5.36851,"is_reserved":false,"is_disabled":false,"rental_uris":{"android":"levelo://app?vid=9c27da16-0b95-483f-acc9-aaafd261f73e","ios":"levelo://app?vid=9c27da16-0b95-483f-acc9-aaafd261f73e"},"vehicle_type_id":"4","last_reported":1770515012,"current_range_meters":6800,"station_id":"ce4bgn92rcd13ifvqbvg","pricing_plan_id":"cebpf4jnsgd1na2vs0mg"},{"bike_id":"83eab603-5a81-40a3-afcb-498eea091594","system_id":"levelo_inurba_marseille","lat":43.28667,"lon":5.38672,"is_reserved":false,"is_disabled":false,"rental_uris":{"android":"levelo://app?vid=83eab603-5a81-40a3-afcb-498eea091594","ios":"levelo://app?vid=83eab603-5a81-40a3-afcb-498eea091594"},"vehicle_type_id":"4","last_reported":1770515012,"current_range_meters":6800,"station_id":"ce4bh492rcd13ifvqdug","pricing_plan_id":"cebpf4jnsgd1na2vs0mg"},{"bike_id":"b5ef2479-08bc-4926-bde6-95f0bd6a5a92","system_id":"levelo_inurba_marseille","lat":43.31497,"lon":5.37301,"is_reserved":false,"is_disabled":false,"rental_uris":{"android":"levelo://app?vid=b5ef2479-08bc-4926-bde6-95f0bd6a5a92","ios":"levelo://app?vid=b5ef2479-08bc-4926-bde6-95f0bd6a5a92"},"vehicle_type_id":"4","last_reported":1770515012,"current_range_meters":6800,"station_id":"ce4bgt12rcd13ifvqcd0","pricing_plan_id":"cebpf4jnsgd1na2vs0mg"},{"bike_id":"d3a22fa1-959e-477b-ba1b-5bfadf6f3dfe","system_id":"levelo_inurba_marseille","lat":43.30547,"lon":5.36543,"is_reserved":false,"is_disabled":false,"rental_uris":{"android":"levelo://app?vid=d3a22fa1-959e-477b-ba1b-5bfadf6f3dfe","ios":"levelo://app?vid=d3a22fa1-959e-477b-ba1b-5bfadf6f3dfe"},"vehicle_type_id":"4","last_reported":1770515012,"current_range_meters":6800,"station_id":"ce4bgs12rcd13ifvqcag","pricing_plan_id":"cebpf4jnsgd1na2vs0mg"},{"bike_id":"11616263-142c-4dd0-a9e9-585090690c40","system_id":"levelo_inurba_marseille","lat":43.2463,"lon":5.43127,"is_reserved":false,"is_disabled":false,"rental_uris":{"android":"levelo://app?vid=11616263-142c-4dd0-a9e9-585090690c40","ios":"levelo://app?vid=11616263-142c-4dd0-a9e9-585090690c40"},"vehicle_type_id":"4","last_reported":1770515012,"current_range_meters":7200,"station_id":"st_d2m6c4gdas8pm72e190g","pricing_plan_id":"cebpf4jnsgd1na2vs0mg"},{"bike_id":"54a9192b-0dd6-49f6-978b-5e71126fb367","system_id":"levelo_inurba_marseille","lat":43.26198,"lon":5.37925,"is_reserved":false,"is_disabled":false,"rental_uris":{"android":"levelo://app?vid=54a9192b-0dd6-49f6-978b-5e71126fb367","ios":"levelo://app?vid=54a9192b-0dd6-49f6-978b-5e71126fb367"},"vehicle_type_id":"4","last_reported":1770515012,"current_range_meters":7200,"station_id":"ce4bhjp2rcd13ifvqg90","pricing_plan_id":"cebpf4jnsgd1na2vs0mg"},{"bike_id":"1fad33a2-7d12-4619-8ecd-0f78a270560b","system_id":"levelo_inurba_marseille","lat":43.2502,"lon":5.37517,"is_reserved":false,"is_disabled":false,"rental_uris":{"android":"levelo://app?vid=1fad33a2-7d12-4619-8ecd-0f78a270560b","ios":"levelo://app?vid=1fad33a2-7d12-4619-8ecd-0f78a270560b"},"vehicle_type_id":"4","last_reported":1770515012,"current_range_meters":7200,"station_id":"","pricing_plan_id":"cebpf4jnsgd1na2vs0mg"},{"bike_id":"03431b60-4c57-4b38-a44e-dd832c690cfa","system_id":"levelo_inurba_marseille","lat":43.28486,"lon":5.38446,"is_reserved":false,"is_disabled":false,"rental_uris":{"android":"levelo://app?vid=03431b60-4c57-4b38-a44e-dd832c690cfa","ios":"levelo://app?vid=03431b60-4c57-4b38-a44e-dd832c690cfa"},"vehicle_type_id":"4","last_reported":1770515012,"current_range_meters":7200,"station_id":"ce4bh512rcd13ifvqe3g","pricing_plan_id":"cebpf4jnsgd1na2vs0mg"},{"bike_id":"0e3a8156-89e1-4aaa-9470-9fe874c9bf68","system_id":"levelo_inurba_marseille","lat":43.27427,"lon":5.39422,"is_reserved":false,"is_disabled":false,"rental_uris":{"android":"levelo://app?vid=0e3a8156-89e1-4aaa-9470-9fe874c9bf68","ios":"levelo://app?vid=0e3a8156-89e1-4aaa-9470-9fe874c9bf68"},"vehicle_type_id":"4","last_reported":1770515012,"current_range_meters":7200,"station_id":"ce4bhdp2rcd13ifvqf20","pricing_plan_id":"cebpf4jnsgd1na2vs0mg"},{"bike_id":"cf390b5c-61cb-46fb-b3b1-927002842a8d","system_id":"levelo_inurba_marseille","lat":43.28849,"lon":5.35858,"is_reserved":false,"is_disabled":false,"rental_uris":{"android":"levelo://app?vid=cf390b5c-61cb-46fb-b3b1-927002842a8d","ios":"levelo://app?vid=cf390b5c-61cb-46fb-b3b1-927002842a8d"},"vehicle_type_id":"4","last_reported":1770515012,"current_range_meters":7200,"station_id":"ce4bhb12rcd13ifvqem0","pricing_plan_id":"cebpf4jnsgd1na2vs0mg"},{"bike_id":"fbd9eeb2-6850-4fba-8345-4c2d5dbc36f3","system_id":"levelo_inurba_marseille","lat":43.27812,"lon":5.40712,"is_reserved":false,"is_disabled":false,"rental_uris":{"android":"levelo://app?vid=fbd9eeb2-6850-4fba-8345-4c2d5dbc36f3","ios":"levelo://app?vid=fbd9eeb2-6850-4fba-8345-4c2d5dbc36f3"},"vehicle_type_id":"4","last_reported":1770515012,"current_range_meters":7200,"station_id":"ce4bhnh2rcd13ifvqgtg","pricing_plan_id":"cebpf4jnsgd1na2vs0mg"},{"bike_id":"e4a0f913-c11d-44fe-9550-8902e8340c94","system_id":"levelo_inurba_marseille","lat":43.24819,"lon":5.37461,"is_reserved":false,"is_disabled":false,"rental_uris":{"android":"levelo://app?vid=e4a0f913-c11d-44fe-9550-8902e8340c94","ios":"levelo://app?vid=e4a0f913-c11d-44fe-9550-8902e8340c94"},"vehicle_type_id":"4","last_reported":1770515012,"current_range_meters":7200,"station_id":"ce4bhgh2rcd13ifvqfb0","pricing_plan_id":"cebpf4jnsgd1na2vs0mg"},{"bike_id":"006f45de-433c-4fe3-81a6-3dac1db63eac","system_id":"levelo_inurba_marseille","lat":43.244682,"lon":5.425389,"is_reserved":false,"is_disabled":false,"rental_uris":{"android":"levelo://app?vid=006f45de-433c-4fe3-81a6-3dac1db63eac","ios":"levelo://app?vid=006f45de-433c-4fe3-81a6-3dac1db63eac"},"vehicle_type_id":"4","last_reported":1770515012,"current_range_meters":7200,"station_id":"st_d4a3vfp97mjs738cd8kg","pricing_plan_id":"cebpf4jnsgd1na2vs0mg"},{"bike_id":"508fb8b9-4cee-4799-8b3b-fa3d800ff13e","system_id":"levelo_inurba_marseille","lat":43.33551,"lon":5.37465,"is_reserved":false,"is_disabled":false,"rental_uris":{"android":"levelo://app?vid=508fb8b9-4cee-4799-8b3b-fa3d800ff13e","ios":"levelo://app?vid=508fb8b9-4cee-4799-8b3b-fa3d800ff13e"},"vehicle_type_id":"4","last_reported":1770515012,"current_range_meters":7200,"station_id":"st_d46tts09ee8s73dlu43g","pricing_plan_id":"cebpf4jnsgd1na2vs0mg"},{"bike_id":"0c0f8a2f-9a4d-41d4-989d-0153bebb1c3c","system_id":"levelo_inurba_marseille","lat":43.24658,"lon":5.38879,"is_reserved":false,"is_disabled":false,"rental_uris":{"android":"levelo://app?vid=0c0f8a2f-9a4d-41d4-989d-0153bebb1c3c","ios":"levelo://app?vid=0c0f8a2f-9a4d-41d4-989d-0153bebb1c3c"},"vehicle_type_id":"4","last_reported":1770515012,"current_range_meters":7200,"station_id":"ce4bhg12rcd13ifvqf60","pricing_plan_id":"cebpf4jnsgd1na2vs0mg"},{"bike_id":"8b60bedc-1714-4364-b8d8-7b9519b958c8","system_id":"levelo_inurba_marseille","lat":43.284534,"lon":5.358894,"is_reserved":false,"is_disabled":false,"rental_uris":{"android":"levelo://app?vid=8b60bedc-1714-4364-b8d8-7b9519b958c8","ios":"levelo://app?vid=8b60bedc-1714-4364-b8d8-7b9519b958c8"},"vehicle_type_id":"4","last_reported":1770515012,"current_range_meters":7200,"station_id":"ce4bhah2rcd13ifvqei0","pricing_plan_id":"cebpf4jnsgd1na2vs0mg"},{"bike_id":"ea8c0580-dee3-43f3-bf01-1aa8969bd163","system_id":"levelo_inurba_marseille","lat":43.24164,"lon":5.36413,"is_reserved":false,"is_disabled":false,"rental_uris":{"android":"levelo://app?vid=ea8c0580-dee3-43f3-bf01-1aa8969bd163","ios":"levelo://app?vid=ea8c0580-dee3-43f3-bf01-1aa8969bd163"},"vehicle_type_id":"4","last_reported":1770515012,"current_range_meters":7200,"station_id":"cpo36qri1sfpv3e86is0","pricing_plan_id":"cebpf4jnsgd1na2vs0mg"},{"bike_id":"6216461a-536b-4362-ac08-815386365ad7","system_id":"levelo_inurba_marseille","lat":43.30122,"lon":5.4312,"is_reserved":false,"is_disabled":false,"rental_uris":{"android":"levelo://app?vid=6216461a-536b-4362-ac08-815386365ad7","ios":"levelo://app?vid=6216461a-536b-4362-ac08-815386365ad7"},"vehicle_type_id":"4","last_reported":1770515012,"current_range_meters":7200,"station_id":"st_d3js3co5814s73ftftug","pricing_plan_id":"cebpf4jnsgd1na2vs0mg"},{"bike_id":"6a144693-7691-4af0-a94f-86308d14d8c0","system_id":"levelo_inurba_marseille","lat":43.25953,"lon":5.40879,"is_reserved":false,"is_disabled":false,"rental_uris":{"android":"levelo://app?vid=6a144693-7691-4af0-a94f-86308d14d8c0","ios":"levelo://app?vid=6a144693-7691-4af0-a94f-86308d14d8c0"},"vehicle_type_id":"4","last_reported":1770515012,"current_range_meters":7200,"station_id":"ce4bhm92rcd13ifvqglg","pricing_plan_id":"cebpf4jnsgd1na2vs0mg"},{"bike_id":"09986119-327c-45bf-b6a8-e15c339167ea","system_id":"levelo_inurba_marseille","lat":43.2851,"lon":5.43963,"is_reserved":false,"is_disabled":false,"rental_uris":{"android":"levelo://app?vid=09986119-327c-45bf-b6a8-e15c339167ea","ios":"levelo://app?vid=09986119-327c-45bf-b6a8-e15c339167ea"},"vehicle_type_id":"4","last_reported":1770515012,"current_range_meters":7200,"station_id":"","pricing_plan_id":"cebpf4jnsgd1na2vs0mg"},{"bike_id":"d9d493c8-2229-4bda-a958-4c19d5464801","system_id":"levelo_inurba_marseille","lat":43.25868,"lon":5.39898,"is_reserved":false,"is_disabled":false,"rental_uris":{"android":"levelo://app?vid=d9d493c8-2229-4bda-a958-4c19d5464801","ios":"levelo://app?vid=d9d493c8-2229-4bda-a958-4c19d5464801"},"vehicle_type_id":"4","last_reported":1770515012,"current_range_meters":7200,"station_id":"ce4bhl92rcd13ifvqghg","pricing_plan_id":"cebpf4jnsgd1na2vs0mg"},{"bike_id":"f4f1e3a6-3fe6-4f67-be28-c3046d66a285","system_id":"levelo_inurba_marseille","lat":43.292611,"lon":5.384434,"is_reserved":false,"is_disabled":false,"rental_uris":{"android":"levelo://app?vid=f4f1e3a6-3fe6-4f67-be28-c3046d66a285","ios":"levelo://app?vid=f4f1e3a6-3fe6-4f67-be28-c3046d66a285"},"vehicle_type_id":"4","last_reported":1770515012,"current_range_meters":7200,"station_id":"ce4bh692rcd13ifvqea0","pricing_plan_id":"cebpf4jnsgd1na2vs0mg"},{"bike_id":"c01c1eb5-02d8-4153-9e4a-3fd3df699b4d","system_id":"levelo_inurba_marseille","lat":43.27995,"lon":5.41666,"is_reserved":false,"is_disabled":false,"rental_uris":{"android":"levelo://app?vid=c01c1eb5-02d8-4153-9e4a-3fd3df699b4d","ios":"levelo://app?vid=c01c1eb5-02d8-4153-9e4a-3fd3df699b4d"},"vehicle_type_id":"4","last_reported":1770515012,"current_range_meters":7200,"station_id":"ce4bho12rcd13ifvqh1g","pricing_plan_id":"cebpf4jnsgd1na2vs0mg"},{"bike_id":"6f89f4e4-c473-41ea-a26d-a79e891f1712","system_id":"levelo_inurba_marseille","lat":43.29496,"lon":5.38537,"is_reserved":false,"is_disabled":false,"rental_uris":{"android":"levelo://app?vid=6f89f4e4-c473-41ea-a26d-a79e891f1712","ios":"levelo://app?vid=6f89f4e4-c473-41ea-a26d-a79e891f1712"},"vehicle_type_id":"4","last_reported":1770515012,"current_range_meters":7200,"station_id":"ce4bgih2rcd13ifvqba0","pricing_plan_id":"cebpf4jnsgd1na2vs0mg"},{"bike_id":"4c1d817c-2311-4829-b074-c35d06d3a077","system_id":"levelo_inurba_marseille","lat":43.2293,"lon":5.35389,"is_reserved":false,"is_disabled":false,"rental_uris":{"android":"levelo://app?vid=4c1d817c-2311-4829-b074-c35d06d3a077","ios":"levelo://app?vid=4c1d817c-2311-4829-b074-c35d06d3a077"},"vehicle_type_id":"4","last_reported":1770515012,"current_range_meters":7200,"station_id":"cpo3532slgdg3j2ikp40","pricing_plan_id":"cebpf4jnsgd1na2vs0mg"},{"bike_id":"2723bad2-b514-4361-848d-5835269c8929","system_id":"levelo_inurba_marseille","lat":43.2929,"lon":5.37192,"is_reserved":false,"is_disabled":false,"rental_uris":{"android":"levelo://app?vid=2723bad2-b514-4361-848d-5835269c8929","ios":"levelo://app?vid=2723bad2-b514-4361-848d-5835269c8929"},"vehicle_type_id":"4","last_reported":1770515012,"current_range_meters":7200,"station_id":"ce4bgh92rcd13ifvqb40","pricing_plan_id":"cebpf4jnsgd1na2vs0mg"},{"bike_id":"0b6255f9-a163-480d-9b2a-40a4ae3b5e02","system_id":"levelo_inurba_marseille","lat":43.30294,"lon":5.39213,"is_reserved":false,"is_disabled":false,"rental_uris":{"android":"levelo://app?vid=0b6255f9-a163-480d-9b2a-40a4ae3b5e02","ios":"levelo://app?vid=0b6255f9-a163-480d-9b2a-40a4ae3b5e02"},"vehicle_type_id":"4","last_reported":1770515012,"current_range_meters":7200,"station_id":"ce4bgkh2rcd13ifvqbk0","pricing_plan_id":"cebpf4jnsgd1na2vs0mg"},{"bike_id":"21218ed3-4127-43a8-b5ab-78f41b2c392f","system_id":"levelo_inurba_marseille","lat":43.27975,"lon":5.38746,"is_reserved":false,"is_disabled":false,"rental_uris":{"android":"levelo://app?vid=21218ed3-4127-43a8-b5ab-78f41b2c392f","ios":"levelo://app?vid=21218ed3-4127-43a8-b5ab-78f41b2c392f"},"vehicle_type_id":"4","last_reported":1770515012,"current_range_meters":8000,"station_id":"ce4bhg12rcd13ifvqf80","pricing_plan_id":"cebpf4jnsgd1na2vs0mg"},{"bike_id":"781e3167-75c5-4573-807b-ac232a303387","system_id":"levelo_inurba_marseille","lat":43.32355,"lon":5.36748,"is_reserved":false,"is_disabled":false,"rental_uris":{"android":"levelo://app?vid=781e3167-75c5-4573-807b-ac232a303387","ios":"levelo://app?vid=781e3167-75c5-4573-807b-ac232a303387"},"vehicle_type_id":"4","last_reported":1770515012,"current_range_meters":8000,"station_id":"ce4bhsh2rcd13ifvqi2g","pricing_plan_id":"cebpf4jnsgd1na2vs0mg"},{"bike_id":"1fadaaed-784b-4068-aea6-51ecb260f263","system_id":"levelo_inurba_marseille","lat":43.28719,"lon":5.3755,"is_reserved":false,"is_disabled":false,"rental_uris":{"android":"levelo://app?vid=1fadaaed-784b-4068-aea6-51ecb260f263","ios":"levelo://app?vid=1fadaaed-784b-4068-aea6-51ecb260f263"},"vehicle_type_id":"4","last_reported":1770515012,"current_range_meters":8000,"station_id":"","pricing_plan_id":"cebpf4jnsgd1na2vs0mg"},{"bike_id":"e6d03073-11a9-495e-8d13-201bb403d1fc","system_id":"levelo_inurba_marseille","lat":43.21188,"lon":5.35065,"is_reserved":false,"is_disabled":false,"rental_uris":{"android":"levelo://app?vid=e6d03073-11a9-495e-8d13-201bb403d1fc","ios":"levelo://app?vid=e6d03073-11a9-495e-8d13-201bb403d1fc"},"vehicle_type_id":"4","last_reported":1770515012,"current_range_meters":8000,"station_id":"st_cvj6sg6p6f1abm77japg","pricing_plan_id":"cebpf4jnsgd1na2vs0mg"},{"bike_id":"f347f38b-586a-47f7-87b2-e9623efd8a40","system_id":"levelo_inurba_marseille","lat":43.31492,"lon":5.3731,"is_reserved":false,"is_disabled":false,"rental_uris":{"android":"levelo://app?vid=f347f38b-586a-47f7-87b2-e9623efd8a40","ios":"levelo://app?vid=f347f38b-586a-47f7-87b2-e9623efd8a40"},"vehicle_type_id":"4","last_reported":1770515012,"current_range_meters":8000,"station_id":"ce4bgt12rcd13ifvqcd0","pricing_plan_id":"cebpf4jnsgd1na2vs0mg"},{"bike_id":"5e1c107b-6624-40f0-998c-ef84f3d71a9b","system_id":"levelo_inurba_marseille","lat":43.27338,"lon":5.39078,"is_reserved":false,"is_disabled":true,"rental_uris":{"android":"levelo://app?vid=5e1c107b-6624-40f0-998c-ef84f3d71a9b","ios":"levelo://app?vid=5e1c107b-6624-40f0-998c-ef84f3d71a9b"},"vehicle_type_id":"4","last_reported":1770515012,"current_range_meters":8000,"station_id":"ce4bhgp2rcd13ifvqfe0","pricing_plan_id":"cebpf4jnsgd1na2vs0mg"},{"bike_id":"101f6987-eef1-44d8-95ac-6b0082cfbb32","system_id":"levelo_inurba_marseille","lat":43.28651,"lon":5.36359,"is_reserved":false,"is_disabled":false,"rental_uris":{"android":"levelo://app?vid=101f6987-eef1-44d8-95ac-6b0082cfbb32","ios":"levelo://app?vid=101f6987-eef1-44d8-95ac-6b0082cfbb32"},"vehicle_type_id":"4","last_reported":1770515012,"current_range_meters":8000,"station_id":"ce4bhah2rcd13ifvqej0","pricing_plan_id":"cebpf4jnsgd1na2vs0mg"},{"bike_id":"62e4c22c-ba08-4e76-83ca-cbbe5a97d8d7","system_id":"levelo_inurba_marseille","lat":43.23157,"lon":5.35564,"is_reserved":false,"is_disabled":false,"rental_uris":{"android":"levelo://app?vid=62e4c22c-ba08-4e76-83ca-cbbe5a97d8d7","ios":"levelo://app?vid=62e4c22c-ba08-4e76-83ca-cbbe5a97d8d7"},"vehicle_type_id":"4","last_reported":1770515012,"current_range_meters":8000,"station_id":"ce4bhu92rcd13ifvqi70","pricing_plan_id":"cebpf4jnsgd1na2vs0mg"},{"bike_id":"f5da9401-db7e-426f-9a0f-2330a30b8658","system_id":"levelo_inurba_marseille","lat":43.24391,"lon":5.37054,"is_reserved":false,"is_disabled":true,"rental_uris":{"android":"levelo://app?vid=f5da9401-db7e-426f-9a0f-2330a30b8658","ios":"levelo://app?vid=f5da9401-db7e-426f-9a0f-2330a30b8658"},"vehicle_type_id":"4","last_reported":1770515012,"current_range_meters":8000,"station_id":"ce4bhhh2rcd13ifvqfk0","pricing_plan_id":"cebpf4jnsgd1na2vs0mg"},{"bike_id":"6367b74c-84d1-4af8-8b79-4557f9243335","system_id":"levelo_inurba_marseille","lat":43.33602,"lon":5.41009,"is_reserved":false,"is_disabled":false,"rental_uris":{"android":"levelo://app?vid=6367b74c-84d1-4af8-8b79-4557f9243335","ios":"levelo://app?vid=6367b74c-84d1-4af8-8b79-4557f9243335"},"vehicle_type_id":"4","last_reported":1770515012,"current_range_meters":8000,"station_id":"ce4bhqh2rcd13ifvqhmg","pricing_plan_id":"cebpf4jnsgd1na2vs0mg"},{"bike_id":"d3f42ce2-f7be-4da1-a9bb-d4932a7ea541","system_id":"levelo_inurba_marseille","lat":43.28681,"lon":5.38662,"is_reserved":false,"is_disabled":false,"rental_uris":{"android":"levelo://app?vid=d3f42ce2-f7be-4da1-a9bb-d4932a7ea541","ios":"levelo://app?vid=d3f42ce2-f7be-4da1-a9bb-d4932a7ea541"},"vehicle_type_id":"4","last_reported":1770515012,"current_range_meters":8000,"station_id":"ce4bh492rcd13ifvqdug","pricing_plan_id":"cebpf4jnsgd1na2vs0mg"},{"bike_id":"8138c7ab-272e-47d5-82e8-142e12d30a9b","system_id":"levelo_inurba_marseille","lat":43.320955,"lon":5.367989,"is_reserved":false,"is_disabled":false,"rental_uris":{"android":"levelo://app?vid=8138c7ab-272e-47d5-82e8-142e12d30a9b","ios":"levelo://app?vid=8138c7ab-272e-47d5-82e8-142e12d30a9b"},"vehicle_type_id":"4","last_reported":1770515012,"current_range_meters":8000,"station_id":"ce4bhrh2rcd13ifvqhug","pricing_plan_id":"cebpf4jnsgd1na2vs0mg"},{"bike_id":"2f069db8-a5ac-4a5a-adc4-63c62be19c17","system_id":"levelo_inurba_marseille","lat":43.29019,"lon":5.38125,"is_reserved":false,"is_disabled":false,"rental_uris":{"android":"levelo://app?vid=2f069db8-a5ac-4a5a-adc4-63c62be19c17","ios":"levelo://app?vid=2f069db8-a5ac-4a5a-adc4-63c62be19c17"},"vehicle_type_id":"4","last_reported":1770515012,"current_range_meters":8000,"station_id":"ce4bh4p2rcd13ifvqe1g","pricing_plan_id":"cebpf4jnsgd1na2vs0mg"},{"bike_id":"815a6660-37e0-4b25-ab5c-a472e59ba5fe","system_id":"levelo_inurba_marseille","lat":43.3088,"lon":5.39644,"is_reserved":false,"is_disabled":false,"rental_uris":{"android":"levelo://app?vid=815a6660-37e0-4b25-ab5c-a472e59ba5fe","ios":"levelo://app?vid=815a6660-37e0-4b25-ab5c-a472e59ba5fe"},"vehicle_type_id":"4","last_reported":1770515012,"current_range_meters":8000,"station_id":"ce4bh012rcd13ifvqcv0","pricing_plan_id":"cebpf4jnsgd1na2vs0mg"},{"bike_id":"2cb5a43b-e623-4a02-b02d-84a79ff3e02e","system_id":"levelo_inurba_marseille","lat":43.22555,"lon":5.41631,"is_reserved":false,"is_disabled":false,"rental_uris":{"android":"levelo://app?vid=2cb5a43b-e623-4a02-b02d-84a79ff3e02e","ios":"levelo://app?vid=2cb5a43b-e623-4a02-b02d-84a79ff3e02e"},"vehicle_type_id":"4","last_reported":1770515012,"current_range_meters":8400,"station_id":"st_d2o4gvlbi1j2169b742g","pricing_plan_id":"cebpf4jnsgd1na2vs0mg"},{"bike_id":"428e65b2-5af7-470b-a082-53791379a455","system_id":"levelo_inurba_marseille","lat":43.290719,"lon":5.386652,"is_reserved":false,"is_disabled":false,"rental_uris":{"android":"levelo://app?vid=428e65b2-5af7-470b-a082-53791379a455","ios":"levelo://app?vid=428e65b2-5af7-470b-a082-53791379a455"},"vehicle_type_id":"4","last_reported":1770515012,"current_range_meters":8400,"station_id":"ce4bh4p2rcd13ifvqe0g","pricing_plan_id":"cebpf4jnsgd1na2vs0mg"},{"bike_id":"fc7e4b88-1656-4ea3-ac70-db935a568e8d","system_id":"levelo_inurba_marseille","lat":43.33151,"lon":5.377074,"is_reserved":false,"is_disabled":false,"rental_uris":{"android":"levelo://app?vid=fc7e4b88-1656-4ea3-ac70-db935a568e8d","ios":"levelo://app?vid=fc7e4b88-1656-4ea3-ac70-db935a568e8d"},"vehicle_type_id":"4","last_reported":1770515012,"current_range_meters":8400,"station_id":"st_d46cu089ee8s73dldbu0","pricing_plan_id":"cebpf4jnsgd1na2vs0mg"},{"bike_id":"5cdd27df-1aa5-4830-b5fc-91672ce179d3","system_id":"levelo_inurba_marseille","lat":43.27941,"lon":5.41048,"is_reserved":false,"is_disabled":true,"rental_uris":{"android":"levelo://app?vid=5cdd27df-1aa5-4830-b5fc-91672ce179d3","ios":"levelo://app?vid=5cdd27df-1aa5-4830-b5fc-91672ce179d3"},"vehicle_type_id":"4","last_reported":1770515012,"current_range_meters":8400,"station_id":"ce4bhnp2rcd13ifvqh0g","pricing_plan_id":"cebpf4jnsgd1na2vs0mg"},{"bike_id":"ec530521-2795-4ff9-af45-352d2124398c","system_id":"levelo_inurba_marseille","lat":43.313565,"lon":5.367199,"is_reserved":false,"is_disabled":false,"rental_uris":{"android":"levelo://app?vid=ec530521-2795-4ff9-af45-352d2124398c","ios":"levelo://app?vid=ec530521-2795-4ff9-af45-352d2124398c"},"vehicle_type_id":"4","last_reported":1770515012,"current_range_meters":8400,"station_id":"ce4bgr92rcd13ifvqc6g","pricing_plan_id":"cebpf4jnsgd1na2vs0mg"},{"bike_id":"beda68ef-f369-4f32-832a-0322245f271f","system_id":"levelo_inurba_marseille","lat":43.286116,"lon":5.351056,"is_reserved":false,"is_disabled":false,"rental_uris":{"android":"levelo://app?vid=beda68ef-f369-4f32-832a-0322245f271f","ios":"levelo://app?vid=beda68ef-f369-4f32-832a-0322245f271f"},"vehicle_type_id":"4","last_reported":1770515012,"current_range_meters":8400,"station_id":"ce4bhch2rcd13ifvqeug","pricing_plan_id":"cebpf4jnsgd1na2vs0mg"},{"bike_id":"9c95391b-4830-4ea1-90c8-5c3773ef7108","system_id":"levelo_inurba_marseille","lat":43.26563,"lon":5.39024,"is_reserved":false,"is_disabled":false,"rental_uris":{"android":"levelo://app?vid=9c95391b-4830-4ea1-90c8-5c3773ef7108","ios":"levelo://app?vid=9c95391b-4830-4ea1-90c8-5c3773ef7108"},"vehicle_type_id":"4","last_reported":1770515012,"current_range_meters":8400,"station_id":"ce4bhe12rcd13ifvqf30","pricing_plan_id":"cebpf4jnsgd1na2vs0mg"},{"bike_id":"8c1d327c-0aef-40f2-9c1e-c8f679c30716","system_id":"levelo_inurba_marseille","lat":43.303158,"lon":5.369074,"is_reserved":false,"is_disabled":false,"rental_uris":{"android":"levelo://app?vid=8c1d327c-0aef-40f2-9c1e-c8f679c30716","ios":"levelo://app?vid=8c1d327c-0aef-40f2-9c1e-c8f679c30716"},"vehicle_type_id":"4","last_reported":1770515012,"current_range_meters":8400,"station_id":"ce4bgqh2rcd13ifvqc5g","pricing_plan_id":"cebpf4jnsgd1na2vs0mg"},{"bike_id":"3bfbcaa6-9cc7-4f78-9525-559218f7d29d","system_id":"levelo_inurba_marseille","lat":43.248179,"lon":5.374563,"is_reserved":false,"is_disabled":false,"rental_uris":{"android":"levelo://app?vid=3bfbcaa6-9cc7-4f78-9525-559218f7d29d","ios":"levelo://app?vid=3bfbcaa6-9cc7-4f78-9525-559218f7d29d"},"vehicle_type_id":"4","last_reported":1770515012,"current_range_meters":8400,"station_id":"ce4bhgh2rcd13ifvqfb0","pricing_plan_id":"cebpf4jnsgd1na2vs0mg"},{"bike_id":"66f61838-99ce-449f-9957-4eada4297346","system_id":"levelo_inurba_marseille","lat":43.28342,"lon":5.38089,"is_reserved":false,"is_disabled":true,"rental_uris":{"android":"levelo://app?vid=66f61838-99ce-449f-9957-4eada4297346","ios":"levelo://app?vid=66f61838-99ce-449f-9957-4eada4297346"},"vehicle_type_id":"4","last_reported":1770515012,"current_range_meters":8400,"station_id":"ce4bh412rcd13ifvqdr0","pricing_plan_id":"cebpf4jnsgd1na2vs0mg"},{"bike_id":"ba000184-fc96-47d2-b287-484077155b16","system_id":"levelo_inurba_marseille","lat":43.3083,"lon":5.38147,"is_reserved":false,"is_disabled":false,"rental_uris":{"android":"levelo://app?vid=ba000184-fc96-47d2-b287-484077155b16","ios":"levelo://app?vid=ba000184-fc96-47d2-b287-484077155b16"},"vehicle_type_id":"4","last_reported":1770515012,"current_range_meters":8400,"station_id":"ce4bgt12rcd13ifvqce0","pricing_plan_id":"cebpf4jnsgd1na2vs0mg"},{"bike_id":"c8009395-3528-46a2-8006-ca2eedbb04a8","system_id":"levelo_inurba_marseille","lat":43.32477,"lon":5.36576,"is_reserved":false,"is_disabled":false,"rental_uris":{"android":"levelo://app?vid=c8009395-3528-46a2-8006-ca2eedbb04a8","ios":"levelo://app?vid=c8009395-3528-46a2-8006-ca2eedbb04a8"},"vehicle_type_id":"4","last_reported":1770515012,"current_range_meters":8400,"station_id":"ce4bhs12rcd13ifvqhvg","pricing_plan_id":"cebpf4jnsgd1na2vs0mg"},{"bike_id":"c5fe4207-93eb-4828-b184-1c6452346618","system_id":"levelo_inurba_marseille","lat":43.253358,"lon":5.421766,"is_reserved":false,"is_disabled":false,"rental_uris":{"android":"levelo://app?vid=c5fe4207-93eb-4828-b184-1c6452346618","ios":"levelo://app?vid=c5fe4207-93eb-4828-b184-1c6452346618"},"vehicle_type_id":"4","last_reported":1770515012,"current_range_meters":8400,"station_id":"st_d2m65c5bi1j21697t3ng","pricing_plan_id":"cebpf4jnsgd1na2vs0mg"},{"bike_id":"cf7abb30-91b4-4fa2-abfb-7d7173b59b2c","system_id":"levelo_inurba_marseille","lat":43.2533,"lon":5.4214,"is_reserved":false,"is_disabled":false,"rental_uris":{"android":"levelo://app?vid=cf7abb30-91b4-4fa2-abfb-7d7173b59b2c","ios":"levelo://app?vid=cf7abb30-91b4-4fa2-abfb-7d7173b59b2c"},"vehicle_type_id":"4","last_reported":1770515012,"current_range_meters":8400,"station_id":"st_d2m65c5bi1j21697t3ng","pricing_plan_id":"cebpf4jnsgd1na2vs0mg"},{"bike_id":"e8457bb3-f99d-40e0-aa19-6d3fdf1a5998","system_id":"levelo_inurba_marseille","lat":43.28095,"lon":5.42593,"is_reserved":false,"is_disabled":false,"rental_uris":{"android":"levelo://app?vid=e8457bb3-f99d-40e0-aa19-6d3fdf1a5998","ios":"levelo://app?vid=e8457bb3-f99d-40e0-aa19-6d3fdf1a5998"},"vehicle_type_id":"4","last_reported":1770515012,"current_range_meters":8400,"station_id":"","pricing_plan_id":"cebpf4jnsgd1na2vs0mg"},{"bike_id":"9c9db9d5-0e0c-47a3-a905-8fcf5962983e","system_id":"levelo_inurba_marseille","lat":43.232053,"lon":5.355499,"is_reserved":false,"is_disabled":false,"rental_uris":{"android":"levelo://app?vid=9c9db9d5-0e0c-47a3-a905-8fcf5962983e","ios":"levelo://app?vid=9c9db9d5-0e0c-47a3-a905-8fcf5962983e"},"vehicle_type_id":"4","last_reported":1770515012,"current_range_meters":8400,"station_id":"ce4bhu92rcd13ifvqi70","pricing_plan_id":"cebpf4jnsgd1na2vs0mg"},{"bike_id":"cfb9f90a-8bba-4df6-b769-b6924ddbf8e2","system_id":"levelo_inurba_marseille","lat":43.26205,"lon":5.37904,"is_reserved":false,"is_disabled":false,"rental_uris":{"android":"levelo://app?vid=cfb9f90a-8bba-4df6-b769-b6924ddbf8e2","ios":"levelo://app?vid=cfb9f90a-8bba-4df6-b769-b6924ddbf8e2"},"vehicle_type_id":"4","last_reported":1770515012,"current_range_meters":8400,"station_id":"ce4bhjp2rcd13ifvqg90","pricing_plan_id":"cebpf4jnsgd1na2vs0mg"},{"bike_id":"7e432d56-4167-484a-a6d0-1b8a4f18fe1c","system_id":"levelo_inurba_marseille","lat":43.22935,"lon":5.35368,"is_reserved":false,"is_disabled":false,"rental_uris":{"android":"levelo://app?vid=7e432d56-4167-484a-a6d0-1b8a4f18fe1c","ios":"levelo://app?vid=7e432d56-4167-484a-a6d0-1b8a4f18fe1c"},"vehicle_type_id":"4","last_reported":1770515012,"current_range_meters":8400,"station_id":"cpo3532slgdg3j2ikp40","pricing_plan_id":"cebpf4jnsgd1na2vs0mg"},{"bike_id":"2c3dabce-2d5b-4d5e-96e2-9eef2e9da548","system_id":"levelo_inurba_marseille","lat":43.24078,"lon":5.37768,"is_reserved":false,"is_disabled":false,"rental_uris":{"android":"levelo://app?vid=2c3dabce-2d5b-4d5e-96e2-9eef2e9da548","ios":"levelo://app?vid=2c3dabce-2d5b-4d5e-96e2-9eef2e9da548"},"vehicle_type_id":"4","last_reported":1770515012,"current_range_meters":8400,"station_id":"ce4bhnp2rcd13ifvqgvg","pricing_plan_id":"cebpf4jnsgd1na2vs0mg"},{"bike_id":"5d5da499-4081-4d9f-a7be-5c487bfed5d5","system_id":"levelo_inurba_marseille","lat":43.27505,"lon":5.42445,"is_reserved":false,"is_disabled":false,"rental_uris":{"android":"levelo://app?vid=5d5da499-4081-4d9f-a7be-5c487bfed5d5","ios":"levelo://app?vid=5d5da499-4081-4d9f-a7be-5c487bfed5d5"},"vehicle_type_id":"4","last_reported":1770515012,"current_range_meters":8800,"station_id":"ce4bhn92rcd13ifvqgrg","pricing_plan_id":"cebpf4jnsgd1na2vs0mg"},{"bike_id":"0f9398e4-1c51-403f-8553-7aa3b9b52ae1","system_id":"levelo_inurba_marseille","lat":43.2849,"lon":5.3842,"is_reserved":false,"is_disabled":false,"rental_uris":{"android":"levelo://app?vid=0f9398e4-1c51-403f-8553-7aa3b9b52ae1","ios":"levelo://app?vid=0f9398e4-1c51-403f-8553-7aa3b9b52ae1"},"vehicle_type_id":"4","last_reported":1770515012,"current_range_meters":8800,"station_id":"ce4bh512rcd13ifvqe3g","pricing_plan_id":"cebpf4jnsgd1na2vs0mg"},{"bike_id":"5c0fe258-9eea-4678-8c6b-683ba49b006b","system_id":"levelo_inurba_marseille","lat":43.296317,"lon":5.405949,"is_reserved":false,"is_disabled":false,"rental_uris":{"android":"levelo://app?vid=5c0fe258-9eea-4678-8c6b-683ba49b006b","ios":"levelo://app?vid=5c0fe258-9eea-4678-8c6b-683ba49b006b"},"vehicle_type_id":"4","last_reported":1770515012,"current_range_meters":8800,"station_id":"ce4bh0h2rcd13ifvqd60","pricing_plan_id":"cebpf4jnsgd1na2vs0mg"},{"bike_id":"e714155b-d02e-467f-be79-fac2740a9219","system_id":"levelo_inurba_marseille","lat":43.2894,"lon":5.39626,"is_reserved":false,"is_disabled":false,"rental_uris":{"android":"levelo://app?vid=e714155b-d02e-467f-be79-fac2740a9219","ios":"levelo://app?vid=e714155b-d02e-467f-be79-fac2740a9219"},"vehicle_type_id":"4","last_reported":1770515012,"current_range_meters":8800,"station_id":"ce4bh3h2rcd13ifvqdn0","pricing_plan_id":"cebpf4jnsgd1na2vs0mg"},{"bike_id":"c7d4ca8f-b8f1-4b7b-9e36-e7d2725afa41","system_id":"levelo_inurba_marseille","lat":43.27937,"lon":5.38752,"is_reserved":false,"is_disabled":false,"rental_uris":{"android":"levelo://app?vid=c7d4ca8f-b8f1-4b7b-9e36-e7d2725afa41","ios":"levelo://app?vid=c7d4ca8f-b8f1-4b7b-9e36-e7d2725afa41"},"vehicle_type_id":"4","last_reported":1770515012,"current_range_meters":8800,"station_id":"ce4bhg12rcd13ifvqf80","pricing_plan_id":"cebpf4jnsgd1na2vs0mg"},{"bike_id":"e1824c5b-1f2d-4ed6-a76a-359f873a193a","system_id":"levelo_inurba_marseille","lat":43.28696,"lon":5.3755,"is_reserved":false,"is_disabled":false,"rental_uris":{"android":"levelo://app?vid=e1824c5b-1f2d-4ed6-a76a-359f873a193a","ios":"levelo://app?vid=e1824c5b-1f2d-4ed6-a76a-359f873a193a"},"vehicle_type_id":"4","last_reported":1770515012,"current_range_meters":8800,"station_id":"","pricing_plan_id":"cebpf4jnsgd1na2vs0mg"},{"bike_id":"56893961-8f3b-47c8-a24b-0a12834de0b5","system_id":"levelo_inurba_marseille","lat":43.32293,"lon":5.38316,"is_reserved":false,"is_disabled":false,"rental_uris":{"android":"levelo://app?vid=56893961-8f3b-47c8-a24b-0a12834de0b5","ios":"levelo://app?vid=56893961-8f3b-47c8-a24b-0a12834de0b5"},"vehicle_type_id":"4","last_reported":1770515012,"current_range_meters":8800,"station_id":"ce4bhr12rcd13ifvqhqg","pricing_plan_id":"cebpf4jnsgd1na2vs0mg"},{"bike_id":"9c7b49e3-2672-465f-9113-79b2777ffeb5","system_id":"levelo_inurba_marseille","lat":43.25091,"lon":5.39513,"is_reserved":false,"is_disabled":false,"rental_uris":{"android":"levelo://app?vid=9c7b49e3-2672-465f-9113-79b2777ffeb5","ios":"levelo://app?vid=9c7b49e3-2672-465f-9113-79b2777ffeb5"},"vehicle_type_id":"4","last_reported":1770515012,"current_range_meters":8800,"station_id":"ce4bhm12rcd13ifvqgkg","pricing_plan_id":"cebpf4jnsgd1na2vs0mg"},{"bike_id":"cc15c3f8-a1dd-42d7-b66a-d239b7f484cf","system_id":"levelo_inurba_marseille","lat":43.24069,"lon":5.3775,"is_reserved":false,"is_disabled":false,"rental_uris":{"android":"levelo://app?vid=cc15c3f8-a1dd-42d7-b66a-d239b7f484cf","ios":"levelo://app?vid=cc15c3f8-a1dd-42d7-b66a-d239b7f484cf"},"vehicle_type_id":"4","last_reported":1770515012,"current_range_meters":8800,"station_id":"ce4bhnp2rcd13ifvqgvg","pricing_plan_id":"cebpf4jnsgd1na2vs0mg"},{"bike_id":"ec4ea1d5-c052-4c06-9486-233d88e0f6e6","system_id":"levelo_inurba_marseille","lat":43.27331,"lon":5.39079,"is_reserved":false,"is_disabled":false,"rental_uris":{"android":"levelo://app?vid=ec4ea1d5-c052-4c06-9486-233d88e0f6e6","ios":"levelo://app?vid=ec4ea1d5-c052-4c06-9486-233d88e0f6e6"},"vehicle_type_id":"4","last_reported":1770515012,"current_range_meters":8800,"station_id":"ce4bhgp2rcd13ifvqfe0","pricing_plan_id":"cebpf4jnsgd1na2vs0mg"},{"bike_id":"58fa7f19-a34a-4776-a2fe-87f002803ad3","system_id":"levelo_inurba_marseille","lat":43.27814,"lon":5.40705,"is_reserved":false,"is_disabled":false,"rental_uris":{"android":"levelo://app?vid=58fa7f19-a34a-4776-a2fe-87f002803ad3","ios":"levelo://app?vid=58fa7f19-a34a-4776-a2fe-87f002803ad3"},"vehicle_type_id":"4","last_reported":1770515012,"current_range_meters":8800,"station_id":"ce4bhnh2rcd13ifvqgtg","pricing_plan_id":"cebpf4jnsgd1na2vs0mg"},{"bike_id":"deb86a9c-0d34-4cf2-8c5d-7e8fe93767ac","system_id":"levelo_inurba_marseille","lat":43.29015,"lon":5.38644,"is_reserved":false,"is_disabled":false,"rental_uris":{"android":"levelo://app?vid=deb86a9c-0d34-4cf2-8c5d-7e8fe93767ac","ios":"levelo://app?vid=deb86a9c-0d34-4cf2-8c5d-7e8fe93767ac"},"vehicle_type_id":"4","last_reported":1770515012,"current_range_meters":8800,"station_id":"ce4bh4p2rcd13ifvqe0g","pricing_plan_id":"cebpf4jnsgd1na2vs0mg"},{"bike_id":"9cae2485-0afe-41f4-82ed-b4c440c27f3e","system_id":"levelo_inurba_marseille","lat":43.28556,"lon":5.39502,"is_reserved":false,"is_disabled":true,"rental_uris":{"android":"levelo://app?vid=9cae2485-0afe-41f4-82ed-b4c440c27f3e","ios":"levelo://app?vid=9cae2485-0afe-41f4-82ed-b4c440c27f3e"},"vehicle_type_id":"4","last_reported":1770515012,"current_range_meters":8800,"station_id":"ce4bh292rcd13ifvqdg0","pricing_plan_id":"cebpf4jnsgd1na2vs0mg"},{"bike_id":"5f9bd2ca-91e3-4fbe-a1bb-af05a97d2ea2","system_id":"levelo_inurba_marseille","lat":43.31458,"lon":5.45376,"is_reserved":false,"is_disabled":false,"rental_uris":{"android":"levelo://app?vid=5f9bd2ca-91e3-4fbe-a1bb-af05a97d2ea2","ios":"levelo://app?vid=5f9bd2ca-91e3-4fbe-a1bb-af05a97d2ea2"},"vehicle_type_id":"4","last_reported":1770515012,"current_range_meters":8800,"station_id":"","pricing_plan_id":"cebpf4jnsgd1na2vs0mg"},{"bike_id":"e9ed03c2-0910-4cf8-8e11-a6ca2b80e136","system_id":"levelo_inurba_marseille","lat":43.30551,"lon":5.3843,"is_reserved":false,"is_disabled":false,"rental_uris":{"android":"levelo://app?vid=e9ed03c2-0910-4cf8-8e11-a6ca2b80e136","ios":"levelo://app?vid=e9ed03c2-0910-4cf8-8e11-a6ca2b80e136"},"vehicle_type_id":"4","last_reported":1770515012,"current_range_meters":8800,"station_id":"ce4bgg92rcd13ifvqb30","pricing_plan_id":"cebpf4jnsgd1na2vs0mg"},{"bike_id":"3b913c60-da98-44c3-a490-5fa667c2bbec","system_id":"levelo_inurba_marseille","lat":43.29556,"lon":5.42291,"is_reserved":false,"is_disabled":false,"rental_uris":{"android":"levelo://app?vid=3b913c60-da98-44c3-a490-5fa667c2bbec","ios":"levelo://app?vid=3b913c60-da98-44c3-a490-5fa667c2bbec"},"vehicle_type_id":"4","last_reported":1770515012,"current_range_meters":8800,"station_id":"ce4bhph2rcd13ifvqhdg","pricing_plan_id":"cebpf4jnsgd1na2vs0mg"},{"bike_id":"dd062624-fea3-4d2b-902b-6c4d737892b0","system_id":"levelo_inurba_marseille","lat":43.27906,"lon":5.39584,"is_reserved":false,"is_disabled":false,"rental_uris":{"android":"levelo://app?vid=dd062624-fea3-4d2b-902b-6c4d737892b0","ios":"levelo://app?vid=dd062624-fea3-4d2b-902b-6c4d737892b0"},"vehicle_type_id":"4","last_reported":1770515012,"current_range_meters":8800,"station_id":"ce4bhf92rcd13ifvqf40","pricing_plan_id":"cebpf4jnsgd1na2vs0mg"},{"bike_id":"fbd8c4f9-3856-46a2-b291-e190e6907420","system_id":"levelo_inurba_marseille","lat":43.25003,"lon":5.38928,"is_reserved":false,"is_disabled":false,"rental_uris":{"android":"levelo://app?vid=fbd8c4f9-3856-46a2-b291-e190e6907420","ios":"levelo://app?vid=fbd8c4f9-3856-46a2-b291-e190e6907420"},"vehicle_type_id":"4","last_reported":1770515012,"current_range_meters":8800,"station_id":"ce4bhgp2rcd13ifvqfd0","pricing_plan_id":"cebpf4jnsgd1na2vs0mg"},{"bike_id":"1a1d969f-bada-4aaa-a461-ec3f4a01601c","system_id":"levelo_inurba_marseille","lat":43.33542,"lon":5.37473,"is_reserved":false,"is_disabled":false,"rental_uris":{"android":"levelo://app?vid=1a1d969f-bada-4aaa-a461-ec3f4a01601c","ios":"levelo://app?vid=1a1d969f-bada-4aaa-a461-ec3f4a01601c"},"vehicle_type_id":"4","last_reported":1770515012,"current_range_meters":8800,"station_id":"st_d46tts09ee8s73dlu43g","pricing_plan_id":"cebpf4jnsgd1na2vs0mg"},{"bike_id":"28ea6fbe-b592-43e0-b4f1-22356d5bc8f9","system_id":"levelo_inurba_marseille","lat":43.33537,"lon":5.37464,"is_reserved":false,"is_disabled":false,"rental_uris":{"android":"levelo://app?vid=28ea6fbe-b592-43e0-b4f1-22356d5bc8f9","ios":"levelo://app?vid=28ea6fbe-b592-43e0-b4f1-22356d5bc8f9"},"vehicle_type_id":"4","last_reported":1770515012,"current_range_meters":8800,"station_id":"st_d46tts09ee8s73dlu43g","pricing_plan_id":"cebpf4jnsgd1na2vs0mg"},{"bike_id":"968f210a-55fc-4510-bcd2-d3ede65fbe45","system_id":"levelo_inurba_marseille","lat":43.32307,"lon":5.36577,"is_reserved":false,"is_disabled":false,"rental_uris":{"android":"levelo://app?vid=968f210a-55fc-4510-bcd2-d3ede65fbe45","ios":"levelo://app?vid=968f210a-55fc-4510-bcd2-d3ede65fbe45"},"vehicle_type_id":"4","last_reported":1770515012,"current_range_meters":8800,"station_id":"ce4bhs12rcd13ifvqhvg","pricing_plan_id":"cebpf4jnsgd1na2vs0mg"},{"bike_id":"7a2c796a-2c27-403d-a799-411424496833","system_id":"levelo_inurba_marseille","lat":43.26567,"lon":5.40315,"is_reserved":false,"is_disabled":false,"rental_uris":{"android":"levelo://app?vid=7a2c796a-2c27-403d-a799-411424496833","ios":"levelo://app?vid=7a2c796a-2c27-403d-a799-411424496833"},"vehicle_type_id":"4","last_reported":1770515012,"current_range_meters":9200,"station_id":"ce4bhmp2rcd13ifvqgng","pricing_plan_id":"cebpf4jnsgd1na2vs0mg"},{"bike_id":"947e6bde-76bb-4a1b-a45f-3d4e18b32da9","system_id":"levelo_inurba_marseille","lat":43.27676,"lon":5.38915,"is_reserved":false,"is_disabled":false,"rental_uris":{"android":"levelo://app?vid=947e6bde-76bb-4a1b-a45f-3d4e18b32da9","ios":"levelo://app?vid=947e6bde-76bb-4a1b-a45f-3d4e18b32da9"},"vehicle_type_id":"4","last_reported":1770515012,"current_range_meters":9200,"station_id":"ce4bhi12rcd13ifvqfo0","pricing_plan_id":"cebpf4jnsgd1na2vs0mg"},{"bike_id":"0b84e61d-62ba-4706-80f1-3a72823c8089","system_id":"levelo_inurba_marseille","lat":43.25942,"lon":5.40907,"is_reserved":false,"is_disabled":false,"rental_uris":{"android":"levelo://app?vid=0b84e61d-62ba-4706-80f1-3a72823c8089","ios":"levelo://app?vid=0b84e61d-62ba-4706-80f1-3a72823c8089"},"vehicle_type_id":"4","last_reported":1770515012,"current_range_meters":9200,"station_id":"ce4bhm92rcd13ifvqglg","pricing_plan_id":"cebpf4jnsgd1na2vs0mg"},{"bike_id":"4b9bbde0-30cc-4c3d-973e-6947c0246c0b","system_id":"levelo_inurba_marseille","lat":43.26547,"lon":5.3729,"is_reserved":false,"is_disabled":false,"rental_uris":{"android":"levelo://app?vid=4b9bbde0-30cc-4c3d-973e-6947c0246c0b","ios":"levelo://app?vid=4b9bbde0-30cc-4c3d-973e-6947c0246c0b"},"vehicle_type_id":"4","last_reported":1770515012,"current_range_meters":9200,"station_id":"ce4bhg12rcd13ifvqf70","pricing_plan_id":"cebpf4jnsgd1na2vs0mg"},{"bike_id":"f8354ddb-017a-4bf2-8668-a39598178e17","system_id":"levelo_inurba_marseille","lat":43.3073,"lon":5.42438,"is_reserved":false,"is_disabled":false,"rental_uris":{"android":"levelo://app?vid=f8354ddb-017a-4bf2-8668-a39598178e17","ios":"levelo://app?vid=f8354ddb-017a-4bf2-8668-a39598178e17"},"vehicle_type_id":"4","last_reported":1770515012,"current_range_meters":9200,"station_id":"st_cvj6ca6bvosntc0bfgr0","pricing_plan_id":"cebpf4jnsgd1na2vs0mg"},{"bike_id":"a5fe7b14-3ced-4d6c-aab3-f34baaf11509","system_id":"levelo_inurba_marseille","lat":43.29884,"lon":5.38937,"is_reserved":false,"is_disabled":true,"rental_uris":{"android":"levelo://app?vid=a5fe7b14-3ced-4d6c-aab3-f34baaf11509","ios":"levelo://app?vid=a5fe7b14-3ced-4d6c-aab3-f34baaf11509"},"vehicle_type_id":"4","last_reported":1770515012,"current_range_meters":9200,"station_id":"ce4bh392rcd13ifvqdl0","pricing_plan_id":"cebpf4jnsgd1na2vs0mg"},{"bike_id":"92ceac05-1fb7-4c05-9f7a-f53104e5d648","system_id":"levelo_inurba_marseille","lat":43.24987,"lon":5.38926,"is_reserved":false,"is_disabled":false,"rental_uris":{"android":"levelo://app?vid=92ceac05-1fb7-4c05-9f7a-f53104e5d648","ios":"levelo://app?vid=92ceac05-1fb7-4c05-9f7a-f53104e5d648"},"vehicle_type_id":"4","last_reported":1770515012,"current_range_meters":9200,"station_id":"ce4bhgp2rcd13ifvqfd0","pricing_plan_id":"cebpf4jnsgd1na2vs0mg"},{"bike_id":"b0e7feeb-1416-4406-b174-1e7f94d3553f","system_id":"levelo_inurba_marseille","lat":43.33542,"lon":5.37462,"is_reserved":false,"is_disabled":false,"rental_uris":{"android":"levelo://app?vid=b0e7feeb-1416-4406-b174-1e7f94d3553f","ios":"levelo://app?vid=b0e7feeb-1416-4406-b174-1e7f94d3553f"},"vehicle_type_id":"4","last_reported":1770515012,"current_range_meters":9200,"station_id":"","pricing_plan_id":"cebpf4jnsgd1na2vs0mg"},{"bike_id":"d71fd997-724b-4700-8f71-84b37168fbd9","system_id":"levelo_inurba_marseille","lat":43.257275,"lon":5.411241,"is_reserved":false,"is_disabled":false,"rental_uris":{"android":"levelo://app?vid=d71fd997-724b-4700-8f71-84b37168fbd9","ios":"levelo://app?vid=d71fd997-724b-4700-8f71-84b37168fbd9"},"vehicle_type_id":"4","last_reported":1770515012,"current_range_meters":9200,"station_id":"ce4bhkp2rcd13ifvqgd0","pricing_plan_id":"cebpf4jnsgd1na2vs0mg"},{"bike_id":"a93a3f3a-fc89-4e32-a1fb-c7685626cbdd","system_id":"levelo_inurba_marseille","lat":43.311573,"lon":5.385746,"is_reserved":false,"is_disabled":false,"rental_uris":{"android":"levelo://app?vid=a93a3f3a-fc89-4e32-a1fb-c7685626cbdd","ios":"levelo://app?vid=a93a3f3a-fc89-4e32-a1fb-c7685626cbdd"},"vehicle_type_id":"4","last_reported":1770515012,"current_range_meters":9200,"station_id":"","pricing_plan_id":"cebpf4jnsgd1na2vs0mg"},{"bike_id":"c1c15dd8-d5f4-419a-b7d9-76b9cd0f2968","system_id":"levelo_inurba_marseille","lat":43.28275,"lon":5.35071,"is_reserved":false,"is_disabled":false,"rental_uris":{"android":"levelo://app?vid=c1c15dd8-d5f4-419a-b7d9-76b9cd0f2968","ios":"levelo://app?vid=c1c15dd8-d5f4-419a-b7d9-76b9cd0f2968"},"vehicle_type_id":"4","last_reported":1770515012,"current_range_meters":9200,"station_id":"ce4bhbp2rcd13ifvqerg","pricing_plan_id":"cebpf4jnsgd1na2vs0mg"},{"bike_id":"f19525fa-23d1-4165-b649-24302d368a38","system_id":"levelo_inurba_marseille","lat":43.28878,"lon":5.38207,"is_reserved":false,"is_disabled":false,"rental_uris":{"android":"levelo://app?vid=f19525fa-23d1-4165-b649-24302d368a38","ios":"levelo://app?vid=f19525fa-23d1-4165-b649-24302d368a38"},"vehicle_type_id":"4","last_reported":1770515012,"current_range_meters":9200,"station_id":"","pricing_plan_id":"cebpf4jnsgd1na2vs0mg"},{"bike_id":"131c8bc6-588e-4f5d-851b-303b7978f745","system_id":"levelo_inurba_marseille","lat":43.25944,"lon":5.40913,"is_reserved":false,"is_disabled":false,"rental_uris":{"android":"levelo://app?vid=131c8bc6-588e-4f5d-851b-303b7978f745","ios":"levelo://app?vid=131c8bc6-588e-4f5d-851b-303b7978f745"},"vehicle_type_id":"4","last_reported":1770515012,"current_range_meters":9200,"station_id":"ce4bhm92rcd13ifvqglg","pricing_plan_id":"cebpf4jnsgd1na2vs0mg"},{"bike_id":"47e58215-d53b-459d-b871-71b23df034c5","system_id":"levelo_inurba_marseille","lat":43.29909,"lon":5.39757,"is_reserved":false,"is_disabled":false,"rental_uris":{"android":"levelo://app?vid=47e58215-d53b-459d-b871-71b23df034c5","ios":"levelo://app?vid=47e58215-d53b-459d-b871-71b23df034c5"},"vehicle_type_id":"4","last_reported":1770515012,"current_range_meters":9200,"station_id":"","pricing_plan_id":"cebpf4jnsgd1na2vs0mg"},{"bike_id":"ea3df964-ab02-4201-99d8-b203a23ecf8f","system_id":"levelo_inurba_marseille","lat":43.24809,"lon":5.37449,"is_reserved":false,"is_disabled":false,"rental_uris":{"android":"levelo://app?vid=ea3df964-ab02-4201-99d8-b203a23ecf8f","ios":"levelo://app?vid=ea3df964-ab02-4201-99d8-b203a23ecf8f"},"vehicle_type_id":"4","last_reported":1770515012,"current_range_meters":9200,"station_id":"ce4bhgh2rcd13ifvqfb0","pricing_plan_id":"cebpf4jnsgd1na2vs0mg"},{"bike_id":"c2758a6f-2733-4c20-a743-396c8a6e284e","system_id":"levelo_inurba_marseille","lat":43.29796,"lon":5.38084,"is_reserved":false,"is_disabled":false,"rental_uris":{"android":"levelo://app?vid=c2758a6f-2733-4c20-a743-396c8a6e284e","ios":"levelo://app?vid=c2758a6f-2733-4c20-a743-396c8a6e284e"},"vehicle_type_id":"4","last_reported":1770515012,"current_range_meters":9200,"station_id":"ce4bgip2rcd13ifvqbb0","pricing_plan_id":"cebpf4jnsgd1na2vs0mg"},{"bike_id":"dd24189e-0ca5-42b2-a25c-59b99b80cd71","system_id":"levelo_inurba_marseille","lat":43.24787,"lon":5.37435,"is_reserved":false,"is_disabled":false,"rental_uris":{"android":"levelo://app?vid=dd24189e-0ca5-42b2-a25c-59b99b80cd71","ios":"levelo://app?vid=dd24189e-0ca5-42b2-a25c-59b99b80cd71"},"vehicle_type_id":"4","last_reported":1770515012,"current_range_meters":9200,"station_id":"ce4bhgh2rcd13ifvqfb0","pricing_plan_id":"cebpf4jnsgd1na2vs0mg"},{"bike_id":"c64e74b1-32b9-4f69-a265-54b18405fb98","system_id":"levelo_inurba_marseille","lat":43.278389,"lon":5.391984,"is_reserved":false,"is_disabled":false,"rental_uris":{"android":"levelo://app?vid=c64e74b1-32b9-4f69-a265-54b18405fb98","ios":"levelo://app?vid=c64e74b1-32b9-4f69-a265-54b18405fb98"},"vehicle_type_id":"4","last_reported":1770515012,"current_range_meters":9600,"station_id":"ce4bhjp2rcd13ifvqga0","pricing_plan_id":"cebpf4jnsgd1na2vs0mg"},{"bike_id":"d78dd041-310c-49df-a170-79f2a0d5e471","system_id":"levelo_inurba_marseille","lat":43.28661,"lon":5.36354,"is_reserved":false,"is_disabled":false,"rental_uris":{"android":"levelo://app?vid=d78dd041-310c-49df-a170-79f2a0d5e471","ios":"levelo://app?vid=d78dd041-310c-49df-a170-79f2a0d5e471"},"vehicle_type_id":"4","last_reported":1770515012,"current_range_meters":9600,"station_id":"ce4bhah2rcd13ifvqej0","pricing_plan_id":"cebpf4jnsgd1na2vs0mg"},{"bike_id":"867458d9-c09f-4165-b1af-e2013b3a197e","system_id":"levelo_inurba_marseille","lat":43.246462,"lon":5.388896,"is_reserved":false,"is_disabled":false,"rental_uris":{"android":"levelo://app?vid=867458d9-c09f-4165-b1af-e2013b3a197e","ios":"levelo://app?vid=867458d9-c09f-4165-b1af-e2013b3a197e"},"vehicle_type_id":"4","last_reported":1770515012,"current_range_meters":9600,"station_id":"ce4bhg12rcd13ifvqf60","pricing_plan_id":"cebpf4jnsgd1na2vs0mg"},{"bike_id":"5458caae-ec74-44ec-a439-08a969898ef7","system_id":"levelo_inurba_marseille","lat":43.23152,"lon":5.43719,"is_reserved":false,"is_disabled":false,"rental_uris":{"android":"levelo://app?vid=5458caae-ec74-44ec-a439-08a969898ef7","ios":"levelo://app?vid=5458caae-ec74-44ec-a439-08a969898ef7"},"vehicle_type_id":"4","last_reported":1770515012,"current_range_meters":9600,"station_id":"ce4bhmp2rcd13ifvqgog","pricing_plan_id":"cebpf4jnsgd1na2vs0mg"},{"bike_id":"7e707e23-ddd5-4780-8ee7-af32e3a9fde6","system_id":"levelo_inurba_marseille","lat":43.32346,"lon":5.36724,"is_reserved":false,"is_disabled":false,"rental_uris":{"android":"levelo://app?vid=7e707e23-ddd5-4780-8ee7-af32e3a9fde6","ios":"levelo://app?vid=7e707e23-ddd5-4780-8ee7-af32e3a9fde6"},"vehicle_type_id":"4","last_reported":1770515012,"current_range_meters":9600,"station_id":"ce4bhsh2rcd13ifvqi2g","pricing_plan_id":"cebpf4jnsgd1na2vs0mg"},{"bike_id":"3bdc45c7-bc36-42ae-8dbd-b5ed816aa8ff","system_id":"levelo_inurba_marseille","lat":43.27828,"lon":5.39207,"is_reserved":false,"is_disabled":false,"rental_uris":{"android":"levelo://app?vid=3bdc45c7-bc36-42ae-8dbd-b5ed816aa8ff","ios":"levelo://app?vid=3bdc45c7-bc36-42ae-8dbd-b5ed816aa8ff"},"vehicle_type_id":"4","last_reported":1770515012,"current_range_meters":9600,"station_id":"ce4bhjp2rcd13ifvqga0","pricing_plan_id":"cebpf4jnsgd1na2vs0mg"},{"bike_id":"d8ba07be-4909-4867-9013-61baab37ba2e","system_id":"levelo_inurba_marseille","lat":43.2258,"lon":5.41616,"is_reserved":false,"is_disabled":false,"rental_uris":{"android":"levelo://app?vid=d8ba07be-4909-4867-9013-61baab37ba2e","ios":"levelo://app?vid=d8ba07be-4909-4867-9013-61baab37ba2e"},"vehicle_type_id":"4","last_reported":1770515012,"current_range_meters":9600,"station_id":"st_d2o4gvlbi1j2169b742g","pricing_plan_id":"cebpf4jnsgd1na2vs0mg"},{"bike_id":"a8e8aa90-66c9-4830-8a68-7bf50e940df7","system_id":"levelo_inurba_marseille","lat":43.231876,"lon":5.399907,"is_reserved":false,"is_disabled":false,"rental_uris":{"android":"levelo://app?vid=a8e8aa90-66c9-4830-8a68-7bf50e940df7","ios":"levelo://app?vid=a8e8aa90-66c9-4830-8a68-7bf50e940df7"},"vehicle_type_id":"4","last_reported":1770515012,"current_range_meters":9600,"station_id":"ce4bhn12rcd13ifvqgqg","pricing_plan_id":"cebpf4jnsgd1na2vs0mg"},{"bike_id":"364ea28f-7e20-4ad8-9bf1-69b2e8dad65e","system_id":"levelo_inurba_marseille","lat":43.28615,"lon":5.44327,"is_reserved":false,"is_disabled":false,"rental_uris":{"android":"levelo://app?vid=364ea28f-7e20-4ad8-9bf1-69b2e8dad65e","ios":"levelo://app?vid=364ea28f-7e20-4ad8-9bf1-69b2e8dad65e"},"vehicle_type_id":"4","last_reported":1770515012,"current_range_meters":9600,"station_id":"","pricing_plan_id":"cebpf4jnsgd1na2vs0mg"},{"bike_id":"48ecccd6-a4c0-4d22-97c8-386ed112cd54","system_id":"levelo_inurba_marseille","lat":43.28829,"lon":5.39329,"is_reserved":false,"is_disabled":false,"rental_uris":{"android":"levelo://app?vid=48ecccd6-a4c0-4d22-97c8-386ed112cd54","ios":"levelo://app?vid=48ecccd6-a4c0-4d22-97c8-386ed112cd54"},"vehicle_type_id":"4","last_reported":1770515012,"current_range_meters":9600,"station_id":"ce4bh2p2rcd13ifvqdi0","pricing_plan_id":"cebpf4jnsgd1na2vs0mg"},{"bike_id":"1ea60dc0-7a32-4323-9458-3ce0044e2a51","system_id":"levelo_inurba_marseille","lat":43.33535,"lon":5.37465,"is_reserved":false,"is_disabled":false,"rental_uris":{"android":"levelo://app?vid=1ea60dc0-7a32-4323-9458-3ce0044e2a51","ios":"levelo://app?vid=1ea60dc0-7a32-4323-9458-3ce0044e2a51"},"vehicle_type_id":"4","last_reported":1770515012,"current_range_meters":9600,"station_id":"st_d46tts09ee8s73dlu43g","pricing_plan_id":"cebpf4jnsgd1na2vs0mg"},{"bike_id":"5a6eaa34-7e80-49c1-92a4-6c14d14023f1","system_id":"levelo_inurba_marseille","lat":43.30963,"lon":5.39041,"is_reserved":false,"is_disabled":false,"rental_uris":{"android":"levelo://app?vid=5a6eaa34-7e80-49c1-92a4-6c14d14023f1","ios":"levelo://app?vid=5a6eaa34-7e80-49c1-92a4-6c14d14023f1"},"vehicle_type_id":"4","last_reported":1770515012,"current_range_meters":9600,"station_id":"ce4bgup2rcd13ifvqco0","pricing_plan_id":"cebpf4jnsgd1na2vs0mg"},{"bike_id":"d96fa321-cc43-4d28-a99e-b49794bf7b3a","system_id":"levelo_inurba_marseille","lat":43.25944,"lon":5.40905,"is_reserved":false,"is_disabled":false,"rental_uris":{"android":"levelo://app?vid=d96fa321-cc43-4d28-a99e-b49794bf7b3a","ios":"levelo://app?vid=d96fa321-cc43-4d28-a99e-b49794bf7b3a"},"vehicle_type_id":"4","last_reported":1770515012,"current_range_meters":9600,"station_id":"ce4bhm92rcd13ifvqglg","pricing_plan_id":"cebpf4jnsgd1na2vs0mg"},{"bike_id":"ad20c1d2-258b-4db8-b56a-9ab6132ecf48","system_id":"levelo_inurba_marseille","lat":43.24459,"lon":5.42541,"is_reserved":false,"is_disabled":false,"rental_uris":{"android":"levelo://app?vid=ad20c1d2-258b-4db8-b56a-9ab6132ecf48","ios":"levelo://app?vid=ad20c1d2-258b-4db8-b56a-9ab6132ecf48"},"vehicle_type_id":"4","last_reported":1770515012,"current_range_meters":10000,"station_id":"st_d4a3vfp97mjs738cd8kg","pricing_plan_id":"cebpf4jnsgd1na2vs0mg"},{"bike_id":"ce774449-424f-4e3c-aa5c-1dd9a8fe5120","system_id":"levelo_inurba_marseille","lat":43.30161,"lon":5.38078,"is_reserved":false,"is_disabled":true,"rental_uris":{"android":"levelo://app?vid=ce774449-424f-4e3c-aa5c-1dd9a8fe5120","ios":"levelo://app?vid=ce774449-424f-4e3c-aa5c-1dd9a8fe5120"},"vehicle_type_id":"4","last_reported":1770515012,"current_range_meters":10000,"station_id":"ce4bgjp2rcd13ifvqbh0","pricing_plan_id":"cebpf4jnsgd1na2vs0mg"},