{"last_updated":1716721596,"ttl":30,"version":"2.2","data":{"bikes":[{"bike_id":"8e0f648f-eee9-4719-a93c-9efbb370a5db","system_id":"levelo_inurba_marseille","lat":43.31341,"lon":5.367098,"is_reserved":false,"is_disabled":false,"rental_uris":{"android":"levelo://app?vid=8e0f648f-eee9-4719-a93c-9efbb370a5db","ios":"levelo://app?vid=8e0f648f-eee9-4719-a93c-9efbb370a5db"},"vehicle_type_id":"4","last_reported":1716721596,"current_range_meters":9200,"station_id":"ce4bgr92rcd13ifvqc6g","pricing_plan_id":"cebpf4jnsgd1na2vs0mg"},{"bike_id":"47c47987-63ae-4bbe-86fb-daba7c87ec7f","system_id":"levelo_inurba_marseille","lat":43.312239,"lon":5.368562,"is_reserved":false,"is_disabled":false,"rental_uris":{"android":"levelo://app?vid=47c47987-63ae-4bbe-86fb-daba7c87ec7f","ios":"levelo://app?vid=47c47987-63ae-4bbe-86fb-daba7c87ec7f"},"vehicle_type_id":"4","last_reported":1716721596,"current_range_meters":8800,"station_id":"ce4bgl92rcd13ifvqbq0","pricing_plan_id":"cebpf4jnsgd1na2vs0mg"},{"bike_id":"0d9ac779-4bc4-4f4d-9c9d-c843fac090ab","system_id":"levelo_inurba_marseille","lat":43.312239,"lon":5.368562,"is_reserved":false,"is_disabled":false,"rental_uris":{"android":"levelo://app?vid=0d9ac779-4bc4-4f4d-9c9d-c843fac090ab","ios":"levelo://app?vid=0d9ac779-4bc4-4f4d-9c9d-c843fac090ab"},"vehicle_type_id":"4","last_reported":1716721596,"current_range_meters":14800,"station_id":"ce4bgl92rcd13ifvqbq0","pricing_plan_id":"cebpf4jnsgd1na2vs0mg"},{"bike_id":"dfe77dfa-8cb6-4e75-9211-9b8039266f5c","system_id":"levelo_inurba_marseille","lat":43.312239,"lon":5.368562,"is_reserved":false,"is_disabled":false,"rental_uris":{"android":"levelo://app?vid=dfe77dfa-8cb6-4e75-9211-9b8039266f5c","ios":"levelo://app?vid=dfe77dfa-8cb6-4e75-9211-9b8039266f5c"},"vehicle_type_id":"4","last_reported":1716721596,"current_range_meters":27200,"station_id":"ce4bgl92rcd13ifvqbq0","pricing_plan_id":"cebpf4jnsgd1na2vs0mg"},{"bike_id":"a5ea7322-8cc0-4080-bb9b-9b973f392def","system_id":"levelo_inurba_marseille","lat":43.312239,"lon":5.368562,"is_reserved":false,"is_disabled":false,"rental_uris":{"android":"levelo://app?vid=a5ea7322-8cc0-4080-bb9b-9b973f392def","ios":"levelo://app?vid=a5ea7322-8cc0-4080-bb9b-9b973f392def"},"vehicle_type_id":"4","last_reported":1716721596,"current_range_meters":4400,"station_id":"ce4bgl92rcd13ifvqbq0","pricing_plan_id":"cebpf4jnsgd1na2vs0mg"},{"bike_id":"47163bb2-592e-40e8-854f-ddee48868ba6","system_id":"levelo_inurba_marseille","lat":43.31231,"lon":5.36863,"is_reserved":false,"is_disabled":false,"rental_uris":{"android":"levelo://app?vid=47163bb2-592e-40e8-854f-ddee48868ba6","ios":"levelo://app?vid=47163bb2-592e-40e8-854f-ddee48868ba6"},"vehicle_type_id":"4","last_reported":1716721596,"current_range_meters":12800,"station_id":"ce4bgl92rcd13ifvqbq0","pricing_plan_id":"cebpf4jnsgd1na2vs0mg"},{"bike_id":"ce36950c-614e-460d-a791-74950123cfee","system_id":"levelo_inurba_marseille","lat":43.3149,"lon":5.37305,"is_reserved":false,"is_disabled":false,"rental_uris":{"android":"levelo://app?vid=ce36950c-614e-460d-a791-74950123cfee","ios":"levelo://app?vid=ce36950c-614e-460d-a791-74950123cfee"},"vehicle_type_id":"4","last_reported":1716721596,"current_range_meters":6400,"station_id":"ce4bgt12rcd13ifvqcd0","pricing_plan_id":"cebpf4jnsgd1na2vs0mg"},{"bike_id":"f1e3c354-2cf2-4851-9bf2-98895d39e8ca","system_id":"levelo_inurba_marseille","lat":43.305714,"lon":5.365633,"is_reserved":false,"is_disabled":false,"rental_uris":{"android":"levelo://app?vid=f1e3c354-2cf2-4851-9bf2-98895d39e8ca","ios":"levelo://app?vid=f1e3c354-2cf2-4851-9bf2-98895d39e8ca"},"vehicle_type_id":"4","last_reported":1716721596,"current_range_meters":7200,"station_id":"ce4bgs12rcd13ifvqcag","pricing_plan_id":"cebpf4jnsgd1na2vs0mg"},{"bike_id":"8e3973da-aa63-4bf0-8b82-217f490e5c7d","system_id":"levelo_inurba_marseille","lat":43.305714,"lon":5.365633,"is_reserved":false,"is_disabled":false,"rental_uris":{"android":"levelo://app?vid=8e3973da-aa63-4bf0-8b82-217f490e5c7d","ios":"levelo://app?vid=8e3973da-aa63-4bf0-8b82-217f490e5c7d"},"vehicle_type_id":"4","last_reported":1716721596,"current_range_meters":3200,"station_id":"ce4bgs12rcd13ifvqcag","pricing_plan_id":"cebpf4jnsgd1na2vs0mg"},{"bike_id":"6dcbb97c-6c6f-4826-9385-2a3a360effac","system_id":"levelo_inurba_marseille","lat":43.305368,"lon":5.367343,"is_reserved":false,"is_disabled":false,"rental_uris":{"android":"levelo://app?vid=6dcbb97c-6c6f-4826-9385-2a3a360effac","ios":"levelo://app?vid=6dcbb97c-6c6f-4826-9385-2a3a360effac"},"vehicle_type_id":"4","last_reported":1716721596,"current_range_meters":30000,"station_id":"ce4bgrp2rcd13ifvqc9g","pricing_plan_id":"cebpf4jnsgd1na2vs0mg"},{"bike_id":"f46339ef-2999-4192-92ea-dfd5b233bdee","system_id":"levelo_inurba_marseille","lat":43.305989,"lon":5.37225,"is_reserved":false,"is_disabled":false,"rental_uris":{"android":"levelo://app?vid=f46339ef-2999-4192-92ea-dfd5b233bdee","ios":"levelo://app?vid=f46339ef-2999-4192-92ea-dfd5b233bdee"},"vehicle_type_id":"4","last_reported":1716721596,"current_range_meters":3200,"station_id":"ce4bgqh2rcd13ifvqc4g","pricing_plan_id":"cebpf4jnsgd1na2vs0mg"},{"bike_id":"b062c8c7-9892-4177-91b2-94f944bb907f","system_id":"levelo_inurba_marseille","lat":43.30526,"lon":5.36549,"is_reserved":false,"is_disabled":false,"rental_uris":{"android":"levelo://app?vid=b062c8c7-9892-4177-91b2-94f944bb907f","ios":"levelo://app?vid=b062c8c7-9892-4177-91b2-94f944bb907f"},"vehicle_type_id":"4","last_reported":1716721596,"current_range_meters":0,"station_id":"ce4bgs12rcd13ifvqcag","pricing_plan_id":"cebpf4jnsgd1na2vs0mg"},{"bike_id":"b9b81c94-5fa5-4f21-9f64-77c2d90ef6a8","system_id":"levelo_inurba_marseille","lat":43.305989,"lon":5.37225,"is_reserved":false,"is_disabled":false,"rental_uris":{"android":"levelo://app?vid=b9b81c94-5fa5-4f21-9f64-77c2d90ef6a8","ios":"levelo://app?vid=b9b81c94-5fa5-4f21-9f64-77c2d90ef6a8"},"vehicle_type_id":"4","last_reported":1716721596,"current_range_meters":16800,"station_id":"ce4bgqh2rcd13ifvqc4g","pricing_plan_id":"cebpf4jnsgd1na2vs0mg"},{"bike_id":"9f53c025-8838-44cc-8c78-8b1330096011","system_id":"levelo_inurba_marseille","lat":43.305989,"lon":5.37225,"is_reserved":false,"is_disabled":false,"rental_uris":{"android":"levelo://app?vid=9f53c025-8838-44cc-8c78-8b1330096011","ios":"levelo://app?vid=9f53c025-8838-44cc-8c78-8b1330096011"},"vehicle_type_id":"4","last_reported":1716721596,"current_range_meters":11200,"station_id":"ce4bgqh2rcd13ifvqc4g","pricing_plan_id":"cebpf4jnsgd1na2vs0mg"},{"bike_id":"085f8808-1d82-4a31-a42a-8e58df7e3717","system_id":"levelo_inurba_marseille","lat":43.305989,"lon":5.37225,"is_reserved":false,"is_disabled":false,"rental_uris":{"android":"levelo://app?vid=085f8808-1d82-4a31-a42a-8e58df7e3717","ios":"levelo://app?vid=085f8808-1d82-4a31-a42a-8e58df7e3717"},"vehicle_type_id":"4","last_reported":1716721596,"current_range_meters":31600,"station_id":"ce4bgqh2rcd13ifvqc4g","pricing_plan_id":"cebpf4jnsgd1na2vs0mg"},{"bike_id":"fa02e334-8c75-49d0-b4c6-5d6ae0c2b952","system_id":"levelo_inurba_marseille","lat":43.305989,"lon":5.37225,"is_reserved":false,"is_disabled":false,"rental_uris":{"android":"levelo://app?vid=fa02e334-8c75-49d0-b4c6-5d6ae0c2b952","ios":"levelo://app?vid=fa02e334-8c75-49d0-b4c6-5d6ae0c2b952"},"vehicle_type_id":"4","last_reported":1716721596,"current_range_meters":5200,"station_id":"ce4bgqh2rcd13ifvqc4g","pricing_plan_id":"cebpf4jnsgd1na2vs0mg"},{"bike_id":"1c5234ef-8718-40c1-8a0f-6617fda5fbda","system_id":"levelo_inurba_marseille","lat":43.305989,"lon":5.37225,"is_reserved":false,"is_disabled":false,"rental_uris":{"android":"levelo://app?vid=1c5234ef-8718-40c1-8a0f-6617fda5fbda","ios":"levelo://app?vid=1c5234ef-8718-40c1-8a0f-6617fda5fbda"},"vehicle_type_id":"4","last_reported":1716721596,"current_range_meters":19200,"station_id":"ce4bgqh2rcd13ifvqc4g","pricing_plan_id":"cebpf4jnsgd1na2vs0mg"},{"bike_id":"69120787-a41a-48e1-80de-e6ff20b36b87","system_id":"levelo_inurba_marseille","lat":43.311125,"lon":5.377624,"is_reserved":false,"is_disabled":false,"rental_uris":{"android":"levelo://app?vid=69120787-a41a-48e1-80de-e6ff20b36b87","ios":"levelo://app?vid=69120787-a41a-48e1-80de-e6ff20b36b87"},"vehicle_type_id":"4","last_reported":1716721596,"current_range_meters":20800,"station_id":"ce4bgt92rcd13ifvqcg0","pricing_plan_id":"cebpf4jnsgd1na2vs0mg"},{"bike_id":"5f2176d2-10b0-43ca-92b7-c3bce4eecbfe","system_id":"levelo_inurba_marseille","lat":43.311131,"lon":5.377651,"is_reserved":false,"is_disabled":false,"rental_uris":{"android":"levelo://app?vid=5f2176d2-10b0-43ca-92b7-c3bce4eecbfe","ios":"levelo://app?vid=5f2176d2-10b0-43ca-92b7-c3bce4eecbfe"},"vehicle_type_id":"4","last_reported":1716721596,"current_range_meters":14800,"station_id":"ce4bgt92rcd13ifvqcg0","pricing_plan_id":"cebpf4jnsgd1na2vs0mg"},{"bike_id":"e1108a2d-b040-40c7-86f3-fb527078d7e1","system_id":"levelo_inurba_marseille","lat":43.311125,"lon":5.377624,"is_reserved":false,"is_disabled":false,"rental_uris":{"android":"levelo://app?vid=e1108a2d-b040-40c7-86f3-fb527078d7e1","ios":"levelo://app?vid=e1108a2d-b040-40c7-86f3-fb527078d7e1"},"vehicle_type_id":"4","last_reported":1716721596,"current_range_meters":4400,"station_id":"ce4bgt92rcd13ifvqcg0","pricing_plan_id":"cebpf4jnsgd1na2vs0mg"},{"bike_id":"5e90a2ae-9d93-4cd7-8b92-af22a43452f8","system_id":"levelo_inurba_marseille","lat":43.307945,"lon":5.376487,"is_reserved":false,"is_disabled":false,"rental_uris":{"android":"levelo://app?vid=5e90a2ae-9d93-4cd7-8b92-af22a43452f8","ios":"levelo://app?vid=5e90a2ae-9d93-4cd7-8b92-af22a43452f8"},"vehicle_type_id":"4","last_reported":1716721596,"current_range_meters":14400,"station_id":"ce4bgv92rcd13ifvqcq0","pricing_plan_id":"cebpf4jnsgd1na2vs0mg"},{"bike_id":"d34d12ce-79a4-4978-97be-3dcd890038ba","system_id":"levelo_inurba_marseille","lat":43.307945,"lon":5.376487,"is_reserved":false,"is_disabled":false,"rental_uris":{"android":"levelo://app?vid=d34d12ce-79a4-4978-97be-3dcd890038ba","ios":"levelo://app?vid=d34d12ce-79a4-4978-97be-3dcd890038ba"},"vehicle_type_id":"4","last_reported":1716721596,"current_range_meters":5600,"station_id":"ce4bgv92rcd13ifvqcq0","pricing_plan_id":"cebpf4jnsgd1na2vs0mg"},{"bike_id":"40a01379-f9cd-490e-93d8-cb4975533772","system_id":"levelo_inurba_marseille","lat":43.317075,"lon":5.377367,"is_reserved":false,"is_disabled":false,"rental_uris":{"android":"levelo://app?vid=40a01379-f9cd-490e-93d8-cb4975533772","ios":"levelo://app?vid=40a01379-f9cd-490e-93d8-cb4975533772"},"vehicle_type_id":"4","last_reported":1716721596,"current_range_meters":14800,"station_id":"ce4bgth2rcd13ifvqch0","pricing_plan_id":"cebpf4jnsgd1na2vs0mg"},{"bike_id":"e185d042-b113-43b0-be4b-ae5eef04871e","system_id":"levelo_inurba_marseille","lat":43.317075,"lon":5.377367,"is_reserved":false,"is_disabled":false,"rental_uris":{"android":"levelo://app?vid=e185d042-b113-43b0-be4b-ae5eef04871e","ios":"levelo://app?vid=e185d042-b113-43b0-be4b-ae5eef04871e"},"vehicle_type_id":"4","last_reported":1716721596,"current_range_meters":22000,"station_id":"ce4bgth2rcd13ifvqch0","pricing_plan_id":"cebpf4jnsgd1na2vs0mg"},{"bike_id":"081499e4-206e-44e5-93c8-1a6bb47776d4","system_id":"levelo_inurba_marseille","lat":43.317075,"lon":5.377367,"is_reserved":false,"is_disabled":false,"rental_uris":{"android":"levelo://app?vid=081499e4-206e-44e5-93c8-1a6bb47776d4","ios":"levelo://app?vid=081499e4-206e-44e5-93c8-1a6bb47776d4"},"vehicle_type_id":"4","last_reported":1716721596,"current_range_meters":30000,"station_id":"ce4bgth2rcd13ifvqch0","pricing_plan_id":"cebpf4jnsgd1na2vs0mg"},{"bike_id":"47bbd6d1-4cba-4c55-8343-8a02a1b05bff","system_id":"levelo_inurba_marseille","lat":43.317075,"lon":5.377367,"is_reserved":false,"is_disabled":false,"rental_uris":{"android":"levelo://app?vid=47bbd6d1-4cba-4c55-8343-8a02a1b05bff","ios":"levelo://app?vid=47bbd6d1-4cba-4c55-8343-8a02a1b05bff"},"vehicle_type_id":"4","last_reported":1716721596,"current_range_meters":5200,"station_id":"ce4bgth2rcd13ifvqch0","pricing_plan_id":"cebpf4jnsgd1na2vs0mg"},{"bike_id":"8dd90826-411d-4f61-8b10-b9145950c518","system_id":"levelo_inurba_marseille","lat":43.317075,"lon":5.377367,"is_reserved":false,"is_disabled":false,"rental_uris":{"android":"levelo://app?vid=8dd90826-411d-4f61-8b10-b9145950c518","ios":"levelo://app?vid=8dd90826-411d-4f61-8b10-b9145950c518"},"vehicle_type_id":"4","last_reported":1716721596,"current_range_meters":28800,"station_id":"ce4bgth2rcd13ifvqch0","pricing_plan_id":"cebpf4jnsgd1na2vs0mg"},{"bike_id":"7655e01f-4d2b-40be-8cd0-64703ee23026","system_id":"levelo_inurba_marseille","lat":43.317075,"lon":5.377367,"is_reserved":false,"is_disabled":false,"rental_uris":{"android":"levelo://app?vid=7655e01f-4d2b-40be-8cd0-64703ee23026","ios":"levelo://app?vid=7655e01f-4d2b-40be-8cd0-64703ee23026"},"vehicle_type_id":"4","last_reported":1716721596,"current_range_meters":29600,"station_id":"ce4bgth2rcd13ifvqch0","pricing_plan_id":"cebpf4jnsgd1na2vs0mg"},{"bike_id":"f4af1975-1a29-4db0-82c1-22393b1e1c8a","system_id":"levelo_inurba_marseille","lat":43.317075,"lon":5.377367,"is_reserved":false,"is_disabled":false,"rental_uris":{"android":"levelo://app?vid=f4af1975-1a29-4db0-82c1-22393b1e1c8a","ios":"levelo://app?vid=f4af1975-1a29-4db0-82c1-22393b1e1c8a"},"vehicle_type_id":"4","last_reported":1716721596,"current_range_meters":30000,"station_id":"ce4bgth2rcd13ifvqch0","pricing_plan_id":"cebpf4jnsgd1na2vs0mg"},{"bike_id":"dd3dc61b-dd63-40c7-953a-152a0dc0b433","system_id":"levelo_inurba_marseille","lat":43.303046,"lon":5.368981,"is_reserved":false,"is_disabled":false,"rental_uris":{"android":"levelo://app?vid=dd3dc61b-dd63-40c7-953a-152a0dc0b433","ios":"levelo://app?vid=dd3dc61b-dd63-40c7-953a-152a0dc0b433"},"vehicle_type_id":"4","last_reported":1716721596,"current_range_meters":10800,"station_id":"ce4bgqh2rcd13ifvqc5g","pricing_plan_id":"cebpf4jnsgd1na2vs0mg"},{"bike_id":"2d9d8c35-1214-434b-af5b-ad59404b56ec","system_id":"levelo_inurba_marseille","lat":43.315293,"lon":5.380349,"is_reserved":false,"is_disabled":false,"rental_uris":{"android":"levelo://app?vid=2d9d8c35-1214-434b-af5b-ad59404b56ec","ios":"levelo://app?vid=2d9d8c35-1214-434b-af5b-ad59404b56ec"},"vehicle_type_id":"4","last_reported":1716721596,"current_range_meters":7600,"station_id":"ce4bhsp2rcd13ifvqi50","pricing_plan_id":"cebpf4jnsgd1na2vs0mg"},{"bike_id":"4b64abc0-bd61-419c-a413-384f0a08f570","system_id":"levelo_inurba_marseille","lat":43.315289,"lon":5.380349,"is_reserved":false,"is_disabled":false,"rental_uris":{"android":"levelo://app?vid=4b64abc0-bd61-419c-a413-384f0a08f570","ios":"levelo://app?vid=4b64abc0-bd61-419c-a413-384f0a08f570"},"vehicle_type_id":"4","last_reported":1716721596,"current_range_meters":31200,"station_id":"ce4bhsp2rcd13ifvqi50","pricing_plan_id":"cebpf4jnsgd1na2vs0mg"},{"bike_id":"f332d0d0-b92e-4de1-b9f7-b81de92dfef3","system_id":"levelo_inurba_marseille","lat":43.315289,"lon":5.380349,"is_reserved":false,"is_disabled":false,"rental_uris":{"android":"levelo://app?vid=f332d0d0-b92e-4de1-b9f7-b81de92dfef3","ios":"levelo://app?vid=f332d0d0-b92e-4de1-b9f7-b81de92dfef3"},"vehicle_type_id":"4","last_reported":1716721596,"current_range_meters":23600,"station_id":"ce4bhsp2rcd13ifvqi50","pricing_plan_id":"cebpf4jnsgd1na2vs0mg"},{"bike_id":"edadceef-508d-4a5d-8edb-39a0d97be142","system_id":"levelo_inurba_marseille","lat":43.315293,"lon":5.380349,"is_reserved":false,"is_disabled":false,"rental_uris":{"android":"levelo://app?vid=edadceef-508d-4a5d-8edb-39a0d97be142","ios":"levelo://app?vid=edadceef-508d-4a5d-8edb-39a0d97be142"},"vehicle_type_id":"4","last_reported":1716721596,"current_range_meters":27600,"station_id":"ce4bhsp2rcd13ifvqi50","pricing_plan_id":"cebpf4jnsgd1na2vs0mg"},{"bike_id":"a3b94d60-2bce-428c-a8f0-d5886e8716da","system_id":"levelo_inurba_marseille","lat":43.315293,"lon":5.380349,"is_reserved":false,"is_disabled":false,"rental_uris":{"android":"levelo://app?vid=a3b94d60-2bce-428c-a8f0-d5886e8716da","ios":"levelo://app?vid=a3b94d60-2bce-428c-a8f0-d5886e8716da"},"vehicle_type_id":"4","last_reported":1716721596,"current_range_meters":30800,"station_id":"ce4bhsp2rcd13ifvqi50","pricing_plan_id":"cebpf4jnsgd1na2vs0mg"},{"bike_id":"356067b0-fc27-458f-a83f-00325bd1612f","system_id":"levelo_inurba_marseille","lat":43.315293,"lon":5.380349,"is_reserved":false,"is_disabled":false,"rental_uris":{"android":"levelo://app?vid=356067b0-fc27-458f-a83f-00325bd1612f","ios":"levelo://app?vid=356067b0-fc27-458f-a83f-00325bd1612f"},"vehicle_type_id":"4","last_reported":1716721596,"current_range_meters":19600,"station_id":"ce4bhsp2rcd13ifvqi50","pricing_plan_id":"cebpf4jnsgd1na2vs0mg"},{"bike_id":"170e3737-0240-448b-9f28-e992176fda37","system_id":"levelo_inurba_marseille","lat":43.315293,"lon":5.380349,"is_reserved":false,"is_disabled":false,"rental_uris":{"android":"levelo://app?vid=170e3737-0240-448b-9f28-e992176fda37","ios":"levelo://app?vid=170e3737-0240-448b-9f28-e992176fda37"},"vehicle_type_id":"4","last_reported":1716721596,"current_range_meters":24000,"station_id":"ce4bhsp2rcd13ifvqi50","pricing_plan_id":"cebpf4jnsgd1na2vs0mg"},{"bike_id":"a59b88af-300a-497f-811e-76731877fe30","system_id":"levelo_inurba_marseille","lat":43.304352,"lon":5.374894,"is_reserved":false,"is_disabled":false,"rental_uris":{"android":"levelo://app?vid=a59b88af-300a-497f-811e-76731877fe30","ios":"levelo://app?vid=a59b88af-300a-497f-811e-76731877fe30"},"vehicle_type_id":"4","last_reported":1716721596,"current_range_meters":2000,"station_id":"","pricing_plan_id":"cebpf4jnsgd1na2vs0mg"},{"bike_id":"ed38837c-dc88-46db-90f8-799b290a007b","system_id":"levelo_inurba_marseille","lat":43.30817,"lon":5.3815,"is_reserved":false,"is_disabled":false,"rental_uris":{"android":"levelo://app?vid=ed38837c-dc88-46db-90f8-799b290a007b","ios":"levelo://app?vid=ed38837c-dc88-46db-90f8-799b290a007b"},"vehicle_type_id":"4","last_reported":1716721596,"current_range_meters":18800,"station_id":"ce4bgt12rcd13ifvqce0","pricing_plan_id":"cebpf4jnsgd1na2vs0mg"},{"bike_id":"b2cc32df-ca13-4256-863d-4e88dbb4ed17","system_id":"levelo_inurba_marseille","lat":43.304606,"lon":5.379026,"is_reserved":false,"is_disabled":false,"rental_uris":{"android":"levelo://app?vid=b2cc32df-ca13-4256-863d-4e88dbb4ed17","ios":"levelo://app?vid=b2cc32df-ca13-4256-863d-4e88dbb4ed17"},"vehicle_type_id":"4","last_reported":1716721596,"current_range_meters":25200,"station_id":"ce4bgup2rcd13ifvqcn0","pricing_plan_id":"cebpf4jnsgd1na2vs0mg"},{"bike_id":"ba4c5dc8-07e9-4230-a377-5837ed0237c3","system_id":"levelo_inurba_marseille","lat":43.308012,"lon":5.381511,"is_reserved":false,"is_disabled":false,"rental_uris":{"android":"levelo://app?vid=ba4c5dc8-07e9-4230-a377-5837ed0237c3","ios":"levelo://app?vid=ba4c5dc8-07e9-4230-a377-5837ed0237c3"},"vehicle_type_id":"4","last_reported":1716721596,"current_range_meters":0,"station_id":"ce4bgt12rcd13ifvqce0","pricing_plan_id":"cebpf4jnsgd1na2vs0mg"},{"bike_id":"edf0a7d6-fd4b-48b4-87fb-0ee0cff8b6fc","system_id":"levelo_inurba_marseille","lat":43.308012,"lon":5.381511,"is_reserved":false,"is_disabled":false,"rental_uris":{"android":"levelo://app?vid=edf0a7d6-fd4b-48b4-87fb-0ee0cff8b6fc","ios":"levelo://app?vid=edf0a7d6-fd4b-48b4-87fb-0ee0cff8b6fc"},"vehicle_type_id":"4","last_reported":1716721596,"current_range_meters":6000,"station_id":"ce4bgt12rcd13ifvqce0","pricing_plan_id":"cebpf4jnsgd1na2vs0mg"},{"bike_id":"42184d8a-1668-4a7c-9096-b799ec246962","system_id":"levelo_inurba_marseille","lat":43.308012,"lon":5.381511,"is_reserved":false,"is_disabled":false,"rental_uris":{"android":"levelo://app?vid=42184d8a-1668-4a7c-9096-b799ec246962","ios":"levelo://app?vid=42184d8a-1668-4a7c-9096-b799ec246962"},"vehicle_type_id":"4","last_reported":1716721596,"current_range_meters":0,"station_id":"ce4bgt12rcd13ifvqce0","pricing_plan_id":"cebpf4jnsgd1na2vs0mg"},{"bike_id":"1e27f010-3bdb-4762-a3d2-70f5517cc08d","system_id":"levelo_inurba_marseille","lat":43.324771,"lon":5.36557,"is_reserved":false,"is_disabled":false,"rental_uris":{"android":"levelo://app?vid=1e27f010-3bdb-4762-a3d2-70f5517cc08d","ios":"levelo://app?vid=1e27f010-3bdb-4762-a3d2-70f5517cc08d"},"vehicle_type_id":"4","last_reported":1716721596,"current_range_meters":28400,"station_id":"ce4bhs12rcd13ifvqhvg","pricing_plan_id":"cebpf4jnsgd1na2vs0mg"},{"bike_id":"71a56a80-db24-465f-af67-8ee54602e2c2","system_id":"levelo_inurba_marseille","lat":43.324771,"lon":5.36557,"is_reserved":false,"is_disabled":false,"rental_uris":{"android":"levelo://app?vid=71a56a80-db24-465f-af67-8ee54602e2c2","ios":"levelo://app?vid=71a56a80-db24-465f-af67-8ee54602e2c2"},"vehicle_type_id":"4","last_reported":1716721596,"current_range_meters":18000,"station_id":"ce4bhs12rcd13ifvqhvg","pricing_plan_id":"cebpf4jnsgd1na2vs0mg"},{"bike_id":"99a35186-da9f-462a-b777-ca5d239a806c","system_id":"levelo_inurba_marseille","lat":43.324771,"lon":5.36557,"is_reserved":false,"is_disabled":false,"rental_uris":{"android":"levelo://app?vid=99a35186-da9f-462a-b777-ca5d239a806c","ios":"levelo://app?vid=99a35186-da9f-462a-b777-ca5d239a806c"},"vehicle_type_id":"4","last_reported":1716721596,"current_range_meters":19600,"station_id":"ce4bhs12rcd13ifvqhvg","pricing_plan_id":"cebpf4jnsgd1na2vs0mg"},{"bike_id":"72ba4090-3817-4ac9-a00a-506384b53c7f","system_id":"levelo_inurba_marseille","lat":43.324776,"lon":5.365874,"is_reserved":false,"is_disabled":false,"rental_uris":{"android":"levelo://app?vid=72ba4090-3817-4ac9-a00a-506384b53c7f","ios":"levelo://app?vid=72ba4090-3817-4ac9-a00a-506384b53c7f"},"vehicle_type_id":"4","last_reported":1716721596,"current_range_meters":31200,"station_id":"ce4bhs12rcd13ifvqhvg","pricing_plan_id":"cebpf4jnsgd1na2vs0mg"},{"bike_id":"4b71860f-08ca-44c4-8e6f-d2cf30cc0add","system_id":"levelo_inurba_marseille","lat":43.324771,"lon":5.36557,"is_reserved":false,"is_disabled":false,"rental_uris":{"android":"levelo://app?vid=4b71860f-08ca-44c4-8e6f-d2cf30cc0add","ios":"levelo://app?vid=4b71860f-08ca-44c4-8e6f-d2cf30cc0add"},"vehicle_type_id":"4","last_reported":1716721596,"current_range_meters":20400,"station_id":"ce4bhs12rcd13ifvqhvg","pricing_plan_id":"cebpf4jnsgd1na2vs0mg"},{"bike_id":"5ba57246-381c-42a7-888f-31ff2c231548","system_id":"levelo_inurba_marseille","lat":43.324771,"lon":5.36557,"is_reserved":false,"is_disabled":false,"rental_uris":{"android":"levelo://app?vid=5ba57246-381c-42a7-888f-31ff2c231548","ios":"levelo://app?vid=5ba57246-381c-42a7-888f-31ff2c231548"},"vehicle_type_id":"4","last_reported":1716721596,"current_range_meters":30400,"station_id":"ce4bhs12rcd13ifvqhvg","pricing_plan_id":"cebpf4jnsgd1na2vs0mg"},{"bike_id":"2cceb4bf-f7c0-4472-ba15-c5f437319874","system_id":"levelo_inurba_marseille","lat":43.324771,"lon":5.36557,"is_reserved":false,"is_disabled":false,"rental_uris":{"android":"levelo://app?vid=2cceb4bf-f7c0-4472-ba15-c5f437319874","ios":"levelo://app?vid=2cceb4bf-f7c0-4472-ba15-c5f437319874"},"vehicle_type_id":"4","last_reported":1716721596,"current_range_meters":8000,"station_id":"ce4bhs12rcd13ifvqhvg","pricing_plan_id":"cebpf4jnsgd1na2vs0mg"},{"bike_id":"bc9076ff-b29a-483a-ad14-b947f90b87bc","system_id":"levelo_inurba_marseille","lat":43.324771,"lon":5.36557,"is_reserved":false,"is_disabled":false,"rental_uris":{"android":"levelo://app?vid=bc9076ff-b29a-483a-ad14-b947f90b87bc","ios":"levelo://app?vid=bc9076ff-b29a-483a-ad14-b947f90b87bc"},"vehicle_type_id":"4","last_reported":1716721596,"current_range_meters":18000,"station_id":"ce4bhs12rcd13ifvqhvg","pricing_plan_id":"cebpf4jnsgd1na2vs0mg"},{"bike_id":"0fe1c741-31ef-4c42-ae4f-9fc5e42ec0c2","system_id":"levelo_inurba_marseille","lat":43.324771,"lon":5.36557,"is_reserved":false,"is_disabled":false,"rental_uris":{"android":"levelo://app?vid=0fe1c741-31ef-4c42-ae4f-9fc5e42ec0c2","ios":"levelo://app?vid=0fe1c741-31ef-4c42-ae4f-9fc5e42ec0c2"},"vehicle_type_id":"4","last_reported":1716721596,"current_range_meters":22400,"station_id":"ce4bhs12rcd13ifvqhvg","pricing_plan_id":"cebpf4jnsgd1na2vs0mg"},{"bike_id":"27e218a8-538f-4c3f-9de3-25438fba3434","system_id":"levelo_inurba_marseille","lat":43.324771,"lon":5.36557,"is_reserved":false,"is_disabled":false,"rental_uris":{"android":"levelo://app?vid=27e218a8-538f-4c3f-9de3-25438fba3434","ios":"levelo://app?vid=27e218a8-538f-4c3f-9de3-25438fba3434"},"vehicle_type_id":"4","last_reported":1716721596,"current_range_meters":29600,"station_id":"ce4bhs12rcd13ifvqhvg","pricing_plan_id":"cebpf4jnsgd1na2vs0mg"},{"bike_id":"dfa9439d-0f11-4a7d-b3c7-f7baef6141f9","system_id":"levelo_inurba_marseille","lat":43.310735,"lon":5.38357,"is_reserved":false,"is_disabled":false,"rental_uris":{"android":"levelo://app?vid=dfa9439d-0f11-4a7d-b3c7-f7baef6141f9","ios":"levelo://app?vid=dfa9439d-0f11-4a7d-b3c7-f7baef6141f9"},"vehicle_type_id":"4","last_reported":1716721596,"current_range_meters":400,"station_id":"ce4bgv92rcd13ifvqcr0","pricing_plan_id":"cebpf4jnsgd1na2vs0mg"},{"bike_id":"e254363f-2f4a-429c-9e0d-6d166bad237c","system_id":"levelo_inurba_marseille","lat":43.302784,"lon":5.377158,"is_reserved":false,"is_disabled":false,"rental_uris":{"android":"levelo://app?vid=e254363f-2f4a-429c-9e0d-6d166bad237c","ios":"levelo://app?vid=e254363f-2f4a-429c-9e0d-6d166bad237c"},"vehicle_type_id":"4","last_reported":1716721596,"current_range_meters":29600,"station_id":"ce4bguh2rcd13ifvqcj0","pricing_plan_id":"cebpf4jnsgd1na2vs0mg"},{"bike_id":"96d54881-f8ed-472c-8da7-9d2ffa4d2392","system_id":"levelo_inurba_marseille","lat":43.310804,"lon":5.38359,"is_reserved":false,"is_disabled":false,"rental_uris":{"android":"levelo://app?vid=96d54881-f8ed-472c-8da7-9d2ffa4d2392","ios":"levelo://app?vid=96d54881-f8ed-472c-8da7-9d2ffa4d2392"},"vehicle_type_id":"4","last_reported":1716721596,"current_range_meters":14400,"station_id":"ce4bgv92rcd13ifvqcr0","pricing_plan_id":"cebpf4jnsgd1na2vs0mg"},{"bike_id":"03b2d0ac-4855-463a-a2f0-be21041dc802","system_id":"levelo_inurba_marseille","lat":43.305444,"lon":5.380789,"is_reserved":false,"is_disabled":false,"rental_uris":{"android":"levelo://app?vid=03b2d0ac-4855-463a-a2f0-be21041dc802","ios":"levelo://app?vid=03b2d0ac-4855-463a-a2f0-be21041dc802"},"vehicle_type_id":"4","last_reported":1716721596,"current_range_meters":27200,"station_id":"","pricing_plan_id":"cebpf4jnsgd1na2vs0mg"},{"bike_id":"3a4bf51d-bdde-4749-af26-ad42a77ec1be","system_id":"levelo_inurba_marseille","lat":43.305383,"lon":5.380784,"is_reserved":false,"is_disabled":false,"rental_uris":{"android":"levelo://app?vid=3a4bf51d-bdde-4749-af26-ad42a77ec1be","ios":"levelo://app?vid=3a4bf51d-bdde-4749-af26-ad42a77ec1be"},"vehicle_type_id":"4","last_reported":1716721596,"current_range_meters":5600,"station_id":"","pricing_plan_id":"cebpf4jnsgd1na2vs0mg"},{"bike_id":"8c6a0b34-f05a-42fd-a15a-8a52f449ec5f","system_id":"levelo_inurba_marseille","lat":43.319935,"lon":5.381699,"is_reserved":false,"is_disabled":false,"rental_uris":{"android":"levelo://app?vid=8c6a0b34-f05a-42fd-a15a-8a52f449ec5f","ios":"levelo://app?vid=8c6a0b34-f05a-42fd-a15a-8a52f449ec5f"},"vehicle_type_id":"4","last_reported":1716721596,"current_range_meters":14400,"station_id":"ce4bhr12rcd13ifvqhpg","pricing_plan_id":"cebpf4jnsgd1na2vs0mg"},{"bike_id":"2327e7da-a5f1-4064-a353-611522b104d5","system_id":"levelo_inurba_marseille","lat":43.319935,"lon":5.381699,"is_reserved":false,"is_disabled":false,"rental_uris":{"android":"levelo://app?vid=2327e7da-a5f1-4064-a353-611522b104d5","ios":"levelo://app?vid=2327e7da-a5f1-4064-a353-611522b104d5"},"vehicle_type_id":"4","last_reported":1716721596,"current_range_meters":15200,"station_id":"ce4bhr12rcd13ifvqhpg","pricing_plan_id":"cebpf4jnsgd1na2vs0mg"},{"bike_id":"5222202f-801f-41bd-9714-a149e698df30","system_id":"levelo_inurba_marseille","lat":43.299724,"lon":5.371829,"is_reserved":false,"is_disabled":false,"rental_uris":{"android":"levelo://app?vid=5222202f-801f-41bd-9714-a149e698df30","ios":"levelo://app?vid=5222202f-801f-41bd-9714-a149e698df30"},"vehicle_type_id":"4","last_reported":1716721596,"current_range_meters":24800,"station_id":"ce4bgr92rcd13ifvqc7g","pricing_plan_id":"cebpf4jnsgd1na2vs0mg"},{"bike_id":"71c0bf64-c068-46c9-b655-2f269fa7e0f2","system_id":"levelo_inurba_marseille","lat":43.31392,"lon":5.384899,"is_reserved":false,"is_disabled":false,"rental_uris":{"android":"levelo://app?vid=71c0bf64-c068-46c9-b655-2f269fa7e0f2","ios":"levelo://app?vid=71c0bf64-c068-46c9-b655-2f269fa7e0f2"},"vehicle_type_id":"4","last_reported":1716721596,"current_range_meters":15200,"station_id":"ce4bgt92rcd13ifvqcf0","pricing_plan_id":"cebpf4jnsgd1na2vs0mg"},{"bike_id":"9430c514-79cf-4511-b1f3-2369b613140a","system_id":"levelo_inurba_marseille","lat":43.313571,"lon":5.384829,"is_reserved":false,"is_disabled":false,"rental_uris":{"android":"levelo://app?vid=9430c514-79cf-4511-b1f3-2369b613140a","ios":"levelo://app?vid=9430c514-79cf-4511-b1f3-2369b613140a"},"vehicle_type_id":"4","last_reported":1716721596,"current_range_meters":15600,"station_id":"ce4bgt92rcd13ifvqcf0","pricing_plan_id":"cebpf4jnsgd1na2vs0mg"},{"bike_id":"ea864d37-c0a4-4414-9373-be3429600f1f","system_id":"levelo_inurba_marseille","lat":43.313613,"lon":5.385065,"is_reserved":false,"is_disabled":false,"rental_uris":{"android":"levelo://app?vid=ea864d37-c0a4-4414-9373-be3429600f1f","ios":"levelo://app?vid=ea864d37-c0a4-4414-9373-be3429600f1f"},"vehicle_type_id":"4","last_reported":1716721596,"current_range_meters":23600,"station_id":"ce4bgt92rcd13ifvqcf0","pricing_plan_id":"cebpf4jnsgd1na2vs0mg"},{"bike_id":"bb4c5070-d991-437a-9a16-f670827e9a7f","system_id":"levelo_inurba_marseille","lat":43.31356,"lon":5.38508,"is_reserved":false,"is_disabled":false,"rental_uris":{"android":"levelo://app?vid=bb4c5070-d991-437a-9a16-f670827e9a7f","ios":"levelo://app?vid=bb4c5070-d991-437a-9a16-f670827e9a7f"},"vehicle_type_id":"4","last_reported":1716721596,"current_range_meters":17600,"station_id":"ce4bgt92rcd13ifvqcf0","pricing_plan_id":"cebpf4jnsgd1na2vs0mg"},{"bike_id":"065e7746-2b80-4e46-a158-83dcdfa6da36","system_id":"levelo_inurba_marseille","lat":43.299724,"lon":5.371829,"is_reserved":false,"is_disabled":false,"rental_uris":{"android":"levelo://app?vid=065e7746-2b80-4e46-a158-83dcdfa6da36","ios":"levelo://app?vid=065e7746-2b80-4e46-a158-83dcdfa6da36"},"vehicle_type_id":"4","last_reported":1716721596,"current_range_meters":14800,"station_id":"ce4bgr92rcd13ifvqc7g","pricing_plan_id":"cebpf4jnsgd1na2vs0mg"},{"bike_id":"c958a415-6e47-44ac-bb7a-75d0b64c9b7d","system_id":"levelo_inurba_marseille","lat":43.29939,"lon":5.36554,"is_reserved":false,"is_disabled":false,"rental_uris":{"android":"levelo://app?vid=c958a415-6e47-44ac-bb7a-75d0b64c9b7d","ios":"levelo://app?vid=c958a415-6e47-44ac-bb7a-75d0b64c9b7d"},"vehicle_type_id":"4","last_reported":1716721596,"current_range_meters":0,"station_id":"ce4bgm92rcd13ifvqbr0","pricing_plan_id":"cebpf4jnsgd1na2vs0mg"},{"bike_id":"23b2848b-2613-4d5e-9b9b-869fe6c514b3","system_id":"levelo_inurba_marseille","lat":43.299222,"lon":5.365554,"is_reserved":false,"is_disabled":false,"rental_uris":{"android":"levelo://app?vid=23b2848b-2613-4d5e-9b9b-869fe6c514b3","ios":"levelo://app?vid=23b2848b-2613-4d5e-9b9b-869fe6c514b3"},"vehicle_type_id":"4","last_reported":1716721596,"current_range_meters":19600,"station_id":"ce4bgm92rcd13ifvqbr0","pricing_plan_id":"cebpf4jnsgd1na2vs0mg"},{"bike_id":"aca29cf2-3702-4b18-9d51-a18e0aebdd43","system_id":"levelo_inurba_marseille","lat":43.29936,"lon":5.3655,"is_reserved":false,"is_disabled":false,"rental_uris":{"android":"levelo://app?vid=aca29cf2-3702-4b18-9d51-a18e0aebdd43","ios":"levelo://app?vid=aca29cf2-3702-4b18-9d51-a18e0aebdd43"},"vehicle_type_id":"4","last_reported":1716721596,"current_range_meters":19200,"station_id":"","pricing_plan_id":"cebpf4jnsgd1na2vs0mg"},{"bike_id":"0c147b3b-118e-4ed3-b9a5-a5939d1ebac3","system_id":"levelo_inurba_marseille","lat":43.299222,"lon":5.365554,"is_reserved":false,"is_disabled":false,"rental_uris":{"android":"levelo://app?vid=0c147b3b-118e-4ed3-b9a5-a5939d1ebac3","ios":"levelo://app?vid=0c147b3b-118e-4ed3-b9a5-a5939d1ebac3"},"vehicle_type_id":"4","last_reported":1716721596,"current_range_meters":0,"station_id":"ce4bgm92rcd13ifvqbr0","pricing_plan_id":"cebpf4jnsgd1na2vs0mg"},{"bike_id":"d8539b7a-bef0-4513-9ef4-3492b9ca764e","system_id":"levelo_inurba_marseille","lat":43.299724,"lon":5.371829,"is_reserved":false,"is_disabled":false,"rental_uris":{"android":"levelo://app?vid=d8539b7a-bef0-4513-9ef4-3492b9ca764e","ios":"levelo://app?vid=d8539b7a-bef0-4513-9ef4-3492b9ca764e"},"vehicle_type_id":"4","last_reported":1716721596,"current_range_meters":19600,"station_id":"ce4bgr92rcd13ifvqc7g","pricing_plan_id":"cebpf4jnsgd1na2vs0mg"},{"bike_id":"cb2a60c5-1053-497f-824d-2e4a5ef412e3","system_id":"levelo_inurba_marseille","lat":43.309727,"lon":5.385633,"is_reserved":false,"is_disabled":false,"rental_uris":{"android":"levelo://app?vid=cb2a60c5-1053-497f-824d-2e4a5ef412e3","ios":"levelo://app?vid=cb2a60c5-1053-497f-824d-2e4a5ef412e3"},"vehicle_type_id":"4","last_reported":1716721596,"current_range_meters":12400,"station_id":"ce4bh112rcd13ifvqda0","pricing_plan_id":"cebpf4jnsgd1na2vs0mg"},{"bike_id":"7c0279c4-785e-41cc-9875-11b1aa5697b0","system_id":"levelo_inurba_marseille","lat":43.298433,"lon":5.362774,"is_reserved":false,"is_disabled":false,"rental_uris":{"android":"levelo://app?vid=7c0279c4-785e-41cc-9875-11b1aa5697b0","ios":"levelo://app?vid=7c0279c4-785e-41cc-9875-11b1aa5697b0"},"vehicle_type_id":"4","last_reported":1716721596,"current_range_meters":31200,"station_id":"ce4bgpp2rcd13ifvqc3g","pricing_plan_id":"cebpf4jnsgd1na2vs0mg"},{"bike_id":"6c92ce19-fad7-4ce0-8cb1-bfedbd04ca93","system_id":"levelo_inurba_marseille","lat":43.298433,"lon":5.362774,"is_reserved":false,"is_disabled":false,"rental_uris":{"android":"levelo://app?vid=6c92ce19-fad7-4ce0-8cb1-bfedbd04ca93","ios":"levelo://app?vid=6c92ce19-fad7-4ce0-8cb1-bfedbd04ca93"},"vehicle_type_id":"4","last_reported":1716721596,"current_range_meters":31200,"station_id":"ce4bgpp2rcd13ifvqc3g","pricing_plan_id":"cebpf4jnsgd1na2vs0mg"},{"bike_id":"90d6057f-599a-4d72-b5c2-ebff1496084a","system_id":"levelo_inurba_marseille","lat":43.29909,"lon":5.37462,"is_reserved":false,"is_disabled":false,"rental_uris":{"android":"levelo://app?vid=90d6057f-599a-4d72-b5c2-ebff1496084a","ios":"levelo://app?vid=90d6057f-599a-4d72-b5c2-ebff1496084a"},"vehicle_type_id":"4","last_reported":1716721596,"current_range_meters":0,"station_id":"ce4bgjh2rcd13ifvqbg0","pricing_plan_id":"cebpf4jnsgd1na2vs0mg"},{"bike_id":"22a7f2ad-470e-4cdb-83ad-c2443feaa7e3","system_id":"levelo_inurba_marseille","lat":43.311722,"lon":5.387247,"is_reserved":false,"is_disabled":false,"rental_uris":{"android":"levelo://app?vid=22a7f2ad-470e-4cdb-83ad-c2443feaa7e3","ios":"levelo://app?vid=22a7f2ad-470e-4cdb-83ad-c2443feaa7e3"},"vehicle_type_id":"4","last_reported":1716721596,"current_range_meters":10000,"station_id":"ce4bgv12rcd13ifvqcp0","pricing_plan_id":"cebpf4jnsgd1na2vs0mg"},{"bike_id":"fcf38580-f789-4608-accb-ca2404d79202","system_id":"levelo_inurba_marseille","lat":43.311722,"lon":5.387247,"is_reserved":false,"is_disabled":false,"rental_uris":{"android":"levelo://app?vid=fcf38580-f789-4608-accb-ca2404d79202","ios":"levelo://app?vid=fcf38580-f789-4608-accb-ca2404d79202"},"vehicle_type_id":"4","last_reported":1716721596,"current_range_meters":12800,"station_id":"ce4bgv12rcd13ifvqcp0","pricing_plan_id":"cebpf4jnsgd1na2vs0mg"},{"bike_id":"ebe6f4ff-cb37-4c87-9cc1-8e1e260c1bbd","system_id":"levelo_inurba_marseille","lat":43.311722,"lon":5.387247,"is_reserved":false,"is_disabled":false,"rental_uris":{"android":"levelo://app?vid=ebe6f4ff-cb37-4c87-9cc1-8e1e260c1bbd","ios":"levelo://app?vid=ebe6f4ff-cb37-4c87-9cc1-8e1e260c1bbd"},"vehicle_type_id":"4","last_reported":1716721596,"current_range_meters":26400,"station_id":"ce4bgv12rcd13ifvqcp0","pricing_plan_id":"cebpf4jnsgd1na2vs0mg"},{"bike_id":"ed492a4e-944e-43b3-bd26-4581a8e6f7a8","system_id":"levelo_inurba_marseille","lat":43.297794,"lon":5.370888,"is_reserved":false,"is_disabled":false,"rental_uris":{"android":"levelo://app?vid=ed492a4e-944e-43b3-bd26-4581a8e6f7a8","ios":"levelo://app?vid=ed492a4e-944e-43b3-bd26-4581a8e6f7a8"},"vehicle_type_id":"4","last_reported":1716721596,"current_range_meters":29600,"station_id":"ce4bgop2rcd13ifvqc1g","pricing_plan_id":"cebpf4jnsgd1na2vs0mg"},{"bike_id":"2027e0c0-54ef-42aa-b331-a1ff92adce21","system_id":"levelo_inurba_marseille","lat":43.297774,"lon":5.370875,"is_reserved":false,"is_disabled":false,"rental_uris":{"android":"levelo://app?vid=2027e0c0-54ef-42aa-b331-a1ff92adce21","ios":"levelo://app?vid=2027e0c0-54ef-42aa-b331-a1ff92adce21"},"vehicle_type_id":"4","last_reported":1716721596,"current_range_meters":6800,"station_id":"ce4bgop2rcd13ifvqc1g","pricing_plan_id":"cebpf4jnsgd1na2vs0mg"},{"bike_id":"527866fb-40d3-4bb1-9c65-0464d8d76d3c","system_id":"levelo_inurba_marseille","lat":43.322872,"lon":5.382756,"is_reserved":false,"is_disabled":false,"rental_uris":{"android":"levelo://app?vid=527866fb-40d3-4bb1-9c65-0464d8d76d3c","ios":"levelo://app?vid=527866fb-40d3-4bb1-9c65-0464d8d76d3c"},"vehicle_type_id":"4","last_reported":1716721596,"current_range_meters":15600,"station_id":"ce4bhr12rcd13ifvqhqg","pricing_plan_id":"cebpf4jnsgd1na2vs0mg"},{"bike_id":"44991ac8-d706-4f51-9a70-e44937b720db","system_id":"levelo_inurba_marseille","lat":43.30219,"lon":5.38261,"is_reserved":false,"is_disabled":false,"rental_uris":{"android":"levelo://app?vid=44991ac8-d706-4f51-9a70-e44937b720db","ios":"levelo://app?vid=44991ac8-d706-4f51-9a70-e44937b720db"},"vehicle_type_id":"4","last_reported":1716721596,"current_range_meters":6400,"station_id":"","pricing_plan_id":"cebpf4jnsgd1na2vs0mg"},{"bike_id":"6a3c77f3-065d-40c1-aefc-bf91742db4a2","system_id":"levelo_inurba_marseille","lat":43.297163,"lon":5.365866,"is_reserved":false,"is_disabled":false,"rental_uris":{"android":"levelo://app?vid=6a3c77f3-065d-40c1-aefc-bf91742db4a2","ios":"levelo://app?vid=6a3c77f3-065d-40c1-aefc-bf91742db4a2"},"vehicle_type_id":"4","last_reported":1716721596,"current_range_meters":28000,"station_id":"ce4bgn12rcd13ifvqbt0","pricing_plan_id":"cebpf4jnsgd1na2vs0mg"},{"bike_id":"1dfad371-1766-4f92-bf09-7a98d75ddd6a","system_id":"levelo_inurba_marseille","lat":43.298433,"lon":5.362774,"is_reserved":false,"is_disabled":false,"rental_uris":{"android":"levelo://app?vid=1dfad371-1766-4f92-bf09-7a98d75ddd6a","ios":"levelo://app?vid=1dfad371-1766-4f92-bf09-7a98d75ddd6a"},"vehicle_type_id":"4","last_reported":1716721596,"current_range_meters":2800,"station_id":"ce4bgpp2rcd13ifvqc3g","pricing_plan_id":"cebpf4jnsgd1na2vs0mg"},{"bike_id":"922676a1-fc47-409c-9e3d-876b3a77b0ef","system_id":"levelo_inurba_marseille","lat":43.297163,"lon":5.365866,"is_reserved":false,"is_disabled":false,"rental_uris":{"android":"levelo://app?vid=922676a1-fc47-409c-9e3d-876b3a77b0ef","ios":"levelo://app?vid=922676a1-fc47-409c-9e3d-876b3a77b0ef"},"vehicle_type_id":"4","last_reported":1716721596,"current_range_meters":24000,"station_id":"ce4bgn12rcd13ifvqbt0","pricing_plan_id":"cebpf4jnsgd1na2vs0mg"},{"bike_id":"426d3889-a3c2-4bbc-9786-c04941e7261d","system_id":"levelo_inurba_marseille","lat":43.299679,"lon":5.379645,"is_reserved":false,"is_disabled":false,"rental_uris":{"android":"levelo://app?vid=426d3889-a3c2-4bbc-9786-c04941e7261d","ios":"levelo://app?vid=426d3889-a3c2-4bbc-9786-c04941e7261d"},"vehicle_type_id":"4","last_reported":1716721596,"current_range_meters":25600,"station_id":"","pricing_plan_id":"cebpf4jnsgd1na2vs0mg"},{"bike_id":"cd4800ca-ff35-4632-b8a6-3772174bd46e","system_id":"levelo_inurba_marseille","lat":43.296731,"lon":5.370106,"is_reserved":false,"is_disabled":false,"rental_uris":{"android":"levelo://app?vid=cd4800ca-ff35-4632-b8a6-3772174bd46e","ios":"levelo://app?vid=cd4800ca-ff35-4632-b8a6-3772174bd46e"},"vehicle_type_id":"4","last_reported":1716721596,"current_range_meters":8400,"station_id":"","pricing_plan_id":"cebpf4jnsgd1na2vs0mg"},{"bike_id":"355f03bd-a131-43b2-a033-1e93b48b391b","system_id":"levelo_inurba_marseille","lat":43.2968,"lon":5.37291,"is_reserved":false,"is_disabled":false,"rental_uris":{"android":"levelo://app?vid=355f03bd-a131-43b2-a033-1e93b48b391b","ios":"levelo://app?vid=355f03bd-a131-43b2-a033-1e93b48b391b"},"vehicle_type_id":"4","last_reported":1716721596,"current_range_meters":13600,"station_id":"ce4bgk12rcd13ifvqbj0","pricing_plan_id":"cebpf4jnsgd1na2vs0mg"},{"bike_id":"b0181dbd-d16d-4347-9382-b450da867146","system_id":"levelo_inurba_marseille","lat":43.29657,"lon":5.36162,"is_reserved":false,"is_disabled":false,"rental_uris":{"android":"levelo://app?vid=b0181dbd-d16d-4347-9382-b450da867146","ios":"levelo://app?vid=b0181dbd-d16d-4347-9382-b450da867146"},"vehicle_type_id":"4","last_reported":1716721596,"current_range_meters":5200,"station_id":"","pricing_plan_id":"cebpf4jnsgd1na2vs0mg"},{"bike_id":"a822aa16-78a8-4b74-bff0-1f3c95dd2ef3","system_id":"levelo_inurba_marseille","lat":43.2959,"lon":5.36732,"is_reserved":false,"is_disabled":false,"rental_uris":{"android":"levelo://app?vid=a822aa16-78a8-4b74-bff0-1f3c95dd2ef3","ios":"levelo://app?vid=a822aa16-78a8-4b74-bff0-1f3c95dd2ef3"},"vehicle_type_id":"4","last_reported":1716721596,"current_range_meters":0,"station_id":"ce4bgph2rcd13ifvqc2g","pricing_plan_id":"cebpf4jnsgd1na2vs0mg"},{"bike_id":"a6fcf19e-fc8b-487f-b097-73a825c68cb3","system_id":"levelo_inurba_marseille","lat":43.295804,"lon":5.367479,"is_reserved":false,"is_disabled":false,"rental_uris":{"android":"levelo://app?vid=a6fcf19e-fc8b-487f-b097-73a825c68cb3","ios":"levelo://app?vid=a6fcf19e-fc8b-487f-b097-73a825c68cb3"},"vehicle_type_id":"4","last_reported":1716721596,"current_range_meters":26000,"station_id":"ce4bgph2rcd13ifvqc2g","pricing_plan_id":"cebpf4jnsgd1na2vs0mg"},{"bike_id":"9324e3bd-3bfa-4b05-a76c-54d213430366","system_id":"levelo_inurba_marseille","lat":43.309589,"lon":5.390258,"is_reserved":false,"is_disabled":false,"rental_uris":{"android":"levelo://app?vid=9324e3bd-3bfa-4b05-a76c-54d213430366","ios":"levelo://app?vid=9324e3bd-3bfa-4b05-a76c-54d213430366"},"vehicle_type_id":"4","last_reported":1716721596,"current_range_meters":29600,"station_id":"ce4bgup2rcd13ifvqco0","pricing_plan_id":"cebpf4jnsgd1na2vs0mg"},{"bike_id":"0f9be624-1bd1-43aa-af9e-80097e295ca3","system_id":"levelo_inurba_marseille","lat":43.309589,"lon":5.390258,"is_reserved":false,"is_disabled":false,"rental_uris":{"android":"levelo://app?vid=0f9be624-1bd1-43aa-af9e-80097e295ca3","ios":"levelo://app?vid=0f9be624-1bd1-43aa-af9e-80097e295ca3"},"vehicle_type_id":"4","last_reported":1716721596,"current_range_meters":14800,"station_id":"ce4bgup2rcd13ifvqco0","pricing_plan_id":"cebpf4jnsgd1na2vs0mg"},{"bike_id":"65065a37-a232-41ec-9f4d-56d0fdc6cf1a","system_id":"levelo_inurba_marseille","lat":43.317399,"lon":5.389972,"is_reserved":false,"is_disabled":false,"rental_uris":{"android":"levelo://app?vid=65065a37-a232-41ec-9f4d-56d0fdc6cf1a","ios":"levelo://app?vid=65065a37-a232-41ec-9f4d-56d0fdc6cf1a"},"vehicle_type_id":"4","last_reported":1716721596,"current_range_meters":22000,"station_id":"ce4bhqp2rcd13ifvqhng","pricing_plan_id":"cebpf4jnsgd1na2vs0mg"},{"bike_id":"7c4ce60e-4dcd-40e7-bcc0-701d7d8a91b4","system_id":"levelo_inurba_marseille","lat":43.317557,"lon":5.390173,"is_reserved":false,"is_disabled":false,"rental_uris":{"android":"levelo://app?vid=7c4ce60e-4dcd-40e7-bcc0-701d7d8a91b4","ios":"levelo://app?vid=7c4ce60e-4dcd-40e7-bcc0-701d7d8a91b4"},"vehicle_type_id":"4","last_reported":1716721596,"current_range_meters":28400,"station_id":"ce4bhqp2rcd13ifvqhng","pricing_plan_id":"cebpf4jnsgd1na2vs0mg"},{"bike_id":"d60f0e6e-99ed-42ca-a2c9-fed1a4929c2a","system_id":"levelo_inurba_marseille","lat":43.317559,"lon":5.390158,"is_reserved":false,"is_disabled":false,"rental_uris":{"android":"levelo://app?vid=d60f0e6e-99ed-42ca-a2c9-fed1a4929c2a","ios":"levelo://app?vid=d60f0e6e-99ed-42ca-a2c9-fed1a4929c2a"},"vehicle_type_id":"4","last_reported":1716721596,"current_range_meters":28800,"station_id":"ce4bhqp2rcd13ifvqhng","pricing_plan_id":"cebpf4jnsgd1na2vs0mg"},{"bike_id":"7ea6d543-8a00-41f0-ad5e-467c5fd11351","system_id":"levelo_inurba_marseille","lat":43.317557,"lon":5.390173,"is_reserved":false,"is_disabled":false,"rental_uris":{"android":"levelo://app?vid=7ea6d543-8a00-41f0-ad5e-467c5fd11351","ios":"levelo://app?vid=7ea6d543-8a00-41f0-ad5e-467c5fd11351"},"vehicle_type_id":"4","last_reported":1716721596,"current_range_meters":31200,"station_id":"ce4bhqp2rcd13ifvqhng","pricing_plan_id":"cebpf4jnsgd1na2vs0mg"},{"bike_id":"1843fa15-673f-480d-9694-2ce3dc46b292","system_id":"levelo_inurba_marseille","lat":43.317557,"lon":5.390173,"is_reserved":false,"is_disabled":false,"rental_uris":{"android":"levelo://app?vid=1843fa15-673f-480d-9694-2ce3dc46b292","ios":"levelo://app?vid=1843fa15-673f-480d-9694-2ce3dc46b292"},"vehicle_type_id":"4","last_reported":1716721596,"current_range_meters":30800,"station_id":"ce4bhqp2rcd13ifvqhng","pricing_plan_id":"cebpf4jnsgd1na2vs0mg"},{"bike_id":"ef25a259-becc-43e5-a647-dd8f1e9da37a","system_id":"levelo_inurba_marseille","lat":43.29576,"lon":5.37513,"is_reserved":false,"is_disabled":false,"rental_uris":{"android":"levelo://app?vid=ef25a259-becc-43e5-a647-dd8f1e9da37a","ios":"levelo://app?vid=ef25a259-becc-43e5-a647-dd8f1e9da37a"},"vehicle_type_id":"4","last_reported":1716721596,"current_range_meters":23600,"station_id":"ce4bgh92rcd13ifvqb50","pricing_plan_id":"cebpf4jnsgd1na2vs0mg"},{"bike_id":"341b5379-6adb-412f-9dc8-21956a3e7313","system_id":"levelo_inurba_marseille","lat":43.295748,"lon":5.37522,"is_reserved":false,"is_disabled":false,"rental_uris":{"android":"levelo://app?vid=341b5379-6adb-412f-9dc8-21956a3e7313","ios":"levelo://app?vid=341b5379-6adb-412f-9dc8-21956a3e7313"},"vehicle_type_id":"4","last_reported":1716721596,"current_range_meters":0,"station_id":"ce4bgh92rcd13ifvqb50","pricing_plan_id":"cebpf4jnsgd1na2vs0mg"},{"bike_id":"ecc9542d-2066-4362-90e1-9e43edc03245","system_id":"levelo_inurba_marseille","lat":43.304278,"lon":5.388868,"is_reserved":false,"is_disabled":false,"rental_uris":{"android":"levelo://app?vid=ecc9542d-2066-4362-90e1-9e43edc03245","ios":"levelo://app?vid=ecc9542d-2066-4362-90e1-9e43edc03245"},"vehicle_type_id":"4","last_reported":1716721596,"current_range_meters":10800,"station_id":"ce4bgk12rcd13ifvqbi0","pricing_plan_id":"cebpf4jnsgd1na2vs0mg"},{"bike_id":"f297c4d1-2fd7-48b9-90ab-ffcf9b369559","system_id":"levelo_inurba_marseille","lat":43.304278,"lon":5.388868,"is_reserved":false,"is_disabled":false,"rental_uris":{"android":"levelo://app?vid=f297c4d1-2fd7-48b9-90ab-ffcf9b369559","ios":"levelo://app?vid=f297c4d1-2fd7-48b9-90ab-ffcf9b369559"},"vehicle_type_id":"4","last_reported":1716721596,"current_range_meters":12400,"station_id":"ce4bgk12rcd13ifvqbi0","pricing_plan_id":"cebpf4jnsgd1na2vs0mg"},{"bike_id":"87825249-d632-4bcd-b442-bca06bc949ef","system_id":"levelo_inurba_marseille","lat":43.298372,"lon":5.382585,"is_reserved":false,"is_disabled":false,"rental_uris":{"android":"levelo://app?vid=87825249-d632-4bcd-b442-bca06bc949ef","ios":"levelo://app?vid=87825249-d632-4bcd-b442-bca06bc949ef"},"vehicle_type_id":"4","last_reported":1716721596,"current_range_meters":26000,"station_id":"","pricing_plan_id":"cebpf4jnsgd1na2vs0mg"},{"bike_id":"020c5256-3ea4-48ee-9fe2-0e3b78e79b58","system_id":"levelo_inurba_marseille","lat":43.295279,"lon":5.375048,"is_reserved":false,"is_disabled":false,"rental_uris":{"android":"levelo://app?vid=020c5256-3ea4-48ee-9fe2-0e3b78e79b58","ios":"levelo://app?vid=020c5256-3ea4-48ee-9fe2-0e3b78e79b58"},"vehicle_type_id":"4","last_reported":1716721596,"current_range_meters":4400,"station_id":"ce4bgkp2rcd13ifvqbmg","pricing_plan_id":"cebpf4jnsgd1na2vs0mg"},{"bike_id":"ea5c8d42-c861-4802-a2ac-9f57d3bd183f","system_id":"levelo_inurba_marseille","lat":43.299724,"lon":5.384848,"is_reserved":false,"is_disabled":false,"rental_uris":{"android":"levelo://app?vid=ea5c8d42-c861-4802-a2ac-9f57d3bd183f","ios":"levelo://app?vid=ea5c8d42-c861-4802-a2ac-9f57d3bd183f"},"vehicle_type_id":"4","last_reported":1716721596,"current_range_meters":31200,"station_id":"ce4bgj92rcd13ifvqbd0","pricing_plan_id":"cebpf4jnsgd1na2vs0mg"},{"bike_id":"27a7c4a4-f9b6-4264-99e2-45424f8e3894","system_id":"levelo_inurba_marseille","lat":43.29521,"lon":5.37497,"is_reserved":false,"is_disabled":false,"rental_uris":{"android":"levelo://app?vid=27a7c4a4-f9b6-4264-99e2-45424f8e3894","ios":"levelo://app?vid=27a7c4a4-f9b6-4264-99e2-45424f8e3894"},"vehicle_type_id":"4","last_reported":1716721596,"current_range_meters":0,"station_id":"ce4bgkp2rcd13ifvqbmg","pricing_plan_id":"cebpf4jnsgd1na2vs0mg"},{"bike_id":"72e99f81-cc20-4dd7-8e17-595f75a71889","system_id":"levelo_inurba_marseille","lat":43.295279,"lon":5.375048,"is_reserved":false,"is_disabled":false,"rental_uris":{"android":"levelo://app?vid=72e99f81-cc20-4dd7-8e17-595f75a71889","ios":"levelo://app?vid=72e99f81-cc20-4dd7-8e17-595f75a71889"},"vehicle_type_id":"4","last_reported":1716721596,"current_range_meters":14000,"station_id":"ce4bgkp2rcd13ifvqbmg","pricing_plan_id":"cebpf4jnsgd1na2vs0mg"},{"bike_id":"d014cf3e-048b-41f0-8f75-4b7171a47831","system_id":"levelo_inurba_marseille","lat":43.299717,"lon":5.384845,"is_reserved":false,"is_disabled":false,"rental_uris":{"android":"levelo://app?vid=d014cf3e-048b-41f0-8f75-4b7171a47831","ios":"levelo://app?vid=d014cf3e-048b-41f0-8f75-4b7171a47831"},"vehicle_type_id":"4","last_reported":1716721596,"current_range_meters":30800,"station_id":"ce4bgj92rcd13ifvqbd0","pricing_plan_id":"cebpf4jnsgd1na2vs0mg"},{"bike_id":"96aea4b2-81e1-48de-b900-23cb94ea7832","system_id":"levelo_inurba_marseille","lat":43.292749,"lon":5.368402,"is_reserved":false,"is_disabled":false,"rental_uris":{"android":"levelo://app?vid=96aea4b2-81e1-48de-b900-23cb94ea7832","ios":"levelo://app?vid=96aea4b2-81e1-48de-b900-23cb94ea7832"},"vehicle_type_id":"4","last_reported":1716721596,"current_range_meters":28000,"station_id":"ce4bhbp2rcd13ifvqesg","pricing_plan_id":"cebpf4jnsgd1na2vs0mg"},{"bike_id":"d0f050f9-e2fb-4421-927c-27a7dadc946c","system_id":"levelo_inurba_marseille","lat":43.292743,"lon":5.368528,"is_reserved":false,"is_disabled":false,"rental_uris":{"android":"levelo://app?vid=d0f050f9-e2fb-4421-927c-27a7dadc946c","ios":"levelo://app?vid=d0f050f9-e2fb-4421-927c-27a7dadc946c"},"vehicle_type_id":"4","last_reported":1716721596,"current_range_meters":24000,"station_id":"ce4bhbp2rcd13ifvqesg","pricing_plan_id":"cebpf4jnsgd1na2vs0mg"},{"bike_id":"933f3140-8122-4187-83e4-8c5dd96dc299","system_id":"levelo_inurba_marseille","lat":43.29271,"lon":5.36851,"is_reserved":false,"is_disabled":false,"rental_uris":{"android":"levelo://app?vid=933f3140-8122-4187-83e4-8c5dd96dc299","ios":"levelo://app?vid=933f3140-8122-4187-83e4-8c5dd96dc299"},"vehicle_type_id":"4","last_reported":1716721596,"current_range_meters":7200,"station_id":"ce4bhbp2rcd13ifvqesg","pricing_plan_id":"cebpf4jnsgd1na2vs0mg"},{"bike_id":"dbad2fa8-db37-4f87-aeb7-5b108762a7de","system_id":"levelo_inurba_marseille","lat":43.29282,"lon":5.37457,"is_reserved":false,"is_disabled":false,"rental_uris":{"android":"levelo://app?vid=dbad2fa8-db37-4f87-aeb7-5b108762a7de","ios":"levelo://app?vid=dbad2fa8-db37-4f87-aeb7-5b108762a7de"},"vehicle_type_id":"4","last_reported":1716721596,"current_range_meters":0,"station_id":"ce4bgi12rcd13ifvqb70","pricing_plan_id":"cebpf4jnsgd1na2vs0mg"},{"bike_id":"0e30a5d0-ee0b-41ae-9145-8a3f316d9674","system_id":"levelo_inurba_marseille","lat":43.303002,"lon":5.392142,"is_reserved":false,"is_disabled":false,"rental_uris":{"android":"levelo://app?vid=0e30a5d0-ee0b-41ae-9145-8a3f316d9674","ios":"levelo://app?vid=0e30a5d0-ee0b-41ae-9145-8a3f316d9674"},"vehicle_type_id":"4","last_reported":1716721596,"current_range_meters":22400,"station_id":"ce4bgkh2rcd13ifvqbk0","pricing_plan_id":"cebpf4jnsgd1na2vs0mg"},{"bike_id":"2ddb0127-97ea-4147-b342-a03a44625bdd","system_id":"levelo_inurba_marseille","lat":43.302992,"lon":5.392136,"is_reserved":false,"is_disabled":false,"rental_uris":{"android":"levelo://app?vid=2ddb0127-97ea-4147-b342-a03a44625bdd","ios":"levelo://app?vid=2ddb0127-97ea-4147-b342-a03a44625bdd"},"vehicle_type_id":"4","last_reported":1716721596,"current_range_meters":6000,"station_id":"ce4bgkh2rcd13ifvqbk0","pricing_plan_id":"cebpf4jnsgd1na2vs0mg"},{"bike_id":"ed2f3179-23a5-4858-8036-aca4a244156a","system_id":"levelo_inurba_marseille","lat":43.29365,"lon":5.37837,"is_reserved":false,"is_disabled":false,"rental_uris":{"android":"levelo://app?vid=ed2f3179-23a5-4858-8036-aca4a244156a","ios":"levelo://app?vid=ed2f3179-23a5-4858-8036-aca4a244156a"},"vehicle_type_id":"4","last_reported":1716721596,"current_range_meters":4000,"station_id":"ce4bgjh2rcd13ifvqbf0","pricing_plan_id":"cebpf4jnsgd1na2vs0mg"},{"bike_id":"a90ac3c4-93fb-4928-9494-281941cb15f7","system_id":"levelo_inurba_marseille","lat":43.292311,"lon":5.360731,"is_reserved":false,"is_disabled":false,"rental_uris":{"android":"levelo://app?vid=a90ac3c4-93fb-4928-9494-281941cb15f7","ios":"levelo://app?vid=a90ac3c4-93fb-4928-9494-281941cb15f7"},"vehicle_type_id":"4","last_reported":1716721596,"current_range_meters":22800,"station_id":"ce4bhbh2rcd13ifvqeqg","pricing_plan_id":"cebpf4jnsgd1na2vs0mg"},{"bike_id":"a5237f1a-7c32-4467-bdda-25bd261414a6","system_id":"levelo_inurba_marseille","lat":43.30085,"lon":5.390856,"is_reserved":false,"is_disabled":false,"rental_uris":{"android":"levelo://app?vid=a5237f1a-7c32-4467-bdda-25bd261414a6","ios":"levelo://app?vid=a5237f1a-7c32-4467-bdda-25bd261414a6"},"vehicle_type_id":"4","last_reported":1716721596,"current_range_meters":0,"station_id":"ce4bh192rcd13ifvqdb0","pricing_plan_id":"cebpf4jnsgd1na2vs0mg"},{"bike_id":"0b559e8e-b75b-4e4c-8d82-36250c845bbb","system_id":"levelo_inurba_marseille","lat":43.30085,"lon":5.390856,"is_reserved":false,"is_disabled":false,"rental_uris":{"android":"levelo://app?vid=0b559e8e-b75b-4e4c-8d82-36250c845bbb","ios":"levelo://app?vid=0b559e8e-b75b-4e4c-8d82-36250c845bbb"},"vehicle_type_id":"4","last_reported":1716721596,"current_range_meters":21200,"station_id":"ce4bh192rcd13ifvqdb0","pricing_plan_id":"cebpf4jnsgd1na2vs0mg"},{"bike_id":"bb2a0e28-fc65-4d14-86e3-9752d8f36b6f","system_id":"levelo_inurba_marseille","lat":43.292311,"lon":5.360731,"is_reserved":false,"is_disabled":false,"rental_uris":{"android":"levelo://app?vid=bb2a0e28-fc65-4d14-86e3-9752d8f36b6f","ios":"levelo://app?vid=bb2a0e28-fc65-4d14-86e3-9752d8f36b6f"},"vehicle_type_id":"4","last_reported":1716721596,"current_range_meters":23200,"station_id":"ce4bhbh2rcd13ifvqeqg","pricing_plan_id":"cebpf4jnsgd1na2vs0mg"},{"bike_id":"27e08c31-27b0-4a81-a4b4-4cee7e0b54dc","system_id":"levelo_inurba_marseille","lat":43.291675,"lon":5.371583,"is_reserved":false,"is_disabled":false,"rental_uris":{"android":"levelo://app?vid=27e08c31-27b0-4a81-a4b4-4cee7e0b54dc","ios":"levelo://app?vid=27e08c31-27b0-4a81-a4b4-4cee7e0b54dc"},"vehicle_type_id":"4","last_reported":1716721596,"current_range_meters":19200,"station_id":"ce4bha92rcd13ifvqeh0","pricing_plan_id":"cebpf4jnsgd1na2vs0mg"},{"bike_id":"7b9c2377-f376-4f82-9079-c7aa4f523288","system_id":"levelo_inurba_marseille","lat":43.284219,"lon":5.3497,"is_reserved":false,"is_disabled":false,"rental_uris":{"android":"levelo://app?vid=7b9c2377-f376-4f82-9079-c7aa4f523288","ios":"levelo://app?vid=7b9c2377-f376-4f82-9079-c7aa4f523288"},"vehicle_type_id":"4","last_reported":1716721596,"current_range_meters":28000,"station_id":"ce4bhbh2rcd13ifvqepg","pricing_plan_id":"cebpf4jnsgd1na2vs0mg"},{"bike_id":"658040d7-b688-4583-bf69-7d59b3988ae8","system_id":"levelo_inurba_marseille","lat":43.292005,"lon":5.357875,"is_reserved":false,"is_disabled":false,"rental_uris":{"android":"levelo://app?vid=658040d7-b688-4583-bf69-7d59b3988ae8","ios":"levelo://app?vid=658040d7-b688-4583-bf69-7d59b3988ae8"},"vehicle_type_id":"4","last_reported":1716721596,"current_range_meters":20800,"station_id":"ce4bhb12rcd13ifvqel0","pricing_plan_id":"cebpf4jnsgd1na2vs0mg"},{"bike_id":"beb2e537-4f6b-4889-94da-46725393f39e","system_id":"levelo_inurba_marseille","lat":43.291994,"lon":5.357886,"is_reserved":false,"is_disabled":false,"rental_uris":{"android":"levelo://app?vid=beb2e537-4f6b-4889-94da-46725393f39e","ios":"levelo://app?vid=beb2e537-4f6b-4889-94da-46725393f39e"},"vehicle_type_id":"4","last_reported":1716721596,"current_range_meters":21600,"station_id":"ce4bhb12rcd13ifvqel0","pricing_plan_id":"cebpf4jnsgd1na2vs0mg"},{"bike_id":"67848fca-dfc3-4cd3-b9ae-d73aa8483b50","system_id":"levelo_inurba_marseille","lat":43.291994,"lon":5.357886,"is_reserved":false,"is_disabled":false,"rental_uris":{"android":"levelo://app?vid=67848fca-dfc3-4cd3-b9ae-d73aa8483b50","ios":"levelo://app?vid=67848fca-dfc3-4cd3-b9ae-d73aa8483b50"},"vehicle_type_id":"4","last_reported":1716721596,"current_range_meters":18800,"station_id":"ce4bhb12rcd13ifvqel0","pricing_plan_id":"cebpf4jnsgd1na2vs0mg"},{"bike_id":"496ab2df-a644-48b9-ac15-e554c089e492","system_id":"levelo_inurba_marseille","lat":43.292005,"lon":5.357875,"is_reserved":false,"is_disabled":false,"rental_uris":{"android":"levelo://app?vid=496ab2df-a644-48b9-ac15-e554c089e492","ios":"levelo://app?vid=496ab2df-a644-48b9-ac15-e554c089e492"},"vehicle_type_id":"4","last_reported":1716721596,"current_range_meters":19600,"station_id":"ce4bhb12rcd13ifvqel0","pricing_plan_id":"cebpf4jnsgd1na2vs0mg"},{"bike_id":"980aea93-072b-49b1-ab93-6e700dc34348","system_id":"levelo_inurba_marseille","lat":43.292005,"lon":5.357875,"is_reserved":false,"is_disabled":false,"rental_uris":{"android":"levelo://app?vid=980aea93-072b-49b1-ab93-6e700dc34348","ios":"levelo://app?vid=980aea93-072b-49b1-ab93-6e700dc34348"},"vehicle_type_id":"4","last_reported":1716721596,"current_range_meters":19200,"station_id":"ce4bhb12rcd13ifvqel0","pricing_plan_id":"cebpf4jnsgd1na2vs0mg"},{"bike_id":"c5d7b29d-1794-4bc6-9e03-430bb12859a7","system_id":"levelo_inurba_marseille","lat":43.291994,"lon":5.357886,"is_reserved":false,"is_disabled":false,"rental_uris":{"android":"levelo://app?vid=c5d7b29d-1794-4bc6-9e03-430bb12859a7","ios":"levelo://app?vid=c5d7b29d-1794-4bc6-9e03-430bb12859a7"},"vehicle_type_id":"4","last_reported":1716721596,"current_range_meters":18400,"station_id":"ce4bhb12rcd13ifvqel0","pricing_plan_id":"cebpf4jnsgd1na2vs0mg"},{"bike_id":"966a31de-59b1-4871-bc4d-9bbd973bde7e","system_id":"levelo_inurba_marseille","lat":43.291994,"lon":5.357886,"is_reserved":false,"is_disabled":false,"rental_uris":{"android":"levelo://app?vid=966a31de-59b1-4871-bc4d-9bbd973bde7e","ios":"levelo://app?vid=966a31de-59b1-4871-bc4d-9bbd973bde7e"},"vehicle_type_id":"4","last_reported":1716721596,"current_range_meters":15600,"station_id":"ce4bhb12rcd13ifvqel0","pricing_plan_id":"cebpf4jnsgd1na2vs0mg"},{"bike_id":"a85cba89-5726-44c6-af21-dd89a52b3ca7","system_id":"levelo_inurba_marseille","lat":43.291994,"lon":5.357886,"is_reserved":false,"is_disabled":false,"rental_uris":{"android":"levelo://app?vid=a85cba89-5726-44c6-af21-dd89a52b3ca7","ios":"levelo://app?vid=a85cba89-5726-44c6-af21-dd89a52b3ca7"},"vehicle_type_id":"4","last_reported":1716721596,"current_range_meters":5200,"station_id":"ce4bhb12rcd13ifvqel0","pricing_plan_id":"cebpf4jnsgd1na2vs0mg"},{"bike_id":"6a332b59-42a6-45c3-8a20-f51a37fa1d13","system_id":"levelo_inurba_marseille","lat":43.309038,"lon":5.396546,"is_reserved":false,"is_disabled":false,"rental_uris":{"android":"levelo://app?vid=6a332b59-42a6-45c3-8a20-f51a37fa1d13","ios":"levelo://app?vid=6a332b59-42a6-45c3-8a20-f51a37fa1d13"},"vehicle_type_id":"4","last_reported":1716721596,"current_range_meters":10800,"station_id":"ce4bh012rcd13ifvqcv0","pricing_plan_id":"cebpf4jnsgd1na2vs0mg"},{"bike_id":"27f2732f-3ffc-44c5-a68e-c38372526478","system_id":"levelo_inurba_marseille","lat":43.292005,"lon":5.357875,"is_reserved":false,"is_disabled":false,"rental_uris":{"android":"levelo://app?vid=27f2732f-3ffc-44c5-a68e-c38372526478","ios":"levelo://app?vid=27f2732f-3ffc-44c5-a68e-c38372526478"},"vehicle_type_id":"4","last_reported":1716721596,"current_range_meters":6800,"station_id":"ce4bhb12rcd13ifvqel0","pricing_plan_id":"cebpf4jnsgd1na2vs0mg"},{"bike_id":"a948bf8e-4db7-4616-b31a-86db59f46c46","system_id":"levelo_inurba_marseille","lat":43.309047,"lon":5.396551,"is_reserved":false,"is_disabled":false,"rental_uris":{"android":"levelo://app?vid=a948bf8e-4db7-4616-b31a-86db59f46c46","ios":"levelo://app?vid=a948bf8e-4db7-4616-b31a-86db59f46c46"},"vehicle_type_id":"4","last_reported":1716721596,"current_range_meters":11200,"station_id":"ce4bh012rcd13ifvqcv0","pricing_plan_id":"cebpf4jnsgd1na2vs0mg"},{"bike_id":"b592cba7-de89-4d6e-a7b0-9c6e3d88f8d3","system_id":"levelo_inurba_marseille","lat":43.29529,"lon":5.385581,"is_reserved":false,"is_disabled":false,"rental_uris":{"android":"levelo://app?vid=b592cba7-de89-4d6e-a7b0-9c6e3d88f8d3","ios":"levelo://app?vid=b592cba7-de89-4d6e-a7b0-9c6e3d88f8d3"},"vehicle_type_id":"4","last_reported":1716721596,"current_range_meters":19200,"station_id":"ce4bgih2rcd13ifvqba0","pricing_plan_id":"cebpf4jnsgd1na2vs0mg"},{"bike_id":"32a5ecbf-004c-47d6-b7ec-11dd1f2b8830","system_id":"levelo_inurba_marseille","lat":43.290779,"lon":5.371482,"is_reserved":false,"is_disabled":false,"rental_uris":{"android":"levelo://app?vid=32a5ecbf-004c-47d6-b7ec-11dd1f2b8830","ios":"levelo://app?vid=32a5ecbf-004c-47d6-b7ec-11dd1f2b8830"},"vehicle_type_id":"4","last_reported":1716721596,"current_range_meters":4800,"station_id":"ce4bh5p2rcd13ifvqe4g","pricing_plan_id":"cebpf4jnsgd1na2vs0mg"},{"bike_id":"41d36734-458e-4b8a-a974-d0a4ced196d0","system_id":"levelo_inurba_marseille","lat":43.290779,"lon":5.371482,"is_reserved":false,"is_disabled":false,"rental_uris":{"android":"levelo://app?vid=41d36734-458e-4b8a-a974-d0a4ced196d0","ios":"levelo://app?vid=41d36734-458e-4b8a-a974-d0a4ced196d0"},"vehicle_type_id":"4","last_reported":1716721596,"current_range_meters":10000,"station_id":"ce4bh5p2rcd13ifvqe4g","pricing_plan_id":"cebpf4jnsgd1na2vs0mg"},{"bike_id":"e75d6fd2-3902-4e36-9940-49d07432b184","system_id":"levelo_inurba_marseille","lat":43.29454,"lon":5.385399,"is_reserved":false,"is_disabled":false,"rental_uris":{"android":"levelo://app?vid=e75d6fd2-3902-4e36-9940-49d07432b184","ios":"levelo://app?vid=e75d6fd2-3902-4e36-9940-49d07432b184"},"vehicle_type_id":"4","last_reported":1716721596,"current_range_meters":24000,"station_id":"","pricing_plan_id":"cebpf4jnsgd1na2vs0mg"},{"bike_id":"dc5e0405-526b-4ed2-b869-5e44344ae317","system_id":"levelo_inurba_marseille","lat":43.302008,"lon":5.394694,"is_reserved":false,"is_disabled":false,"rental_uris":{"android":"levelo://app?vid=dc5e0405-526b-4ed2-b869-5e44344ae317","ios":"levelo://app?vid=dc5e0405-526b-4ed2-b869-5e44344ae317"},"vehicle_type_id":"4","last_reported":1716721596,"current_range_meters":25600,"station_id":"ce4bh0p2rcd13ifvqd70","pricing_plan_id":"cebpf4jnsgd1na2vs0mg"},{"bike_id":"a49b7662-d97d-45c2-9556-8f27b79d6e04","system_id":"levelo_inurba_marseille","lat":43.302992,"lon":5.392136,"is_reserved":false,"is_disabled":false,"rental_uris":{"android":"levelo://app?vid=a49b7662-d97d-45c2-9556-8f27b79d6e04","ios":"levelo://app?vid=a49b7662-d97d-45c2-9556-8f27b79d6e04"},"vehicle_type_id":"4","last_reported":1716721596,"current_range_meters":25200,"station_id":"ce4bgkh2rcd13ifvqbk0","pricing_plan_id":"cebpf4jnsgd1na2vs0mg"},{"bike_id":"fc995759-1417-4bd5-8647-84f0457cb116","system_id":"levelo_inurba_marseille","lat":43.290319,"lon":5.375732,"is_reserved":false,"is_disabled":false,"rental_uris":{"android":"levelo://app?vid=fc995759-1417-4bd5-8647-84f0457cb116","ios":"levelo://app?vid=fc995759-1417-4bd5-8647-84f0457cb116"},"vehicle_type_id":"4","last_reported":1716721596,"current_range_meters":5200,"station_id":"ce4bh692rcd13ifvqe90","pricing_plan_id":"cebpf4jnsgd1na2vs0mg"},{"bike_id":"bf5ca1c8-72f3-456a-a331-f538ce21f821","system_id":"levelo_inurba_marseille","lat":43.294153,"lon":5.386305,"is_reserved":false,"is_disabled":false,"rental_uris":{"android":"levelo://app?vid=bf5ca1c8-72f3-456a-a331-f538ce21f821","ios":"levelo://app?vid=bf5ca1c8-72f3-456a-a331-f538ce21f821"},"vehicle_type_id":"4","last_reported":1716721596,"current_range_meters":0,"station_id":"ce4bh2h2rcd13ifvqdh0","pricing_plan_id":"cebpf4jnsgd1na2vs0mg"},{"bike_id":"6fb9a9a9-d38a-4b21-a155-42f592e90a06","system_id":"levelo_inurba_marseille","lat":43.293787,"lon":5.385793,"is_reserved":false,"is_disabled":false,"rental_uris":{"android":"levelo://app?vid=6fb9a9a9-d38a-4b21-a155-42f592e90a06","ios":"levelo://app?vid=6fb9a9a9-d38a-4b21-a155-42f592e90a06"},"vehicle_type_id":"4","last_reported":1716721596,"current_range_meters":4400,"station_id":"","pricing_plan_id":"cebpf4jnsgd1na2vs0mg"},{"bike_id":"9378baa5-f3fa-43e5-b005-1205996e9a8c","system_id":"levelo_inurba_marseille","lat":43.289244,"lon":5.366871,"is_reserved":false,"is_disabled":false,"rental_uris":{"android":"levelo://app?vid=9378baa5-f3fa-43e5-b005-1205996e9a8c","ios":"levelo://app?vid=9378baa5-f3fa-43e5-b005-1205996e9a8c"},"vehicle_type_id":"4","last_reported":1716721596,"current_range_meters":0,"station_id":"ce4bhap2rcd13ifvqek0","pricing_plan_id":"cebpf4jnsgd1na2vs0mg"},{"bike_id":"265ab307-ff12-4eb3-953f-93a31e1512b9","system_id":"levelo_inurba_marseille","lat":43.292644,"lon":5.384257,"is_reserved":false,"is_disabled":false,"rental_uris":{"android":"levelo://app?vid=265ab307-ff12-4eb3-953f-93a31e1512b9","ios":"levelo://app?vid=265ab307-ff12-4eb3-953f-93a31e1512b9"},"vehicle_type_id":"4","last_reported":1716721596,"current_range_meters":16400,"station_id":"ce4bh692rcd13ifvqea0","pricing_plan_id":"cebpf4jnsgd1na2vs0mg"},{"bike_id":"4304b5b2-7e5f-4003-b052-308ea5cea0e2","system_id":"levelo_inurba_marseille","lat":43.304274,"lon":5.397513,"is_reserved":false,"is_disabled":false,"rental_uris":{"android":"levelo://app?vid=4304b5b2-7e5f-4003-b052-308ea5cea0e2","ios":"levelo://app?vid=4304b5b2-7e5f-4003-b052-308ea5cea0e2"},"vehicle_type_id":"4","last_reported":1716721596,"current_range_meters":30000,"station_id":"ce4bh092rcd13ifvqd20","pricing_plan_id":"cebpf4jnsgd1na2vs0mg"},{"bike_id":"6d07a219-4a35-4182-b3a0-8dfea33498eb","system_id":"levelo_inurba_marseille","lat":43.292642,"lon":5.384254,"is_reserved":false,"is_disabled":false,"rental_uris":{"android":"levelo://app?vid=6d07a219-4a35-4182-b3a0-8dfea33498eb","ios":"levelo://app?vid=6d07a219-4a35-4182-b3a0-8dfea33498eb"},"vehicle_type_id":"4","last_reported":1716721596,"current_range_meters":27600,"station_id":"ce4bh692rcd13ifvqea0","pricing_plan_id":"cebpf4jnsgd1na2vs0mg"},{"bike_id":"fd6f30aa-ea15-4aeb-a88d-2eed91159344","system_id":"levelo_inurba_marseille","lat":43.29013,"lon":5.35617,"is_reserved":false,"is_disabled":false,"rental_uris":{"android":"levelo://app?vid=fd6f30aa-ea15-4aeb-a88d-2eed91159344","ios":"levelo://app?vid=fd6f30aa-ea15-4aeb-a88d-2eed91159344"},"vehicle_type_id":"4","last_reported":1716721596,"current_range_meters":31200,"station_id":"ce4bhb92rcd13ifvqen0","pricing_plan_id":"cebpf4jnsgd1na2vs0mg"},{"bike_id":"d0ed2611-f7c4-485f-959e-a5c4060ed1dd","system_id":"levelo_inurba_marseille","lat":43.29013,"lon":5.35601,"is_reserved":false,"is_disabled":false,"rental_uris":{"android":"levelo://app?vid=d0ed2611-f7c4-485f-959e-a5c4060ed1dd","ios":"levelo://app?vid=d0ed2611-f7c4-485f-959e-a5c4060ed1dd"},"vehicle_type_id":"4","last_reported":1716721596,"current_range_meters":11200,"station_id":"ce4bhb92rcd13ifvqen0","pricing_plan_id":"cebpf4jnsgd1na2vs0mg"},{"bike_id":"e9693fdb-add9-48f8-aa4b-bdf93d724d10","system_id":"levelo_inurba_marseille","lat":43.290103,"lon":5.356114,"is_reserved":false,"is_disabled":false,"rental_uris":{"android":"levelo://app?vid=e9693fdb-add9-48f8-aa4b-bdf93d724d10","ios":"levelo://app?vid=e9693fdb-add9-48f8-aa4b-bdf93d724d10"},"vehicle_type_id":"4","last_reported":1716721596,"current_range_meters":8000,"station_id":"ce4bhb92rcd13ifvqen0","pricing_plan_id":"cebpf4jnsgd1na2vs0mg"},{"bike_id":"5e315a68-733a-4cce-866b-1e1fdb11d066","system_id":"levelo_inurba_marseille","lat":43.290103,"lon":5.356114,"is_reserved":false,"is_disabled":false,"rental_uris":{"android":"levelo://app?vid=5e315a68-733a-4cce-866b-1e1fdb11d066","ios":"levelo://app?vid=5e315a68-733a-4cce-866b-1e1fdb11d066"},"vehicle_type_id":"4","last_reported":1716721596,"current_range_meters":0,"station_id":"ce4bhb92rcd13ifvqen0","pricing_plan_id":"cebpf4jnsgd1na2vs0mg"},{"bike_id":"35d70aa9-7b97-4a6b-97b0-f1cdfd36274b","system_id":"levelo_inurba_marseille","lat":43.290104,"lon":5.356111,"is_reserved":false,"is_disabled":false,"rental_uris":{"android":"levelo://app?vid=35d70aa9-7b97-4a6b-97b0-f1cdfd36274b","ios":"levelo://app?vid=35d70aa9-7b97-4a6b-97b0-f1cdfd36274b"},"vehicle_type_id":"4","last_reported":1716721596,"current_range_meters":25600,"station_id":"ce4bhb92rcd13ifvqen0","pricing_plan_id":"cebpf4jnsgd1na2vs0mg"},{"bike_id":"b2617a59-981e-45ce-b018-e974e4304dc1","system_id":"levelo_inurba_marseille","lat":43.290104,"lon":5.356111,"is_reserved":false,"is_disabled":false,"rental_uris":{"android":"levelo://app?vid=b2617a59-981e-45ce-b018-e974e4304dc1","ios":"levelo://app?vid=b2617a59-981e-45ce-b018-e974e4304dc1"},"vehicle_type_id":"4","last_reported":1716721596,"current_range_meters":31200,"station_id":"ce4bhb92rcd13ifvqen0","pricing_plan_id":"cebpf4jnsgd1na2vs0mg"},{"bike_id":"63fe0cd7-11c4-45ae-b692-b166ef12292c","system_id":"levelo_inurba_marseille","lat":43.29005,"lon":5.35611,"is_reserved":false,"is_disabled":false,"rental_uris":{"android":"levelo://app?vid=63fe0cd7-11c4-45ae-b692-b166ef12292c","ios":"levelo://app?vid=63fe0cd7-11c4-45ae-b692-b166ef12292c"},"vehicle_type_id":"4","last_reported":1716721596,"current_range_meters":0,"station_id":"ce4bhb92rcd13ifvqen0","pricing_plan_id":"cebpf4jnsgd1na2vs0mg"},{"bike_id":"25495d93-fb6e-4bcc-9a79-33a7de5f0273","system_id":"levelo_inurba_marseille","lat":43.290058,"lon":5.35607,"is_reserved":false,"is_disabled":false,"rental_uris":{"android":"levelo://app?vid=25495d93-fb6e-4bcc-9a79-33a7de5f0273","ios":"levelo://app?vid=25495d93-fb6e-4bcc-9a79-33a7de5f0273"},"vehicle_type_id":"4","last_reported":1716721596,"current_range_meters":31200,"station_id":"ce4bhb92rcd13ifvqen0","pricing_plan_id":"cebpf4jnsgd1na2vs0mg"},{"bike_id":"ebddfa96-3a53-44e0-8667-7119e194f12b","system_id":"levelo_inurba_marseille","lat":43.29005,"lon":5.35608,"is_reserved":false,"is_disabled":false,"rental_uris":{"android":"levelo://app?vid=ebddfa96-3a53-44e0-8667-7119e194f12b","ios":"levelo://app?vid=ebddfa96-3a53-44e0-8667-7119e194f12b"},"vehicle_type_id":"4","last_reported":1716721596,"current_range_meters":14400,"station_id":"ce4bhb92rcd13ifvqen0","pricing_plan_id":"cebpf4jnsgd1na2vs0mg"},{"bike_id":"660e2975-99db-47d1-9257-d754fc14ffbe","system_id":"levelo_inurba_marseille","lat":43.290103,"lon":5.356114,"is_reserved":false,"is_disabled":false,"rental_uris":{"android":"levelo://app?vid=660e2975-99db-47d1-9257-d754fc14ffbe","ios":"levelo://app?vid=660e2975-99db-47d1-9257-d754fc14ffbe"},"vehicle_type_id":"4","last_reported":1716721596,"current_range_meters":0,"station_id":"ce4bhb92rcd13ifvqen0","pricing_plan_id":"cebpf4jnsgd1na2vs0mg"},{"bike_id":"a2c52b5c-2240-4fff-b479-3976d29230de","system_id":"levelo_inurba_marseille","lat":43.290104,"lon":5.356111,"is_reserved":false,"is_disabled":false,"rental_uris":{"android":"levelo://app?vid=a2c52b5c-2240-4fff-b479-3976d29230de","ios":"levelo://app?vid=a2c52b5c-2240-4fff-b479-3976d29230de"},"vehicle_type_id":"4","last_reported":1716721596,"current_range_meters":20400,"station_id":"ce4bhb92rcd13ifvqen0","pricing_plan_id":"cebpf4jnsgd1na2vs0mg"},{"bike_id":"b8e73f65-a17b-4c44-944f-71dc42b07f68","system_id":"levelo_inurba_marseille","lat":43.330442,"lon":5.389148,"is_reserved":false,"is_disabled":false,"rental_uris":{"android":"levelo://app?vid=b8e73f65-a17b-4c44-944f-71dc42b07f68","ios":"levelo://app?vid=b8e73f65-a17b-4c44-944f-71dc42b07f68"},"vehicle_type_id":"4","last_reported":1716721596,"current_range_meters":6400,"station_id":"ce4bhr92rcd13ifvqhrg","pricing_plan_id":"cebpf4jnsgd1na2vs0mg"},{"bike_id":"641cf4b9-cd4c-431e-8e24-739a52ab9c80","system_id":"levelo_inurba_marseille","lat":43.330442,"lon":5.389148,"is_reserved":false,"is_disabled":false,"rental_uris":{"android":"levelo://app?vid=641cf4b9-cd4c-431e-8e24-739a52ab9c80","ios":"levelo://app?vid=641cf4b9-cd4c-431e-8e24-739a52ab9c80"},"vehicle_type_id":"4","last_reported":1716721596,"current_range_meters":28800,"station_id":"ce4bhr92rcd13ifvqhrg","pricing_plan_id":"cebpf4jnsgd1na2vs0mg"},{"bike_id":"f8bdc3be-b316-4862-b981-d283d8d0a823","system_id":"levelo_inurba_marseille","lat":43.295169,"lon":5.390426,"is_reserved":false,"is_disabled":false,"rental_uris":{"android":"levelo://app?vid=f8bdc3be-b316-4862-b981-d283d8d0a823","ios":"levelo://app?vid=f8bdc3be-b316-4862-b981-d283d8d0a823"},"vehicle_type_id":"4","last_reported":1716721596,"current_range_meters":26400,"station_id":"ce4bh3p2rcd13ifvqdp0","pricing_plan_id":"cebpf4jnsgd1na2vs0mg"},{"bike_id":"ba7bba16-c57b-44f6-9f9c-c9839289854f","system_id":"levelo_inurba_marseille","lat":43.31065,"lon":5.40081,"is_reserved":false,"is_disabled":false,"rental_uris":{"android":"levelo://app?vid=ba7bba16-c57b-44f6-9f9c-c9839289854f","ios":"levelo://app?vid=ba7bba16-c57b-44f6-9f9c-c9839289854f"},"vehicle_type_id":"4","last_reported":1716721596,"current_range_meters":10400,"station_id":"","pricing_plan_id":"cebpf4jnsgd1na2vs0mg"},{"bike_id":"1a1505af-a805-4e97-b6c5-ef86c8ad33ae","system_id":"levelo_inurba_marseille","lat":43.310633,"lon":5.401005,"is_reserved":false,"is_disabled":false,"rental_uris":{"android":"levelo://app?vid=1a1505af-a805-4e97-b6c5-ef86c8ad33ae","ios":"levelo://app?vid=1a1505af-a805-4e97-b6c5-ef86c8ad33ae"},"vehicle_type_id":"4","last_reported":1716721596,"current_range_meters":800,"station_id":"","pricing_plan_id":"cebpf4jnsgd1na2vs0mg"},{"bike_id":"23562ba2-a390-4f33-9f8e-b3e8f45ad82e","system_id":"levelo_inurba_marseille","lat":43.2901,"lon":5.381269,"is_reserved":false,"is_disabled":false,"rental_uris":{"android":"levelo://app?vid=23562ba2-a390-4f33-9f8e-b3e8f45ad82e","ios":"levelo://app?vid=23562ba2-a390-4f33-9f8e-b3e8f45ad82e"},"vehicle_type_id":"4","last_reported":1716721596,"current_range_meters":14400,"station_id":"ce4bh4p2rcd13ifvqe1g","pricing_plan_id":"cebpf4jnsgd1na2vs0mg"},{"bike_id":"8dffe524-db9c-4814-8502-08c35f9f74aa","system_id":"levelo_inurba_marseille","lat":43.28856,"lon":5.358371,"is_reserved":false,"is_disabled":false,"rental_uris":{"android":"levelo://app?vid=8dffe524-db9c-4814-8502-08c35f9f74aa","ios":"levelo://app?vid=8dffe524-db9c-4814-8502-08c35f9f74aa"},"vehicle_type_id":"4","last_reported":1716721596,"current_range_meters":20800,"station_id":"ce4bhb12rcd13ifvqem0","pricing_plan_id":"cebpf4jnsgd1na2vs0mg"},{"bike_id":"7e9e4f6d-4b02-409e-9b33-223aa5f623cb","system_id":"levelo_inurba_marseille","lat":43.28856,"lon":5.358371,"is_reserved":false,"is_disabled":false,"rental_uris":{"android":"levelo://app?vid=7e9e4f6d-4b02-409e-9b33-223aa5f623cb","ios":"levelo://app?vid=7e9e4f6d-4b02-409e-9b33-223aa5f623cb"},"vehicle_type_id":"4","last_reported":1716721596,"current_range_meters":18000,"station_id":"ce4bhb12rcd13ifvqem0","pricing_plan_id":"cebpf4jnsgd1na2vs0mg"},{"bike_id":"af1ced14-6861-47e0-a4db-342244127699","system_id":"levelo_inurba_marseille","lat":43.28856,"lon":5.358371,"is_reserved":false,"is_disabled":false,"rental_uris":{"android":"levelo://app?vid=af1ced14-6861-47e0-a4db-342244127699","ios":"levelo://app?vid=af1ced14-6861-47e0-a4db-342244127699"},"vehicle_type_id":"4","last_reported":1716721596,"current_range_meters":15200,"station_id":"ce4bhb12rcd13ifvqem0","pricing_plan_id":"cebpf4jnsgd1na2vs0mg"},{"bike_id":"c817be8a-4d3f-428e-9e83-fb97be659edc","system_id":"levelo_inurba_marseille","lat":43.33739,"lon":5.37443,"is_reserved":false,"is_disabled":false,"rental_uris":{"android":"levelo://app?vid=c817be8a-4d3f-428e-9e83-fb97be659edc","ios":"levelo://app?vid=c817be8a-4d3f-428e-9e83-fb97be659edc"},"vehicle_type_id":"4","last_reported":1716721596,"current_range_meters":21200,"station_id":"","pricing_plan_id":"cebpf4jnsgd1na2vs0mg"},{"bike_id":"5e08015a-b315-49d5-b067-121fc243166b","system_id":"levelo_inurba_marseille","lat":43.33752,"lon":5.37436,"is_reserved":false,"is_disabled":false,"rental_uris":{"android":"levelo://app?vid=5e08015a-b315-49d5-b067-121fc243166b","ios":"levelo://app?vid=5e08015a-b315-49d5-b067-121fc243166b"},"vehicle_type_id":"4","last_reported":1716721596,"current_range_meters":16000,"station_id":"","pricing_plan_id":"cebpf4jnsgd1na2vs0mg"},{"bike_id":"4baa171a-6f41-4b4c-bcc1-759d97c52644","system_id":"levelo_inurba_marseille","lat":43.337567,"lon":5.374574,"is_reserved":false,"is_disabled":false,"rental_uris":{"android":"levelo://app?vid=4baa171a-6f41-4b4c-bcc1-759d97c52644","ios":"levelo://app?vid=4baa171a-6f41-4b4c-bcc1-759d97c52644"},"vehicle_type_id":"4","last_reported":1716721596,"current_range_meters":19200,"station_id":"","pricing_plan_id":"cebpf4jnsgd1na2vs0mg"},{"bike_id":"4d476eee-4013-46a3-be70-3fc5198fa0f9","system_id":"levelo_inurba_marseille","lat":43.33763,"lon":5.374318,"is_reserved":false,"is_disabled":false,"rental_uris":{"android":"levelo://app?vid=4d476eee-4013-46a3-be70-3fc5198fa0f9","ios":"levelo://app?vid=4d476eee-4013-46a3-be70-3fc5198fa0f9"},"vehicle_type_id":"4","last_reported":1716721596,"current_range_meters":12800,"station_id":"","pricing_plan_id":"cebpf4jnsgd1na2vs0mg"},{"bike_id":"732798ba-2b9a-45ce-babd-a4bca6a10e63","system_id":"levelo_inurba_marseille","lat":43.337625,"lon":5.374405,"is_reserved":false,"is_disabled":false,"rental_uris":{"android":"levelo://app?vid=732798ba-2b9a-45ce-babd-a4bca6a10e63","ios":"levelo://app?vid=732798ba-2b9a-45ce-babd-a4bca6a10e63"},"vehicle_type_id":"4","last_reported":1716721596,"current_range_meters":12800,"station_id":"","pricing_plan_id":"cebpf4jnsgd1na2vs0mg"},{"bike_id":"eca20961-65ed-44b3-9b24-a12e027d2e2a","system_id":"levelo_inurba_marseille","lat":43.30642,"lon":5.401031,"is_reserved":false,"is_disabled":false,"rental_uris":{"android":"levelo://app?vid=eca20961-65ed-44b3-9b24-a12e027d2e2a","ios":"levelo://app?vid=eca20961-65ed-44b3-9b24-a12e027d2e2a"},"vehicle_type_id":"4","last_reported":1716721596,"current_range_meters":13200,"station_id":"ce4bh112rcd13ifvqda0","pricing_plan_id":"cebpf4jnsgd1na2vs0mg"},{"bike_id":"de609f3b-f2e7-4b37-96b4-3315c7ebe8bb","system_id":"levelo_inurba_marseille","lat":43.33764,"lon":5.37471,"is_reserved":false,"is_disabled":false,"rental_uris":{"android":"levelo://app?vid=de609f3b-f2e7-4b37-96b4-3315c7ebe8bb","ios":"levelo://app?vid=de609f3b-f2e7-4b37-96b4-3315c7ebe8bb"},"vehicle_type_id":"4","last_reported":1716721596,"current_range_meters":15200,"station_id":"","pricing_plan_id":"cebpf4jnsgd1na2vs0mg"},{"bike_id":"825fa8d8-f677-44ea-959e-e28a76bf9c1f","system_id":"levelo_inurba_marseille","lat":43.33772,"lon":5.37474,"is_reserved":false,"is_disabled":false,"rental_uris":{"android":"levelo://app?vid=825fa8d8-f677-44ea-959e-e28a76bf9c1f","ios":"levelo://app?vid=825fa8d8-f677-44ea-959e-e28a76bf9c1f"},"vehicle_type_id":"4","last_reported":1716721596,"current_range_meters":16000,"station_id":"","pricing_plan_id":"cebpf4jnsgd1na2vs0mg"},{"bike_id":"561e2ee1-1e48-4a1e-adc3-da2089be1145","system_id":"levelo_inurba_marseille","lat":43.290094,"lon":5.381264,"is_reserved":false,"is_disabled":false,"rental_uris":{"android":"levelo://app?vid=561e2ee1-1e48-4a1e-adc3-da2089be1145","ios":"levelo://app?vid=561e2ee1-1e48-4a1e-adc3-da2089be1145"},"vehicle_type_id":"4","last_reported":1716721596,"current_range_meters":7600,"station_id":"ce4bh4p2rcd13ifvqe1g","pricing_plan_id":"cebpf4jnsgd1na2vs0mg"},{"bike_id":"7a9f74ab-0c01-4e23-a309-e207c2ca9797","system_id":"levelo_inurba_marseille","lat":43.306412,"lon":5.401035,"is_reserved":false,"is_disabled":false,"rental_uris":{"android":"levelo://app?vid=7a9f74ab-0c01-4e23-a309-e207c2ca9797","ios":"levelo://app?vid=7a9f74ab-0c01-4e23-a309-e207c2ca9797"},"vehicle_type_id":"4","last_reported":1716721596,"current_range_meters":10400,"station_id":"ce4bh112rcd13ifvqda0","pricing_plan_id":"cebpf4jnsgd1na2vs0mg"},{"bike_id":"00295bbb-31cb-45ee-83fb-abf7e5e47de1","system_id":"levelo_inurba_marseille","lat":43.28727,"lon":5.36078,"is_reserved":false,"is_disabled":false,"rental_uris":{"android":"levelo://app?vid=00295bbb-31cb-45ee-83fb-abf7e5e47de1","ios":"levelo://app?vid=00295bbb-31cb-45ee-83fb-abf7e5e47de1"},"vehicle_type_id":"4","last_reported":1716721596,"current_range_meters":22800,"station_id":"cki0cbj6b192h4jlfktg","pricing_plan_id":"cebpf4jnsgd1na2vs0mg"},{"bike_id":"5626a08f-8f4c-4062-8776-524a7c8fd202","system_id":"levelo_inurba_marseille","lat":43.28727,"lon":5.36078,"is_reserved":false,"is_disabled":false,"rental_uris":{"android":"levelo://app?vid=5626a08f-8f4c-4062-8776-524a7c8fd202","ios":"levelo://app?vid=5626a08f-8f4c-4062-8776-524a7c8fd202"},"vehicle_type_id":"4","last_reported":1716721596,"current_range_meters":18000,"station_id":"cki0cbj6b192h4jlfktg","pricing_plan_id":"cebpf4jnsgd1na2vs0mg"},{"bike_id":"171499ec-cde7-4a81-94b2-263716153c02","system_id":"levelo_inurba_marseille","lat":43.298681,"lon":5.397225,"is_reserved":false,"is_disabled":false,"rental_uris":{"android":"levelo://app?vid=171499ec-cde7-4a81-94b2-263716153c02","ios":"levelo://app?vid=171499ec-cde7-4a81-94b2-263716153c02"},"vehicle_type_id":"4","last_reported":1716721596,"current_range_meters":26400,"station_id":"ce4bh0h2rcd13ifvqd50","pricing_plan_id":"cebpf4jnsgd1na2vs0mg"},{"bike_id":"818aa17b-c729-4c82-a52b-c22b1bff03bc","system_id":"levelo_inurba_marseille","lat":43.29872,"lon":5.3974,"is_reserved":false,"is_disabled":false,"rental_uris":{"android":"levelo://app?vid=818aa17b-c729-4c82-a52b-c22b1bff03bc","ios":"levelo://app?vid=818aa17b-c729-4c82-a52b-c22b1bff03bc"},"vehicle_type_id":"4","last_reported":1716721596,"current_range_meters":25200,"station_id":"ce4bh0h2rcd13ifvqd50","pricing_plan_id":"cebpf4jnsgd1na2vs0mg"},{"bike_id":"38917724-8509-4854-b1ae-ea39526401a3","system_id":"levelo_inurba_marseille","lat":43.302759,"lon":5.400793,"is_reserved":false,"is_disabled":false,"rental_uris":{"android":"levelo://app?vid=38917724-8509-4854-b1ae-ea39526401a3","ios":"levelo://app?vid=38917724-8509-4854-b1ae-ea39526401a3"},"vehicle_type_id":"4","last_reported":1716721596,"current_range_meters":18800,"station_id":"ce4bgvh2rcd13ifvqcs0","pricing_plan_id":"cebpf4jnsgd1na2vs0mg"},{"bike_id":"d20247bb-5228-4d99-a2ed-9bb2191623f8","system_id":"levelo_inurba_marseille","lat":43.289307,"lon":5.38406,"is_reserved":false,"is_disabled":false,"rental_uris":{"android":"levelo://app?vid=d20247bb-5228-4d99-a2ed-9bb2191623f8","ios":"levelo://app?vid=d20247bb-5228-4d99-a2ed-9bb2191623f8"},"vehicle_type_id":"4","last_reported":1716721596,"current_range_meters":17600,"station_id":"ce4bh612rcd13ifvqe6g","pricing_plan_id":"cebpf4jnsgd1na2vs0mg"},{"bike_id":"cd487b00-be62-4e31-8e14-a62190c28401","system_id":"levelo_inurba_marseille","lat":43.290336,"lon":5.386425,"is_reserved":false,"is_disabled":false,"rental_uris":{"android":"levelo://app?vid=cd487b00-be62-4e31-8e14-a62190c28401","ios":"levelo://app?vid=cd487b00-be62-4e31-8e14-a62190c28401"},"vehicle_type_id":"4","last_reported":1716721596,"current_range_meters":5600,"station_id":"ce4bh4p2rcd13ifvqe0g","pricing_plan_id":"cebpf4jnsgd1na2vs0mg"},{"bike_id":"ed00025e-23f1-40f7-b032-1b949530cc92","system_id":"levelo_inurba_marseille","lat":43.290336,"lon":5.386425,"is_reserved":false,"is_disabled":false,"rental_uris":{"android":"levelo://app?vid=ed00025e-23f1-40f7-b032-1b949530cc92","ios":"levelo://app?vid=ed00025e-23f1-40f7-b032-1b949530cc92"},"vehicle_type_id":"4","last_reported":1716721596,"current_range_meters":11600,"station_id":"ce4bh4p2rcd13ifvqe0g","pricing_plan_id":"cebpf4jnsgd1na2vs0mg"},{"bike_id":"6d6d5d1d-1553-4fee-9e8c-db71dce7558c","system_id":"levelo_inurba_marseille","lat":43.302759,"lon":5.400793,"is_reserved":false,"is_disabled":false,"rental_uris":{"android":"levelo://app?vid=6d6d5d1d-1553-4fee-9e8c-db71dce7558c","ios":"levelo://app?vid=6d6d5d1d-1553-4fee-9e8c-db71dce7558c"},"vehicle_type_id":"4","last_reported":1716721596,"current_range_meters":24400,"station_id":"ce4bgvh2rcd13ifvqcs0","pricing_plan_id":"cebpf4jnsgd1na2vs0mg"},{"bike_id":"fdafb711-92a5-4a1c-95a4-8e2e3872abff","system_id":"levelo_inurba_marseille","lat":43.302759,"lon":5.400793,"is_reserved":false,"is_disabled":false,"rental_uris":{"android":"levelo://app?vid=fdafb711-92a5-4a1c-95a4-8e2e3872abff","ios":"levelo://app?vid=fdafb711-92a5-4a1c-95a4-8e2e3872abff"},"vehicle_type_id":"4","last_reported":1716721596,"current_range_meters":30800,"station_id":"ce4bgvh2rcd13ifvqcs0","pricing_plan_id":"cebpf4jnsgd1na2vs0mg"},{"bike_id":"69f67ca4-9204-465f-9c47-d0536767c39f","system_id":"levelo_inurba_marseille","lat":43.3019,"lon":5.40049,"is_reserved":false,"is_disabled":false,"rental_uris":{"android":"levelo://app?vid=69f67ca4-9204-465f-9c47-d0536767c39f","ios":"levelo://app?vid=69f67ca4-9204-465f-9c47-d0536767c39f"},"vehicle_type_id":"4","last_reported":1716721596,"current_range_meters":10800,"station_id":"","pricing_plan_id":"cebpf4jnsgd1na2vs0mg"},{"bike_id":"07746d70-d41d-4851-bd60-a306416d9274","system_id":"levelo_inurba_marseille","lat":43.302759,"lon":5.400793,"is_reserved":false,"is_disabled":false,"rental_uris":{"android":"levelo://app?vid=07746d70-d41d-4851-bd60-a306416d9274","ios":"levelo://app?vid=07746d70-d41d-4851-bd60-a306416d9274"},"vehicle_type_id":"4","last_reported":1716721596,"current_range_meters":20400,"station_id":"ce4bgvh2rcd13ifvqcs0","pricing_plan_id":"cebpf4jnsgd1na2vs0mg"},{"bike_id":"38d951dd-f649-4a09-b5c9-6cae6ce34620","system_id":"levelo_inurba_marseille","lat":43.316828,"lon":5.404723,"is_reserved":false,"is_disabled":false,"rental_uris":{"android":"levelo://app?vid=38d951dd-f649-4a09-b5c9-6cae6ce34620","ios":"levelo://app?vid=38d951dd-f649-4a09-b5c9-6cae6ce34620"},"vehicle_type_id":"4","last_reported":1716721596,"current_range_meters":23600,"station_id":"ce4bh012rcd13ifvqd00","pricing_plan_id":"cebpf4jnsgd1na2vs0mg"},{"bike_id":"fc5d79a9-980f-4a3d-9e13-156c55858555","system_id":"levelo_inurba_marseille","lat":43.316828,"lon":5.404723,"is_reserved":false,"is_disabled":false,"rental_uris":{"android":"levelo://app?vid=fc5d79a9-980f-4a3d-9e13-156c55858555","ios":"levelo://app?vid=fc5d79a9-980f-4a3d-9e13-156c55858555"},"vehicle_type_id":"4","last_reported":1716721596,"current_range_meters":0,"station_id":"ce4bh012rcd13ifvqd00","pricing_plan_id":"cebpf4jnsgd1na2vs0mg"},{"bike_id":"c76c8ecb-bf94-4b84-8770-2d6121dc0984","system_id":"levelo_inurba_marseille","lat":43.291994,"lon":5.392907,"is_reserved":false,"is_disabled":false,"rental_uris":{"android":"levelo://app?vid=c76c8ecb-bf94-4b84-8770-2d6121dc0984","ios":"levelo://app?vid=c76c8ecb-bf94-4b84-8770-2d6121dc0984"},"vehicle_type_id":"4","last_reported":1716721596,"current_range_meters":30800,"station_id":"ce4bh192rcd13ifvqdd0","pricing_plan_id":"cebpf4jnsgd1na2vs0mg"},{"bike_id":"e2d3a8f7-437f-4cd1-b285-5401de9cc6cc","system_id":"levelo_inurba_marseille","lat":43.285856,"lon":5.350771,"is_reserved":false,"is_disabled":false,"rental_uris":{"android":"levelo://app?vid=e2d3a8f7-437f-4cd1-b285-5401de9cc6cc","ios":"levelo://app?vid=e2d3a8f7-437f-4cd1-b285-5401de9cc6cc"},"vehicle_type_id":"4","last_reported":1716721596,"current_range_meters":16000,"station_id":"ce4bhch2rcd13ifvqeug","pricing_plan_id":"cebpf4jnsgd1na2vs0mg"},{"bike_id":"7358c03a-2078-4e3e-aac0-133092e57354","system_id":"levelo_inurba_marseille","lat":43.28625,"lon":5.35098,"is_reserved":false,"is_disabled":false,"rental_uris":{"android":"levelo://app?vid=7358c03a-2078-4e3e-aac0-133092e57354","ios":"levelo://app?vid=7358c03a-2078-4e3e-aac0-133092e57354"},"vehicle_type_id":"4","last_reported":1716721596,"current_range_meters":31200,"station_id":"ce4bhch2rcd13ifvqeug","pricing_plan_id":"cebpf4jnsgd1na2vs0mg"},{"bike_id":"caaa1634-90d6-452c-ab03-7d620eaabec1","system_id":"levelo_inurba_marseille","lat":43.285848,"lon":5.350787,"is_reserved":false,"is_disabled":false,"rental_uris":{"android":"levelo://app?vid=caaa1634-90d6-452c-ab03-7d620eaabec1","ios":"levelo://app?vid=caaa1634-90d6-452c-ab03-7d620eaabec1"},"vehicle_type_id":"4","last_reported":1716721596,"current_range_meters":29600,"station_id":"ce4bhch2rcd13ifvqeug","pricing_plan_id":"cebpf4jnsgd1na2vs0mg"},{"bike_id":"614afec8-fae8-49aa-abc9-85fee65ee069","system_id":"levelo_inurba_marseille","lat":43.285856,"lon":5.350771,"is_reserved":false,"is_disabled":false,"rental_uris":{"android":"levelo://app?vid=614afec8-fae8-49aa-abc9-85fee65ee069","ios":"levelo://app?vid=614afec8-fae8-49aa-abc9-85fee65ee069"},"vehicle_type_id":"4","last_reported":1716721596,"current_range_meters":25200,"station_id":"ce4bhch2rcd13ifvqeug","pricing_plan_id":"cebpf4jnsgd1na2vs0mg"},{"bike_id":"1c291e56-10d9-472a-bfc7-e83bb6ff264b","system_id":"levelo_inurba_marseille","lat":43.285856,"lon":5.350771,"is_reserved":false,"is_disabled":false,"rental_uris":{"android":"levelo://app?vid=1c291e56-10d9-472a-bfc7-e83bb6ff264b","ios":"levelo://app?vid=1c291e56-10d9-472a-bfc7-e83bb6ff264b"},"vehicle_type_id":"4","last_reported":1716721596,"current_range_meters":8000,"station_id":"ce4bhch2rcd13ifvqeug","pricing_plan_id":"cebpf4jnsgd1na2vs0mg"},{"bike_id":"ba34c00f-0370-4e34-9af1-69a2e6268aa1","system_id":"levelo_inurba_marseille","lat":43.28619,"lon":5.35109,"is_reserved":false,"is_disabled":false,"rental_uris":{"android":"levelo://app?vid=ba34c00f-0370-4e34-9af1-69a2e6268aa1","ios":"levelo://app?vid=ba34c00f-0370-4e34-9af1-69a2e6268aa1"},"vehicle_type_id":"4","last_reported":1716721596,"current_range_meters":31200,"station_id":"ce4bhch2rcd13ifvqeug","pricing_plan_id":"cebpf4jnsgd1na2vs0mg"},{"bike_id":"0552d5e0-c8cc-4aba-937b-b80775d6e267","system_id":"levelo_inurba_marseille","lat":43.285848,"lon":5.350787,"is_reserved":false,"is_disabled":false,"rental_uris":{"android":"levelo://app?vid=0552d5e0-c8cc-4aba-937b-b80775d6e267","ios":"levelo://app?vid=0552d5e0-c8cc-4aba-937b-b80775d6e267"},"vehicle_type_id":"4","last_reported":1716721596,"current_range_meters":29200,"station_id":"ce4bhch2rcd13ifvqeug","pricing_plan_id":"cebpf4jnsgd1na2vs0mg"},{"bike_id":"9a3dc110-bdf0-46ac-9dc6-90859b9efef5","system_id":"levelo_inurba_marseille","lat":43.28619,"lon":5.35104,"is_reserved":false,"is_disabled":false,"rental_uris":{"android":"levelo://app?vid=9a3dc110-bdf0-46ac-9dc6-90859b9efef5","ios":"levelo://app?vid=9a3dc110-bdf0-46ac-9dc6-90859b9efef5"},"vehicle_type_id":"4","last_reported":1716721596,"current_range_meters":1600,"station_id":"ce4bhch2rcd13ifvqeug","pricing_plan_id":"cebpf4jnsgd1na2vs0mg"},{"bike_id":"9a644746-e872-419d-868d-b3f28a64fc80","system_id":"levelo_inurba_marseille","lat":43.28617,"lon":5.35105,"is_reserved":false,"is_disabled":false,"rental_uris":{"android":"levelo://app?vid=9a644746-e872-419d-868d-b3f28a64fc80","ios":"levelo://app?vid=9a644746-e872-419d-868d-b3f28a64fc80"},"vehicle_type_id":"4","last_reported":1716721596,"current_range_meters":21200,"station_id":"ce4bhch2rcd13ifvqeug","pricing_plan_id":"cebpf4jnsgd1na2vs0mg"},{"bike_id":"511d94f3-88ea-4db4-a80a-5688af747b73","system_id":"levelo_inurba_marseille","lat":43.285848,"lon":5.350787,"is_reserved":false,"is_disabled":false,"rental_uris":{"android":"levelo://app?vid=511d94f3-88ea-4db4-a80a-5688af747b73","ios":"levelo://app?vid=511d94f3-88ea-4db4-a80a-5688af747b73"},"vehicle_type_id":"4","last_reported":1716721596,"current_range_meters":31200,"station_id":"ce4bhch2rcd13ifvqeug","pricing_plan_id":"cebpf4jnsgd1na2vs0mg"},{"bike_id":"5c226442-f927-4e2d-80e8-c68ccc68a800","system_id":"levelo_inurba_marseille","lat":43.28616,"lon":5.35105,"is_reserved":false,"is_disabled":false,"rental_uris":{"android":"levelo://app?vid=5c226442-f927-4e2d-80e8-c68ccc68a800","ios":"levelo://app?vid=5c226442-f927-4e2d-80e8-c68ccc68a800"},"vehicle_type_id":"4","last_reported":1716721596,"current_range_meters":6800,"station_id":"ce4bhch2rcd13ifvqeug","pricing_plan_id":"cebpf4jnsgd1na2vs0mg"},{"bike_id":"0d1fd9da-8a1c-4734-8d9b-110c489aa56f","system_id":"levelo_inurba_marseille","lat":43.285856,"lon":5.350771,"is_reserved":false,"is_disabled":false,"rental_uris":{"android":"levelo://app?vid=0d1fd9da-8a1c-4734-8d9b-110c489aa56f","ios":"levelo://app?vid=0d1fd9da-8a1c-4734-8d9b-110c489aa56f"},"vehicle_type_id":"4","last_reported":1716721596,"current_range_meters":16400,"station_id":"ce4bhch2rcd13ifvqeug","pricing_plan_id":"cebpf4jnsgd1na2vs0mg"},{"bike_id":"656300b1-4f85-44f5-8079-d58cbad3fdf4","system_id":"levelo_inurba_marseille","lat":43.285848,"lon":5.350787,"is_reserved":false,"is_disabled":false,"rental_uris":{"android":"levelo://app?vid=656300b1-4f85-44f5-8079-d58cbad3fdf4","ios":"levelo://app?vid=656300b1-4f85-44f5-8079-d58cbad3fdf4"},"vehicle_type_id":"4","last_reported":1716721596,"current_range_meters":18400,"station_id":"ce4bhch2rcd13ifvqeug","pricing_plan_id":"cebpf4jnsgd1na2vs0mg"},{"bike_id":"78fa18ef-4109-4c14-be4b-dbe183225dfc","system_id":"levelo_inurba_marseille","lat":43.285848,"lon":5.350787,"is_reserved":false,"is_disabled":false,"rental_uris":{"android":"levelo://app?vid=78fa18ef-4109-4c14-be4b-dbe183225dfc","ios":"levelo://app?vid=78fa18ef-4109-4c14-be4b-dbe183225dfc"},"vehicle_type_id":"4","last_reported":1716721596,"current_range_meters":24000,"station_id":"ce4bhch2rcd13ifvqeug","pricing_plan_id":"cebpf4jnsgd1na2vs0mg"},{"bike_id":"6bebd36a-6551-486e-976f-ff557e49e29f","system_id":"levelo_inurba_marseille","lat":43.28615,"lon":5.35103,"is_reserved":false,"is_disabled":false,"rental_uris":{"android":"levelo://app?vid=6bebd36a-6551-486e-976f-ff557e49e29f","ios":"levelo://app?vid=6bebd36a-6551-486e-976f-ff557e49e29f"},"vehicle_type_id":"4","last_reported":1716721596,"current_range_meters":14000,"station_id":"ce4bhch2rcd13ifvqeug","pricing_plan_id":"cebpf4jnsgd1na2vs0mg"},{"bike_id":"269443b2-8c01-46a4-af98-8d859a0b5f97","system_id":"levelo_inurba_marseille","lat":43.285848,"lon":5.350787,"is_reserved":false,"is_disabled":false,"rental_uris":{"android":"levelo://app?vid=269443b2-8c01-46a4-af98-8d859a0b5f97","ios":"levelo://app?vid=269443b2-8c01-46a4-af98-8d859a0b5f97"},"vehicle_type_id":"4","last_reported":1716721596,"current_range_meters":2400,"station_id":"ce4bhch2rcd13ifvqeug","pricing_plan_id":"cebpf4jnsgd1na2vs0mg"},{"bike_id":"10d63305-217c-4f52-97ed-a26a02f0aae7","system_id":"levelo_inurba_marseille","lat":43.28614,"lon":5.35103,"is_reserved":false,"is_disabled":false,"rental_uris":{"android":"levelo://app?vid=10d63305-217c-4f52-97ed-a26a02f0aae7","ios":"levelo://app?vid=10d63305-217c-4f52-97ed-a26a02f0aae7"},"vehicle_type_id":"4","last_reported":1716721596,"current_range_meters":25200,"station_id":"ce4bhch2rcd13ifvqeug","pricing_plan_id":"cebpf4jnsgd1na2vs0mg"},{"bike_id":"83af8d46-c3ac-4766-b158-1c03704238c0","system_id":"levelo_inurba_marseille","lat":43.28614,"lon":5.35103,"is_reserved":false,"is_disabled":false,"rental_uris":{"android":"levelo://app?vid=83af8d46-c3ac-4766-b158-1c03704238c0","ios":"levelo://app?vid=83af8d46-c3ac-4766-b158-1c03704238c0"},"vehicle_type_id":"4","last_reported":1716721596,"current_range_meters":2400,"station_id":"ce4bhch2rcd13ifvqeug","pricing_plan_id":"cebpf4jnsgd1na2vs0mg"},{"bike_id":"f7c5efad-92bb-4c68-8ca8-5d025ff72da7","system_id":"levelo_inurba_marseille","lat":43.286123,"lon":5.351036,"is_reserved":false,"is_disabled":false,"rental_uris":{"android":"levelo://app?vid=f7c5efad-92bb-4c68-8ca8-5d025ff72da7","ios":"levelo://app?vid=f7c5efad-92bb-4c68-8ca8-5d025ff72da7"},"vehicle_type_id":"4","last_reported":1716721596,"current_range_meters":15600,"station_id":"","pricing_plan_id":"cebpf4jnsgd1na2vs0mg"},{"bike_id":"28c14d48-9614-4fba-9972-548a4c3b6e4d","system_id":"levelo_inurba_marseille","lat":43.285848,"lon":5.350787,"is_reserved":false,"is_disabled":false,"rental_uris":{"android":"levelo://app?vid=28c14d48-9614-4fba-9972-548a4c3b6e4d","ios":"levelo://app?vid=28c14d48-9614-4fba-9972-548a4c3b6e4d"},"vehicle_type_id":"4","last_reported":1716721596,"current_range_meters":1200,"station_id":"ce4bhch2rcd13ifvqeug","pricing_plan_id":"cebpf4jnsgd1na2vs0mg"},{"bike_id":"fccc4f54-9243-44e9-8965-f31072501ca1","system_id":"levelo_inurba_marseille","lat":43.29984,"lon":5.40274,"is_reserved":false,"is_disabled":false,"rental_uris":{"android":"levelo://app?vid=fccc4f54-9243-44e9-8965-f31072501ca1","ios":"levelo://app?vid=fccc4f54-9243-44e9-8965-f31072501ca1"},"vehicle_type_id":"4","last_reported":1716721596,"current_range_meters":19200,"station_id":"","pricing_plan_id":"cebpf4jnsgd1na2vs0mg"},{"bike_id":"660f09cf-52f4-4063-b765-ab78c2b7336f","system_id":"levelo_inurba_marseille","lat":43.29955,"lon":5.40261,"is_reserved":false,"is_disabled":false,"rental_uris":{"android":"levelo://app?vid=660f09cf-52f4-4063-b765-ab78c2b7336f","ios":"levelo://app?vid=660f09cf-52f4-4063-b765-ab78c2b7336f"},"vehicle_type_id":"4","last_reported":1716721596,"current_range_meters":19200,"station_id":"","pricing_plan_id":"cebpf4jnsgd1na2vs0mg"},{"bike_id":"4bcdbeb6-699f-40ca-87d3-9d73a2e1764d","system_id":"levelo_inurba_marseille","lat":43.29957,"lon":5.40293,"is_reserved":false,"is_disabled":false,"rental_uris":{"android":"levelo://app?vid=4bcdbeb6-699f-40ca-87d3-9d73a2e1764d","ios":"levelo://app?vid=4bcdbeb6-699f-40ca-87d3-9d73a2e1764d"},"vehicle_type_id":"4","last_reported":1716721596,"current_range_meters":10800,"station_id":"","pricing_plan_id":"cebpf4jnsgd1na2vs0mg"},{"bike_id":"36fb3490-a76c-4542-9cbf-99d28c86583e","system_id":"levelo_inurba_marseille","lat":43.29945,"lon":5.40293,"is_reserved":false,"is_disabled":false,"rental_uris":{"android":"levelo://app?vid=36fb3490-a76c-4542-9cbf-99d28c86583e","ios":"levelo://app?vid=36fb3490-a76c-4542-9cbf-99d28c86583e"},"vehicle_type_id":"4","last_reported":1716721596,"current_range_meters":10800,"station_id":"","pricing_plan_id":"cebpf4jnsgd1na2vs0mg"},{"bike_id":"91219978-949a-488f-bf91-47b96c914c15","system_id":"levelo_inurba_marseille","lat":43.295713,"lon":5.399639,"is_reserved":false,"is_disabled":false,"rental_uris":{"android":"levelo://app?vid=91219978-949a-488f-bf91-47b96c914c15","ios":"levelo://app?vid=91219978-949a-488f-bf91-47b96c914c15"},"vehicle_type_id":"4","last_reported":1716721596,"current_range_meters":15600,"station_id":"ce4bh312rcd13ifvqdj0","pricing_plan_id":"cebpf4jnsgd1na2vs0mg"},{"bike_id":"26879562-a620-4492-9fea-8aefe63ff97d","system_id":"levelo_inurba_marseille","lat":43.286595,"lon":5.386795,"is_reserved":false,"is_disabled":false,"rental_uris":{"android":"levelo://app?vid=26879562-a620-4492-9fea-8aefe63ff97d","ios":"levelo://app?vid=26879562-a620-4492-9fea-8aefe63ff97d"},"vehicle_type_id":"4","last_reported":1716721596,"current_range_meters":31200,"station_id":"ce4bh492rcd13ifvqdug","pricing_plan_id":"cebpf4jnsgd1na2vs0mg"},{"bike_id":"00c224e3-40e5-41f3-860b-9304e96449f5","system_id":"levelo_inurba_marseille","lat":43.286595,"lon":5.386795,"is_reserved":false,"is_disabled":false,"rental_uris":{"android":"levelo://app?vid=00c224e3-40e5-41f3-860b-9304e96449f5","ios":"levelo://app?vid=00c224e3-40e5-41f3-860b-9304e96449f5"},"vehicle_type_id":"4","last_reported":1716721596,"current_range_meters":20000,"station_id":"ce4bh492rcd13ifvqdug","pricing_plan_id":"cebpf4jnsgd1na2vs0mg"},{"bike_id":"0d0f4deb-7dde-44c1-9d41-f77afd9a17b7","system_id":"levelo_inurba_marseille","lat":43.286595,"lon":5.386795,"is_reserved":false,"is_disabled":false,"rental_uris":{"android":"levelo://app?vid=0d0f4deb-7dde-44c1-9d41-f77afd9a17b7","ios":"levelo://app?vid=0d0f4deb-7dde-44c1-9d41-f77afd9a17b7"},"vehicle_type_id":"4","last_reported":1716721596,"current_range_meters":4000,"station_id":"ce4bh492rcd13ifvqdug","pricing_plan_id":"cebpf4jnsgd1na2vs0mg"},{"bike_id":"dfc2a622-0da2-4027-90bb-31a4be460382","system_id":"levelo_inurba_marseille","lat":43.286595,"lon":5.386795,"is_reserved":false,"is_disabled":false,"rental_uris":{"android":"levelo://app?vid=dfc2a622-0da2-4027-90bb-31a4be460382","ios":"levelo://app?vid=dfc2a622-0da2-4027-90bb-31a4be460382"},"vehicle_type_id":"4","last_reported":1716721596,"current_range_meters":24000,"station_id":"ce4bh492rcd13ifvqdug","pricing_plan_id":"cebpf4jnsgd1na2vs0mg"},