{"last_updated":1703167580,"ttl":30,"version":"2.2","data":{"bikes":[{"bike_id":"8c73f74c-834d-4a0d-96e3-62e5fa6711a5","system_id":"levelo_inurba_marseille","lat":43.313391,"lon":5.36706,"is_reserved":false,"is_disabled":false,"rental_uris":{"android":"levelo://app?vid=8c73f74c-834d-4a0d-96e3-62e5fa6711a5","ios":"levelo://app?vid=8c73f74c-834d-4a0d-96e3-62e5fa6711a5"},"vehicle_type_id":"4","last_reported":1703167580,"current_range_meters":1200,"station_id":"ce4bgr92rcd13ifvqc6g","pricing_plan_id":"free"},{"bike_id":"3d744cd0-2fe6-494a-829e-68e65badb23a","system_id":"levelo_inurba_marseille","lat":43.31341,"lon":5.367098,"is_reserved":false,"is_disabled":false,"rental_uris":{"android":"levelo://app?vid=3d744cd0-2fe6-494a-829e-68e65badb23a","ios":"levelo://app?vid=3d744cd0-2fe6-494a-829e-68e65badb23a"},"vehicle_type_id":"4","last_reported":1703167580,"current_range_meters":29200,"station_id":"ce4bgr92rcd13ifvqc6g","pricing_plan_id":"free"},{"bike_id":"c32e3021-2d39-45a9-8f5c-43c0f9699d07","system_id":"levelo_inurba_marseille","lat":43.313391,"lon":5.36706,"is_reserved":false,"is_disabled":false,"rental_uris":{"android":"levelo://app?vid=c32e3021-2d39-45a9-8f5c-43c0f9699d07","ios":"levelo://app?vid=c32e3021-2d39-45a9-8f5c-43c0f9699d07"},"vehicle_type_id":"4","last_reported":1703167580,"current_range_meters":24400,"station_id":"ce4bgr92rcd13ifvqc6g","pricing_plan_id":"free"},{"bike_id":"4b9365ff-f769-448f-a9d9-57ddbc67c34b","system_id":"levelo_inurba_marseille","lat":43.313515,"lon":5.36703,"is_reserved":false,"is_disabled":false,"rental_uris":{"android":"levelo://app?vid=4b9365ff-f769-448f-a9d9-57ddbc67c34b","ios":"levelo://app?vid=4b9365ff-f769-448f-a9d9-57ddbc67c34b"},"vehicle_type_id":"4","last_reported":1703167580,"current_range_meters":31200,"station_id":"ce4bgr92rcd13ifvqc6g","pricing_plan_id":"free"},{"bike_id":"0f4cc70e-ce1e-4e82-a66e-5588a43de74a","system_id":"levelo_inurba_marseille","lat":43.313391,"lon":5.36706,"is_reserved":false,"is_disabled":false,"rental_uris":{"android":"levelo://app?vid=0f4cc70e-ce1e-4e82-a66e-5588a43de74a","ios":"levelo://app?vid=0f4cc70e-ce1e-4e82-a66e-5588a43de74a"},"vehicle_type_id":"4","last_reported":1703167580,"current_range_meters":32000,"station_id":"ce4bgr92rcd13ifvqc6g","pricing_plan_id":"free"},{"bike_id":"9c4bed50-4c08-46fb-9163-9ec5afa45ff6","system_id":"levelo_inurba_marseille","lat":43.31361,"lon":5.367,"is_reserved":false,"is_disabled":false,"rental_uris":{"android":"levelo://app?vid=9c4bed50-4c08-46fb-9163-9ec5afa45ff6","ios":"levelo://app?vid=9c4bed50-4c08-46fb-9163-9ec5afa45ff6"},"vehicle_type_id":"4","last_reported":1703167580,"current_range_meters":0,"station_id":"","pricing_plan_id":"free"},{"bike_id":"0f5db317-8a14-4ce0-a03e-ed3ebee076f9","system_id":"levelo_inurba_marseille","lat":43.31341,"lon":5.367098,"is_reserved":false,"is_disabled":false,"rental_uris":{"android":"levelo://app?vid=0f5db317-8a14-4ce0-a03e-ed3ebee076f9","ios":"levelo://app?vid=0f5db317-8a14-4ce0-a03e-ed3ebee076f9"},"vehicle_type_id":"4","last_reported":1703167580,"current_range_meters":8000,"station_id":"ce4bgr92rcd13ifvqc6g","pricing_plan_id":"free"},{"bike_id":"0f877e39-0671-47e1-bc9c-1ec99ea40997","system_id":"levelo_inurba_marseille","lat":43.312239,"lon":5.368562,"is_reserved":false,"is_disabled":false,"rental_uris":{"android":"levelo://app?vid=0f877e39-0671-47e1-bc9c-1ec99ea40997","ios":"levelo://app?vid=0f877e39-0671-47e1-bc9c-1ec99ea40997"},"vehicle_type_id":"4","last_reported":1703167580,"current_range_meters":30400,"station_id":"ce4bgl92rcd13ifvqbq0","pricing_plan_id":"free"},{"bike_id":"178a1ce0-04fa-4222-a455-77af4f145e02","system_id":"levelo_inurba_marseille","lat":43.312239,"lon":5.368562,"is_reserved":false,"is_disabled":false,"rental_uris":{"android":"levelo://app?vid=178a1ce0-04fa-4222-a455-77af4f145e02","ios":"levelo://app?vid=178a1ce0-04fa-4222-a455-77af4f145e02"},"vehicle_type_id":"4","last_reported":1703167580,"current_range_meters":18800,"station_id":"ce4bgl92rcd13ifvqbq0","pricing_plan_id":"free"},{"bike_id":"c8943c13-69f1-4cf2-ba7f-315fba118e64","system_id":"levelo_inurba_marseille","lat":43.312239,"lon":5.368562,"is_reserved":false,"is_disabled":false,"rental_uris":{"android":"levelo://app?vid=c8943c13-69f1-4cf2-ba7f-315fba118e64","ios":"levelo://app?vid=c8943c13-69f1-4cf2-ba7f-315fba118e64"},"vehicle_type_id":"4","last_reported":1703167580,"current_range_meters":12000,"station_id":"ce4bgl92rcd13ifvqbq0","pricing_plan_id":"free"},{"bike_id":"a9597c4f-3ce5-4725-86f0-2964a7de4ebd","system_id":"levelo_inurba_marseille","lat":43.312239,"lon":5.368562,"is_reserved":false,"is_disabled":false,"rental_uris":{"android":"levelo://app?vid=a9597c4f-3ce5-4725-86f0-2964a7de4ebd","ios":"levelo://app?vid=a9597c4f-3ce5-4725-86f0-2964a7de4ebd"},"vehicle_type_id":"4","last_reported":1703167580,"current_range_meters":22800,"station_id":"ce4bgl92rcd13ifvqbq0","pricing_plan_id":"free"},{"bike_id":"900faecd-2c48-45e3-bfad-680d0ef4d7c0","system_id":"levelo_inurba_marseille","lat":43.309076,"lon":5.368465,"is_reserved":false,"is_disabled":false,"rental_uris":{"android":"levelo://app?vid=900faecd-2c48-45e3-bfad-680d0ef4d7c0","ios":"levelo://app?vid=900faecd-2c48-45e3-bfad-680d0ef4d7c0"},"vehicle_type_id":"4","last_reported":1703167580,"current_range_meters":28000,"station_id":"ce4bgn92rcd13ifvqbvg","pricing_plan_id":"free"},{"bike_id":"56907204-0ab1-4e6f-bc98-d2524806a99a","system_id":"levelo_inurba_marseille","lat":43.314811,"lon":5.373103,"is_reserved":false,"is_disabled":false,"rental_uris":{"android":"levelo://app?vid=56907204-0ab1-4e6f-bc98-d2524806a99a","ios":"levelo://app?vid=56907204-0ab1-4e6f-bc98-d2524806a99a"},"vehicle_type_id":"4","last_reported":1703167580,"current_range_meters":26400,"station_id":"ce4bgt12rcd13ifvqcd0","pricing_plan_id":"free"},{"bike_id":"50d617b6-bad1-44af-9063-6aed035741e2","system_id":"levelo_inurba_marseille","lat":43.314811,"lon":5.373104,"is_reserved":false,"is_disabled":false,"rental_uris":{"android":"levelo://app?vid=50d617b6-bad1-44af-9063-6aed035741e2","ios":"levelo://app?vid=50d617b6-bad1-44af-9063-6aed035741e2"},"vehicle_type_id":"4","last_reported":1703167580,"current_range_meters":28400,"station_id":"ce4bgt12rcd13ifvqcd0","pricing_plan_id":"free"},{"bike_id":"daf68823-3046-47cb-809d-cc99bbbe6a32","system_id":"levelo_inurba_marseille","lat":43.305706,"lon":5.365654,"is_reserved":false,"is_disabled":false,"rental_uris":{"android":"levelo://app?vid=daf68823-3046-47cb-809d-cc99bbbe6a32","ios":"levelo://app?vid=daf68823-3046-47cb-809d-cc99bbbe6a32"},"vehicle_type_id":"4","last_reported":1703167580,"current_range_meters":5600,"station_id":"ce4bgs12rcd13ifvqcag","pricing_plan_id":"free"},{"bike_id":"c25e4b70-d68d-496e-8a86-43c9cc5cdd5f","system_id":"levelo_inurba_marseille","lat":43.305706,"lon":5.365654,"is_reserved":false,"is_disabled":false,"rental_uris":{"android":"levelo://app?vid=c25e4b70-d68d-496e-8a86-43c9cc5cdd5f","ios":"levelo://app?vid=c25e4b70-d68d-496e-8a86-43c9cc5cdd5f"},"vehicle_type_id":"4","last_reported":1703167580,"current_range_meters":5600,"station_id":"ce4bgs12rcd13ifvqcag","pricing_plan_id":"free"},{"bike_id":"cc63d9ff-8323-48a1-8826-f442f70bc513","system_id":"levelo_inurba_marseille","lat":43.307945,"lon":5.376487,"is_reserved":false,"is_disabled":false,"rental_uris":{"android":"levelo://app?vid=cc63d9ff-8323-48a1-8826-f442f70bc513","ios":"levelo://app?vid=cc63d9ff-8323-48a1-8826-f442f70bc513"},"vehicle_type_id":"4","last_reported":1703167580,"current_range_meters":28400,"station_id":"ce4bgv92rcd13ifvqcq0","pricing_plan_id":"free"},{"bike_id":"d955786d-cb33-4360-8b20-e34f46b5d5bf","system_id":"levelo_inurba_marseille","lat":43.30304,"lon":5.368987,"is_reserved":false,"is_disabled":false,"rental_uris":{"android":"levelo://app?vid=d955786d-cb33-4360-8b20-e34f46b5d5bf","ios":"levelo://app?vid=d955786d-cb33-4360-8b20-e34f46b5d5bf"},"vehicle_type_id":"4","last_reported":1703167580,"current_range_meters":30000,"station_id":"ce4bgqh2rcd13ifvqc5g","pricing_plan_id":"free"},{"bike_id":"6c662160-2878-403e-9cb2-748204edb49f","system_id":"levelo_inurba_marseille","lat":43.315374,"lon":5.380337,"is_reserved":false,"is_disabled":false,"rental_uris":{"android":"levelo://app?vid=6c662160-2878-403e-9cb2-748204edb49f","ios":"levelo://app?vid=6c662160-2878-403e-9cb2-748204edb49f"},"vehicle_type_id":"4","last_reported":1703167580,"current_range_meters":8400,"station_id":"ce4bhsp2rcd13ifvqi50","pricing_plan_id":"free"},{"bike_id":"0f29f9fc-ade1-445d-ba8d-4631c9525c9b","system_id":"levelo_inurba_marseille","lat":43.30636,"lon":5.37995,"is_reserved":false,"is_disabled":false,"rental_uris":{"android":"levelo://app?vid=0f29f9fc-ade1-445d-ba8d-4631c9525c9b","ios":"levelo://app?vid=0f29f9fc-ade1-445d-ba8d-4631c9525c9b"},"vehicle_type_id":"4","last_reported":1703167580,"current_range_meters":0,"station_id":"","pricing_plan_id":"free"},{"bike_id":"4fa252ac-0976-4aa3-b09a-95c6a4230776","system_id":"levelo_inurba_marseille","lat":43.308012,"lon":5.381511,"is_reserved":false,"is_disabled":false,"rental_uris":{"android":"levelo://app?vid=4fa252ac-0976-4aa3-b09a-95c6a4230776","ios":"levelo://app?vid=4fa252ac-0976-4aa3-b09a-95c6a4230776"},"vehicle_type_id":"4","last_reported":1703167580,"current_range_meters":13200,"station_id":"ce4bgt12rcd13ifvqce0","pricing_plan_id":"free"},{"bike_id":"b1229a06-117f-4eb1-b6ca-9281b3f261a3","system_id":"levelo_inurba_marseille","lat":43.308012,"lon":5.381511,"is_reserved":false,"is_disabled":false,"rental_uris":{"android":"levelo://app?vid=b1229a06-117f-4eb1-b6ca-9281b3f261a3","ios":"levelo://app?vid=b1229a06-117f-4eb1-b6ca-9281b3f261a3"},"vehicle_type_id":"4","last_reported":1703167580,"current_range_meters":26400,"station_id":"ce4bgt12rcd13ifvqce0","pricing_plan_id":"free"},{"bike_id":"058eaa06-f4b3-40d3-8cea-c9267bac4a1c","system_id":"levelo_inurba_marseille","lat":43.304601,"lon":5.379044,"is_reserved":false,"is_disabled":false,"rental_uris":{"android":"levelo://app?vid=058eaa06-f4b3-40d3-8cea-c9267bac4a1c","ios":"levelo://app?vid=058eaa06-f4b3-40d3-8cea-c9267bac4a1c"},"vehicle_type_id":"4","last_reported":1703167580,"current_range_meters":24800,"station_id":"","pricing_plan_id":"free"},{"bike_id":"4b7a9c90-e3d3-40b9-993e-c9845f2ef47f","system_id":"levelo_inurba_marseille","lat":43.304602,"lon":5.379052,"is_reserved":false,"is_disabled":false,"rental_uris":{"android":"levelo://app?vid=4b7a9c90-e3d3-40b9-993e-c9845f2ef47f","ios":"levelo://app?vid=4b7a9c90-e3d3-40b9-993e-c9845f2ef47f"},"vehicle_type_id":"4","last_reported":1703167580,"current_range_meters":31200,"station_id":"ce4bgup2rcd13ifvqcn0","pricing_plan_id":"free"},{"bike_id":"aad4c96d-fdc1-4b51-9667-e6860f8394fc","system_id":"levelo_inurba_marseille","lat":43.304601,"lon":5.379065,"is_reserved":false,"is_disabled":false,"rental_uris":{"android":"levelo://app?vid=aad4c96d-fdc1-4b51-9667-e6860f8394fc","ios":"levelo://app?vid=aad4c96d-fdc1-4b51-9667-e6860f8394fc"},"vehicle_type_id":"4","last_reported":1703167580,"current_range_meters":4800,"station_id":"ce4bgup2rcd13ifvqcn0","pricing_plan_id":"free"},{"bike_id":"967c3224-22a3-41bd-a62c-db7c464d1a8d","system_id":"levelo_inurba_marseille","lat":43.304606,"lon":5.379026,"is_reserved":false,"is_disabled":false,"rental_uris":{"android":"levelo://app?vid=967c3224-22a3-41bd-a62c-db7c464d1a8d","ios":"levelo://app?vid=967c3224-22a3-41bd-a62c-db7c464d1a8d"},"vehicle_type_id":"4","last_reported":1703167580,"current_range_meters":25200,"station_id":"ce4bgup2rcd13ifvqcn0","pricing_plan_id":"free"},{"bike_id":"83dabfc7-ac79-4e0c-aa32-b888535c04d7","system_id":"levelo_inurba_marseille","lat":43.304598,"lon":5.379068,"is_reserved":false,"is_disabled":false,"rental_uris":{"android":"levelo://app?vid=83dabfc7-ac79-4e0c-aa32-b888535c04d7","ios":"levelo://app?vid=83dabfc7-ac79-4e0c-aa32-b888535c04d7"},"vehicle_type_id":"4","last_reported":1703167580,"current_range_meters":24800,"station_id":"ce4bgup2rcd13ifvqcn0","pricing_plan_id":"free"},{"bike_id":"3ea62a7d-f74d-4b6b-85b6-4aacc5a8ce74","system_id":"levelo_inurba_marseille","lat":43.30459,"lon":5.37912,"is_reserved":false,"is_disabled":false,"rental_uris":{"android":"levelo://app?vid=3ea62a7d-f74d-4b6b-85b6-4aacc5a8ce74","ios":"levelo://app?vid=3ea62a7d-f74d-4b6b-85b6-4aacc5a8ce74"},"vehicle_type_id":"4","last_reported":1703167580,"current_range_meters":12400,"station_id":"ce4bgup2rcd13ifvqcn0","pricing_plan_id":"free"},{"bike_id":"f31357b9-fba8-47c4-af04-485b43510202","system_id":"levelo_inurba_marseille","lat":43.324771,"lon":5.36557,"is_reserved":false,"is_disabled":false,"rental_uris":{"android":"levelo://app?vid=f31357b9-fba8-47c4-af04-485b43510202","ios":"levelo://app?vid=f31357b9-fba8-47c4-af04-485b43510202"},"vehicle_type_id":"4","last_reported":1703167580,"current_range_meters":17200,"station_id":"ce4bhs12rcd13ifvqhvg","pricing_plan_id":"free"},{"bike_id":"a4c81745-a500-48ee-8a99-745edbdd1ca8","system_id":"levelo_inurba_marseille","lat":43.324771,"lon":5.36557,"is_reserved":false,"is_disabled":false,"rental_uris":{"android":"levelo://app?vid=a4c81745-a500-48ee-8a99-745edbdd1ca8","ios":"levelo://app?vid=a4c81745-a500-48ee-8a99-745edbdd1ca8"},"vehicle_type_id":"4","last_reported":1703167580,"current_range_meters":4800,"station_id":"ce4bhs12rcd13ifvqhvg","pricing_plan_id":"free"},{"bike_id":"47840dc3-c9b3-4c2f-bdb2-3770067fe91d","system_id":"levelo_inurba_marseille","lat":43.302784,"lon":5.377158,"is_reserved":false,"is_disabled":false,"rental_uris":{"android":"levelo://app?vid=47840dc3-c9b3-4c2f-bdb2-3770067fe91d","ios":"levelo://app?vid=47840dc3-c9b3-4c2f-bdb2-3770067fe91d"},"vehicle_type_id":"4","last_reported":1703167580,"current_range_meters":23200,"station_id":"ce4bguh2rcd13ifvqcj0","pricing_plan_id":"free"},{"bike_id":"17ff0bbc-9b28-490e-8736-b8e8287ffae6","system_id":"levelo_inurba_marseille","lat":43.30143,"lon":5.37413,"is_reserved":false,"is_disabled":false,"rental_uris":{"android":"levelo://app?vid=17ff0bbc-9b28-490e-8736-b8e8287ffae6","ios":"levelo://app?vid=17ff0bbc-9b28-490e-8736-b8e8287ffae6"},"vehicle_type_id":"4","last_reported":1703167580,"current_range_meters":29600,"station_id":"ce4bgs92rcd13ifvqcc0","pricing_plan_id":"free"},{"bike_id":"d2495b64-0864-42ec-8037-53a90586682a","system_id":"levelo_inurba_marseille","lat":43.302784,"lon":5.377158,"is_reserved":false,"is_disabled":false,"rental_uris":{"android":"levelo://app?vid=d2495b64-0864-42ec-8037-53a90586682a","ios":"levelo://app?vid=d2495b64-0864-42ec-8037-53a90586682a"},"vehicle_type_id":"4","last_reported":1703167580,"current_range_meters":26000,"station_id":"ce4bguh2rcd13ifvqcj0","pricing_plan_id":"free"},{"bike_id":"2aad73b2-90b7-4e60-925e-2e8ca65e5494","system_id":"levelo_inurba_marseille","lat":43.302784,"lon":5.377158,"is_reserved":false,"is_disabled":false,"rental_uris":{"android":"levelo://app?vid=2aad73b2-90b7-4e60-925e-2e8ca65e5494","ios":"levelo://app?vid=2aad73b2-90b7-4e60-925e-2e8ca65e5494"},"vehicle_type_id":"4","last_reported":1703167580,"current_range_meters":17200,"station_id":"ce4bguh2rcd13ifvqcj0","pricing_plan_id":"free"},{"bike_id":"dc0f6af5-c02c-4610-baea-e5c6ca16f530","system_id":"levelo_inurba_marseille","lat":43.31985,"lon":5.38152,"is_reserved":false,"is_disabled":false,"rental_uris":{"android":"levelo://app?vid=dc0f6af5-c02c-4610-baea-e5c6ca16f530","ios":"levelo://app?vid=dc0f6af5-c02c-4610-baea-e5c6ca16f530"},"vehicle_type_id":"4","last_reported":1703167580,"current_range_meters":31200,"station_id":"ce4bhr12rcd13ifvqhpg","pricing_plan_id":"free"},{"bike_id":"ad0dedf2-0cd4-4d6b-9ecb-d240001f99ef","system_id":"levelo_inurba_marseille","lat":43.31989,"lon":5.38157,"is_reserved":false,"is_disabled":false,"rental_uris":{"android":"levelo://app?vid=ad0dedf2-0cd4-4d6b-9ecb-d240001f99ef","ios":"levelo://app?vid=ad0dedf2-0cd4-4d6b-9ecb-d240001f99ef"},"vehicle_type_id":"4","last_reported":1703167580,"current_range_meters":29200,"station_id":"ce4bhr12rcd13ifvqhpg","pricing_plan_id":"free"},{"bike_id":"bf29f302-2dda-4aeb-bd7f-38d08e28933e","system_id":"levelo_inurba_marseille","lat":43.320005,"lon":5.381601,"is_reserved":false,"is_disabled":false,"rental_uris":{"android":"levelo://app?vid=bf29f302-2dda-4aeb-bd7f-38d08e28933e","ios":"levelo://app?vid=bf29f302-2dda-4aeb-bd7f-38d08e28933e"},"vehicle_type_id":"4","last_reported":1703167580,"current_range_meters":10400,"station_id":"ce4bhr12rcd13ifvqhpg","pricing_plan_id":"free"},{"bike_id":"6c805d12-7bed-493e-b498-20330abca3e1","system_id":"levelo_inurba_marseille","lat":43.313571,"lon":5.384829,"is_reserved":false,"is_disabled":false,"rental_uris":{"android":"levelo://app?vid=6c805d12-7bed-493e-b498-20330abca3e1","ios":"levelo://app?vid=6c805d12-7bed-493e-b498-20330abca3e1"},"vehicle_type_id":"4","last_reported":1703167580,"current_range_meters":0,"station_id":"ce4bgt92rcd13ifvqcf0","pricing_plan_id":"free"},{"bike_id":"ecf88311-761e-4ea3-9267-6bff6fe5d092","system_id":"levelo_inurba_marseille","lat":43.299222,"lon":5.365554,"is_reserved":false,"is_disabled":false,"rental_uris":{"android":"levelo://app?vid=ecf88311-761e-4ea3-9267-6bff6fe5d092","ios":"levelo://app?vid=ecf88311-761e-4ea3-9267-6bff6fe5d092"},"vehicle_type_id":"4","last_reported":1703167580,"current_range_meters":18400,"station_id":"ce4bgm92rcd13ifvqbr0","pricing_plan_id":"free"},{"bike_id":"b8aeb2d3-a4c3-41f7-9782-aecdbbe33e4e","system_id":"levelo_inurba_marseille","lat":43.299724,"lon":5.371829,"is_reserved":false,"is_disabled":false,"rental_uris":{"android":"levelo://app?vid=b8aeb2d3-a4c3-41f7-9782-aecdbbe33e4e","ios":"levelo://app?vid=b8aeb2d3-a4c3-41f7-9782-aecdbbe33e4e"},"vehicle_type_id":"4","last_reported":1703167580,"current_range_meters":23600,"station_id":"ce4bgr92rcd13ifvqc7g","pricing_plan_id":"free"},{"bike_id":"81588097-8b3b-4160-bf11-cdaf6d30bdf2","system_id":"levelo_inurba_marseille","lat":43.299724,"lon":5.371829,"is_reserved":false,"is_disabled":false,"rental_uris":{"android":"levelo://app?vid=81588097-8b3b-4160-bf11-cdaf6d30bdf2","ios":"levelo://app?vid=81588097-8b3b-4160-bf11-cdaf6d30bdf2"},"vehicle_type_id":"4","last_reported":1703167580,"current_range_meters":21600,"station_id":"ce4bgr92rcd13ifvqc7g","pricing_plan_id":"free"},{"bike_id":"d271bcc2-c7d7-41ff-b0d6-408952311658","system_id":"levelo_inurba_marseille","lat":43.299724,"lon":5.371829,"is_reserved":false,"is_disabled":false,"rental_uris":{"android":"levelo://app?vid=d271bcc2-c7d7-41ff-b0d6-408952311658","ios":"levelo://app?vid=d271bcc2-c7d7-41ff-b0d6-408952311658"},"vehicle_type_id":"4","last_reported":1703167580,"current_range_meters":22400,"station_id":"ce4bgr92rcd13ifvqc7g","pricing_plan_id":"free"},{"bike_id":"4e9bd863-63b8-4624-a9a7-212ea3262ef9","system_id":"levelo_inurba_marseille","lat":43.299724,"lon":5.371829,"is_reserved":false,"is_disabled":false,"rental_uris":{"android":"levelo://app?vid=4e9bd863-63b8-4624-a9a7-212ea3262ef9","ios":"levelo://app?vid=4e9bd863-63b8-4624-a9a7-212ea3262ef9"},"vehicle_type_id":"4","last_reported":1703167580,"current_range_meters":21600,"station_id":"ce4bgr92rcd13ifvqc7g","pricing_plan_id":"free"},{"bike_id":"65dbb94c-54ce-472c-9d66-7d0336fc3938","system_id":"levelo_inurba_marseille","lat":43.305364,"lon":5.384119,"is_reserved":false,"is_disabled":false,"rental_uris":{"android":"levelo://app?vid=65dbb94c-54ce-472c-9d66-7d0336fc3938","ios":"levelo://app?vid=65dbb94c-54ce-472c-9d66-7d0336fc3938"},"vehicle_type_id":"4","last_reported":1703167580,"current_range_meters":17600,"station_id":"ce4bgg92rcd13ifvqb30","pricing_plan_id":"free"},{"bike_id":"e2976019-7b89-4cc5-9cfb-045bbf74915d","system_id":"levelo_inurba_marseille","lat":43.298433,"lon":5.362774,"is_reserved":false,"is_disabled":false,"rental_uris":{"android":"levelo://app?vid=e2976019-7b89-4cc5-9cfb-045bbf74915d","ios":"levelo://app?vid=e2976019-7b89-4cc5-9cfb-045bbf74915d"},"vehicle_type_id":"4","last_reported":1703167580,"current_range_meters":24000,"station_id":"ce4bgpp2rcd13ifvqc3g","pricing_plan_id":"free"},{"bike_id":"db4fffcc-d7f7-42b8-8946-844d8963797e","system_id":"levelo_inurba_marseille","lat":43.298433,"lon":5.362774,"is_reserved":false,"is_disabled":false,"rental_uris":{"android":"levelo://app?vid=db4fffcc-d7f7-42b8-8946-844d8963797e","ios":"levelo://app?vid=db4fffcc-d7f7-42b8-8946-844d8963797e"},"vehicle_type_id":"4","last_reported":1703167580,"current_range_meters":27600,"station_id":"ce4bgpp2rcd13ifvqc3g","pricing_plan_id":"free"},{"bike_id":"5822e153-b056-4946-88d9-7de72bfba1fe","system_id":"levelo_inurba_marseille","lat":43.311722,"lon":5.387247,"is_reserved":false,"is_disabled":false,"rental_uris":{"android":"levelo://app?vid=5822e153-b056-4946-88d9-7de72bfba1fe","ios":"levelo://app?vid=5822e153-b056-4946-88d9-7de72bfba1fe"},"vehicle_type_id":"4","last_reported":1703167580,"current_range_meters":23600,"station_id":"ce4bgv12rcd13ifvqcp0","pricing_plan_id":"free"},{"bike_id":"e1315c69-e0bc-474b-b7c9-7e9d82b8f41e","system_id":"levelo_inurba_marseille","lat":43.297794,"lon":5.370888,"is_reserved":false,"is_disabled":false,"rental_uris":{"android":"levelo://app?vid=e1315c69-e0bc-474b-b7c9-7e9d82b8f41e","ios":"levelo://app?vid=e1315c69-e0bc-474b-b7c9-7e9d82b8f41e"},"vehicle_type_id":"4","last_reported":1703167580,"current_range_meters":24400,"station_id":"ce4bgop2rcd13ifvqc1g","pricing_plan_id":"free"},{"bike_id":"c7926408-b132-4ce6-a394-54a707bf478d","system_id":"levelo_inurba_marseille","lat":43.297848,"lon":5.370988,"is_reserved":false,"is_disabled":false,"rental_uris":{"android":"levelo://app?vid=c7926408-b132-4ce6-a394-54a707bf478d","ios":"levelo://app?vid=c7926408-b132-4ce6-a394-54a707bf478d"},"vehicle_type_id":"4","last_reported":1703167580,"current_range_meters":800,"station_id":"ce4bgop2rcd13ifvqc1g","pricing_plan_id":"free"},{"bike_id":"2b6f46c3-91a7-4759-9431-2e20cdfcf4a0","system_id":"levelo_inurba_marseille","lat":43.29782,"lon":5.37102,"is_reserved":false,"is_disabled":false,"rental_uris":{"android":"levelo://app?vid=2b6f46c3-91a7-4759-9431-2e20cdfcf4a0","ios":"levelo://app?vid=2b6f46c3-91a7-4759-9431-2e20cdfcf4a0"},"vehicle_type_id":"4","last_reported":1703167580,"current_range_meters":17200,"station_id":"ce4bgop2rcd13ifvqc1g","pricing_plan_id":"free"},{"bike_id":"6e0ac0fa-900b-4a02-956a-ef91754c960b","system_id":"levelo_inurba_marseille","lat":43.297774,"lon":5.370875,"is_reserved":false,"is_disabled":false,"rental_uris":{"android":"levelo://app?vid=6e0ac0fa-900b-4a02-956a-ef91754c960b","ios":"levelo://app?vid=6e0ac0fa-900b-4a02-956a-ef91754c960b"},"vehicle_type_id":"4","last_reported":1703167580,"current_range_meters":22800,"station_id":"ce4bgop2rcd13ifvqc1g","pricing_plan_id":"free"},{"bike_id":"c22e4b9f-ba20-4a7c-a7c8-fd0a73d903e0","system_id":"levelo_inurba_marseille","lat":43.32827,"lon":5.36679,"is_reserved":false,"is_disabled":false,"rental_uris":{"android":"levelo://app?vid=c22e4b9f-ba20-4a7c-a7c8-fd0a73d903e0","ios":"levelo://app?vid=c22e4b9f-ba20-4a7c-a7c8-fd0a73d903e0"},"vehicle_type_id":"4","last_reported":1703167580,"current_range_meters":18800,"station_id":"ce4bhs92rcd13ifvqi0g","pricing_plan_id":"free"},{"bike_id":"0cdbd0f0-d3c9-4a82-8c6d-6ffa03bfbf25","system_id":"levelo_inurba_marseille","lat":43.32829,"lon":5.36682,"is_reserved":false,"is_disabled":false,"rental_uris":{"android":"levelo://app?vid=0cdbd0f0-d3c9-4a82-8c6d-6ffa03bfbf25","ios":"levelo://app?vid=0cdbd0f0-d3c9-4a82-8c6d-6ffa03bfbf25"},"vehicle_type_id":"4","last_reported":1703167580,"current_range_meters":18800,"station_id":"ce4bhs92rcd13ifvqi0g","pricing_plan_id":"free"},{"bike_id":"c12df297-168e-4ca3-95d9-a300ff1ffbd9","system_id":"levelo_inurba_marseille","lat":43.328371,"lon":5.366909,"is_reserved":false,"is_disabled":false,"rental_uris":{"android":"levelo://app?vid=c12df297-168e-4ca3-95d9-a300ff1ffbd9","ios":"levelo://app?vid=c12df297-168e-4ca3-95d9-a300ff1ffbd9"},"vehicle_type_id":"4","last_reported":1703167580,"current_range_meters":25200,"station_id":"ce4bhs92rcd13ifvqi0g","pricing_plan_id":"free"},{"bike_id":"6524adb7-9903-4212-8ccc-cd4ec72e004e","system_id":"levelo_inurba_marseille","lat":43.297163,"lon":5.365866,"is_reserved":false,"is_disabled":false,"rental_uris":{"android":"levelo://app?vid=6524adb7-9903-4212-8ccc-cd4ec72e004e","ios":"levelo://app?vid=6524adb7-9903-4212-8ccc-cd4ec72e004e"},"vehicle_type_id":"4","last_reported":1703167580,"current_range_meters":5600,"station_id":"ce4bgn12rcd13ifvqbt0","pricing_plan_id":"free"},{"bike_id":"1378810b-812d-44e5-847a-1b7aeb90e4c4","system_id":"levelo_inurba_marseille","lat":43.2997,"lon":5.3807,"is_reserved":false,"is_disabled":false,"rental_uris":{"android":"levelo://app?vid=1378810b-812d-44e5-847a-1b7aeb90e4c4","ios":"levelo://app?vid=1378810b-812d-44e5-847a-1b7aeb90e4c4"},"vehicle_type_id":"4","last_reported":1703167580,"current_range_meters":18400,"station_id":"","pricing_plan_id":"free"},{"bike_id":"f58968fe-d5ad-49dc-b0eb-5cb6051344db","system_id":"levelo_inurba_marseille","lat":43.2968,"lon":5.37291,"is_reserved":false,"is_disabled":false,"rental_uris":{"android":"levelo://app?vid=f58968fe-d5ad-49dc-b0eb-5cb6051344db","ios":"levelo://app?vid=f58968fe-d5ad-49dc-b0eb-5cb6051344db"},"vehicle_type_id":"4","last_reported":1703167580,"current_range_meters":28400,"station_id":"ce4bgk12rcd13ifvqbj0","pricing_plan_id":"free"},{"bike_id":"a48ea286-cbc3-4c26-acae-19165807c8b1","system_id":"levelo_inurba_marseille","lat":43.296129,"lon":5.370777,"is_reserved":false,"is_disabled":false,"rental_uris":{"android":"levelo://app?vid=a48ea286-cbc3-4c26-acae-19165807c8b1","ios":"levelo://app?vid=a48ea286-cbc3-4c26-acae-19165807c8b1"},"vehicle_type_id":"4","last_reported":1703167580,"current_range_meters":30000,"station_id":"ce4bgnh2rcd13ifvqc0g","pricing_plan_id":"free"},{"bike_id":"e74b921c-c06c-44cd-aa24-eefec1430c79","system_id":"levelo_inurba_marseille","lat":43.29573,"lon":5.367355,"is_reserved":false,"is_disabled":false,"rental_uris":{"android":"levelo://app?vid=e74b921c-c06c-44cd-aa24-eefec1430c79","ios":"levelo://app?vid=e74b921c-c06c-44cd-aa24-eefec1430c79"},"vehicle_type_id":"4","last_reported":1703167580,"current_range_meters":13600,"station_id":"ce4bgph2rcd13ifvqc2g","pricing_plan_id":"free"},{"bike_id":"58c20cf0-26fd-409d-963f-424a1c50e2c9","system_id":"levelo_inurba_marseille","lat":43.299028,"lon":5.381509,"is_reserved":false,"is_disabled":false,"rental_uris":{"android":"levelo://app?vid=58c20cf0-26fd-409d-963f-424a1c50e2c9","ios":"levelo://app?vid=58c20cf0-26fd-409d-963f-424a1c50e2c9"},"vehicle_type_id":"4","last_reported":1703167580,"current_range_meters":9600,"station_id":"ce4bgj12rcd13ifvqbc0","pricing_plan_id":"free"},{"bike_id":"86982100-5807-41c9-b7d7-697a0866e8d4","system_id":"levelo_inurba_marseille","lat":43.317557,"lon":5.390173,"is_reserved":false,"is_disabled":false,"rental_uris":{"android":"levelo://app?vid=86982100-5807-41c9-b7d7-697a0866e8d4","ios":"levelo://app?vid=86982100-5807-41c9-b7d7-697a0866e8d4"},"vehicle_type_id":"4","last_reported":1703167580,"current_range_meters":31600,"station_id":"ce4bhqp2rcd13ifvqhng","pricing_plan_id":"free"},{"bike_id":"04ca680c-0493-4f1b-9ef8-db1e704523dd","system_id":"levelo_inurba_marseille","lat":43.317557,"lon":5.390173,"is_reserved":false,"is_disabled":false,"rental_uris":{"android":"levelo://app?vid=04ca680c-0493-4f1b-9ef8-db1e704523dd","ios":"levelo://app?vid=04ca680c-0493-4f1b-9ef8-db1e704523dd"},"vehicle_type_id":"4","last_reported":1703167580,"current_range_meters":25600,"station_id":"ce4bhqp2rcd13ifvqhng","pricing_plan_id":"free"},{"bike_id":"b1a19f37-8542-4175-bde2-0cbba25a3609","system_id":"levelo_inurba_marseille","lat":43.298037,"lon":5.381066,"is_reserved":false,"is_disabled":false,"rental_uris":{"android":"levelo://app?vid=b1a19f37-8542-4175-bde2-0cbba25a3609","ios":"levelo://app?vid=b1a19f37-8542-4175-bde2-0cbba25a3609"},"vehicle_type_id":"4","last_reported":1703167580,"current_range_meters":19600,"station_id":"ce4bgip2rcd13ifvqbb0","pricing_plan_id":"free"},{"bike_id":"af0f6185-47fd-4d35-84c5-812a8497b556","system_id":"levelo_inurba_marseille","lat":43.298037,"lon":5.381066,"is_reserved":false,"is_disabled":false,"rental_uris":{"android":"levelo://app?vid=af0f6185-47fd-4d35-84c5-812a8497b556","ios":"levelo://app?vid=af0f6185-47fd-4d35-84c5-812a8497b556"},"vehicle_type_id":"4","last_reported":1703167580,"current_range_meters":5600,"station_id":"ce4bgip2rcd13ifvqbb0","pricing_plan_id":"free"},{"bike_id":"2c0ae0a9-9e9f-467e-b46f-af510777de20","system_id":"levelo_inurba_marseille","lat":43.298037,"lon":5.381066,"is_reserved":false,"is_disabled":false,"rental_uris":{"android":"levelo://app?vid=2c0ae0a9-9e9f-467e-b46f-af510777de20","ios":"levelo://app?vid=2c0ae0a9-9e9f-467e-b46f-af510777de20"},"vehicle_type_id":"4","last_reported":1703167580,"current_range_meters":11200,"station_id":"ce4bgip2rcd13ifvqbb0","pricing_plan_id":"free"},{"bike_id":"ac5eb1f8-f12e-4753-83b6-473227417a0a","system_id":"levelo_inurba_marseille","lat":43.298037,"lon":5.381066,"is_reserved":false,"is_disabled":false,"rental_uris":{"android":"levelo://app?vid=ac5eb1f8-f12e-4753-83b6-473227417a0a","ios":"levelo://app?vid=ac5eb1f8-f12e-4753-83b6-473227417a0a"},"vehicle_type_id":"4","last_reported":1703167580,"current_range_meters":28000,"station_id":"ce4bgip2rcd13ifvqbb0","pricing_plan_id":"free"},{"bike_id":"97317757-e749-49af-b50c-dafbe6207119","system_id":"levelo_inurba_marseille","lat":43.298037,"lon":5.381066,"is_reserved":false,"is_disabled":false,"rental_uris":{"android":"levelo://app?vid=97317757-e749-49af-b50c-dafbe6207119","ios":"levelo://app?vid=97317757-e749-49af-b50c-dafbe6207119"},"vehicle_type_id":"4","last_reported":1703167580,"current_range_meters":20800,"station_id":"ce4bgip2rcd13ifvqbb0","pricing_plan_id":"free"},{"bike_id":"41d7bdb6-0501-4f2c-8952-f0ca37b244a7","system_id":"levelo_inurba_marseille","lat":43.298037,"lon":5.381066,"is_reserved":false,"is_disabled":false,"rental_uris":{"android":"levelo://app?vid=41d7bdb6-0501-4f2c-8952-f0ca37b244a7","ios":"levelo://app?vid=41d7bdb6-0501-4f2c-8952-f0ca37b244a7"},"vehicle_type_id":"4","last_reported":1703167580,"current_range_meters":22800,"station_id":"ce4bgip2rcd13ifvqbb0","pricing_plan_id":"free"},{"bike_id":"5b390af1-7d16-478d-aa19-909852797834","system_id":"levelo_inurba_marseille","lat":43.298037,"lon":5.381066,"is_reserved":false,"is_disabled":false,"rental_uris":{"android":"levelo://app?vid=5b390af1-7d16-478d-aa19-909852797834","ios":"levelo://app?vid=5b390af1-7d16-478d-aa19-909852797834"},"vehicle_type_id":"4","last_reported":1703167580,"current_range_meters":7600,"station_id":"ce4bgip2rcd13ifvqbb0","pricing_plan_id":"free"},{"bike_id":"4d8cd185-a802-4634-9df8-8a83db65b7a2","system_id":"levelo_inurba_marseille","lat":43.304278,"lon":5.388868,"is_reserved":false,"is_disabled":false,"rental_uris":{"android":"levelo://app?vid=4d8cd185-a802-4634-9df8-8a83db65b7a2","ios":"levelo://app?vid=4d8cd185-a802-4634-9df8-8a83db65b7a2"},"vehicle_type_id":"4","last_reported":1703167580,"current_range_meters":2400,"station_id":"ce4bgk12rcd13ifvqbi0","pricing_plan_id":"free"},{"bike_id":"47aeccb2-b8f6-4148-8ead-c6b89b32d852","system_id":"levelo_inurba_marseille","lat":43.299717,"lon":5.384845,"is_reserved":false,"is_disabled":false,"rental_uris":{"android":"levelo://app?vid=47aeccb2-b8f6-4148-8ead-c6b89b32d852","ios":"levelo://app?vid=47aeccb2-b8f6-4148-8ead-c6b89b32d852"},"vehicle_type_id":"4","last_reported":1703167580,"current_range_meters":18400,"station_id":"ce4bgj92rcd13ifvqbd0","pricing_plan_id":"free"},{"bike_id":"8b827ab9-0bbc-4315-91cd-8b3fbff540ba","system_id":"levelo_inurba_marseille","lat":43.296277,"lon":5.377108,"is_reserved":false,"is_disabled":false,"rental_uris":{"android":"levelo://app?vid=8b827ab9-0bbc-4315-91cd-8b3fbff540ba","ios":"levelo://app?vid=8b827ab9-0bbc-4315-91cd-8b3fbff540ba"},"vehicle_type_id":"4","last_reported":1703167580,"current_range_meters":27600,"station_id":"ce4bgi92rcd13ifvqb90","pricing_plan_id":"free"},{"bike_id":"39a5a7f1-613e-4ce9-85dc-bf406e7675c4","system_id":"levelo_inurba_marseille","lat":43.3237,"lon":5.38883,"is_reserved":false,"is_disabled":false,"rental_uris":{"android":"levelo://app?vid=39a5a7f1-613e-4ce9-85dc-bf406e7675c4","ios":"levelo://app?vid=39a5a7f1-613e-4ce9-85dc-bf406e7675c4"},"vehicle_type_id":"4","last_reported":1703167580,"current_range_meters":26000,"station_id":"ce4bhqp2rcd13ifvqhog","pricing_plan_id":"free"},{"bike_id":"3ae6aee1-e188-42b5-ad76-cadd07f2f208","system_id":"levelo_inurba_marseille","lat":43.293249,"lon":5.371578,"is_reserved":false,"is_disabled":false,"rental_uris":{"android":"levelo://app?vid=3ae6aee1-e188-42b5-ad76-cadd07f2f208","ios":"levelo://app?vid=3ae6aee1-e188-42b5-ad76-cadd07f2f208"},"vehicle_type_id":"4","last_reported":1703167580,"current_range_meters":30000,"station_id":"ce4bgh92rcd13ifvqb40","pricing_plan_id":"free"},{"bike_id":"b4c77eae-0e09-4a92-88fd-b5b7a2d271e1","system_id":"levelo_inurba_marseille","lat":43.293259,"lon":5.371586,"is_reserved":false,"is_disabled":false,"rental_uris":{"android":"levelo://app?vid=b4c77eae-0e09-4a92-88fd-b5b7a2d271e1","ios":"levelo://app?vid=b4c77eae-0e09-4a92-88fd-b5b7a2d271e1"},"vehicle_type_id":"4","last_reported":1703167580,"current_range_meters":29200,"station_id":"ce4bgh92rcd13ifvqb40","pricing_plan_id":"free"},{"bike_id":"9cdc2d81-9540-473b-814e-843973f830c4","system_id":"levelo_inurba_marseille","lat":43.292749,"lon":5.368402,"is_reserved":false,"is_disabled":false,"rental_uris":{"android":"levelo://app?vid=9cdc2d81-9540-473b-814e-843973f830c4","ios":"levelo://app?vid=9cdc2d81-9540-473b-814e-843973f830c4"},"vehicle_type_id":"4","last_reported":1703167580,"current_range_meters":19200,"station_id":"ce4bhbp2rcd13ifvqesg","pricing_plan_id":"free"},{"bike_id":"b0f25976-608a-4949-99f4-0d4d60db2f98","system_id":"levelo_inurba_marseille","lat":43.292749,"lon":5.368398,"is_reserved":false,"is_disabled":false,"rental_uris":{"android":"levelo://app?vid=b0f25976-608a-4949-99f4-0d4d60db2f98","ios":"levelo://app?vid=b0f25976-608a-4949-99f4-0d4d60db2f98"},"vehicle_type_id":"4","last_reported":1703167580,"current_range_meters":20800,"station_id":"ce4bhbp2rcd13ifvqesg","pricing_plan_id":"free"},{"bike_id":"a313bc04-4d44-4afd-9a94-05227c7bd59d","system_id":"levelo_inurba_marseille","lat":43.293259,"lon":5.371586,"is_reserved":false,"is_disabled":false,"rental_uris":{"android":"levelo://app?vid=a313bc04-4d44-4afd-9a94-05227c7bd59d","ios":"levelo://app?vid=a313bc04-4d44-4afd-9a94-05227c7bd59d"},"vehicle_type_id":"4","last_reported":1703167580,"current_range_meters":9600,"station_id":"ce4bgh92rcd13ifvqb40","pricing_plan_id":"free"},{"bike_id":"65fc9901-b62d-43f6-835f-e1d4f6eefa8e","system_id":"levelo_inurba_marseille","lat":43.293259,"lon":5.371586,"is_reserved":false,"is_disabled":false,"rental_uris":{"android":"levelo://app?vid=65fc9901-b62d-43f6-835f-e1d4f6eefa8e","ios":"levelo://app?vid=65fc9901-b62d-43f6-835f-e1d4f6eefa8e"},"vehicle_type_id":"4","last_reported":1703167580,"current_range_meters":26800,"station_id":"ce4bgh92rcd13ifvqb40","pricing_plan_id":"free"},{"bike_id":"6a59a8d4-52dc-4030-b6df-5ff883015fc6","system_id":"levelo_inurba_marseille","lat":43.2936,"lon":5.37835,"is_reserved":false,"is_disabled":false,"rental_uris":{"android":"levelo://app?vid=6a59a8d4-52dc-4030-b6df-5ff883015fc6","ios":"levelo://app?vid=6a59a8d4-52dc-4030-b6df-5ff883015fc6"},"vehicle_type_id":"4","last_reported":1703167580,"current_range_meters":29600,"station_id":"ce4bgjh2rcd13ifvqbf0","pricing_plan_id":"free"},{"bike_id":"6af6cbf0-3f03-4fc6-825c-ce9618c59da1","system_id":"levelo_inurba_marseille","lat":43.2936,"lon":5.37835,"is_reserved":false,"is_disabled":false,"rental_uris":{"android":"levelo://app?vid=6af6cbf0-3f03-4fc6-825c-ce9618c59da1","ios":"levelo://app?vid=6af6cbf0-3f03-4fc6-825c-ce9618c59da1"},"vehicle_type_id":"4","last_reported":1703167580,"current_range_meters":27600,"station_id":"ce4bgjh2rcd13ifvqbf0","pricing_plan_id":"free"},{"bike_id":"c178af66-3ca6-4295-9705-ec437867794a","system_id":"levelo_inurba_marseille","lat":43.2936,"lon":5.37835,"is_reserved":false,"is_disabled":false,"rental_uris":{"android":"levelo://app?vid=c178af66-3ca6-4295-9705-ec437867794a","ios":"levelo://app?vid=c178af66-3ca6-4295-9705-ec437867794a"},"vehicle_type_id":"4","last_reported":1703167580,"current_range_meters":31600,"station_id":"ce4bgjh2rcd13ifvqbf0","pricing_plan_id":"free"},{"bike_id":"13ecba07-4c61-4ddf-bc7c-e6a8c3c63c74","system_id":"levelo_inurba_marseille","lat":43.2936,"lon":5.37835,"is_reserved":false,"is_disabled":false,"rental_uris":{"android":"levelo://app?vid=13ecba07-4c61-4ddf-bc7c-e6a8c3c63c74","ios":"levelo://app?vid=13ecba07-4c61-4ddf-bc7c-e6a8c3c63c74"},"vehicle_type_id":"4","last_reported":1703167580,"current_range_meters":7600,"station_id":"ce4bgjh2rcd13ifvqbf0","pricing_plan_id":"free"},{"bike_id":"13d3718a-0b5e-447c-b07b-5b03836fc189","system_id":"levelo_inurba_marseille","lat":43.300852,"lon":5.390859,"is_reserved":false,"is_disabled":false,"rental_uris":{"android":"levelo://app?vid=13d3718a-0b5e-447c-b07b-5b03836fc189","ios":"levelo://app?vid=13d3718a-0b5e-447c-b07b-5b03836fc189"},"vehicle_type_id":"4","last_reported":1703167580,"current_range_meters":30000,"station_id":"ce4bh192rcd13ifvqdb0","pricing_plan_id":"free"},{"bike_id":"4fe2dda7-1bba-49cc-ac10-ee0634f8dc4f","system_id":"levelo_inurba_marseille","lat":43.29883,"lon":5.38904,"is_reserved":false,"is_disabled":false,"rental_uris":{"android":"levelo://app?vid=4fe2dda7-1bba-49cc-ac10-ee0634f8dc4f","ios":"levelo://app?vid=4fe2dda7-1bba-49cc-ac10-ee0634f8dc4f"},"vehicle_type_id":"4","last_reported":1703167580,"current_range_meters":16800,"station_id":"","pricing_plan_id":"free"},{"bike_id":"e14e2bd0-6228-4be5-a78a-dcdf68b4de55","system_id":"levelo_inurba_marseille","lat":43.291675,"lon":5.371583,"is_reserved":false,"is_disabled":false,"rental_uris":{"android":"levelo://app?vid=e14e2bd0-6228-4be5-a78a-dcdf68b4de55","ios":"levelo://app?vid=e14e2bd0-6228-4be5-a78a-dcdf68b4de55"},"vehicle_type_id":"4","last_reported":1703167580,"current_range_meters":30000,"station_id":"ce4bha92rcd13ifvqeh0","pricing_plan_id":"free"},{"bike_id":"b92d8c08-4834-44b1-858c-d7cabc5a10f3","system_id":"levelo_inurba_marseille","lat":43.293009,"lon":5.374584,"is_reserved":false,"is_disabled":false,"rental_uris":{"android":"levelo://app?vid=b92d8c08-4834-44b1-858c-d7cabc5a10f3","ios":"levelo://app?vid=b92d8c08-4834-44b1-858c-d7cabc5a10f3"},"vehicle_type_id":"4","last_reported":1703167580,"current_range_meters":27200,"station_id":"ce4bgi12rcd13ifvqb70","pricing_plan_id":"free"},{"bike_id":"8f283ee4-2860-4cfc-8540-18256481381e","system_id":"levelo_inurba_marseille","lat":43.291994,"lon":5.357886,"is_reserved":false,"is_disabled":false,"rental_uris":{"android":"levelo://app?vid=8f283ee4-2860-4cfc-8540-18256481381e","ios":"levelo://app?vid=8f283ee4-2860-4cfc-8540-18256481381e"},"vehicle_type_id":"4","last_reported":1703167580,"current_range_meters":800,"station_id":"ce4bhb12rcd13ifvqel0","pricing_plan_id":"free"},{"bike_id":"f245a8a3-e5e1-4f41-b6cd-c3578c6cfda6","system_id":"levelo_inurba_marseille","lat":43.313291,"lon":5.396838,"is_reserved":false,"is_disabled":false,"rental_uris":{"android":"levelo://app?vid=f245a8a3-e5e1-4f41-b6cd-c3578c6cfda6","ios":"levelo://app?vid=f245a8a3-e5e1-4f41-b6cd-c3578c6cfda6"},"vehicle_type_id":"4","last_reported":1703167580,"current_range_meters":24400,"station_id":"ce4bgvp2rcd13ifvqcu0","pricing_plan_id":"free"},{"bike_id":"10661849-fbe1-47ad-8ff5-0eac037ba28a","system_id":"levelo_inurba_marseille","lat":43.313291,"lon":5.396838,"is_reserved":false,"is_disabled":false,"rental_uris":{"android":"levelo://app?vid=10661849-fbe1-47ad-8ff5-0eac037ba28a","ios":"levelo://app?vid=10661849-fbe1-47ad-8ff5-0eac037ba28a"},"vehicle_type_id":"4","last_reported":1703167580,"current_range_meters":8400,"station_id":"ce4bgvp2rcd13ifvqcu0","pricing_plan_id":"free"},{"bike_id":"1eaf4dc4-1300-4728-8ff8-e757e4c8e080","system_id":"levelo_inurba_marseille","lat":43.309038,"lon":5.396546,"is_reserved":false,"is_disabled":false,"rental_uris":{"android":"levelo://app?vid=1eaf4dc4-1300-4728-8ff8-e757e4c8e080","ios":"levelo://app?vid=1eaf4dc4-1300-4728-8ff8-e757e4c8e080"},"vehicle_type_id":"4","last_reported":1703167580,"current_range_meters":11200,"station_id":"ce4bh012rcd13ifvqcv0","pricing_plan_id":"free"},{"bike_id":"388e40a9-0f1e-4145-a6fc-eb6cca226111","system_id":"levelo_inurba_marseille","lat":43.29529,"lon":5.385581,"is_reserved":false,"is_disabled":false,"rental_uris":{"android":"levelo://app?vid=388e40a9-0f1e-4145-a6fc-eb6cca226111","ios":"levelo://app?vid=388e40a9-0f1e-4145-a6fc-eb6cca226111"},"vehicle_type_id":"4","last_reported":1703167580,"current_range_meters":13200,"station_id":"ce4bgih2rcd13ifvqba0","pricing_plan_id":"free"},{"bike_id":"ddc09a21-c0d0-43e5-960d-9cd8572f6124","system_id":"levelo_inurba_marseille","lat":43.29529,"lon":5.385581,"is_reserved":false,"is_disabled":false,"rental_uris":{"android":"levelo://app?vid=ddc09a21-c0d0-43e5-960d-9cd8572f6124","ios":"levelo://app?vid=ddc09a21-c0d0-43e5-960d-9cd8572f6124"},"vehicle_type_id":"4","last_reported":1703167580,"current_range_meters":16800,"station_id":"ce4bgih2rcd13ifvqba0","pricing_plan_id":"free"},{"bike_id":"ee96d512-9574-4f84-a43b-d66d527d1304","system_id":"levelo_inurba_marseille","lat":43.290779,"lon":5.371482,"is_reserved":false,"is_disabled":false,"rental_uris":{"android":"levelo://app?vid=ee96d512-9574-4f84-a43b-d66d527d1304","ios":"levelo://app?vid=ee96d512-9574-4f84-a43b-d66d527d1304"},"vehicle_type_id":"4","last_reported":1703167580,"current_range_meters":24400,"station_id":"ce4bh5p2rcd13ifvqe4g","pricing_plan_id":"free"},{"bike_id":"786367b5-9dc6-48b8-ab81-5706acc87a83","system_id":"levelo_inurba_marseille","lat":43.290779,"lon":5.371482,"is_reserved":false,"is_disabled":false,"rental_uris":{"android":"levelo://app?vid=786367b5-9dc6-48b8-ab81-5706acc87a83","ios":"levelo://app?vid=786367b5-9dc6-48b8-ab81-5706acc87a83"},"vehicle_type_id":"4","last_reported":1703167580,"current_range_meters":12800,"station_id":"ce4bh5p2rcd13ifvqe4g","pricing_plan_id":"free"},{"bike_id":"43616352-c41e-45c6-af8f-70bbf1c9c14e","system_id":"levelo_inurba_marseille","lat":43.302008,"lon":5.394694,"is_reserved":false,"is_disabled":false,"rental_uris":{"android":"levelo://app?vid=43616352-c41e-45c6-af8f-70bbf1c9c14e","ios":"levelo://app?vid=43616352-c41e-45c6-af8f-70bbf1c9c14e"},"vehicle_type_id":"4","last_reported":1703167580,"current_range_meters":0,"station_id":"ce4bh0p2rcd13ifvqd70","pricing_plan_id":"free"},{"bike_id":"a1225178-708d-4224-96ba-82ea4d67832d","system_id":"levelo_inurba_marseille","lat":43.289468,"lon":5.363719,"is_reserved":false,"is_disabled":false,"rental_uris":{"android":"levelo://app?vid=a1225178-708d-4224-96ba-82ea4d67832d","ios":"levelo://app?vid=a1225178-708d-4224-96ba-82ea4d67832d"},"vehicle_type_id":"4","last_reported":1703167580,"current_range_meters":28800,"station_id":"ce4bhc92rcd13ifvqetg","pricing_plan_id":"free"},{"bike_id":"1e1b683d-03a8-4de0-a6c8-e70c74e3138e","system_id":"levelo_inurba_marseille","lat":43.289184,"lon":5.366408,"is_reserved":false,"is_disabled":false,"rental_uris":{"android":"levelo://app?vid=1e1b683d-03a8-4de0-a6c8-e70c74e3138e","ios":"levelo://app?vid=1e1b683d-03a8-4de0-a6c8-e70c74e3138e"},"vehicle_type_id":"4","last_reported":1703167580,"current_range_meters":16000,"station_id":"ce4bhap2rcd13ifvqek0","pricing_plan_id":"free"},{"bike_id":"ecbf95c8-04fb-4350-b913-76d490bd4936","system_id":"levelo_inurba_marseille","lat":43.289468,"lon":5.363719,"is_reserved":false,"is_disabled":false,"rental_uris":{"android":"levelo://app?vid=ecbf95c8-04fb-4350-b913-76d490bd4936","ios":"levelo://app?vid=ecbf95c8-04fb-4350-b913-76d490bd4936"},"vehicle_type_id":"4","last_reported":1703167580,"current_range_meters":27600,"station_id":"ce4bhc92rcd13ifvqetg","pricing_plan_id":"free"},{"bike_id":"dd18df26-b880-4cb4-9123-30c599e207d0","system_id":"levelo_inurba_marseille","lat":43.289184,"lon":5.366408,"is_reserved":false,"is_disabled":false,"rental_uris":{"android":"levelo://app?vid=dd18df26-b880-4cb4-9123-30c599e207d0","ios":"levelo://app?vid=dd18df26-b880-4cb4-9123-30c599e207d0"},"vehicle_type_id":"4","last_reported":1703167580,"current_range_meters":21200,"station_id":"ce4bhap2rcd13ifvqek0","pricing_plan_id":"free"},{"bike_id":"562ebffe-1f44-4a6d-b788-305122d274b6","system_id":"levelo_inurba_marseille","lat":43.28931,"lon":5.36647,"is_reserved":false,"is_disabled":false,"rental_uris":{"android":"levelo://app?vid=562ebffe-1f44-4a6d-b788-305122d274b6","ios":"levelo://app?vid=562ebffe-1f44-4a6d-b788-305122d274b6"},"vehicle_type_id":"4","last_reported":1703167580,"current_range_meters":18800,"station_id":"ce4bhap2rcd13ifvqek0","pricing_plan_id":"free"},{"bike_id":"1044e045-8dd8-4675-8303-dc0a22512572","system_id":"levelo_inurba_marseille","lat":43.289184,"lon":5.366408,"is_reserved":false,"is_disabled":false,"rental_uris":{"android":"levelo://app?vid=1044e045-8dd8-4675-8303-dc0a22512572","ios":"levelo://app?vid=1044e045-8dd8-4675-8303-dc0a22512572"},"vehicle_type_id":"4","last_reported":1703167580,"current_range_meters":6400,"station_id":"ce4bhap2rcd13ifvqek0","pricing_plan_id":"free"},{"bike_id":"5961899a-c90d-4b53-9920-bac82dc04d3a","system_id":"levelo_inurba_marseille","lat":43.290104,"lon":5.356111,"is_reserved":false,"is_disabled":false,"rental_uris":{"android":"levelo://app?vid=5961899a-c90d-4b53-9920-bac82dc04d3a","ios":"levelo://app?vid=5961899a-c90d-4b53-9920-bac82dc04d3a"},"vehicle_type_id":"4","last_reported":1703167580,"current_range_meters":25600,"station_id":"ce4bhb92rcd13ifvqen0","pricing_plan_id":"free"},{"bike_id":"2c2379b2-e20d-453e-9b28-a5189470edf7","system_id":"levelo_inurba_marseille","lat":43.33041,"lon":5.38921,"is_reserved":false,"is_disabled":false,"rental_uris":{"android":"levelo://app?vid=2c2379b2-e20d-453e-9b28-a5189470edf7","ios":"levelo://app?vid=2c2379b2-e20d-453e-9b28-a5189470edf7"},"vehicle_type_id":"4","last_reported":1703167580,"current_range_meters":30800,"station_id":"ce4bhr92rcd13ifvqhrg","pricing_plan_id":"free"},{"bike_id":"43fde702-2015-4a3a-a39d-8a45f0eeac5b","system_id":"levelo_inurba_marseille","lat":43.290995,"lon":5.381361,"is_reserved":false,"is_disabled":false,"rental_uris":{"android":"levelo://app?vid=43fde702-2015-4a3a-a39d-8a45f0eeac5b","ios":"levelo://app?vid=43fde702-2015-4a3a-a39d-8a45f0eeac5b"},"vehicle_type_id":"4","last_reported":1703167580,"current_range_meters":12400,"station_id":"ce4bh512rcd13ifvqe2g","pricing_plan_id":"free"},{"bike_id":"29571e1e-d615-4f1b-b1ad-a6e950bf5cfd","system_id":"levelo_inurba_marseille","lat":43.297815,"lon":5.393548,"is_reserved":false,"is_disabled":false,"rental_uris":{"android":"levelo://app?vid=29571e1e-d615-4f1b-b1ad-a6e950bf5cfd","ios":"levelo://app?vid=29571e1e-d615-4f1b-b1ad-a6e950bf5cfd"},"vehicle_type_id":"4","last_reported":1703167580,"current_range_meters":26000,"station_id":"chh1huq6cuj3fo74tm60","pricing_plan_id":"free"},{"bike_id":"755cf046-1f12-46c5-ace0-e37fe9f0618d","system_id":"levelo_inurba_marseille","lat":43.290995,"lon":5.381361,"is_reserved":false,"is_disabled":false,"rental_uris":{"android":"levelo://app?vid=755cf046-1f12-46c5-ace0-e37fe9f0618d","ios":"levelo://app?vid=755cf046-1f12-46c5-ace0-e37fe9f0618d"},"vehicle_type_id":"4","last_reported":1703167580,"current_range_meters":18800,"station_id":"ce4bh512rcd13ifvqe2g","pricing_plan_id":"free"},{"bike_id":"c797e354-27ce-4bed-8326-437bfeb98d6b","system_id":"levelo_inurba_marseille","lat":43.289743,"lon":5.378304,"is_reserved":false,"is_disabled":false,"rental_uris":{"android":"levelo://app?vid=c797e354-27ce-4bed-8326-437bfeb98d6b","ios":"levelo://app?vid=c797e354-27ce-4bed-8326-437bfeb98d6b"},"vehicle_type_id":"4","last_reported":1703167580,"current_range_meters":18000,"station_id":"ce4bh9p2rcd13ifvqed0","pricing_plan_id":"free"},{"bike_id":"f0777a53-8cdd-4f30-991d-ef15116cdf42","system_id":"levelo_inurba_marseille","lat":43.297763,"lon":5.393403,"is_reserved":false,"is_disabled":false,"rental_uris":{"android":"levelo://app?vid=f0777a53-8cdd-4f30-991d-ef15116cdf42","ios":"levelo://app?vid=f0777a53-8cdd-4f30-991d-ef15116cdf42"},"vehicle_type_id":"4","last_reported":1703167580,"current_range_meters":13200,"station_id":"chh1huq6cuj3fo74tm60","pricing_plan_id":"free"},{"bike_id":"49dfc810-bf10-4cd9-a886-72a01c09ff41","system_id":"levelo_inurba_marseille","lat":43.297815,"lon":5.393548,"is_reserved":false,"is_disabled":false,"rental_uris":{"android":"levelo://app?vid=49dfc810-bf10-4cd9-a886-72a01c09ff41","ios":"levelo://app?vid=49dfc810-bf10-4cd9-a886-72a01c09ff41"},"vehicle_type_id":"4","last_reported":1703167580,"current_range_meters":25600,"station_id":"chh1huq6cuj3fo74tm60","pricing_plan_id":"free"},{"bike_id":"b02fa10d-af5d-41b9-a8a8-63264c764cf5","system_id":"levelo_inurba_marseille","lat":43.289741,"lon":5.378306,"is_reserved":false,"is_disabled":false,"rental_uris":{"android":"levelo://app?vid=b02fa10d-af5d-41b9-a8a8-63264c764cf5","ios":"levelo://app?vid=b02fa10d-af5d-41b9-a8a8-63264c764cf5"},"vehicle_type_id":"4","last_reported":1703167580,"current_range_meters":18400,"station_id":"ce4bh9p2rcd13ifvqed0","pricing_plan_id":"free"},{"bike_id":"7dcadfa1-02b1-4eea-8595-0e0e62cf9136","system_id":"levelo_inurba_marseille","lat":43.295169,"lon":5.390426,"is_reserved":false,"is_disabled":false,"rental_uris":{"android":"levelo://app?vid=7dcadfa1-02b1-4eea-8595-0e0e62cf9136","ios":"levelo://app?vid=7dcadfa1-02b1-4eea-8595-0e0e62cf9136"},"vehicle_type_id":"4","last_reported":1703167580,"current_range_meters":29200,"station_id":"ce4bh3p2rcd13ifvqdp0","pricing_plan_id":"free"},{"bike_id":"8a14f49b-2609-45ef-bc2c-6ec2f1e6f71d","system_id":"levelo_inurba_marseille","lat":43.289741,"lon":5.378306,"is_reserved":false,"is_disabled":false,"rental_uris":{"android":"levelo://app?vid=8a14f49b-2609-45ef-bc2c-6ec2f1e6f71d","ios":"levelo://app?vid=8a14f49b-2609-45ef-bc2c-6ec2f1e6f71d"},"vehicle_type_id":"4","last_reported":1703167580,"current_range_meters":22800,"station_id":"ce4bh9p2rcd13ifvqed0","pricing_plan_id":"free"},{"bike_id":"713f3076-4cf3-44ac-9ebb-0d7bbb4b780a","system_id":"levelo_inurba_marseille","lat":43.306412,"lon":5.401035,"is_reserved":false,"is_disabled":false,"rental_uris":{"android":"levelo://app?vid=713f3076-4cf3-44ac-9ebb-0d7bbb4b780a","ios":"levelo://app?vid=713f3076-4cf3-44ac-9ebb-0d7bbb4b780a"},"vehicle_type_id":"4","last_reported":1703167580,"current_range_meters":17200,"station_id":"ce4bh112rcd13ifvqda0","pricing_plan_id":"free"},{"bike_id":"e05ac4f7-2fe8-441e-9cee-99ae0a5ac2eb","system_id":"levelo_inurba_marseille","lat":43.289741,"lon":5.378306,"is_reserved":false,"is_disabled":false,"rental_uris":{"android":"levelo://app?vid=e05ac4f7-2fe8-441e-9cee-99ae0a5ac2eb","ios":"levelo://app?vid=e05ac4f7-2fe8-441e-9cee-99ae0a5ac2eb"},"vehicle_type_id":"4","last_reported":1703167580,"current_range_meters":7600,"station_id":"ce4bh9p2rcd13ifvqed0","pricing_plan_id":"free"},{"bike_id":"ff48b6f6-cf93-464f-a236-3195e31573b0","system_id":"levelo_inurba_marseille","lat":43.2901,"lon":5.381269,"is_reserved":false,"is_disabled":false,"rental_uris":{"android":"levelo://app?vid=ff48b6f6-cf93-464f-a236-3195e31573b0","ios":"levelo://app?vid=ff48b6f6-cf93-464f-a236-3195e31573b0"},"vehicle_type_id":"4","last_reported":1703167580,"current_range_meters":28400,"station_id":"ce4bh4p2rcd13ifvqe1g","pricing_plan_id":"free"},{"bike_id":"cada1a56-8586-4269-be77-96391761485c","system_id":"levelo_inurba_marseille","lat":43.28856,"lon":5.358371,"is_reserved":false,"is_disabled":false,"rental_uris":{"android":"levelo://app?vid=cada1a56-8586-4269-be77-96391761485c","ios":"levelo://app?vid=cada1a56-8586-4269-be77-96391761485c"},"vehicle_type_id":"4","last_reported":1703167580,"current_range_meters":11600,"station_id":"ce4bhb12rcd13ifvqem0","pricing_plan_id":"free"},{"bike_id":"53c01ffd-7224-4973-aa3d-47239c4f06c8","system_id":"levelo_inurba_marseille","lat":43.28856,"lon":5.358371,"is_reserved":false,"is_disabled":false,"rental_uris":{"android":"levelo://app?vid=53c01ffd-7224-4973-aa3d-47239c4f06c8","ios":"levelo://app?vid=53c01ffd-7224-4973-aa3d-47239c4f06c8"},"vehicle_type_id":"4","last_reported":1703167580,"current_range_meters":19600,"station_id":"ce4bhb12rcd13ifvqem0","pricing_plan_id":"free"},{"bike_id":"c0af256a-8861-4b80-8c14-611a32714652","system_id":"levelo_inurba_marseille","lat":43.290094,"lon":5.381264,"is_reserved":false,"is_disabled":false,"rental_uris":{"android":"levelo://app?vid=c0af256a-8861-4b80-8c14-611a32714652","ios":"levelo://app?vid=c0af256a-8861-4b80-8c14-611a32714652"},"vehicle_type_id":"4","last_reported":1703167580,"current_range_meters":25200,"station_id":"ce4bh4p2rcd13ifvqe1g","pricing_plan_id":"free"},{"bike_id":"bf632abc-e345-49d6-8308-821424c759d8","system_id":"levelo_inurba_marseille","lat":43.28856,"lon":5.358371,"is_reserved":false,"is_disabled":false,"rental_uris":{"android":"levelo://app?vid=bf632abc-e345-49d6-8308-821424c759d8","ios":"levelo://app?vid=bf632abc-e345-49d6-8308-821424c759d8"},"vehicle_type_id":"4","last_reported":1703167580,"current_range_meters":5200,"station_id":"ce4bhb12rcd13ifvqem0","pricing_plan_id":"free"},{"bike_id":"a7599a53-e19e-4d32-81cb-0626123d8380","system_id":"levelo_inurba_marseille","lat":43.28856,"lon":5.358371,"is_reserved":false,"is_disabled":false,"rental_uris":{"android":"levelo://app?vid=a7599a53-e19e-4d32-81cb-0626123d8380","ios":"levelo://app?vid=a7599a53-e19e-4d32-81cb-0626123d8380"},"vehicle_type_id":"4","last_reported":1703167580,"current_range_meters":17200,"station_id":"ce4bhb12rcd13ifvqem0","pricing_plan_id":"free"},{"bike_id":"1d1aafe3-40ce-4e3a-8053-8ddb1e5f4cd0","system_id":"levelo_inurba_marseille","lat":43.28856,"lon":5.358371,"is_reserved":false,"is_disabled":false,"rental_uris":{"android":"levelo://app?vid=1d1aafe3-40ce-4e3a-8053-8ddb1e5f4cd0","ios":"levelo://app?vid=1d1aafe3-40ce-4e3a-8053-8ddb1e5f4cd0"},"vehicle_type_id":"4","last_reported":1703167580,"current_range_meters":14400,"station_id":"ce4bhb12rcd13ifvqem0","pricing_plan_id":"free"},{"bike_id":"fdd7f490-de60-4a2a-901f-16c82262eed9","system_id":"levelo_inurba_marseille","lat":43.28856,"lon":5.358371,"is_reserved":false,"is_disabled":false,"rental_uris":{"android":"levelo://app?vid=fdd7f490-de60-4a2a-901f-16c82262eed9","ios":"levelo://app?vid=fdd7f490-de60-4a2a-901f-16c82262eed9"},"vehicle_type_id":"4","last_reported":1703167580,"current_range_meters":12000,"station_id":"ce4bhb12rcd13ifvqem0","pricing_plan_id":"free"},{"bike_id":"c8b85199-dabf-421f-9a19-2ebde103b63c","system_id":"levelo_inurba_marseille","lat":43.28856,"lon":5.358371,"is_reserved":false,"is_disabled":false,"rental_uris":{"android":"levelo://app?vid=c8b85199-dabf-421f-9a19-2ebde103b63c","ios":"levelo://app?vid=c8b85199-dabf-421f-9a19-2ebde103b63c"},"vehicle_type_id":"4","last_reported":1703167580,"current_range_meters":22800,"station_id":"ce4bhb12rcd13ifvqem0","pricing_plan_id":"free"},{"bike_id":"a3dcd3ae-94fe-4858-8289-9607b0a21047","system_id":"levelo_inurba_marseille","lat":43.33743,"lon":5.37442,"is_reserved":false,"is_disabled":false,"rental_uris":{"android":"levelo://app?vid=a3dcd3ae-94fe-4858-8289-9607b0a21047","ios":"levelo://app?vid=a3dcd3ae-94fe-4858-8289-9607b0a21047"},"vehicle_type_id":"4","last_reported":1703167580,"current_range_meters":24800,"station_id":"","pricing_plan_id":"free"},{"bike_id":"79b95f55-816b-4066-bb29-6cc651b0ad30","system_id":"levelo_inurba_marseille","lat":43.301117,"lon":5.398795,"is_reserved":false,"is_disabled":false,"rental_uris":{"android":"levelo://app?vid=79b95f55-816b-4066-bb29-6cc651b0ad30","ios":"levelo://app?vid=79b95f55-816b-4066-bb29-6cc651b0ad30"},"vehicle_type_id":"4","last_reported":1703167580,"current_range_meters":28800,"station_id":"ce4bh0h2rcd13ifvqd40","pricing_plan_id":"free"},{"bike_id":"7c32bd95-3d17-4bb3-bcdc-c068327be52a","system_id":"levelo_inurba_marseille","lat":43.306412,"lon":5.401035,"is_reserved":false,"is_disabled":false,"rental_uris":{"android":"levelo://app?vid=7c32bd95-3d17-4bb3-bcdc-c068327be52a","ios":"levelo://app?vid=7c32bd95-3d17-4bb3-bcdc-c068327be52a"},"vehicle_type_id":"4","last_reported":1703167580,"current_range_meters":4800,"station_id":"ce4bh112rcd13ifvqda0","pricing_plan_id":"free"},{"bike_id":"88b93662-7666-40db-8f91-c83754121d78","system_id":"levelo_inurba_marseille","lat":43.28727,"lon":5.36078,"is_reserved":false,"is_disabled":false,"rental_uris":{"android":"levelo://app?vid=88b93662-7666-40db-8f91-c83754121d78","ios":"levelo://app?vid=88b93662-7666-40db-8f91-c83754121d78"},"vehicle_type_id":"4","last_reported":1703167580,"current_range_meters":28000,"station_id":"cki0cbj6b192h4jlfktg","pricing_plan_id":"free"},{"bike_id":"5cd5a5ce-f07c-4e42-8c06-b2d9bae09821","system_id":"levelo_inurba_marseille","lat":43.28727,"lon":5.36078,"is_reserved":false,"is_disabled":false,"rental_uris":{"android":"levelo://app?vid=5cd5a5ce-f07c-4e42-8c06-b2d9bae09821","ios":"levelo://app?vid=5cd5a5ce-f07c-4e42-8c06-b2d9bae09821"},"vehicle_type_id":"4","last_reported":1703167580,"current_range_meters":30800,"station_id":"cki0cbj6b192h4jlfktg","pricing_plan_id":"free"},{"bike_id":"c569128f-c8ef-49a6-a97c-aee7ed80a2f8","system_id":"levelo_inurba_marseille","lat":43.28727,"lon":5.36078,"is_reserved":false,"is_disabled":false,"rental_uris":{"android":"levelo://app?vid=c569128f-c8ef-49a6-a97c-aee7ed80a2f8","ios":"levelo://app?vid=c569128f-c8ef-49a6-a97c-aee7ed80a2f8"},"vehicle_type_id":"4","last_reported":1703167580,"current_range_meters":30000,"station_id":"cki0cbj6b192h4jlfktg","pricing_plan_id":"free"},{"bike_id":"d750880d-0644-4e50-9624-36937b04fac0","system_id":"levelo_inurba_marseille","lat":43.286961,"lon":5.373785,"is_reserved":false,"is_disabled":false,"rental_uris":{"android":"levelo://app?vid=d750880d-0644-4e50-9624-36937b04fac0","ios":"levelo://app?vid=d750880d-0644-4e50-9624-36937b04fac0"},"vehicle_type_id":"4","last_reported":1703167580,"current_range_meters":21600,"station_id":"ce4bh3p2rcd13ifvqdq0","pricing_plan_id":"free"},{"bike_id":"c94eb3be-4dc7-44ae-bcf4-ee868d2a2b62","system_id":"levelo_inurba_marseille","lat":43.286961,"lon":5.373785,"is_reserved":false,"is_disabled":false,"rental_uris":{"android":"levelo://app?vid=c94eb3be-4dc7-44ae-bcf4-ee868d2a2b62","ios":"levelo://app?vid=c94eb3be-4dc7-44ae-bcf4-ee868d2a2b62"},"vehicle_type_id":"4","last_reported":1703167580,"current_range_meters":21200,"station_id":"ce4bh3p2rcd13ifvqdq0","pricing_plan_id":"free"},{"bike_id":"97cdd1a4-ce85-4707-b2e2-54a2fab6a6ba","system_id":"levelo_inurba_marseille","lat":43.280784,"lon":5.396622,"is_reserved":false,"is_disabled":false,"rental_uris":{"android":"levelo://app?vid=97cdd1a4-ce85-4707-b2e2-54a2fab6a6ba","ios":"levelo://app?vid=97cdd1a4-ce85-4707-b2e2-54a2fab6a6ba"},"vehicle_type_id":"4","last_reported":1703167580,"current_range_meters":18800,"station_id":"ce4bho12rcd13ifvqh2g","pricing_plan_id":"free"},{"bike_id":"a016f978-7696-47c1-990f-b0398531cf14","system_id":"levelo_inurba_marseille","lat":43.290345,"lon":5.38646,"is_reserved":false,"is_disabled":false,"rental_uris":{"android":"levelo://app?vid=a016f978-7696-47c1-990f-b0398531cf14","ios":"levelo://app?vid=a016f978-7696-47c1-990f-b0398531cf14"},"vehicle_type_id":"4","last_reported":1703167580,"current_range_meters":5600,"station_id":"ce4bh4p2rcd13ifvqe0g","pricing_plan_id":"free"},{"bike_id":"5e6c6554-3b02-4b80-bd35-44f9d22ec023","system_id":"levelo_inurba_marseille","lat":43.286039,"lon":5.370679,"is_reserved":false,"is_disabled":false,"rental_uris":{"android":"levelo://app?vid=5e6c6554-3b02-4b80-bd35-44f9d22ec023","ios":"levelo://app?vid=5e6c6554-3b02-4b80-bd35-44f9d22ec023"},"vehicle_type_id":"4","last_reported":1703167580,"current_range_meters":6800,"station_id":"ce4bht12rcd13ifvqi60","pricing_plan_id":"free"},{"bike_id":"983ef4bd-15ac-4651-8cde-3bd14abec0b1","system_id":"levelo_inurba_marseille","lat":43.28608,"lon":5.37065,"is_reserved":false,"is_disabled":false,"rental_uris":{"android":"levelo://app?vid=983ef4bd-15ac-4651-8cde-3bd14abec0b1","ios":"levelo://app?vid=983ef4bd-15ac-4651-8cde-3bd14abec0b1"},"vehicle_type_id":"4","last_reported":1703167580,"current_range_meters":1200,"station_id":"ce4bht12rcd13ifvqi60","pricing_plan_id":"free"},{"bike_id":"15b78ea3-4994-4591-bc7d-f370baa7a70f","system_id":"levelo_inurba_marseille","lat":43.29114,"lon":5.39063,"is_reserved":false,"is_disabled":false,"rental_uris":{"android":"levelo://app?vid=15b78ea3-4994-4591-bc7d-f370baa7a70f","ios":"levelo://app?vid=15b78ea3-4994-4591-bc7d-f370baa7a70f"},"vehicle_type_id":"4","last_reported":1703167580,"current_range_meters":24800,"station_id":"","pricing_plan_id":"free"},{"bike_id":"b3fd1f95-e298-4393-b1be-14d676c311f2","system_id":"levelo_inurba_marseille","lat":43.284534,"lon":5.358662,"is_reserved":false,"is_disabled":false,"rental_uris":{"android":"levelo://app?vid=b3fd1f95-e298-4393-b1be-14d676c311f2","ios":"levelo://app?vid=b3fd1f95-e298-4393-b1be-14d676c311f2"},"vehicle_type_id":"4","last_reported":1703167580,"current_range_meters":5600,"station_id":"ce4bhah2rcd13ifvqei0","pricing_plan_id":"free"},{"bike_id":"6b3cf990-3be8-4de5-b1bd-deb995af2e93","system_id":"levelo_inurba_marseille","lat":43.284538,"lon":5.358657,"is_reserved":false,"is_disabled":false,"rental_uris":{"android":"levelo://app?vid=6b3cf990-3be8-4de5-b1bd-deb995af2e93","ios":"levelo://app?vid=6b3cf990-3be8-4de5-b1bd-deb995af2e93"},"vehicle_type_id":"4","last_reported":1703167580,"current_range_meters":22000,"station_id":"ce4bhah2rcd13ifvqei0","pricing_plan_id":"free"},{"bike_id":"75dbe7d3-127b-4c0a-96f7-1c6a606f071f","system_id":"levelo_inurba_marseille","lat":43.283998,"lon":5.375062,"is_reserved":false,"is_disabled":false,"rental_uris":{"android":"levelo://app?vid=75dbe7d3-127b-4c0a-96f7-1c6a606f071f","ios":"levelo://app?vid=75dbe7d3-127b-4c0a-96f7-1c6a606f071f"},"vehicle_type_id":"4","last_reported":1703167580,"current_range_meters":26400,"station_id":"ce4bh412rcd13ifvqds0","pricing_plan_id":"free"},{"bike_id":"43122e72-6246-494d-84cf-11a5c0b55f4d","system_id":"levelo_inurba_marseille","lat":43.29573,"lon":5.39966,"is_reserved":false,"is_disabled":false,"rental_uris":{"android":"levelo://app?vid=43122e72-6246-494d-84cf-11a5c0b55f4d","ios":"levelo://app?vid=43122e72-6246-494d-84cf-11a5c0b55f4d"},"vehicle_type_id":"4","last_reported":1703167580,"current_range_meters":30000,"station_id":"ce4bh312rcd13ifvqdj0","pricing_plan_id":"free"},{"bike_id":"8538e6dd-dbef-4a5a-a119-9a857fd021ad","system_id":"levelo_inurba_marseille","lat":43.33218,"lon":5.397067,"is_reserved":false,"is_disabled":false,"rental_uris":{"android":"levelo://app?vid=8538e6dd-dbef-4a5a-a119-9a857fd021ad","ios":"levelo://app?vid=8538e6dd-dbef-4a5a-a119-9a857fd021ad"},"vehicle_type_id":"4","last_reported":1703167580,"current_range_meters":0,"station_id":"","pricing_plan_id":"free"},{"bike_id":"4694be39-d5c9-48ed-8629-856e3cde4a78","system_id":"levelo_inurba_marseille","lat":43.283998,"lon":5.375062,"is_reserved":false,"is_disabled":false,"rental_uris":{"android":"levelo://app?vid=4694be39-d5c9-48ed-8629-856e3cde4a78","ios":"levelo://app?vid=4694be39-d5c9-48ed-8629-856e3cde4a78"},"vehicle_type_id":"4","last_reported":1703167580,"current_range_meters":15600,"station_id":"ce4bh412rcd13ifvqds0","pricing_plan_id":"free"},{"bike_id":"2dcb2c56-bf2a-4628-bdca-7b10def68a91","system_id":"levelo_inurba_marseille","lat":43.283998,"lon":5.375062,"is_reserved":false,"is_disabled":false,"rental_uris":{"android":"levelo://app?vid=2dcb2c56-bf2a-4628-bdca-7b10def68a91","ios":"levelo://app?vid=2dcb2c56-bf2a-4628-bdca-7b10def68a91"},"vehicle_type_id":"4","last_reported":1703167580,"current_range_meters":10800,"station_id":"ce4bh412rcd13ifvqds0","pricing_plan_id":"free"},{"bike_id":"1bea4ec9-3c6a-416a-9310-788f2fb10890","system_id":"levelo_inurba_marseille","lat":43.283998,"lon":5.375062,"is_reserved":false,"is_disabled":false,"rental_uris":{"android":"levelo://app?vid=1bea4ec9-3c6a-416a-9310-788f2fb10890","ios":"levelo://app?vid=1bea4ec9-3c6a-416a-9310-788f2fb10890"},"vehicle_type_id":"4","last_reported":1703167580,"current_range_meters":6000,"station_id":"ce4bh412rcd13ifvqds0","pricing_plan_id":"free"},{"bike_id":"14b6c5e2-aca9-4bb0-8a97-8c6456a8426a","system_id":"levelo_inurba_marseille","lat":43.286595,"lon":5.386795,"is_reserved":false,"is_disabled":false,"rental_uris":{"android":"levelo://app?vid=14b6c5e2-aca9-4bb0-8a97-8c6456a8426a","ios":"levelo://app?vid=14b6c5e2-aca9-4bb0-8a97-8c6456a8426a"},"vehicle_type_id":"4","last_reported":1703167580,"current_range_meters":26800,"station_id":"ce4bh492rcd13ifvqdug","pricing_plan_id":"free"},{"bike_id":"c773ddbd-d5dd-49b9-b858-e92b72a13e54","system_id":"levelo_inurba_marseille","lat":43.319179,"lon":5.407725,"is_reserved":false,"is_disabled":false,"rental_uris":{"android":"levelo://app?vid=c773ddbd-d5dd-49b9-b858-e92b72a13e54","ios":"levelo://app?vid=c773ddbd-d5dd-49b9-b858-e92b72a13e54"},"vehicle_type_id":"4","last_reported":1703167580,"current_range_meters":30800,"station_id":"ce4bhq12rcd13ifvqhig","pricing_plan_id":"free"},{"bike_id":"40eae74c-fb79-47ec-9afc-de5176b3ee2d","system_id":"levelo_inurba_marseille","lat":43.319179,"lon":5.407725,"is_reserved":false,"is_disabled":false,"rental_uris":{"android":"levelo://app?vid=40eae74c-fb79-47ec-9afc-de5176b3ee2d","ios":"levelo://app?vid=40eae74c-fb79-47ec-9afc-de5176b3ee2d"},"vehicle_type_id":"4","last_reported":1703167580,"current_range_meters":22000,"station_id":"ce4bhq12rcd13ifvqhig","pricing_plan_id":"free"},{"bike_id":"0f42eedd-bd33-445f-91fc-4e7504a96eb4","system_id":"levelo_inurba_marseille","lat":43.3242,"lon":5.40705,"is_reserved":false,"is_disabled":false,"rental_uris":{"android":"levelo://app?vid=0f42eedd-bd33-445f-91fc-4e7504a96eb4","ios":"levelo://app?vid=0f42eedd-bd33-445f-91fc-4e7504a96eb4"},"vehicle_type_id":"4","last_reported":1703167580,"current_range_meters":17200,"station_id":"","pricing_plan_id":"free"},{"bike_id":"d33d70d6-0a1e-4a44-bfc5-d3da5ecf10ca","system_id":"levelo_inurba_marseille","lat":43.289363,"lon":5.396322,"is_reserved":false,"is_disabled":false,"rental_uris":{"android":"levelo://app?vid=d33d70d6-0a1e-4a44-bfc5-d3da5ecf10ca","ios":"levelo://app?vid=d33d70d6-0a1e-4a44-bfc5-d3da5ecf10ca"},"vehicle_type_id":"4","last_reported":1703167580,"current_range_meters":22400,"station_id":"ce4bh3h2rcd13ifvqdn0","pricing_plan_id":"free"},{"bike_id":"f6fd3260-b8cc-435b-b9e8-c3f3de29e92d","system_id":"levelo_inurba_marseille","lat":43.292724,"lon":5.401131,"is_reserved":false,"is_disabled":false,"rental_uris":{"android":"levelo://app?vid=f6fd3260-b8cc-435b-b9e8-c3f3de29e92d","ios":"levelo://app?vid=f6fd3260-b8cc-435b-b9e8-c3f3de29e92d"},"vehicle_type_id":"4","last_reported":1703167580,"current_range_meters":27600,"station_id":"ce4bh312rcd13ifvqdk0","pricing_plan_id":"free"},{"bike_id":"d48c44f4-d1c7-4462-865a-7961e19fcaec","system_id":"levelo_inurba_marseille","lat":43.282924,"lon":5.383991,"is_reserved":false,"is_disabled":false,"rental_uris":{"android":"levelo://app?vid=d48c44f4-d1c7-4462-865a-7961e19fcaec","ios":"levelo://app?vid=d48c44f4-d1c7-4462-865a-7961e19fcaec"},"vehicle_type_id":"4","last_reported":1703167580,"current_range_meters":8000,"station_id":"","pricing_plan_id":"free"},{"bike_id":"c543938d-7294-4cdc-b4f4-9373e1e58c91","system_id":"levelo_inurba_marseille","lat":43.282744,"lon":5.350533,"is_reserved":false,"is_disabled":false,"rental_uris":{"android":"levelo://app?vid=c543938d-7294-4cdc-b4f4-9373e1e58c91","ios":"levelo://app?vid=c543938d-7294-4cdc-b4f4-9373e1e58c91"},"vehicle_type_id":"4","last_reported":1703167580,"current_range_meters":6800,"station_id":"ce4bhbp2rcd13ifvqerg","pricing_plan_id":"free"},{"bike_id":"423bbec5-50b6-49d1-a48f-43c8df561f91","system_id":"levelo_inurba_marseille","lat":43.282744,"lon":5.350533,"is_reserved":false,"is_disabled":false,"rental_uris":{"android":"levelo://app?vid=423bbec5-50b6-49d1-a48f-43c8df561f91","ios":"levelo://app?vid=423bbec5-50b6-49d1-a48f-43c8df561f91"},"vehicle_type_id":"4","last_reported":1703167580,"current_range_meters":4400,"station_id":"ce4bhbp2rcd13ifvqerg","pricing_plan_id":"free"},{"bike_id":"633cfbd6-5f23-48ad-a9fc-49d96af35a5a","system_id":"levelo_inurba_marseille","lat":43.283502,"lon":5.386471,"is_reserved":false,"is_disabled":false,"rental_uris":{"android":"levelo://app?vid=633cfbd6-5f23-48ad-a9fc-49d96af35a5a","ios":"levelo://app?vid=633cfbd6-5f23-48ad-a9fc-49d96af35a5a"},"vehicle_type_id":"4","last_reported":1703167580,"current_range_meters":6800,"station_id":"ce4bh492rcd13ifvqdvg","pricing_plan_id":"free"},{"bike_id":"0e298bdb-800b-496e-b0fa-cbdcb63a0efc","system_id":"levelo_inurba_marseille","lat":43.28039,"lon":5.369297,"is_reserved":false,"is_disabled":false,"rental_uris":{"android":"levelo://app?vid=0e298bdb-800b-496e-b0fa-cbdcb63a0efc","ios":"levelo://app?vid=0e298bdb-800b-496e-b0fa-cbdcb63a0efc"},"vehicle_type_id":"4","last_reported":1703167580,"current_range_meters":25600,"station_id":"ce4bha12rcd13ifvqef0","pricing_plan_id":"free"},{"bike_id":"b141a72c-24a9-4ea6-9420-4918883cab91","system_id":"levelo_inurba_marseille","lat":43.280382,"lon":5.369291,"is_reserved":false,"is_disabled":false,"rental_uris":{"android":"levelo://app?vid=b141a72c-24a9-4ea6-9420-4918883cab91","ios":"levelo://app?vid=b141a72c-24a9-4ea6-9420-4918883cab91"},"vehicle_type_id":"4","last_reported":1703167580,"current_range_meters":13600,"station_id":"ce4bha12rcd13ifvqef0","pricing_plan_id":"free"},{"bike_id":"b53a1442-ab6b-464f-8c3a-5bcfaea7ea94","system_id":"levelo_inurba_marseille","lat":43.296263,"lon":5.40601,"is_reserved":false,"is_disabled":false,"rental_uris":{"android":"levelo://app?vid=b53a1442-ab6b-464f-8c3a-5bcfaea7ea94","ios":"levelo://app?vid=b53a1442-ab6b-464f-8c3a-5bcfaea7ea94"},"vehicle_type_id":"4","last_reported":1703167580,"current_range_meters":24800,"station_id":"ce4bh0h2rcd13ifvqd60","pricing_plan_id":"free"},{"bike_id":"50c627ac-fc56-4890-b466-c1e4b9292017","system_id":"levelo_inurba_marseille","lat":43.296263,"lon":5.40601,"is_reserved":false,"is_disabled":false,"rental_uris":{"android":"levelo://app?vid=50c627ac-fc56-4890-b466-c1e4b9292017","ios":"levelo://app?vid=50c627ac-fc56-4890-b466-c1e4b9292017"},"vehicle_type_id":"4","last_reported":1703167580,"current_range_meters":5600,"station_id":"ce4bh0h2rcd13ifvqd60","pricing_plan_id":"free"},{"bike_id":"adcd56aa-785f-4acc-9fb4-aba9ca0440ab","system_id":"levelo_inurba_marseille","lat":43.304188,"lon":5.412904,"is_reserved":false,"is_disabled":false,"rental_uris":{"android":"levelo://app?vid=adcd56aa-785f-4acc-9fb4-aba9ca0440ab","ios":"levelo://app?vid=adcd56aa-785f-4acc-9fb4-aba9ca0440ab"},"vehicle_type_id":"4","last_reported":1703167580,"current_range_meters":30800,"station_id":"ce4bhop2rcd13ifvqh8g","pricing_plan_id":"free"},{"bike_id":"aee50354-ca43-4bb4-9a1c-c4619ebdf45b","system_id":"levelo_inurba_marseille","lat":43.276179,"lon":5.361009,"is_reserved":false,"is_disabled":false,"rental_uris":{"android":"levelo://app?vid=aee50354-ca43-4bb4-9a1c-c4619ebdf45b","ios":"levelo://app?vid=aee50354-ca43-4bb4-9a1c-c4619ebdf45b"},"vehicle_type_id":"4","last_reported":1703167580,"current_range_meters":9200,"station_id":"ce4bgj92rcd13ifvqbe0","pricing_plan_id":"free"},{"bike_id":"b5ee4127-c76e-4aaa-9a28-5246f644a434","system_id":"levelo_inurba_marseille","lat":43.280784,"lon":5.396622,"is_reserved":false,"is_disabled":false,"rental_uris":{"android":"levelo://app?vid=b5ee4127-c76e-4aaa-9a28-5246f644a434","ios":"levelo://app?vid=b5ee4127-c76e-4aaa-9a28-5246f644a434"},"vehicle_type_id":"4","last_reported":1703167580,"current_range_meters":30000,"station_id":"ce4bho12rcd13ifvqh2g","pricing_plan_id":"free"},{"bike_id":"bf0b7df0-b0e7-4a73-badc-61dc2893c385","system_id":"levelo_inurba_marseille","lat":43.275625,"lon":5.384392,"is_reserved":false,"is_disabled":false,"rental_uris":{"android":"levelo://app?vid=bf0b7df0-b0e7-4a73-badc-61dc2893c385","ios":"levelo://app?vid=bf0b7df0-b0e7-4a73-badc-61dc2893c385"},"vehicle_type_id":"4","last_reported":1703167580,"current_range_meters":24000,"station_id":"ce4bhh92rcd13ifvqfi0","pricing_plan_id":"free"},{"bike_id":"dd474116-9a35-4e3e-9468-cbbbfe126149","system_id":"levelo_inurba_marseille","lat":43.275625,"lon":5.384392,"is_reserved":false,"is_disabled":false,"rental_uris":{"android":"levelo://app?vid=dd474116-9a35-4e3e-9468-cbbbfe126149","ios":"levelo://app?vid=dd474116-9a35-4e3e-9468-cbbbfe126149"},"vehicle_type_id":"4","last_reported":1703167580,"current_range_meters":24000,"station_id":"ce4bhh92rcd13ifvqfi0","pricing_plan_id":"free"},{"bike_id":"958c7c41-1c36-4bb4-9787-5929bc65ddfa","system_id":"levelo_inurba_marseille","lat":43.276769,"lon":5.388787,"is_reserved":false,"is_disabled":false,"rental_uris":{"android":"levelo://app?vid=958c7c41-1c36-4bb4-9787-5929bc65ddfa","ios":"levelo://app?vid=958c7c41-1c36-4bb4-9787-5929bc65ddfa"},"vehicle_type_id":"4","last_reported":1703167580,"current_range_meters":400,"station_id":"ce4bhi12rcd13ifvqfo0","pricing_plan_id":"free"},{"bike_id":"b4f19cba-af29-4277-89fb-8e5cea862297","system_id":"levelo_inurba_marseille","lat":43.336134,"lon":5.410341,"is_reserved":false,"is_disabled":false,"rental_uris":{"android":"levelo://app?vid=b4f19cba-af29-4277-89fb-8e5cea862297","ios":"levelo://app?vid=b4f19cba-af29-4277-89fb-8e5cea862297"},"vehicle_type_id":"4","last_reported":1703167580,"current_range_meters":20400,"station_id":"ce4bhqh2rcd13ifvqhmg","pricing_plan_id":"free"},{"bike_id":"3b1be9ba-8516-4e06-84d8-6748b4759b32","system_id":"levelo_inurba_marseille","lat":43.336134,"lon":5.410341,"is_reserved":false,"is_disabled":false,"rental_uris":{"android":"levelo://app?vid=3b1be9ba-8516-4e06-84d8-6748b4759b32","ios":"levelo://app?vid=3b1be9ba-8516-4e06-84d8-6748b4759b32"},"vehicle_type_id":"4","last_reported":1703167580,"current_range_meters":22800,"station_id":"ce4bhqh2rcd13ifvqhmg","pricing_plan_id":"free"},{"bike_id":"2ccdce10-14f3-49aa-864f-a4af82f9832d","system_id":"levelo_inurba_marseille","lat":43.279952,"lon":5.400085,"is_reserved":false,"is_disabled":false,"rental_uris":{"android":"levelo://app?vid=2ccdce10-14f3-49aa-864f-a4af82f9832d","ios":"levelo://app?vid=2ccdce10-14f3-49aa-864f-a4af82f9832d"},"vehicle_type_id":"4","last_reported":1703167580,"current_range_meters":30400,"station_id":"ce4bho92rcd13ifvqh4g","pricing_plan_id":"free"},{"bike_id":"a7ebbe4e-e4b4-4b88-92ae-339f682a95cb","system_id":"levelo_inurba_marseille","lat":43.310785,"lon":5.424305,"is_reserved":false,"is_disabled":false,"rental_uris":{"android":"levelo://app?vid=a7ebbe4e-e4b4-4b88-92ae-339f682a95cb","ios":"levelo://app?vid=a7ebbe4e-e4b4-4b88-92ae-339f682a95cb"},"vehicle_type_id":"4","last_reported":1703167580,"current_range_meters":26800,"station_id":"ce4bhp92rcd13ifvqhag","pricing_plan_id":"free"},{"bike_id":"7ada0439-e02f-43f4-a65c-6cdbad12b2d5","system_id":"levelo_inurba_marseille","lat":43.317121,"lon":5.423936,"is_reserved":false,"is_disabled":false,"rental_uris":{"android":"levelo://app?vid=7ada0439-e02f-43f4-a65c-6cdbad12b2d5","ios":"levelo://app?vid=7ada0439-e02f-43f4-a65c-6cdbad12b2d5"},"vehicle_type_id":"4","last_reported":1703167580,"current_range_meters":28000,"station_id":"ce4bhp92rcd13ifvqhbg","pricing_plan_id":"free"},{"bike_id":"e97a3bf4-4a34-45fa-9336-f1662c600f4b","system_id":"levelo_inurba_marseille","lat":43.310785,"lon":5.424305,"is_reserved":false,"is_disabled":false,"rental_uris":{"android":"levelo://app?vid=e97a3bf4-4a34-45fa-9336-f1662c600f4b","ios":"levelo://app?vid=e97a3bf4-4a34-45fa-9336-f1662c600f4b"},"vehicle_type_id":"4","last_reported":1703167580,"current_range_meters":18000,"station_id":"ce4bhp92rcd13ifvqhag","pricing_plan_id":"free"},{"bike_id":"21f4a169-6e35-4a8e-94ba-dad1b033815c","system_id":"levelo_inurba_marseille","lat":43.310785,"lon":5.424305,"is_reserved":false,"is_disabled":false,"rental_uris":{"android":"levelo://app?vid=21f4a169-6e35-4a8e-94ba-dad1b033815c","ios":"levelo://app?vid=21f4a169-6e35-4a8e-94ba-dad1b033815c"},"vehicle_type_id":"4","last_reported":1703167580,"current_range_meters":1200,"station_id":"ce4bhp92rcd13ifvqhag","pricing_plan_id":"free"},{"bike_id":"d797fc20-8004-4aea-92c9-76dbe5c35753","system_id":"levelo_inurba_marseille","lat":43.34144,"lon":5.40913,"is_reserved":false,"is_disabled":false,"rental_uris":{"android":"levelo://app?vid=d797fc20-8004-4aea-92c9-76dbe5c35753","ios":"levelo://app?vid=d797fc20-8004-4aea-92c9-76dbe5c35753"},"vehicle_type_id":"4","last_reported":1703167580,"current_range_meters":30800,"station_id":"ce4bhqh2rcd13ifvqhlg","pricing_plan_id":"free"},{"bike_id":"6d80f056-4912-447a-9ec1-8decbb6b6e40","system_id":"levelo_inurba_marseille","lat":43.304096,"lon":5.425385,"is_reserved":false,"is_disabled":false,"rental_uris":{"android":"levelo://app?vid=6d80f056-4912-447a-9ec1-8decbb6b6e40","ios":"levelo://app?vid=6d80f056-4912-447a-9ec1-8decbb6b6e40"},"vehicle_type_id":"4","last_reported":1703167580,"current_range_meters":15200,"station_id":"ce4bhoh2rcd13ifvqh6g","pricing_plan_id":"free"},{"bike_id":"96484c65-8dd7-4167-a438-a7d837c6b7a7","system_id":"levelo_inurba_marseille","lat":43.295523,"lon":5.422926,"is_reserved":false,"is_disabled":false,"rental_uris":{"android":"levelo://app?vid=96484c65-8dd7-4167-a438-a7d837c6b7a7","ios":"levelo://app?vid=96484c65-8dd7-4167-a438-a7d837c6b7a7"},"vehicle_type_id":"4","last_reported":1703167580,"current_range_meters":31600,"station_id":"ce4bhph2rcd13ifvqhdg","pricing_plan_id":"free"},{"bike_id":"e1bf0a92-1001-45ad-b936-6f06e086a92c","system_id":"levelo_inurba_marseille","lat":43.295511,"lon":5.422926,"is_reserved":false,"is_disabled":false,"rental_uris":{"android":"levelo://app?vid=e1bf0a92-1001-45ad-b936-6f06e086a92c","ios":"levelo://app?vid=e1bf0a92-1001-45ad-b936-6f06e086a92c"},"vehicle_type_id":"4","last_reported":1703167580,"current_range_meters":4000,"station_id":"ce4bhph2rcd13ifvqhdg","pricing_plan_id":"free"},{"bike_id":"5b29fe46-f98b-40e4-8c4c-2a510e7be214","system_id":"levelo_inurba_marseille","lat":43.295511,"lon":5.422926,"is_reserved":false,"is_disabled":false,"rental_uris":{"android":"levelo://app?vid=5b29fe46-f98b-40e4-8c4c-2a510e7be214","ios":"levelo://app?vid=5b29fe46-f98b-40e4-8c4c-2a510e7be214"},"vehicle_type_id":"4","last_reported":1703167580,"current_range_meters":14800,"station_id":"ce4bhph2rcd13ifvqhdg","pricing_plan_id":"free"},{"bike_id":"b820e38f-be0d-4e7b-9fb1-dfc16632fe0d","system_id":"levelo_inurba_marseille","lat":43.295511,"lon":5.422926,"is_reserved":false,"is_disabled":false,"rental_uris":{"android":"levelo://app?vid=b820e38f-be0d-4e7b-9fb1-dfc16632fe0d","ios":"levelo://app?vid=b820e38f-be0d-4e7b-9fb1-dfc16632fe0d"},"vehicle_type_id":"4","last_reported":1703167580,"current_range_meters":25200,"station_id":"ce4bhph2rcd13ifvqhdg","pricing_plan_id":"free"},{"bike_id":"b55db1a0-b820-479b-9929-7610c21584c5","system_id":"levelo_inurba_marseille","lat":43.295511,"lon":5.422926,"is_reserved":false,"is_disabled":false,"rental_uris":{"android":"levelo://app?vid=b55db1a0-b820-479b-9929-7610c21584c5","ios":"levelo://app?vid=b55db1a0-b820-479b-9929-7610c21584c5"},"vehicle_type_id":"4","last_reported":1703167580,"current_range_meters":25600,"station_id":"ce4bhph2rcd13ifvqhdg","pricing_plan_id":"free"},{"bike_id":"179a4868-4977-4167-9d91-4ca01b1414db","system_id":"levelo_inurba_marseille","lat":43.272124,"lon":5.391768,"is_reserved":false,"is_disabled":false,"rental_uris":{"android":"levelo://app?vid=179a4868-4977-4167-9d91-4ca01b1414db","ios":"levelo://app?vid=179a4868-4977-4167-9d91-4ca01b1414db"},"vehicle_type_id":"4","last_reported":1703167580,"current_range_meters":14800,"station_id":"ce4bhhp2rcd13ifvqfm0","pricing_plan_id":"free"},{"bike_id":"dcdbcc21-034c-4ba8-b43e-87d048bf3ca5","system_id":"levelo_inurba_marseille","lat":43.272124,"lon":5.391768,"is_reserved":false,"is_disabled":false,"rental_uris":{"android":"levelo://app?vid=dcdbcc21-034c-4ba8-b43e-87d048bf3ca5","ios":"levelo://app?vid=dcdbcc21-034c-4ba8-b43e-87d048bf3ca5"},"vehicle_type_id":"4","last_reported":1703167580,"current_range_meters":25600,"station_id":"ce4bhhp2rcd13ifvqfm0","pricing_plan_id":"free"},{"bike_id":"c6640060-cd81-49c1-9c3b-b620b8348ace","system_id":"levelo_inurba_marseille","lat":43.278128,"lon":5.407195,"is_reserved":false,"is_disabled":false,"rental_uris":{"android":"levelo://app?vid=c6640060-cd81-49c1-9c3b-b620b8348ace","ios":"levelo://app?vid=c6640060-cd81-49c1-9c3b-b620b8348ace"},"vehicle_type_id":"4","last_reported":1703167580,"current_range_meters":32000,"station_id":"ce4bhnh2rcd13ifvqgtg","pricing_plan_id":"free"},{"bike_id":"eafba763-944c-4624-aba6-3fb16259e2e8","system_id":"levelo_inurba_marseille","lat":43.278128,"lon":5.407195,"is_reserved":false,"is_disabled":false,"rental_uris":{"android":"levelo://app?vid=eafba763-944c-4624-aba6-3fb16259e2e8","ios":"levelo://app?vid=eafba763-944c-4624-aba6-3fb16259e2e8"},"vehicle_type_id":"4","last_reported":1703167580,"current_range_meters":29600,"station_id":"ce4bhnh2rcd13ifvqgtg","pricing_plan_id":"free"},{"bike_id":"887cf41c-25de-4c7a-a416-8b5cd09ec27f","system_id":"levelo_inurba_marseille","lat":43.279465,"lon":5.410561,"is_reserved":false,"is_disabled":false,"rental_uris":{"android":"levelo://app?vid=887cf41c-25de-4c7a-a416-8b5cd09ec27f","ios":"levelo://app?vid=887cf41c-25de-4c7a-a416-8b5cd09ec27f"},"vehicle_type_id":"4","last_reported":1703167580,"current_range_meters":24400,"station_id":"ce4bhnp2rcd13ifvqh0g","pricing_plan_id":"free"},{"bike_id":"c18c4ce9-bdc6-44c1-b03a-e8c313296ca4","system_id":"levelo_inurba_marseille","lat":43.269319,"lon":5.389397,"is_reserved":false,"is_disabled":false,"rental_uris":{"android":"levelo://app?vid=c18c4ce9-bdc6-44c1-b03a-e8c313296ca4","ios":"levelo://app?vid=c18c4ce9-bdc6-44c1-b03a-e8c313296ca4"},"vehicle_type_id":"4","last_reported":1703167580,"current_range_meters":22800,"station_id":"ce4bhhh2rcd13ifvqfl0","pricing_plan_id":"free"},{"bike_id":"9b378276-e9fb-494b-9050-5ae54901aeba","system_id":"levelo_inurba_marseille","lat":43.26681,"lon":5.382694,"is_reserved":false,"is_disabled":false,"rental_uris":{"android":"levelo://app?vid=9b378276-e9fb-494b-9050-5ae54901aeba","ios":"levelo://app?vid=9b378276-e9fb-494b-9050-5ae54901aeba"},"vehicle_type_id":"4","last_reported":1703167580,"current_range_meters":19200,"station_id":"ce4bhg92rcd13ifvqf90","pricing_plan_id":"free"},{"bike_id":"3fabb490-1eca-4163-8e53-bef8dac04080","system_id":"levelo_inurba_marseille","lat":43.26681,"lon":5.382694,"is_reserved":false,"is_disabled":false,"rental_uris":{"android":"levelo://app?vid=3fabb490-1eca-4163-8e53-bef8dac04080","ios":"levelo://app?vid=3fabb490-1eca-4163-8e53-bef8dac04080"},"vehicle_type_id":"4","last_reported":1703167580,"current_range_meters":26000,"station_id":"ce4bhg92rcd13ifvqf90","pricing_plan_id":"free"},{"bike_id":"28409cfa-9604-442b-9a4d-7f70005b036e","system_id":"levelo_inurba_marseille","lat":43.26681,"lon":5.382694,"is_reserved":false,"is_disabled":false,"rental_uris":{"android":"levelo://app?vid=28409cfa-9604-442b-9a4d-7f70005b036e","ios":"levelo://app?vid=28409cfa-9604-442b-9a4d-7f70005b036e"},"vehicle_type_id":"4","last_reported":1703167580,"current_range_meters":30800,"station_id":"ce4bhg92rcd13ifvqf90","pricing_plan_id":"free"},{"bike_id":"8fc52bef-c77b-4ff5-83b2-07112d147534","system_id":"levelo_inurba_marseille","lat":43.26681,"lon":5.382694,"is_reserved":false,"is_disabled":false,"rental_uris":{"android":"levelo://app?vid=8fc52bef-c77b-4ff5-83b2-07112d147534","ios":"levelo://app?vid=8fc52bef-c77b-4ff5-83b2-07112d147534"},"vehicle_type_id":"4","last_reported":1703167580,"current_range_meters":15200,"station_id":"ce4bhg92rcd13ifvqf90","pricing_plan_id":"free"},{"bike_id":"6cf07aac-26f6-4155-89e1-544adabd0298","system_id":"levelo_inurba_marseille","lat":43.26675,"lon":5.3827,"is_reserved":false,"is_disabled":false,"rental_uris":{"android":"levelo://app?vid=6cf07aac-26f6-4155-89e1-544adabd0298","ios":"levelo://app?vid=6cf07aac-26f6-4155-89e1-544adabd0298"},"vehicle_type_id":"4","last_reported":1703167580,"current_range_meters":13600,"station_id":"ce4bhg92rcd13ifvqf90","pricing_plan_id":"free"},{"bike_id":"9a91c593-84eb-47bc-a6eb-531a4db53380","system_id":"levelo_inurba_marseille","lat":43.308051,"lon":5.43527,"is_reserved":false,"is_disabled":false,"rental_uris":{"android":"levelo://app?vid=9a91c593-84eb-47bc-a6eb-531a4db53380","ios":"levelo://app?vid=9a91c593-84eb-47bc-a6eb-531a4db53380"},"vehicle_type_id":"4","last_reported":1703167580,"current_range_meters":18400,"station_id":"ce4bhph2rcd13ifvqheg","pricing_plan_id":"free"},{"bike_id":"a3d55647-b9a6-4129-a66c-da4b9a5450d8","system_id":"levelo_inurba_marseille","lat":43.265571,"lon":5.390032,"is_reserved":false,"is_disabled":false,"rental_uris":{"android":"levelo://app?vid=a3d55647-b9a6-4129-a66c-da4b9a5450d8","ios":"levelo://app?vid=a3d55647-b9a6-4129-a66c-da4b9a5450d8"},"vehicle_type_id":"4","last_reported":1703167580,"current_range_meters":23600,"station_id":"ce4bhe12rcd13ifvqf30","pricing_plan_id":"free"},{"bike_id":"43dabeb5-d7ea-49de-8473-e8954e1eaf1f","system_id":"levelo_inurba_marseille","lat":43.265569,"lon":5.390047,"is_reserved":false,"is_disabled":false,"rental_uris":{"android":"levelo://app?vid=43dabeb5-d7ea-49de-8473-e8954e1eaf1f","ios":"levelo://app?vid=43dabeb5-d7ea-49de-8473-e8954e1eaf1f"},"vehicle_type_id":"4","last_reported":1703167580,"current_range_meters":9600,"station_id":"ce4bhe12rcd13ifvqf30","pricing_plan_id":"free"},{"bike_id":"da1ff35a-6eda-402b-a842-515d8be487bc","system_id":"levelo_inurba_marseille","lat":43.265569,"lon":5.390047,"is_reserved":false,"is_disabled":false,"rental_uris":{"android":"levelo://app?vid=da1ff35a-6eda-402b-a842-515d8be487bc","ios":"levelo://app?vid=da1ff35a-6eda-402b-a842-515d8be487bc"},"vehicle_type_id":"4","last_reported":1703167580,"current_range_meters":19600,"station_id":"ce4bhe12rcd13ifvqf30","pricing_plan_id":"free"},{"bike_id":"07fbdce5-f320-4d5e-bc74-1034c54d7f61","system_id":"levelo_inurba_marseille","lat":43.308051,"lon":5.43527,"is_reserved":false,"is_disabled":false,"rental_uris":{"android":"levelo://app?vid=07fbdce5-f320-4d5e-bc74-1034c54d7f61","ios":"levelo://app?vid=07fbdce5-f320-4d5e-bc74-1034c54d7f61"},"vehicle_type_id":"4","last_reported":1703167580,"current_range_meters":24400,"station_id":"ce4bhph2rcd13ifvqheg","pricing_plan_id":"free"},{"bike_id":"704cf923-b757-420c-a20b-fe974286f681","system_id":"levelo_inurba_marseille","lat":43.26941,"lon":5.4024,"is_reserved":false,"is_disabled":false,"rental_uris":{"android":"levelo://app?vid=704cf923-b757-420c-a20b-fe974286f681","ios":"levelo://app?vid=704cf923-b757-420c-a20b-fe974286f681"},"vehicle_type_id":"4","last_reported":1703167580,"current_range_meters":16800,"station_id":"cjm6bp8fraef2m0cb0m0","pricing_plan_id":"free"},{"bike_id":"2564b3d2-89fc-4543-8dca-2c2cdba95937","system_id":"levelo_inurba_marseille","lat":43.26949,"lon":5.40262,"is_reserved":false,"is_disabled":false,"rental_uris":{"android":"levelo://app?vid=2564b3d2-89fc-4543-8dca-2c2cdba95937","ios":"levelo://app?vid=2564b3d2-89fc-4543-8dca-2c2cdba95937"},"vehicle_type_id":"4","last_reported":1703167580,"current_range_meters":17200,"station_id":"cjm6bp8fraef2m0cb0m0","pricing_plan_id":"free"},{"bike_id":"323d0a6f-1f45-429e-b8c9-05ccce78e373","system_id":"levelo_inurba_marseille","lat":43.261782,"lon":5.374515,"is_reserved":false,"is_disabled":false,"rental_uris":{"android":"levelo://app?vid=323d0a6f-1f45-429e-b8c9-05ccce78e373","ios":"levelo://app?vid=323d0a6f-1f45-429e-b8c9-05ccce78e373"},"vehicle_type_id":"4","last_reported":1703167580,"current_range_meters":20400,"station_id":"ce4bhgp2rcd13ifvqfc0","pricing_plan_id":"free"},{"bike_id":"d7383318-9886-4e3f-9eb9-f04e7851db3c","system_id":"levelo_inurba_marseille","lat":43.317109,"lon":5.437079,"is_reserved":false,"is_disabled":false,"rental_uris":{"android":"levelo://app?vid=d7383318-9886-4e3f-9eb9-f04e7851db3c","ios":"levelo://app?vid=d7383318-9886-4e3f-9eb9-f04e7851db3c"},"vehicle_type_id":"4","last_reported":1703167580,"current_range_meters":28800,"station_id":"","pricing_plan_id":"free"},{"bike_id":"f9bd8812-361b-4cf8-a08f-c5df49e9a80a","system_id":"levelo_inurba_marseille","lat":43.31713,"lon":5.4371,"is_reserved":false,"is_disabled":false,"rental_uris":{"android":"levelo://app?vid=f9bd8812-361b-4cf8-a08f-c5df49e9a80a","ios":"levelo://app?vid=f9bd8812-361b-4cf8-a08f-c5df49e9a80a"},"vehicle_type_id":"4","last_reported":1703167580,"current_range_meters":19600,"station_id":"ce4bhp92rcd13ifvqhcg","pricing_plan_id":"free"},{"bike_id":"5c4fddc0-e44b-478c-ac14-25889450a10a","system_id":"levelo_inurba_marseille","lat":43.271388,"lon":5.409269,"is_reserved":false,"is_disabled":false,"rental_uris":{"android":"levelo://app?vid=5c4fddc0-e44b-478c-ac14-25889450a10a","ios":"levelo://app?vid=5c4fddc0-e44b-478c-ac14-25889450a10a"},"vehicle_type_id":"4","last_reported":1703167580,"current_range_meters":20800,"station_id":"ce4bhl12rcd13ifvqgf0","pricing_plan_id":"free"},{"bike_id":"419893e7-347d-42e4-b465-371c4c127f8c","system_id":"levelo_inurba_marseille","lat":43.267959,"lon":5.402685,"is_reserved":false,"is_disabled":false,"rental_uris":{"android":"levelo://app?vid=419893e7-347d-42e4-b465-371c4c127f8c","ios":"levelo://app?vid=419893e7-347d-42e4-b465-371c4c127f8c"},"vehicle_type_id":"4","last_reported":1703167580,"current_range_meters":31200,"station_id":"ce501612rcd8frsf0b60","pricing_plan_id":"free"},{"bike_id":"28defe0b-621a-46c1-83df-bd6df06e56f2","system_id":"levelo_inurba_marseille","lat":43.267959,"lon":5.402685,"is_reserved":false,"is_disabled":false,"rental_uris":{"android":"levelo://app?vid=28defe0b-621a-46c1-83df-bd6df06e56f2","ios":"levelo://app?vid=28defe0b-621a-46c1-83df-bd6df06e56f2"},"vehicle_type_id":"4","last_reported":1703167580,"current_range_meters":14000,"station_id":"ce501612rcd8frsf0b60","pricing_plan_id":"free"},{"bike_id":"16af9ccb-249c-4045-86a0-92de99567420","system_id":"levelo_inurba_marseille","lat":43.267959,"lon":5.402687,"is_reserved":false,"is_disabled":false,"rental_uris":{"android":"levelo://app?vid=16af9ccb-249c-4045-86a0-92de99567420","ios":"levelo://app?vid=16af9ccb-249c-4045-86a0-92de99567420"},"vehicle_type_id":"4","last_reported":1703167580,"current_range_meters":25200,"station_id":"ce501612rcd8frsf0b60","pricing_plan_id":"free"},{"bike_id":"aaa40479-2403-46a7-9cf0-ef7f47482f55","system_id":"levelo_inurba_marseille","lat":43.2651,"lon":5.39469,"is_reserved":false,"is_disabled":false,"rental_uris":{"android":"levelo://app?vid=aaa40479-2403-46a7-9cf0-ef7f47482f55","ios":"levelo://app?vid=aaa40479-2403-46a7-9cf0-ef7f47482f55"},"vehicle_type_id":"4","last_reported":1703167580,"current_range_meters":3200,"station_id":"ce4bhi12rcd13ifvqfq0","pricing_plan_id":"free"},{"bike_id":"86883a94-afe5-444a-a2a3-ae42fdefa096","system_id":"levelo_inurba_marseille","lat":43.260225,"lon":5.375455,"is_reserved":false,"is_disabled":false,"rental_uris":{"android":"levelo://app?vid=86883a94-afe5-444a-a2a3-ae42fdefa096","ios":"levelo://app?vid=86883a94-afe5-444a-a2a3-ae42fdefa096"},"vehicle_type_id":"4","last_reported":1703167580,"current_range_meters":16400,"station_id":"ce4bhgh2rcd13ifvqfa0","pricing_plan_id":"free"},{"bike_id":"2b7af1fb-dafe-42ce-9d9a-e13c5fbf000c","system_id":"levelo_inurba_marseille","lat":43.281548,"lon":5.42643,"is_reserved":false,"is_disabled":false,"rental_uris":{"android":"levelo://app?vid=2b7af1fb-dafe-42ce-9d9a-e13c5fbf000c","ios":"levelo://app?vid=2b7af1fb-dafe-42ce-9d9a-e13c5fbf000c"},"vehicle_type_id":"4","last_reported":1703167580,"current_range_meters":29200,"station_id":"ce4bhnh2rcd13ifvqgug","pricing_plan_id":"free"},{"bike_id":"7942fcd2-247b-4f07-b81d-f3e0e5c73666","system_id":"levelo_inurba_marseille","lat":43.281548,"lon":5.42643,"is_reserved":false,"is_disabled":false,"rental_uris":{"android":"levelo://app?vid=7942fcd2-247b-4f07-b81d-f3e0e5c73666","ios":"levelo://app?vid=7942fcd2-247b-4f07-b81d-f3e0e5c73666"},"vehicle_type_id":"4","last_reported":1703167580,"current_range_meters":31600,"station_id":"ce4bhnh2rcd13ifvqgug","pricing_plan_id":"free"},{"bike_id":"522b55ee-8a84-4e2c-ba67-00be95d022db","system_id":"levelo_inurba_marseille","lat":43.2607,"lon":5.393983,"is_reserved":false,"is_disabled":false,"rental_uris":{"android":"levelo://app?vid=522b55ee-8a84-4e2c-ba67-00be95d022db","ios":"levelo://app?vid=522b55ee-8a84-4e2c-ba67-00be95d022db"},"vehicle_type_id":"4","last_reported":1703167580,"current_range_meters":18400,"station_id":"ce4bhh92rcd13ifvqfj0","pricing_plan_id":"free"},{"bike_id":"02dbce29-749f-4d1d-9049-dce1b30a0938","system_id":"levelo_inurba_marseille","lat":43.275028,"lon":5.424534,"is_reserved":false,"is_disabled":false,"rental_uris":{"android":"levelo://app?vid=02dbce29-749f-4d1d-9049-dce1b30a0938","ios":"levelo://app?vid=02dbce29-749f-4d1d-9049-dce1b30a0938"},"vehicle_type_id":"4","last_reported":1703167580,"current_range_meters":30000,"station_id":"ce4bhn92rcd13ifvqgrg","pricing_plan_id":"free"},{"bike_id":"d4aa0b89-45c5-4014-992c-e325efd84910","system_id":"levelo_inurba_marseille","lat":43.275028,"lon":5.424534,"is_reserved":false,"is_disabled":false,"rental_uris":{"android":"levelo://app?vid=d4aa0b89-45c5-4014-992c-e325efd84910","ios":"levelo://app?vid=d4aa0b89-45c5-4014-992c-e325efd84910"},"vehicle_type_id":"4","last_reported":1703167580,"current_range_meters":0,"station_id":"ce4bhn92rcd13ifvqgrg","pricing_plan_id":"free"},{"bike_id":"f90fa211-a915-4cb2-b309-8e704ac8f4a9","system_id":"levelo_inurba_marseille","lat":43.275028,"lon":5.424534,"is_reserved":false,"is_disabled":false,"rental_uris":{"android":"levelo://app?vid=f90fa211-a915-4cb2-b309-8e704ac8f4a9","ios":"levelo://app?vid=f90fa211-a915-4cb2-b309-8e704ac8f4a9"},"vehicle_type_id":"4","last_reported":1703167580,"current_range_meters":19200,"station_id":"ce4bhn92rcd13ifvqgrg","pricing_plan_id":"free"},{"bike_id":"ca337847-851c-429e-ba13-a619aa4cf5f9","system_id":"levelo_inurba_marseille","lat":43.275028,"lon":5.424534,"is_reserved":false,"is_disabled":false,"rental_uris":{"android":"levelo://app?vid=ca337847-851c-429e-ba13-a619aa4cf5f9","ios":"levelo://app?vid=ca337847-851c-429e-ba13-a619aa4cf5f9"},"vehicle_type_id":"4","last_reported":1703167580,"current_range_meters":16000,"station_id":"ce4bhn92rcd13ifvqgrg","pricing_plan_id":"free"},{"bike_id":"fcb5238d-712c-489c-9cf0-d1833758fe50","system_id":"levelo_inurba_marseille","lat":43.27495,"lon":5.42453,"is_reserved":false,"is_disabled":false,"rental_uris":{"android":"levelo://app?vid=fcb5238d-712c-489c-9cf0-d1833758fe50","ios":"levelo://app?vid=fcb5238d-712c-489c-9cf0-d1833758fe50"},"vehicle_type_id":"4","last_reported":1703167580,"current_range_meters":18400,"station_id":"ce4bhn92rcd13ifvqgrg","pricing_plan_id":"free"},{"bike_id":"04dd24d8-3655-49a6-9905-8a55a84651f4","system_id":"levelo_inurba_marseille","lat":43.27496,"lon":5.42455,"is_reserved":false,"is_disabled":false,"rental_uris":{"android":"levelo://app?vid=04dd24d8-3655-49a6-9905-8a55a84651f4","ios":"levelo://app?vid=04dd24d8-3655-49a6-9905-8a55a84651f4"},"vehicle_type_id":"4","last_reported":1703167580,"current_range_meters":4800,"station_id":"ce4bhn92rcd13ifvqgrg","pricing_plan_id":"free"},{"bike_id":"4130e873-8028-4aeb-8fab-f9dbb9b29662","system_id":"levelo_inurba_marseille","lat":43.27496,"lon":5.42457,"is_reserved":false,"is_disabled":false,"rental_uris":{"android":"levelo://app?vid=4130e873-8028-4aeb-8fab-f9dbb9b29662","ios":"levelo://app?vid=4130e873-8028-4aeb-8fab-f9dbb9b29662"},"vehicle_type_id":"4","last_reported":1703167580,"current_range_meters":0,"station_id":"ce4bhn92rcd13ifvqgrg","pricing_plan_id":"free"},{"bike_id":"71e9edf3-ccec-41d1-b976-6b0cb7123a5a","system_id":"levelo_inurba_marseille","lat":43.275028,"lon":5.424534,"is_reserved":false,"is_disabled":false,"rental_uris":{"android":"levelo://app?vid=71e9edf3-ccec-41d1-b976-6b0cb7123a5a","ios":"levelo://app?vid=71e9edf3-ccec-41d1-b976-6b0cb7123a5a"},"vehicle_type_id":"4","last_reported":1703167580,"current_range_meters":12800,"station_id":"ce4bhn92rcd13ifvqgrg","pricing_plan_id":"free"},{"bike_id":"754e6007-bff3-4338-94b0-69d130eb3d14","system_id":"levelo_inurba_marseille","lat":43.2749,"lon":5.42454,"is_reserved":false,"is_disabled":false,"rental_uris":{"android":"levelo://app?vid=754e6007-bff3-4338-94b0-69d130eb3d14","ios":"levelo://app?vid=754e6007-bff3-4338-94b0-69d130eb3d14"},"vehicle_type_id":"4","last_reported":1703167580,"current_range_meters":17600,"station_id":"ce4bhn92rcd13ifvqgrg","pricing_plan_id":"free"},{"bike_id":"b3801637-fb5e-4798-a48e-b0ac31aa16fd","system_id":"levelo_inurba_marseille","lat":43.275028,"lon":5.424534,"is_reserved":false,"is_disabled":false,"rental_uris":{"android":"levelo://app?vid=b3801637-fb5e-4798-a48e-b0ac31aa16fd","ios":"levelo://app?vid=b3801637-fb5e-4798-a48e-b0ac31aa16fd"},"vehicle_type_id":"4","last_reported":1703167580,"current_range_meters":20800,"station_id":"ce4bhn92rcd13ifvqgrg","pricing_plan_id":"free"},{"bike_id":"77180e4b-b393-44b3-84e3-771a3a113129","system_id":"levelo_inurba_marseille","lat":43.255756,"lon":5.382303,"is_reserved":false,"is_disabled":false,"rental_uris":{"android":"levelo://app?vid=77180e4b-b393-44b3-84e3-771a3a113129","ios":"levelo://app?vid=77180e4b-b393-44b3-84e3-771a3a113129"},"vehicle_type_id":"4","last_reported":1703167580,"current_range_meters":10000,"station_id":"ce4bhih2rcd13ifvqfs0","pricing_plan_id":"free"},{"bike_id":"be5fbfec-8170-4a92-9574-2963c654c7c5","system_id":"levelo_inurba_marseille","lat":43.255756,"lon":5.382303,"is_reserved":false,"is_disabled":false,"rental_uris":{"android":"levelo://app?vid=be5fbfec-8170-4a92-9574-2963c654c7c5","ios":"levelo://app?vid=be5fbfec-8170-4a92-9574-2963c654c7c5"},"vehicle_type_id":"4","last_reported":1703167580,"current_range_meters":19600,"station_id":"ce4bhih2rcd13ifvqfs0","pricing_plan_id":"free"},{"bike_id":"5d55d735-3e14-4288-9c38-1c6b44b70b09","system_id":"levelo_inurba_marseille","lat":43.255756,"lon":5.382303,"is_reserved":false,"is_disabled":false,"rental_uris":{"android":"levelo://app?vid=5d55d735-3e14-4288-9c38-1c6b44b70b09","ios":"levelo://app?vid=5d55d735-3e14-4288-9c38-1c6b44b70b09"},"vehicle_type_id":"4","last_reported":1703167580,"current_range_meters":26800,"station_id":"ce4bhih2rcd13ifvqfs0","pricing_plan_id":"free"},{"bike_id":"f327e107-9afa-4627-9c71-48a52c45eae8","system_id":"levelo_inurba_marseille","lat":43.255756,"lon":5.382303,"is_reserved":false,"is_disabled":false,"rental_uris":{"android":"levelo://app?vid=f327e107-9afa-4627-9c71-48a52c45eae8","ios":"levelo://app?vid=f327e107-9afa-4627-9c71-48a52c45eae8"},"vehicle_type_id":"4","last_reported":1703167580,"current_range_meters":18400,"station_id":"ce4bhih2rcd13ifvqfs0","pricing_plan_id":"free"},{"bike_id":"71de0b4c-0c02-4e86-8349-6038e5ece961","system_id":"levelo_inurba_marseille","lat":43.255756,"lon":5.382303,"is_reserved":false,"is_disabled":false,"rental_uris":{"android":"levelo://app?vid=71de0b4c-0c02-4e86-8349-6038e5ece961","ios":"levelo://app?vid=71de0b4c-0c02-4e86-8349-6038e5ece961"},"vehicle_type_id":"4","last_reported":1703167580,"current_range_meters":20000,"station_id":"ce4bhih2rcd13ifvqfs0","pricing_plan_id":"free"},{"bike_id":"f270527b-c792-4374-a496-bb8a986cc8b4","system_id":"levelo_inurba_marseille","lat":43.258224,"lon":5.394369,"is_reserved":false,"is_disabled":false,"rental_uris":{"android":"levelo://app?vid=f270527b-c792-4374-a496-bb8a986cc8b4","ios":"levelo://app?vid=f270527b-c792-4374-a496-bb8a986cc8b4"},"vehicle_type_id":"4","last_reported":1703167580,"current_range_meters":17200,"station_id":"ce4bhip2rcd13ifvqft0","pricing_plan_id":"free"},{"bike_id":"ebc3ac68-1825-4d95-af5d-fa1cf3744326","system_id":"levelo_inurba_marseille","lat":43.255756,"lon":5.382303,"is_reserved":false,"is_disabled":false,"rental_uris":{"android":"levelo://app?vid=ebc3ac68-1825-4d95-af5d-fa1cf3744326","ios":"levelo://app?vid=ebc3ac68-1825-4d95-af5d-fa1cf3744326"},"vehicle_type_id":"4","last_reported":1703167580,"current_range_meters":20000,"station_id":"ce4bhih2rcd13ifvqfs0","pricing_plan_id":"free"},