{"last_updated":1706378857,"ttl":30,"version":"2.2","data":{"bikes":[{"bike_id":"605d6aa7-27af-4a85-84d2-cb087e1c0a07","system_id":"levelo_inurba_marseille","lat":43.313391,"lon":5.36706,"is_reserved":false,"is_disabled":false,"rental_uris":{"android":"levelo://app?vid=605d6aa7-27af-4a85-84d2-cb087e1c0a07","ios":"levelo://app?vid=605d6aa7-27af-4a85-84d2-cb087e1c0a07"},"vehicle_type_id":"4","last_reported":1706378857,"current_range_meters":29600,"station_id":"ce4bgr92rcd13ifvqc6g","pricing_plan_id":"free"},{"bike_id":"9b7fa001-d29a-449b-bb55-125789e1cdea","system_id":"levelo_inurba_marseille","lat":43.312239,"lon":5.368562,"is_reserved":false,"is_disabled":false,"rental_uris":{"android":"levelo://app?vid=9b7fa001-d29a-449b-bb55-125789e1cdea","ios":"levelo://app?vid=9b7fa001-d29a-449b-bb55-125789e1cdea"},"vehicle_type_id":"4","last_reported":1706378857,"current_range_meters":7600,"station_id":"ce4bgl92rcd13ifvqbq0","pricing_plan_id":"free"},{"bike_id":"0d29e756-56fe-49e9-b34e-81740d85e4de","system_id":"levelo_inurba_marseille","lat":43.312239,"lon":5.368562,"is_reserved":false,"is_disabled":false,"rental_uris":{"android":"levelo://app?vid=0d29e756-56fe-49e9-b34e-81740d85e4de","ios":"levelo://app?vid=0d29e756-56fe-49e9-b34e-81740d85e4de"},"vehicle_type_id":"4","last_reported":1706378857,"current_range_meters":9600,"station_id":"ce4bgl92rcd13ifvqbq0","pricing_plan_id":"free"},{"bike_id":"446859bd-a172-4618-ae3c-e5727758f1c9","system_id":"levelo_inurba_marseille","lat":43.312239,"lon":5.368562,"is_reserved":false,"is_disabled":false,"rental_uris":{"android":"levelo://app?vid=446859bd-a172-4618-ae3c-e5727758f1c9","ios":"levelo://app?vid=446859bd-a172-4618-ae3c-e5727758f1c9"},"vehicle_type_id":"4","last_reported":1706378857,"current_range_meters":11600,"station_id":"ce4bgl92rcd13ifvqbq0","pricing_plan_id":"free"},{"bike_id":"8ad02849-da43-40f8-8bca-4df0237d93c6","system_id":"levelo_inurba_marseille","lat":43.31229,"lon":5.36879,"is_reserved":false,"is_disabled":false,"rental_uris":{"android":"levelo://app?vid=8ad02849-da43-40f8-8bca-4df0237d93c6","ios":"levelo://app?vid=8ad02849-da43-40f8-8bca-4df0237d93c6"},"vehicle_type_id":"4","last_reported":1706378857,"current_range_meters":3600,"station_id":"ce4bgl92rcd13ifvqbq0","pricing_plan_id":"free"},{"bike_id":"75664ddd-179f-4238-8d83-376e9399613f","system_id":"levelo_inurba_marseille","lat":43.309076,"lon":5.368465,"is_reserved":false,"is_disabled":false,"rental_uris":{"android":"levelo://app?vid=75664ddd-179f-4238-8d83-376e9399613f","ios":"levelo://app?vid=75664ddd-179f-4238-8d83-376e9399613f"},"vehicle_type_id":"4","last_reported":1706378857,"current_range_meters":1200,"station_id":"ce4bgn92rcd13ifvqbvg","pricing_plan_id":"free"},{"bike_id":"41d6cfcc-7b4a-4820-b774-4163e20ffc37","system_id":"levelo_inurba_marseille","lat":43.314811,"lon":5.373104,"is_reserved":false,"is_disabled":false,"rental_uris":{"android":"levelo://app?vid=41d6cfcc-7b4a-4820-b774-4163e20ffc37","ios":"levelo://app?vid=41d6cfcc-7b4a-4820-b774-4163e20ffc37"},"vehicle_type_id":"4","last_reported":1706378857,"current_range_meters":3200,"station_id":"ce4bgt12rcd13ifvqcd0","pricing_plan_id":"free"},{"bike_id":"63772596-5897-415d-8e82-333b92b68f6a","system_id":"levelo_inurba_marseille","lat":43.314811,"lon":5.373104,"is_reserved":false,"is_disabled":false,"rental_uris":{"android":"levelo://app?vid=63772596-5897-415d-8e82-333b92b68f6a","ios":"levelo://app?vid=63772596-5897-415d-8e82-333b92b68f6a"},"vehicle_type_id":"4","last_reported":1706378857,"current_range_meters":12000,"station_id":"ce4bgt12rcd13ifvqcd0","pricing_plan_id":"free"},{"bike_id":"9532c5d9-975b-48db-ae60-c35aba9219f3","system_id":"levelo_inurba_marseille","lat":43.309039,"lon":5.371797,"is_reserved":false,"is_disabled":false,"rental_uris":{"android":"levelo://app?vid=9532c5d9-975b-48db-ae60-c35aba9219f3","ios":"levelo://app?vid=9532c5d9-975b-48db-ae60-c35aba9219f3"},"vehicle_type_id":"4","last_reported":1706378857,"current_range_meters":8400,"station_id":"ce4bguh2rcd13ifvqckg","pricing_plan_id":"free"},{"bike_id":"b3a4c76c-4b91-4838-bce7-c17a779a0349","system_id":"levelo_inurba_marseille","lat":43.305477,"lon":5.36546,"is_reserved":false,"is_disabled":false,"rental_uris":{"android":"levelo://app?vid=b3a4c76c-4b91-4838-bce7-c17a779a0349","ios":"levelo://app?vid=b3a4c76c-4b91-4838-bce7-c17a779a0349"},"vehicle_type_id":"4","last_reported":1706378857,"current_range_meters":0,"station_id":"ce4bgs12rcd13ifvqcag","pricing_plan_id":"free"},{"bike_id":"ebfc0589-beca-4c66-98b3-2a81b206edac","system_id":"levelo_inurba_marseille","lat":43.311131,"lon":5.377651,"is_reserved":false,"is_disabled":false,"rental_uris":{"android":"levelo://app?vid=ebfc0589-beca-4c66-98b3-2a81b206edac","ios":"levelo://app?vid=ebfc0589-beca-4c66-98b3-2a81b206edac"},"vehicle_type_id":"4","last_reported":1706378857,"current_range_meters":2400,"station_id":"ce4bgt92rcd13ifvqcg0","pricing_plan_id":"free"},{"bike_id":"c0aca7fd-4281-4ec5-937e-70d16daadeeb","system_id":"levelo_inurba_marseille","lat":43.311131,"lon":5.377651,"is_reserved":false,"is_disabled":false,"rental_uris":{"android":"levelo://app?vid=c0aca7fd-4281-4ec5-937e-70d16daadeeb","ios":"levelo://app?vid=c0aca7fd-4281-4ec5-937e-70d16daadeeb"},"vehicle_type_id":"4","last_reported":1706378857,"current_range_meters":0,"station_id":"ce4bgt92rcd13ifvqcg0","pricing_plan_id":"free"},{"bike_id":"be96811a-e695-43a2-b444-a4e58de2d55a","system_id":"levelo_inurba_marseille","lat":43.311131,"lon":5.377651,"is_reserved":false,"is_disabled":false,"rental_uris":{"android":"levelo://app?vid=be96811a-e695-43a2-b444-a4e58de2d55a","ios":"levelo://app?vid=be96811a-e695-43a2-b444-a4e58de2d55a"},"vehicle_type_id":"4","last_reported":1706378857,"current_range_meters":21200,"station_id":"ce4bgt92rcd13ifvqcg0","pricing_plan_id":"free"},{"bike_id":"4b0cf31f-40a1-4bfc-8114-ce24fcf5a550","system_id":"levelo_inurba_marseille","lat":43.31126,"lon":5.37775,"is_reserved":false,"is_disabled":false,"rental_uris":{"android":"levelo://app?vid=4b0cf31f-40a1-4bfc-8114-ce24fcf5a550","ios":"levelo://app?vid=4b0cf31f-40a1-4bfc-8114-ce24fcf5a550"},"vehicle_type_id":"4","last_reported":1706378857,"current_range_meters":18000,"station_id":"ce4bgt92rcd13ifvqcg0","pricing_plan_id":"free"},{"bike_id":"2a5e7ee2-6d3f-4917-8a8f-2f96322ca49d","system_id":"levelo_inurba_marseille","lat":43.311131,"lon":5.377651,"is_reserved":false,"is_disabled":false,"rental_uris":{"android":"levelo://app?vid=2a5e7ee2-6d3f-4917-8a8f-2f96322ca49d","ios":"levelo://app?vid=2a5e7ee2-6d3f-4917-8a8f-2f96322ca49d"},"vehicle_type_id":"4","last_reported":1706378857,"current_range_meters":2400,"station_id":"ce4bgt92rcd13ifvqcg0","pricing_plan_id":"free"},{"bike_id":"92c39c9f-e34e-4c34-b109-92b9c8f4bc35","system_id":"levelo_inurba_marseille","lat":43.311131,"lon":5.377651,"is_reserved":false,"is_disabled":false,"rental_uris":{"android":"levelo://app?vid=92c39c9f-e34e-4c34-b109-92b9c8f4bc35","ios":"levelo://app?vid=92c39c9f-e34e-4c34-b109-92b9c8f4bc35"},"vehicle_type_id":"4","last_reported":1706378857,"current_range_meters":19200,"station_id":"ce4bgt92rcd13ifvqcg0","pricing_plan_id":"free"},{"bike_id":"bff0a1fb-016b-416c-9d7b-ef0de3945ccc","system_id":"levelo_inurba_marseille","lat":43.307945,"lon":5.376487,"is_reserved":false,"is_disabled":false,"rental_uris":{"android":"levelo://app?vid=bff0a1fb-016b-416c-9d7b-ef0de3945ccc","ios":"levelo://app?vid=bff0a1fb-016b-416c-9d7b-ef0de3945ccc"},"vehicle_type_id":"4","last_reported":1706378857,"current_range_meters":5600,"station_id":"ce4bgv92rcd13ifvqcq0","pricing_plan_id":"free"},{"bike_id":"80998046-c331-4e09-b181-dd2418cade65","system_id":"levelo_inurba_marseille","lat":43.307945,"lon":5.376487,"is_reserved":false,"is_disabled":false,"rental_uris":{"android":"levelo://app?vid=80998046-c331-4e09-b181-dd2418cade65","ios":"levelo://app?vid=80998046-c331-4e09-b181-dd2418cade65"},"vehicle_type_id":"4","last_reported":1706378857,"current_range_meters":7200,"station_id":"ce4bgv92rcd13ifvqcq0","pricing_plan_id":"free"},{"bike_id":"43f0a0cf-ccee-4ea6-84f3-2f3e1eb1d115","system_id":"levelo_inurba_marseille","lat":43.303046,"lon":5.368981,"is_reserved":false,"is_disabled":false,"rental_uris":{"android":"levelo://app?vid=43f0a0cf-ccee-4ea6-84f3-2f3e1eb1d115","ios":"levelo://app?vid=43f0a0cf-ccee-4ea6-84f3-2f3e1eb1d115"},"vehicle_type_id":"4","last_reported":1706378857,"current_range_meters":12800,"station_id":"ce4bgqh2rcd13ifvqc5g","pricing_plan_id":"free"},{"bike_id":"760e8431-4505-4e25-89a2-d05baf70ef01","system_id":"levelo_inurba_marseille","lat":43.30309,"lon":5.36902,"is_reserved":false,"is_disabled":false,"rental_uris":{"android":"levelo://app?vid=760e8431-4505-4e25-89a2-d05baf70ef01","ios":"levelo://app?vid=760e8431-4505-4e25-89a2-d05baf70ef01"},"vehicle_type_id":"4","last_reported":1706378857,"current_range_meters":0,"station_id":"ce4bgqh2rcd13ifvqc5g","pricing_plan_id":"free"},{"bike_id":"666cf8f7-cdc3-46ca-8ad2-0e772959bc5d","system_id":"levelo_inurba_marseille","lat":43.303046,"lon":5.368981,"is_reserved":false,"is_disabled":false,"rental_uris":{"android":"levelo://app?vid=666cf8f7-cdc3-46ca-8ad2-0e772959bc5d","ios":"levelo://app?vid=666cf8f7-cdc3-46ca-8ad2-0e772959bc5d"},"vehicle_type_id":"4","last_reported":1706378857,"current_range_meters":14000,"station_id":"ce4bgqh2rcd13ifvqc5g","pricing_plan_id":"free"},{"bike_id":"b83daeb9-a39c-4884-86e2-16a37c651f7f","system_id":"levelo_inurba_marseille","lat":43.31998,"lon":5.37623,"is_reserved":false,"is_disabled":false,"rental_uris":{"android":"levelo://app?vid=b83daeb9-a39c-4884-86e2-16a37c651f7f","ios":"levelo://app?vid=b83daeb9-a39c-4884-86e2-16a37c651f7f"},"vehicle_type_id":"4","last_reported":1706378857,"current_range_meters":10000,"station_id":"","pricing_plan_id":"free"},{"bike_id":"f256c0b2-36ab-4ce0-bab1-f59755183e03","system_id":"levelo_inurba_marseille","lat":43.308012,"lon":5.381511,"is_reserved":false,"is_disabled":false,"rental_uris":{"android":"levelo://app?vid=f256c0b2-36ab-4ce0-bab1-f59755183e03","ios":"levelo://app?vid=f256c0b2-36ab-4ce0-bab1-f59755183e03"},"vehicle_type_id":"4","last_reported":1706378857,"current_range_meters":0,"station_id":"ce4bgt12rcd13ifvqce0","pricing_plan_id":"free"},{"bike_id":"7f9c6bd7-a1bd-4751-955f-bbdc78090dce","system_id":"levelo_inurba_marseille","lat":43.30811,"lon":5.38161,"is_reserved":false,"is_disabled":false,"rental_uris":{"android":"levelo://app?vid=7f9c6bd7-a1bd-4751-955f-bbdc78090dce","ios":"levelo://app?vid=7f9c6bd7-a1bd-4751-955f-bbdc78090dce"},"vehicle_type_id":"4","last_reported":1706378857,"current_range_meters":0,"station_id":"ce4bgt12rcd13ifvqce0","pricing_plan_id":"free"},{"bike_id":"83b8cf0c-c775-4517-a45e-83ac3c47ca21","system_id":"levelo_inurba_marseille","lat":43.301429,"lon":5.37413,"is_reserved":false,"is_disabled":false,"rental_uris":{"android":"levelo://app?vid=83b8cf0c-c775-4517-a45e-83ac3c47ca21","ios":"levelo://app?vid=83b8cf0c-c775-4517-a45e-83ac3c47ca21"},"vehicle_type_id":"4","last_reported":1706378857,"current_range_meters":2400,"station_id":"ce4bgs92rcd13ifvqcc0","pricing_plan_id":"free"},{"bike_id":"3bf22490-d3ca-4327-b334-3c9e6fc0d4e1","system_id":"levelo_inurba_marseille","lat":43.319935,"lon":5.381699,"is_reserved":false,"is_disabled":false,"rental_uris":{"android":"levelo://app?vid=3bf22490-d3ca-4327-b334-3c9e6fc0d4e1","ios":"levelo://app?vid=3bf22490-d3ca-4327-b334-3c9e6fc0d4e1"},"vehicle_type_id":"4","last_reported":1706378857,"current_range_meters":20000,"station_id":"ce4bhr12rcd13ifvqhpg","pricing_plan_id":"free"},{"bike_id":"ae7ab608-8fac-4c0d-9f43-8ffacb07a49d","system_id":"levelo_inurba_marseille","lat":43.319935,"lon":5.381699,"is_reserved":false,"is_disabled":false,"rental_uris":{"android":"levelo://app?vid=ae7ab608-8fac-4c0d-9f43-8ffacb07a49d","ios":"levelo://app?vid=ae7ab608-8fac-4c0d-9f43-8ffacb07a49d"},"vehicle_type_id":"4","last_reported":1706378857,"current_range_meters":1600,"station_id":"ce4bhr12rcd13ifvqhpg","pricing_plan_id":"free"},{"bike_id":"4e5d2762-6863-42e8-bea1-8bab88213284","system_id":"levelo_inurba_marseille","lat":43.313571,"lon":5.384829,"is_reserved":false,"is_disabled":false,"rental_uris":{"android":"levelo://app?vid=4e5d2762-6863-42e8-bea1-8bab88213284","ios":"levelo://app?vid=4e5d2762-6863-42e8-bea1-8bab88213284"},"vehicle_type_id":"4","last_reported":1706378857,"current_range_meters":20400,"station_id":"ce4bgt92rcd13ifvqcf0","pricing_plan_id":"free"},{"bike_id":"9065ca2a-caa7-4d71-987a-23339c265ff8","system_id":"levelo_inurba_marseille","lat":43.313571,"lon":5.384829,"is_reserved":false,"is_disabled":false,"rental_uris":{"android":"levelo://app?vid=9065ca2a-caa7-4d71-987a-23339c265ff8","ios":"levelo://app?vid=9065ca2a-caa7-4d71-987a-23339c265ff8"},"vehicle_type_id":"4","last_reported":1706378857,"current_range_meters":18400,"station_id":"ce4bgt92rcd13ifvqcf0","pricing_plan_id":"free"},{"bike_id":"8e66c1dc-86d8-4c80-babd-13c668565b55","system_id":"levelo_inurba_marseille","lat":43.31362,"lon":5.38505,"is_reserved":false,"is_disabled":false,"rental_uris":{"android":"levelo://app?vid=8e66c1dc-86d8-4c80-babd-13c668565b55","ios":"levelo://app?vid=8e66c1dc-86d8-4c80-babd-13c668565b55"},"vehicle_type_id":"4","last_reported":1706378857,"current_range_meters":1200,"station_id":"ce4bgt92rcd13ifvqcf0","pricing_plan_id":"free"},{"bike_id":"5add530f-7103-4d21-967c-ed919ead503e","system_id":"levelo_inurba_marseille","lat":43.298433,"lon":5.362774,"is_reserved":false,"is_disabled":false,"rental_uris":{"android":"levelo://app?vid=5add530f-7103-4d21-967c-ed919ead503e","ios":"levelo://app?vid=5add530f-7103-4d21-967c-ed919ead503e"},"vehicle_type_id":"4","last_reported":1706378857,"current_range_meters":0,"station_id":"ce4bgpp2rcd13ifvqc3g","pricing_plan_id":"free"},{"bike_id":"bcbb4c68-25af-4d65-ac16-b3b546a54ef1","system_id":"levelo_inurba_marseille","lat":43.311722,"lon":5.387247,"is_reserved":false,"is_disabled":false,"rental_uris":{"android":"levelo://app?vid=bcbb4c68-25af-4d65-ac16-b3b546a54ef1","ios":"levelo://app?vid=bcbb4c68-25af-4d65-ac16-b3b546a54ef1"},"vehicle_type_id":"4","last_reported":1706378857,"current_range_meters":2800,"station_id":"ce4bgv12rcd13ifvqcp0","pricing_plan_id":"free"},{"bike_id":"acad4b16-7976-48e2-8253-857622573b86","system_id":"levelo_inurba_marseille","lat":43.311722,"lon":5.387247,"is_reserved":false,"is_disabled":false,"rental_uris":{"android":"levelo://app?vid=acad4b16-7976-48e2-8253-857622573b86","ios":"levelo://app?vid=acad4b16-7976-48e2-8253-857622573b86"},"vehicle_type_id":"4","last_reported":1706378857,"current_range_meters":3600,"station_id":"ce4bgv12rcd13ifvqcp0","pricing_plan_id":"free"},{"bike_id":"76bea26f-3230-4a88-bd35-6da12dde0440","system_id":"levelo_inurba_marseille","lat":43.311722,"lon":5.387247,"is_reserved":false,"is_disabled":false,"rental_uris":{"android":"levelo://app?vid=76bea26f-3230-4a88-bd35-6da12dde0440","ios":"levelo://app?vid=76bea26f-3230-4a88-bd35-6da12dde0440"},"vehicle_type_id":"4","last_reported":1706378857,"current_range_meters":26400,"station_id":"ce4bgv12rcd13ifvqcp0","pricing_plan_id":"free"},{"bike_id":"965a5dab-e227-4efc-b518-9780186a9de9","system_id":"levelo_inurba_marseille","lat":43.322872,"lon":5.382756,"is_reserved":false,"is_disabled":false,"rental_uris":{"android":"levelo://app?vid=965a5dab-e227-4efc-b518-9780186a9de9","ios":"levelo://app?vid=965a5dab-e227-4efc-b518-9780186a9de9"},"vehicle_type_id":"4","last_reported":1706378857,"current_range_meters":24400,"station_id":"ce4bhr12rcd13ifvqhqg","pricing_plan_id":"free"},{"bike_id":"5e98879a-df25-42d7-a72e-59c9369b5f46","system_id":"levelo_inurba_marseille","lat":43.322887,"lon":5.382692,"is_reserved":false,"is_disabled":false,"rental_uris":{"android":"levelo://app?vid=5e98879a-df25-42d7-a72e-59c9369b5f46","ios":"levelo://app?vid=5e98879a-df25-42d7-a72e-59c9369b5f46"},"vehicle_type_id":"4","last_reported":1706378857,"current_range_meters":30800,"station_id":"ce4bhr12rcd13ifvqhqg","pricing_plan_id":"free"},{"bike_id":"a3b74381-0d58-448f-9a1c-2f1261e3769d","system_id":"levelo_inurba_marseille","lat":43.322872,"lon":5.382756,"is_reserved":false,"is_disabled":false,"rental_uris":{"android":"levelo://app?vid=a3b74381-0d58-448f-9a1c-2f1261e3769d","ios":"levelo://app?vid=a3b74381-0d58-448f-9a1c-2f1261e3769d"},"vehicle_type_id":"4","last_reported":1706378857,"current_range_meters":28000,"station_id":"ce4bhr12rcd13ifvqhqg","pricing_plan_id":"free"},{"bike_id":"12edd8fe-ac42-424b-86a0-ddbc64b4f114","system_id":"levelo_inurba_marseille","lat":43.328276,"lon":5.366878,"is_reserved":false,"is_disabled":false,"rental_uris":{"android":"levelo://app?vid=12edd8fe-ac42-424b-86a0-ddbc64b4f114","ios":"levelo://app?vid=12edd8fe-ac42-424b-86a0-ddbc64b4f114"},"vehicle_type_id":"4","last_reported":1706378857,"current_range_meters":17200,"station_id":"ce4bhs92rcd13ifvqi0g","pricing_plan_id":"free"},{"bike_id":"182f91f9-dad6-418d-b488-cdc432c4c7ac","system_id":"levelo_inurba_marseille","lat":43.32828,"lon":5.36675,"is_reserved":false,"is_disabled":false,"rental_uris":{"android":"levelo://app?vid=182f91f9-dad6-418d-b488-cdc432c4c7ac","ios":"levelo://app?vid=182f91f9-dad6-418d-b488-cdc432c4c7ac"},"vehicle_type_id":"4","last_reported":1706378857,"current_range_meters":2800,"station_id":"ce4bhs92rcd13ifvqi0g","pricing_plan_id":"free"},{"bike_id":"f835f26e-9757-4841-a5dc-fa0489ad0e74","system_id":"levelo_inurba_marseille","lat":43.328371,"lon":5.366912,"is_reserved":false,"is_disabled":false,"rental_uris":{"android":"levelo://app?vid=f835f26e-9757-4841-a5dc-fa0489ad0e74","ios":"levelo://app?vid=f835f26e-9757-4841-a5dc-fa0489ad0e74"},"vehicle_type_id":"4","last_reported":1706378857,"current_range_meters":18400,"station_id":"ce4bhs92rcd13ifvqi0g","pricing_plan_id":"free"},{"bike_id":"4eb0ce35-1e01-4f06-bddc-098b367e5edb","system_id":"levelo_inurba_marseille","lat":43.328335,"lon":5.366871,"is_reserved":false,"is_disabled":false,"rental_uris":{"android":"levelo://app?vid=4eb0ce35-1e01-4f06-bddc-098b367e5edb","ios":"levelo://app?vid=4eb0ce35-1e01-4f06-bddc-098b367e5edb"},"vehicle_type_id":"4","last_reported":1706378857,"current_range_meters":4000,"station_id":"","pricing_plan_id":"free"},{"bike_id":"54d8abe6-746b-4be6-9341-8f323a368dcf","system_id":"levelo_inurba_marseille","lat":43.297118,"lon":5.366224,"is_reserved":false,"is_disabled":false,"rental_uris":{"android":"levelo://app?vid=54d8abe6-746b-4be6-9341-8f323a368dcf","ios":"levelo://app?vid=54d8abe6-746b-4be6-9341-8f323a368dcf"},"vehicle_type_id":"4","last_reported":1706378857,"current_range_meters":0,"station_id":"ce4bgn12rcd13ifvqbt0","pricing_plan_id":"free"},{"bike_id":"d2617c97-c69d-4e40-93e7-aa6ff7edfff5","system_id":"levelo_inurba_marseille","lat":43.2968,"lon":5.37291,"is_reserved":false,"is_disabled":false,"rental_uris":{"android":"levelo://app?vid=d2617c97-c69d-4e40-93e7-aa6ff7edfff5","ios":"levelo://app?vid=d2617c97-c69d-4e40-93e7-aa6ff7edfff5"},"vehicle_type_id":"4","last_reported":1706378857,"current_range_meters":2000,"station_id":"ce4bgk12rcd13ifvqbj0","pricing_plan_id":"free"},{"bike_id":"68c9a3cf-87e7-4ae4-a034-24f782747137","system_id":"levelo_inurba_marseille","lat":43.2968,"lon":5.37291,"is_reserved":false,"is_disabled":false,"rental_uris":{"android":"levelo://app?vid=68c9a3cf-87e7-4ae4-a034-24f782747137","ios":"levelo://app?vid=68c9a3cf-87e7-4ae4-a034-24f782747137"},"vehicle_type_id":"4","last_reported":1706378857,"current_range_meters":17600,"station_id":"ce4bgk12rcd13ifvqbj0","pricing_plan_id":"free"},{"bike_id":"da55fc08-38b9-4991-979f-e322ac4ae8c6","system_id":"levelo_inurba_marseille","lat":43.296131,"lon":5.370773,"is_reserved":false,"is_disabled":false,"rental_uris":{"android":"levelo://app?vid=da55fc08-38b9-4991-979f-e322ac4ae8c6","ios":"levelo://app?vid=da55fc08-38b9-4991-979f-e322ac4ae8c6"},"vehicle_type_id":"4","last_reported":1706378857,"current_range_meters":17200,"station_id":"ce4bgnh2rcd13ifvqc0g","pricing_plan_id":"free"},{"bike_id":"419770a0-4a5f-4b49-a4bc-fe1f93efa0b5","system_id":"levelo_inurba_marseille","lat":43.29573,"lon":5.367355,"is_reserved":false,"is_disabled":false,"rental_uris":{"android":"levelo://app?vid=419770a0-4a5f-4b49-a4bc-fe1f93efa0b5","ios":"levelo://app?vid=419770a0-4a5f-4b49-a4bc-fe1f93efa0b5"},"vehicle_type_id":"4","last_reported":1706378857,"current_range_meters":0,"station_id":"ce4bgph2rcd13ifvqc2g","pricing_plan_id":"free"},{"bike_id":"f624ce2c-507b-47a1-93fa-7127c3646157","system_id":"levelo_inurba_marseille","lat":43.2962,"lon":5.37171,"is_reserved":false,"is_disabled":false,"rental_uris":{"android":"levelo://app?vid=f624ce2c-507b-47a1-93fa-7127c3646157","ios":"levelo://app?vid=f624ce2c-507b-47a1-93fa-7127c3646157"},"vehicle_type_id":"4","last_reported":1706378857,"current_range_meters":27600,"station_id":"ce4bgnh2rcd13ifvqc0g","pricing_plan_id":"free"},{"bike_id":"6bd2f957-d646-4510-833d-95248983357d","system_id":"levelo_inurba_marseille","lat":43.309589,"lon":5.390258,"is_reserved":false,"is_disabled":false,"rental_uris":{"android":"levelo://app?vid=6bd2f957-d646-4510-833d-95248983357d","ios":"levelo://app?vid=6bd2f957-d646-4510-833d-95248983357d"},"vehicle_type_id":"4","last_reported":1706378857,"current_range_meters":2800,"station_id":"ce4bgup2rcd13ifvqco0","pricing_plan_id":"free"},{"bike_id":"1bee81b2-fe02-46dd-b5bd-3c65feee248e","system_id":"levelo_inurba_marseille","lat":43.309589,"lon":5.390258,"is_reserved":false,"is_disabled":false,"rental_uris":{"android":"levelo://app?vid=1bee81b2-fe02-46dd-b5bd-3c65feee248e","ios":"levelo://app?vid=1bee81b2-fe02-46dd-b5bd-3c65feee248e"},"vehicle_type_id":"4","last_reported":1706378857,"current_range_meters":25600,"station_id":"ce4bgup2rcd13ifvqco0","pricing_plan_id":"free"},{"bike_id":"1843a16f-5926-4ba5-ab13-d972d3f50e10","system_id":"levelo_inurba_marseille","lat":43.317557,"lon":5.390173,"is_reserved":false,"is_disabled":false,"rental_uris":{"android":"levelo://app?vid=1843a16f-5926-4ba5-ab13-d972d3f50e10","ios":"levelo://app?vid=1843a16f-5926-4ba5-ab13-d972d3f50e10"},"vehicle_type_id":"4","last_reported":1706378857,"current_range_meters":0,"station_id":"ce4bhqp2rcd13ifvqhng","pricing_plan_id":"free"},{"bike_id":"5849c8f1-de07-480c-ab10-c023b55280ba","system_id":"levelo_inurba_marseille","lat":43.32262,"lon":5.38703,"is_reserved":false,"is_disabled":false,"rental_uris":{"android":"levelo://app?vid=5849c8f1-de07-480c-ab10-c023b55280ba","ios":"levelo://app?vid=5849c8f1-de07-480c-ab10-c023b55280ba"},"vehicle_type_id":"4","last_reported":1706378857,"current_range_meters":1200,"station_id":"","pricing_plan_id":"free"},{"bike_id":"7ece1a62-e5d5-4322-ac03-e9325b4af1af","system_id":"levelo_inurba_marseille","lat":43.302008,"lon":5.394694,"is_reserved":false,"is_disabled":false,"rental_uris":{"android":"levelo://app?vid=7ece1a62-e5d5-4322-ac03-e9325b4af1af","ios":"levelo://app?vid=7ece1a62-e5d5-4322-ac03-e9325b4af1af"},"vehicle_type_id":"4","last_reported":1706378857,"current_range_meters":13600,"station_id":"ce4bh0p2rcd13ifvqd70","pricing_plan_id":"free"},{"bike_id":"65ffa2a1-9c2d-4b96-b9ef-fcb3d43f0709","system_id":"levelo_inurba_marseille","lat":43.295748,"lon":5.37522,"is_reserved":false,"is_disabled":false,"rental_uris":{"android":"levelo://app?vid=65ffa2a1-9c2d-4b96-b9ef-fcb3d43f0709","ios":"levelo://app?vid=65ffa2a1-9c2d-4b96-b9ef-fcb3d43f0709"},"vehicle_type_id":"4","last_reported":1706378857,"current_range_meters":0,"station_id":"ce4bgh92rcd13ifvqb50","pricing_plan_id":"free"},{"bike_id":"d0e902e6-87e3-47b8-a4b9-c816eb21ede5","system_id":"levelo_inurba_marseille","lat":43.295279,"lon":5.375048,"is_reserved":false,"is_disabled":false,"rental_uris":{"android":"levelo://app?vid=d0e902e6-87e3-47b8-a4b9-c816eb21ede5","ios":"levelo://app?vid=d0e902e6-87e3-47b8-a4b9-c816eb21ede5"},"vehicle_type_id":"4","last_reported":1706378857,"current_range_meters":6000,"station_id":"ce4bgkp2rcd13ifvqbmg","pricing_plan_id":"free"},{"bike_id":"f945f044-ccf1-47b6-9a95-e6f747ff4a71","system_id":"levelo_inurba_marseille","lat":43.299717,"lon":5.384845,"is_reserved":false,"is_disabled":false,"rental_uris":{"android":"levelo://app?vid=f945f044-ccf1-47b6-9a95-e6f747ff4a71","ios":"levelo://app?vid=f945f044-ccf1-47b6-9a95-e6f747ff4a71"},"vehicle_type_id":"4","last_reported":1706378857,"current_range_meters":10800,"station_id":"ce4bgj92rcd13ifvqbd0","pricing_plan_id":"free"},{"bike_id":"3802b87b-36fb-4991-944a-38232876a682","system_id":"levelo_inurba_marseille","lat":43.299707,"lon":5.384859,"is_reserved":false,"is_disabled":false,"rental_uris":{"android":"levelo://app?vid=3802b87b-36fb-4991-944a-38232876a682","ios":"levelo://app?vid=3802b87b-36fb-4991-944a-38232876a682"},"vehicle_type_id":"4","last_reported":1706378857,"current_range_meters":0,"station_id":"ce4bgj92rcd13ifvqbd0","pricing_plan_id":"free"},{"bike_id":"cb97e8b7-448b-42f4-acf5-5cd191e1a00b","system_id":"levelo_inurba_marseille","lat":43.295279,"lon":5.375048,"is_reserved":false,"is_disabled":false,"rental_uris":{"android":"levelo://app?vid=cb97e8b7-448b-42f4-acf5-5cd191e1a00b","ios":"levelo://app?vid=cb97e8b7-448b-42f4-acf5-5cd191e1a00b"},"vehicle_type_id":"4","last_reported":1706378857,"current_range_meters":20400,"station_id":"ce4bgkp2rcd13ifvqbmg","pricing_plan_id":"free"},{"bike_id":"e08384ee-74ea-4522-a60c-2b901b660024","system_id":"levelo_inurba_marseille","lat":43.29968,"lon":5.384975,"is_reserved":false,"is_disabled":false,"rental_uris":{"android":"levelo://app?vid=e08384ee-74ea-4522-a60c-2b901b660024","ios":"levelo://app?vid=e08384ee-74ea-4522-a60c-2b901b660024"},"vehicle_type_id":"4","last_reported":1706378857,"current_range_meters":0,"station_id":"ce4bgj92rcd13ifvqbd0","pricing_plan_id":"free"},{"bike_id":"36fdf3a9-6637-4abe-9106-b80fdb7b6025","system_id":"levelo_inurba_marseille","lat":43.32163,"lon":5.38951,"is_reserved":false,"is_disabled":false,"rental_uris":{"android":"levelo://app?vid=36fdf3a9-6637-4abe-9106-b80fdb7b6025","ios":"levelo://app?vid=36fdf3a9-6637-4abe-9106-b80fdb7b6025"},"vehicle_type_id":"4","last_reported":1706378857,"current_range_meters":17600,"station_id":"","pricing_plan_id":"free"},{"bike_id":"d4443e5e-0c5e-41c1-8f20-6d82045f197c","system_id":"levelo_inurba_marseille","lat":43.29601,"lon":5.381084,"is_reserved":false,"is_disabled":false,"rental_uris":{"android":"levelo://app?vid=d4443e5e-0c5e-41c1-8f20-6d82045f197c","ios":"levelo://app?vid=d4443e5e-0c5e-41c1-8f20-6d82045f197c"},"vehicle_type_id":"4","last_reported":1706378857,"current_range_meters":0,"station_id":"ce4bgl12rcd13ifvqbo0","pricing_plan_id":"free"},{"bike_id":"74dc548a-33d0-4526-be26-b8322bda79eb","system_id":"levelo_inurba_marseille","lat":43.293185,"lon":5.371445,"is_reserved":false,"is_disabled":false,"rental_uris":{"android":"levelo://app?vid=74dc548a-33d0-4526-be26-b8322bda79eb","ios":"levelo://app?vid=74dc548a-33d0-4526-be26-b8322bda79eb"},"vehicle_type_id":"4","last_reported":1706378857,"current_range_meters":0,"station_id":"ce4bgh92rcd13ifvqb40","pricing_plan_id":"free"},{"bike_id":"49ca61a4-d84a-4d16-8f15-14930c71b3ff","system_id":"levelo_inurba_marseille","lat":43.293259,"lon":5.371586,"is_reserved":false,"is_disabled":false,"rental_uris":{"android":"levelo://app?vid=49ca61a4-d84a-4d16-8f15-14930c71b3ff","ios":"levelo://app?vid=49ca61a4-d84a-4d16-8f15-14930c71b3ff"},"vehicle_type_id":"4","last_reported":1706378857,"current_range_meters":5200,"station_id":"ce4bgh92rcd13ifvqb40","pricing_plan_id":"free"},{"bike_id":"1bcb486c-90af-45fd-a0c3-ddf6f21f3b01","system_id":"levelo_inurba_marseille","lat":43.29281,"lon":5.36844,"is_reserved":false,"is_disabled":false,"rental_uris":{"android":"levelo://app?vid=1bcb486c-90af-45fd-a0c3-ddf6f21f3b01","ios":"levelo://app?vid=1bcb486c-90af-45fd-a0c3-ddf6f21f3b01"},"vehicle_type_id":"4","last_reported":1706378857,"current_range_meters":0,"station_id":"ce4bhbp2rcd13ifvqesg","pricing_plan_id":"free"},{"bike_id":"6ba0cfca-62a3-4773-82da-dab16f2fb19a","system_id":"levelo_inurba_marseille","lat":43.292749,"lon":5.368402,"is_reserved":false,"is_disabled":false,"rental_uris":{"android":"levelo://app?vid=6ba0cfca-62a3-4773-82da-dab16f2fb19a","ios":"levelo://app?vid=6ba0cfca-62a3-4773-82da-dab16f2fb19a"},"vehicle_type_id":"4","last_reported":1706378857,"current_range_meters":30400,"station_id":"ce4bhbp2rcd13ifvqesg","pricing_plan_id":"free"},{"bike_id":"c76a9521-88d2-4b99-b6ce-f5e8550e44f6","system_id":"levelo_inurba_marseille","lat":43.292749,"lon":5.368402,"is_reserved":false,"is_disabled":false,"rental_uris":{"android":"levelo://app?vid=c76a9521-88d2-4b99-b6ce-f5e8550e44f6","ios":"levelo://app?vid=c76a9521-88d2-4b99-b6ce-f5e8550e44f6"},"vehicle_type_id":"4","last_reported":1706378857,"current_range_meters":0,"station_id":"ce4bhbp2rcd13ifvqesg","pricing_plan_id":"free"},{"bike_id":"19cf60cc-3c2b-493b-9e4b-6eac1abc8601","system_id":"levelo_inurba_marseille","lat":43.293009,"lon":5.374584,"is_reserved":false,"is_disabled":false,"rental_uris":{"android":"levelo://app?vid=19cf60cc-3c2b-493b-9e4b-6eac1abc8601","ios":"levelo://app?vid=19cf60cc-3c2b-493b-9e4b-6eac1abc8601"},"vehicle_type_id":"4","last_reported":1706378857,"current_range_meters":14000,"station_id":"ce4bgi12rcd13ifvqb70","pricing_plan_id":"free"},{"bike_id":"03435999-7ef3-4adc-9795-9617722a15d8","system_id":"levelo_inurba_marseille","lat":43.305994,"lon":5.393687,"is_reserved":false,"is_disabled":false,"rental_uris":{"android":"levelo://app?vid=03435999-7ef3-4adc-9795-9617722a15d8","ios":"levelo://app?vid=03435999-7ef3-4adc-9795-9617722a15d8"},"vehicle_type_id":"4","last_reported":1706378857,"current_range_meters":8400,"station_id":"ce4bh0p2rcd13ifvqd80","pricing_plan_id":"free"},{"bike_id":"8e6557db-8e3e-4cd9-87c3-0a7e161cab7b","system_id":"levelo_inurba_marseille","lat":43.30604,"lon":5.39367,"is_reserved":false,"is_disabled":false,"rental_uris":{"android":"levelo://app?vid=8e6557db-8e3e-4cd9-87c3-0a7e161cab7b","ios":"levelo://app?vid=8e6557db-8e3e-4cd9-87c3-0a7e161cab7b"},"vehicle_type_id":"4","last_reported":1706378857,"current_range_meters":0,"station_id":"ce4bh0p2rcd13ifvqd80","pricing_plan_id":"free"},{"bike_id":"84a1007d-28fb-46ee-a56f-ddc6d4437d0e","system_id":"levelo_inurba_marseille","lat":43.29381,"lon":5.37855,"is_reserved":false,"is_disabled":false,"rental_uris":{"android":"levelo://app?vid=84a1007d-28fb-46ee-a56f-ddc6d4437d0e","ios":"levelo://app?vid=84a1007d-28fb-46ee-a56f-ddc6d4437d0e"},"vehicle_type_id":"4","last_reported":1706378857,"current_range_meters":0,"station_id":"ce4bgjh2rcd13ifvqbf0","pricing_plan_id":"free"},{"bike_id":"b3b12ff5-9647-434a-8655-3d01108dad77","system_id":"levelo_inurba_marseille","lat":43.2936,"lon":5.37835,"is_reserved":false,"is_disabled":false,"rental_uris":{"android":"levelo://app?vid=b3b12ff5-9647-434a-8655-3d01108dad77","ios":"levelo://app?vid=b3b12ff5-9647-434a-8655-3d01108dad77"},"vehicle_type_id":"4","last_reported":1706378857,"current_range_meters":0,"station_id":"ce4bgjh2rcd13ifvqbf0","pricing_plan_id":"free"},{"bike_id":"28f893ec-7e7c-42db-975c-ce28c406a717","system_id":"levelo_inurba_marseille","lat":43.296263,"lon":5.377094,"is_reserved":false,"is_disabled":false,"rental_uris":{"android":"levelo://app?vid=28f893ec-7e7c-42db-975c-ce28c406a717","ios":"levelo://app?vid=28f893ec-7e7c-42db-975c-ce28c406a717"},"vehicle_type_id":"4","last_reported":1706378857,"current_range_meters":0,"station_id":"ce4bgi92rcd13ifvqb90","pricing_plan_id":"free"},{"bike_id":"e0a1e5b2-0185-44b4-bf89-610f2a3883f3","system_id":"levelo_inurba_marseille","lat":43.291671,"lon":5.371575,"is_reserved":false,"is_disabled":false,"rental_uris":{"android":"levelo://app?vid=e0a1e5b2-0185-44b4-bf89-610f2a3883f3","ios":"levelo://app?vid=e0a1e5b2-0185-44b4-bf89-610f2a3883f3"},"vehicle_type_id":"4","last_reported":1706378857,"current_range_meters":21600,"station_id":"ce4bha92rcd13ifvqeh0","pricing_plan_id":"free"},{"bike_id":"ed3dcdde-93ed-4f17-9080-f3d856897a97","system_id":"levelo_inurba_marseille","lat":43.298764,"lon":5.388973,"is_reserved":false,"is_disabled":false,"rental_uris":{"android":"levelo://app?vid=ed3dcdde-93ed-4f17-9080-f3d856897a97","ios":"levelo://app?vid=ed3dcdde-93ed-4f17-9080-f3d856897a97"},"vehicle_type_id":"4","last_reported":1706378857,"current_range_meters":0,"station_id":"ce4bh392rcd13ifvqdl0","pricing_plan_id":"free"},{"bike_id":"f654e55e-34da-4fa5-946f-900a0783c80f","system_id":"levelo_inurba_marseille","lat":43.29157,"lon":5.37156,"is_reserved":false,"is_disabled":false,"rental_uris":{"android":"levelo://app?vid=f654e55e-34da-4fa5-946f-900a0783c80f","ios":"levelo://app?vid=f654e55e-34da-4fa5-946f-900a0783c80f"},"vehicle_type_id":"4","last_reported":1706378857,"current_range_meters":0,"station_id":"ce4bha92rcd13ifvqeh0","pricing_plan_id":"free"},{"bike_id":"19b3bf82-1b3d-46bb-b879-564df552d0e4","system_id":"levelo_inurba_marseille","lat":43.291994,"lon":5.357886,"is_reserved":false,"is_disabled":false,"rental_uris":{"android":"levelo://app?vid=19b3bf82-1b3d-46bb-b879-564df552d0e4","ios":"levelo://app?vid=19b3bf82-1b3d-46bb-b879-564df552d0e4"},"vehicle_type_id":"4","last_reported":1706378857,"current_range_meters":13600,"station_id":"ce4bhb12rcd13ifvqel0","pricing_plan_id":"free"},{"bike_id":"8469453e-50f2-4d4a-a443-a634e77bc415","system_id":"levelo_inurba_marseille","lat":43.313291,"lon":5.396838,"is_reserved":false,"is_disabled":false,"rental_uris":{"android":"levelo://app?vid=8469453e-50f2-4d4a-a443-a634e77bc415","ios":"levelo://app?vid=8469453e-50f2-4d4a-a443-a634e77bc415"},"vehicle_type_id":"4","last_reported":1706378857,"current_range_meters":20000,"station_id":"ce4bgvp2rcd13ifvqcu0","pricing_plan_id":"free"},{"bike_id":"52f1eee3-8ec4-402a-b1f4-e39b2fc262a8","system_id":"levelo_inurba_marseille","lat":43.313291,"lon":5.396838,"is_reserved":false,"is_disabled":false,"rental_uris":{"android":"levelo://app?vid=52f1eee3-8ec4-402a-b1f4-e39b2fc262a8","ios":"levelo://app?vid=52f1eee3-8ec4-402a-b1f4-e39b2fc262a8"},"vehicle_type_id":"4","last_reported":1706378857,"current_range_meters":2000,"station_id":"ce4bgvp2rcd13ifvqcu0","pricing_plan_id":"free"},{"bike_id":"2a1b7630-101a-4bc9-9d11-5540748ddbc9","system_id":"levelo_inurba_marseille","lat":43.313291,"lon":5.396838,"is_reserved":false,"is_disabled":false,"rental_uris":{"android":"levelo://app?vid=2a1b7630-101a-4bc9-9d11-5540748ddbc9","ios":"levelo://app?vid=2a1b7630-101a-4bc9-9d11-5540748ddbc9"},"vehicle_type_id":"4","last_reported":1706378857,"current_range_meters":24000,"station_id":"ce4bgvp2rcd13ifvqcu0","pricing_plan_id":"free"},{"bike_id":"84a91703-1b2b-4f79-a334-6aaa88c6edca","system_id":"levelo_inurba_marseille","lat":43.313291,"lon":5.396838,"is_reserved":false,"is_disabled":false,"rental_uris":{"android":"levelo://app?vid=84a91703-1b2b-4f79-a334-6aaa88c6edca","ios":"levelo://app?vid=84a91703-1b2b-4f79-a334-6aaa88c6edca"},"vehicle_type_id":"4","last_reported":1706378857,"current_range_meters":21600,"station_id":"ce4bgvp2rcd13ifvqcu0","pricing_plan_id":"free"},{"bike_id":"42f45670-1646-4801-95b8-0efb57ffac5f","system_id":"levelo_inurba_marseille","lat":43.29529,"lon":5.385581,"is_reserved":false,"is_disabled":false,"rental_uris":{"android":"levelo://app?vid=42f45670-1646-4801-95b8-0efb57ffac5f","ios":"levelo://app?vid=42f45670-1646-4801-95b8-0efb57ffac5f"},"vehicle_type_id":"4","last_reported":1706378857,"current_range_meters":20400,"station_id":"ce4bgih2rcd13ifvqba0","pricing_plan_id":"free"},{"bike_id":"35a5a8f9-cff3-4876-955f-37d30e34a46e","system_id":"levelo_inurba_marseille","lat":43.295375,"lon":5.38554,"is_reserved":false,"is_disabled":false,"rental_uris":{"android":"levelo://app?vid=35a5a8f9-cff3-4876-955f-37d30e34a46e","ios":"levelo://app?vid=35a5a8f9-cff3-4876-955f-37d30e34a46e"},"vehicle_type_id":"4","last_reported":1706378857,"current_range_meters":0,"station_id":"ce4bgih2rcd13ifvqba0","pricing_plan_id":"free"},{"bike_id":"31a23ac6-ddb0-4602-838e-bf0991a2d0f4","system_id":"levelo_inurba_marseille","lat":43.29529,"lon":5.385581,"is_reserved":false,"is_disabled":false,"rental_uris":{"android":"levelo://app?vid=31a23ac6-ddb0-4602-838e-bf0991a2d0f4","ios":"levelo://app?vid=31a23ac6-ddb0-4602-838e-bf0991a2d0f4"},"vehicle_type_id":"4","last_reported":1706378857,"current_range_meters":5200,"station_id":"ce4bgih2rcd13ifvqba0","pricing_plan_id":"free"},{"bike_id":"b869012c-ef85-4f5b-9266-bdc9c64da1b1","system_id":"levelo_inurba_marseille","lat":43.29529,"lon":5.385581,"is_reserved":false,"is_disabled":false,"rental_uris":{"android":"levelo://app?vid=b869012c-ef85-4f5b-9266-bdc9c64da1b1","ios":"levelo://app?vid=b869012c-ef85-4f5b-9266-bdc9c64da1b1"},"vehicle_type_id":"4","last_reported":1706378857,"current_range_meters":4400,"station_id":"ce4bgih2rcd13ifvqba0","pricing_plan_id":"free"},{"bike_id":"06b03ff2-4c8b-4ba3-8ab1-10d3eaf80046","system_id":"levelo_inurba_marseille","lat":43.290779,"lon":5.371482,"is_reserved":false,"is_disabled":false,"rental_uris":{"android":"levelo://app?vid=06b03ff2-4c8b-4ba3-8ab1-10d3eaf80046","ios":"levelo://app?vid=06b03ff2-4c8b-4ba3-8ab1-10d3eaf80046"},"vehicle_type_id":"4","last_reported":1706378857,"current_range_meters":11200,"station_id":"ce4bh5p2rcd13ifvqe4g","pricing_plan_id":"free"},{"bike_id":"7a88baef-7765-4d21-b7a4-d18b783baf9d","system_id":"levelo_inurba_marseille","lat":43.302008,"lon":5.394694,"is_reserved":false,"is_disabled":false,"rental_uris":{"android":"levelo://app?vid=7a88baef-7765-4d21-b7a4-d18b783baf9d","ios":"levelo://app?vid=7a88baef-7765-4d21-b7a4-d18b783baf9d"},"vehicle_type_id":"4","last_reported":1706378857,"current_range_meters":0,"station_id":"ce4bh0p2rcd13ifvqd70","pricing_plan_id":"free"},{"bike_id":"17ca140e-4917-4167-b27c-941c65672e92","system_id":"levelo_inurba_marseille","lat":43.290441,"lon":5.359123,"is_reserved":false,"is_disabled":false,"rental_uris":{"android":"levelo://app?vid=17ca140e-4917-4167-b27c-941c65672e92","ios":"levelo://app?vid=17ca140e-4917-4167-b27c-941c65672e92"},"vehicle_type_id":"4","last_reported":1706378857,"current_range_meters":28800,"station_id":"","pricing_plan_id":"free"},{"bike_id":"c73989ac-943d-4298-a224-311b0c2569c1","system_id":"levelo_inurba_marseille","lat":43.290319,"lon":5.375732,"is_reserved":false,"is_disabled":false,"rental_uris":{"android":"levelo://app?vid=c73989ac-943d-4298-a224-311b0c2569c1","ios":"levelo://app?vid=c73989ac-943d-4298-a224-311b0c2569c1"},"vehicle_type_id":"4","last_reported":1706378857,"current_range_meters":16400,"station_id":"ce4bh692rcd13ifvqe90","pricing_plan_id":"free"},{"bike_id":"34352741-92b6-46cb-a96b-05c6fbd86707","system_id":"levelo_inurba_marseille","lat":43.294153,"lon":5.386305,"is_reserved":false,"is_disabled":false,"rental_uris":{"android":"levelo://app?vid=34352741-92b6-46cb-a96b-05c6fbd86707","ios":"levelo://app?vid=34352741-92b6-46cb-a96b-05c6fbd86707"},"vehicle_type_id":"4","last_reported":1706378857,"current_range_meters":0,"station_id":"ce4bh2h2rcd13ifvqdh0","pricing_plan_id":"free"},{"bike_id":"ff8060ae-1233-41f0-8cb4-edaa55fd5bcc","system_id":"levelo_inurba_marseille","lat":43.294153,"lon":5.386305,"is_reserved":false,"is_disabled":false,"rental_uris":{"android":"levelo://app?vid=ff8060ae-1233-41f0-8cb4-edaa55fd5bcc","ios":"levelo://app?vid=ff8060ae-1233-41f0-8cb4-edaa55fd5bcc"},"vehicle_type_id":"4","last_reported":1706378857,"current_range_meters":0,"station_id":"ce4bh2h2rcd13ifvqdh0","pricing_plan_id":"free"},{"bike_id":"b031bbf0-3e52-4c06-9a97-b30fa5b65412","system_id":"levelo_inurba_marseille","lat":43.294153,"lon":5.386305,"is_reserved":false,"is_disabled":false,"rental_uris":{"android":"levelo://app?vid=b031bbf0-3e52-4c06-9a97-b30fa5b65412","ios":"levelo://app?vid=b031bbf0-3e52-4c06-9a97-b30fa5b65412"},"vehicle_type_id":"4","last_reported":1706378857,"current_range_meters":25600,"station_id":"ce4bh2h2rcd13ifvqdh0","pricing_plan_id":"free"},{"bike_id":"9268805d-8f55-4594-9c55-2398783d26b2","system_id":"levelo_inurba_marseille","lat":43.294153,"lon":5.386305,"is_reserved":false,"is_disabled":false,"rental_uris":{"android":"levelo://app?vid=9268805d-8f55-4594-9c55-2398783d26b2","ios":"levelo://app?vid=9268805d-8f55-4594-9c55-2398783d26b2"},"vehicle_type_id":"4","last_reported":1706378857,"current_range_meters":22000,"station_id":"ce4bh2h2rcd13ifvqdh0","pricing_plan_id":"free"},{"bike_id":"9d73e795-5597-4db5-9ddc-c35d3e6be846","system_id":"levelo_inurba_marseille","lat":43.290319,"lon":5.375732,"is_reserved":false,"is_disabled":false,"rental_uris":{"android":"levelo://app?vid=9d73e795-5597-4db5-9ddc-c35d3e6be846","ios":"levelo://app?vid=9d73e795-5597-4db5-9ddc-c35d3e6be846"},"vehicle_type_id":"4","last_reported":1706378857,"current_range_meters":19600,"station_id":"ce4bh692rcd13ifvqe90","pricing_plan_id":"free"},{"bike_id":"5b7ddb59-1b0b-4ee8-97d6-424f0c885e0e","system_id":"levelo_inurba_marseille","lat":43.289468,"lon":5.363719,"is_reserved":false,"is_disabled":false,"rental_uris":{"android":"levelo://app?vid=5b7ddb59-1b0b-4ee8-97d6-424f0c885e0e","ios":"levelo://app?vid=5b7ddb59-1b0b-4ee8-97d6-424f0c885e0e"},"vehicle_type_id":"4","last_reported":1706378857,"current_range_meters":0,"station_id":"ce4bhc92rcd13ifvqetg","pricing_plan_id":"free"},{"bike_id":"fdf64dfb-626d-4195-afb1-813b7ed06955","system_id":"levelo_inurba_marseille","lat":43.294162,"lon":5.386292,"is_reserved":false,"is_disabled":false,"rental_uris":{"android":"levelo://app?vid=fdf64dfb-626d-4195-afb1-813b7ed06955","ios":"levelo://app?vid=fdf64dfb-626d-4195-afb1-813b7ed06955"},"vehicle_type_id":"4","last_reported":1706378857,"current_range_meters":10000,"station_id":"ce4bh2h2rcd13ifvqdh0","pricing_plan_id":"free"},{"bike_id":"a184596d-36e5-433b-b0de-50b19c2c3099","system_id":"levelo_inurba_marseille","lat":43.294153,"lon":5.386305,"is_reserved":false,"is_disabled":false,"rental_uris":{"android":"levelo://app?vid=a184596d-36e5-433b-b0de-50b19c2c3099","ios":"levelo://app?vid=a184596d-36e5-433b-b0de-50b19c2c3099"},"vehicle_type_id":"4","last_reported":1706378857,"current_range_meters":1600,"station_id":"ce4bh2h2rcd13ifvqdh0","pricing_plan_id":"free"},{"bike_id":"0252f5d7-4f30-4af8-b3b9-a40854b2a88b","system_id":"levelo_inurba_marseille","lat":43.294162,"lon":5.386292,"is_reserved":false,"is_disabled":false,"rental_uris":{"android":"levelo://app?vid=0252f5d7-4f30-4af8-b3b9-a40854b2a88b","ios":"levelo://app?vid=0252f5d7-4f30-4af8-b3b9-a40854b2a88b"},"vehicle_type_id":"4","last_reported":1706378857,"current_range_meters":0,"station_id":"ce4bh2h2rcd13ifvqdh0","pricing_plan_id":"free"},{"bike_id":"ffde0bd5-d47e-4122-b3c3-b4122a5e580a","system_id":"levelo_inurba_marseille","lat":43.290327,"lon":5.375711,"is_reserved":false,"is_disabled":false,"rental_uris":{"android":"levelo://app?vid=ffde0bd5-d47e-4122-b3c3-b4122a5e580a","ios":"levelo://app?vid=ffde0bd5-d47e-4122-b3c3-b4122a5e580a"},"vehicle_type_id":"4","last_reported":1706378857,"current_range_meters":4800,"station_id":"ce4bh692rcd13ifvqe90","pricing_plan_id":"free"},{"bike_id":"b9436fc9-664b-4597-8d2e-ca5a564837e6","system_id":"levelo_inurba_marseille","lat":43.29414,"lon":5.3863,"is_reserved":false,"is_disabled":false,"rental_uris":{"android":"levelo://app?vid=b9436fc9-664b-4597-8d2e-ca5a564837e6","ios":"levelo://app?vid=b9436fc9-664b-4597-8d2e-ca5a564837e6"},"vehicle_type_id":"4","last_reported":1706378857,"current_range_meters":0,"station_id":"ce4bh2h2rcd13ifvqdh0","pricing_plan_id":"free"},{"bike_id":"32c01700-3370-42be-8fbf-841507f94392","system_id":"levelo_inurba_marseille","lat":43.29415,"lon":5.38632,"is_reserved":false,"is_disabled":false,"rental_uris":{"android":"levelo://app?vid=32c01700-3370-42be-8fbf-841507f94392","ios":"levelo://app?vid=32c01700-3370-42be-8fbf-841507f94392"},"vehicle_type_id":"4","last_reported":1706378857,"current_range_meters":0,"station_id":"ce4bh2h2rcd13ifvqdh0","pricing_plan_id":"free"},{"bike_id":"7f8e47be-b8b7-4bde-bcce-53001b7e8303","system_id":"levelo_inurba_marseille","lat":43.289366,"lon":5.366312,"is_reserved":false,"is_disabled":false,"rental_uris":{"android":"levelo://app?vid=7f8e47be-b8b7-4bde-bcce-53001b7e8303","ios":"levelo://app?vid=7f8e47be-b8b7-4bde-bcce-53001b7e8303"},"vehicle_type_id":"4","last_reported":1706378857,"current_range_meters":0,"station_id":"ce4bhap2rcd13ifvqek0","pricing_plan_id":"free"},{"bike_id":"4bc6594f-04e6-45da-af2c-80b77ce5e3d8","system_id":"levelo_inurba_marseille","lat":43.289184,"lon":5.366408,"is_reserved":false,"is_disabled":false,"rental_uris":{"android":"levelo://app?vid=4bc6594f-04e6-45da-af2c-80b77ce5e3d8","ios":"levelo://app?vid=4bc6594f-04e6-45da-af2c-80b77ce5e3d8"},"vehicle_type_id":"4","last_reported":1706378857,"current_range_meters":20000,"station_id":"ce4bhap2rcd13ifvqek0","pricing_plan_id":"free"},{"bike_id":"eda1f8d3-4333-405a-a944-45e28ca1e429","system_id":"levelo_inurba_marseille","lat":43.289184,"lon":5.366408,"is_reserved":false,"is_disabled":false,"rental_uris":{"android":"levelo://app?vid=eda1f8d3-4333-405a-a944-45e28ca1e429","ios":"levelo://app?vid=eda1f8d3-4333-405a-a944-45e28ca1e429"},"vehicle_type_id":"4","last_reported":1706378857,"current_range_meters":400,"station_id":"ce4bhap2rcd13ifvqek0","pricing_plan_id":"free"},{"bike_id":"956b155a-dad0-4ba8-80ff-d2eec3dd1faf","system_id":"levelo_inurba_marseille","lat":43.292644,"lon":5.384257,"is_reserved":false,"is_disabled":false,"rental_uris":{"android":"levelo://app?vid=956b155a-dad0-4ba8-80ff-d2eec3dd1faf","ios":"levelo://app?vid=956b155a-dad0-4ba8-80ff-d2eec3dd1faf"},"vehicle_type_id":"4","last_reported":1706378857,"current_range_meters":4800,"station_id":"ce4bh692rcd13ifvqea0","pricing_plan_id":"free"},{"bike_id":"721abd2a-0e12-4163-b080-a6be2cd89e2e","system_id":"levelo_inurba_marseille","lat":43.2927,"lon":5.38428,"is_reserved":false,"is_disabled":false,"rental_uris":{"android":"levelo://app?vid=721abd2a-0e12-4163-b080-a6be2cd89e2e","ios":"levelo://app?vid=721abd2a-0e12-4163-b080-a6be2cd89e2e"},"vehicle_type_id":"4","last_reported":1706378857,"current_range_meters":6400,"station_id":"ce4bh692rcd13ifvqea0","pricing_plan_id":"free"},{"bike_id":"5511291d-55e7-4695-ab2e-6964e1d10167","system_id":"levelo_inurba_marseille","lat":43.29267,"lon":5.3846,"is_reserved":false,"is_disabled":false,"rental_uris":{"android":"levelo://app?vid=5511291d-55e7-4695-ab2e-6964e1d10167","ios":"levelo://app?vid=5511291d-55e7-4695-ab2e-6964e1d10167"},"vehicle_type_id":"4","last_reported":1706378857,"current_range_meters":4800,"station_id":"ce4bh692rcd13ifvqea0","pricing_plan_id":"free"},{"bike_id":"b7d5756e-89dd-4cc6-be01-25c13fe508dd","system_id":"levelo_inurba_marseille","lat":43.290103,"lon":5.356114,"is_reserved":false,"is_disabled":false,"rental_uris":{"android":"levelo://app?vid=b7d5756e-89dd-4cc6-be01-25c13fe508dd","ios":"levelo://app?vid=b7d5756e-89dd-4cc6-be01-25c13fe508dd"},"vehicle_type_id":"4","last_reported":1706378857,"current_range_meters":0,"station_id":"ce4bhb92rcd13ifvqen0","pricing_plan_id":"free"},{"bike_id":"0092425e-3ba9-44de-9778-3f12ca115c77","system_id":"levelo_inurba_marseille","lat":43.297815,"lon":5.393548,"is_reserved":false,"is_disabled":false,"rental_uris":{"android":"levelo://app?vid=0092425e-3ba9-44de-9778-3f12ca115c77","ios":"levelo://app?vid=0092425e-3ba9-44de-9778-3f12ca115c77"},"vehicle_type_id":"4","last_reported":1706378857,"current_range_meters":21600,"station_id":"chh1huq6cuj3fo74tm60","pricing_plan_id":"free"},{"bike_id":"d98dbdec-53cd-4a5a-8bf4-9c5d57af0141","system_id":"levelo_inurba_marseille","lat":43.29788,"lon":5.39355,"is_reserved":false,"is_disabled":false,"rental_uris":{"android":"levelo://app?vid=d98dbdec-53cd-4a5a-8bf4-9c5d57af0141","ios":"levelo://app?vid=d98dbdec-53cd-4a5a-8bf4-9c5d57af0141"},"vehicle_type_id":"4","last_reported":1706378857,"current_range_meters":0,"station_id":"chh1huq6cuj3fo74tm60","pricing_plan_id":"free"},{"bike_id":"5bccb220-e9a2-4490-bf06-b98f32528009","system_id":"levelo_inurba_marseille","lat":43.330442,"lon":5.389148,"is_reserved":false,"is_disabled":false,"rental_uris":{"android":"levelo://app?vid=5bccb220-e9a2-4490-bf06-b98f32528009","ios":"levelo://app?vid=5bccb220-e9a2-4490-bf06-b98f32528009"},"vehicle_type_id":"4","last_reported":1706378857,"current_range_meters":2000,"station_id":"ce4bhr92rcd13ifvqhrg","pricing_plan_id":"free"},{"bike_id":"41227aa3-3185-4f4f-b18d-c487940ef180","system_id":"levelo_inurba_marseille","lat":43.297823,"lon":5.39364,"is_reserved":false,"is_disabled":false,"rental_uris":{"android":"levelo://app?vid=41227aa3-3185-4f4f-b18d-c487940ef180","ios":"levelo://app?vid=41227aa3-3185-4f4f-b18d-c487940ef180"},"vehicle_type_id":"4","last_reported":1706378857,"current_range_meters":0,"station_id":"","pricing_plan_id":"free"},{"bike_id":"efeeb5e0-d1a3-4d2d-9f96-ca2891260c9a","system_id":"levelo_inurba_marseille","lat":43.2901,"lon":5.381269,"is_reserved":false,"is_disabled":false,"rental_uris":{"android":"levelo://app?vid=efeeb5e0-d1a3-4d2d-9f96-ca2891260c9a","ios":"levelo://app?vid=efeeb5e0-d1a3-4d2d-9f96-ca2891260c9a"},"vehicle_type_id":"4","last_reported":1706378857,"current_range_meters":6000,"station_id":"ce4bh4p2rcd13ifvqe1g","pricing_plan_id":"free"},{"bike_id":"1c4bbaa6-a481-4245-9cf8-0d143bcce5ca","system_id":"levelo_inurba_marseille","lat":43.2901,"lon":5.381269,"is_reserved":false,"is_disabled":false,"rental_uris":{"android":"levelo://app?vid=1c4bbaa6-a481-4245-9cf8-0d143bcce5ca","ios":"levelo://app?vid=1c4bbaa6-a481-4245-9cf8-0d143bcce5ca"},"vehicle_type_id":"4","last_reported":1706378857,"current_range_meters":1600,"station_id":"ce4bh4p2rcd13ifvqe1g","pricing_plan_id":"free"},{"bike_id":"0a8789ed-3e0d-4769-9c01-b276c35aa8ba","system_id":"levelo_inurba_marseille","lat":43.28856,"lon":5.358371,"is_reserved":false,"is_disabled":false,"rental_uris":{"android":"levelo://app?vid=0a8789ed-3e0d-4769-9c01-b276c35aa8ba","ios":"levelo://app?vid=0a8789ed-3e0d-4769-9c01-b276c35aa8ba"},"vehicle_type_id":"4","last_reported":1706378857,"current_range_meters":11600,"station_id":"ce4bhb12rcd13ifvqem0","pricing_plan_id":"free"},{"bike_id":"a97150b0-3316-441e-8286-4eef2060438f","system_id":"levelo_inurba_marseille","lat":43.312609,"lon":5.401662,"is_reserved":false,"is_disabled":false,"rental_uris":{"android":"levelo://app?vid=a97150b0-3316-441e-8286-4eef2060438f","ios":"levelo://app?vid=a97150b0-3316-441e-8286-4eef2060438f"},"vehicle_type_id":"4","last_reported":1706378857,"current_range_meters":4000,"station_id":"ce4bh092rcd13ifvqd30","pricing_plan_id":"free"},{"bike_id":"4d1aa22b-6e28-45b6-bec7-9443247b438b","system_id":"levelo_inurba_marseille","lat":43.312609,"lon":5.401662,"is_reserved":false,"is_disabled":false,"rental_uris":{"android":"levelo://app?vid=4d1aa22b-6e28-45b6-bec7-9443247b438b","ios":"levelo://app?vid=4d1aa22b-6e28-45b6-bec7-9443247b438b"},"vehicle_type_id":"4","last_reported":1706378857,"current_range_meters":24000,"station_id":"ce4bh092rcd13ifvqd30","pricing_plan_id":"free"},{"bike_id":"ac6a46c3-5a1c-4e94-85c3-50cae432e2fb","system_id":"levelo_inurba_marseille","lat":43.309371,"lon":5.401449,"is_reserved":false,"is_disabled":false,"rental_uris":{"android":"levelo://app?vid=ac6a46c3-5a1c-4e94-85c3-50cae432e2fb","ios":"levelo://app?vid=ac6a46c3-5a1c-4e94-85c3-50cae432e2fb"},"vehicle_type_id":"4","last_reported":1706378857,"current_range_meters":4800,"station_id":"ce4bgvp2rcd13ifvqct0","pricing_plan_id":"free"},{"bike_id":"884832fb-3849-46d4-8375-561987f8fb03","system_id":"levelo_inurba_marseille","lat":43.309371,"lon":5.401449,"is_reserved":false,"is_disabled":false,"rental_uris":{"android":"levelo://app?vid=884832fb-3849-46d4-8375-561987f8fb03","ios":"levelo://app?vid=884832fb-3849-46d4-8375-561987f8fb03"},"vehicle_type_id":"4","last_reported":1706378857,"current_range_meters":0,"station_id":"ce4bgvp2rcd13ifvqct0","pricing_plan_id":"free"},{"bike_id":"cd39fc38-471d-4996-974c-5267b6a5742f","system_id":"levelo_inurba_marseille","lat":43.30927,"lon":5.40144,"is_reserved":false,"is_disabled":false,"rental_uris":{"android":"levelo://app?vid=cd39fc38-471d-4996-974c-5267b6a5742f","ios":"levelo://app?vid=cd39fc38-471d-4996-974c-5267b6a5742f"},"vehicle_type_id":"4","last_reported":1706378857,"current_range_meters":0,"station_id":"ce4bgvp2rcd13ifvqct0","pricing_plan_id":"free"},{"bike_id":"a563cdbf-78b8-441c-8dce-8da1c3325b92","system_id":"levelo_inurba_marseille","lat":43.33756,"lon":5.37464,"is_reserved":false,"is_disabled":false,"rental_uris":{"android":"levelo://app?vid=a563cdbf-78b8-441c-8dce-8da1c3325b92","ios":"levelo://app?vid=a563cdbf-78b8-441c-8dce-8da1c3325b92"},"vehicle_type_id":"4","last_reported":1706378857,"current_range_meters":17600,"station_id":"","pricing_plan_id":"free"},{"bike_id":"1facbbf3-baac-42f8-85eb-cb1e36f3e4b9","system_id":"levelo_inurba_marseille","lat":43.33758,"lon":5.37493,"is_reserved":false,"is_disabled":false,"rental_uris":{"android":"levelo://app?vid=1facbbf3-baac-42f8-85eb-cb1e36f3e4b9","ios":"levelo://app?vid=1facbbf3-baac-42f8-85eb-cb1e36f3e4b9"},"vehicle_type_id":"4","last_reported":1706378857,"current_range_meters":18400,"station_id":"","pricing_plan_id":"free"},{"bike_id":"02cc1ce4-717f-4b60-a8ae-e32a4e8fb56c","system_id":"levelo_inurba_marseille","lat":43.33757,"lon":5.37499,"is_reserved":false,"is_disabled":false,"rental_uris":{"android":"levelo://app?vid=02cc1ce4-717f-4b60-a8ae-e32a4e8fb56c","ios":"levelo://app?vid=02cc1ce4-717f-4b60-a8ae-e32a4e8fb56c"},"vehicle_type_id":"4","last_reported":1706378857,"current_range_meters":11600,"station_id":"","pricing_plan_id":"free"},{"bike_id":"b7f12eab-e0a6-499e-87ec-2b4381c4602a","system_id":"levelo_inurba_marseille","lat":43.337604,"lon":5.374914,"is_reserved":false,"is_disabled":false,"rental_uris":{"android":"levelo://app?vid=b7f12eab-e0a6-499e-87ec-2b4381c4602a","ios":"levelo://app?vid=b7f12eab-e0a6-499e-87ec-2b4381c4602a"},"vehicle_type_id":"4","last_reported":1706378857,"current_range_meters":23200,"station_id":"","pricing_plan_id":"free"},{"bike_id":"b7d3b81d-d85a-44b5-a0c7-8f9c9f74639e","system_id":"levelo_inurba_marseille","lat":43.33765,"lon":5.374672,"is_reserved":false,"is_disabled":false,"rental_uris":{"android":"levelo://app?vid=b7d3b81d-d85a-44b5-a0c7-8f9c9f74639e","ios":"levelo://app?vid=b7d3b81d-d85a-44b5-a0c7-8f9c9f74639e"},"vehicle_type_id":"4","last_reported":1706378857,"current_range_meters":30000,"station_id":"","pricing_plan_id":"free"},{"bike_id":"a9554a78-0f9d-4cdd-9ecd-598bb2d54931","system_id":"levelo_inurba_marseille","lat":43.337644,"lon":5.374793,"is_reserved":false,"is_disabled":false,"rental_uris":{"android":"levelo://app?vid=a9554a78-0f9d-4cdd-9ecd-598bb2d54931","ios":"levelo://app?vid=a9554a78-0f9d-4cdd-9ecd-598bb2d54931"},"vehicle_type_id":"4","last_reported":1706378857,"current_range_meters":30800,"station_id":"","pricing_plan_id":"free"},{"bike_id":"eaeff2f9-be33-4cbc-b315-c230be10dd9b","system_id":"levelo_inurba_marseille","lat":43.33766,"lon":5.37495,"is_reserved":false,"is_disabled":false,"rental_uris":{"android":"levelo://app?vid=eaeff2f9-be33-4cbc-b315-c230be10dd9b","ios":"levelo://app?vid=eaeff2f9-be33-4cbc-b315-c230be10dd9b"},"vehicle_type_id":"4","last_reported":1706378857,"current_range_meters":9600,"station_id":"","pricing_plan_id":"free"},{"bike_id":"bd7c49e0-243f-4049-bc25-2de8f060bb29","system_id":"levelo_inurba_marseille","lat":43.337708,"lon":5.374883,"is_reserved":false,"is_disabled":false,"rental_uris":{"android":"levelo://app?vid=bd7c49e0-243f-4049-bc25-2de8f060bb29","ios":"levelo://app?vid=bd7c49e0-243f-4049-bc25-2de8f060bb29"},"vehicle_type_id":"4","last_reported":1706378857,"current_range_meters":24000,"station_id":"","pricing_plan_id":"free"},{"bike_id":"2645bf1b-208e-45d2-b086-1fd929455296","system_id":"levelo_inurba_marseille","lat":43.287185,"lon":5.379373,"is_reserved":false,"is_disabled":false,"rental_uris":{"android":"levelo://app?vid=2645bf1b-208e-45d2-b086-1fd929455296","ios":"levelo://app?vid=2645bf1b-208e-45d2-b086-1fd929455296"},"vehicle_type_id":"4","last_reported":1706378857,"current_range_meters":12000,"station_id":"ce4bh9p2rcd13ifvqec0","pricing_plan_id":"free"},{"bike_id":"aa472d19-9855-4a69-abf6-9a907faff37f","system_id":"levelo_inurba_marseille","lat":43.286961,"lon":5.373785,"is_reserved":false,"is_disabled":false,"rental_uris":{"android":"levelo://app?vid=aa472d19-9855-4a69-abf6-9a907faff37f","ios":"levelo://app?vid=aa472d19-9855-4a69-abf6-9a907faff37f"},"vehicle_type_id":"4","last_reported":1706378857,"current_range_meters":5200,"station_id":"ce4bh3p2rcd13ifvqdq0","pricing_plan_id":"free"},{"bike_id":"44f9a9d4-d222-4090-913d-8006bd83c701","system_id":"levelo_inurba_marseille","lat":43.298681,"lon":5.397225,"is_reserved":false,"is_disabled":false,"rental_uris":{"android":"levelo://app?vid=44f9a9d4-d222-4090-913d-8006bd83c701","ios":"levelo://app?vid=44f9a9d4-d222-4090-913d-8006bd83c701"},"vehicle_type_id":"4","last_reported":1706378857,"current_range_meters":12400,"station_id":"ce4bh0h2rcd13ifvqd50","pricing_plan_id":"free"},{"bike_id":"f39a803f-3bc0-4752-bdf9-cd98712ec6fb","system_id":"levelo_inurba_marseille","lat":43.286593,"lon":5.363346,"is_reserved":false,"is_disabled":false,"rental_uris":{"android":"levelo://app?vid=f39a803f-3bc0-4752-bdf9-cd98712ec6fb","ios":"levelo://app?vid=f39a803f-3bc0-4752-bdf9-cd98712ec6fb"},"vehicle_type_id":"4","last_reported":1706378857,"current_range_meters":15200,"station_id":"ce4bhah2rcd13ifvqej0","pricing_plan_id":"free"},{"bike_id":"c742841b-71dc-4b33-87fe-3539994629f2","system_id":"levelo_inurba_marseille","lat":43.298681,"lon":5.397225,"is_reserved":false,"is_disabled":false,"rental_uris":{"android":"levelo://app?vid=c742841b-71dc-4b33-87fe-3539994629f2","ios":"levelo://app?vid=c742841b-71dc-4b33-87fe-3539994629f2"},"vehicle_type_id":"4","last_reported":1706378857,"current_range_meters":5200,"station_id":"ce4bh0h2rcd13ifvqd50","pricing_plan_id":"free"},{"bike_id":"4db8d66a-b115-4fe5-98dc-03a0d52a0a5c","system_id":"levelo_inurba_marseille","lat":43.29538,"lon":5.39395,"is_reserved":false,"is_disabled":false,"rental_uris":{"android":"levelo://app?vid=4db8d66a-b115-4fe5-98dc-03a0d52a0a5c","ios":"levelo://app?vid=4db8d66a-b115-4fe5-98dc-03a0d52a0a5c"},"vehicle_type_id":"4","last_reported":1706378857,"current_range_meters":9600,"station_id":"ce4bh292rcd13ifvqdf0","pricing_plan_id":"free"},{"bike_id":"278e5034-a89d-40ad-a898-19f6e79228d6","system_id":"levelo_inurba_marseille","lat":43.298681,"lon":5.397225,"is_reserved":false,"is_disabled":false,"rental_uris":{"android":"levelo://app?vid=278e5034-a89d-40ad-a898-19f6e79228d6","ios":"levelo://app?vid=278e5034-a89d-40ad-a898-19f6e79228d6"},"vehicle_type_id":"4","last_reported":1706378857,"current_range_meters":25600,"station_id":"ce4bh0h2rcd13ifvqd50","pricing_plan_id":"free"},{"bike_id":"770cb964-c3ef-4f07-84eb-0710e046d34c","system_id":"levelo_inurba_marseille","lat":43.295075,"lon":5.394045,"is_reserved":false,"is_disabled":false,"rental_uris":{"android":"levelo://app?vid=770cb964-c3ef-4f07-84eb-0710e046d34c","ios":"levelo://app?vid=770cb964-c3ef-4f07-84eb-0710e046d34c"},"vehicle_type_id":"4","last_reported":1706378857,"current_range_meters":4400,"station_id":"ce4bh292rcd13ifvqdf0","pricing_plan_id":"free"},{"bike_id":"ef639c82-ede8-4f30-82fb-073a1cc76498","system_id":"levelo_inurba_marseille","lat":43.289307,"lon":5.38406,"is_reserved":false,"is_disabled":false,"rental_uris":{"android":"levelo://app?vid=ef639c82-ede8-4f30-82fb-073a1cc76498","ios":"levelo://app?vid=ef639c82-ede8-4f30-82fb-073a1cc76498"},"vehicle_type_id":"4","last_reported":1706378857,"current_range_meters":17200,"station_id":"ce4bh612rcd13ifvqe6g","pricing_plan_id":"free"},{"bike_id":"e5e50965-e3ae-44e1-a2f4-759c36a557fd","system_id":"levelo_inurba_marseille","lat":43.302759,"lon":5.400793,"is_reserved":false,"is_disabled":false,"rental_uris":{"android":"levelo://app?vid=e5e50965-e3ae-44e1-a2f4-759c36a557fd","ios":"levelo://app?vid=e5e50965-e3ae-44e1-a2f4-759c36a557fd"},"vehicle_type_id":"4","last_reported":1706378857,"current_range_meters":0,"station_id":"ce4bgvh2rcd13ifvqcs0","pricing_plan_id":"free"},{"bike_id":"20dd9e25-504b-4c77-b9fb-32e66f4cb464","system_id":"levelo_inurba_marseille","lat":43.290345,"lon":5.38646,"is_reserved":false,"is_disabled":false,"rental_uris":{"android":"levelo://app?vid=20dd9e25-504b-4c77-b9fb-32e66f4cb464","ios":"levelo://app?vid=20dd9e25-504b-4c77-b9fb-32e66f4cb464"},"vehicle_type_id":"4","last_reported":1706378857,"current_range_meters":800,"station_id":"ce4bh4p2rcd13ifvqe0g","pricing_plan_id":"free"},{"bike_id":"cbfe9ac0-291a-4bce-8066-79d017e9de20","system_id":"levelo_inurba_marseille","lat":43.29029,"lon":5.38642,"is_reserved":false,"is_disabled":false,"rental_uris":{"android":"levelo://app?vid=cbfe9ac0-291a-4bce-8066-79d017e9de20","ios":"levelo://app?vid=cbfe9ac0-291a-4bce-8066-79d017e9de20"},"vehicle_type_id":"4","last_reported":1706378857,"current_range_meters":5200,"station_id":"ce4bh4p2rcd13ifvqe0g","pricing_plan_id":"free"},{"bike_id":"7cdf7104-5a33-4e06-a795-e6aa86f77f29","system_id":"levelo_inurba_marseille","lat":43.290267,"lon":5.38637,"is_reserved":false,"is_disabled":false,"rental_uris":{"android":"levelo://app?vid=7cdf7104-5a33-4e06-a795-e6aa86f77f29","ios":"levelo://app?vid=7cdf7104-5a33-4e06-a795-e6aa86f77f29"},"vehicle_type_id":"4","last_reported":1706378857,"current_range_meters":0,"station_id":"ce4bh4p2rcd13ifvqe0g","pricing_plan_id":"free"},{"bike_id":"1b1f88f4-df68-4def-ac35-d4f7f6c8c955","system_id":"levelo_inurba_marseille","lat":43.29032,"lon":5.38651,"is_reserved":false,"is_disabled":false,"rental_uris":{"android":"levelo://app?vid=1b1f88f4-df68-4def-ac35-d4f7f6c8c955","ios":"levelo://app?vid=1b1f88f4-df68-4def-ac35-d4f7f6c8c955"},"vehicle_type_id":"4","last_reported":1706378857,"current_range_meters":0,"station_id":"ce4bh4p2rcd13ifvqe0g","pricing_plan_id":"free"},{"bike_id":"8489d883-4b49-4eb0-a3bc-4a99eea3bf2d","system_id":"levelo_inurba_marseille","lat":43.289307,"lon":5.38406,"is_reserved":false,"is_disabled":false,"rental_uris":{"android":"levelo://app?vid=8489d883-4b49-4eb0-a3bc-4a99eea3bf2d","ios":"levelo://app?vid=8489d883-4b49-4eb0-a3bc-4a99eea3bf2d"},"vehicle_type_id":"4","last_reported":1706378857,"current_range_meters":9200,"station_id":"ce4bh612rcd13ifvqe6g","pricing_plan_id":"free"},{"bike_id":"90590d8f-529e-4176-98e7-6b14b92abfac","system_id":"levelo_inurba_marseille","lat":43.290307,"lon":5.386523,"is_reserved":false,"is_disabled":false,"rental_uris":{"android":"levelo://app?vid=90590d8f-529e-4176-98e7-6b14b92abfac","ios":"levelo://app?vid=90590d8f-529e-4176-98e7-6b14b92abfac"},"vehicle_type_id":"4","last_reported":1706378857,"current_range_meters":15600,"station_id":"ce4bh4p2rcd13ifvqe0g","pricing_plan_id":"free"},{"bike_id":"8acca1da-507f-4418-9c8e-cab18e11c569","system_id":"levelo_inurba_marseille","lat":43.290253,"lon":5.386417,"is_reserved":false,"is_disabled":false,"rental_uris":{"android":"levelo://app?vid=8acca1da-507f-4418-9c8e-cab18e11c569","ios":"levelo://app?vid=8acca1da-507f-4418-9c8e-cab18e11c569"},"vehicle_type_id":"4","last_reported":1706378857,"current_range_meters":1600,"station_id":"ce4bh4p2rcd13ifvqe0g","pricing_plan_id":"free"},{"bike_id":"183bb1c1-398f-466c-b05d-327ac4efc436","system_id":"levelo_inurba_marseille","lat":43.302511,"lon":5.400653,"is_reserved":false,"is_disabled":false,"rental_uris":{"android":"levelo://app?vid=183bb1c1-398f-466c-b05d-327ac4efc436","ios":"levelo://app?vid=183bb1c1-398f-466c-b05d-327ac4efc436"},"vehicle_type_id":"4","last_reported":1706378857,"current_range_meters":14000,"station_id":"ce4bgth2rcd13ifvqch0","pricing_plan_id":"free"},{"bike_id":"c4da0492-ef73-4f4b-ae50-b710b43914c3","system_id":"levelo_inurba_marseille","lat":43.290336,"lon":5.386425,"is_reserved":false,"is_disabled":false,"rental_uris":{"android":"levelo://app?vid=c4da0492-ef73-4f4b-ae50-b710b43914c3","ios":"levelo://app?vid=c4da0492-ef73-4f4b-ae50-b710b43914c3"},"vehicle_type_id":"4","last_reported":1706378857,"current_range_meters":7200,"station_id":"ce4bh4p2rcd13ifvqe0g","pricing_plan_id":"free"},{"bike_id":"9ca77934-8be9-4afb-b860-7294569cf8d4","system_id":"levelo_inurba_marseille","lat":43.290336,"lon":5.386425,"is_reserved":false,"is_disabled":false,"rental_uris":{"android":"levelo://app?vid=9ca77934-8be9-4afb-b860-7294569cf8d4","ios":"levelo://app?vid=9ca77934-8be9-4afb-b860-7294569cf8d4"},"vehicle_type_id":"4","last_reported":1706378857,"current_range_meters":18000,"station_id":"ce4bh4p2rcd13ifvqe0g","pricing_plan_id":"free"},{"bike_id":"b9e308fd-dc66-4fd0-ac97-7cfbd9c777af","system_id":"levelo_inurba_marseille","lat":43.29016,"lon":5.38653,"is_reserved":false,"is_disabled":false,"rental_uris":{"android":"levelo://app?vid=b9e308fd-dc66-4fd0-ac97-7cfbd9c777af","ios":"levelo://app?vid=b9e308fd-dc66-4fd0-ac97-7cfbd9c777af"},"vehicle_type_id":"4","last_reported":1706378857,"current_range_meters":400,"station_id":"ce4bh4p2rcd13ifvqe0g","pricing_plan_id":"free"},{"bike_id":"d14eb0c9-239d-4030-8163-38809f7a3453","system_id":"levelo_inurba_marseille","lat":43.286039,"lon":5.370679,"is_reserved":false,"is_disabled":false,"rental_uris":{"android":"levelo://app?vid=d14eb0c9-239d-4030-8163-38809f7a3453","ios":"levelo://app?vid=d14eb0c9-239d-4030-8163-38809f7a3453"},"vehicle_type_id":"4","last_reported":1706378857,"current_range_meters":12000,"station_id":"ce4bht12rcd13ifvqi60","pricing_plan_id":"free"},{"bike_id":"ebe0d286-ba44-4432-9ac1-fa47f20452fc","system_id":"levelo_inurba_marseille","lat":43.286039,"lon":5.370679,"is_reserved":false,"is_disabled":false,"rental_uris":{"android":"levelo://app?vid=ebe0d286-ba44-4432-9ac1-fa47f20452fc","ios":"levelo://app?vid=ebe0d286-ba44-4432-9ac1-fa47f20452fc"},"vehicle_type_id":"4","last_reported":1706378857,"current_range_meters":5600,"station_id":"ce4bht12rcd13ifvqi60","pricing_plan_id":"free"},{"bike_id":"3661d287-6810-42a6-937e-fa80876a9493","system_id":"levelo_inurba_marseille","lat":43.28608,"lon":5.37071,"is_reserved":false,"is_disabled":false,"rental_uris":{"android":"levelo://app?vid=3661d287-6810-42a6-937e-fa80876a9493","ios":"levelo://app?vid=3661d287-6810-42a6-937e-fa80876a9493"},"vehicle_type_id":"4","last_reported":1706378857,"current_range_meters":0,"station_id":"","pricing_plan_id":"free"},{"bike_id":"2fe24097-b1c2-4583-ba1f-cf8501171a4c","system_id":"levelo_inurba_marseille","lat":43.338998,"lon":5.378057,"is_reserved":false,"is_disabled":false,"rental_uris":{"android":"levelo://app?vid=2fe24097-b1c2-4583-ba1f-cf8501171a4c","ios":"levelo://app?vid=2fe24097-b1c2-4583-ba1f-cf8501171a4c"},"vehicle_type_id":"4","last_reported":1706378857,"current_range_meters":15600,"station_id":"","pricing_plan_id":"free"},{"bike_id":"308bdd86-581b-49e3-b342-ac43255ea8d7","system_id":"levelo_inurba_marseille","lat":43.286631,"lon":5.35156,"is_reserved":false,"is_disabled":false,"rental_uris":{"android":"levelo://app?vid=308bdd86-581b-49e3-b342-ac43255ea8d7","ios":"levelo://app?vid=308bdd86-581b-49e3-b342-ac43255ea8d7"},"vehicle_type_id":"4","last_reported":1706378857,"current_range_meters":16000,"station_id":"","pricing_plan_id":"free"},{"bike_id":"2108e2fe-d57a-44d3-9d9e-194cf6c0a069","system_id":"levelo_inurba_marseille","lat":43.284612,"lon":5.358875,"is_reserved":false,"is_disabled":false,"rental_uris":{"android":"levelo://app?vid=2108e2fe-d57a-44d3-9d9e-194cf6c0a069","ios":"levelo://app?vid=2108e2fe-d57a-44d3-9d9e-194cf6c0a069"},"vehicle_type_id":"4","last_reported":1706378857,"current_range_meters":400,"station_id":"ce4bhah2rcd13ifvqei0","pricing_plan_id":"free"},{"bike_id":"9159d5da-af53-4bb0-bcc9-88eed2a1db5d","system_id":"levelo_inurba_marseille","lat":43.284495,"lon":5.359085,"is_reserved":false,"is_disabled":false,"rental_uris":{"android":"levelo://app?vid=9159d5da-af53-4bb0-bcc9-88eed2a1db5d","ios":"levelo://app?vid=9159d5da-af53-4bb0-bcc9-88eed2a1db5d"},"vehicle_type_id":"4","last_reported":1706378857,"current_range_meters":0,"station_id":"ce4bhah2rcd13ifvqei0","pricing_plan_id":"free"},{"bike_id":"c315ccf5-e675-4462-bcc2-fb16d77d90e2","system_id":"levelo_inurba_marseille","lat":43.28614,"lon":5.35099,"is_reserved":false,"is_disabled":false,"rental_uris":{"android":"levelo://app?vid=c315ccf5-e675-4462-bcc2-fb16d77d90e2","ios":"levelo://app?vid=c315ccf5-e675-4462-bcc2-fb16d77d90e2"},"vehicle_type_id":"4","last_reported":1706378857,"current_range_meters":0,"station_id":"ce4bhch2rcd13ifvqeug","pricing_plan_id":"free"},{"bike_id":"4fe0ed41-c883-477e-b242-04f5dd94bd36","system_id":"levelo_inurba_marseille","lat":43.283998,"lon":5.375062,"is_reserved":false,"is_disabled":false,"rental_uris":{"android":"levelo://app?vid=4fe0ed41-c883-477e-b242-04f5dd94bd36","ios":"levelo://app?vid=4fe0ed41-c883-477e-b242-04f5dd94bd36"},"vehicle_type_id":"4","last_reported":1706378857,"current_range_meters":10400,"station_id":"ce4bh412rcd13ifvqds0","pricing_plan_id":"free"},{"bike_id":"1d4e71b7-244c-4e92-9005-44f1ae742810","system_id":"levelo_inurba_marseille","lat":43.283998,"lon":5.375062,"is_reserved":false,"is_disabled":false,"rental_uris":{"android":"levelo://app?vid=1d4e71b7-244c-4e92-9005-44f1ae742810","ios":"levelo://app?vid=1d4e71b7-244c-4e92-9005-44f1ae742810"},"vehicle_type_id":"4","last_reported":1706378857,"current_range_meters":23200,"station_id":"ce4bh412rcd13ifvqds0","pricing_plan_id":"free"},{"bike_id":"d3b2a64d-598c-4253-97dc-5d0725457dfd","system_id":"levelo_inurba_marseille","lat":43.295713,"lon":5.399639,"is_reserved":false,"is_disabled":false,"rental_uris":{"android":"levelo://app?vid=d3b2a64d-598c-4253-97dc-5d0725457dfd","ios":"levelo://app?vid=d3b2a64d-598c-4253-97dc-5d0725457dfd"},"vehicle_type_id":"4","last_reported":1706378857,"current_range_meters":6800,"station_id":"ce4bh312rcd13ifvqdj0","pricing_plan_id":"free"},{"bike_id":"3da3e4e8-ef9b-4aaa-bd33-c9998a3b272e","system_id":"levelo_inurba_marseille","lat":43.284077,"lon":5.375243,"is_reserved":false,"is_disabled":false,"rental_uris":{"android":"levelo://app?vid=3da3e4e8-ef9b-4aaa-bd33-c9998a3b272e","ios":"levelo://app?vid=3da3e4e8-ef9b-4aaa-bd33-c9998a3b272e"},"vehicle_type_id":"4","last_reported":1706378857,"current_range_meters":5200,"station_id":"ce4bh412rcd13ifvqds0","pricing_plan_id":"free"},{"bike_id":"f52bddf9-22b8-4259-b969-0d33cd68b544","system_id":"levelo_inurba_marseille","lat":43.295713,"lon":5.399639,"is_reserved":false,"is_disabled":false,"rental_uris":{"android":"levelo://app?vid=f52bddf9-22b8-4259-b969-0d33cd68b544","ios":"levelo://app?vid=f52bddf9-22b8-4259-b969-0d33cd68b544"},"vehicle_type_id":"4","last_reported":1706378857,"current_range_meters":800,"station_id":"ce4bh312rcd13ifvqdj0","pricing_plan_id":"free"},{"bike_id":"44b4a830-edaf-40f4-9e0e-ca3a29367f80","system_id":"levelo_inurba_marseille","lat":43.295713,"lon":5.399639,"is_reserved":false,"is_disabled":false,"rental_uris":{"android":"levelo://app?vid=44b4a830-edaf-40f4-9e0e-ca3a29367f80","ios":"levelo://app?vid=44b4a830-edaf-40f4-9e0e-ca3a29367f80"},"vehicle_type_id":"4","last_reported":1706378857,"current_range_meters":25200,"station_id":"ce4bh312rcd13ifvqdj0","pricing_plan_id":"free"},{"bike_id":"409119b1-1094-45de-ab2a-d4d1ea404963","system_id":"levelo_inurba_marseille","lat":43.295713,"lon":5.399639,"is_reserved":false,"is_disabled":false,"rental_uris":{"android":"levelo://app?vid=409119b1-1094-45de-ab2a-d4d1ea404963","ios":"levelo://app?vid=409119b1-1094-45de-ab2a-d4d1ea404963"},"vehicle_type_id":"4","last_reported":1706378857,"current_range_meters":12800,"station_id":"ce4bh312rcd13ifvqdj0","pricing_plan_id":"free"},{"bike_id":"c88d15cc-a51a-4a8a-bdff-a30313361549","system_id":"levelo_inurba_marseille","lat":43.283998,"lon":5.375062,"is_reserved":false,"is_disabled":false,"rental_uris":{"android":"levelo://app?vid=c88d15cc-a51a-4a8a-bdff-a30313361549","ios":"levelo://app?vid=c88d15cc-a51a-4a8a-bdff-a30313361549"},"vehicle_type_id":"4","last_reported":1706378857,"current_range_meters":8800,"station_id":"ce4bh412rcd13ifvqds0","pricing_plan_id":"free"},{"bike_id":"3106cf78-1a60-4fe1-a43f-6460c04d220a","system_id":"levelo_inurba_marseille","lat":43.286595,"lon":5.386795,"is_reserved":false,"is_disabled":false,"rental_uris":{"android":"levelo://app?vid=3106cf78-1a60-4fe1-a43f-6460c04d220a","ios":"levelo://app?vid=3106cf78-1a60-4fe1-a43f-6460c04d220a"},"vehicle_type_id":"4","last_reported":1706378857,"current_range_meters":4800,"station_id":"ce4bh492rcd13ifvqdug","pricing_plan_id":"free"},{"bike_id":"959b3f4b-e02b-40cb-a46d-809ec97bfa0f","system_id":"levelo_inurba_marseille","lat":43.286595,"lon":5.386795,"is_reserved":false,"is_disabled":false,"rental_uris":{"android":"levelo://app?vid=959b3f4b-e02b-40cb-a46d-809ec97bfa0f","ios":"levelo://app?vid=959b3f4b-e02b-40cb-a46d-809ec97bfa0f"},"vehicle_type_id":"4","last_reported":1706378857,"current_range_meters":16800,"station_id":"ce4bh492rcd13ifvqdug","pricing_plan_id":"free"},{"bike_id":"4bc1a151-1185-4e54-8fba-1ab565509b3e","system_id":"levelo_inurba_marseille","lat":43.286595,"lon":5.386795,"is_reserved":false,"is_disabled":false,"rental_uris":{"android":"levelo://app?vid=4bc1a151-1185-4e54-8fba-1ab565509b3e","ios":"levelo://app?vid=4bc1a151-1185-4e54-8fba-1ab565509b3e"},"vehicle_type_id":"4","last_reported":1706378857,"current_range_meters":22000,"station_id":"ce4bh492rcd13ifvqdug","pricing_plan_id":"free"},{"bike_id":"f4e5588c-7a96-4004-b6bc-4025bfa8cc77","system_id":"levelo_inurba_marseille","lat":43.286595,"lon":5.386795,"is_reserved":false,"is_disabled":false,"rental_uris":{"android":"levelo://app?vid=f4e5588c-7a96-4004-b6bc-4025bfa8cc77","ios":"levelo://app?vid=f4e5588c-7a96-4004-b6bc-4025bfa8cc77"},"vehicle_type_id":"4","last_reported":1706378857,"current_range_meters":400,"station_id":"ce4bh492rcd13ifvqdug","pricing_plan_id":"free"},{"bike_id":"a8306ee8-436d-44d2-994e-58be89bf3eb0","system_id":"levelo_inurba_marseille","lat":43.288497,"lon":5.393089,"is_reserved":false,"is_disabled":false,"rental_uris":{"android":"levelo://app?vid=a8306ee8-436d-44d2-994e-58be89bf3eb0","ios":"levelo://app?vid=a8306ee8-436d-44d2-994e-58be89bf3eb0"},"vehicle_type_id":"4","last_reported":1706378857,"current_range_meters":1200,"station_id":"ce4bh2p2rcd13ifvqdi0","pricing_plan_id":"free"},{"bike_id":"bab5eaab-4e16-4abc-8fb3-38afff0196f3","system_id":"levelo_inurba_marseille","lat":43.298,"lon":5.40412,"is_reserved":false,"is_disabled":false,"rental_uris":{"android":"levelo://app?vid=bab5eaab-4e16-4abc-8fb3-38afff0196f3","ios":"levelo://app?vid=bab5eaab-4e16-4abc-8fb3-38afff0196f3"},"vehicle_type_id":"4","last_reported":1706378857,"current_range_meters":2000,"station_id":"ce4bh112rcd13ifvqd90","pricing_plan_id":"free"},{"bike_id":"df28d080-32fb-468e-baea-300600c40c2d","system_id":"levelo_inurba_marseille","lat":43.288501,"lon":5.393087,"is_reserved":false,"is_disabled":false,"rental_uris":{"android":"levelo://app?vid=df28d080-32fb-468e-baea-300600c40c2d","ios":"levelo://app?vid=df28d080-32fb-468e-baea-300600c40c2d"},"vehicle_type_id":"4","last_reported":1706378857,"current_range_meters":4400,"station_id":"ce4bh2p2rcd13ifvqdi0","pricing_plan_id":"free"},{"bike_id":"b41bcd76-cb12-4b33-95cd-9444d1e23578","system_id":"levelo_inurba_marseille","lat":43.293556,"lon":5.401561,"is_reserved":false,"is_disabled":false,"rental_uris":{"android":"levelo://app?vid=b41bcd76-cb12-4b33-95cd-9444d1e23578","ios":"levelo://app?vid=b41bcd76-cb12-4b33-95cd-9444d1e23578"},"vehicle_type_id":"4","last_reported":1706378857,"current_range_meters":9200,"station_id":"","pricing_plan_id":"free"},{"bike_id":"efa1d13e-6d36-4e9e-bab8-0899fe23e0dc","system_id":"levelo_inurba_marseille","lat":43.289363,"lon":5.396322,"is_reserved":false,"is_disabled":false,"rental_uris":{"android":"levelo://app?vid=efa1d13e-6d36-4e9e-bab8-0899fe23e0dc","ios":"levelo://app?vid=efa1d13e-6d36-4e9e-bab8-0899fe23e0dc"},"vehicle_type_id":"4","last_reported":1706378857,"current_range_meters":0,"station_id":"ce4bh3h2rcd13ifvqdn0","pricing_plan_id":"free"},{"bike_id":"cd56f1fb-3152-4e89-b2df-1ee7f2759c23","system_id":"levelo_inurba_marseille","lat":43.283502,"lon":5.386471,"is_reserved":false,"is_disabled":false,"rental_uris":{"android":"levelo://app?vid=cd56f1fb-3152-4e89-b2df-1ee7f2759c23","ios":"levelo://app?vid=cd56f1fb-3152-4e89-b2df-1ee7f2759c23"},"vehicle_type_id":"4","last_reported":1706378857,"current_range_meters":0,"station_id":"ce4bh492rcd13ifvqdvg","pricing_plan_id":"free"},{"bike_id":"dd06adcf-4ad4-4dd2-a86f-8b012ffcfc52","system_id":"levelo_inurba_marseille","lat":43.28369,"lon":5.3863,"is_reserved":false,"is_disabled":false,"rental_uris":{"android":"levelo://app?vid=dd06adcf-4ad4-4dd2-a86f-8b012ffcfc52","ios":"levelo://app?vid=dd06adcf-4ad4-4dd2-a86f-8b012ffcfc52"},"vehicle_type_id":"4","last_reported":1706378857,"current_range_meters":0,"station_id":"ce4bh492rcd13ifvqdvg","pricing_plan_id":"free"},{"bike_id":"0f88cf23-113a-489a-ba66-1bc22b58ff32","system_id":"levelo_inurba_marseille","lat":43.273125,"lon":5.390731,"is_reserved":false,"is_disabled":false,"rental_uris":{"android":"levelo://app?vid=0f88cf23-113a-489a-ba66-1bc22b58ff32","ios":"levelo://app?vid=0f88cf23-113a-489a-ba66-1bc22b58ff32"},"vehicle_type_id":"4","last_reported":1706378857,"current_range_meters":28400,"station_id":"ce4bhgp2rcd13ifvqfe0","pricing_plan_id":"free"},{"bike_id":"fff2c7f7-798c-4e5e-bf4b-7e664dca0c52","system_id":"levelo_inurba_marseille","lat":43.28039,"lon":5.369297,"is_reserved":false,"is_disabled":false,"rental_uris":{"android":"levelo://app?vid=fff2c7f7-798c-4e5e-bf4b-7e664dca0c52","ios":"levelo://app?vid=fff2c7f7-798c-4e5e-bf4b-7e664dca0c52"},"vehicle_type_id":"4","last_reported":1706378857,"current_range_meters":6000,"station_id":"ce4bha12rcd13ifvqef0","pricing_plan_id":"free"},{"bike_id":"f0f01427-e8c3-4670-a7fd-6f3590bd4f0d","system_id":"levelo_inurba_marseille","lat":43.296263,"lon":5.40601,"is_reserved":false,"is_disabled":false,"rental_uris":{"android":"levelo://app?vid=f0f01427-e8c3-4670-a7fd-6f3590bd4f0d","ios":"levelo://app?vid=f0f01427-e8c3-4670-a7fd-6f3590bd4f0d"},"vehicle_type_id":"4","last_reported":1706378857,"current_range_meters":0,"station_id":"ce4bh0h2rcd13ifvqd60","pricing_plan_id":"free"},{"bike_id":"27f0713b-6745-465f-86df-8dbdb29fd0ff","system_id":"levelo_inurba_marseille","lat":43.281044,"lon":5.378308,"is_reserved":false,"is_disabled":false,"rental_uris":{"android":"levelo://app?vid=27f0713b-6745-465f-86df-8dbdb29fd0ff","ios":"levelo://app?vid=27f0713b-6745-465f-86df-8dbdb29fd0ff"},"vehicle_type_id":"4","last_reported":1706378857,"current_range_meters":0,"station_id":"ce4bha12rcd13ifvqee0","pricing_plan_id":"free"},{"bike_id":"17255f4d-3cdd-4882-8ea7-86d80cf5a30e","system_id":"levelo_inurba_marseille","lat":43.281044,"lon":5.378308,"is_reserved":false,"is_disabled":false,"rental_uris":{"android":"levelo://app?vid=17255f4d-3cdd-4882-8ea7-86d80cf5a30e","ios":"levelo://app?vid=17255f4d-3cdd-4882-8ea7-86d80cf5a30e"},"vehicle_type_id":"4","last_reported":1706378857,"current_range_meters":4800,"station_id":"ce4bha12rcd13ifvqee0","pricing_plan_id":"free"},{"bike_id":"302b6d3f-0c2b-4e4e-8312-2ab0c97f85aa","system_id":"levelo_inurba_marseille","lat":43.281044,"lon":5.378308,"is_reserved":false,"is_disabled":false,"rental_uris":{"android":"levelo://app?vid=302b6d3f-0c2b-4e4e-8312-2ab0c97f85aa","ios":"levelo://app?vid=302b6d3f-0c2b-4e4e-8312-2ab0c97f85aa"},"vehicle_type_id":"4","last_reported":1706378857,"current_range_meters":3200,"station_id":"ce4bha12rcd13ifvqee0","pricing_plan_id":"free"},{"bike_id":"c311ea8c-5511-4c27-bfb7-8fd64310a88e","system_id":"levelo_inurba_marseille","lat":43.28005,"lon":5.36529,"is_reserved":false,"is_disabled":false,"rental_uris":{"android":"levelo://app?vid=c311ea8c-5511-4c27-bfb7-8fd64310a88e","ios":"levelo://app?vid=c311ea8c-5511-4c27-bfb7-8fd64310a88e"},"vehicle_type_id":"4","last_reported":1706378857,"current_range_meters":26000,"station_id":"","pricing_plan_id":"free"},{"bike_id":"962e87cc-f9fb-4c5b-a560-6defe84ccffd","system_id":"levelo_inurba_marseille","lat":43.281044,"lon":5.378308,"is_reserved":false,"is_disabled":false,"rental_uris":{"android":"levelo://app?vid=962e87cc-f9fb-4c5b-a560-6defe84ccffd","ios":"levelo://app?vid=962e87cc-f9fb-4c5b-a560-6defe84ccffd"},"vehicle_type_id":"4","last_reported":1706378857,"current_range_meters":28000,"station_id":"ce4bha12rcd13ifvqee0","pricing_plan_id":"free"},{"bike_id":"3eac9d7d-e486-4e78-9507-c95f94f86f29","system_id":"levelo_inurba_marseille","lat":43.281044,"lon":5.378308,"is_reserved":false,"is_disabled":false,"rental_uris":{"android":"levelo://app?vid=3eac9d7d-e486-4e78-9507-c95f94f86f29","ios":"levelo://app?vid=3eac9d7d-e486-4e78-9507-c95f94f86f29"},"vehicle_type_id":"4","last_reported":1706378857,"current_range_meters":22000,"station_id":"ce4bha12rcd13ifvqee0","pricing_plan_id":"free"},{"bike_id":"73dc0484-7614-4ed3-b4d5-54c532dd07a4","system_id":"levelo_inurba_marseille","lat":43.281044,"lon":5.378308,"is_reserved":false,"is_disabled":false,"rental_uris":{"android":"levelo://app?vid=73dc0484-7614-4ed3-b4d5-54c532dd07a4","ios":"levelo://app?vid=73dc0484-7614-4ed3-b4d5-54c532dd07a4"},"vehicle_type_id":"4","last_reported":1706378857,"current_range_meters":26000,"station_id":"ce4bha12rcd13ifvqee0","pricing_plan_id":"free"},{"bike_id":"99a2abce-5aca-474a-8968-6f60b138b36d","system_id":"levelo_inurba_marseille","lat":43.284462,"lon":5.392121,"is_reserved":false,"is_disabled":false,"rental_uris":{"android":"levelo://app?vid=99a2abce-5aca-474a-8968-6f60b138b36d","ios":"levelo://app?vid=99a2abce-5aca-474a-8968-6f60b138b36d"},"vehicle_type_id":"4","last_reported":1706378857,"current_range_meters":26400,"station_id":"ce4bhoh2rcd13ifvqh5g","pricing_plan_id":"free"},{"bike_id":"0b06d2eb-4b86-4521-b262-b5461273decc","system_id":"levelo_inurba_marseille","lat":43.284462,"lon":5.392121,"is_reserved":false,"is_disabled":false,"rental_uris":{"android":"levelo://app?vid=0b06d2eb-4b86-4521-b262-b5461273decc","ios":"levelo://app?vid=0b06d2eb-4b86-4521-b262-b5461273decc"},"vehicle_type_id":"4","last_reported":1706378857,"current_range_meters":3600,"station_id":"ce4bhoh2rcd13ifvqh5g","pricing_plan_id":"free"},{"bike_id":"d7434667-32e0-445d-9602-a7fe4f7c9724","system_id":"levelo_inurba_marseille","lat":43.284462,"lon":5.392121,"is_reserved":false,"is_disabled":false,"rental_uris":{"android":"levelo://app?vid=d7434667-32e0-445d-9602-a7fe4f7c9724","ios":"levelo://app?vid=d7434667-32e0-445d-9602-a7fe4f7c9724"},"vehicle_type_id":"4","last_reported":1706378857,"current_range_meters":4400,"station_id":"ce4bhoh2rcd13ifvqh5g","pricing_plan_id":"free"},{"bike_id":"ebf2931b-4669-49d0-99b2-4576cb0cc483","system_id":"levelo_inurba_marseille","lat":43.284462,"lon":5.392121,"is_reserved":false,"is_disabled":false,"rental_uris":{"android":"levelo://app?vid=ebf2931b-4669-49d0-99b2-4576cb0cc483","ios":"levelo://app?vid=ebf2931b-4669-49d0-99b2-4576cb0cc483"},"vehicle_type_id":"4","last_reported":1706378857,"current_range_meters":10400,"station_id":"ce4bhoh2rcd13ifvqh5g","pricing_plan_id":"free"},{"bike_id":"046406e2-3124-4f65-a46c-e831ec439c33","system_id":"levelo_inurba_marseille","lat":43.326605,"lon":5.409903,"is_reserved":false,"is_disabled":false,"rental_uris":{"android":"levelo://app?vid=046406e2-3124-4f65-a46c-e831ec439c33","ios":"levelo://app?vid=046406e2-3124-4f65-a46c-e831ec439c33"},"vehicle_type_id":"4","last_reported":1706378857,"current_range_meters":0,"station_id":"ce4bhpp2rcd13ifvqhgg","pricing_plan_id":"free"},{"bike_id":"dc09cfb7-b131-44b6-aaa0-def5764bd23e","system_id":"levelo_inurba_marseille","lat":43.326605,"lon":5.409903,"is_reserved":false,"is_disabled":false,"rental_uris":{"android":"levelo://app?vid=dc09cfb7-b131-44b6-aaa0-def5764bd23e","ios":"levelo://app?vid=dc09cfb7-b131-44b6-aaa0-def5764bd23e"},"vehicle_type_id":"4","last_reported":1706378857,"current_range_meters":8000,"station_id":"ce4bhpp2rcd13ifvqhgg","pricing_plan_id":"free"},{"bike_id":"f0620f0a-ddb3-49ca-b122-7e513b811ebf","system_id":"levelo_inurba_marseille","lat":43.304188,"lon":5.412904,"is_reserved":false,"is_disabled":false,"rental_uris":{"android":"levelo://app?vid=f0620f0a-ddb3-49ca-b122-7e513b811ebf","ios":"levelo://app?vid=f0620f0a-ddb3-49ca-b122-7e513b811ebf"},"vehicle_type_id":"4","last_reported":1706378857,"current_range_meters":14800,"station_id":"ce4bhop2rcd13ifvqh8g","pricing_plan_id":"free"},{"bike_id":"7b2e6cc4-d84f-4dd1-98b9-fc9f8c3a9992","system_id":"levelo_inurba_marseille","lat":43.28287,"lon":5.3909,"is_reserved":false,"is_disabled":false,"rental_uris":{"android":"levelo://app?vid=7b2e6cc4-d84f-4dd1-98b9-fc9f8c3a9992","ios":"levelo://app?vid=7b2e6cc4-d84f-4dd1-98b9-fc9f8c3a9992"},"vehicle_type_id":"4","last_reported":1706378857,"current_range_meters":0,"station_id":"","pricing_plan_id":"free"},{"bike_id":"fcdb51fa-a39b-4ce4-9ac4-590c23449c10","system_id":"levelo_inurba_marseille","lat":43.27929,"lon":5.35348,"is_reserved":false,"is_disabled":false,"rental_uris":{"android":"levelo://app?vid=fcdb51fa-a39b-4ce4-9ac4-590c23449c10","ios":"levelo://app?vid=fcdb51fa-a39b-4ce4-9ac4-590c23449c10"},"vehicle_type_id":"4","last_reported":1706378857,"current_range_meters":28000,"station_id":"","pricing_plan_id":"free"},{"bike_id":"f737980c-2d5b-410e-9a9f-64e176cec7af","system_id":"levelo_inurba_marseille","lat":43.279087,"lon":5.380114,"is_reserved":false,"is_disabled":false,"rental_uris":{"android":"levelo://app?vid=f737980c-2d5b-410e-9a9f-64e176cec7af","ios":"levelo://app?vid=f737980c-2d5b-410e-9a9f-64e176cec7af"},"vehicle_type_id":"4","last_reported":1706378857,"current_range_meters":15600,"station_id":"ce4bhf92rcd13ifvqf50","pricing_plan_id":"free"},{"bike_id":"5b1122ee-d12d-469f-a406-8b8c6f704ee7","system_id":"levelo_inurba_marseille","lat":43.27903,"lon":5.38021,"is_reserved":false,"is_disabled":false,"rental_uris":{"android":"levelo://app?vid=5b1122ee-d12d-469f-a406-8b8c6f704ee7","ios":"levelo://app?vid=5b1122ee-d12d-469f-a406-8b8c6f704ee7"},"vehicle_type_id":"4","last_reported":1706378857,"current_range_meters":0,"station_id":"ce4bhf92rcd13ifvqf50","pricing_plan_id":"free"},{"bike_id":"217191c5-0c2a-4ed2-b492-241ff92db0f9","system_id":"levelo_inurba_marseille","lat":43.287154,"lon":5.399979,"is_reserved":false,"is_disabled":false,"rental_uris":{"android":"levelo://app?vid=217191c5-0c2a-4ed2-b492-241ff92db0f9","ios":"levelo://app?vid=217191c5-0c2a-4ed2-b492-241ff92db0f9"},"vehicle_type_id":"4","last_reported":1706378857,"current_range_meters":24800,"station_id":"ce4bho92rcd13ifvqh3g","pricing_plan_id":"free"},{"bike_id":"cfadd930-72d4-4fe2-ba9e-9403dc427384","system_id":"levelo_inurba_marseille","lat":43.287154,"lon":5.399979,"is_reserved":false,"is_disabled":false,"rental_uris":{"android":"levelo://app?vid=cfadd930-72d4-4fe2-ba9e-9403dc427384","ios":"levelo://app?vid=cfadd930-72d4-4fe2-ba9e-9403dc427384"},"vehicle_type_id":"4","last_reported":1706378857,"current_range_meters":27200,"station_id":"ce4bho92rcd13ifvqh3g","pricing_plan_id":"free"},{"bike_id":"722e2165-0e62-4f14-9454-9500daf6ff60","system_id":"levelo_inurba_marseille","lat":43.32053,"lon":5.41531,"is_reserved":false,"is_disabled":false,"rental_uris":{"android":"levelo://app?vid=722e2165-0e62-4f14-9454-9500daf6ff60","ios":"levelo://app?vid=722e2165-0e62-4f14-9454-9500daf6ff60"},"vehicle_type_id":"4","last_reported":1706378857,"current_range_meters":3200,"station_id":"ce4bhq92rcd13ifvqhkg","pricing_plan_id":"free"},{"bike_id":"f83a3a7e-1d78-42cc-a2d9-6a1634b4b2ae","system_id":"levelo_inurba_marseille","lat":43.320613,"lon":5.415329,"is_reserved":false,"is_disabled":false,"rental_uris":{"android":"levelo://app?vid=f83a3a7e-1d78-42cc-a2d9-6a1634b4b2ae","ios":"levelo://app?vid=f83a3a7e-1d78-42cc-a2d9-6a1634b4b2ae"},"vehicle_type_id":"4","last_reported":1706378857,"current_range_meters":31200,"station_id":"ce4bhq92rcd13ifvqhkg","pricing_plan_id":"free"},{"bike_id":"2973af37-eb47-4ea4-b919-cd38df4c8fdd","system_id":"levelo_inurba_marseille","lat":43.32059,"lon":5.41535,"is_reserved":false,"is_disabled":false,"rental_uris":{"android":"levelo://app?vid=2973af37-eb47-4ea4-b919-cd38df4c8fdd","ios":"levelo://app?vid=2973af37-eb47-4ea4-b919-cd38df4c8fdd"},"vehicle_type_id":"4","last_reported":1706378857,"current_range_meters":20400,"station_id":"ce4bhq92rcd13ifvqhkg","pricing_plan_id":"free"},{"bike_id":"ec389e75-8cea-4be6-8517-e15f0b47835c","system_id":"levelo_inurba_marseille","lat":43.3206,"lon":5.41541,"is_reserved":false,"is_disabled":false,"rental_uris":{"android":"levelo://app?vid=ec389e75-8cea-4be6-8517-e15f0b47835c","ios":"levelo://app?vid=ec389e75-8cea-4be6-8517-e15f0b47835c"},"vehicle_type_id":"4","last_reported":1706378857,"current_range_meters":24000,"station_id":"ce4bhq92rcd13ifvqhkg","pricing_plan_id":"free"},{"bike_id":"4977dd65-369e-417b-9c52-fe977a945b82","system_id":"levelo_inurba_marseille","lat":43.320045,"lon":5.415048,"is_reserved":false,"is_disabled":false,"rental_uris":{"android":"levelo://app?vid=4977dd65-369e-417b-9c52-fe977a945b82","ios":"levelo://app?vid=4977dd65-369e-417b-9c52-fe977a945b82"},"vehicle_type_id":"4","last_reported":1706378857,"current_range_meters":29200,"station_id":"ce4bhq92rcd13ifvqhkg","pricing_plan_id":"free"},{"bike_id":"fcf5ad55-9d29-48f4-b96b-b5827880831a","system_id":"levelo_inurba_marseille","lat":43.320465,"lon":5.415493,"is_reserved":false,"is_disabled":false,"rental_uris":{"android":"levelo://app?vid=fcf5ad55-9d29-48f4-b96b-b5827880831a","ios":"levelo://app?vid=fcf5ad55-9d29-48f4-b96b-b5827880831a"},"vehicle_type_id":"4","last_reported":1706378857,"current_range_meters":16800,"station_id":"","pricing_plan_id":"free"},{"bike_id":"09b6ee3e-51fd-4add-b1f5-fb3703f213ce","system_id":"levelo_inurba_marseille","lat":43.320652,"lon":5.415449,"is_reserved":false,"is_disabled":false,"rental_uris":{"android":"levelo://app?vid=09b6ee3e-51fd-4add-b1f5-fb3703f213ce","ios":"levelo://app?vid=09b6ee3e-51fd-4add-b1f5-fb3703f213ce"},"vehicle_type_id":"4","last_reported":1706378857,"current_range_meters":7600,"station_id":"ce4bhq92rcd13ifvqhkg","pricing_plan_id":"free"},{"bike_id":"91bfdb9a-828a-46dc-9608-0701ceb0523c","system_id":"levelo_inurba_marseille","lat":43.279742,"lon":5.38744,"is_reserved":false,"is_disabled":false,"rental_uris":{"android":"levelo://app?vid=91bfdb9a-828a-46dc-9608-0701ceb0523c","ios":"levelo://app?vid=91bfdb9a-828a-46dc-9608-0701ceb0523c"},"vehicle_type_id":"4","last_reported":1706378857,"current_range_meters":0,"station_id":"ce4bhg12rcd13ifvqf80","pricing_plan_id":"free"},{"bike_id":"d0e33b91-a1fc-4c6e-928a-1ff79b844f3e","system_id":"levelo_inurba_marseille","lat":43.32055,"lon":5.415745,"is_reserved":false,"is_disabled":false,"rental_uris":{"android":"levelo://app?vid=d0e33b91-a1fc-4c6e-928a-1ff79b844f3e","ios":"levelo://app?vid=d0e33b91-a1fc-4c6e-928a-1ff79b844f3e"},"vehicle_type_id":"4","last_reported":1706378857,"current_range_meters":27600,"station_id":"ce4bhq92rcd13ifvqhkg","pricing_plan_id":"free"},{"bike_id":"b846adf2-c256-4ab7-8035-87fd73a44868","system_id":"levelo_inurba_marseille","lat":43.276179,"lon":5.361009,"is_reserved":false,"is_disabled":false,"rental_uris":{"android":"levelo://app?vid=b846adf2-c256-4ab7-8035-87fd73a44868","ios":"levelo://app?vid=b846adf2-c256-4ab7-8035-87fd73a44868"},"vehicle_type_id":"4","last_reported":1706378857,"current_range_meters":6400,"station_id":"ce4bgj92rcd13ifvqbe0","pricing_plan_id":"free"},{"bike_id":"ccab2127-af99-4f25-be31-afdb9522d62e","system_id":"levelo_inurba_marseille","lat":43.292497,"lon":5.409155,"is_reserved":false,"is_disabled":false,"rental_uris":{"android":"levelo://app?vid=ccab2127-af99-4f25-be31-afdb9522d62e","ios":"levelo://app?vid=ccab2127-af99-4f25-be31-afdb9522d62e"},"vehicle_type_id":"4","last_reported":1706378857,"current_range_meters":24800,"station_id":"ce4bh192rcd13ifvqdc0","pricing_plan_id":"free"},{"bike_id":"427ab1a8-ef7b-40e6-9ef0-a21ee9a71fae","system_id":"levelo_inurba_marseille","lat":43.303837,"lon":5.418724,"is_reserved":false,"is_disabled":false,"rental_uris":{"android":"levelo://app?vid=427ab1a8-ef7b-40e6-9ef0-a21ee9a71fae","ios":"levelo://app?vid=427ab1a8-ef7b-40e6-9ef0-a21ee9a71fae"},"vehicle_type_id":"4","last_reported":1706378857,"current_range_meters":11200,"station_id":"ce4bhop2rcd13ifvqh7g","pricing_plan_id":"free"},{"bike_id":"055268c3-6471-4261-8b36-4db1441a842e","system_id":"levelo_inurba_marseille","lat":43.303837,"lon":5.418724,"is_reserved":false,"is_disabled":false,"rental_uris":{"android":"levelo://app?vid=055268c3-6471-4261-8b36-4db1441a842e","ios":"levelo://app?vid=055268c3-6471-4261-8b36-4db1441a842e"},"vehicle_type_id":"4","last_reported":1706378857,"current_range_meters":12000,"station_id":"ce4bhop2rcd13ifvqh7g","pricing_plan_id":"free"},{"bike_id":"6ec2399b-1a9c-469f-813d-ba33471cd113","system_id":"levelo_inurba_marseille","lat":43.303837,"lon":5.418724,"is_reserved":false,"is_disabled":false,"rental_uris":{"android":"levelo://app?vid=6ec2399b-1a9c-469f-813d-ba33471cd113","ios":"levelo://app?vid=6ec2399b-1a9c-469f-813d-ba33471cd113"},"vehicle_type_id":"4","last_reported":1706378857,"current_range_meters":800,"station_id":"ce4bhop2rcd13ifvqh7g","pricing_plan_id":"free"},{"bike_id":"7bce0d50-5ce8-467f-b678-6a598b57c3dc","system_id":"levelo_inurba_marseille","lat":43.278399,"lon":5.392139,"is_reserved":false,"is_disabled":false,"rental_uris":{"android":"levelo://app?vid=7bce0d50-5ce8-467f-b678-6a598b57c3dc","ios":"levelo://app?vid=7bce0d50-5ce8-467f-b678-6a598b57c3dc"},"vehicle_type_id":"4","last_reported":1706378857,"current_range_meters":800,"station_id":"ce4bhjp2rcd13ifvqga0","pricing_plan_id":"free"},{"bike_id":"a6ae2166-0c30-4de9-9466-e43310d1417c","system_id":"levelo_inurba_marseille","lat":43.278399,"lon":5.392139,"is_reserved":false,"is_disabled":false,"rental_uris":{"android":"levelo://app?vid=a6ae2166-0c30-4de9-9466-e43310d1417c","ios":"levelo://app?vid=a6ae2166-0c30-4de9-9466-e43310d1417c"},"vehicle_type_id":"4","last_reported":1706378857,"current_range_meters":6000,"station_id":"ce4bhjp2rcd13ifvqga0","pricing_plan_id":"free"},{"bike_id":"0839d5b6-0fc1-4e96-908a-760ce3495fe5","system_id":"levelo_inurba_marseille","lat":43.278401,"lon":5.392152,"is_reserved":false,"is_disabled":false,"rental_uris":{"android":"levelo://app?vid=0839d5b6-0fc1-4e96-908a-760ce3495fe5","ios":"levelo://app?vid=0839d5b6-0fc1-4e96-908a-760ce3495fe5"},"vehicle_type_id":"4","last_reported":1706378857,"current_range_meters":18000,"station_id":"ce4bhjp2rcd13ifvqga0","pricing_plan_id":"free"},{"bike_id":"6c258f2e-be32-4d86-a4f8-8d1e10dd028e","system_id":"levelo_inurba_marseille","lat":43.278399,"lon":5.392139,"is_reserved":false,"is_disabled":false,"rental_uris":{"android":"levelo://app?vid=6c258f2e-be32-4d86-a4f8-8d1e10dd028e","ios":"levelo://app?vid=6c258f2e-be32-4d86-a4f8-8d1e10dd028e"},"vehicle_type_id":"4","last_reported":1706378857,"current_range_meters":20400,"station_id":"ce4bhjp2rcd13ifvqga0","pricing_plan_id":"free"},{"bike_id":"3a62dd08-4bc1-4a20-adc8-d422b968856e","system_id":"levelo_inurba_marseille","lat":43.273613,"lon":5.362705,"is_reserved":false,"is_disabled":false,"rental_uris":{"android":"levelo://app?vid=3a62dd08-4bc1-4a20-adc8-d422b968856e","ios":"levelo://app?vid=3a62dd08-4bc1-4a20-adc8-d422b968856e"},"vehicle_type_id":"4","last_reported":1706378857,"current_range_meters":0,"station_id":"ce4bhbh2rcd13ifvqeo0","pricing_plan_id":"free"},{"bike_id":"fa1aead7-a969-4388-840d-917ab05ec2bf","system_id":"levelo_inurba_marseille","lat":43.275625,"lon":5.384392,"is_reserved":false,"is_disabled":false,"rental_uris":{"android":"levelo://app?vid=fa1aead7-a969-4388-840d-917ab05ec2bf","ios":"levelo://app?vid=fa1aead7-a969-4388-840d-917ab05ec2bf"},"vehicle_type_id":"4","last_reported":1706378857,"current_range_meters":0,"station_id":"ce4bhh92rcd13ifvqfi0","pricing_plan_id":"free"},{"bike_id":"d3ed1802-3642-4645-8a08-1420a357a1a1","system_id":"levelo_inurba_marseille","lat":43.336057,"lon":5.41016,"is_reserved":false,"is_disabled":false,"rental_uris":{"android":"levelo://app?vid=d3ed1802-3642-4645-8a08-1420a357a1a1","ios":"levelo://app?vid=d3ed1802-3642-4645-8a08-1420a357a1a1"},"vehicle_type_id":"4","last_reported":1706378857,"current_range_meters":0,"station_id":"ce4bhqh2rcd13ifvqhmg","pricing_plan_id":"free"},{"bike_id":"172580ab-2f9d-4bc4-8d13-81218c4d858a","system_id":"levelo_inurba_marseille","lat":43.276769,"lon":5.388787,"is_reserved":false,"is_disabled":false,"rental_uris":{"android":"levelo://app?vid=172580ab-2f9d-4bc4-8d13-81218c4d858a","ios":"levelo://app?vid=172580ab-2f9d-4bc4-8d13-81218c4d858a"},"vehicle_type_id":"4","last_reported":1706378857,"current_range_meters":14000,"station_id":"ce4bhi12rcd13ifvqfo0","pricing_plan_id":"free"},{"bike_id":"71d90591-5f7c-490f-af55-6817cf4e60cc","system_id":"levelo_inurba_marseille","lat":43.27676,"lon":5.38879,"is_reserved":false,"is_disabled":false,"rental_uris":{"android":"levelo://app?vid=71d90591-5f7c-490f-af55-6817cf4e60cc","ios":"levelo://app?vid=71d90591-5f7c-490f-af55-6817cf4e60cc"},"vehicle_type_id":"4","last_reported":1706378857,"current_range_meters":0,"station_id":"ce4bhi12rcd13ifvqfo0","pricing_plan_id":"free"},{"bike_id":"ca9556d6-c6de-44e1-aad2-bde2a89ffb5c","system_id":"levelo_inurba_marseille","lat":43.27999,"lon":5.40015,"is_reserved":false,"is_disabled":false,"rental_uris":{"android":"levelo://app?vid=ca9556d6-c6de-44e1-aad2-bde2a89ffb5c","ios":"levelo://app?vid=ca9556d6-c6de-44e1-aad2-bde2a89ffb5c"},"vehicle_type_id":"4","last_reported":1706378857,"current_range_meters":1200,"station_id":"","pricing_plan_id":"free"},{"bike_id":"82388fb3-4828-43e0-9428-8b79c9288123","system_id":"levelo_inurba_marseille","lat":43.279952,"lon":5.400085,"is_reserved":false,"is_disabled":false,"rental_uris":{"android":"levelo://app?vid=82388fb3-4828-43e0-9428-8b79c9288123","ios":"levelo://app?vid=82388fb3-4828-43e0-9428-8b79c9288123"},"vehicle_type_id":"4","last_reported":1706378857,"current_range_meters":0,"station_id":"ce4bho92rcd13ifvqh4g","pricing_plan_id":"free"},{"bike_id":"6f46a34b-d5d1-4592-8607-98eec5146735","system_id":"levelo_inurba_marseille","lat":43.283731,"lon":5.407079,"is_reserved":false,"is_disabled":false,"rental_uris":{"android":"levelo://app?vid=6f46a34b-d5d1-4592-8607-98eec5146735","ios":"levelo://app?vid=6f46a34b-d5d1-4592-8607-98eec5146735"},"vehicle_type_id":"4","last_reported":1706378857,"current_range_meters":6000,"station_id":"","pricing_plan_id":"free"},{"bike_id":"76a1444e-7429-4c72-9ae5-313749a04157","system_id":"levelo_inurba_marseille","lat":43.31089,"lon":5.42432,"is_reserved":false,"is_disabled":false,"rental_uris":{"android":"levelo://app?vid=76a1444e-7429-4c72-9ae5-313749a04157","ios":"levelo://app?vid=76a1444e-7429-4c72-9ae5-313749a04157"},"vehicle_type_id":"4","last_reported":1706378857,"current_range_meters":17600,"station_id":"ce4bhp92rcd13ifvqhag","pricing_plan_id":"free"},{"bike_id":"ee875769-e8b7-4caa-b3b8-2dad519b3fb1","system_id":"levelo_inurba_marseille","lat":43.31083,"lon":5.424347,"is_reserved":false,"is_disabled":false,"rental_uris":{"android":"levelo://app?vid=ee875769-e8b7-4caa-b3b8-2dad519b3fb1","ios":"levelo://app?vid=ee875769-e8b7-4caa-b3b8-2dad519b3fb1"},"vehicle_type_id":"4","last_reported":1706378857,"current_range_meters":18000,"station_id":"ce4bhp92rcd13ifvqhag","pricing_plan_id":"free"},{"bike_id":"9d9a6c6e-3ad8-4aa2-9959-86d525dd854d","system_id":"levelo_inurba_marseille","lat":43.340804,"lon":5.410219,"is_reserved":false,"is_disabled":false,"rental_uris":{"android":"levelo://app?vid=9d9a6c6e-3ad8-4aa2-9959-86d525dd854d","ios":"levelo://app?vid=9d9a6c6e-3ad8-4aa2-9959-86d525dd854d"},"vehicle_type_id":"4","last_reported":1706378857,"current_range_meters":23200,"station_id":"ce4bhqh2rcd13ifvqhlg","pricing_plan_id":"free"},{"bike_id":"477baf0d-523a-4198-b196-7a6a91a7b548","system_id":"levelo_inurba_marseille","lat":43.273125,"lon":5.390731,"is_reserved":false,"is_disabled":false,"rental_uris":{"android":"levelo://app?vid=477baf0d-523a-4198-b196-7a6a91a7b548","ios":"levelo://app?vid=477baf0d-523a-4198-b196-7a6a91a7b548"},"vehicle_type_id":"4","last_reported":1706378857,"current_range_meters":22400,"station_id":"ce4bhgp2rcd13ifvqfe0","pricing_plan_id":"free"},