{"last_updated":1748599881,"ttl":60,"version":"2.2","data":{"bikes":[{"bike_id":"55d42eeb-6b71-4987-a0f2-3d758b10d43e","system_id":"levelo_inurba_marseille","lat":43.33771,"lon":5.37424,"is_reserved":false,"is_disabled":true,"rental_uris":{"android":"levelo://app?vid=55d42eeb-6b71-4987-a0f2-3d758b10d43e","ios":"levelo://app?vid=55d42eeb-6b71-4987-a0f2-3d758b10d43e"},"vehicle_type_id":"4","last_reported":1748599882,"current_range_meters":0,"station_id":"","pricing_plan_id":"cebpf4jnsgd1na2vs0mg"},{"bike_id":"b7fe4621-b706-42f0-9085-4811142f84e8","system_id":"levelo_inurba_marseille","lat":43.337499,"lon":5.374469,"is_reserved":false,"is_disabled":true,"rental_uris":{"android":"levelo://app?vid=b7fe4621-b706-42f0-9085-4811142f84e8","ios":"levelo://app?vid=b7fe4621-b706-42f0-9085-4811142f84e8"},"vehicle_type_id":"4","last_reported":1748599882,"current_range_meters":0,"station_id":"","pricing_plan_id":"cebpf4jnsgd1na2vs0mg"},{"bike_id":"ad402f0f-3192-410c-afac-8cf064a40c6d","system_id":"levelo_inurba_marseille","lat":43.337444,"lon":5.374475,"is_reserved":false,"is_disabled":true,"rental_uris":{"android":"levelo://app?vid=ad402f0f-3192-410c-afac-8cf064a40c6d","ios":"levelo://app?vid=ad402f0f-3192-410c-afac-8cf064a40c6d"},"vehicle_type_id":"4","last_reported":1748599882,"current_range_meters":0,"station_id":"","pricing_plan_id":"cebpf4jnsgd1na2vs0mg"},{"bike_id":"d90baf97-e6b3-4c48-bcd2-63bc44243da4","system_id":"levelo_inurba_marseille","lat":43.21646,"lon":5.34295,"is_reserved":false,"is_disabled":true,"rental_uris":{"android":"levelo://app?vid=d90baf97-e6b3-4c48-bcd2-63bc44243da4","ios":"levelo://app?vid=d90baf97-e6b3-4c48-bcd2-63bc44243da4"},"vehicle_type_id":"4","last_reported":1748599882,"current_range_meters":0,"station_id":"","pricing_plan_id":"cebpf4jnsgd1na2vs0mg"},{"bike_id":"80dc1064-d63f-4a22-ad21-d8abd70986c0","system_id":"levelo_inurba_marseille","lat":43.33764,"lon":5.37471,"is_reserved":false,"is_disabled":true,"rental_uris":{"android":"levelo://app?vid=80dc1064-d63f-4a22-ad21-d8abd70986c0","ios":"levelo://app?vid=80dc1064-d63f-4a22-ad21-d8abd70986c0"},"vehicle_type_id":"4","last_reported":1748599882,"current_range_meters":0,"station_id":"","pricing_plan_id":"cebpf4jnsgd1na2vs0mg"},{"bike_id":"e33c074f-41c8-4951-8fbf-717bf86c5462","system_id":"levelo_inurba_marseille","lat":43.289613,"lon":5.387107,"is_reserved":false,"is_disabled":true,"rental_uris":{"android":"levelo://app?vid=e33c074f-41c8-4951-8fbf-717bf86c5462","ios":"levelo://app?vid=e33c074f-41c8-4951-8fbf-717bf86c5462"},"vehicle_type_id":"4","last_reported":1748599882,"current_range_meters":0,"station_id":"ce4bh4p2rcd13ifvqe0g","pricing_plan_id":"cebpf4jnsgd1na2vs0mg"},{"bike_id":"337b37b6-3e06-4112-8d06-0a4d7c2c8ba1","system_id":"levelo_inurba_marseille","lat":43.2481,"lon":5.3746,"is_reserved":false,"is_disabled":true,"rental_uris":{"android":"levelo://app?vid=337b37b6-3e06-4112-8d06-0a4d7c2c8ba1","ios":"levelo://app?vid=337b37b6-3e06-4112-8d06-0a4d7c2c8ba1"},"vehicle_type_id":"4","last_reported":1748599882,"current_range_meters":0,"station_id":"ce4bhgh2rcd13ifvqfb0","pricing_plan_id":"cebpf4jnsgd1na2vs0mg"},{"bike_id":"7eb5ce06-183a-46aa-8cc3-0af50b19052a","system_id":"levelo_inurba_marseille","lat":43.26192,"lon":5.37447,"is_reserved":false,"is_disabled":true,"rental_uris":{"android":"levelo://app?vid=7eb5ce06-183a-46aa-8cc3-0af50b19052a","ios":"levelo://app?vid=7eb5ce06-183a-46aa-8cc3-0af50b19052a"},"vehicle_type_id":"4","last_reported":1748599882,"current_range_meters":0,"station_id":"ce4bhgp2rcd13ifvqfc0","pricing_plan_id":"cebpf4jnsgd1na2vs0mg"},{"bike_id":"daaf375c-dcf0-4a00-b920-ec2513c615f1","system_id":"levelo_inurba_marseille","lat":43.24171,"lon":5.39724,"is_reserved":false,"is_disabled":true,"rental_uris":{"android":"levelo://app?vid=daaf375c-dcf0-4a00-b920-ec2513c615f1","ios":"levelo://app?vid=daaf375c-dcf0-4a00-b920-ec2513c615f1"},"vehicle_type_id":"4","last_reported":1748599882,"current_range_meters":0,"station_id":"ce4bhn12rcd13ifvqgpg","pricing_plan_id":"cebpf4jnsgd1na2vs0mg"},{"bike_id":"e2194700-db09-41ce-af8b-d66f2d29da6a","system_id":"levelo_inurba_marseille","lat":43.28438,"lon":5.39197,"is_reserved":false,"is_disabled":true,"rental_uris":{"android":"levelo://app?vid=e2194700-db09-41ce-af8b-d66f2d29da6a","ios":"levelo://app?vid=e2194700-db09-41ce-af8b-d66f2d29da6a"},"vehicle_type_id":"4","last_reported":1748599882,"current_range_meters":0,"station_id":"ce4bhoh2rcd13ifvqh5g","pricing_plan_id":"cebpf4jnsgd1na2vs0mg"},{"bike_id":"04c54075-755a-4dc5-9fd0-915ea19a7d7b","system_id":"levelo_inurba_marseille","lat":43.23193,"lon":5.35551,"is_reserved":false,"is_disabled":true,"rental_uris":{"android":"levelo://app?vid=04c54075-755a-4dc5-9fd0-915ea19a7d7b","ios":"levelo://app?vid=04c54075-755a-4dc5-9fd0-915ea19a7d7b"},"vehicle_type_id":"4","last_reported":1748599882,"current_range_meters":0,"station_id":"ce4bhu92rcd13ifvqi70","pricing_plan_id":"cebpf4jnsgd1na2vs0mg"},{"bike_id":"786b0996-e9af-4590-96db-e347ef831233","system_id":"levelo_inurba_marseille","lat":43.31314,"lon":5.39705,"is_reserved":false,"is_disabled":true,"rental_uris":{"android":"levelo://app?vid=786b0996-e9af-4590-96db-e347ef831233","ios":"levelo://app?vid=786b0996-e9af-4590-96db-e347ef831233"},"vehicle_type_id":"4","last_reported":1748599882,"current_range_meters":400,"station_id":"ce4bgvp2rcd13ifvqcu0","pricing_plan_id":"cebpf4jnsgd1na2vs0mg"},{"bike_id":"679f5d96-de06-4b41-9410-b416efee9684","system_id":"levelo_inurba_marseille","lat":43.3021,"lon":5.39463,"is_reserved":false,"is_disabled":true,"rental_uris":{"android":"levelo://app?vid=679f5d96-de06-4b41-9410-b416efee9684","ios":"levelo://app?vid=679f5d96-de06-4b41-9410-b416efee9684"},"vehicle_type_id":"4","last_reported":1748599882,"current_range_meters":400,"station_id":"ce4bh0p2rcd13ifvqd70","pricing_plan_id":"cebpf4jnsgd1na2vs0mg"},{"bike_id":"0062d2f4-9497-4dbd-92dd-80c84fe4cf4e","system_id":"levelo_inurba_marseille","lat":43.24801,"lon":5.37451,"is_reserved":false,"is_disabled":true,"rental_uris":{"android":"levelo://app?vid=0062d2f4-9497-4dbd-92dd-80c84fe4cf4e","ios":"levelo://app?vid=0062d2f4-9497-4dbd-92dd-80c84fe4cf4e"},"vehicle_type_id":"4","last_reported":1748599882,"current_range_meters":400,"station_id":"ce4bhgh2rcd13ifvqfb0","pricing_plan_id":"cebpf4jnsgd1na2vs0mg"},{"bike_id":"18cd2838-1a48-4590-b84b-87368b4b4314","system_id":"levelo_inurba_marseille","lat":43.29626,"lon":5.40588,"is_reserved":false,"is_disabled":true,"rental_uris":{"android":"levelo://app?vid=18cd2838-1a48-4590-b84b-87368b4b4314","ios":"levelo://app?vid=18cd2838-1a48-4590-b84b-87368b4b4314"},"vehicle_type_id":"4","last_reported":1748599882,"current_range_meters":1200,"station_id":"ce4bh0h2rcd13ifvqd60","pricing_plan_id":"cebpf4jnsgd1na2vs0mg"},{"bike_id":"bada4012-d3d4-4fd8-bc6e-424f3d00b408","system_id":"levelo_inurba_marseille","lat":43.28371,"lon":5.3865,"is_reserved":false,"is_disabled":true,"rental_uris":{"android":"levelo://app?vid=bada4012-d3d4-4fd8-bc6e-424f3d00b408","ios":"levelo://app?vid=bada4012-d3d4-4fd8-bc6e-424f3d00b408"},"vehicle_type_id":"4","last_reported":1748599882,"current_range_meters":1200,"station_id":"ce4bh492rcd13ifvqdvg","pricing_plan_id":"cebpf4jnsgd1na2vs0mg"},{"bike_id":"2cdafb41-8547-4855-b9b1-864409698f00","system_id":"levelo_inurba_marseille","lat":43.31705,"lon":5.43696,"is_reserved":false,"is_disabled":true,"rental_uris":{"android":"levelo://app?vid=2cdafb41-8547-4855-b9b1-864409698f00","ios":"levelo://app?vid=2cdafb41-8547-4855-b9b1-864409698f00"},"vehicle_type_id":"4","last_reported":1748599882,"current_range_meters":1200,"station_id":"ce4bhp92rcd13ifvqhcg","pricing_plan_id":"cebpf4jnsgd1na2vs0mg"},{"bike_id":"10f73617-9cbb-431e-9dcb-4cf70990fd95","system_id":"levelo_inurba_marseille","lat":43.301454,"lon":5.380859,"is_reserved":false,"is_disabled":true,"rental_uris":{"android":"levelo://app?vid=10f73617-9cbb-431e-9dcb-4cf70990fd95","ios":"levelo://app?vid=10f73617-9cbb-431e-9dcb-4cf70990fd95"},"vehicle_type_id":"4","last_reported":1748599882,"current_range_meters":1600,"station_id":"ce4bhbh2rcd13ifvqeqg","pricing_plan_id":"cebpf4jnsgd1na2vs0mg"},{"bike_id":"bac667cf-137e-4ea7-b037-7ebd6a2ad77c","system_id":"levelo_inurba_marseille","lat":43.28248,"lon":5.35081,"is_reserved":false,"is_disabled":true,"rental_uris":{"android":"levelo://app?vid=bac667cf-137e-4ea7-b037-7ebd6a2ad77c","ios":"levelo://app?vid=bac667cf-137e-4ea7-b037-7ebd6a2ad77c"},"vehicle_type_id":"4","last_reported":1748599882,"current_range_meters":1600,"station_id":"ce4bhbp2rcd13ifvqerg","pricing_plan_id":"cebpf4jnsgd1na2vs0mg"},{"bike_id":"5ca82cb5-18f8-47f2-9d61-68d7ed2be932","system_id":"levelo_inurba_marseille","lat":43.27665,"lon":5.38864,"is_reserved":false,"is_disabled":true,"rental_uris":{"android":"levelo://app?vid=5ca82cb5-18f8-47f2-9d61-68d7ed2be932","ios":"levelo://app?vid=5ca82cb5-18f8-47f2-9d61-68d7ed2be932"},"vehicle_type_id":"4","last_reported":1748599882,"current_range_meters":1600,"station_id":"ce4bhi12rcd13ifvqfo0","pricing_plan_id":"cebpf4jnsgd1na2vs0mg"},{"bike_id":"24204c04-5d8c-4ac1-bc38-3e364dee5b7a","system_id":"levelo_inurba_marseille","lat":43.30246,"lon":5.41311,"is_reserved":false,"is_disabled":false,"rental_uris":{"android":"levelo://app?vid=24204c04-5d8c-4ac1-bc38-3e364dee5b7a","ios":"levelo://app?vid=24204c04-5d8c-4ac1-bc38-3e364dee5b7a"},"vehicle_type_id":"4","last_reported":1748599882,"current_range_meters":2800,"station_id":"","pricing_plan_id":"cebpf4jnsgd1na2vs0mg"},{"bike_id":"a9dd31b3-7d5d-4c43-a5e2-c2e9e371ae5e","system_id":"levelo_inurba_marseille","lat":43.31325,"lon":5.36708,"is_reserved":false,"is_disabled":false,"rental_uris":{"android":"levelo://app?vid=a9dd31b3-7d5d-4c43-a5e2-c2e9e371ae5e","ios":"levelo://app?vid=a9dd31b3-7d5d-4c43-a5e2-c2e9e371ae5e"},"vehicle_type_id":"4","last_reported":1748599882,"current_range_meters":2800,"station_id":"ce4bgr92rcd13ifvqc6g","pricing_plan_id":"cebpf4jnsgd1na2vs0mg"},{"bike_id":"0ecb569d-7775-4ea2-9912-50e8fe4609a7","system_id":"levelo_inurba_marseille","lat":43.290492,"lon":5.370168,"is_reserved":false,"is_disabled":false,"rental_uris":{"android":"levelo://app?vid=0ecb569d-7775-4ea2-9912-50e8fe4609a7","ios":"levelo://app?vid=0ecb569d-7775-4ea2-9912-50e8fe4609a7"},"vehicle_type_id":"4","last_reported":1748599882,"current_range_meters":2800,"station_id":"ce4bhah2rcd13ifvqei0","pricing_plan_id":"cebpf4jnsgd1na2vs0mg"},{"bike_id":"11488e1b-74ae-4459-8884-1588199aa112","system_id":"levelo_inurba_marseille","lat":43.26946,"lon":5.40238,"is_reserved":false,"is_disabled":false,"rental_uris":{"android":"levelo://app?vid=11488e1b-74ae-4459-8884-1588199aa112","ios":"levelo://app?vid=11488e1b-74ae-4459-8884-1588199aa112"},"vehicle_type_id":"4","last_reported":1748599882,"current_range_meters":3200,"station_id":"cjm6bp8fraef2m0cb0m0","pricing_plan_id":"cebpf4jnsgd1na2vs0mg"},{"bike_id":"9b75aece-d81d-41f2-b51a-ec81269f0a01","system_id":"levelo_inurba_marseille","lat":43.28719,"lon":5.37937,"is_reserved":false,"is_disabled":false,"rental_uris":{"android":"levelo://app?vid=9b75aece-d81d-41f2-b51a-ec81269f0a01","ios":"levelo://app?vid=9b75aece-d81d-41f2-b51a-ec81269f0a01"},"vehicle_type_id":"4","last_reported":1748599882,"current_range_meters":3600,"station_id":"ce4bh9p2rcd13ifvqec0","pricing_plan_id":"cebpf4jnsgd1na2vs0mg"},{"bike_id":"3f0441b1-6cb6-41fd-b679-f454d34b2118","system_id":"levelo_inurba_marseille","lat":43.211864,"lon":5.350826,"is_reserved":false,"is_disabled":false,"rental_uris":{"android":"levelo://app?vid=3f0441b1-6cb6-41fd-b679-f454d34b2118","ios":"levelo://app?vid=3f0441b1-6cb6-41fd-b679-f454d34b2118"},"vehicle_type_id":"4","last_reported":1748599882,"current_range_meters":3600,"station_id":"st_cvj6sg6p6f1abm77japg","pricing_plan_id":"cebpf4jnsgd1na2vs0mg"},{"bike_id":"c006505c-40ec-4dbb-8fb7-e9d75b9aa51f","system_id":"levelo_inurba_marseille","lat":43.33147,"lon":5.381691,"is_reserved":false,"is_disabled":false,"rental_uris":{"android":"levelo://app?vid=c006505c-40ec-4dbb-8fb7-e9d75b9aa51f","ios":"levelo://app?vid=c006505c-40ec-4dbb-8fb7-e9d75b9aa51f"},"vehicle_type_id":"4","last_reported":1748599882,"current_range_meters":4000,"station_id":"","pricing_plan_id":"cebpf4jnsgd1na2vs0mg"},{"bike_id":"09df656a-a4c6-4522-a872-deb79ab77d3d","system_id":"levelo_inurba_marseille","lat":43.22493,"lon":5.34779,"is_reserved":false,"is_disabled":false,"rental_uris":{"android":"levelo://app?vid=09df656a-a4c6-4522-a872-deb79ab77d3d","ios":"levelo://app?vid=09df656a-a4c6-4522-a872-deb79ab77d3d"},"vehicle_type_id":"4","last_reported":1748599882,"current_range_meters":4000,"station_id":"","pricing_plan_id":"cebpf4jnsgd1na2vs0mg"},{"bike_id":"2f650bb1-6027-4191-83d2-16315820a0a7","system_id":"levelo_inurba_marseille","lat":43.29981,"lon":5.37338,"is_reserved":false,"is_disabled":false,"rental_uris":{"android":"levelo://app?vid=2f650bb1-6027-4191-83d2-16315820a0a7","ios":"levelo://app?vid=2f650bb1-6027-4191-83d2-16315820a0a7"},"vehicle_type_id":"4","last_reported":1748599882,"current_range_meters":4000,"station_id":"","pricing_plan_id":"cebpf4jnsgd1na2vs0mg"},{"bike_id":"88b20607-7c9f-4703-930a-8e179f43a64d","system_id":"levelo_inurba_marseille","lat":43.25501,"lon":5.37653,"is_reserved":false,"is_disabled":false,"rental_uris":{"android":"levelo://app?vid=88b20607-7c9f-4703-930a-8e179f43a64d","ios":"levelo://app?vid=88b20607-7c9f-4703-930a-8e179f43a64d"},"vehicle_type_id":"4","last_reported":1748599882,"current_range_meters":4000,"station_id":"ce4bhh12rcd13ifvqff0","pricing_plan_id":"cebpf4jnsgd1na2vs0mg"},{"bike_id":"18224edb-554a-4efe-b8ab-931a3054325e","system_id":"levelo_inurba_marseille","lat":43.26806,"lon":5.38366,"is_reserved":false,"is_disabled":false,"rental_uris":{"android":"levelo://app?vid=18224edb-554a-4efe-b8ab-931a3054325e","ios":"levelo://app?vid=18224edb-554a-4efe-b8ab-931a3054325e"},"vehicle_type_id":"4","last_reported":1748599882,"current_range_meters":4400,"station_id":"","pricing_plan_id":"cebpf4jnsgd1na2vs0mg"},{"bike_id":"f2db43d1-d932-4d40-8264-f693c5c5e1f9","system_id":"levelo_inurba_marseille","lat":43.29252,"lon":5.36853,"is_reserved":false,"is_disabled":false,"rental_uris":{"android":"levelo://app?vid=f2db43d1-d932-4d40-8264-f693c5c5e1f9","ios":"levelo://app?vid=f2db43d1-d932-4d40-8264-f693c5c5e1f9"},"vehicle_type_id":"4","last_reported":1748599882,"current_range_meters":4400,"station_id":"ce4bhbp2rcd13ifvqesg","pricing_plan_id":"cebpf4jnsgd1na2vs0mg"},{"bike_id":"c6a31a0d-9058-4787-aed5-d9fb8d71236f","system_id":"levelo_inurba_marseille","lat":43.26576,"lon":5.39057,"is_reserved":false,"is_disabled":false,"rental_uris":{"android":"levelo://app?vid=c6a31a0d-9058-4787-aed5-d9fb8d71236f","ios":"levelo://app?vid=c6a31a0d-9058-4787-aed5-d9fb8d71236f"},"vehicle_type_id":"4","last_reported":1748599882,"current_range_meters":4400,"station_id":"ce4bhe12rcd13ifvqf30","pricing_plan_id":"cebpf4jnsgd1na2vs0mg"},{"bike_id":"d415131d-f1d3-4747-ba6b-3c0ba419f3cc","system_id":"levelo_inurba_marseille","lat":43.24386,"lon":5.37057,"is_reserved":false,"is_disabled":false,"rental_uris":{"android":"levelo://app?vid=d415131d-f1d3-4747-ba6b-3c0ba419f3cc","ios":"levelo://app?vid=d415131d-f1d3-4747-ba6b-3c0ba419f3cc"},"vehicle_type_id":"4","last_reported":1748599882,"current_range_meters":4400,"station_id":"ce4bhhh2rcd13ifvqfk0","pricing_plan_id":"cebpf4jnsgd1na2vs0mg"},{"bike_id":"acbd4c3d-b51c-4f06-9f41-0565e30c20f1","system_id":"levelo_inurba_marseille","lat":43.231498,"lon":5.436936,"is_reserved":false,"is_disabled":false,"rental_uris":{"android":"levelo://app?vid=acbd4c3d-b51c-4f06-9f41-0565e30c20f1","ios":"levelo://app?vid=acbd4c3d-b51c-4f06-9f41-0565e30c20f1"},"vehicle_type_id":"4","last_reported":1748599882,"current_range_meters":4400,"station_id":"ce4bhmp2rcd13ifvqgog","pricing_plan_id":"cebpf4jnsgd1na2vs0mg"},{"bike_id":"a23bc9e9-5701-4d9f-90bf-e9715e351a2c","system_id":"levelo_inurba_marseille","lat":43.301414,"lon":5.374203,"is_reserved":false,"is_disabled":false,"rental_uris":{"android":"levelo://app?vid=a23bc9e9-5701-4d9f-90bf-e9715e351a2c","ios":"levelo://app?vid=a23bc9e9-5701-4d9f-90bf-e9715e351a2c"},"vehicle_type_id":"4","last_reported":1748599882,"current_range_meters":4800,"station_id":"ce4bgs92rcd13ifvqcc0","pricing_plan_id":"cebpf4jnsgd1na2vs0mg"},{"bike_id":"9a9cb396-7044-457f-a27f-bd74ff7f3507","system_id":"levelo_inurba_marseille","lat":43.28615,"lon":5.3511,"is_reserved":false,"is_disabled":false,"rental_uris":{"android":"levelo://app?vid=9a9cb396-7044-457f-a27f-bd74ff7f3507","ios":"levelo://app?vid=9a9cb396-7044-457f-a27f-bd74ff7f3507"},"vehicle_type_id":"4","last_reported":1748599882,"current_range_meters":4800,"station_id":"ce4bhch2rcd13ifvqeug","pricing_plan_id":"cebpf4jnsgd1na2vs0mg"},{"bike_id":"ca2bb3ce-85dd-40e8-9d30-82a3b862479e","system_id":"levelo_inurba_marseille","lat":43.27908,"lon":5.39583,"is_reserved":false,"is_disabled":false,"rental_uris":{"android":"levelo://app?vid=ca2bb3ce-85dd-40e8-9d30-82a3b862479e","ios":"levelo://app?vid=ca2bb3ce-85dd-40e8-9d30-82a3b862479e"},"vehicle_type_id":"4","last_reported":1748599882,"current_range_meters":4800,"station_id":"ce4bhf92rcd13ifvqf40","pricing_plan_id":"cebpf4jnsgd1na2vs0mg"},{"bike_id":"cb88469c-8067-43f3-83f6-c881895e7713","system_id":"levelo_inurba_marseille","lat":43.23963,"lon":5.36637,"is_reserved":false,"is_disabled":false,"rental_uris":{"android":"levelo://app?vid=cb88469c-8067-43f3-83f6-c881895e7713","ios":"levelo://app?vid=cb88469c-8067-43f3-83f6-c881895e7713"},"vehicle_type_id":"4","last_reported":1748599882,"current_range_meters":4800,"station_id":"ce4bhi12rcd13ifvqfp0","pricing_plan_id":"cebpf4jnsgd1na2vs0mg"},{"bike_id":"eb4b3905-d697-4843-bcd5-622b64c07feb","system_id":"levelo_inurba_marseille","lat":43.231448,"lon":5.43714,"is_reserved":false,"is_disabled":false,"rental_uris":{"android":"levelo://app?vid=eb4b3905-d697-4843-bcd5-622b64c07feb","ios":"levelo://app?vid=eb4b3905-d697-4843-bcd5-622b64c07feb"},"vehicle_type_id":"4","last_reported":1748599882,"current_range_meters":4800,"station_id":"ce4bhmp2rcd13ifvqgog","pricing_plan_id":"cebpf4jnsgd1na2vs0mg"},{"bike_id":"1b7663e4-18ac-46b8-ada2-5f399e7e0990","system_id":"levelo_inurba_marseille","lat":43.29791,"lon":5.38105,"is_reserved":false,"is_disabled":false,"rental_uris":{"android":"levelo://app?vid=1b7663e4-18ac-46b8-ada2-5f399e7e0990","ios":"levelo://app?vid=1b7663e4-18ac-46b8-ada2-5f399e7e0990"},"vehicle_type_id":"4","last_reported":1748599882,"current_range_meters":5600,"station_id":"ce4bgip2rcd13ifvqbb0","pricing_plan_id":"cebpf4jnsgd1na2vs0mg"},{"bike_id":"7c6e48ab-b87e-4e89-9339-a1a2992e6797","system_id":"levelo_inurba_marseille","lat":43.26121,"lon":5.41454,"is_reserved":false,"is_disabled":false,"rental_uris":{"android":"levelo://app?vid=7c6e48ab-b87e-4e89-9339-a1a2992e6797","ios":"levelo://app?vid=7c6e48ab-b87e-4e89-9339-a1a2992e6797"},"vehicle_type_id":"4","last_reported":1748599882,"current_range_meters":6000,"station_id":"","pricing_plan_id":"cebpf4jnsgd1na2vs0mg"},{"bike_id":"fdadf02f-923f-4c00-8940-88f218c4759f","system_id":"levelo_inurba_marseille","lat":43.31522,"lon":5.38034,"is_reserved":false,"is_disabled":false,"rental_uris":{"android":"levelo://app?vid=fdadf02f-923f-4c00-8940-88f218c4759f","ios":"levelo://app?vid=fdadf02f-923f-4c00-8940-88f218c4759f"},"vehicle_type_id":"4","last_reported":1748599882,"current_range_meters":6000,"station_id":"ce4bhsp2rcd13ifvqi50","pricing_plan_id":"cebpf4jnsgd1na2vs0mg"},{"bike_id":"57011555-6e24-4ab8-b847-600b659a6bdc","system_id":"levelo_inurba_marseille","lat":43.301117,"lon":5.398442,"is_reserved":false,"is_disabled":false,"rental_uris":{"android":"levelo://app?vid=57011555-6e24-4ab8-b847-600b659a6bdc","ios":"levelo://app?vid=57011555-6e24-4ab8-b847-600b659a6bdc"},"vehicle_type_id":"4","last_reported":1748599882,"current_range_meters":6400,"station_id":"ce4bh0h2rcd13ifvqd40","pricing_plan_id":"cebpf4jnsgd1na2vs0mg"},{"bike_id":"497ec4a5-8002-40cf-b66d-3b629c958e7f","system_id":"levelo_inurba_marseille","lat":43.29159,"lon":5.39989,"is_reserved":false,"is_disabled":false,"rental_uris":{"android":"levelo://app?vid=497ec4a5-8002-40cf-b66d-3b629c958e7f","ios":"levelo://app?vid=497ec4a5-8002-40cf-b66d-3b629c958e7f"},"vehicle_type_id":"4","last_reported":1748599882,"current_range_meters":6800,"station_id":"","pricing_plan_id":"cebpf4jnsgd1na2vs0mg"},{"bike_id":"299bc464-0062-40b9-b8fd-94e53cb49a69","system_id":"levelo_inurba_marseille","lat":43.29698,"lon":5.37754,"is_reserved":false,"is_disabled":false,"rental_uris":{"android":"levelo://app?vid=299bc464-0062-40b9-b8fd-94e53cb49a69","ios":"levelo://app?vid=299bc464-0062-40b9-b8fd-94e53cb49a69"},"vehicle_type_id":"4","last_reported":1748599882,"current_range_meters":7200,"station_id":"","pricing_plan_id":"cebpf4jnsgd1na2vs0mg"},{"bike_id":"2fb636ad-6fdb-4beb-849c-5885e6e63f2e","system_id":"levelo_inurba_marseille","lat":43.30174,"lon":5.36613,"is_reserved":false,"is_disabled":false,"rental_uris":{"android":"levelo://app?vid=2fb636ad-6fdb-4beb-849c-5885e6e63f2e","ios":"levelo://app?vid=2fb636ad-6fdb-4beb-849c-5885e6e63f2e"},"vehicle_type_id":"4","last_reported":1748599882,"current_range_meters":7200,"station_id":"ce4bgrh2rcd13ifvqc8g","pricing_plan_id":"cebpf4jnsgd1na2vs0mg"},{"bike_id":"c20cde3d-efa4-4792-85cb-bcd9537bb570","system_id":"levelo_inurba_marseille","lat":43.24168,"lon":5.36381,"is_reserved":false,"is_disabled":false,"rental_uris":{"android":"levelo://app?vid=c20cde3d-efa4-4792-85cb-bcd9537bb570","ios":"levelo://app?vid=c20cde3d-efa4-4792-85cb-bcd9537bb570"},"vehicle_type_id":"4","last_reported":1748599882,"current_range_meters":7200,"station_id":"cpo36qri1sfpv3e86is0","pricing_plan_id":"cebpf4jnsgd1na2vs0mg"},{"bike_id":"198d720e-e932-4468-b419-4d100ac498fe","system_id":"levelo_inurba_marseille","lat":43.2119,"lon":5.35072,"is_reserved":false,"is_disabled":false,"rental_uris":{"android":"levelo://app?vid=198d720e-e932-4468-b419-4d100ac498fe","ios":"levelo://app?vid=198d720e-e932-4468-b419-4d100ac498fe"},"vehicle_type_id":"4","last_reported":1748599882,"current_range_meters":7200,"station_id":"st_cvj6sg6p6f1abm77japg","pricing_plan_id":"cebpf4jnsgd1na2vs0mg"},{"bike_id":"71dfec9a-34b6-4fbf-b672-2d632a0d98ac","system_id":"levelo_inurba_marseille","lat":43.27364,"lon":5.36252,"is_reserved":false,"is_disabled":false,"rental_uris":{"android":"levelo://app?vid=71dfec9a-34b6-4fbf-b672-2d632a0d98ac","ios":"levelo://app?vid=71dfec9a-34b6-4fbf-b672-2d632a0d98ac"},"vehicle_type_id":"4","last_reported":1748599882,"current_range_meters":8000,"station_id":"ce4bhbh2rcd13ifvqeo0","pricing_plan_id":"cebpf4jnsgd1na2vs0mg"},{"bike_id":"086c1778-d0aa-4b98-b43f-15b45afd6f12","system_id":"levelo_inurba_marseille","lat":43.301575,"lon":5.397622,"is_reserved":false,"is_disabled":false,"rental_uris":{"android":"levelo://app?vid=086c1778-d0aa-4b98-b43f-15b45afd6f12","ios":"levelo://app?vid=086c1778-d0aa-4b98-b43f-15b45afd6f12"},"vehicle_type_id":"4","last_reported":1748599882,"current_range_meters":8000,"station_id":"ce4bhgh2rcd13ifvqfb0","pricing_plan_id":"cebpf4jnsgd1na2vs0mg"},{"bike_id":"1e272f08-ebcf-44f1-95de-f9fb4143bcce","system_id":"levelo_inurba_marseille","lat":43.24182,"lon":5.39723,"is_reserved":false,"is_disabled":false,"rental_uris":{"android":"levelo://app?vid=1e272f08-ebcf-44f1-95de-f9fb4143bcce","ios":"levelo://app?vid=1e272f08-ebcf-44f1-95de-f9fb4143bcce"},"vehicle_type_id":"4","last_reported":1748599882,"current_range_meters":8000,"station_id":"ce4bhn12rcd13ifvqgpg","pricing_plan_id":"cebpf4jnsgd1na2vs0mg"},{"bike_id":"9c3dddc5-dd5d-48ae-9343-fb13f55aad69","system_id":"levelo_inurba_marseille","lat":43.27811,"lon":5.40717,"is_reserved":false,"is_disabled":false,"rental_uris":{"android":"levelo://app?vid=9c3dddc5-dd5d-48ae-9343-fb13f55aad69","ios":"levelo://app?vid=9c3dddc5-dd5d-48ae-9343-fb13f55aad69"},"vehicle_type_id":"4","last_reported":1748599882,"current_range_meters":8000,"station_id":"ce4bhnh2rcd13ifvqgtg","pricing_plan_id":"cebpf4jnsgd1na2vs0mg"},{"bike_id":"930e14ec-bf8e-4aff-9033-8957bc092ad6","system_id":"levelo_inurba_marseille","lat":43.24037,"lon":5.3778,"is_reserved":false,"is_disabled":false,"rental_uris":{"android":"levelo://app?vid=930e14ec-bf8e-4aff-9033-8957bc092ad6","ios":"levelo://app?vid=930e14ec-bf8e-4aff-9033-8957bc092ad6"},"vehicle_type_id":"4","last_reported":1748599882,"current_range_meters":8000,"station_id":"ce4bhnp2rcd13ifvqgvg","pricing_plan_id":"cebpf4jnsgd1na2vs0mg"},{"bike_id":"e46b7b8a-dfc2-4b24-ab3a-d50ded281d40","system_id":"levelo_inurba_marseille","lat":43.24161,"lon":5.36403,"is_reserved":false,"is_disabled":false,"rental_uris":{"android":"levelo://app?vid=e46b7b8a-dfc2-4b24-ab3a-d50ded281d40","ios":"levelo://app?vid=e46b7b8a-dfc2-4b24-ab3a-d50ded281d40"},"vehicle_type_id":"4","last_reported":1748599882,"current_range_meters":8000,"station_id":"cpo36qri1sfpv3e86is0","pricing_plan_id":"cebpf4jnsgd1na2vs0mg"},{"bike_id":"42dca157-bdb0-4361-8022-7979135f94aa","system_id":"levelo_inurba_marseille","lat":43.28565,"lon":5.36543,"is_reserved":false,"is_disabled":false,"rental_uris":{"android":"levelo://app?vid=42dca157-bdb0-4361-8022-7979135f94aa","ios":"levelo://app?vid=42dca157-bdb0-4361-8022-7979135f94aa"},"vehicle_type_id":"4","last_reported":1748599882,"current_range_meters":8400,"station_id":"","pricing_plan_id":"cebpf4jnsgd1na2vs0mg"},{"bike_id":"a0b44b20-89b3-41fb-bb26-259cf1852531","system_id":"levelo_inurba_marseille","lat":43.25738,"lon":5.41048,"is_reserved":false,"is_disabled":false,"rental_uris":{"android":"levelo://app?vid=a0b44b20-89b3-41fb-bb26-259cf1852531","ios":"levelo://app?vid=a0b44b20-89b3-41fb-bb26-259cf1852531"},"vehicle_type_id":"4","last_reported":1748599882,"current_range_meters":8400,"station_id":"","pricing_plan_id":"cebpf4jnsgd1na2vs0mg"},{"bike_id":"421e753c-9412-4bf5-841d-ab196af1768d","system_id":"levelo_inurba_marseille","lat":43.29909,"lon":5.38153,"is_reserved":false,"is_disabled":false,"rental_uris":{"android":"levelo://app?vid=421e753c-9412-4bf5-841d-ab196af1768d","ios":"levelo://app?vid=421e753c-9412-4bf5-841d-ab196af1768d"},"vehicle_type_id":"4","last_reported":1748599882,"current_range_meters":8400,"station_id":"ce4bgj12rcd13ifvqbc0","pricing_plan_id":"cebpf4jnsgd1na2vs0mg"},{"bike_id":"ba05c3f2-d375-4cbd-b92a-b34f8ae32a8c","system_id":"levelo_inurba_marseille","lat":43.284834,"lon":5.384139,"is_reserved":false,"is_disabled":false,"rental_uris":{"android":"levelo://app?vid=ba05c3f2-d375-4cbd-b92a-b34f8ae32a8c","ios":"levelo://app?vid=ba05c3f2-d375-4cbd-b92a-b34f8ae32a8c"},"vehicle_type_id":"4","last_reported":1748599882,"current_range_meters":8400,"station_id":"ce4bh512rcd13ifvqe3g","pricing_plan_id":"cebpf4jnsgd1na2vs0mg"},{"bike_id":"ae2f8de6-12ae-48f7-b706-c11dcffd2abd","system_id":"levelo_inurba_marseille","lat":43.26214,"lon":5.37442,"is_reserved":false,"is_disabled":false,"rental_uris":{"android":"levelo://app?vid=ae2f8de6-12ae-48f7-b706-c11dcffd2abd","ios":"levelo://app?vid=ae2f8de6-12ae-48f7-b706-c11dcffd2abd"},"vehicle_type_id":"4","last_reported":1748599882,"current_range_meters":8400,"station_id":"ce4bhgp2rcd13ifvqfc0","pricing_plan_id":"cebpf4jnsgd1na2vs0mg"},{"bike_id":"aae5f7c7-b30a-474f-bb09-cb9f5f8f5101","system_id":"levelo_inurba_marseille","lat":43.24159,"lon":5.36394,"is_reserved":false,"is_disabled":false,"rental_uris":{"android":"levelo://app?vid=aae5f7c7-b30a-474f-bb09-cb9f5f8f5101","ios":"levelo://app?vid=aae5f7c7-b30a-474f-bb09-cb9f5f8f5101"},"vehicle_type_id":"4","last_reported":1748599882,"current_range_meters":8400,"station_id":"cpo36qri1sfpv3e86is0","pricing_plan_id":"cebpf4jnsgd1na2vs0mg"},{"bike_id":"339f38b0-f75b-4455-bd41-33673ac56d64","system_id":"levelo_inurba_marseille","lat":43.30984,"lon":5.41726,"is_reserved":false,"is_disabled":false,"rental_uris":{"android":"levelo://app?vid=339f38b0-f75b-4455-bd41-33673ac56d64","ios":"levelo://app?vid=339f38b0-f75b-4455-bd41-33673ac56d64"},"vehicle_type_id":"4","last_reported":1748599882,"current_range_meters":8800,"station_id":"","pricing_plan_id":"cebpf4jnsgd1na2vs0mg"},{"bike_id":"00f77637-c960-45d0-b516-a2f6a0285858","system_id":"levelo_inurba_marseille","lat":43.29745,"lon":5.38539,"is_reserved":false,"is_disabled":false,"rental_uris":{"android":"levelo://app?vid=00f77637-c960-45d0-b516-a2f6a0285858","ios":"levelo://app?vid=00f77637-c960-45d0-b516-a2f6a0285858"},"vehicle_type_id":"4","last_reported":1748599882,"current_range_meters":8800,"station_id":"","pricing_plan_id":"cebpf4jnsgd1na2vs0mg"},{"bike_id":"0eba387c-90f9-4134-9df4-6c0ed0bf1fa7","system_id":"levelo_inurba_marseille","lat":43.28669,"lon":5.38672,"is_reserved":false,"is_disabled":false,"rental_uris":{"android":"levelo://app?vid=0eba387c-90f9-4134-9df4-6c0ed0bf1fa7","ios":"levelo://app?vid=0eba387c-90f9-4134-9df4-6c0ed0bf1fa7"},"vehicle_type_id":"4","last_reported":1748599882,"current_range_meters":8800,"station_id":"ce4bh492rcd13ifvqdug","pricing_plan_id":"cebpf4jnsgd1na2vs0mg"},{"bike_id":"7ee09b1d-3cf6-42eb-972c-97d321eea789","system_id":"levelo_inurba_marseille","lat":43.23146,"lon":5.43719,"is_reserved":false,"is_disabled":false,"rental_uris":{"android":"levelo://app?vid=7ee09b1d-3cf6-42eb-972c-97d321eea789","ios":"levelo://app?vid=7ee09b1d-3cf6-42eb-972c-97d321eea789"},"vehicle_type_id":"4","last_reported":1748599882,"current_range_meters":8800,"station_id":"ce4bhmp2rcd13ifvqgog","pricing_plan_id":"cebpf4jnsgd1na2vs0mg"},{"bike_id":"69313bda-71fd-412e-bf85-96b79f000c8c","system_id":"levelo_inurba_marseille","lat":43.2794,"lon":5.41047,"is_reserved":false,"is_disabled":false,"rental_uris":{"android":"levelo://app?vid=69313bda-71fd-412e-bf85-96b79f000c8c","ios":"levelo://app?vid=69313bda-71fd-412e-bf85-96b79f000c8c"},"vehicle_type_id":"4","last_reported":1748599882,"current_range_meters":8800,"station_id":"ce4bhnp2rcd13ifvqh0g","pricing_plan_id":"cebpf4jnsgd1na2vs0mg"},{"bike_id":"42457cf4-066b-4e99-be8a-c611cdb501b2","system_id":"levelo_inurba_marseille","lat":43.23322,"lon":5.36161,"is_reserved":false,"is_disabled":false,"rental_uris":{"android":"levelo://app?vid=42457cf4-066b-4e99-be8a-c611cdb501b2","ios":"levelo://app?vid=42457cf4-066b-4e99-be8a-c611cdb501b2"},"vehicle_type_id":"4","last_reported":1748599882,"current_range_meters":9200,"station_id":"","pricing_plan_id":"cebpf4jnsgd1na2vs0mg"},{"bike_id":"165d91f2-7c54-41fc-98ba-d0f2ff38e6e9","system_id":"levelo_inurba_marseille","lat":43.28564,"lon":5.39495,"is_reserved":false,"is_disabled":false,"rental_uris":{"android":"levelo://app?vid=165d91f2-7c54-41fc-98ba-d0f2ff38e6e9","ios":"levelo://app?vid=165d91f2-7c54-41fc-98ba-d0f2ff38e6e9"},"vehicle_type_id":"4","last_reported":1748599882,"current_range_meters":9200,"station_id":"ce4bh292rcd13ifvqdg0","pricing_plan_id":"cebpf4jnsgd1na2vs0mg"},{"bike_id":"2c581e5c-1b56-411f-b88d-e7ca96970040","system_id":"levelo_inurba_marseille","lat":43.27668,"lon":5.38887,"is_reserved":false,"is_disabled":false,"rental_uris":{"android":"levelo://app?vid=2c581e5c-1b56-411f-b88d-e7ca96970040","ios":"levelo://app?vid=2c581e5c-1b56-411f-b88d-e7ca96970040"},"vehicle_type_id":"4","last_reported":1748599882,"current_range_meters":9200,"station_id":"ce4bhi12rcd13ifvqfo0","pricing_plan_id":"cebpf4jnsgd1na2vs0mg"},{"bike_id":"0c889232-fa76-429c-b680-10b4aced74fa","system_id":"levelo_inurba_marseille","lat":43.27948,"lon":5.41025,"is_reserved":false,"is_disabled":false,"rental_uris":{"android":"levelo://app?vid=0c889232-fa76-429c-b680-10b4aced74fa","ios":"levelo://app?vid=0c889232-fa76-429c-b680-10b4aced74fa"},"vehicle_type_id":"4","last_reported":1748599882,"current_range_meters":9200,"station_id":"ce4bhnp2rcd13ifvqh0g","pricing_plan_id":"cebpf4jnsgd1na2vs0mg"},{"bike_id":"04c49220-7a35-477c-9a01-0c7650744921","system_id":"levelo_inurba_marseille","lat":43.32486,"lon":5.3655,"is_reserved":false,"is_disabled":false,"rental_uris":{"android":"levelo://app?vid=04c49220-7a35-477c-9a01-0c7650744921","ios":"levelo://app?vid=04c49220-7a35-477c-9a01-0c7650744921"},"vehicle_type_id":"4","last_reported":1748599882,"current_range_meters":9200,"station_id":"ce4bhs12rcd13ifvqhvg","pricing_plan_id":"cebpf4jnsgd1na2vs0mg"},{"bike_id":"a426f99b-d34a-41bf-bbda-59f7dfd6939b","system_id":"levelo_inurba_marseille","lat":43.255796,"lon":5.382262,"is_reserved":false,"is_disabled":false,"rental_uris":{"android":"levelo://app?vid=a426f99b-d34a-41bf-bbda-59f7dfd6939b","ios":"levelo://app?vid=a426f99b-d34a-41bf-bbda-59f7dfd6939b"},"vehicle_type_id":"4","last_reported":1748599882,"current_range_meters":9200,"station_id":"ce501612rcd8frsf0b60","pricing_plan_id":"cebpf4jnsgd1na2vs0mg"},{"bike_id":"c7c6f148-aa70-4ee1-bb19-ba399e94db88","system_id":"levelo_inurba_marseille","lat":43.22933,"lon":5.35375,"is_reserved":false,"is_disabled":false,"rental_uris":{"android":"levelo://app?vid=c7c6f148-aa70-4ee1-bb19-ba399e94db88","ios":"levelo://app?vid=c7c6f148-aa70-4ee1-bb19-ba399e94db88"},"vehicle_type_id":"4","last_reported":1748599882,"current_range_meters":9200,"station_id":"cpo3532slgdg3j2ikp40","pricing_plan_id":"cebpf4jnsgd1na2vs0mg"},{"bike_id":"9fe1e697-36ec-421f-b0be-031c2f5ed7f3","system_id":"levelo_inurba_marseille","lat":43.32832,"lon":5.37497,"is_reserved":false,"is_disabled":false,"rental_uris":{"android":"levelo://app?vid=9fe1e697-36ec-421f-b0be-031c2f5ed7f3","ios":"levelo://app?vid=9fe1e697-36ec-421f-b0be-031c2f5ed7f3"},"vehicle_type_id":"4","last_reported":1748599882,"current_range_meters":9600,"station_id":"","pricing_plan_id":"cebpf4jnsgd1na2vs0mg"},{"bike_id":"a807c8dd-75ce-4f49-b322-50ddd08ec8d0","system_id":"levelo_inurba_marseille","lat":43.34742,"lon":5.37318,"is_reserved":false,"is_disabled":false,"rental_uris":{"android":"levelo://app?vid=a807c8dd-75ce-4f49-b322-50ddd08ec8d0","ios":"levelo://app?vid=a807c8dd-75ce-4f49-b322-50ddd08ec8d0"},"vehicle_type_id":"4","last_reported":1748599882,"current_range_meters":9600,"station_id":"","pricing_plan_id":"cebpf4jnsgd1na2vs0mg"},{"bike_id":"f5733814-9732-4748-bcc9-3b2fac8e1564","system_id":"levelo_inurba_marseille","lat":43.31256,"lon":5.37829,"is_reserved":false,"is_disabled":false,"rental_uris":{"android":"levelo://app?vid=f5733814-9732-4748-bcc9-3b2fac8e1564","ios":"levelo://app?vid=f5733814-9732-4748-bcc9-3b2fac8e1564"},"vehicle_type_id":"4","last_reported":1748599882,"current_range_meters":9600,"station_id":"","pricing_plan_id":"cebpf4jnsgd1na2vs0mg"},{"bike_id":"2059e5cf-2457-4cf3-9302-a10c7e263a4e","system_id":"levelo_inurba_marseille","lat":43.3031,"lon":5.39209,"is_reserved":false,"is_disabled":false,"rental_uris":{"android":"levelo://app?vid=2059e5cf-2457-4cf3-9302-a10c7e263a4e","ios":"levelo://app?vid=2059e5cf-2457-4cf3-9302-a10c7e263a4e"},"vehicle_type_id":"4","last_reported":1748599882,"current_range_meters":9600,"station_id":"ce4bgkh2rcd13ifvqbk0","pricing_plan_id":"cebpf4jnsgd1na2vs0mg"},{"bike_id":"e35bc658-c1cc-4270-ba21-52b754fe9c65","system_id":"levelo_inurba_marseille","lat":43.27375,"lon":5.36256,"is_reserved":false,"is_disabled":false,"rental_uris":{"android":"levelo://app?vid=e35bc658-c1cc-4270-ba21-52b754fe9c65","ios":"levelo://app?vid=e35bc658-c1cc-4270-ba21-52b754fe9c65"},"vehicle_type_id":"4","last_reported":1748599882,"current_range_meters":9600,"station_id":"ce4bhbh2rcd13ifvqeo0","pricing_plan_id":"cebpf4jnsgd1na2vs0mg"},{"bike_id":"042e2378-ec42-47ed-b56b-b7fb0278fd68","system_id":"levelo_inurba_marseille","lat":43.28,"lon":5.39997,"is_reserved":false,"is_disabled":false,"rental_uris":{"android":"levelo://app?vid=042e2378-ec42-47ed-b56b-b7fb0278fd68","ios":"levelo://app?vid=042e2378-ec42-47ed-b56b-b7fb0278fd68"},"vehicle_type_id":"4","last_reported":1748599882,"current_range_meters":9600,"station_id":"ce4bho92rcd13ifvqh4g","pricing_plan_id":"cebpf4jnsgd1na2vs0mg"},{"bike_id":"f8d26ebd-9168-41c8-9f49-36e1a1965f63","system_id":"levelo_inurba_marseille","lat":43.29888,"lon":5.43654,"is_reserved":false,"is_disabled":false,"rental_uris":{"android":"levelo://app?vid=f8d26ebd-9168-41c8-9f49-36e1a1965f63","ios":"levelo://app?vid=f8d26ebd-9168-41c8-9f49-36e1a1965f63"},"vehicle_type_id":"4","last_reported":1748599882,"current_range_meters":9600,"station_id":"ce4bhpp2rcd13ifvqhfg","pricing_plan_id":"cebpf4jnsgd1na2vs0mg"},{"bike_id":"c666405f-462c-40b6-aad2-05c3e84c9054","system_id":"levelo_inurba_marseille","lat":43.24189,"lon":5.36351,"is_reserved":false,"is_disabled":false,"rental_uris":{"android":"levelo://app?vid=c666405f-462c-40b6-aad2-05c3e84c9054","ios":"levelo://app?vid=c666405f-462c-40b6-aad2-05c3e84c9054"},"vehicle_type_id":"4","last_reported":1748599882,"current_range_meters":9600,"station_id":"cpo36qri1sfpv3e86is0","pricing_plan_id":"cebpf4jnsgd1na2vs0mg"},{"bike_id":"e044c9db-ce02-4ecf-bf86-8eaa46f9c414","system_id":"levelo_inurba_marseille","lat":43.25697,"lon":5.3914,"is_reserved":false,"is_disabled":false,"rental_uris":{"android":"levelo://app?vid=e044c9db-ce02-4ecf-bf86-8eaa46f9c414","ios":"levelo://app?vid=e044c9db-ce02-4ecf-bf86-8eaa46f9c414"},"vehicle_type_id":"4","last_reported":1748599882,"current_range_meters":10000,"station_id":"","pricing_plan_id":"cebpf4jnsgd1na2vs0mg"},{"bike_id":"e9cda520-c6f4-465d-ad7f-8c059b3dc45a","system_id":"levelo_inurba_marseille","lat":43.313967,"lon":5.383993,"is_reserved":false,"is_disabled":false,"rental_uris":{"android":"levelo://app?vid=e9cda520-c6f4-465d-ad7f-8c059b3dc45a","ios":"levelo://app?vid=e9cda520-c6f4-465d-ad7f-8c059b3dc45a"},"vehicle_type_id":"4","last_reported":1748599882,"current_range_meters":10000,"station_id":"","pricing_plan_id":"cebpf4jnsgd1na2vs0mg"},{"bike_id":"54e0c0f7-b8f3-48f3-a8b9-65efc0d1fd7c","system_id":"levelo_inurba_marseille","lat":43.31326,"lon":5.36699,"is_reserved":false,"is_disabled":false,"rental_uris":{"android":"levelo://app?vid=54e0c0f7-b8f3-48f3-a8b9-65efc0d1fd7c","ios":"levelo://app?vid=54e0c0f7-b8f3-48f3-a8b9-65efc0d1fd7c"},"vehicle_type_id":"4","last_reported":1748599882,"current_range_meters":10000,"station_id":"ce4bgr92rcd13ifvqc6g","pricing_plan_id":"cebpf4jnsgd1na2vs0mg"},{"bike_id":"a0733277-9572-4c49-b86b-a255c71a8787","system_id":"levelo_inurba_marseille","lat":43.27184,"lon":5.41004,"is_reserved":false,"is_disabled":false,"rental_uris":{"android":"levelo://app?vid=a0733277-9572-4c49-b86b-a255c71a8787","ios":"levelo://app?vid=a0733277-9572-4c49-b86b-a255c71a8787"},"vehicle_type_id":"4","last_reported":1748599882,"current_range_meters":10000,"station_id":"ce4bhl12rcd13ifvqgf0","pricing_plan_id":"cebpf4jnsgd1na2vs0mg"},{"bike_id":"be4a640d-0c26-4675-b5c4-320922c50d85","system_id":"levelo_inurba_marseille","lat":43.303718,"lon":5.424847,"is_reserved":false,"is_disabled":false,"rental_uris":{"android":"levelo://app?vid=be4a640d-0c26-4675-b5c4-320922c50d85","ios":"levelo://app?vid=be4a640d-0c26-4675-b5c4-320922c50d85"},"vehicle_type_id":"4","last_reported":1748599882,"current_range_meters":10000,"station_id":"ce4bhoh2rcd13ifvqh6g","pricing_plan_id":"cebpf4jnsgd1na2vs0mg"},{"bike_id":"e997ff03-e3d7-45f1-9f4e-fa41cdd5326b","system_id":"levelo_inurba_marseille","lat":43.31467,"lon":5.3729,"is_reserved":false,"is_disabled":false,"rental_uris":{"android":"levelo://app?vid=e997ff03-e3d7-45f1-9f4e-fa41cdd5326b","ios":"levelo://app?vid=e997ff03-e3d7-45f1-9f4e-fa41cdd5326b"},"vehicle_type_id":"4","last_reported":1748599882,"current_range_meters":10800,"station_id":"ce4bgt12rcd13ifvqcd0","pricing_plan_id":"cebpf4jnsgd1na2vs0mg"},{"bike_id":"e6fd2ca1-d968-4e6d-950a-3de70295f052","system_id":"levelo_inurba_marseille","lat":43.28422,"lon":5.34972,"is_reserved":false,"is_disabled":false,"rental_uris":{"android":"levelo://app?vid=e6fd2ca1-d968-4e6d-950a-3de70295f052","ios":"levelo://app?vid=e6fd2ca1-d968-4e6d-950a-3de70295f052"},"vehicle_type_id":"4","last_reported":1748599882,"current_range_meters":10800,"station_id":"ce4bhbh2rcd13ifvqepg","pricing_plan_id":"cebpf4jnsgd1na2vs0mg"},{"bike_id":"38299f7f-d158-4689-88d2-9919ecd08f85","system_id":"levelo_inurba_marseille","lat":43.25494,"lon":5.37647,"is_reserved":false,"is_disabled":false,"rental_uris":{"android":"levelo://app?vid=38299f7f-d158-4689-88d2-9919ecd08f85","ios":"levelo://app?vid=38299f7f-d158-4689-88d2-9919ecd08f85"},"vehicle_type_id":"4","last_reported":1748599882,"current_range_meters":10800,"station_id":"ce4bhh12rcd13ifvqff0","pricing_plan_id":"cebpf4jnsgd1na2vs0mg"},{"bike_id":"eeaaba6b-0ce0-43ef-a3d9-c4275a8344eb","system_id":"levelo_inurba_marseille","lat":43.257303,"lon":5.411062,"is_reserved":false,"is_disabled":false,"rental_uris":{"android":"levelo://app?vid=eeaaba6b-0ce0-43ef-a3d9-c4275a8344eb","ios":"levelo://app?vid=eeaaba6b-0ce0-43ef-a3d9-c4275a8344eb"},"vehicle_type_id":"4","last_reported":1748599882,"current_range_meters":10800,"station_id":"ce4bhkp2rcd13ifvqgd0","pricing_plan_id":"cebpf4jnsgd1na2vs0mg"},{"bike_id":"0dc000bd-368c-4c59-a0e5-9ddd5a5b10f3","system_id":"levelo_inurba_marseille","lat":43.32335,"lon":5.40638,"is_reserved":false,"is_disabled":false,"rental_uris":{"android":"levelo://app?vid=0dc000bd-368c-4c59-a0e5-9ddd5a5b10f3","ios":"levelo://app?vid=0dc000bd-368c-4c59-a0e5-9ddd5a5b10f3"},"vehicle_type_id":"4","last_reported":1748599882,"current_range_meters":10800,"station_id":"ce4bhq92rcd13ifvqhjg","pricing_plan_id":"cebpf4jnsgd1na2vs0mg"},{"bike_id":"c7c3a5a4-b6e4-462b-80c7-827e33b91cd7","system_id":"levelo_inurba_marseille","lat":43.26554,"lon":5.37284,"is_reserved":false,"is_disabled":false,"rental_uris":{"android":"levelo://app?vid=c7c3a5a4-b6e4-462b-80c7-827e33b91cd7","ios":"levelo://app?vid=c7c3a5a4-b6e4-462b-80c7-827e33b91cd7"},"vehicle_type_id":"4","last_reported":1748599882,"current_range_meters":11200,"station_id":"ce4bhg12rcd13ifvqf70","pricing_plan_id":"cebpf4jnsgd1na2vs0mg"},{"bike_id":"ee9541c9-1655-4762-8cb8-f67ef27ec883","system_id":"levelo_inurba_marseille","lat":43.33717,"lon":5.39181,"is_reserved":false,"is_disabled":false,"rental_uris":{"android":"levelo://app?vid=ee9541c9-1655-4762-8cb8-f67ef27ec883","ios":"levelo://app?vid=ee9541c9-1655-4762-8cb8-f67ef27ec883"},"vehicle_type_id":"4","last_reported":1748599882,"current_range_meters":11200,"station_id":"ce4bhr92rcd13ifvqhsg","pricing_plan_id":"cebpf4jnsgd1na2vs0mg"},{"bike_id":"fec27b70-e484-46da-b40e-333c117bdc87","system_id":"levelo_inurba_marseille","lat":43.28113,"lon":5.37836,"is_reserved":false,"is_disabled":false,"rental_uris":{"android":"levelo://app?vid=fec27b70-e484-46da-b40e-333c117bdc87","ios":"levelo://app?vid=fec27b70-e484-46da-b40e-333c117bdc87"},"vehicle_type_id":"4","last_reported":1748599882,"current_range_meters":11600,"station_id":"ce4bha12rcd13ifvqee0","pricing_plan_id":"cebpf4jnsgd1na2vs0mg"},{"bike_id":"75fedd92-2592-4013-859c-50b48aef2f97","system_id":"levelo_inurba_marseille","lat":43.26059,"lon":5.39395,"is_reserved":false,"is_disabled":false,"rental_uris":{"android":"levelo://app?vid=75fedd92-2592-4013-859c-50b48aef2f97","ios":"levelo://app?vid=75fedd92-2592-4013-859c-50b48aef2f97"},"vehicle_type_id":"4","last_reported":1748599882,"current_range_meters":11600,"station_id":"ce4bhh92rcd13ifvqfj0","pricing_plan_id":"cebpf4jnsgd1na2vs0mg"},{"bike_id":"94d74484-c00f-4773-98b4-43f5ef9035c3","system_id":"levelo_inurba_marseille","lat":43.26226,"lon":5.40418,"is_reserved":false,"is_disabled":false,"rental_uris":{"android":"levelo://app?vid=94d74484-c00f-4773-98b4-43f5ef9035c3","ios":"levelo://app?vid=94d74484-c00f-4773-98b4-43f5ef9035c3"},"vehicle_type_id":"4","last_reported":1748599882,"current_range_meters":11600,"station_id":"ce4bhmh2rcd13ifvqgmg","pricing_plan_id":"cebpf4jnsgd1na2vs0mg"},{"bike_id":"7804ca15-a2f6-4484-ae6e-0fd4a08614a3","system_id":"levelo_inurba_marseille","lat":43.23061,"lon":5.35484,"is_reserved":false,"is_disabled":false,"rental_uris":{"android":"levelo://app?vid=7804ca15-a2f6-4484-ae6e-0fd4a08614a3","ios":"levelo://app?vid=7804ca15-a2f6-4484-ae6e-0fd4a08614a3"},"vehicle_type_id":"4","last_reported":1748599882,"current_range_meters":11600,"station_id":"cpo3342slgdg3j2ifvpg","pricing_plan_id":"cebpf4jnsgd1na2vs0mg"},{"bike_id":"3dd1b342-5d0a-4155-9da3-0dd9cd16e16e","system_id":"levelo_inurba_marseille","lat":43.22929,"lon":5.35354,"is_reserved":false,"is_disabled":false,"rental_uris":{"android":"levelo://app?vid=3dd1b342-5d0a-4155-9da3-0dd9cd16e16e","ios":"levelo://app?vid=3dd1b342-5d0a-4155-9da3-0dd9cd16e16e"},"vehicle_type_id":"4","last_reported":1748599882,"current_range_meters":11600,"station_id":"cpo3532slgdg3j2ikp40","pricing_plan_id":"cebpf4jnsgd1na2vs0mg"},{"bike_id":"d041ba9b-b157-420b-92de-857f860b4947","system_id":"levelo_inurba_marseille","lat":43.28222,"lon":5.39051,"is_reserved":false,"is_disabled":false,"rental_uris":{"android":"levelo://app?vid=d041ba9b-b157-420b-92de-857f860b4947","ios":"levelo://app?vid=d041ba9b-b157-420b-92de-857f860b4947"},"vehicle_type_id":"4","last_reported":1748599882,"current_range_meters":12000,"station_id":"","pricing_plan_id":"cebpf4jnsgd1na2vs0mg"},{"bike_id":"6d9461e9-afcf-430b-8179-bb7d54f00db5","system_id":"levelo_inurba_marseille","lat":43.31487,"lon":5.37298,"is_reserved":false,"is_disabled":false,"rental_uris":{"android":"levelo://app?vid=6d9461e9-afcf-430b-8179-bb7d54f00db5","ios":"levelo://app?vid=6d9461e9-afcf-430b-8179-bb7d54f00db5"},"vehicle_type_id":"4","last_reported":1748599882,"current_range_meters":12000,"station_id":"ce4bgt12rcd13ifvqcd0","pricing_plan_id":"cebpf4jnsgd1na2vs0mg"},{"bike_id":"abb8e33b-e663-4a8b-88d2-b0e186bde40e","system_id":"levelo_inurba_marseille","lat":43.25933,"lon":5.40897,"is_reserved":false,"is_disabled":false,"rental_uris":{"android":"levelo://app?vid=abb8e33b-e663-4a8b-88d2-b0e186bde40e","ios":"levelo://app?vid=abb8e33b-e663-4a8b-88d2-b0e186bde40e"},"vehicle_type_id":"4","last_reported":1748599882,"current_range_meters":12000,"station_id":"ce4bhm92rcd13ifvqglg","pricing_plan_id":"cebpf4jnsgd1na2vs0mg"},{"bike_id":"a8d4273b-613f-442b-bea9-7c462c2c1bbc","system_id":"levelo_inurba_marseille","lat":43.262239,"lon":5.404549,"is_reserved":false,"is_disabled":false,"rental_uris":{"android":"levelo://app?vid=a8d4273b-613f-442b-bea9-7c462c2c1bbc","ios":"levelo://app?vid=a8d4273b-613f-442b-bea9-7c462c2c1bbc"},"vehicle_type_id":"4","last_reported":1748599882,"current_range_meters":12000,"station_id":"ce4bhmh2rcd13ifvqgmg","pricing_plan_id":"cebpf4jnsgd1na2vs0mg"},{"bike_id":"7d5ccf32-a06c-497f-987c-d0b0b04cb5ae","system_id":"levelo_inurba_marseille","lat":43.32333,"lon":5.40616,"is_reserved":false,"is_disabled":false,"rental_uris":{"android":"levelo://app?vid=7d5ccf32-a06c-497f-987c-d0b0b04cb5ae","ios":"levelo://app?vid=7d5ccf32-a06c-497f-987c-d0b0b04cb5ae"},"vehicle_type_id":"4","last_reported":1748599882,"current_range_meters":12000,"station_id":"ce4bhq92rcd13ifvqhjg","pricing_plan_id":"cebpf4jnsgd1na2vs0mg"},{"bike_id":"f67c0dea-1fe5-4948-9215-8f57b4153744","system_id":"levelo_inurba_marseille","lat":43.28413,"lon":5.34982,"is_reserved":false,"is_disabled":false,"rental_uris":{"android":"levelo://app?vid=f67c0dea-1fe5-4948-9215-8f57b4153744","ios":"levelo://app?vid=f67c0dea-1fe5-4948-9215-8f57b4153744"},"vehicle_type_id":"4","last_reported":1748599882,"current_range_meters":12400,"station_id":"ce4bhbh2rcd13ifvqepg","pricing_plan_id":"cebpf4jnsgd1na2vs0mg"},{"bike_id":"c9b16b3f-d77e-4adf-8c10-65c6e295aa7d","system_id":"levelo_inurba_marseille","lat":43.27957,"lon":5.38708,"is_reserved":false,"is_disabled":false,"rental_uris":{"android":"levelo://app?vid=c9b16b3f-d77e-4adf-8c10-65c6e295aa7d","ios":"levelo://app?vid=c9b16b3f-d77e-4adf-8c10-65c6e295aa7d"},"vehicle_type_id":"4","last_reported":1748599882,"current_range_meters":12400,"station_id":"ce4bhg12rcd13ifvqf80","pricing_plan_id":"cebpf4jnsgd1na2vs0mg"},{"bike_id":"69e1ae52-6d61-421b-a99d-c62c78c4a4d8","system_id":"levelo_inurba_marseille","lat":43.23177,"lon":5.39986,"is_reserved":false,"is_disabled":false,"rental_uris":{"android":"levelo://app?vid=69e1ae52-6d61-421b-a99d-c62c78c4a4d8","ios":"levelo://app?vid=69e1ae52-6d61-421b-a99d-c62c78c4a4d8"},"vehicle_type_id":"4","last_reported":1748599882,"current_range_meters":12400,"station_id":"ce4bhn12rcd13ifvqgqg","pricing_plan_id":"cebpf4jnsgd1na2vs0mg"},{"bike_id":"ae7eb8d2-ad09-41d8-8427-d8378b83b788","system_id":"levelo_inurba_marseille","lat":43.2416,"lon":5.36387,"is_reserved":false,"is_disabled":false,"rental_uris":{"android":"levelo://app?vid=ae7eb8d2-ad09-41d8-8427-d8378b83b788","ios":"levelo://app?vid=ae7eb8d2-ad09-41d8-8427-d8378b83b788"},"vehicle_type_id":"4","last_reported":1748599882,"current_range_meters":12400,"station_id":"cpo36qri1sfpv3e86is0","pricing_plan_id":"cebpf4jnsgd1na2vs0mg"},{"bike_id":"7243d7c8-02f5-4392-89cf-8c360e846d55","system_id":"levelo_inurba_marseille","lat":43.25276,"lon":5.37824,"is_reserved":false,"is_disabled":false,"rental_uris":{"android":"levelo://app?vid=7243d7c8-02f5-4392-89cf-8c360e846d55","ios":"levelo://app?vid=7243d7c8-02f5-4392-89cf-8c360e846d55"},"vehicle_type_id":"4","last_reported":1748599882,"current_range_meters":12800,"station_id":"","pricing_plan_id":"cebpf4jnsgd1na2vs0mg"},{"bike_id":"990df701-79a7-41ec-b963-3693dc590a87","system_id":"levelo_inurba_marseille","lat":43.30175,"lon":5.37909,"is_reserved":false,"is_disabled":false,"rental_uris":{"android":"levelo://app?vid=990df701-79a7-41ec-b963-3693dc590a87","ios":"levelo://app?vid=990df701-79a7-41ec-b963-3693dc590a87"},"vehicle_type_id":"4","last_reported":1748599882,"current_range_meters":12800,"station_id":"","pricing_plan_id":"cebpf4jnsgd1na2vs0mg"},{"bike_id":"81929695-c996-4344-b136-61f971835187","system_id":"levelo_inurba_marseille","lat":43.262114,"lon":5.37443,"is_reserved":false,"is_disabled":false,"rental_uris":{"android":"levelo://app?vid=81929695-c996-4344-b136-61f971835187","ios":"levelo://app?vid=81929695-c996-4344-b136-61f971835187"},"vehicle_type_id":"4","last_reported":1748599882,"current_range_meters":12800,"station_id":"ce4bhgp2rcd13ifvqfc0","pricing_plan_id":"cebpf4jnsgd1na2vs0mg"},{"bike_id":"a5d448e4-911c-413f-93ed-3a003f8fc6c9","system_id":"levelo_inurba_marseille","lat":43.24389,"lon":5.3706,"is_reserved":false,"is_disabled":false,"rental_uris":{"android":"levelo://app?vid=a5d448e4-911c-413f-93ed-3a003f8fc6c9","ios":"levelo://app?vid=a5d448e4-911c-413f-93ed-3a003f8fc6c9"},"vehicle_type_id":"4","last_reported":1748599882,"current_range_meters":12800,"station_id":"ce4bhhh2rcd13ifvqfk0","pricing_plan_id":"cebpf4jnsgd1na2vs0mg"},{"bike_id":"2236b6c0-f763-40f5-8e40-14b379518f91","system_id":"levelo_inurba_marseille","lat":43.24598,"lon":5.39299,"is_reserved":false,"is_disabled":false,"rental_uris":{"android":"levelo://app?vid=2236b6c0-f763-40f5-8e40-14b379518f91","ios":"levelo://app?vid=2236b6c0-f763-40f5-8e40-14b379518f91"},"vehicle_type_id":"4","last_reported":1748599882,"current_range_meters":13600,"station_id":"","pricing_plan_id":"cebpf4jnsgd1na2vs0mg"},{"bike_id":"a4dcd63c-212a-4d34-8feb-4220e4ed3774","system_id":"levelo_inurba_marseille","lat":43.28415,"lon":5.34976,"is_reserved":false,"is_disabled":false,"rental_uris":{"android":"levelo://app?vid=a4dcd63c-212a-4d34-8feb-4220e4ed3774","ios":"levelo://app?vid=a4dcd63c-212a-4d34-8feb-4220e4ed3774"},"vehicle_type_id":"4","last_reported":1748599882,"current_range_meters":13600,"station_id":"ce4bhbh2rcd13ifvqepg","pricing_plan_id":"cebpf4jnsgd1na2vs0mg"},{"bike_id":"529137a1-0fec-4a4c-bbe8-03949b5f4bac","system_id":"levelo_inurba_marseille","lat":43.28418,"lon":5.3499,"is_reserved":false,"is_disabled":false,"rental_uris":{"android":"levelo://app?vid=529137a1-0fec-4a4c-bbe8-03949b5f4bac","ios":"levelo://app?vid=529137a1-0fec-4a4c-bbe8-03949b5f4bac"},"vehicle_type_id":"4","last_reported":1748599882,"current_range_meters":13600,"station_id":"ce4bhbh2rcd13ifvqepg","pricing_plan_id":"cebpf4jnsgd1na2vs0mg"},{"bike_id":"0bdee142-1fda-4a23-9616-8b7744765971","system_id":"levelo_inurba_marseille","lat":43.246678,"lon":5.38171,"is_reserved":false,"is_disabled":false,"rental_uris":{"android":"levelo://app?vid=0bdee142-1fda-4a23-9616-8b7744765971","ios":"levelo://app?vid=0bdee142-1fda-4a23-9616-8b7744765971"},"vehicle_type_id":"4","last_reported":1748599882,"current_range_meters":13600,"station_id":"ce4bhih2rcd13ifvqfr0","pricing_plan_id":"cebpf4jnsgd1na2vs0mg"},{"bike_id":"85f488b5-f2d1-453d-9f13-38f4bd13329e","system_id":"levelo_inurba_marseille","lat":43.22933,"lon":5.35374,"is_reserved":false,"is_disabled":false,"rental_uris":{"android":"levelo://app?vid=85f488b5-f2d1-453d-9f13-38f4bd13329e","ios":"levelo://app?vid=85f488b5-f2d1-453d-9f13-38f4bd13329e"},"vehicle_type_id":"4","last_reported":1748599882,"current_range_meters":13600,"station_id":"cpo3532slgdg3j2ikp40","pricing_plan_id":"cebpf4jnsgd1na2vs0mg"},{"bike_id":"8a17b903-cbef-4ca1-985e-91f7861d3ad0","system_id":"levelo_inurba_marseille","lat":43.24159,"lon":5.3638,"is_reserved":false,"is_disabled":false,"rental_uris":{"android":"levelo://app?vid=8a17b903-cbef-4ca1-985e-91f7861d3ad0","ios":"levelo://app?vid=8a17b903-cbef-4ca1-985e-91f7861d3ad0"},"vehicle_type_id":"4","last_reported":1748599882,"current_range_meters":13600,"station_id":"cpo36qri1sfpv3e86is0","pricing_plan_id":"cebpf4jnsgd1na2vs0mg"},{"bike_id":"55f19410-8460-48eb-9d43-3c1bb6961030","system_id":"levelo_inurba_marseille","lat":43.27206,"lon":5.39184,"is_reserved":false,"is_disabled":false,"rental_uris":{"android":"levelo://app?vid=55f19410-8460-48eb-9d43-3c1bb6961030","ios":"levelo://app?vid=55f19410-8460-48eb-9d43-3c1bb6961030"},"vehicle_type_id":"4","last_reported":1748599882,"current_range_meters":14000,"station_id":"ce4bhhp2rcd13ifvqfm0","pricing_plan_id":"cebpf4jnsgd1na2vs0mg"},{"bike_id":"854c0867-77a6-4b6e-8a7f-2ec3cfed8fdb","system_id":"levelo_inurba_marseille","lat":43.25908,"lon":5.40866,"is_reserved":false,"is_disabled":false,"rental_uris":{"android":"levelo://app?vid=854c0867-77a6-4b6e-8a7f-2ec3cfed8fdb","ios":"levelo://app?vid=854c0867-77a6-4b6e-8a7f-2ec3cfed8fdb"},"vehicle_type_id":"4","last_reported":1748599882,"current_range_meters":14000,"station_id":"ce4bhm92rcd13ifvqglg","pricing_plan_id":"cebpf4jnsgd1na2vs0mg"},{"bike_id":"3cfcd708-bb66-4827-988c-59ab1f9ea42d","system_id":"levelo_inurba_marseille","lat":43.26219,"lon":5.40449,"is_reserved":false,"is_disabled":false,"rental_uris":{"android":"levelo://app?vid=3cfcd708-bb66-4827-988c-59ab1f9ea42d","ios":"levelo://app?vid=3cfcd708-bb66-4827-988c-59ab1f9ea42d"},"vehicle_type_id":"4","last_reported":1748599882,"current_range_meters":14000,"station_id":"ce4bhmh2rcd13ifvqgmg","pricing_plan_id":"cebpf4jnsgd1na2vs0mg"},{"bike_id":"57768c08-b328-4f6a-9b34-11a0b21dca7e","system_id":"levelo_inurba_marseille","lat":43.29526,"lon":5.38541,"is_reserved":false,"is_disabled":false,"rental_uris":{"android":"levelo://app?vid=57768c08-b328-4f6a-9b34-11a0b21dca7e","ios":"levelo://app?vid=57768c08-b328-4f6a-9b34-11a0b21dca7e"},"vehicle_type_id":"4","last_reported":1748599882,"current_range_meters":14400,"station_id":"ce4bgih2rcd13ifvqba0","pricing_plan_id":"cebpf4jnsgd1na2vs0mg"},{"bike_id":"17dd280b-d2cb-4a1f-9260-aca6f117185b","system_id":"levelo_inurba_marseille","lat":43.31486,"lon":5.372965,"is_reserved":false,"is_disabled":false,"rental_uris":{"android":"levelo://app?vid=17dd280b-d2cb-4a1f-9260-aca6f117185b","ios":"levelo://app?vid=17dd280b-d2cb-4a1f-9260-aca6f117185b"},"vehicle_type_id":"4","last_reported":1748599882,"current_range_meters":14400,"station_id":"ce4bgt12rcd13ifvqcd0","pricing_plan_id":"cebpf4jnsgd1na2vs0mg"},{"bike_id":"3cf1f1a0-aa90-4b01-8b52-a4c7624499ec","system_id":"levelo_inurba_marseille","lat":43.28268,"lon":5.35079,"is_reserved":false,"is_disabled":false,"rental_uris":{"android":"levelo://app?vid=3cf1f1a0-aa90-4b01-8b52-a4c7624499ec","ios":"levelo://app?vid=3cf1f1a0-aa90-4b01-8b52-a4c7624499ec"},"vehicle_type_id":"4","last_reported":1748599882,"current_range_meters":14400,"station_id":"ce4bhbp2rcd13ifvqerg","pricing_plan_id":"cebpf4jnsgd1na2vs0mg"},{"bike_id":"9c8f2851-b94a-491b-9cb6-2e6f5d4c91c2","system_id":"levelo_inurba_marseille","lat":43.26202,"lon":5.37436,"is_reserved":false,"is_disabled":false,"rental_uris":{"android":"levelo://app?vid=9c8f2851-b94a-491b-9cb6-2e6f5d4c91c2","ios":"levelo://app?vid=9c8f2851-b94a-491b-9cb6-2e6f5d4c91c2"},"vehicle_type_id":"4","last_reported":1748599882,"current_range_meters":14400,"station_id":"ce4bhgp2rcd13ifvqfc0","pricing_plan_id":"cebpf4jnsgd1na2vs0mg"},{"bike_id":"f30d532a-5239-405b-8f04-4f3e1a44b964","system_id":"levelo_inurba_marseille","lat":43.272062,"lon":5.391835,"is_reserved":false,"is_disabled":false,"rental_uris":{"android":"levelo://app?vid=f30d532a-5239-405b-8f04-4f3e1a44b964","ios":"levelo://app?vid=f30d532a-5239-405b-8f04-4f3e1a44b964"},"vehicle_type_id":"4","last_reported":1748599882,"current_range_meters":14400,"station_id":"ce4bhhp2rcd13ifvqfm0","pricing_plan_id":"cebpf4jnsgd1na2vs0mg"},{"bike_id":"d1faba7c-e1bd-4ca4-ab7d-35374b359306","system_id":"levelo_inurba_marseille","lat":43.23174,"lon":5.39988,"is_reserved":false,"is_disabled":false,"rental_uris":{"android":"levelo://app?vid=d1faba7c-e1bd-4ca4-ab7d-35374b359306","ios":"levelo://app?vid=d1faba7c-e1bd-4ca4-ab7d-35374b359306"},"vehicle_type_id":"4","last_reported":1748599882,"current_range_meters":14400,"station_id":"ce4bhn12rcd13ifvqgqg","pricing_plan_id":"cebpf4jnsgd1na2vs0mg"},{"bike_id":"e4eb1168-f129-4c5b-9089-c09d595d396d","system_id":"levelo_inurba_marseille","lat":43.27806,"lon":5.40712,"is_reserved":false,"is_disabled":false,"rental_uris":{"android":"levelo://app?vid=e4eb1168-f129-4c5b-9089-c09d595d396d","ios":"levelo://app?vid=e4eb1168-f129-4c5b-9089-c09d595d396d"},"vehicle_type_id":"4","last_reported":1748599882,"current_range_meters":14400,"station_id":"ce4bhnh2rcd13ifvqgtg","pricing_plan_id":"cebpf4jnsgd1na2vs0mg"},{"bike_id":"e5f17177-5446-4000-ac93-41ada14f33cb","system_id":"levelo_inurba_marseille","lat":43.32457,"lon":5.36516,"is_reserved":false,"is_disabled":false,"rental_uris":{"android":"levelo://app?vid=e5f17177-5446-4000-ac93-41ada14f33cb","ios":"levelo://app?vid=e5f17177-5446-4000-ac93-41ada14f33cb"},"vehicle_type_id":"4","last_reported":1748599882,"current_range_meters":14400,"station_id":"ce4bhs12rcd13ifvqhvg","pricing_plan_id":"cebpf4jnsgd1na2vs0mg"},{"bike_id":"b18036e4-cdbb-441f-a4f1-99c9cdbece34","system_id":"levelo_inurba_marseille","lat":43.29492,"lon":5.39073,"is_reserved":false,"is_disabled":false,"rental_uris":{"android":"levelo://app?vid=b18036e4-cdbb-441f-a4f1-99c9cdbece34","ios":"levelo://app?vid=b18036e4-cdbb-441f-a4f1-99c9cdbece34"},"vehicle_type_id":"4","last_reported":1748599882,"current_range_meters":14800,"station_id":"ce4bh3p2rcd13ifvqdp0","pricing_plan_id":"cebpf4jnsgd1na2vs0mg"},{"bike_id":"950a66c6-0112-4714-a007-202e42172c1f","system_id":"levelo_inurba_marseille","lat":43.24813,"lon":5.37454,"is_reserved":false,"is_disabled":false,"rental_uris":{"android":"levelo://app?vid=950a66c6-0112-4714-a007-202e42172c1f","ios":"levelo://app?vid=950a66c6-0112-4714-a007-202e42172c1f"},"vehicle_type_id":"4","last_reported":1748599882,"current_range_meters":14800,"station_id":"ce4bhgh2rcd13ifvqfb0","pricing_plan_id":"cebpf4jnsgd1na2vs0mg"},{"bike_id":"331db762-ba1d-4bd5-9690-964d0ada43bf","system_id":"levelo_inurba_marseille","lat":43.26212,"lon":5.37443,"is_reserved":false,"is_disabled":false,"rental_uris":{"android":"levelo://app?vid=331db762-ba1d-4bd5-9690-964d0ada43bf","ios":"levelo://app?vid=331db762-ba1d-4bd5-9690-964d0ada43bf"},"vehicle_type_id":"4","last_reported":1748599882,"current_range_meters":14800,"station_id":"ce4bhgp2rcd13ifvqfc0","pricing_plan_id":"cebpf4jnsgd1na2vs0mg"},{"bike_id":"fed2fd32-b42f-4990-ab4f-84d4548cbd9f","system_id":"levelo_inurba_marseille","lat":43.32055,"lon":5.41532,"is_reserved":false,"is_disabled":false,"rental_uris":{"android":"levelo://app?vid=fed2fd32-b42f-4990-ab4f-84d4548cbd9f","ios":"levelo://app?vid=fed2fd32-b42f-4990-ab4f-84d4548cbd9f"},"vehicle_type_id":"4","last_reported":1748599882,"current_range_meters":14800,"station_id":"ce4bhq92rcd13ifvqhkg","pricing_plan_id":"cebpf4jnsgd1na2vs0mg"},{"bike_id":"bf9ada33-fac3-4c6c-a22e-d3b48e785518","system_id":"levelo_inurba_marseille","lat":43.28048,"lon":5.40896,"is_reserved":false,"is_disabled":false,"rental_uris":{"android":"levelo://app?vid=bf9ada33-fac3-4c6c-a22e-d3b48e785518","ios":"levelo://app?vid=bf9ada33-fac3-4c6c-a22e-d3b48e785518"},"vehicle_type_id":"4","last_reported":1748599882,"current_range_meters":15200,"station_id":"","pricing_plan_id":"cebpf4jnsgd1na2vs0mg"},{"bike_id":"d6d1ada7-d095-4848-a9c7-71d520f6d868","system_id":"levelo_inurba_marseille","lat":43.299666,"lon":5.384894,"is_reserved":false,"is_disabled":false,"rental_uris":{"android":"levelo://app?vid=d6d1ada7-d095-4848-a9c7-71d520f6d868","ios":"levelo://app?vid=d6d1ada7-d095-4848-a9c7-71d520f6d868"},"vehicle_type_id":"4","last_reported":1748599882,"current_range_meters":15200,"station_id":"","pricing_plan_id":"cebpf4jnsgd1na2vs0mg"},{"bike_id":"dd34afa2-f665-4263-85a8-7de7dbd3a196","system_id":"levelo_inurba_marseille","lat":43.276,"lon":5.39686,"is_reserved":false,"is_disabled":false,"rental_uris":{"android":"levelo://app?vid=dd34afa2-f665-4263-85a8-7de7dbd3a196","ios":"levelo://app?vid=dd34afa2-f665-4263-85a8-7de7dbd3a196"},"vehicle_type_id":"4","last_reported":1748599882,"current_range_meters":15200,"station_id":"","pricing_plan_id":"cebpf4jnsgd1na2vs0mg"},{"bike_id":"046bd24e-d385-4563-bab4-c0545400a254","system_id":"levelo_inurba_marseille","lat":43.28254,"lon":5.35064,"is_reserved":false,"is_disabled":false,"rental_uris":{"android":"levelo://app?vid=046bd24e-d385-4563-bab4-c0545400a254","ios":"levelo://app?vid=046bd24e-d385-4563-bab4-c0545400a254"},"vehicle_type_id":"4","last_reported":1748599882,"current_range_meters":15200,"station_id":"ce4bhbp2rcd13ifvqerg","pricing_plan_id":"cebpf4jnsgd1na2vs0mg"},{"bike_id":"96b350e2-3397-42e4-b306-0462cc7bec05","system_id":"levelo_inurba_marseille","lat":43.27904,"lon":5.38006,"is_reserved":false,"is_disabled":false,"rental_uris":{"android":"levelo://app?vid=96b350e2-3397-42e4-b306-0462cc7bec05","ios":"levelo://app?vid=96b350e2-3397-42e4-b306-0462cc7bec05"},"vehicle_type_id":"4","last_reported":1748599882,"current_range_meters":15200,"station_id":"ce4bhf92rcd13ifvqf50","pricing_plan_id":"cebpf4jnsgd1na2vs0mg"},{"bike_id":"caed8174-199f-47b2-a36a-d066cb3c05d1","system_id":"levelo_inurba_marseille","lat":43.26212,"lon":5.3744,"is_reserved":false,"is_disabled":false,"rental_uris":{"android":"levelo://app?vid=caed8174-199f-47b2-a36a-d066cb3c05d1","ios":"levelo://app?vid=caed8174-199f-47b2-a36a-d066cb3c05d1"},"vehicle_type_id":"4","last_reported":1748599882,"current_range_meters":15200,"station_id":"ce4bhgp2rcd13ifvqfc0","pricing_plan_id":"cebpf4jnsgd1na2vs0mg"},{"bike_id":"3f6bdd7a-f940-4500-9687-219a6ad07200","system_id":"levelo_inurba_marseille","lat":43.27059,"lon":5.40257,"is_reserved":false,"is_disabled":false,"rental_uris":{"android":"levelo://app?vid=3f6bdd7a-f940-4500-9687-219a6ad07200","ios":"levelo://app?vid=3f6bdd7a-f940-4500-9687-219a6ad07200"},"vehicle_type_id":"4","last_reported":1748599882,"current_range_meters":15200,"station_id":"ce4bhk92rcd13ifvqgc0","pricing_plan_id":"cebpf4jnsgd1na2vs0mg"},{"bike_id":"67a6560c-83dc-490e-9fc7-f17e3d931afd","system_id":"levelo_inurba_marseille","lat":43.24163,"lon":5.36396,"is_reserved":false,"is_disabled":false,"rental_uris":{"android":"levelo://app?vid=67a6560c-83dc-490e-9fc7-f17e3d931afd","ios":"levelo://app?vid=67a6560c-83dc-490e-9fc7-f17e3d931afd"},"vehicle_type_id":"4","last_reported":1748599882,"current_range_meters":15200,"station_id":"cpo36qri1sfpv3e86is0","pricing_plan_id":"cebpf4jnsgd1na2vs0mg"},{"bike_id":"fb1cfb18-2f45-47b9-889d-791e87cbd88c","system_id":"levelo_inurba_marseille","lat":43.27177,"lon":5.40996,"is_reserved":false,"is_disabled":false,"rental_uris":{"android":"levelo://app?vid=fb1cfb18-2f45-47b9-889d-791e87cbd88c","ios":"levelo://app?vid=fb1cfb18-2f45-47b9-889d-791e87cbd88c"},"vehicle_type_id":"4","last_reported":1748599882,"current_range_meters":16000,"station_id":"ce4bhl12rcd13ifvqgf0","pricing_plan_id":"cebpf4jnsgd1na2vs0mg"},{"bike_id":"565b3e3d-698b-4f09-8892-9a3ab833c044","system_id":"levelo_inurba_marseille","lat":43.27111,"lon":5.36262,"is_reserved":false,"is_disabled":false,"rental_uris":{"android":"levelo://app?vid=565b3e3d-698b-4f09-8892-9a3ab833c044","ios":"levelo://app?vid=565b3e3d-698b-4f09-8892-9a3ab833c044"},"vehicle_type_id":"4","last_reported":1748599882,"current_range_meters":16400,"station_id":"","pricing_plan_id":"cebpf4jnsgd1na2vs0mg"},{"bike_id":"f47d5d15-b929-42e8-aa00-5bc8a2dc15e4","system_id":"levelo_inurba_marseille","lat":43.22502,"lon":5.34785,"is_reserved":false,"is_disabled":false,"rental_uris":{"android":"levelo://app?vid=f47d5d15-b929-42e8-aa00-5bc8a2dc15e4","ios":"levelo://app?vid=f47d5d15-b929-42e8-aa00-5bc8a2dc15e4"},"vehicle_type_id":"4","last_reported":1748599882,"current_range_meters":16400,"station_id":"","pricing_plan_id":"cebpf4jnsgd1na2vs0mg"},{"bike_id":"3fc7562e-d1b3-402e-9772-a58bf3e0f9ba","system_id":"levelo_inurba_marseille","lat":43.29799,"lon":5.38105,"is_reserved":false,"is_disabled":false,"rental_uris":{"android":"levelo://app?vid=3fc7562e-d1b3-402e-9772-a58bf3e0f9ba","ios":"levelo://app?vid=3fc7562e-d1b3-402e-9772-a58bf3e0f9ba"},"vehicle_type_id":"4","last_reported":1748599882,"current_range_meters":16400,"station_id":"ce4bgip2rcd13ifvqbb0","pricing_plan_id":"cebpf4jnsgd1na2vs0mg"},{"bike_id":"7dc7f12f-677c-4795-8c9a-b031794ebb57","system_id":"levelo_inurba_marseille","lat":43.28415,"lon":5.34978,"is_reserved":false,"is_disabled":false,"rental_uris":{"android":"levelo://app?vid=7dc7f12f-677c-4795-8c9a-b031794ebb57","ios":"levelo://app?vid=7dc7f12f-677c-4795-8c9a-b031794ebb57"},"vehicle_type_id":"4","last_reported":1748599882,"current_range_meters":16400,"station_id":"ce4bhbh2rcd13ifvqepg","pricing_plan_id":"cebpf4jnsgd1na2vs0mg"},{"bike_id":"a1b28146-67ba-460f-a3b6-23293e9aee3a","system_id":"levelo_inurba_marseille","lat":43.28628,"lon":5.35097,"is_reserved":false,"is_disabled":false,"rental_uris":{"android":"levelo://app?vid=a1b28146-67ba-460f-a3b6-23293e9aee3a","ios":"levelo://app?vid=a1b28146-67ba-460f-a3b6-23293e9aee3a"},"vehicle_type_id":"4","last_reported":1748599882,"current_range_meters":16400,"station_id":"ce4bhch2rcd13ifvqeug","pricing_plan_id":"cebpf4jnsgd1na2vs0mg"},{"bike_id":"30c0360d-3b58-44ff-a262-1c15bc51a067","system_id":"levelo_inurba_marseille","lat":43.26197,"lon":5.37452,"is_reserved":false,"is_disabled":false,"rental_uris":{"android":"levelo://app?vid=30c0360d-3b58-44ff-a262-1c15bc51a067","ios":"levelo://app?vid=30c0360d-3b58-44ff-a262-1c15bc51a067"},"vehicle_type_id":"4","last_reported":1748599882,"current_range_meters":16400,"station_id":"ce4bhgp2rcd13ifvqfc0","pricing_plan_id":"cebpf4jnsgd1na2vs0mg"},{"bike_id":"fe8033ce-bb5c-4c15-916a-6b9dd8f02eb4","system_id":"levelo_inurba_marseille","lat":43.27329,"lon":5.39091,"is_reserved":false,"is_disabled":false,"rental_uris":{"android":"levelo://app?vid=fe8033ce-bb5c-4c15-916a-6b9dd8f02eb4","ios":"levelo://app?vid=fe8033ce-bb5c-4c15-916a-6b9dd8f02eb4"},"vehicle_type_id":"4","last_reported":1748599882,"current_range_meters":16400,"station_id":"ce4bhgp2rcd13ifvqfe0","pricing_plan_id":"cebpf4jnsgd1na2vs0mg"},{"bike_id":"1553acf6-55e6-48bc-a9b4-60c9938ce2ac","system_id":"levelo_inurba_marseille","lat":43.26791,"lon":5.39412,"is_reserved":false,"is_disabled":false,"rental_uris":{"android":"levelo://app?vid=1553acf6-55e6-48bc-a9b4-60c9938ce2ac","ios":"levelo://app?vid=1553acf6-55e6-48bc-a9b4-60c9938ce2ac"},"vehicle_type_id":"4","last_reported":1748599882,"current_range_meters":16400,"station_id":"ce4bhh12rcd13ifvqfg0","pricing_plan_id":"cebpf4jnsgd1na2vs0mg"},{"bike_id":"43ccdf9a-a00b-41b0-8707-077985ba8224","system_id":"levelo_inurba_marseille","lat":43.23963,"lon":5.36628,"is_reserved":false,"is_disabled":false,"rental_uris":{"android":"levelo://app?vid=43ccdf9a-a00b-41b0-8707-077985ba8224","ios":"levelo://app?vid=43ccdf9a-a00b-41b0-8707-077985ba8224"},"vehicle_type_id":"4","last_reported":1748599882,"current_range_meters":16400,"station_id":"ce4bhi12rcd13ifvqfp0","pricing_plan_id":"cebpf4jnsgd1na2vs0mg"},{"bike_id":"7eca6927-0eee-41fb-838c-8606d041ec62","system_id":"levelo_inurba_marseille","lat":43.26232,"lon":5.40476,"is_reserved":false,"is_disabled":false,"rental_uris":{"android":"levelo://app?vid=7eca6927-0eee-41fb-838c-8606d041ec62","ios":"levelo://app?vid=7eca6927-0eee-41fb-838c-8606d041ec62"},"vehicle_type_id":"4","last_reported":1748599882,"current_range_meters":16400,"station_id":"ce4bhmh2rcd13ifvqgmg","pricing_plan_id":"cebpf4jnsgd1na2vs0mg"},{"bike_id":"c30f3b15-12a5-4ff6-a778-8adc25bdb363","system_id":"levelo_inurba_marseille","lat":43.23134,"lon":5.43727,"is_reserved":false,"is_disabled":false,"rental_uris":{"android":"levelo://app?vid=c30f3b15-12a5-4ff6-a778-8adc25bdb363","ios":"levelo://app?vid=c30f3b15-12a5-4ff6-a778-8adc25bdb363"},"vehicle_type_id":"4","last_reported":1748599882,"current_range_meters":16400,"station_id":"ce4bhmp2rcd13ifvqgog","pricing_plan_id":"cebpf4jnsgd1na2vs0mg"},{"bike_id":"71930e17-fe3c-443f-b621-4d725e50390f","system_id":"levelo_inurba_marseille","lat":43.33714,"lon":5.39201,"is_reserved":false,"is_disabled":false,"rental_uris":{"android":"levelo://app?vid=71930e17-fe3c-443f-b621-4d725e50390f","ios":"levelo://app?vid=71930e17-fe3c-443f-b621-4d725e50390f"},"vehicle_type_id":"4","last_reported":1748599882,"current_range_meters":16400,"station_id":"ce4bhr92rcd13ifvqhsg","pricing_plan_id":"cebpf4jnsgd1na2vs0mg"},{"bike_id":"fde2e01a-826f-4309-b9f9-cc5ca2c2b38d","system_id":"levelo_inurba_marseille","lat":43.21189,"lon":5.35074,"is_reserved":false,"is_disabled":false,"rental_uris":{"android":"levelo://app?vid=fde2e01a-826f-4309-b9f9-cc5ca2c2b38d","ios":"levelo://app?vid=fde2e01a-826f-4309-b9f9-cc5ca2c2b38d"},"vehicle_type_id":"4","last_reported":1748599882,"current_range_meters":16800,"station_id":"","pricing_plan_id":"cebpf4jnsgd1na2vs0mg"},{"bike_id":"4cfeb489-47e0-47b8-aa54-558708712fe2","system_id":"levelo_inurba_marseille","lat":43.30532,"lon":5.36515,"is_reserved":false,"is_disabled":false,"rental_uris":{"android":"levelo://app?vid=4cfeb489-47e0-47b8-aa54-558708712fe2","ios":"levelo://app?vid=4cfeb489-47e0-47b8-aa54-558708712fe2"},"vehicle_type_id":"4","last_reported":1748599882,"current_range_meters":16800,"station_id":"ce4bgs12rcd13ifvqcag","pricing_plan_id":"cebpf4jnsgd1na2vs0mg"},{"bike_id":"8fbd6e77-09f0-4a5e-9432-a814be59118d","system_id":"levelo_inurba_marseille","lat":43.28425,"lon":5.3498,"is_reserved":false,"is_disabled":false,"rental_uris":{"android":"levelo://app?vid=8fbd6e77-09f0-4a5e-9432-a814be59118d","ios":"levelo://app?vid=8fbd6e77-09f0-4a5e-9432-a814be59118d"},"vehicle_type_id":"4","last_reported":1748599882,"current_range_meters":16800,"station_id":"ce4bhbh2rcd13ifvqepg","pricing_plan_id":"cebpf4jnsgd1na2vs0mg"},{"bike_id":"46cb4631-134a-4d49-a534-67e9c634365b","system_id":"levelo_inurba_marseille","lat":43.27423,"lon":5.39418,"is_reserved":false,"is_disabled":false,"rental_uris":{"android":"levelo://app?vid=46cb4631-134a-4d49-a534-67e9c634365b","ios":"levelo://app?vid=46cb4631-134a-4d49-a534-67e9c634365b"},"vehicle_type_id":"4","last_reported":1748599882,"current_range_meters":16800,"station_id":"ce4bhdp2rcd13ifvqf20","pricing_plan_id":"cebpf4jnsgd1na2vs0mg"},{"bike_id":"53149a50-42d6-422b-81ff-d309079f9b29","system_id":"levelo_inurba_marseille","lat":43.25943,"lon":5.40891,"is_reserved":false,"is_disabled":false,"rental_uris":{"android":"levelo://app?vid=53149a50-42d6-422b-81ff-d309079f9b29","ios":"levelo://app?vid=53149a50-42d6-422b-81ff-d309079f9b29"},"vehicle_type_id":"4","last_reported":1748599882,"current_range_meters":16800,"station_id":"ce4bhm92rcd13ifvqglg","pricing_plan_id":"cebpf4jnsgd1na2vs0mg"},{"bike_id":"467f8a47-c2bb-4de1-8820-3f593392b65b","system_id":"levelo_inurba_marseille","lat":43.23143,"lon":5.43711,"is_reserved":false,"is_disabled":false,"rental_uris":{"android":"levelo://app?vid=467f8a47-c2bb-4de1-8820-3f593392b65b","ios":"levelo://app?vid=467f8a47-c2bb-4de1-8820-3f593392b65b"},"vehicle_type_id":"4","last_reported":1748599882,"current_range_meters":16800,"station_id":"ce4bhmp2rcd13ifvqgog","pricing_plan_id":"cebpf4jnsgd1na2vs0mg"},{"bike_id":"d7a91929-e8d0-4e05-a434-6316c1c28bf3","system_id":"levelo_inurba_marseille","lat":43.23187,"lon":5.39971,"is_reserved":false,"is_disabled":false,"rental_uris":{"android":"levelo://app?vid=d7a91929-e8d0-4e05-a434-6316c1c28bf3","ios":"levelo://app?vid=d7a91929-e8d0-4e05-a434-6316c1c28bf3"},"vehicle_type_id":"4","last_reported":1748599882,"current_range_meters":16800,"station_id":"ce4bhn12rcd13ifvqgqg","pricing_plan_id":"cebpf4jnsgd1na2vs0mg"},{"bike_id":"65cbc169-797e-4e8e-8be8-c90cfcafc3ac","system_id":"levelo_inurba_marseille","lat":43.28146,"lon":5.42621,"is_reserved":false,"is_disabled":false,"rental_uris":{"android":"levelo://app?vid=65cbc169-797e-4e8e-8be8-c90cfcafc3ac","ios":"levelo://app?vid=65cbc169-797e-4e8e-8be8-c90cfcafc3ac"},"vehicle_type_id":"4","last_reported":1748599882,"current_range_meters":16800,"station_id":"ce4bhnh2rcd13ifvqgug","pricing_plan_id":"cebpf4jnsgd1na2vs0mg"},{"bike_id":"81ca86d3-b690-475d-a5ae-23e668d1cff2","system_id":"levelo_inurba_marseille","lat":43.23195,"lon":5.35549,"is_reserved":false,"is_disabled":false,"rental_uris":{"android":"levelo://app?vid=81ca86d3-b690-475d-a5ae-23e668d1cff2","ios":"levelo://app?vid=81ca86d3-b690-475d-a5ae-23e668d1cff2"},"vehicle_type_id":"4","last_reported":1748599882,"current_range_meters":16800,"station_id":"ce4bhu92rcd13ifvqi70","pricing_plan_id":"cebpf4jnsgd1na2vs0mg"},{"bike_id":"15da55b1-1376-4e2d-8e65-24dbca6a4a8d","system_id":"levelo_inurba_marseille","lat":43.33757,"lon":5.37431,"is_reserved":false,"is_disabled":false,"rental_uris":{"android":"levelo://app?vid=15da55b1-1376-4e2d-8e65-24dbca6a4a8d","ios":"levelo://app?vid=15da55b1-1376-4e2d-8e65-24dbca6a4a8d"},"vehicle_type_id":"4","last_reported":1748599882,"current_range_meters":17200,"station_id":"","pricing_plan_id":"cebpf4jnsgd1na2vs0mg"},{"bike_id":"27c8c33c-c13c-4cba-a08e-e2577b7035fd","system_id":"levelo_inurba_marseille","lat":43.29711,"lon":5.37682,"is_reserved":false,"is_disabled":false,"rental_uris":{"android":"levelo://app?vid=27c8c33c-c13c-4cba-a08e-e2577b7035fd","ios":"levelo://app?vid=27c8c33c-c13c-4cba-a08e-e2577b7035fd"},"vehicle_type_id":"4","last_reported":1748599882,"current_range_meters":17200,"station_id":"ce4bgkh2rcd13ifvqbl0","pricing_plan_id":"cebpf4jnsgd1na2vs0mg"},{"bike_id":"810b0761-d40c-45f4-a39c-da290b77b9dc","system_id":"levelo_inurba_marseille","lat":43.3169,"lon":5.40446,"is_reserved":false,"is_disabled":false,"rental_uris":{"android":"levelo://app?vid=810b0761-d40c-45f4-a39c-da290b77b9dc","ios":"levelo://app?vid=810b0761-d40c-45f4-a39c-da290b77b9dc"},"vehicle_type_id":"4","last_reported":1748599882,"current_range_meters":17200,"station_id":"ce4bh012rcd13ifvqd00","pricing_plan_id":"cebpf4jnsgd1na2vs0mg"},{"bike_id":"f83ed8be-4c36-4d98-a7f8-af6c4fdc2574","system_id":"levelo_inurba_marseille","lat":43.28409,"lon":5.34984,"is_reserved":false,"is_disabled":false,"rental_uris":{"android":"levelo://app?vid=f83ed8be-4c36-4d98-a7f8-af6c4fdc2574","ios":"levelo://app?vid=f83ed8be-4c36-4d98-a7f8-af6c4fdc2574"},"vehicle_type_id":"4","last_reported":1748599882,"current_range_meters":17200,"station_id":"ce4bhbh2rcd13ifvqepg","pricing_plan_id":"cebpf4jnsgd1na2vs0mg"},{"bike_id":"eb8c1713-ca76-4da2-a848-ef5dba1bc9df","system_id":"levelo_inurba_marseille","lat":43.28415,"lon":5.34995,"is_reserved":false,"is_disabled":false,"rental_uris":{"android":"levelo://app?vid=eb8c1713-ca76-4da2-a848-ef5dba1bc9df","ios":"levelo://app?vid=eb8c1713-ca76-4da2-a848-ef5dba1bc9df"},"vehicle_type_id":"4","last_reported":1748599882,"current_range_meters":17200,"station_id":"ce4bhbh2rcd13ifvqepg","pricing_plan_id":"cebpf4jnsgd1na2vs0mg"},{"bike_id":"b08361b1-e7ec-4a5b-8edb-7c4c7ccf8a2b","system_id":"levelo_inurba_marseille","lat":43.321072,"lon":5.367728,"is_reserved":false,"is_disabled":false,"rental_uris":{"android":"levelo://app?vid=b08361b1-e7ec-4a5b-8edb-7c4c7ccf8a2b","ios":"levelo://app?vid=b08361b1-e7ec-4a5b-8edb-7c4c7ccf8a2b"},"vehicle_type_id":"4","last_reported":1748599882,"current_range_meters":17200,"station_id":"ce4bhrh2rcd13ifvqhug","pricing_plan_id":"cebpf4jnsgd1na2vs0mg"},{"bike_id":"24ea61dc-fcea-4147-9bfb-281ca369e52c","system_id":"levelo_inurba_marseille","lat":43.24163,"lon":5.36411,"is_reserved":false,"is_disabled":false,"rental_uris":{"android":"levelo://app?vid=24ea61dc-fcea-4147-9bfb-281ca369e52c","ios":"levelo://app?vid=24ea61dc-fcea-4147-9bfb-281ca369e52c"},"vehicle_type_id":"4","last_reported":1748599882,"current_range_meters":17200,"station_id":"cpo36qri1sfpv3e86is0","pricing_plan_id":"cebpf4jnsgd1na2vs0mg"},{"bike_id":"b78e2f3d-5c36-4533-a66a-9e6cb2d8f174","system_id":"levelo_inurba_marseille","lat":43.2175,"lon":5.34599,"is_reserved":false,"is_disabled":false,"rental_uris":{"android":"levelo://app?vid=b78e2f3d-5c36-4533-a66a-9e6cb2d8f174","ios":"levelo://app?vid=b78e2f3d-5c36-4533-a66a-9e6cb2d8f174"},"vehicle_type_id":"4","last_reported":1748599882,"current_range_meters":17200,"station_id":"st_cvj6r9ubvosntc0bgbag","pricing_plan_id":"cebpf4jnsgd1na2vs0mg"},{"bike_id":"4fd6362c-11c9-4e87-8c2b-017c150ef5ab","system_id":"levelo_inurba_marseille","lat":43.31064,"lon":5.40089,"is_reserved":false,"is_disabled":false,"rental_uris":{"android":"levelo://app?vid=4fd6362c-11c9-4e87-8c2b-017c150ef5ab","ios":"levelo://app?vid=4fd6362c-11c9-4e87-8c2b-017c150ef5ab"},"vehicle_type_id":"4","last_reported":1748599882,"current_range_meters":17600,"station_id":"","pricing_plan_id":"cebpf4jnsgd1na2vs0mg"},{"bike_id":"7f82359d-86fb-4e1e-900b-4db77f7d35b2","system_id":"levelo_inurba_marseille","lat":43.29566,"lon":5.37502,"is_reserved":false,"is_disabled":false,"rental_uris":{"android":"levelo://app?vid=7f82359d-86fb-4e1e-900b-4db77f7d35b2","ios":"levelo://app?vid=7f82359d-86fb-4e1e-900b-4db77f7d35b2"},"vehicle_type_id":"4","last_reported":1748599882,"current_range_meters":17600,"station_id":"ce4bgh92rcd13ifvqb50","pricing_plan_id":"cebpf4jnsgd1na2vs0mg"},{"bike_id":"eabdda0a-0863-422e-a202-efdbab1b7f18","system_id":"levelo_inurba_marseille","lat":43.29848,"lon":5.36276,"is_reserved":false,"is_disabled":false,"rental_uris":{"android":"levelo://app?vid=eabdda0a-0863-422e-a202-efdbab1b7f18","ios":"levelo://app?vid=eabdda0a-0863-422e-a202-efdbab1b7f18"},"vehicle_type_id":"4","last_reported":1748599882,"current_range_meters":17600,"station_id":"ce4bgpp2rcd13ifvqc3g","pricing_plan_id":"cebpf4jnsgd1na2vs0mg"},{"bike_id":"c7f7e294-573c-46b0-a5e2-e8d0ead9c51b","system_id":"levelo_inurba_marseille","lat":43.30554,"lon":5.36556,"is_reserved":false,"is_disabled":false,"rental_uris":{"android":"levelo://app?vid=c7f7e294-573c-46b0-a5e2-e8d0ead9c51b","ios":"levelo://app?vid=c7f7e294-573c-46b0-a5e2-e8d0ead9c51b"},"vehicle_type_id":"4","last_reported":1748599882,"current_range_meters":17600,"station_id":"ce4bgs12rcd13ifvqcag","pricing_plan_id":"cebpf4jnsgd1na2vs0mg"},{"bike_id":"875ec15a-6da4-4b3e-a089-dfc626be9da6","system_id":"levelo_inurba_marseille","lat":43.28272,"lon":5.35062,"is_reserved":false,"is_disabled":false,"rental_uris":{"android":"levelo://app?vid=875ec15a-6da4-4b3e-a089-dfc626be9da6","ios":"levelo://app?vid=875ec15a-6da4-4b3e-a089-dfc626be9da6"},"vehicle_type_id":"4","last_reported":1748599882,"current_range_meters":17600,"station_id":"ce4bhbp2rcd13ifvqerg","pricing_plan_id":"cebpf4jnsgd1na2vs0mg"},{"bike_id":"bb56f75d-b7f3-41c8-9a48-29c33ecb8eea","system_id":"levelo_inurba_marseille","lat":43.27941,"lon":5.41053,"is_reserved":false,"is_disabled":false,"rental_uris":{"android":"levelo://app?vid=bb56f75d-b7f3-41c8-9a48-29c33ecb8eea","ios":"levelo://app?vid=bb56f75d-b7f3-41c8-9a48-29c33ecb8eea"},"vehicle_type_id":"4","last_reported":1748599882,"current_range_meters":17600,"station_id":"ce4bhnp2rcd13ifvqh0g","pricing_plan_id":"cebpf4jnsgd1na2vs0mg"},{"bike_id":"56b39472-5bc0-4f3d-a1f6-13a8b25116b4","system_id":"levelo_inurba_marseille","lat":43.23068,"lon":5.35492,"is_reserved":false,"is_disabled":false,"rental_uris":{"android":"levelo://app?vid=56b39472-5bc0-4f3d-a1f6-13a8b25116b4","ios":"levelo://app?vid=56b39472-5bc0-4f3d-a1f6-13a8b25116b4"},"vehicle_type_id":"4","last_reported":1748599882,"current_range_meters":17600,"station_id":"cpo3342slgdg3j2ifvpg","pricing_plan_id":"cebpf4jnsgd1na2vs0mg"},{"bike_id":"512266bf-b3db-46a5-a533-00553ed7a7e7","system_id":"levelo_inurba_marseille","lat":43.21747,"lon":5.34602,"is_reserved":false,"is_disabled":false,"rental_uris":{"android":"levelo://app?vid=512266bf-b3db-46a5-a533-00553ed7a7e7","ios":"levelo://app?vid=512266bf-b3db-46a5-a533-00553ed7a7e7"},"vehicle_type_id":"4","last_reported":1748599882,"current_range_meters":17600,"station_id":"st_cvj6r9ubvosntc0bgbag","pricing_plan_id":"cebpf4jnsgd1na2vs0mg"},{"bike_id":"ba46340d-8acd-4423-b0e9-5ffaab3cb97b","system_id":"levelo_inurba_marseille","lat":43.21194,"lon":5.35073,"is_reserved":false,"is_disabled":false,"rental_uris":{"android":"levelo://app?vid=ba46340d-8acd-4423-b0e9-5ffaab3cb97b","ios":"levelo://app?vid=ba46340d-8acd-4423-b0e9-5ffaab3cb97b"},"vehicle_type_id":"4","last_reported":1748599882,"current_range_meters":17600,"station_id":"st_cvj6sg6p6f1abm77japg","pricing_plan_id":"cebpf4jnsgd1na2vs0mg"},{"bike_id":"9dba3947-4a34-482c-b805-ddc0f699cb96","system_id":"levelo_inurba_marseille","lat":43.32986,"lon":5.38339,"is_reserved":false,"is_disabled":false,"rental_uris":{"android":"levelo://app?vid=9dba3947-4a34-482c-b805-ddc0f699cb96","ios":"levelo://app?vid=9dba3947-4a34-482c-b805-ddc0f699cb96"},"vehicle_type_id":"4","last_reported":1748599882,"current_range_meters":18000,"station_id":"","pricing_plan_id":"cebpf4jnsgd1na2vs0mg"},{"bike_id":"229a0e98-9d7b-467b-a4bb-758296a3cf6a","system_id":"levelo_inurba_marseille","lat":43.291703,"lon":5.375188,"is_reserved":false,"is_disabled":false,"rental_uris":{"android":"levelo://app?vid=229a0e98-9d7b-467b-a4bb-758296a3cf6a","ios":"levelo://app?vid=229a0e98-9d7b-467b-a4bb-758296a3cf6a"},"vehicle_type_id":"4","last_reported":1748599882,"current_range_meters":18000,"station_id":"ce4bgi12rcd13ifvqb80","pricing_plan_id":"cebpf4jnsgd1na2vs0mg"},{"bike_id":"74da3e23-e68b-447f-a56b-f8250208c184","system_id":"levelo_inurba_marseille","lat":43.29931,"lon":5.36551,"is_reserved":false,"is_disabled":false,"rental_uris":{"android":"levelo://app?vid=74da3e23-e68b-447f-a56b-f8250208c184","ios":"levelo://app?vid=74da3e23-e68b-447f-a56b-f8250208c184"},"vehicle_type_id":"4","last_reported":1748599882,"current_range_meters":18000,"station_id":"ce4bgm92rcd13ifvqbr0","pricing_plan_id":"cebpf4jnsgd1na2vs0mg"},{"bike_id":"c639c8b7-5b85-4086-9ccd-0594027cb63e","system_id":"levelo_inurba_marseille","lat":43.299797,"lon":5.371727,"is_reserved":false,"is_disabled":false,"rental_uris":{"android":"levelo://app?vid=c639c8b7-5b85-4086-9ccd-0594027cb63e","ios":"levelo://app?vid=c639c8b7-5b85-4086-9ccd-0594027cb63e"},"vehicle_type_id":"4","last_reported":1748599882,"current_range_meters":18000,"station_id":"ce4bgr92rcd13ifvqc7g","pricing_plan_id":"cebpf4jnsgd1na2vs0mg"},{"bike_id":"c80f14f4-c560-4773-ab76-95c237fba1e2","system_id":"levelo_inurba_marseille","lat":43.28418,"lon":5.34983,"is_reserved":false,"is_disabled":false,"rental_uris":{"android":"levelo://app?vid=c80f14f4-c560-4773-ab76-95c237fba1e2","ios":"levelo://app?vid=c80f14f4-c560-4773-ab76-95c237fba1e2"},"vehicle_type_id":"4","last_reported":1748599882,"current_range_meters":18000,"station_id":"ce4bhbh2rcd13ifvqepg","pricing_plan_id":"cebpf4jnsgd1na2vs0mg"},{"bike_id":"7094b63c-2a37-44c8-9e4f-305d4b484e51","system_id":"levelo_inurba_marseille","lat":43.28417,"lon":5.34986,"is_reserved":false,"is_disabled":false,"rental_uris":{"android":"levelo://app?vid=7094b63c-2a37-44c8-9e4f-305d4b484e51","ios":"levelo://app?vid=7094b63c-2a37-44c8-9e4f-305d4b484e51"},"vehicle_type_id":"4","last_reported":1748599882,"current_range_meters":18000,"station_id":"ce4bhbh2rcd13ifvqepg","pricing_plan_id":"cebpf4jnsgd1na2vs0mg"},{"bike_id":"0cb4270a-a072-41cd-bd1d-3460bab25005","system_id":"levelo_inurba_marseille","lat":43.29272,"lon":5.36842,"is_reserved":false,"is_disabled":false,"rental_uris":{"android":"levelo://app?vid=0cb4270a-a072-41cd-bd1d-3460bab25005","ios":"levelo://app?vid=0cb4270a-a072-41cd-bd1d-3460bab25005"},"vehicle_type_id":"4","last_reported":1748599882,"current_range_meters":18000,"station_id":"ce4bhbp2rcd13ifvqesg","pricing_plan_id":"cebpf4jnsgd1na2vs0mg"},{"bike_id":"643a89c5-f45b-454b-ab34-e18318817db7","system_id":"levelo_inurba_marseille","lat":43.24385,"lon":5.3706,"is_reserved":false,"is_disabled":false,"rental_uris":{"android":"levelo://app?vid=643a89c5-f45b-454b-ab34-e18318817db7","ios":"levelo://app?vid=643a89c5-f45b-454b-ab34-e18318817db7"},"vehicle_type_id":"4","last_reported":1748599882,"current_range_meters":18000,"station_id":"ce4bhhh2rcd13ifvqfk0","pricing_plan_id":"cebpf4jnsgd1na2vs0mg"},{"bike_id":"24498e89-12ab-49a6-8279-e6a69f31d1fa","system_id":"levelo_inurba_marseille","lat":43.28146,"lon":5.42624,"is_reserved":false,"is_disabled":false,"rental_uris":{"android":"levelo://app?vid=24498e89-12ab-49a6-8279-e6a69f31d1fa","ios":"levelo://app?vid=24498e89-12ab-49a6-8279-e6a69f31d1fa"},"vehicle_type_id":"4","last_reported":1748599882,"current_range_meters":18000,"station_id":"ce4bhnh2rcd13ifvqgug","pricing_plan_id":"cebpf4jnsgd1na2vs0mg"},{"bike_id":"57d1fd2f-0f6d-4033-85d5-5fe808277119","system_id":"levelo_inurba_marseille","lat":43.24674,"lon":5.38161,"is_reserved":false,"is_disabled":false,"rental_uris":{"android":"levelo://app?vid=57d1fd2f-0f6d-4033-85d5-5fe808277119","ios":"levelo://app?vid=57d1fd2f-0f6d-4033-85d5-5fe808277119"},"vehicle_type_id":"4","last_reported":1748599882,"current_range_meters":18800,"station_id":"ce4bhih2rcd13ifvqfr0","pricing_plan_id":"cebpf4jnsgd1na2vs0mg"},{"bike_id":"cc9d01fa-849d-4b6f-8ab8-4413d5147b84","system_id":"levelo_inurba_marseille","lat":43.2306,"lon":5.35488,"is_reserved":false,"is_disabled":false,"rental_uris":{"android":"levelo://app?vid=cc9d01fa-849d-4b6f-8ab8-4413d5147b84","ios":"levelo://app?vid=cc9d01fa-849d-4b6f-8ab8-4413d5147b84"},"vehicle_type_id":"4","last_reported":1748599882,"current_range_meters":18800,"station_id":"cpo3342slgdg3j2ifvpg","pricing_plan_id":"cebpf4jnsgd1na2vs0mg"},{"bike_id":"9a545a4a-38f1-4d80-906b-d4be57e0e74d","system_id":"levelo_inurba_marseille","lat":43.224979,"lon":5.347749,"is_reserved":false,"is_disabled":false,"rental_uris":{"android":"levelo://app?vid=9a545a4a-38f1-4d80-906b-d4be57e0e74d","ios":"levelo://app?vid=9a545a4a-38f1-4d80-906b-d4be57e0e74d"},"vehicle_type_id":"4","last_reported":1748599882,"current_range_meters":19200,"station_id":"","pricing_plan_id":"cebpf4jnsgd1na2vs0mg"},{"bike_id":"af1f35a7-2ee6-4f7f-a40e-5f99019be5cf","system_id":"levelo_inurba_marseille","lat":43.31047,"lon":5.39478,"is_reserved":false,"is_disabled":false,"rental_uris":{"android":"levelo://app?vid=af1f35a7-2ee6-4f7f-a40e-5f99019be5cf","ios":"levelo://app?vid=af1f35a7-2ee6-4f7f-a40e-5f99019be5cf"},"vehicle_type_id":"4","last_reported":1748599882,"current_range_meters":19200,"station_id":"","pricing_plan_id":"cebpf4jnsgd1na2vs0mg"},{"bike_id":"c15ffdc2-74f4-4829-a183-8922571dd04a","system_id":"levelo_inurba_marseille","lat":43.29858,"lon":5.36265,"is_reserved":false,"is_disabled":false,"rental_uris":{"android":"levelo://app?vid=c15ffdc2-74f4-4829-a183-8922571dd04a","ios":"levelo://app?vid=c15ffdc2-74f4-4829-a183-8922571dd04a"},"vehicle_type_id":"4","last_reported":1748599882,"current_range_meters":19200,"station_id":"ce4bgpp2rcd13ifvqc3g","pricing_plan_id":"cebpf4jnsgd1na2vs0mg"},{"bike_id":"e5d8ed87-d1ae-4b20-90dc-ea25f317f286","system_id":"levelo_inurba_marseille","lat":43.30593,"lon":5.37226,"is_reserved":false,"is_disabled":false,"rental_uris":{"android":"levelo://app?vid=e5d8ed87-d1ae-4b20-90dc-ea25f317f286","ios":"levelo://app?vid=e5d8ed87-d1ae-4b20-90dc-ea25f317f286"},"vehicle_type_id":"4","last_reported":1748599882,"current_range_meters":19200,"station_id":"ce4bgqh2rcd13ifvqc4g","pricing_plan_id":"cebpf4jnsgd1na2vs0mg"},{"bike_id":"10e37bf9-7b2a-442d-960d-16a61243041f","system_id":"levelo_inurba_marseille","lat":43.314871,"lon":5.373009,"is_reserved":false,"is_disabled":false,"rental_uris":{"android":"levelo://app?vid=10e37bf9-7b2a-442d-960d-16a61243041f","ios":"levelo://app?vid=10e37bf9-7b2a-442d-960d-16a61243041f"},"vehicle_type_id":"4","last_reported":1748599882,"current_range_meters":19200,"station_id":"ce4bgt12rcd13ifvqcd0","pricing_plan_id":"cebpf4jnsgd1na2vs0mg"},{"bike_id":"1a39fbb5-c4ac-4dca-9d06-54dfa4806ed2","system_id":"levelo_inurba_marseille","lat":43.27371,"lon":5.36252,"is_reserved":false,"is_disabled":false,"rental_uris":{"android":"levelo://app?vid=1a39fbb5-c4ac-4dca-9d06-54dfa4806ed2","ios":"levelo://app?vid=1a39fbb5-c4ac-4dca-9d06-54dfa4806ed2"},"vehicle_type_id":"4","last_reported":1748599882,"current_range_meters":19200,"station_id":"ce4bhbh2rcd13ifvqeo0","pricing_plan_id":"cebpf4jnsgd1na2vs0mg"},{"bike_id":"cd90d42a-2f68-4c3d-9809-4e09ed0737a5","system_id":"levelo_inurba_marseille","lat":43.279177,"lon":5.39577,"is_reserved":false,"is_disabled":false,"rental_uris":{"android":"levelo://app?vid=cd90d42a-2f68-4c3d-9809-4e09ed0737a5","ios":"levelo://app?vid=cd90d42a-2f68-4c3d-9809-4e09ed0737a5"},"vehicle_type_id":"4","last_reported":1748599882,"current_range_meters":19200,"station_id":"ce4bhf92rcd13ifvqf40","pricing_plan_id":"cebpf4jnsgd1na2vs0mg"},{"bike_id":"c28439ba-51b8-4edc-9906-bfe0d3ce3538","system_id":"levelo_inurba_marseille","lat":43.26791,"lon":5.39408,"is_reserved":false,"is_disabled":false,"rental_uris":{"android":"levelo://app?vid=c28439ba-51b8-4edc-9906-bfe0d3ce3538","ios":"levelo://app?vid=c28439ba-51b8-4edc-9906-bfe0d3ce3538"},"vehicle_type_id":"4","last_reported":1748599882,"current_range_meters":19200,"station_id":"ce4bhh12rcd13ifvqfg0","pricing_plan_id":"cebpf4jnsgd1na2vs0mg"},{"bike_id":"af8a06b6-baf7-440c-bf02-67c9810bf727","system_id":"levelo_inurba_marseille","lat":43.241729,"lon":5.397394,"is_reserved":false,"is_disabled":false,"rental_uris":{"android":"levelo://app?vid=af8a06b6-baf7-440c-bf02-67c9810bf727","ios":"levelo://app?vid=af8a06b6-baf7-440c-bf02-67c9810bf727"},"vehicle_type_id":"4","last_reported":1748599882,"current_range_meters":19200,"station_id":"ce4bhn12rcd13ifvqgpg","pricing_plan_id":"cebpf4jnsgd1na2vs0mg"},{"bike_id":"757009c8-f6ec-4bd0-b5c4-7bbcf1c7e39b","system_id":"levelo_inurba_marseille","lat":43.23175,"lon":5.39988,"is_reserved":false,"is_disabled":false,"rental_uris":{"android":"levelo://app?vid=757009c8-f6ec-4bd0-b5c4-7bbcf1c7e39b","ios":"levelo://app?vid=757009c8-f6ec-4bd0-b5c4-7bbcf1c7e39b"},"vehicle_type_id":"4","last_reported":1748599882,"current_range_meters":19200,"station_id":"ce4bhn12rcd13ifvqgqg","pricing_plan_id":"cebpf4jnsgd1na2vs0mg"},{"bike_id":"85b698e8-c982-40ce-97d8-1daa634924e3","system_id":"levelo_inurba_marseille","lat":43.27946,"lon":5.41045,"is_reserved":false,"is_disabled":false,"rental_uris":{"android":"levelo://app?vid=85b698e8-c982-40ce-97d8-1daa634924e3","ios":"levelo://app?vid=85b698e8-c982-40ce-97d8-1daa634924e3"},"vehicle_type_id":"4","last_reported":1748599882,"current_range_meters":19200,"station_id":"ce4bhnp2rcd13ifvqh0g","pricing_plan_id":"cebpf4jnsgd1na2vs0mg"},{"bike_id":"6618659c-5c31-4743-b914-fe4fcb17cee1","system_id":"levelo_inurba_marseille","lat":43.24168,"lon":5.36397,"is_reserved":false,"is_disabled":false,"rental_uris":{"android":"levelo://app?vid=6618659c-5c31-4743-b914-fe4fcb17cee1","ios":"levelo://app?vid=6618659c-5c31-4743-b914-fe4fcb17cee1"},"vehicle_type_id":"4","last_reported":1748599882,"current_range_meters":19200,"station_id":"cpo36qri1sfpv3e86is0","pricing_plan_id":"cebpf4jnsgd1na2vs0mg"},{"bike_id":"3597c329-ae8c-40ad-9e06-5f737601d5b6","system_id":"levelo_inurba_marseille","lat":43.21739,"lon":5.34606,"is_reserved":false,"is_disabled":false,"rental_uris":{"android":"levelo://app?vid=3597c329-ae8c-40ad-9e06-5f737601d5b6","ios":"levelo://app?vid=3597c329-ae8c-40ad-9e06-5f737601d5b6"},"vehicle_type_id":"4","last_reported":1748599882,"current_range_meters":19200,"station_id":"st_cvj6r9ubvosntc0bgbag","pricing_plan_id":"cebpf4jnsgd1na2vs0mg"},{"bike_id":"caa1f6ab-3adf-4afa-887d-3bac2cf05d4a","system_id":"levelo_inurba_marseille","lat":43.2119,"lon":5.3507,"is_reserved":false,"is_disabled":false,"rental_uris":{"android":"levelo://app?vid=caa1f6ab-3adf-4afa-887d-3bac2cf05d4a","ios":"levelo://app?vid=caa1f6ab-3adf-4afa-887d-3bac2cf05d4a"},"vehicle_type_id":"4","last_reported":1748599882,"current_range_meters":19200,"station_id":"st_cvj6sg6p6f1abm77japg","pricing_plan_id":"cebpf4jnsgd1na2vs0mg"},{"bike_id":"721b0d4e-b6d4-4cb4-b758-f5a88cad3746","system_id":"levelo_inurba_marseille","lat":43.31338,"lon":5.36715,"is_reserved":false,"is_disabled":false,"rental_uris":{"android":"levelo://app?vid=721b0d4e-b6d4-4cb4-b758-f5a88cad3746","ios":"levelo://app?vid=721b0d4e-b6d4-4cb4-b758-f5a88cad3746"},"vehicle_type_id":"4","last_reported":1748599882,"current_range_meters":19600,"station_id":"ce4bgr92rcd13ifvqc6g","pricing_plan_id":"cebpf4jnsgd1na2vs0mg"},{"bike_id":"5afa376a-791d-4186-b9e4-a93803c91a77","system_id":"levelo_inurba_marseille","lat":43.290192,"lon":5.381276,"is_reserved":false,"is_disabled":false,"rental_uris":{"android":"levelo://app?vid=5afa376a-791d-4186-b9e4-a93803c91a77","ios":"levelo://app?vid=5afa376a-791d-4186-b9e4-a93803c91a77"},"vehicle_type_id":"4","last_reported":1748599882,"current_range_meters":19600,"station_id":"ce4bh4p2rcd13ifvqe1g","pricing_plan_id":"cebpf4jnsgd1na2vs0mg"},{"bike_id":"9fbcb00c-a2bf-42f3-b45e-52650ae4c60f","system_id":"levelo_inurba_marseille","lat":43.28122,"lon":5.37852,"is_reserved":false,"is_disabled":false,"rental_uris":{"android":"levelo://app?vid=9fbcb00c-a2bf-42f3-b45e-52650ae4c60f","ios":"levelo://app?vid=9fbcb00c-a2bf-42f3-b45e-52650ae4c60f"},"vehicle_type_id":"4","last_reported":1748599882,"current_range_meters":19600,"station_id":"ce4bha12rcd13ifvqee0","pricing_plan_id":"cebpf4jnsgd1na2vs0mg"},{"bike_id":"0c4fc8b4-12bf-4730-9cc7-798de45043a9","system_id":"levelo_inurba_marseille","lat":43.28407,"lon":5.35002,"is_reserved":false,"is_disabled":false,"rental_uris":{"android":"levelo://app?vid=0c4fc8b4-12bf-4730-9cc7-798de45043a9","ios":"levelo://app?vid=0c4fc8b4-12bf-4730-9cc7-798de45043a9"},"vehicle_type_id":"4","last_reported":1748599882,"current_range_meters":19600,"station_id":"ce4bhbh2rcd13ifvqepg","pricing_plan_id":"cebpf4jnsgd1na2vs0mg"},{"bike_id":"f053d2b2-012c-45fc-90c6-ed4b753743b5","system_id":"levelo_inurba_marseille","lat":43.25494,"lon":5.37645,"is_reserved":false,"is_disabled":false,"rental_uris":{"android":"levelo://app?vid=f053d2b2-012c-45fc-90c6-ed4b753743b5","ios":"levelo://app?vid=f053d2b2-012c-45fc-90c6-ed4b753743b5"},"vehicle_type_id":"4","last_reported":1748599882,"current_range_meters":19600,"station_id":"ce4bhh12rcd13ifvqff0","pricing_plan_id":"cebpf4jnsgd1na2vs0mg"},{"bike_id":"f16f946c-bed2-42f3-b989-b3f302c38866","system_id":"levelo_inurba_marseille","lat":43.26501,"lon":5.39534,"is_reserved":false,"is_disabled":false,"rental_uris":{"android":"levelo://app?vid=f16f946c-bed2-42f3-b989-b3f302c38866","ios":"levelo://app?vid=f16f946c-bed2-42f3-b989-b3f302c38866"},"vehicle_type_id":"4","last_reported":1748599882,"current_range_meters":19600,"station_id":"ce4bhi12rcd13ifvqfq0","pricing_plan_id":"cebpf4jnsgd1na2vs0mg"},{"bike_id":"b59bc555-de6f-44db-87da-bf946a802bfb","system_id":"levelo_inurba_marseille","lat":43.259387,"lon":5.40902,"is_reserved":false,"is_disabled":false,"rental_uris":{"android":"levelo://app?vid=b59bc555-de6f-44db-87da-bf946a802bfb","ios":"levelo://app?vid=b59bc555-de6f-44db-87da-bf946a802bfb"},"vehicle_type_id":"4","last_reported":1748599882,"current_range_meters":19600,"station_id":"ce4bhm92rcd13ifvqglg","pricing_plan_id":"cebpf4jnsgd1na2vs0mg"},{"bike_id":"1bbb6b72-24c0-4465-bd05-bedfe0b8e24f","system_id":"levelo_inurba_marseille","lat":43.24168,"lon":5.39729,"is_reserved":false,"is_disabled":false,"rental_uris":{"android":"levelo://app?vid=1bbb6b72-24c0-4465-bd05-bedfe0b8e24f","ios":"levelo://app?vid=1bbb6b72-24c0-4465-bd05-bedfe0b8e24f"},"vehicle_type_id":"4","last_reported":1748599882,"current_range_meters":19600,"station_id":"ce4bhn12rcd13ifvqgpg","pricing_plan_id":"cebpf4jnsgd1na2vs0mg"},{"bike_id":"64c64365-36a8-446a-b625-7cc861e1c09e","system_id":"levelo_inurba_marseille","lat":43.286111,"lon":5.351039,"is_reserved":false,"is_disabled":false,"rental_uris":{"android":"levelo://app?vid=64c64365-36a8-446a-b625-7cc861e1c09e","ios":"levelo://app?vid=64c64365-36a8-446a-b625-7cc861e1c09e"},"vehicle_type_id":"4","last_reported":1748599882,"current_range_meters":19600,"station_id":"ce4bhr12rcd13ifvqhqg","pricing_plan_id":"cebpf4jnsgd1na2vs0mg"},{"bike_id":"28071e1a-cabb-401b-a2cd-0e0ca0aa756e","system_id":"levelo_inurba_marseille","lat":43.29628,"lon":5.40598,"is_reserved":false,"is_disabled":false,"rental_uris":{"android":"levelo://app?vid=28071e1a-cabb-401b-a2cd-0e0ca0aa756e","ios":"levelo://app?vid=28071e1a-cabb-401b-a2cd-0e0ca0aa756e"},"vehicle_type_id":"4","last_reported":1748599882,"current_range_meters":20000,"station_id":"ce4bh0h2rcd13ifvqd60","pricing_plan_id":"cebpf4jnsgd1na2vs0mg"},{"bike_id":"ef3d53ac-b0f8-4dba-89f7-e04aa5060268","system_id":"levelo_inurba_marseille","lat":43.266804,"lon":5.382712,"is_reserved":false,"is_disabled":false,"rental_uris":{"android":"levelo://app?vid=ef3d53ac-b0f8-4dba-89f7-e04aa5060268","ios":"levelo://app?vid=ef3d53ac-b0f8-4dba-89f7-e04aa5060268"},"vehicle_type_id":"4","last_reported":1748599882,"current_range_meters":20000,"station_id":"ce4bhg92rcd13ifvqf90","pricing_plan_id":"cebpf4jnsgd1na2vs0mg"},{"bike_id":"66922cfd-5dc3-4057-8e9e-9d33eb8e99a8","system_id":"levelo_inurba_marseille","lat":43.26212,"lon":5.374418,"is_reserved":false,"is_disabled":false,"rental_uris":{"android":"levelo://app?vid=66922cfd-5dc3-4057-8e9e-9d33eb8e99a8","ios":"levelo://app?vid=66922cfd-5dc3-4057-8e9e-9d33eb8e99a8"},"vehicle_type_id":"4","last_reported":1748599882,"current_range_meters":20000,"station_id":"ce4bhgp2rcd13ifvqfc0","pricing_plan_id":"cebpf4jnsgd1na2vs0mg"},{"bike_id":"a9e09e56-1013-4266-a6fa-85a79859f16a","system_id":"levelo_inurba_marseille","lat":43.239707,"lon":5.366237,"is_reserved":false,"is_disabled":false,"rental_uris":{"android":"levelo://app?vid=a9e09e56-1013-4266-a6fa-85a79859f16a","ios":"levelo://app?vid=a9e09e56-1013-4266-a6fa-85a79859f16a"},"vehicle_type_id":"4","last_reported":1748599882,"current_range_meters":20000,"station_id":"ce4bhi12rcd13ifvqfp0","pricing_plan_id":"cebpf4jnsgd1na2vs0mg"},{"bike_id":"4e8029f1-893e-4864-89e5-c679513252c7","system_id":"levelo_inurba_marseille","lat":43.28159,"lon":5.42632,"is_reserved":false,"is_disabled":false,"rental_uris":{"android":"levelo://app?vid=4e8029f1-893e-4864-89e5-c679513252c7","ios":"levelo://app?vid=4e8029f1-893e-4864-89e5-c679513252c7"},"vehicle_type_id":"4","last_reported":1748599882,"current_range_meters":20000,"station_id":"ce4bhnh2rcd13ifvqgug","pricing_plan_id":"cebpf4jnsgd1na2vs0mg"},{"bike_id":"ff14845c-ccf9-4ce1-922d-ace5538b8d3d","system_id":"levelo_inurba_marseille","lat":43.21194,"lon":5.35068,"is_reserved":false,"is_disabled":false,"rental_uris":{"android":"levelo://app?vid=ff14845c-ccf9-4ce1-922d-ace5538b8d3d","ios":"levelo://app?vid=ff14845c-ccf9-4ce1-922d-ace5538b8d3d"},"vehicle_type_id":"4","last_reported":1748599882,"current_range_meters":20000,"station_id":"st_cvj6sg6p6f1abm77japg","pricing_plan_id":"cebpf4jnsgd1na2vs0mg"},{"bike_id":"63861669-1b55-4ead-b5a4-79e44fbac2e0","system_id":"levelo_inurba_marseille","lat":43.21191,"lon":5.35069,"is_reserved":false,"is_disabled":false,"rental_uris":{"android":"levelo://app?vid=63861669-1b55-4ead-b5a4-79e44fbac2e0","ios":"levelo://app?vid=63861669-1b55-4ead-b5a4-79e44fbac2e0"},"vehicle_type_id":"4","last_reported":1748599882,"current_range_meters":20000,"station_id":"st_cvj6sg6p6f1abm77japg","pricing_plan_id":"cebpf4jnsgd1na2vs0mg"},