{"last_updated":1733245736,"ttl":60,"version":"2.2","data":{"bikes":[{"bike_id":"a7b6ddb6-4c7d-4faf-8885-2b761b8b3b49","system_id":"levelo_inurba_marseille","lat":43.29627,"lon":5.40596,"is_reserved":false,"is_disabled":false,"rental_uris":{"android":"levelo://app?vid=a7b6ddb6-4c7d-4faf-8885-2b761b8b3b49","ios":"levelo://app?vid=a7b6ddb6-4c7d-4faf-8885-2b761b8b3b49"},"vehicle_type_id":"4","last_reported":1733245736,"current_range_meters":22000,"station_id":"ce4bh0h2rcd13ifvqd60","pricing_plan_id":"cebpf4jnsgd1na2vs0mg"},{"bike_id":"df479c2c-35ac-44ad-b9d6-81c89ed769ce","system_id":"levelo_inurba_marseille","lat":43.29695,"lon":5.37068,"is_reserved":false,"is_disabled":true,"rental_uris":{"android":"levelo://app?vid=df479c2c-35ac-44ad-b9d6-81c89ed769ce","ios":"levelo://app?vid=df479c2c-35ac-44ad-b9d6-81c89ed769ce"},"vehicle_type_id":"4","last_reported":1733245736,"current_range_meters":0,"station_id":"","pricing_plan_id":"cebpf4jnsgd1na2vs0mg"},{"bike_id":"8e029eaf-e104-4c5d-858d-6cd39de73d09","system_id":"levelo_inurba_marseille","lat":43.241702,"lon":5.363951,"is_reserved":false,"is_disabled":false,"rental_uris":{"android":"levelo://app?vid=8e029eaf-e104-4c5d-858d-6cd39de73d09","ios":"levelo://app?vid=8e029eaf-e104-4c5d-858d-6cd39de73d09"},"vehicle_type_id":"4","last_reported":1733245736,"current_range_meters":14400,"station_id":"cpo36qri1sfpv3e86is0","pricing_plan_id":"cebpf4jnsgd1na2vs0mg"},{"bike_id":"fd85f247-bc9f-4512-8957-89e7641ccdee","system_id":"levelo_inurba_marseille","lat":43.32476,"lon":5.36575,"is_reserved":false,"is_disabled":false,"rental_uris":{"android":"levelo://app?vid=fd85f247-bc9f-4512-8957-89e7641ccdee","ios":"levelo://app?vid=fd85f247-bc9f-4512-8957-89e7641ccdee"},"vehicle_type_id":"4","last_reported":1733245736,"current_range_meters":38400,"station_id":"ce4bhs12rcd13ifvqhvg","pricing_plan_id":"cebpf4jnsgd1na2vs0mg"},{"bike_id":"8bbb5a10-be26-4ab3-980f-85da6d5bb025","system_id":"levelo_inurba_marseille","lat":43.27318,"lon":5.391,"is_reserved":false,"is_disabled":false,"rental_uris":{"android":"levelo://app?vid=8bbb5a10-be26-4ab3-980f-85da6d5bb025","ios":"levelo://app?vid=8bbb5a10-be26-4ab3-980f-85da6d5bb025"},"vehicle_type_id":"4","last_reported":1733245736,"current_range_meters":35200,"station_id":"ce4bhgp2rcd13ifvqfe0","pricing_plan_id":"cebpf4jnsgd1na2vs0mg"},{"bike_id":"51b51fa2-c31e-4579-91e7-095efd534359","system_id":"levelo_inurba_marseille","lat":43.23194,"lon":5.35543,"is_reserved":false,"is_disabled":false,"rental_uris":{"android":"levelo://app?vid=51b51fa2-c31e-4579-91e7-095efd534359","ios":"levelo://app?vid=51b51fa2-c31e-4579-91e7-095efd534359"},"vehicle_type_id":"4","last_reported":1733245736,"current_range_meters":27200,"station_id":"ce4bhu92rcd13ifvqi70","pricing_plan_id":"cebpf4jnsgd1na2vs0mg"},{"bike_id":"bf2697d8-6d9e-4d88-9119-8a9081010bc1","system_id":"levelo_inurba_marseille","lat":43.27997,"lon":5.40029,"is_reserved":false,"is_disabled":false,"rental_uris":{"android":"levelo://app?vid=bf2697d8-6d9e-4d88-9119-8a9081010bc1","ios":"levelo://app?vid=bf2697d8-6d9e-4d88-9119-8a9081010bc1"},"vehicle_type_id":"4","last_reported":1733245736,"current_range_meters":30800,"station_id":"ce4bho92rcd13ifvqh4g","pricing_plan_id":"cebpf4jnsgd1na2vs0mg"},{"bike_id":"44667e0e-3f11-43c3-8c43-85aa4e53fc8f","system_id":"levelo_inurba_marseille","lat":43.30415,"lon":5.41285,"is_reserved":false,"is_disabled":true,"rental_uris":{"android":"levelo://app?vid=44667e0e-3f11-43c3-8c43-85aa4e53fc8f","ios":"levelo://app?vid=44667e0e-3f11-43c3-8c43-85aa4e53fc8f"},"vehicle_type_id":"4","last_reported":1733245736,"current_range_meters":0,"station_id":"ce4bhop2rcd13ifvqh8g","pricing_plan_id":"cebpf4jnsgd1na2vs0mg"},{"bike_id":"be407bbe-d1ce-48de-8db2-09114af9efd7","system_id":"levelo_inurba_marseille","lat":43.32367,"lon":5.36763,"is_reserved":false,"is_disabled":false,"rental_uris":{"android":"levelo://app?vid=be407bbe-d1ce-48de-8db2-09114af9efd7","ios":"levelo://app?vid=be407bbe-d1ce-48de-8db2-09114af9efd7"},"vehicle_type_id":"4","last_reported":1733245736,"current_range_meters":38000,"station_id":"ce4bhsh2rcd13ifvqi2g","pricing_plan_id":"cebpf4jnsgd1na2vs0mg"},{"bike_id":"ae6dff9a-010b-4602-9fb1-0a64e5987b85","system_id":"levelo_inurba_marseille","lat":43.2893,"lon":5.36638,"is_reserved":false,"is_disabled":false,"rental_uris":{"android":"levelo://app?vid=ae6dff9a-010b-4602-9fb1-0a64e5987b85","ios":"levelo://app?vid=ae6dff9a-010b-4602-9fb1-0a64e5987b85"},"vehicle_type_id":"4","last_reported":1733245736,"current_range_meters":22000,"station_id":"ce4bhap2rcd13ifvqek0","pricing_plan_id":"cebpf4jnsgd1na2vs0mg"},{"bike_id":"c6c1c062-49da-44a9-8106-47f425d4aedf","system_id":"levelo_inurba_marseille","lat":43.27992,"lon":5.41657,"is_reserved":false,"is_disabled":false,"rental_uris":{"android":"levelo://app?vid=c6c1c062-49da-44a9-8106-47f425d4aedf","ios":"levelo://app?vid=c6c1c062-49da-44a9-8106-47f425d4aedf"},"vehicle_type_id":"4","last_reported":1733245736,"current_range_meters":4400,"station_id":"ce4bho12rcd13ifvqh1g","pricing_plan_id":"cebpf4jnsgd1na2vs0mg"},{"bike_id":"d8336ea8-90bc-4350-bb3f-6d8f1f984358","system_id":"levelo_inurba_marseille","lat":43.26946,"lon":5.40244,"is_reserved":false,"is_disabled":true,"rental_uris":{"android":"levelo://app?vid=d8336ea8-90bc-4350-bb3f-6d8f1f984358","ios":"levelo://app?vid=d8336ea8-90bc-4350-bb3f-6d8f1f984358"},"vehicle_type_id":"4","last_reported":1733245736,"current_range_meters":0,"station_id":"cjm6bp8fraef2m0cb0m0","pricing_plan_id":"cebpf4jnsgd1na2vs0mg"},{"bike_id":"8bd642b2-0279-44c7-9ee2-fc3b57332c83","system_id":"levelo_inurba_marseille","lat":43.27455,"lon":5.40073,"is_reserved":false,"is_disabled":true,"rental_uris":{"android":"levelo://app?vid=8bd642b2-0279-44c7-9ee2-fc3b57332c83","ios":"levelo://app?vid=8bd642b2-0279-44c7-9ee2-fc3b57332c83"},"vehicle_type_id":"4","last_reported":1733245736,"current_range_meters":0,"station_id":"","pricing_plan_id":"cebpf4jnsgd1na2vs0mg"},{"bike_id":"cf8362f0-8054-4859-a6a1-c0172349d7c6","system_id":"levelo_inurba_marseille","lat":43.30222,"lon":5.39464,"is_reserved":false,"is_disabled":true,"rental_uris":{"android":"levelo://app?vid=cf8362f0-8054-4859-a6a1-c0172349d7c6","ios":"levelo://app?vid=cf8362f0-8054-4859-a6a1-c0172349d7c6"},"vehicle_type_id":"4","last_reported":1733245736,"current_range_meters":400,"station_id":"ce4bh0p2rcd13ifvqd70","pricing_plan_id":"cebpf4jnsgd1na2vs0mg"},{"bike_id":"681119d2-4353-495e-9538-aad3a13a901c","system_id":"levelo_inurba_marseille","lat":43.25119,"lon":5.40319,"is_reserved":false,"is_disabled":true,"rental_uris":{"android":"levelo://app?vid=681119d2-4353-495e-9538-aad3a13a901c","ios":"levelo://app?vid=681119d2-4353-495e-9538-aad3a13a901c"},"vehicle_type_id":"4","last_reported":1733245736,"current_range_meters":800,"station_id":"ce4bhlh2rcd13ifvqgig","pricing_plan_id":"cebpf4jnsgd1na2vs0mg"},{"bike_id":"647c9f5d-38ae-406a-af37-47e78bdb92c8","system_id":"levelo_inurba_marseille","lat":43.337444,"lon":5.374475,"is_reserved":false,"is_disabled":false,"rental_uris":{"android":"levelo://app?vid=647c9f5d-38ae-406a-af37-47e78bdb92c8","ios":"levelo://app?vid=647c9f5d-38ae-406a-af37-47e78bdb92c8"},"vehicle_type_id":"4","last_reported":1733245736,"current_range_meters":24000,"station_id":"","pricing_plan_id":"cebpf4jnsgd1na2vs0mg"},{"bike_id":"c1bdf695-5ae7-4fae-a7ab-86db4c5ab174","system_id":"levelo_inurba_marseille","lat":43.287,"lon":5.39985,"is_reserved":false,"is_disabled":true,"rental_uris":{"android":"levelo://app?vid=c1bdf695-5ae7-4fae-a7ab-86db4c5ab174","ios":"levelo://app?vid=c1bdf695-5ae7-4fae-a7ab-86db4c5ab174"},"vehicle_type_id":"4","last_reported":1733245736,"current_range_meters":0,"station_id":"ce4bho92rcd13ifvqh3g","pricing_plan_id":"cebpf4jnsgd1na2vs0mg"},{"bike_id":"68312c43-285d-4f27-94e7-eac55ce1358c","system_id":"levelo_inurba_marseille","lat":43.27057,"lon":5.40268,"is_reserved":false,"is_disabled":false,"rental_uris":{"android":"levelo://app?vid=68312c43-285d-4f27-94e7-eac55ce1358c","ios":"levelo://app?vid=68312c43-285d-4f27-94e7-eac55ce1358c"},"vehicle_type_id":"4","last_reported":1733245736,"current_range_meters":2000,"station_id":"ce4bhk92rcd13ifvqgc0","pricing_plan_id":"cebpf4jnsgd1na2vs0mg"},{"bike_id":"c9ae347f-afd8-436c-933c-cf5e2e790d85","system_id":"levelo_inurba_marseille","lat":43.30199,"lon":5.39474,"is_reserved":false,"is_disabled":true,"rental_uris":{"android":"levelo://app?vid=c9ae347f-afd8-436c-933c-cf5e2e790d85","ios":"levelo://app?vid=c9ae347f-afd8-436c-933c-cf5e2e790d85"},"vehicle_type_id":"4","last_reported":1733245736,"current_range_meters":34000,"station_id":"ce4bh0p2rcd13ifvqd70","pricing_plan_id":"cebpf4jnsgd1na2vs0mg"},{"bike_id":"16c81e58-5de2-4b13-a3b2-87a46dd75cc9","system_id":"levelo_inurba_marseille","lat":43.31753,"lon":5.39016,"is_reserved":false,"is_disabled":true,"rental_uris":{"android":"levelo://app?vid=16c81e58-5de2-4b13-a3b2-87a46dd75cc9","ios":"levelo://app?vid=16c81e58-5de2-4b13-a3b2-87a46dd75cc9"},"vehicle_type_id":"4","last_reported":1733245736,"current_range_meters":2000,"station_id":"ce4bhqp2rcd13ifvqhng","pricing_plan_id":"cebpf4jnsgd1na2vs0mg"},{"bike_id":"8bc7486d-3dec-4643-b1c2-1c00ced447fc","system_id":"levelo_inurba_marseille","lat":43.28613,"lon":5.35104,"is_reserved":false,"is_disabled":false,"rental_uris":{"android":"levelo://app?vid=8bc7486d-3dec-4643-b1c2-1c00ced447fc","ios":"levelo://app?vid=8bc7486d-3dec-4643-b1c2-1c00ced447fc"},"vehicle_type_id":"4","last_reported":1733245736,"current_range_meters":38400,"station_id":"ce4bhch2rcd13ifvqeug","pricing_plan_id":"cebpf4jnsgd1na2vs0mg"},{"bike_id":"28b52837-d828-49e4-b4be-cfbac010c328","system_id":"levelo_inurba_marseille","lat":43.3372,"lon":5.39197,"is_reserved":false,"is_disabled":true,"rental_uris":{"android":"levelo://app?vid=28b52837-d828-49e4-b4be-cfbac010c328","ios":"levelo://app?vid=28b52837-d828-49e4-b4be-cfbac010c328"},"vehicle_type_id":"4","last_reported":1733245736,"current_range_meters":0,"station_id":"ce4bhr92rcd13ifvqhsg","pricing_plan_id":"cebpf4jnsgd1na2vs0mg"},{"bike_id":"b3f478ac-3b05-4edf-bdbf-76399090f8e9","system_id":"levelo_inurba_marseille","lat":43.29994,"lon":5.37639,"is_reserved":false,"is_disabled":true,"rental_uris":{"android":"levelo://app?vid=b3f478ac-3b05-4edf-bdbf-76399090f8e9","ios":"levelo://app?vid=b3f478ac-3b05-4edf-bdbf-76399090f8e9"},"vehicle_type_id":"4","last_reported":1733245736,"current_range_meters":0,"station_id":"","pricing_plan_id":"cebpf4jnsgd1na2vs0mg"},{"bike_id":"c3587c28-5435-41c6-a9b7-aa468e6b19aa","system_id":"levelo_inurba_marseille","lat":43.29746,"lon":5.37916,"is_reserved":false,"is_disabled":true,"rental_uris":{"android":"levelo://app?vid=c3587c28-5435-41c6-a9b7-aa468e6b19aa","ios":"levelo://app?vid=c3587c28-5435-41c6-a9b7-aa468e6b19aa"},"vehicle_type_id":"4","last_reported":1733245736,"current_range_meters":0,"station_id":"","pricing_plan_id":"cebpf4jnsgd1na2vs0mg"},{"bike_id":"2a938fc3-39e4-4524-9528-bf1e56ed80a8","system_id":"levelo_inurba_marseille","lat":43.29259,"lon":5.38443,"is_reserved":false,"is_disabled":false,"rental_uris":{"android":"levelo://app?vid=2a938fc3-39e4-4524-9528-bf1e56ed80a8","ios":"levelo://app?vid=2a938fc3-39e4-4524-9528-bf1e56ed80a8"},"vehicle_type_id":"4","last_reported":1733245736,"current_range_meters":3200,"station_id":"ce4bh692rcd13ifvqea0","pricing_plan_id":"cebpf4jnsgd1na2vs0mg"},{"bike_id":"e8d9fcd3-6c4c-4c2e-a87e-41c5e4dfa6d0","system_id":"levelo_inurba_marseille","lat":43.25438,"lon":5.38158,"is_reserved":false,"is_disabled":true,"rental_uris":{"android":"levelo://app?vid=e8d9fcd3-6c4c-4c2e-a87e-41c5e4dfa6d0","ios":"levelo://app?vid=e8d9fcd3-6c4c-4c2e-a87e-41c5e4dfa6d0"},"vehicle_type_id":"4","last_reported":1733245736,"current_range_meters":0,"station_id":"","pricing_plan_id":"cebpf4jnsgd1na2vs0mg"},{"bike_id":"e7c2b082-ef91-42b1-9ef0-9e4329cee9cb","system_id":"levelo_inurba_marseille","lat":43.29807,"lon":5.40377,"is_reserved":false,"is_disabled":true,"rental_uris":{"android":"levelo://app?vid=e7c2b082-ef91-42b1-9ef0-9e4329cee9cb","ios":"levelo://app?vid=e7c2b082-ef91-42b1-9ef0-9e4329cee9cb"},"vehicle_type_id":"4","last_reported":1733245736,"current_range_meters":0,"station_id":"ce4bh112rcd13ifvqd90","pricing_plan_id":"cebpf4jnsgd1na2vs0mg"},{"bike_id":"16e03701-590e-4b64-8a34-43e9f78250b8","system_id":"levelo_inurba_marseille","lat":43.313234,"lon":5.397002,"is_reserved":false,"is_disabled":false,"rental_uris":{"android":"levelo://app?vid=16e03701-590e-4b64-8a34-43e9f78250b8","ios":"levelo://app?vid=16e03701-590e-4b64-8a34-43e9f78250b8"},"vehicle_type_id":"4","last_reported":1733245736,"current_range_meters":35200,"station_id":"ce4bgvp2rcd13ifvqcu0","pricing_plan_id":"cebpf4jnsgd1na2vs0mg"},{"bike_id":"6f2cb0cd-0c40-481c-b3eb-59c82ab83f4c","system_id":"levelo_inurba_marseille","lat":43.23151,"lon":5.43706,"is_reserved":false,"is_disabled":false,"rental_uris":{"android":"levelo://app?vid=6f2cb0cd-0c40-481c-b3eb-59c82ab83f4c","ios":"levelo://app?vid=6f2cb0cd-0c40-481c-b3eb-59c82ab83f4c"},"vehicle_type_id":"4","last_reported":1733245736,"current_range_meters":38800,"station_id":"ce4bhmp2rcd13ifvqgog","pricing_plan_id":"cebpf4jnsgd1na2vs0mg"},{"bike_id":"e5af8f06-b11d-4a9c-a17e-c358f51ba456","system_id":"levelo_inurba_marseille","lat":43.24811,"lon":5.37462,"is_reserved":false,"is_disabled":false,"rental_uris":{"android":"levelo://app?vid=e5af8f06-b11d-4a9c-a17e-c358f51ba456","ios":"levelo://app?vid=e5af8f06-b11d-4a9c-a17e-c358f51ba456"},"vehicle_type_id":"4","last_reported":1733245736,"current_range_meters":38800,"station_id":"ce4bhgh2rcd13ifvqfb0","pricing_plan_id":"cebpf4jnsgd1na2vs0mg"},{"bike_id":"525e387d-f53d-4c13-8e33-a48ec09c1aef","system_id":"levelo_inurba_marseille","lat":43.30556,"lon":5.36513,"is_reserved":false,"is_disabled":false,"rental_uris":{"android":"levelo://app?vid=525e387d-f53d-4c13-8e33-a48ec09c1aef","ios":"levelo://app?vid=525e387d-f53d-4c13-8e33-a48ec09c1aef"},"vehicle_type_id":"4","last_reported":1733245736,"current_range_meters":27200,"station_id":"ce4bgs12rcd13ifvqcag","pricing_plan_id":"cebpf4jnsgd1na2vs0mg"},{"bike_id":"0ee0ab59-5abb-4d53-bc4d-a3af2b711996","system_id":"levelo_inurba_marseille","lat":43.32365,"lon":5.36757,"is_reserved":false,"is_disabled":false,"rental_uris":{"android":"levelo://app?vid=0ee0ab59-5abb-4d53-bc4d-a3af2b711996","ios":"levelo://app?vid=0ee0ab59-5abb-4d53-bc4d-a3af2b711996"},"vehicle_type_id":"4","last_reported":1733245736,"current_range_meters":33600,"station_id":"ce4bhsh2rcd13ifvqi2g","pricing_plan_id":"cebpf4jnsgd1na2vs0mg"},{"bike_id":"82da5bad-0c0f-4ceb-8f60-d497ea1da33c","system_id":"levelo_inurba_marseille","lat":43.23197,"lon":5.35547,"is_reserved":false,"is_disabled":false,"rental_uris":{"android":"levelo://app?vid=82da5bad-0c0f-4ceb-8f60-d497ea1da33c","ios":"levelo://app?vid=82da5bad-0c0f-4ceb-8f60-d497ea1da33c"},"vehicle_type_id":"4","last_reported":1733245736,"current_range_meters":37600,"station_id":"ce4bhu92rcd13ifvqi70","pricing_plan_id":"cebpf4jnsgd1na2vs0mg"},{"bike_id":"afcbeb75-6f5b-46e4-8346-25004ebb5bf8","system_id":"levelo_inurba_marseille","lat":43.31067,"lon":5.38358,"is_reserved":false,"is_disabled":false,"rental_uris":{"android":"levelo://app?vid=afcbeb75-6f5b-46e4-8346-25004ebb5bf8","ios":"levelo://app?vid=afcbeb75-6f5b-46e4-8346-25004ebb5bf8"},"vehicle_type_id":"4","last_reported":1733245736,"current_range_meters":31200,"station_id":"ce4bgv92rcd13ifvqcr0","pricing_plan_id":"cebpf4jnsgd1na2vs0mg"},{"bike_id":"19a39442-c7ac-49db-a0df-a3de8fa32134","system_id":"levelo_inurba_marseille","lat":43.27054,"lon":5.40264,"is_reserved":false,"is_disabled":false,"rental_uris":{"android":"levelo://app?vid=19a39442-c7ac-49db-a0df-a3de8fa32134","ios":"levelo://app?vid=19a39442-c7ac-49db-a0df-a3de8fa32134"},"vehicle_type_id":"4","last_reported":1733245736,"current_range_meters":19600,"station_id":"ce4bhk92rcd13ifvqgc0","pricing_plan_id":"cebpf4jnsgd1na2vs0mg"},{"bike_id":"e12bdda5-dc2c-4545-bb40-fff311effa17","system_id":"levelo_inurba_marseille","lat":43.29777,"lon":5.3812,"is_reserved":false,"is_disabled":true,"rental_uris":{"android":"levelo://app?vid=e12bdda5-dc2c-4545-bb40-fff311effa17","ios":"levelo://app?vid=e12bdda5-dc2c-4545-bb40-fff311effa17"},"vehicle_type_id":"4","last_reported":1733245736,"current_range_meters":0,"station_id":"ce4bgip2rcd13ifvqbb0","pricing_plan_id":"cebpf4jnsgd1na2vs0mg"},{"bike_id":"2f3968e7-9336-4ee4-ba78-8e92c0a818cc","system_id":"levelo_inurba_marseille","lat":43.31322,"lon":5.36647,"is_reserved":false,"is_disabled":true,"rental_uris":{"android":"levelo://app?vid=2f3968e7-9336-4ee4-ba78-8e92c0a818cc","ios":"levelo://app?vid=2f3968e7-9336-4ee4-ba78-8e92c0a818cc"},"vehicle_type_id":"4","last_reported":1733245736,"current_range_meters":6800,"station_id":"","pricing_plan_id":"cebpf4jnsgd1na2vs0mg"},{"bike_id":"c1689b16-9948-4fc3-be3f-6ee66db6eebe","system_id":"levelo_inurba_marseille","lat":43.29689,"lon":5.3661,"is_reserved":false,"is_disabled":false,"rental_uris":{"android":"levelo://app?vid=c1689b16-9948-4fc3-be3f-6ee66db6eebe","ios":"levelo://app?vid=c1689b16-9948-4fc3-be3f-6ee66db6eebe"},"vehicle_type_id":"4","last_reported":1733245736,"current_range_meters":5600,"station_id":"ce4bgn12rcd13ifvqbt0","pricing_plan_id":"cebpf4jnsgd1na2vs0mg"},{"bike_id":"16bea42d-3248-41fd-8b51-39fb3d7ec2c4","system_id":"levelo_inurba_marseille","lat":43.26469,"lon":5.38526,"is_reserved":false,"is_disabled":true,"rental_uris":{"android":"levelo://app?vid=16bea42d-3248-41fd-8b51-39fb3d7ec2c4","ios":"levelo://app?vid=16bea42d-3248-41fd-8b51-39fb3d7ec2c4"},"vehicle_type_id":"4","last_reported":1733245736,"current_range_meters":0,"station_id":"","pricing_plan_id":"cebpf4jnsgd1na2vs0mg"},{"bike_id":"0140b468-a727-455f-900e-1dd01f2f067d","system_id":"levelo_inurba_marseille","lat":43.28613,"lon":5.35109,"is_reserved":false,"is_disabled":false,"rental_uris":{"android":"levelo://app?vid=0140b468-a727-455f-900e-1dd01f2f067d","ios":"levelo://app?vid=0140b468-a727-455f-900e-1dd01f2f067d"},"vehicle_type_id":"4","last_reported":1733245736,"current_range_meters":32800,"station_id":"ce4bhch2rcd13ifvqeug","pricing_plan_id":"cebpf4jnsgd1na2vs0mg"},{"bike_id":"6cd050d7-d5bc-4198-bf9b-82abaef50067","system_id":"levelo_inurba_marseille","lat":43.293732,"lon":5.378395,"is_reserved":false,"is_disabled":false,"rental_uris":{"android":"levelo://app?vid=6cd050d7-d5bc-4198-bf9b-82abaef50067","ios":"levelo://app?vid=6cd050d7-d5bc-4198-bf9b-82abaef50067"},"vehicle_type_id":"4","last_reported":1733245736,"current_range_meters":28800,"station_id":"ce4bgjh2rcd13ifvqbf0","pricing_plan_id":"cebpf4jnsgd1na2vs0mg"},{"bike_id":"8aa77435-38a9-471a-8b27-546833cee6d3","system_id":"levelo_inurba_marseille","lat":43.2607,"lon":5.39395,"is_reserved":false,"is_disabled":false,"rental_uris":{"android":"levelo://app?vid=8aa77435-38a9-471a-8b27-546833cee6d3","ios":"levelo://app?vid=8aa77435-38a9-471a-8b27-546833cee6d3"},"vehicle_type_id":"4","last_reported":1733245736,"current_range_meters":16400,"station_id":"ce4bhh92rcd13ifvqfj0","pricing_plan_id":"cebpf4jnsgd1na2vs0mg"},{"bike_id":"ff9bc9cc-4286-45d0-8c07-1dcfc159dd8a","system_id":"levelo_inurba_marseille","lat":43.29371,"lon":5.37839,"is_reserved":false,"is_disabled":false,"rental_uris":{"android":"levelo://app?vid=ff9bc9cc-4286-45d0-8c07-1dcfc159dd8a","ios":"levelo://app?vid=ff9bc9cc-4286-45d0-8c07-1dcfc159dd8a"},"vehicle_type_id":"4","last_reported":1733245736,"current_range_meters":27600,"station_id":"ce4bgjh2rcd13ifvqbf0","pricing_plan_id":"cebpf4jnsgd1na2vs0mg"},{"bike_id":"dcbfa3ea-0617-4282-94e6-7381a240ef3c","system_id":"levelo_inurba_marseille","lat":43.29532,"lon":5.39402,"is_reserved":false,"is_disabled":false,"rental_uris":{"android":"levelo://app?vid=dcbfa3ea-0617-4282-94e6-7381a240ef3c","ios":"levelo://app?vid=dcbfa3ea-0617-4282-94e6-7381a240ef3c"},"vehicle_type_id":"4","last_reported":1733245736,"current_range_meters":18000,"station_id":"ce4bh292rcd13ifvqdf0","pricing_plan_id":"cebpf4jnsgd1na2vs0mg"},{"bike_id":"dc024656-8506-4b5a-a609-460bbae9d176","system_id":"levelo_inurba_marseille","lat":43.30822,"lon":5.37927,"is_reserved":false,"is_disabled":false,"rental_uris":{"android":"levelo://app?vid=dc024656-8506-4b5a-a609-460bbae9d176","ios":"levelo://app?vid=dc024656-8506-4b5a-a609-460bbae9d176"},"vehicle_type_id":"4","last_reported":1733245736,"current_range_meters":22000,"station_id":"","pricing_plan_id":"cebpf4jnsgd1na2vs0mg"},{"bike_id":"d28eeb12-d2f0-47f4-8ac9-b15ca93467c8","system_id":"levelo_inurba_marseille","lat":43.31724,"lon":5.42403,"is_reserved":false,"is_disabled":false,"rental_uris":{"android":"levelo://app?vid=d28eeb12-d2f0-47f4-8ac9-b15ca93467c8","ios":"levelo://app?vid=d28eeb12-d2f0-47f4-8ac9-b15ca93467c8"},"vehicle_type_id":"4","last_reported":1733245736,"current_range_meters":39200,"station_id":"ce4bhp92rcd13ifvqhbg","pricing_plan_id":"cebpf4jnsgd1na2vs0mg"},{"bike_id":"8820d456-2eb1-4f4e-a937-e104008f3a11","system_id":"levelo_inurba_marseille","lat":43.28649,"lon":5.36349,"is_reserved":false,"is_disabled":false,"rental_uris":{"android":"levelo://app?vid=8820d456-2eb1-4f4e-a937-e104008f3a11","ios":"levelo://app?vid=8820d456-2eb1-4f4e-a937-e104008f3a11"},"vehicle_type_id":"4","last_reported":1733245736,"current_range_meters":23200,"station_id":"ce4bhah2rcd13ifvqej0","pricing_plan_id":"cebpf4jnsgd1na2vs0mg"},{"bike_id":"9b0cdfbc-a7f6-41ae-b6e5-faeaf6ae0e71","system_id":"levelo_inurba_marseille","lat":43.303,"lon":5.3921,"is_reserved":false,"is_disabled":false,"rental_uris":{"android":"levelo://app?vid=9b0cdfbc-a7f6-41ae-b6e5-faeaf6ae0e71","ios":"levelo://app?vid=9b0cdfbc-a7f6-41ae-b6e5-faeaf6ae0e71"},"vehicle_type_id":"4","last_reported":1733245736,"current_range_meters":11200,"station_id":"ce4bgkh2rcd13ifvqbk0","pricing_plan_id":"cebpf4jnsgd1na2vs0mg"},{"bike_id":"7222ffc9-0b67-4903-a9cc-b1a7538609f2","system_id":"levelo_inurba_marseille","lat":43.28895,"lon":5.36101,"is_reserved":false,"is_disabled":false,"rental_uris":{"android":"levelo://app?vid=7222ffc9-0b67-4903-a9cc-b1a7538609f2","ios":"levelo://app?vid=7222ffc9-0b67-4903-a9cc-b1a7538609f2"},"vehicle_type_id":"4","last_reported":1733245736,"current_range_meters":3600,"station_id":"ce4bhb12rcd13ifvqem0","pricing_plan_id":"cebpf4jnsgd1na2vs0mg"},{"bike_id":"44cac930-247c-4cfe-9c79-5d11c1c58f9c","system_id":"levelo_inurba_marseille","lat":43.2894,"lon":5.36647,"is_reserved":false,"is_disabled":false,"rental_uris":{"android":"levelo://app?vid=44cac930-247c-4cfe-9c79-5d11c1c58f9c","ios":"levelo://app?vid=44cac930-247c-4cfe-9c79-5d11c1c58f9c"},"vehicle_type_id":"4","last_reported":1733245736,"current_range_meters":20800,"station_id":"ce4bhap2rcd13ifvqek0","pricing_plan_id":"cebpf4jnsgd1na2vs0mg"},{"bike_id":"02ec7421-2229-4707-aad2-8afef039a348","system_id":"levelo_inurba_marseille","lat":43.30356,"lon":5.41879,"is_reserved":false,"is_disabled":false,"rental_uris":{"android":"levelo://app?vid=02ec7421-2229-4707-aad2-8afef039a348","ios":"levelo://app?vid=02ec7421-2229-4707-aad2-8afef039a348"},"vehicle_type_id":"4","last_reported":1733245736,"current_range_meters":33200,"station_id":"ce4bhop2rcd13ifvqh7g","pricing_plan_id":"cebpf4jnsgd1na2vs0mg"},{"bike_id":"5d20ead0-4b56-4c9e-a99f-651e126fa927","system_id":"levelo_inurba_marseille","lat":43.28118,"lon":5.43994,"is_reserved":false,"is_disabled":false,"rental_uris":{"android":"levelo://app?vid=5d20ead0-4b56-4c9e-a99f-651e126fa927","ios":"levelo://app?vid=5d20ead0-4b56-4c9e-a99f-651e126fa927"},"vehicle_type_id":"4","last_reported":1733245736,"current_range_meters":16400,"station_id":"","pricing_plan_id":"cebpf4jnsgd1na2vs0mg"},{"bike_id":"5feb6a99-03a7-4a7d-8509-61de87aad890","system_id":"levelo_inurba_marseille","lat":43.293045,"lon":5.371699,"is_reserved":false,"is_disabled":false,"rental_uris":{"android":"levelo://app?vid=5feb6a99-03a7-4a7d-8509-61de87aad890","ios":"levelo://app?vid=5feb6a99-03a7-4a7d-8509-61de87aad890"},"vehicle_type_id":"4","last_reported":1733245736,"current_range_meters":21600,"station_id":"ce4bgh92rcd13ifvqb40","pricing_plan_id":"cebpf4jnsgd1na2vs0mg"},{"bike_id":"a9741b14-02a8-48ee-9c9f-a109263e4bcf","system_id":"levelo_inurba_marseille","lat":43.30918,"lon":5.36847,"is_reserved":false,"is_disabled":false,"rental_uris":{"android":"levelo://app?vid=a9741b14-02a8-48ee-9c9f-a109263e4bcf","ios":"levelo://app?vid=a9741b14-02a8-48ee-9c9f-a109263e4bcf"},"vehicle_type_id":"4","last_reported":1733245736,"current_range_meters":35200,"station_id":"ce4bgn92rcd13ifvqbvg","pricing_plan_id":"cebpf4jnsgd1na2vs0mg"},{"bike_id":"581ab866-6254-4793-aa37-55d44b79b785","system_id":"levelo_inurba_marseille","lat":43.24809,"lon":5.37459,"is_reserved":false,"is_disabled":false,"rental_uris":{"android":"levelo://app?vid=581ab866-6254-4793-aa37-55d44b79b785","ios":"levelo://app?vid=581ab866-6254-4793-aa37-55d44b79b785"},"vehicle_type_id":"4","last_reported":1733245736,"current_range_meters":19600,"station_id":"ce4bhgh2rcd13ifvqfb0","pricing_plan_id":"cebpf4jnsgd1na2vs0mg"},{"bike_id":"a2596585-33cc-4553-9e31-759b5ab1b04b","system_id":"levelo_inurba_marseille","lat":43.28939,"lon":5.36632,"is_reserved":false,"is_disabled":false,"rental_uris":{"android":"levelo://app?vid=a2596585-33cc-4553-9e31-759b5ab1b04b","ios":"levelo://app?vid=a2596585-33cc-4553-9e31-759b5ab1b04b"},"vehicle_type_id":"4","last_reported":1733245736,"current_range_meters":23200,"station_id":"ce4bhap2rcd13ifvqek0","pricing_plan_id":"cebpf4jnsgd1na2vs0mg"},{"bike_id":"d8ccc8bb-991f-4e10-bd36-46e123486924","system_id":"levelo_inurba_marseille","lat":43.26789,"lon":5.39406,"is_reserved":false,"is_disabled":false,"rental_uris":{"android":"levelo://app?vid=d8ccc8bb-991f-4e10-bd36-46e123486924","ios":"levelo://app?vid=d8ccc8bb-991f-4e10-bd36-46e123486924"},"vehicle_type_id":"4","last_reported":1733245736,"current_range_meters":8000,"station_id":"ce4bhh12rcd13ifvqfg0","pricing_plan_id":"cebpf4jnsgd1na2vs0mg"},{"bike_id":"45ff3798-a743-4ffc-962c-fbce8ce4e073","system_id":"levelo_inurba_marseille","lat":43.23148,"lon":5.43711,"is_reserved":false,"is_disabled":false,"rental_uris":{"android":"levelo://app?vid=45ff3798-a743-4ffc-962c-fbce8ce4e073","ios":"levelo://app?vid=45ff3798-a743-4ffc-962c-fbce8ce4e073"},"vehicle_type_id":"4","last_reported":1733245736,"current_range_meters":10800,"station_id":"ce4bhmp2rcd13ifvqgog","pricing_plan_id":"cebpf4jnsgd1na2vs0mg"},{"bike_id":"f6c0ccfb-bab9-453d-bb51-70bfa733290c","system_id":"levelo_inurba_marseille","lat":43.29511,"lon":5.37498,"is_reserved":false,"is_disabled":false,"rental_uris":{"android":"levelo://app?vid=f6c0ccfb-bab9-453d-bb51-70bfa733290c","ios":"levelo://app?vid=f6c0ccfb-bab9-453d-bb51-70bfa733290c"},"vehicle_type_id":"4","last_reported":1733245736,"current_range_meters":38800,"station_id":"ce4bgkp2rcd13ifvqbmg","pricing_plan_id":"cebpf4jnsgd1na2vs0mg"},{"bike_id":"cb18a97f-360b-42ae-896e-1b05c8d31e47","system_id":"levelo_inurba_marseille","lat":43.3096,"lon":5.39029,"is_reserved":false,"is_disabled":true,"rental_uris":{"android":"levelo://app?vid=cb18a97f-360b-42ae-896e-1b05c8d31e47","ios":"levelo://app?vid=cb18a97f-360b-42ae-896e-1b05c8d31e47"},"vehicle_type_id":"4","last_reported":1733245736,"current_range_meters":800,"station_id":"ce4bgup2rcd13ifvqco0","pricing_plan_id":"cebpf4jnsgd1na2vs0mg"},{"bike_id":"cdfe6590-4984-4014-86c8-6dd70747c27a","system_id":"levelo_inurba_marseille","lat":43.29737,"lon":5.37434,"is_reserved":false,"is_disabled":true,"rental_uris":{"android":"levelo://app?vid=cdfe6590-4984-4014-86c8-6dd70747c27a","ios":"levelo://app?vid=cdfe6590-4984-4014-86c8-6dd70747c27a"},"vehicle_type_id":"4","last_reported":1733245736,"current_range_meters":0,"station_id":"","pricing_plan_id":"cebpf4jnsgd1na2vs0mg"},{"bike_id":"8c10b77e-9276-4f90-bb28-d9403699abca","system_id":"levelo_inurba_marseille","lat":43.27554,"lon":5.3843,"is_reserved":false,"is_disabled":true,"rental_uris":{"android":"levelo://app?vid=8c10b77e-9276-4f90-bb28-d9403699abca","ios":"levelo://app?vid=8c10b77e-9276-4f90-bb28-d9403699abca"},"vehicle_type_id":"4","last_reported":1733245736,"current_range_meters":0,"station_id":"ce4bhh92rcd13ifvqfi0","pricing_plan_id":"cebpf4jnsgd1na2vs0mg"},{"bike_id":"3aae67b4-68e8-4c34-adad-8f64fe6c431d","system_id":"levelo_inurba_marseille","lat":43.26556,"lon":5.37282,"is_reserved":false,"is_disabled":false,"rental_uris":{"android":"levelo://app?vid=3aae67b4-68e8-4c34-adad-8f64fe6c431d","ios":"levelo://app?vid=3aae67b4-68e8-4c34-adad-8f64fe6c431d"},"vehicle_type_id":"4","last_reported":1733245736,"current_range_meters":35600,"station_id":"ce4bhg12rcd13ifvqf70","pricing_plan_id":"cebpf4jnsgd1na2vs0mg"},{"bike_id":"9be91ae4-f0e4-4815-8771-11307b3a366c","system_id":"levelo_inurba_marseille","lat":43.33024,"lon":5.39037,"is_reserved":false,"is_disabled":false,"rental_uris":{"android":"levelo://app?vid=9be91ae4-f0e4-4815-8771-11307b3a366c","ios":"levelo://app?vid=9be91ae4-f0e4-4815-8771-11307b3a366c"},"vehicle_type_id":"4","last_reported":1733245736,"current_range_meters":8000,"station_id":"ce4bhr92rcd13ifvqhrg","pricing_plan_id":"cebpf4jnsgd1na2vs0mg"},{"bike_id":"36142e23-8ff6-4096-ad19-b039c8156b69","system_id":"levelo_inurba_marseille","lat":43.28659,"lon":5.36358,"is_reserved":false,"is_disabled":true,"rental_uris":{"android":"levelo://app?vid=36142e23-8ff6-4096-ad19-b039c8156b69","ios":"levelo://app?vid=36142e23-8ff6-4096-ad19-b039c8156b69"},"vehicle_type_id":"4","last_reported":1733245736,"current_range_meters":30000,"station_id":"ce4bhah2rcd13ifvqej0","pricing_plan_id":"cebpf4jnsgd1na2vs0mg"},{"bike_id":"42b9061c-3a22-4f56-8cdd-6e08457777e2","system_id":"levelo_inurba_marseille","lat":43.29879,"lon":5.3975,"is_reserved":false,"is_disabled":false,"rental_uris":{"android":"levelo://app?vid=42b9061c-3a22-4f56-8cdd-6e08457777e2","ios":"levelo://app?vid=42b9061c-3a22-4f56-8cdd-6e08457777e2"},"vehicle_type_id":"4","last_reported":1733245736,"current_range_meters":39200,"station_id":"ce4bh0h2rcd13ifvqd50","pricing_plan_id":"cebpf4jnsgd1na2vs0mg"},{"bike_id":"ba8e3d7e-5213-4be0-93c3-25c6b25a3939","system_id":"levelo_inurba_marseille","lat":43.303,"lon":5.36897,"is_reserved":false,"is_disabled":false,"rental_uris":{"android":"levelo://app?vid=ba8e3d7e-5213-4be0-93c3-25c6b25a3939","ios":"levelo://app?vid=ba8e3d7e-5213-4be0-93c3-25c6b25a3939"},"vehicle_type_id":"4","last_reported":1733245736,"current_range_meters":36000,"station_id":"ce4bgqh2rcd13ifvqc5g","pricing_plan_id":"cebpf4jnsgd1na2vs0mg"},{"bike_id":"4c3fb316-febe-4764-b0a1-d58fd67e3e9a","system_id":"levelo_inurba_marseille","lat":43.28189,"lon":5.38294,"is_reserved":false,"is_disabled":true,"rental_uris":{"android":"levelo://app?vid=4c3fb316-febe-4764-b0a1-d58fd67e3e9a","ios":"levelo://app?vid=4c3fb316-febe-4764-b0a1-d58fd67e3e9a"},"vehicle_type_id":"4","last_reported":1733245736,"current_range_meters":25600,"station_id":"","pricing_plan_id":"cebpf4jnsgd1na2vs0mg"},{"bike_id":"987a5ab4-d60c-480c-94b6-7cab38975402","system_id":"levelo_inurba_marseille","lat":43.29748,"lon":5.37971,"is_reserved":false,"is_disabled":true,"rental_uris":{"android":"levelo://app?vid=987a5ab4-d60c-480c-94b6-7cab38975402","ios":"levelo://app?vid=987a5ab4-d60c-480c-94b6-7cab38975402"},"vehicle_type_id":"4","last_reported":1733245736,"current_range_meters":0,"station_id":"","pricing_plan_id":"cebpf4jnsgd1na2vs0mg"},{"bike_id":"6877f033-d09d-44d8-8868-c02f5054dd5f","system_id":"levelo_inurba_marseille","lat":43.31495,"lon":5.37266,"is_reserved":false,"is_disabled":false,"rental_uris":{"android":"levelo://app?vid=6877f033-d09d-44d8-8868-c02f5054dd5f","ios":"levelo://app?vid=6877f033-d09d-44d8-8868-c02f5054dd5f"},"vehicle_type_id":"4","last_reported":1733245736,"current_range_meters":10800,"station_id":"ce4bgt12rcd13ifvqcd0","pricing_plan_id":"cebpf4jnsgd1na2vs0mg"},{"bike_id":"2c4596ad-0ad9-4016-b92b-0093349de2b4","system_id":"levelo_inurba_marseille","lat":43.3072,"lon":5.38235,"is_reserved":false,"is_disabled":true,"rental_uris":{"android":"levelo://app?vid=2c4596ad-0ad9-4016-b92b-0093349de2b4","ios":"levelo://app?vid=2c4596ad-0ad9-4016-b92b-0093349de2b4"},"vehicle_type_id":"4","last_reported":1733245736,"current_range_meters":0,"station_id":"","pricing_plan_id":"cebpf4jnsgd1na2vs0mg"},{"bike_id":"f4564c90-7e9d-4424-a667-065869dc2ab9","system_id":"levelo_inurba_marseille","lat":43.23184,"lon":5.39989,"is_reserved":false,"is_disabled":false,"rental_uris":{"android":"levelo://app?vid=f4564c90-7e9d-4424-a667-065869dc2ab9","ios":"levelo://app?vid=f4564c90-7e9d-4424-a667-065869dc2ab9"},"vehicle_type_id":"4","last_reported":1733245736,"current_range_meters":12000,"station_id":"ce4bhn12rcd13ifvqgqg","pricing_plan_id":"cebpf4jnsgd1na2vs0mg"},{"bike_id":"1f28300c-d8be-4d08-b5ea-d3aadf1e301d","system_id":"levelo_inurba_marseille","lat":43.26246,"lon":5.4211,"is_reserved":false,"is_disabled":false,"rental_uris":{"android":"levelo://app?vid=1f28300c-d8be-4d08-b5ea-d3aadf1e301d","ios":"levelo://app?vid=1f28300c-d8be-4d08-b5ea-d3aadf1e301d"},"vehicle_type_id":"4","last_reported":1733245736,"current_range_meters":17600,"station_id":"","pricing_plan_id":"cebpf4jnsgd1na2vs0mg"},{"bike_id":"b7ab8c01-033f-4395-8276-23c850ad3d02","system_id":"levelo_inurba_marseille","lat":43.30332,"lon":5.36577,"is_reserved":false,"is_disabled":true,"rental_uris":{"android":"levelo://app?vid=b7ab8c01-033f-4395-8276-23c850ad3d02","ios":"levelo://app?vid=b7ab8c01-033f-4395-8276-23c850ad3d02"},"vehicle_type_id":"4","last_reported":1733245736,"current_range_meters":0,"station_id":"","pricing_plan_id":"cebpf4jnsgd1na2vs0mg"},{"bike_id":"5e952925-1491-4f8f-b074-0d84f66a6dea","system_id":"levelo_inurba_marseille","lat":43.32288,"lon":5.38269,"is_reserved":false,"is_disabled":false,"rental_uris":{"android":"levelo://app?vid=5e952925-1491-4f8f-b074-0d84f66a6dea","ios":"levelo://app?vid=5e952925-1491-4f8f-b074-0d84f66a6dea"},"vehicle_type_id":"4","last_reported":1733245736,"current_range_meters":28800,"station_id":"ce4bhr12rcd13ifvqhqg","pricing_plan_id":"cebpf4jnsgd1na2vs0mg"},{"bike_id":"c6e6729e-5027-422b-b134-990c8bb67ebc","system_id":"levelo_inurba_marseille","lat":43.28029,"lon":5.36948,"is_reserved":false,"is_disabled":false,"rental_uris":{"android":"levelo://app?vid=c6e6729e-5027-422b-b134-990c8bb67ebc","ios":"levelo://app?vid=c6e6729e-5027-422b-b134-990c8bb67ebc"},"vehicle_type_id":"4","last_reported":1733245736,"current_range_meters":39200,"station_id":"ce4bha12rcd13ifvqef0","pricing_plan_id":"cebpf4jnsgd1na2vs0mg"},{"bike_id":"90d51bc7-e353-41d2-a50a-323d720e1ab1","system_id":"levelo_inurba_marseille","lat":43.27371,"lon":5.36252,"is_reserved":false,"is_disabled":false,"rental_uris":{"android":"levelo://app?vid=90d51bc7-e353-41d2-a50a-323d720e1ab1","ios":"levelo://app?vid=90d51bc7-e353-41d2-a50a-323d720e1ab1"},"vehicle_type_id":"4","last_reported":1733245736,"current_range_meters":4000,"station_id":"ce4bhbh2rcd13ifvqeo0","pricing_plan_id":"cebpf4jnsgd1na2vs0mg"},{"bike_id":"8d8f863b-0066-4dab-b916-897fbd65d119","system_id":"levelo_inurba_marseille","lat":43.29707,"lon":5.3771,"is_reserved":false,"is_disabled":false,"rental_uris":{"android":"levelo://app?vid=8d8f863b-0066-4dab-b916-897fbd65d119","ios":"levelo://app?vid=8d8f863b-0066-4dab-b916-897fbd65d119"},"vehicle_type_id":"4","last_reported":1733245736,"current_range_meters":16400,"station_id":"","pricing_plan_id":"cebpf4jnsgd1na2vs0mg"},{"bike_id":"52e284ed-286c-41ec-a0e1-33e67adcb323","system_id":"levelo_inurba_marseille","lat":43.297861,"lon":5.381282,"is_reserved":false,"is_disabled":false,"rental_uris":{"android":"levelo://app?vid=52e284ed-286c-41ec-a0e1-33e67adcb323","ios":"levelo://app?vid=52e284ed-286c-41ec-a0e1-33e67adcb323"},"vehicle_type_id":"4","last_reported":1733245736,"current_range_meters":8400,"station_id":"ce4bgip2rcd13ifvqbb0","pricing_plan_id":"cebpf4jnsgd1na2vs0mg"},{"bike_id":"d969a83e-a7c2-4120-ad2f-a49d9b4f22ce","system_id":"levelo_inurba_marseille","lat":43.29527,"lon":5.39397,"is_reserved":false,"is_disabled":false,"rental_uris":{"android":"levelo://app?vid=d969a83e-a7c2-4120-ad2f-a49d9b4f22ce","ios":"levelo://app?vid=d969a83e-a7c2-4120-ad2f-a49d9b4f22ce"},"vehicle_type_id":"4","last_reported":1733245736,"current_range_meters":22800,"station_id":"ce4bh292rcd13ifvqdf0","pricing_plan_id":"cebpf4jnsgd1na2vs0mg"},{"bike_id":"330a642a-274e-4e68-8fe1-5d4031c17262","system_id":"levelo_inurba_marseille","lat":43.26497,"lon":5.39547,"is_reserved":false,"is_disabled":false,"rental_uris":{"android":"levelo://app?vid=330a642a-274e-4e68-8fe1-5d4031c17262","ios":"levelo://app?vid=330a642a-274e-4e68-8fe1-5d4031c17262"},"vehicle_type_id":"4","last_reported":1733245736,"current_range_meters":39200,"station_id":"ce4bhi12rcd13ifvqfq0","pricing_plan_id":"cebpf4jnsgd1na2vs0mg"},{"bike_id":"6cc6805f-c0ca-4585-bdf1-b5a0339762b0","system_id":"levelo_inurba_marseille","lat":43.29021,"lon":5.42798,"is_reserved":false,"is_disabled":false,"rental_uris":{"android":"levelo://app?vid=6cc6805f-c0ca-4585-bdf1-b5a0339762b0","ios":"levelo://app?vid=6cc6805f-c0ca-4585-bdf1-b5a0339762b0"},"vehicle_type_id":"4","last_reported":1733245736,"current_range_meters":2800,"station_id":"","pricing_plan_id":"cebpf4jnsgd1na2vs0mg"},{"bike_id":"66e5e480-df3d-4353-82a1-17abdba691f0","system_id":"levelo_inurba_marseille","lat":43.29186,"lon":5.35819,"is_reserved":false,"is_disabled":false,"rental_uris":{"android":"levelo://app?vid=66e5e480-df3d-4353-82a1-17abdba691f0","ios":"levelo://app?vid=66e5e480-df3d-4353-82a1-17abdba691f0"},"vehicle_type_id":"4","last_reported":1733245736,"current_range_meters":18800,"station_id":"ce4bhb12rcd13ifvqel0","pricing_plan_id":"cebpf4jnsgd1na2vs0mg"},{"bike_id":"8d1c8b92-79bb-4181-b0d2-5e94db1a14d0","system_id":"levelo_inurba_marseille","lat":43.3,"lon":5.38269,"is_reserved":false,"is_disabled":true,"rental_uris":{"android":"levelo://app?vid=8d1c8b92-79bb-4181-b0d2-5e94db1a14d0","ios":"levelo://app?vid=8d1c8b92-79bb-4181-b0d2-5e94db1a14d0"},"vehicle_type_id":"4","last_reported":1733245736,"current_range_meters":0,"station_id":"","pricing_plan_id":"cebpf4jnsgd1na2vs0mg"},{"bike_id":"f41b266a-1db3-42c4-89ed-9b3e0076df3c","system_id":"levelo_inurba_marseille","lat":43.28942,"lon":5.36407,"is_reserved":false,"is_disabled":false,"rental_uris":{"android":"levelo://app?vid=f41b266a-1db3-42c4-89ed-9b3e0076df3c","ios":"levelo://app?vid=f41b266a-1db3-42c4-89ed-9b3e0076df3c"},"vehicle_type_id":"4","last_reported":1733245736,"current_range_meters":30000,"station_id":"ce4bhc92rcd13ifvqetg","pricing_plan_id":"cebpf4jnsgd1na2vs0mg"},{"bike_id":"d12e07bc-303e-4665-a4bc-2ae6e909e195","system_id":"levelo_inurba_marseille","lat":43.30821,"lon":5.40019,"is_reserved":false,"is_disabled":false,"rental_uris":{"android":"levelo://app?vid=d12e07bc-303e-4665-a4bc-2ae6e909e195","ios":"levelo://app?vid=d12e07bc-303e-4665-a4bc-2ae6e909e195"},"vehicle_type_id":"4","last_reported":1733245736,"current_range_meters":36800,"station_id":"","pricing_plan_id":"cebpf4jnsgd1na2vs0mg"},{"bike_id":"f50fd7c3-b532-4367-afef-3514ea2370ef","system_id":"levelo_inurba_marseille","lat":43.31167,"lon":5.38718,"is_reserved":false,"is_disabled":false,"rental_uris":{"android":"levelo://app?vid=f50fd7c3-b532-4367-afef-3514ea2370ef","ios":"levelo://app?vid=f50fd7c3-b532-4367-afef-3514ea2370ef"},"vehicle_type_id":"4","last_reported":1733245736,"current_range_meters":38800,"station_id":"ce4bgv12rcd13ifvqcp0","pricing_plan_id":"cebpf4jnsgd1na2vs0mg"},{"bike_id":"6215a5d6-f644-4b71-9517-95607751e07a","system_id":"levelo_inurba_marseille","lat":43.29184,"lon":5.39312,"is_reserved":false,"is_disabled":false,"rental_uris":{"android":"levelo://app?vid=6215a5d6-f644-4b71-9517-95607751e07a","ios":"levelo://app?vid=6215a5d6-f644-4b71-9517-95607751e07a"},"vehicle_type_id":"4","last_reported":1733245736,"current_range_meters":38800,"station_id":"ce4bh192rcd13ifvqdd0","pricing_plan_id":"cebpf4jnsgd1na2vs0mg"},{"bike_id":"8c6ae27f-3733-439a-943c-f088570574ea","system_id":"levelo_inurba_marseille","lat":43.24803,"lon":5.37454,"is_reserved":false,"is_disabled":false,"rental_uris":{"android":"levelo://app?vid=8c6ae27f-3733-439a-943c-f088570574ea","ios":"levelo://app?vid=8c6ae27f-3733-439a-943c-f088570574ea"},"vehicle_type_id":"4","last_reported":1733245736,"current_range_meters":39200,"station_id":"ce4bhgh2rcd13ifvqfb0","pricing_plan_id":"cebpf4jnsgd1na2vs0mg"},{"bike_id":"30548017-e5f5-4193-a4b7-acc2c9e9bfdb","system_id":"levelo_inurba_marseille","lat":43.3302,"lon":5.39041,"is_reserved":false,"is_disabled":false,"rental_uris":{"android":"levelo://app?vid=30548017-e5f5-4193-a4b7-acc2c9e9bfdb","ios":"levelo://app?vid=30548017-e5f5-4193-a4b7-acc2c9e9bfdb"},"vehicle_type_id":"4","last_reported":1733245736,"current_range_meters":5600,"station_id":"ce4bhr92rcd13ifvqhrg","pricing_plan_id":"cebpf4jnsgd1na2vs0mg"},{"bike_id":"ae11192b-7477-4050-9e15-a2e6b81f0e44","system_id":"levelo_inurba_marseille","lat":43.30263,"lon":5.38664,"is_reserved":false,"is_disabled":false,"rental_uris":{"android":"levelo://app?vid=ae11192b-7477-4050-9e15-a2e6b81f0e44","ios":"levelo://app?vid=ae11192b-7477-4050-9e15-a2e6b81f0e44"},"vehicle_type_id":"4","last_reported":1733245736,"current_range_meters":8400,"station_id":"","pricing_plan_id":"cebpf4jnsgd1na2vs0mg"},{"bike_id":"4e666bff-a384-4eb4-909f-618e48911254","system_id":"levelo_inurba_marseille","lat":43.27995,"lon":5.40024,"is_reserved":false,"is_disabled":false,"rental_uris":{"android":"levelo://app?vid=4e666bff-a384-4eb4-909f-618e48911254","ios":"levelo://app?vid=4e666bff-a384-4eb4-909f-618e48911254"},"vehicle_type_id":"4","last_reported":1733245736,"current_range_meters":38800,"station_id":"ce4bho92rcd13ifvqh4g","pricing_plan_id":"cebpf4jnsgd1na2vs0mg"},{"bike_id":"129e8179-7842-4cc1-9183-0d92cefaf395","system_id":"levelo_inurba_marseille","lat":43.30423,"lon":5.38898,"is_reserved":false,"is_disabled":false,"rental_uris":{"android":"levelo://app?vid=129e8179-7842-4cc1-9183-0d92cefaf395","ios":"levelo://app?vid=129e8179-7842-4cc1-9183-0d92cefaf395"},"vehicle_type_id":"4","last_reported":1733245736,"current_range_meters":35600,"station_id":"ce4bgk12rcd13ifvqbi0","pricing_plan_id":"cebpf4jnsgd1na2vs0mg"},{"bike_id":"1ca0aca0-4ca4-4bf8-9b1d-054345c3a341","system_id":"levelo_inurba_marseille","lat":43.29098,"lon":5.38487,"is_reserved":false,"is_disabled":false,"rental_uris":{"android":"levelo://app?vid=1ca0aca0-4ca4-4bf8-9b1d-054345c3a341","ios":"levelo://app?vid=1ca0aca0-4ca4-4bf8-9b1d-054345c3a341"},"vehicle_type_id":"4","last_reported":1733245736,"current_range_meters":27600,"station_id":"","pricing_plan_id":"cebpf4jnsgd1na2vs0mg"},{"bike_id":"795b3bcc-a428-42e5-adc0-ab1120a9ce91","system_id":"levelo_inurba_marseille","lat":43.29527,"lon":5.39399,"is_reserved":false,"is_disabled":false,"rental_uris":{"android":"levelo://app?vid=795b3bcc-a428-42e5-adc0-ab1120a9ce91","ios":"levelo://app?vid=795b3bcc-a428-42e5-adc0-ab1120a9ce91"},"vehicle_type_id":"4","last_reported":1733245736,"current_range_meters":12400,"station_id":"ce4bh292rcd13ifvqdf0","pricing_plan_id":"cebpf4jnsgd1na2vs0mg"},{"bike_id":"4f8c6457-7b21-40cc-8da9-83dbe00b2111","system_id":"levelo_inurba_marseille","lat":43.27949,"lon":5.4105,"is_reserved":false,"is_disabled":false,"rental_uris":{"android":"levelo://app?vid=4f8c6457-7b21-40cc-8da9-83dbe00b2111","ios":"levelo://app?vid=4f8c6457-7b21-40cc-8da9-83dbe00b2111"},"vehicle_type_id":"4","last_reported":1733245736,"current_range_meters":35600,"station_id":"ce4bhnp2rcd13ifvqh0g","pricing_plan_id":"cebpf4jnsgd1na2vs0mg"},{"bike_id":"d2c28698-e177-4ec3-804c-ede2349774ad","system_id":"levelo_inurba_marseille","lat":43.2604,"lon":5.37548,"is_reserved":false,"is_disabled":false,"rental_uris":{"android":"levelo://app?vid=d2c28698-e177-4ec3-804c-ede2349774ad","ios":"levelo://app?vid=d2c28698-e177-4ec3-804c-ede2349774ad"},"vehicle_type_id":"4","last_reported":1733245736,"current_range_meters":12000,"station_id":"ce4bhgh2rcd13ifvqfa0","pricing_plan_id":"cebpf4jnsgd1na2vs0mg"},{"bike_id":"7aa36af5-168c-4195-8ee1-75f39bdf92cc","system_id":"levelo_inurba_marseille","lat":43.2799,"lon":5.41666,"is_reserved":false,"is_disabled":false,"rental_uris":{"android":"levelo://app?vid=7aa36af5-168c-4195-8ee1-75f39bdf92cc","ios":"levelo://app?vid=7aa36af5-168c-4195-8ee1-75f39bdf92cc"},"vehicle_type_id":"4","last_reported":1733245736,"current_range_meters":38800,"station_id":"ce4bho12rcd13ifvqh1g","pricing_plan_id":"cebpf4jnsgd1na2vs0mg"},{"bike_id":"9f4deee7-7f31-4c2e-82c6-46a38d5aa3cf","system_id":"levelo_inurba_marseille","lat":43.2984,"lon":5.36269,"is_reserved":false,"is_disabled":false,"rental_uris":{"android":"levelo://app?vid=9f4deee7-7f31-4c2e-82c6-46a38d5aa3cf","ios":"levelo://app?vid=9f4deee7-7f31-4c2e-82c6-46a38d5aa3cf"},"vehicle_type_id":"4","last_reported":1733245736,"current_range_meters":39200,"station_id":"ce4bgpp2rcd13ifvqc3g","pricing_plan_id":"cebpf4jnsgd1na2vs0mg"},{"bike_id":"cef4ebf6-8049-4565-ae0a-5693c77fce33","system_id":"levelo_inurba_marseille","lat":43.29886,"lon":5.3889,"is_reserved":false,"is_disabled":false,"rental_uris":{"android":"levelo://app?vid=cef4ebf6-8049-4565-ae0a-5693c77fce33","ios":"levelo://app?vid=cef4ebf6-8049-4565-ae0a-5693c77fce33"},"vehicle_type_id":"4","last_reported":1733245736,"current_range_meters":38000,"station_id":"ce4bh392rcd13ifvqdl0","pricing_plan_id":"cebpf4jnsgd1na2vs0mg"},{"bike_id":"9c77a68d-2e99-44e9-b903-950fb6644d35","system_id":"levelo_inurba_marseille","lat":43.25268,"lon":5.39464,"is_reserved":false,"is_disabled":true,"rental_uris":{"android":"levelo://app?vid=9c77a68d-2e99-44e9-b903-950fb6644d35","ios":"levelo://app?vid=9c77a68d-2e99-44e9-b903-950fb6644d35"},"vehicle_type_id":"4","last_reported":1733245736,"current_range_meters":0,"station_id":"","pricing_plan_id":"cebpf4jnsgd1na2vs0mg"},{"bike_id":"5dd9e784-d592-4921-b915-2ba815384928","system_id":"levelo_inurba_marseille","lat":43.28613,"lon":5.35106,"is_reserved":false,"is_disabled":false,"rental_uris":{"android":"levelo://app?vid=5dd9e784-d592-4921-b915-2ba815384928","ios":"levelo://app?vid=5dd9e784-d592-4921-b915-2ba815384928"},"vehicle_type_id":"4","last_reported":1733245736,"current_range_meters":25200,"station_id":"ce4bhch2rcd13ifvqeug","pricing_plan_id":"cebpf4jnsgd1na2vs0mg"},{"bike_id":"feb0b2d5-1082-408a-9bb4-26801f41573e","system_id":"levelo_inurba_marseille","lat":43.26944,"lon":5.40257,"is_reserved":false,"is_disabled":false,"rental_uris":{"android":"levelo://app?vid=feb0b2d5-1082-408a-9bb4-26801f41573e","ios":"levelo://app?vid=feb0b2d5-1082-408a-9bb4-26801f41573e"},"vehicle_type_id":"4","last_reported":1733245736,"current_range_meters":20400,"station_id":"cjm6bp8fraef2m0cb0m0","pricing_plan_id":"cebpf4jnsgd1na2vs0mg"},{"bike_id":"d82bcfc3-fa9b-45c3-a6f8-b19f63f65275","system_id":"levelo_inurba_marseille","lat":43.3149,"lon":5.3731,"is_reserved":false,"is_disabled":false,"rental_uris":{"android":"levelo://app?vid=d82bcfc3-fa9b-45c3-a6f8-b19f63f65275","ios":"levelo://app?vid=d82bcfc3-fa9b-45c3-a6f8-b19f63f65275"},"vehicle_type_id":"4","last_reported":1733245736,"current_range_meters":34800,"station_id":"ce4bgt12rcd13ifvqcd0","pricing_plan_id":"cebpf4jnsgd1na2vs0mg"},{"bike_id":"8ae996ca-f36d-43bd-879e-54d0b7c9e1e1","system_id":"levelo_inurba_marseille","lat":43.2944,"lon":5.39751,"is_reserved":false,"is_disabled":false,"rental_uris":{"android":"levelo://app?vid=8ae996ca-f36d-43bd-879e-54d0b7c9e1e1","ios":"levelo://app?vid=8ae996ca-f36d-43bd-879e-54d0b7c9e1e1"},"vehicle_type_id":"4","last_reported":1733245736,"current_range_meters":28400,"station_id":"ce4bh3h2rcd13ifvqdo0","pricing_plan_id":"cebpf4jnsgd1na2vs0mg"},{"bike_id":"83985555-c848-4b28-808f-8a7e7cf8519e","system_id":"levelo_inurba_marseille","lat":43.28116,"lon":5.44152,"is_reserved":false,"is_disabled":true,"rental_uris":{"android":"levelo://app?vid=83985555-c848-4b28-808f-8a7e7cf8519e","ios":"levelo://app?vid=83985555-c848-4b28-808f-8a7e7cf8519e"},"vehicle_type_id":"4","last_reported":1733245736,"current_range_meters":0,"station_id":"","pricing_plan_id":"cebpf4jnsgd1na2vs0mg"},{"bike_id":"c214e0a9-81f3-46b3-b567-5342d995354b","system_id":"levelo_inurba_marseille","lat":43.2893,"lon":5.36629,"is_reserved":false,"is_disabled":false,"rental_uris":{"android":"levelo://app?vid=c214e0a9-81f3-46b3-b567-5342d995354b","ios":"levelo://app?vid=c214e0a9-81f3-46b3-b567-5342d995354b"},"vehicle_type_id":"4","last_reported":1733245736,"current_range_meters":38800,"station_id":"ce4bhap2rcd13ifvqek0","pricing_plan_id":"cebpf4jnsgd1na2vs0mg"},{"bike_id":"903ec8f1-f4c3-441f-a117-ff7454fcb959","system_id":"levelo_inurba_marseille","lat":43.29468,"lon":5.39406,"is_reserved":false,"is_disabled":true,"rental_uris":{"android":"levelo://app?vid=903ec8f1-f4c3-441f-a117-ff7454fcb959","ios":"levelo://app?vid=903ec8f1-f4c3-441f-a117-ff7454fcb959"},"vehicle_type_id":"4","last_reported":1733245736,"current_range_meters":0,"station_id":"","pricing_plan_id":"cebpf4jnsgd1na2vs0mg"},{"bike_id":"941eeae1-8936-4a86-b31a-ea87d84b2048","system_id":"levelo_inurba_marseille","lat":43.28066,"lon":5.35635,"is_reserved":false,"is_disabled":false,"rental_uris":{"android":"levelo://app?vid=941eeae1-8936-4a86-b31a-ea87d84b2048","ios":"levelo://app?vid=941eeae1-8936-4a86-b31a-ea87d84b2048"},"vehicle_type_id":"4","last_reported":1733245736,"current_range_meters":6400,"station_id":"","pricing_plan_id":"cebpf4jnsgd1na2vs0mg"},{"bike_id":"afffd621-dccc-49f4-8d6c-13a2bffc6176","system_id":"levelo_inurba_marseille","lat":43.25088,"lon":5.39522,"is_reserved":false,"is_disabled":false,"rental_uris":{"android":"levelo://app?vid=afffd621-dccc-49f4-8d6c-13a2bffc6176","ios":"levelo://app?vid=afffd621-dccc-49f4-8d6c-13a2bffc6176"},"vehicle_type_id":"4","last_reported":1733245736,"current_range_meters":25200,"station_id":"ce4bhm12rcd13ifvqgkg","pricing_plan_id":"cebpf4jnsgd1na2vs0mg"},{"bike_id":"0b804146-f3f1-42fc-a1a3-4a4680090e38","system_id":"levelo_inurba_marseille","lat":43.30905,"lon":5.372,"is_reserved":false,"is_disabled":false,"rental_uris":{"android":"levelo://app?vid=0b804146-f3f1-42fc-a1a3-4a4680090e38","ios":"levelo://app?vid=0b804146-f3f1-42fc-a1a3-4a4680090e38"},"vehicle_type_id":"4","last_reported":1733245736,"current_range_meters":35200,"station_id":"ce4bguh2rcd13ifvqckg","pricing_plan_id":"cebpf4jnsgd1na2vs0mg"},{"bike_id":"d5dc8b48-0564-4629-a65c-97bbfeb5bca1","system_id":"levelo_inurba_marseille","lat":43.26229,"lon":5.37434,"is_reserved":false,"is_disabled":false,"rental_uris":{"android":"levelo://app?vid=d5dc8b48-0564-4629-a65c-97bbfeb5bca1","ios":"levelo://app?vid=d5dc8b48-0564-4629-a65c-97bbfeb5bca1"},"vehicle_type_id":"4","last_reported":1733245736,"current_range_meters":36400,"station_id":"ce4bhgp2rcd13ifvqfc0","pricing_plan_id":"cebpf4jnsgd1na2vs0mg"},{"bike_id":"57198ef8-c233-4272-bb73-66c408b6eb26","system_id":"levelo_inurba_marseille","lat":43.33024,"lon":5.39044,"is_reserved":false,"is_disabled":false,"rental_uris":{"android":"levelo://app?vid=57198ef8-c233-4272-bb73-66c408b6eb26","ios":"levelo://app?vid=57198ef8-c233-4272-bb73-66c408b6eb26"},"vehicle_type_id":"4","last_reported":1733245736,"current_range_meters":26800,"station_id":"ce4bhr92rcd13ifvqhrg","pricing_plan_id":"cebpf4jnsgd1na2vs0mg"},{"bike_id":"d968385f-de2b-44eb-96a8-54efc707caa9","system_id":"levelo_inurba_marseille","lat":43.23198,"lon":5.35547,"is_reserved":false,"is_disabled":false,"rental_uris":{"android":"levelo://app?vid=d968385f-de2b-44eb-96a8-54efc707caa9","ios":"levelo://app?vid=d968385f-de2b-44eb-96a8-54efc707caa9"},"vehicle_type_id":"4","last_reported":1733245736,"current_range_meters":39200,"station_id":"ce4bhu92rcd13ifvqi70","pricing_plan_id":"cebpf4jnsgd1na2vs0mg"},{"bike_id":"9ebb14bb-13f9-4197-82b0-644ebf303db2","system_id":"levelo_inurba_marseille","lat":43.29705,"lon":5.37703,"is_reserved":false,"is_disabled":false,"rental_uris":{"android":"levelo://app?vid=9ebb14bb-13f9-4197-82b0-644ebf303db2","ios":"levelo://app?vid=9ebb14bb-13f9-4197-82b0-644ebf303db2"},"vehicle_type_id":"4","last_reported":1733245736,"current_range_meters":38800,"station_id":"ce4bgkh2rcd13ifvqbl0","pricing_plan_id":"cebpf4jnsgd1na2vs0mg"},{"bike_id":"e218f52a-3c8a-490a-99d9-5af7196625b0","system_id":"levelo_inurba_marseille","lat":43.23195,"lon":5.35548,"is_reserved":false,"is_disabled":false,"rental_uris":{"android":"levelo://app?vid=e218f52a-3c8a-490a-99d9-5af7196625b0","ios":"levelo://app?vid=e218f52a-3c8a-490a-99d9-5af7196625b0"},"vehicle_type_id":"4","last_reported":1733245736,"current_range_meters":39200,"station_id":"ce4bhu92rcd13ifvqi70","pricing_plan_id":"cebpf4jnsgd1na2vs0mg"},{"bike_id":"506c09f4-6c9b-4fb3-996c-4c7f86dd75a8","system_id":"levelo_inurba_marseille","lat":43.24557,"lon":5.37351,"is_reserved":false,"is_disabled":true,"rental_uris":{"android":"levelo://app?vid=506c09f4-6c9b-4fb3-996c-4c7f86dd75a8","ios":"levelo://app?vid=506c09f4-6c9b-4fb3-996c-4c7f86dd75a8"},"vehicle_type_id":"4","last_reported":1733245736,"current_range_meters":0,"station_id":"","pricing_plan_id":"cebpf4jnsgd1na2vs0mg"},{"bike_id":"4c447cfe-1055-4775-84e2-7316c429a49d","system_id":"levelo_inurba_marseille","lat":43.29962,"lon":5.4132,"is_reserved":false,"is_disabled":false,"rental_uris":{"android":"levelo://app?vid=4c447cfe-1055-4775-84e2-7316c429a49d","ios":"levelo://app?vid=4c447cfe-1055-4775-84e2-7316c429a49d"},"vehicle_type_id":"4","last_reported":1733245736,"current_range_meters":36800,"station_id":"ce4bhp12rcd13ifvqh9g","pricing_plan_id":"cebpf4jnsgd1na2vs0mg"},{"bike_id":"9202c63e-372c-4469-a5c1-8e35757d1940","system_id":"levelo_inurba_marseille","lat":43.30053,"lon":5.38832,"is_reserved":false,"is_disabled":true,"rental_uris":{"android":"levelo://app?vid=9202c63e-372c-4469-a5c1-8e35757d1940","ios":"levelo://app?vid=9202c63e-372c-4469-a5c1-8e35757d1940"},"vehicle_type_id":"4","last_reported":1733245736,"current_range_meters":0,"station_id":"","pricing_plan_id":"cebpf4jnsgd1na2vs0mg"},{"bike_id":"e2d20d32-4ddb-49aa-8c83-ae4101efd884","system_id":"levelo_inurba_marseille","lat":43.257233,"lon":5.411047,"is_reserved":false,"is_disabled":false,"rental_uris":{"android":"levelo://app?vid=e2d20d32-4ddb-49aa-8c83-ae4101efd884","ios":"levelo://app?vid=e2d20d32-4ddb-49aa-8c83-ae4101efd884"},"vehicle_type_id":"4","last_reported":1733245736,"current_range_meters":8400,"station_id":"ce4bhkp2rcd13ifvqgd0","pricing_plan_id":"cebpf4jnsgd1na2vs0mg"},{"bike_id":"920590ea-3bd8-4b99-b4a0-70ebbab9daec","system_id":"levelo_inurba_marseille","lat":43.29441,"lon":5.39759,"is_reserved":false,"is_disabled":false,"rental_uris":{"android":"levelo://app?vid=920590ea-3bd8-4b99-b4a0-70ebbab9daec","ios":"levelo://app?vid=920590ea-3bd8-4b99-b4a0-70ebbab9daec"},"vehicle_type_id":"4","last_reported":1733245736,"current_range_meters":28400,"station_id":"ce4bh3h2rcd13ifvqdo0","pricing_plan_id":"cebpf4jnsgd1na2vs0mg"},{"bike_id":"59fe6ee5-2970-40fb-8f17-79075f699540","system_id":"levelo_inurba_marseille","lat":43.27055,"lon":5.40265,"is_reserved":false,"is_disabled":false,"rental_uris":{"android":"levelo://app?vid=59fe6ee5-2970-40fb-8f17-79075f699540","ios":"levelo://app?vid=59fe6ee5-2970-40fb-8f17-79075f699540"},"vehicle_type_id":"4","last_reported":1733245736,"current_range_meters":38000,"station_id":"ce4bhk92rcd13ifvqgc0","pricing_plan_id":"cebpf4jnsgd1na2vs0mg"},{"bike_id":"ea2d17ce-786b-482b-9d03-5a7aad598791","system_id":"levelo_inurba_marseille","lat":43.25934,"lon":5.40916,"is_reserved":false,"is_disabled":true,"rental_uris":{"android":"levelo://app?vid=ea2d17ce-786b-482b-9d03-5a7aad598791","ios":"levelo://app?vid=ea2d17ce-786b-482b-9d03-5a7aad598791"},"vehicle_type_id":"4","last_reported":1733245736,"current_range_meters":800,"station_id":"ce4bhm92rcd13ifvqglg","pricing_plan_id":"cebpf4jnsgd1na2vs0mg"},{"bike_id":"566cf97f-b005-4d0f-b852-50dcf061d4dd","system_id":"levelo_inurba_marseille","lat":43.29695,"lon":5.36602,"is_reserved":false,"is_disabled":false,"rental_uris":{"android":"levelo://app?vid=566cf97f-b005-4d0f-b852-50dcf061d4dd","ios":"levelo://app?vid=566cf97f-b005-4d0f-b852-50dcf061d4dd"},"vehicle_type_id":"4","last_reported":1733245736,"current_range_meters":38800,"station_id":"ce4bgn12rcd13ifvqbt0","pricing_plan_id":"cebpf4jnsgd1na2vs0mg"},{"bike_id":"709768cf-f40f-4486-bf33-373d28aefadb","system_id":"levelo_inurba_marseille","lat":43.24388,"lon":5.37061,"is_reserved":false,"is_disabled":true,"rental_uris":{"android":"levelo://app?vid=709768cf-f40f-4486-bf33-373d28aefadb","ios":"levelo://app?vid=709768cf-f40f-4486-bf33-373d28aefadb"},"vehicle_type_id":"4","last_reported":1733245736,"current_range_meters":0,"station_id":"ce4bhhh2rcd13ifvqfk0","pricing_plan_id":"cebpf4jnsgd1na2vs0mg"},{"bike_id":"4a163e59-10c0-4f85-9663-cc135fcf421e","system_id":"levelo_inurba_marseille","lat":43.24806,"lon":5.37459,"is_reserved":false,"is_disabled":false,"rental_uris":{"android":"levelo://app?vid=4a163e59-10c0-4f85-9663-cc135fcf421e","ios":"levelo://app?vid=4a163e59-10c0-4f85-9663-cc135fcf421e"},"vehicle_type_id":"4","last_reported":1733245736,"current_range_meters":22400,"station_id":"ce4bhgh2rcd13ifvqfb0","pricing_plan_id":"cebpf4jnsgd1na2vs0mg"},{"bike_id":"a5e996f6-d224-4e77-826f-8d59d94e80d9","system_id":"levelo_inurba_marseille","lat":43.29364,"lon":5.37852,"is_reserved":false,"is_disabled":false,"rental_uris":{"android":"levelo://app?vid=a5e996f6-d224-4e77-826f-8d59d94e80d9","ios":"levelo://app?vid=a5e996f6-d224-4e77-826f-8d59d94e80d9"},"vehicle_type_id":"4","last_reported":1733245736,"current_range_meters":26000,"station_id":"ce4bgjh2rcd13ifvqbf0","pricing_plan_id":"cebpf4jnsgd1na2vs0mg"},{"bike_id":"060c862c-be2a-4fad-8202-e22768c91523","system_id":"levelo_inurba_marseille","lat":43.28461,"lon":5.35885,"is_reserved":false,"is_disabled":false,"rental_uris":{"android":"levelo://app?vid=060c862c-be2a-4fad-8202-e22768c91523","ios":"levelo://app?vid=060c862c-be2a-4fad-8202-e22768c91523"},"vehicle_type_id":"4","last_reported":1733245736,"current_range_meters":38000,"station_id":"ce4bhah2rcd13ifvqei0","pricing_plan_id":"cebpf4jnsgd1na2vs0mg"},{"bike_id":"719e509a-25e4-4b1b-9830-f708d85d7593","system_id":"levelo_inurba_marseille","lat":43.29569,"lon":5.37512,"is_reserved":false,"is_disabled":true,"rental_uris":{"android":"levelo://app?vid=719e509a-25e4-4b1b-9830-f708d85d7593","ios":"levelo://app?vid=719e509a-25e4-4b1b-9830-f708d85d7593"},"vehicle_type_id":"4","last_reported":1733245736,"current_range_meters":0,"station_id":"ce4bgh92rcd13ifvqb50","pricing_plan_id":"cebpf4jnsgd1na2vs0mg"},{"bike_id":"34990873-3196-4058-b006-4ffbc0216fdf","system_id":"levelo_inurba_marseille","lat":43.23197,"lon":5.35548,"is_reserved":false,"is_disabled":false,"rental_uris":{"android":"levelo://app?vid=34990873-3196-4058-b006-4ffbc0216fdf","ios":"levelo://app?vid=34990873-3196-4058-b006-4ffbc0216fdf"},"vehicle_type_id":"4","last_reported":1733245736,"current_range_meters":39200,"station_id":"ce4bhu92rcd13ifvqi70","pricing_plan_id":"cebpf4jnsgd1na2vs0mg"},{"bike_id":"235e4433-937e-41f8-a4d6-6889c27bd8c1","system_id":"levelo_inurba_marseille","lat":43.31078,"lon":5.38359,"is_reserved":false,"is_disabled":false,"rental_uris":{"android":"levelo://app?vid=235e4433-937e-41f8-a4d6-6889c27bd8c1","ios":"levelo://app?vid=235e4433-937e-41f8-a4d6-6889c27bd8c1"},"vehicle_type_id":"4","last_reported":1733245736,"current_range_meters":23200,"station_id":"ce4bgv92rcd13ifvqcr0","pricing_plan_id":"cebpf4jnsgd1na2vs0mg"},{"bike_id":"c7246d43-f3b0-4f6e-a739-f76f925adbb6","system_id":"levelo_inurba_marseille","lat":43.26064,"lon":5.39399,"is_reserved":false,"is_disabled":false,"rental_uris":{"android":"levelo://app?vid=c7246d43-f3b0-4f6e-a739-f76f925adbb6","ios":"levelo://app?vid=c7246d43-f3b0-4f6e-a739-f76f925adbb6"},"vehicle_type_id":"4","last_reported":1733245736,"current_range_meters":14800,"station_id":"ce4bhh92rcd13ifvqfj0","pricing_plan_id":"cebpf4jnsgd1na2vs0mg"},{"bike_id":"7eeb5ac6-a3ab-4724-a0d1-17bed7e385e6","system_id":"levelo_inurba_marseille","lat":43.27996,"lon":5.41675,"is_reserved":false,"is_disabled":true,"rental_uris":{"android":"levelo://app?vid=7eeb5ac6-a3ab-4724-a0d1-17bed7e385e6","ios":"levelo://app?vid=7eeb5ac6-a3ab-4724-a0d1-17bed7e385e6"},"vehicle_type_id":"4","last_reported":1733245736,"current_range_meters":28800,"station_id":"ce4bho12rcd13ifvqh1g","pricing_plan_id":"cebpf4jnsgd1na2vs0mg"},{"bike_id":"48f7fad5-9736-4854-ad66-3ac0235f4d2f","system_id":"levelo_inurba_marseille","lat":43.27057,"lon":5.4028,"is_reserved":false,"is_disabled":false,"rental_uris":{"android":"levelo://app?vid=48f7fad5-9736-4854-ad66-3ac0235f4d2f","ios":"levelo://app?vid=48f7fad5-9736-4854-ad66-3ac0235f4d2f"},"vehicle_type_id":"4","last_reported":1733245736,"current_range_meters":23200,"station_id":"ce4bhk92rcd13ifvqgc0","pricing_plan_id":"cebpf4jnsgd1na2vs0mg"},{"bike_id":"b6d60b48-3a28-4b8f-a921-66514c8ba536","system_id":"levelo_inurba_marseille","lat":43.29703,"lon":5.377,"is_reserved":false,"is_disabled":false,"rental_uris":{"android":"levelo://app?vid=b6d60b48-3a28-4b8f-a921-66514c8ba536","ios":"levelo://app?vid=b6d60b48-3a28-4b8f-a921-66514c8ba536"},"vehicle_type_id":"4","last_reported":1733245736,"current_range_meters":38800,"station_id":"ce4bgkh2rcd13ifvqbl0","pricing_plan_id":"cebpf4jnsgd1na2vs0mg"},{"bike_id":"1765576d-ad21-4bb0-85a8-4c7cde4f5294","system_id":"levelo_inurba_marseille","lat":43.29617,"lon":5.37155,"is_reserved":false,"is_disabled":true,"rental_uris":{"android":"levelo://app?vid=1765576d-ad21-4bb0-85a8-4c7cde4f5294","ios":"levelo://app?vid=1765576d-ad21-4bb0-85a8-4c7cde4f5294"},"vehicle_type_id":"4","last_reported":1733245736,"current_range_meters":5600,"station_id":"ce4bgnh2rcd13ifvqc0g","pricing_plan_id":"cebpf4jnsgd1na2vs0mg"},{"bike_id":"d66bb060-eae4-4237-b847-a034287e114d","system_id":"levelo_inurba_marseille","lat":43.23969,"lon":5.36629,"is_reserved":false,"is_disabled":false,"rental_uris":{"android":"levelo://app?vid=d66bb060-eae4-4237-b847-a034287e114d","ios":"levelo://app?vid=d66bb060-eae4-4237-b847-a034287e114d"},"vehicle_type_id":"4","last_reported":1733245736,"current_range_meters":24000,"station_id":"ce4bhi12rcd13ifvqfp0","pricing_plan_id":"cebpf4jnsgd1na2vs0mg"},{"bike_id":"2aa452f1-96cf-49c8-a1f3-a05e067ad961","system_id":"levelo_inurba_marseille","lat":43.3092,"lon":5.40145,"is_reserved":false,"is_disabled":false,"rental_uris":{"android":"levelo://app?vid=2aa452f1-96cf-49c8-a1f3-a05e067ad961","ios":"levelo://app?vid=2aa452f1-96cf-49c8-a1f3-a05e067ad961"},"vehicle_type_id":"4","last_reported":1733245736,"current_range_meters":13600,"station_id":"ce4bgvp2rcd13ifvqct0","pricing_plan_id":"cebpf4jnsgd1na2vs0mg"},{"bike_id":"ba42a1c9-bb4f-4605-b794-af2d7b97d7fe","system_id":"levelo_inurba_marseille","lat":43.306,"lon":5.37227,"is_reserved":false,"is_disabled":false,"rental_uris":{"android":"levelo://app?vid=ba42a1c9-bb4f-4605-b794-af2d7b97d7fe","ios":"levelo://app?vid=ba42a1c9-bb4f-4605-b794-af2d7b97d7fe"},"vehicle_type_id":"4","last_reported":1733245736,"current_range_meters":30400,"station_id":"ce4bgqh2rcd13ifvqc4g","pricing_plan_id":"cebpf4jnsgd1na2vs0mg"},{"bike_id":"f7c8583f-061d-492c-99b5-54599f7d6213","system_id":"levelo_inurba_marseille","lat":43.28721,"lon":5.39988,"is_reserved":false,"is_disabled":false,"rental_uris":{"android":"levelo://app?vid=f7c8583f-061d-492c-99b5-54599f7d6213","ios":"levelo://app?vid=f7c8583f-061d-492c-99b5-54599f7d6213"},"vehicle_type_id":"4","last_reported":1733245736,"current_range_meters":23200,"station_id":"ce4bho92rcd13ifvqh3g","pricing_plan_id":"cebpf4jnsgd1na2vs0mg"},{"bike_id":"dd669c5d-ced8-456a-9f4c-d430a0035287","system_id":"levelo_inurba_marseille","lat":43.30647,"lon":5.40076,"is_reserved":false,"is_disabled":false,"rental_uris":{"android":"levelo://app?vid=dd669c5d-ced8-456a-9f4c-d430a0035287","ios":"levelo://app?vid=dd669c5d-ced8-456a-9f4c-d430a0035287"},"vehicle_type_id":"4","last_reported":1733245736,"current_range_meters":28000,"station_id":"ce4bh112rcd13ifvqda0","pricing_plan_id":"cebpf4jnsgd1na2vs0mg"},{"bike_id":"306ac285-bc0c-4835-93e0-a6039d545963","system_id":"levelo_inurba_marseille","lat":43.3008,"lon":5.39089,"is_reserved":false,"is_disabled":true,"rental_uris":{"android":"levelo://app?vid=306ac285-bc0c-4835-93e0-a6039d545963","ios":"levelo://app?vid=306ac285-bc0c-4835-93e0-a6039d545963"},"vehicle_type_id":"4","last_reported":1733245736,"current_range_meters":38800,"station_id":"ce4bh192rcd13ifvqdb0","pricing_plan_id":"cebpf4jnsgd1na2vs0mg"},{"bike_id":"7180a1b8-1ebd-4d4e-9f84-8ab9cdc4172c","system_id":"levelo_inurba_marseille","lat":43.29883,"lon":5.39735,"is_reserved":false,"is_disabled":false,"rental_uris":{"android":"levelo://app?vid=7180a1b8-1ebd-4d4e-9f84-8ab9cdc4172c","ios":"levelo://app?vid=7180a1b8-1ebd-4d4e-9f84-8ab9cdc4172c"},"vehicle_type_id":"4","last_reported":1733245736,"current_range_meters":28400,"station_id":"ce4bh0h2rcd13ifvqd50","pricing_plan_id":"cebpf4jnsgd1na2vs0mg"},{"bike_id":"510f7d64-056d-4591-848e-33c7bef51b35","system_id":"levelo_inurba_marseille","lat":43.33027,"lon":5.39036,"is_reserved":false,"is_disabled":true,"rental_uris":{"android":"levelo://app?vid=510f7d64-056d-4591-848e-33c7bef51b35","ios":"levelo://app?vid=510f7d64-056d-4591-848e-33c7bef51b35"},"vehicle_type_id":"4","last_reported":1733245736,"current_range_meters":0,"station_id":"ce4bhr92rcd13ifvqhrg","pricing_plan_id":"cebpf4jnsgd1na2vs0mg"},{"bike_id":"1dc70cdf-4f74-41af-9e95-77502d50e11a","system_id":"levelo_inurba_marseille","lat":43.30417,"lon":5.41277,"is_reserved":false,"is_disabled":true,"rental_uris":{"android":"levelo://app?vid=1dc70cdf-4f74-41af-9e95-77502d50e11a","ios":"levelo://app?vid=1dc70cdf-4f74-41af-9e95-77502d50e11a"},"vehicle_type_id":"4","last_reported":1733245736,"current_range_meters":16800,"station_id":"ce4bhop2rcd13ifvqh8g","pricing_plan_id":"cebpf4jnsgd1na2vs0mg"},{"bike_id":"f3eb4d0f-c3c8-4e4a-9e5f-c4fc2f703e09","system_id":"levelo_inurba_marseille","lat":43.28699,"lon":5.37383,"is_reserved":false,"is_disabled":false,"rental_uris":{"android":"levelo://app?vid=f3eb4d0f-c3c8-4e4a-9e5f-c4fc2f703e09","ios":"levelo://app?vid=f3eb4d0f-c3c8-4e4a-9e5f-c4fc2f703e09"},"vehicle_type_id":"4","last_reported":1733245736,"current_range_meters":8000,"station_id":"ce4bh3p2rcd13ifvqdq0","pricing_plan_id":"cebpf4jnsgd1na2vs0mg"},{"bike_id":"9df13e83-2d1a-4fa2-90cc-97c540055c4e","system_id":"levelo_inurba_marseille","lat":43.29665,"lon":5.37302,"is_reserved":false,"is_disabled":false,"rental_uris":{"android":"levelo://app?vid=9df13e83-2d1a-4fa2-90cc-97c540055c4e","ios":"levelo://app?vid=9df13e83-2d1a-4fa2-90cc-97c540055c4e"},"vehicle_type_id":"4","last_reported":1733245736,"current_range_meters":22800,"station_id":"ce4bgk12rcd13ifvqbj0","pricing_plan_id":"cebpf4jnsgd1na2vs0mg"},{"bike_id":"727277a0-f49e-4193-8d8b-9c36a0f85738","system_id":"levelo_inurba_marseille","lat":43.27974,"lon":5.3874,"is_reserved":false,"is_disabled":false,"rental_uris":{"android":"levelo://app?vid=727277a0-f49e-4193-8d8b-9c36a0f85738","ios":"levelo://app?vid=727277a0-f49e-4193-8d8b-9c36a0f85738"},"vehicle_type_id":"4","last_reported":1733245736,"current_range_meters":25600,"station_id":"ce4bhg12rcd13ifvqf80","pricing_plan_id":"cebpf4jnsgd1na2vs0mg"},{"bike_id":"a57352c3-6470-473f-b725-4b1ac6d22442","system_id":"levelo_inurba_marseille","lat":43.28619,"lon":5.35105,"is_reserved":false,"is_disabled":false,"rental_uris":{"android":"levelo://app?vid=a57352c3-6470-473f-b725-4b1ac6d22442","ios":"levelo://app?vid=a57352c3-6470-473f-b725-4b1ac6d22442"},"vehicle_type_id":"4","last_reported":1733245736,"current_range_meters":22800,"station_id":"ce4bhch2rcd13ifvqeug","pricing_plan_id":"cebpf4jnsgd1na2vs0mg"},{"bike_id":"72e21a5e-0a93-46f4-be99-089514dd36e9","system_id":"levelo_inurba_marseille","lat":43.33027,"lon":5.3904,"is_reserved":false,"is_disabled":false,"rental_uris":{"android":"levelo://app?vid=72e21a5e-0a93-46f4-be99-089514dd36e9","ios":"levelo://app?vid=72e21a5e-0a93-46f4-be99-089514dd36e9"},"vehicle_type_id":"4","last_reported":1733245736,"current_range_meters":38800,"station_id":"ce4bhr92rcd13ifvqhrg","pricing_plan_id":"cebpf4jnsgd1na2vs0mg"},{"bike_id":"79c8ea6d-5102-4a1e-b941-afdabc095945","system_id":"levelo_inurba_marseille","lat":43.29076,"lon":5.38337,"is_reserved":false,"is_disabled":true,"rental_uris":{"android":"levelo://app?vid=79c8ea6d-5102-4a1e-b941-afdabc095945","ios":"levelo://app?vid=79c8ea6d-5102-4a1e-b941-afdabc095945"},"vehicle_type_id":"4","last_reported":1733245736,"current_range_meters":24400,"station_id":"","pricing_plan_id":"cebpf4jnsgd1na2vs0mg"},{"bike_id":"d85fe9b9-a328-4c45-85c9-2ca7bf4076d8","system_id":"levelo_inurba_marseille","lat":43.32494,"lon":5.36602,"is_reserved":false,"is_disabled":false,"rental_uris":{"android":"levelo://app?vid=d85fe9b9-a328-4c45-85c9-2ca7bf4076d8","ios":"levelo://app?vid=d85fe9b9-a328-4c45-85c9-2ca7bf4076d8"},"vehicle_type_id":"4","last_reported":1733245736,"current_range_meters":31200,"station_id":"ce4bhs12rcd13ifvqhvg","pricing_plan_id":"cebpf4jnsgd1na2vs0mg"},{"bike_id":"a4a35669-e80c-4b01-90af-9495ae9879a0","system_id":"levelo_inurba_marseille","lat":43.25112,"lon":5.40324,"is_reserved":false,"is_disabled":false,"rental_uris":{"android":"levelo://app?vid=a4a35669-e80c-4b01-90af-9495ae9879a0","ios":"levelo://app?vid=a4a35669-e80c-4b01-90af-9495ae9879a0"},"vehicle_type_id":"4","last_reported":1733245736,"current_range_meters":36800,"station_id":"ce4bhlh2rcd13ifvqgig","pricing_plan_id":"cebpf4jnsgd1na2vs0mg"},{"bike_id":"78f0ad12-dd8e-4a2a-9df2-d7c1caf5f6ad","system_id":"levelo_inurba_marseille","lat":43.29284,"lon":5.40125,"is_reserved":false,"is_disabled":false,"rental_uris":{"android":"levelo://app?vid=78f0ad12-dd8e-4a2a-9df2-d7c1caf5f6ad","ios":"levelo://app?vid=78f0ad12-dd8e-4a2a-9df2-d7c1caf5f6ad"},"vehicle_type_id":"4","last_reported":1733245736,"current_range_meters":38800,"station_id":"ce4bh312rcd13ifvqdk0","pricing_plan_id":"cebpf4jnsgd1na2vs0mg"},{"bike_id":"2908b67a-f30e-4b8e-9fbc-65600505d731","system_id":"levelo_inurba_marseille","lat":43.29609,"lon":5.37725,"is_reserved":false,"is_disabled":false,"rental_uris":{"android":"levelo://app?vid=2908b67a-f30e-4b8e-9fbc-65600505d731","ios":"levelo://app?vid=2908b67a-f30e-4b8e-9fbc-65600505d731"},"vehicle_type_id":"4","last_reported":1733245736,"current_range_meters":33200,"station_id":"ce4bgi92rcd13ifvqb90","pricing_plan_id":"cebpf4jnsgd1na2vs0mg"},{"bike_id":"d337693b-82b2-4f65-ad74-9a2472a5f9cd","system_id":"levelo_inurba_marseille","lat":43.297848,"lon":5.381104,"is_reserved":false,"is_disabled":true,"rental_uris":{"android":"levelo://app?vid=d337693b-82b2-4f65-ad74-9a2472a5f9cd","ios":"levelo://app?vid=d337693b-82b2-4f65-ad74-9a2472a5f9cd"},"vehicle_type_id":"4","last_reported":1733245736,"current_range_meters":37600,"station_id":"ce4bgip2rcd13ifvqbb0","pricing_plan_id":"cebpf4jnsgd1na2vs0mg"},{"bike_id":"1f3491f0-7911-4ef6-949b-178332ea511b","system_id":"levelo_inurba_marseille","lat":43.27935,"lon":5.38734,"is_reserved":false,"is_disabled":false,"rental_uris":{"android":"levelo://app?vid=1f3491f0-7911-4ef6-949b-178332ea511b","ios":"levelo://app?vid=1f3491f0-7911-4ef6-949b-178332ea511b"},"vehicle_type_id":"4","last_reported":1733245736,"current_range_meters":24000,"station_id":"ce4bhg12rcd13ifvqf80","pricing_plan_id":"cebpf4jnsgd1na2vs0mg"},{"bike_id":"1c19a381-361c-452f-b2c4-e193a90d1bd9","system_id":"levelo_inurba_marseille","lat":43.27371,"lon":5.36252,"is_reserved":false,"is_disabled":false,"rental_uris":{"android":"levelo://app?vid=1c19a381-361c-452f-b2c4-e193a90d1bd9","ios":"levelo://app?vid=1c19a381-361c-452f-b2c4-e193a90d1bd9"},"vehicle_type_id":"4","last_reported":1733245736,"current_range_meters":34000,"station_id":"ce4bhbh2rcd13ifvqeo0","pricing_plan_id":"cebpf4jnsgd1na2vs0mg"},{"bike_id":"427d7497-fe79-4531-b7d6-69d2614ceec1","system_id":"levelo_inurba_marseille","lat":43.29198,"lon":5.38477,"is_reserved":false,"is_disabled":true,"rental_uris":{"android":"levelo://app?vid=427d7497-fe79-4531-b7d6-69d2614ceec1","ios":"levelo://app?vid=427d7497-fe79-4531-b7d6-69d2614ceec1"},"vehicle_type_id":"4","last_reported":1733245736,"current_range_meters":8800,"station_id":"","pricing_plan_id":"cebpf4jnsgd1na2vs0mg"},{"bike_id":"ede3432a-ab97-47ac-a568-dc59ed0d8b20","system_id":"levelo_inurba_marseille","lat":43.30614,"lon":5.37221,"is_reserved":false,"is_disabled":false,"rental_uris":{"android":"levelo://app?vid=ede3432a-ab97-47ac-a568-dc59ed0d8b20","ios":"levelo://app?vid=ede3432a-ab97-47ac-a568-dc59ed0d8b20"},"vehicle_type_id":"4","last_reported":1733245736,"current_range_meters":27200,"station_id":"ce4bgqh2rcd13ifvqc4g","pricing_plan_id":"cebpf4jnsgd1na2vs0mg"},{"bike_id":"3be746c3-f855-49a9-bb8f-60917d0282c3","system_id":"levelo_inurba_marseille","lat":43.29004,"lon":5.35613,"is_reserved":false,"is_disabled":false,"rental_uris":{"android":"levelo://app?vid=3be746c3-f855-49a9-bb8f-60917d0282c3","ios":"levelo://app?vid=3be746c3-f855-49a9-bb8f-60917d0282c3"},"vehicle_type_id":"4","last_reported":1733245736,"current_range_meters":35600,"station_id":"ce4bhb92rcd13ifvqen0","pricing_plan_id":"cebpf4jnsgd1na2vs0mg"},{"bike_id":"a4b9e425-64b8-4ce2-a5ab-5fcc5d1230a4","system_id":"levelo_inurba_marseille","lat":43.32114,"lon":5.36775,"is_reserved":false,"is_disabled":false,"rental_uris":{"android":"levelo://app?vid=a4b9e425-64b8-4ce2-a5ab-5fcc5d1230a4","ios":"levelo://app?vid=a4b9e425-64b8-4ce2-a5ab-5fcc5d1230a4"},"vehicle_type_id":"4","last_reported":1733245736,"current_range_meters":9600,"station_id":"ce4bhrh2rcd13ifvqhug","pricing_plan_id":"cebpf4jnsgd1na2vs0mg"},{"bike_id":"803c1b66-728a-435a-beca-1893ffcb222f","system_id":"levelo_inurba_marseille","lat":43.29047,"lon":5.35918,"is_reserved":false,"is_disabled":false,"rental_uris":{"android":"levelo://app?vid=803c1b66-728a-435a-beca-1893ffcb222f","ios":"levelo://app?vid=803c1b66-728a-435a-beca-1893ffcb222f"},"vehicle_type_id":"4","last_reported":1733245736,"current_range_meters":20800,"station_id":"ce4bha92rcd13ifvqeg0","pricing_plan_id":"cebpf4jnsgd1na2vs0mg"},{"bike_id":"302ce1df-994c-4294-90e0-6c4c05857211","system_id":"levelo_inurba_marseille","lat":43.24808,"lon":5.37459,"is_reserved":false,"is_disabled":false,"rental_uris":{"android":"levelo://app?vid=302ce1df-994c-4294-90e0-6c4c05857211","ios":"levelo://app?vid=302ce1df-994c-4294-90e0-6c4c05857211"},"vehicle_type_id":"4","last_reported":1733245736,"current_range_meters":38800,"station_id":"ce4bhgh2rcd13ifvqfb0","pricing_plan_id":"cebpf4jnsgd1na2vs0mg"},{"bike_id":"b2bc1728-46a3-400e-bd39-12c204f62d20","system_id":"levelo_inurba_marseille","lat":43.26942,"lon":5.40242,"is_reserved":false,"is_disabled":false,"rental_uris":{"android":"levelo://app?vid=b2bc1728-46a3-400e-bd39-12c204f62d20","ios":"levelo://app?vid=b2bc1728-46a3-400e-bd39-12c204f62d20"},"vehicle_type_id":"4","last_reported":1733245736,"current_range_meters":26000,"station_id":"cjm6bp8fraef2m0cb0m0","pricing_plan_id":"cebpf4jnsgd1na2vs0mg"},{"bike_id":"0fb51153-e333-4cf0-9413-a3ae27df6b16","system_id":"levelo_inurba_marseille","lat":43.27992,"lon":5.40027,"is_reserved":false,"is_disabled":false,"rental_uris":{"android":"levelo://app?vid=0fb51153-e333-4cf0-9413-a3ae27df6b16","ios":"levelo://app?vid=0fb51153-e333-4cf0-9413-a3ae27df6b16"},"vehicle_type_id":"4","last_reported":1733245736,"current_range_meters":24000,"station_id":"ce4bho92rcd13ifvqh4g","pricing_plan_id":"cebpf4jnsgd1na2vs0mg"},{"bike_id":"6fa73ae3-91e9-49d0-af4b-d9ca8591ccaf","system_id":"levelo_inurba_marseille","lat":43.33028,"lon":5.39039,"is_reserved":false,"is_disabled":false,"rental_uris":{"android":"levelo://app?vid=6fa73ae3-91e9-49d0-af4b-d9ca8591ccaf","ios":"levelo://app?vid=6fa73ae3-91e9-49d0-af4b-d9ca8591ccaf"},"vehicle_type_id":"4","last_reported":1733245736,"current_range_meters":22800,"station_id":"ce4bhr92rcd13ifvqhrg","pricing_plan_id":"cebpf4jnsgd1na2vs0mg"},{"bike_id":"7d275e9a-1bd4-4401-948a-bf8c39ad132d","system_id":"levelo_inurba_marseille","lat":43.31326,"lon":5.39691,"is_reserved":false,"is_disabled":false,"rental_uris":{"android":"levelo://app?vid=7d275e9a-1bd4-4401-948a-bf8c39ad132d","ios":"levelo://app?vid=7d275e9a-1bd4-4401-948a-bf8c39ad132d"},"vehicle_type_id":"4","last_reported":1733245736,"current_range_meters":14800,"station_id":"ce4bgvp2rcd13ifvqcu0","pricing_plan_id":"cebpf4jnsgd1na2vs0mg"},{"bike_id":"00c8e1d4-c10a-436d-ba01-e50bfe8def08","system_id":"levelo_inurba_marseille","lat":43.25587,"lon":5.38226,"is_reserved":false,"is_disabled":false,"rental_uris":{"android":"levelo://app?vid=00c8e1d4-c10a-436d-ba01-e50bfe8def08","ios":"levelo://app?vid=00c8e1d4-c10a-436d-ba01-e50bfe8def08"},"vehicle_type_id":"4","last_reported":1733245736,"current_range_meters":17200,"station_id":"ce4bhih2rcd13ifvqfs0","pricing_plan_id":"cebpf4jnsgd1na2vs0mg"},{"bike_id":"0112a8c7-aaf7-4044-b05d-a8dc345517a8","system_id":"levelo_inurba_marseille","lat":43.313303,"lon":5.397007,"is_reserved":false,"is_disabled":false,"rental_uris":{"android":"levelo://app?vid=0112a8c7-aaf7-4044-b05d-a8dc345517a8","ios":"levelo://app?vid=0112a8c7-aaf7-4044-b05d-a8dc345517a8"},"vehicle_type_id":"4","last_reported":1733245736,"current_range_meters":28000,"station_id":"ce4bgvp2rcd13ifvqcu0","pricing_plan_id":"cebpf4jnsgd1na2vs0mg"},{"bike_id":"803ae2dc-bb0e-4bdd-a79c-7df72396dc05","system_id":"levelo_inurba_marseille","lat":43.28007,"lon":5.40017,"is_reserved":false,"is_disabled":false,"rental_uris":{"android":"levelo://app?vid=803ae2dc-bb0e-4bdd-a79c-7df72396dc05","ios":"levelo://app?vid=803ae2dc-bb0e-4bdd-a79c-7df72396dc05"},"vehicle_type_id":"4","last_reported":1733245736,"current_range_meters":37600,"station_id":"ce4bho92rcd13ifvqh4g","pricing_plan_id":"cebpf4jnsgd1na2vs0mg"},{"bike_id":"e574a8cd-cb8b-4705-988d-a54eaa629839","system_id":"levelo_inurba_marseille","lat":43.32368,"lon":5.36744,"is_reserved":false,"is_disabled":false,"rental_uris":{"android":"levelo://app?vid=e574a8cd-cb8b-4705-988d-a54eaa629839","ios":"levelo://app?vid=e574a8cd-cb8b-4705-988d-a54eaa629839"},"vehicle_type_id":"4","last_reported":1733245736,"current_range_meters":38800,"station_id":"ce4bhsh2rcd13ifvqi2g","pricing_plan_id":"cebpf4jnsgd1na2vs0mg"},{"bike_id":"a111a6cd-4af3-4fd0-a2de-0037d38b47f9","system_id":"levelo_inurba_marseille","lat":43.29849,"lon":5.36263,"is_reserved":false,"is_disabled":false,"rental_uris":{"android":"levelo://app?vid=a111a6cd-4af3-4fd0-a2de-0037d38b47f9","ios":"levelo://app?vid=a111a6cd-4af3-4fd0-a2de-0037d38b47f9"},"vehicle_type_id":"4","last_reported":1733245736,"current_range_meters":20400,"station_id":"ce4bgpp2rcd13ifvqc3g","pricing_plan_id":"cebpf4jnsgd1na2vs0mg"},{"bike_id":"b5a03233-d31f-4598-84c4-07d6d6043f52","system_id":"levelo_inurba_marseille","lat":43.28181,"lon":5.42643,"is_reserved":false,"is_disabled":false,"rental_uris":{"android":"levelo://app?vid=b5a03233-d31f-4598-84c4-07d6d6043f52","ios":"levelo://app?vid=b5a03233-d31f-4598-84c4-07d6d6043f52"},"vehicle_type_id":"4","last_reported":1733245736,"current_range_meters":35600,"station_id":"ce4bhnh2rcd13ifvqgug","pricing_plan_id":"cebpf4jnsgd1na2vs0mg"},{"bike_id":"57e0f190-7f16-4931-934d-384b1700b76f","system_id":"levelo_inurba_marseille","lat":43.33097,"lon":5.36217,"is_reserved":false,"is_disabled":true,"rental_uris":{"android":"levelo://app?vid=57e0f190-7f16-4931-934d-384b1700b76f","ios":"levelo://app?vid=57e0f190-7f16-4931-934d-384b1700b76f"},"vehicle_type_id":"4","last_reported":1733245736,"current_range_meters":1600,"station_id":"","pricing_plan_id":"cebpf4jnsgd1na2vs0mg"},{"bike_id":"5e160b8e-5c83-4423-b051-bd2cf577003d","system_id":"levelo_inurba_marseille","lat":43.23196,"lon":5.3555,"is_reserved":false,"is_disabled":false,"rental_uris":{"android":"levelo://app?vid=5e160b8e-5c83-4423-b051-bd2cf577003d","ios":"levelo://app?vid=5e160b8e-5c83-4423-b051-bd2cf577003d"},"vehicle_type_id":"4","last_reported":1733245736,"current_range_meters":39200,"station_id":"ce4bhu92rcd13ifvqi70","pricing_plan_id":"cebpf4jnsgd1na2vs0mg"},{"bike_id":"89790328-14f8-4b3a-86d2-09c07c01657a","system_id":"levelo_inurba_marseille","lat":43.33023,"lon":5.39038,"is_reserved":false,"is_disabled":false,"rental_uris":{"android":"levelo://app?vid=89790328-14f8-4b3a-86d2-09c07c01657a","ios":"levelo://app?vid=89790328-14f8-4b3a-86d2-09c07c01657a"},"vehicle_type_id":"4","last_reported":1733245736,"current_range_meters":30400,"station_id":"ce4bhr92rcd13ifvqhrg","pricing_plan_id":"cebpf4jnsgd1na2vs0mg"},{"bike_id":"2474f47f-3502-4a86-9cdf-a92970d48289","system_id":"levelo_inurba_marseille","lat":43.32368,"lon":5.38886,"is_reserved":false,"is_disabled":false,"rental_uris":{"android":"levelo://app?vid=2474f47f-3502-4a86-9cdf-a92970d48289","ios":"levelo://app?vid=2474f47f-3502-4a86-9cdf-a92970d48289"},"vehicle_type_id":"4","last_reported":1733245736,"current_range_meters":36400,"station_id":"ce4bhqp2rcd13ifvqhog","pricing_plan_id":"cebpf4jnsgd1na2vs0mg"},{"bike_id":"0ecfd779-5539-47af-aacd-2f9643bc2006","system_id":"levelo_inurba_marseille","lat":43.30149,"lon":5.38084,"is_reserved":false,"is_disabled":false,"rental_uris":{"android":"levelo://app?vid=0ecfd779-5539-47af-aacd-2f9643bc2006","ios":"levelo://app?vid=0ecfd779-5539-47af-aacd-2f9643bc2006"},"vehicle_type_id":"4","last_reported":1733245736,"current_range_meters":28400,"station_id":"ce4bgjp2rcd13ifvqbh0","pricing_plan_id":"cebpf4jnsgd1na2vs0mg"},{"bike_id":"6b837b78-15a3-42a7-9c0a-b3fbbb7e9ded","system_id":"levelo_inurba_marseille","lat":43.30603,"lon":5.37223,"is_reserved":false,"is_disabled":false,"rental_uris":{"android":"levelo://app?vid=6b837b78-15a3-42a7-9c0a-b3fbbb7e9ded","ios":"levelo://app?vid=6b837b78-15a3-42a7-9c0a-b3fbbb7e9ded"},"vehicle_type_id":"4","last_reported":1733245736,"current_range_meters":38400,"station_id":"ce4bgqh2rcd13ifvqc4g","pricing_plan_id":"cebpf4jnsgd1na2vs0mg"},{"bike_id":"ce6a429f-4825-4c63-b948-e0dfdaaab389","system_id":"levelo_inurba_marseille","lat":43.29221,"lon":5.36052,"is_reserved":false,"is_disabled":true,"rental_uris":{"android":"levelo://app?vid=ce6a429f-4825-4c63-b948-e0dfdaaab389","ios":"levelo://app?vid=ce6a429f-4825-4c63-b948-e0dfdaaab389"},"vehicle_type_id":"4","last_reported":1733245736,"current_range_meters":38800,"station_id":"ce4bhbh2rcd13ifvqeqg","pricing_plan_id":"cebpf4jnsgd1na2vs0mg"},{"bike_id":"c495e5e2-88ff-4b0c-91bd-58cb09b6a123","system_id":"levelo_inurba_marseille","lat":43.29873,"lon":5.39743,"is_reserved":false,"is_disabled":false,"rental_uris":{"android":"levelo://app?vid=c495e5e2-88ff-4b0c-91bd-58cb09b6a123","ios":"levelo://app?vid=c495e5e2-88ff-4b0c-91bd-58cb09b6a123"},"vehicle_type_id":"4","last_reported":1733245736,"current_range_meters":27600,"station_id":"ce4bh0h2rcd13ifvqd50","pricing_plan_id":"cebpf4jnsgd1na2vs0mg"},{"bike_id":"2e0954be-082d-4186-8760-1c4c527ff493","system_id":"levelo_inurba_marseille","lat":43.28617,"lon":5.35104,"is_reserved":false,"is_disabled":false,"rental_uris":{"android":"levelo://app?vid=2e0954be-082d-4186-8760-1c4c527ff493","ios":"levelo://app?vid=2e0954be-082d-4186-8760-1c4c527ff493"},"vehicle_type_id":"4","last_reported":1733245736,"current_range_meters":10000,"station_id":"ce4bhch2rcd13ifvqeug","pricing_plan_id":"cebpf4jnsgd1na2vs0mg"},{"bike_id":"e63aa962-a242-44bd-8328-31cf6c0d9d3d","system_id":"levelo_inurba_marseille","lat":43.2931,"lon":5.37181,"is_reserved":false,"is_disabled":true,"rental_uris":{"android":"levelo://app?vid=e63aa962-a242-44bd-8328-31cf6c0d9d3d","ios":"levelo://app?vid=e63aa962-a242-44bd-8328-31cf6c0d9d3d"},"vehicle_type_id":"4","last_reported":1733245736,"current_range_meters":0,"station_id":"ce4bgh92rcd13ifvqb40","pricing_plan_id":"cebpf4jnsgd1na2vs0mg"},{"bike_id":"f8bcc820-9a1c-492a-9f26-6a6b26934b17","system_id":"levelo_inurba_marseille","lat":43.28608,"lon":5.3706,"is_reserved":false,"is_disabled":true,"rental_uris":{"android":"levelo://app?vid=f8bcc820-9a1c-492a-9f26-6a6b26934b17","ios":"levelo://app?vid=f8bcc820-9a1c-492a-9f26-6a6b26934b17"},"vehicle_type_id":"4","last_reported":1733245736,"current_range_meters":38400,"station_id":"ce4bht12rcd13ifvqi60","pricing_plan_id":"cebpf4jnsgd1na2vs0mg"},{"bike_id":"7fd5b630-8d34-424c-9bc1-1e113084471b","system_id":"levelo_inurba_marseille","lat":43.2396,"lon":5.36647,"is_reserved":false,"is_disabled":false,"rental_uris":{"android":"levelo://app?vid=7fd5b630-8d34-424c-9bc1-1e113084471b","ios":"levelo://app?vid=7fd5b630-8d34-424c-9bc1-1e113084471b"},"vehicle_type_id":"4","last_reported":1733245736,"current_range_meters":31200,"station_id":"ce4bhi12rcd13ifvqfp0","pricing_plan_id":"cebpf4jnsgd1na2vs0mg"},{"bike_id":"c1859f3c-cb81-4e1b-b452-7b0631cb67f2","system_id":"levelo_inurba_marseille","lat":43.26501,"lon":5.39563,"is_reserved":false,"is_disabled":false,"rental_uris":{"android":"levelo://app?vid=c1859f3c-cb81-4e1b-b452-7b0631cb67f2","ios":"levelo://app?vid=c1859f3c-cb81-4e1b-b452-7b0631cb67f2"},"vehicle_type_id":"4","last_reported":1733245736,"current_range_meters":30400,"station_id":"ce4bhi12rcd13ifvqfq0","pricing_plan_id":"cebpf4jnsgd1na2vs0mg"},{"bike_id":"3a9149f3-357c-4d0a-859b-18382ef024a5","system_id":"levelo_inurba_marseille","lat":43.32111,"lon":5.36774,"is_reserved":false,"is_disabled":false,"rental_uris":{"android":"levelo://app?vid=3a9149f3-357c-4d0a-859b-18382ef024a5","ios":"levelo://app?vid=3a9149f3-357c-4d0a-859b-18382ef024a5"},"vehicle_type_id":"4","last_reported":1733245736,"current_range_meters":31200,"station_id":"ce4bhrh2rcd13ifvqhug","pricing_plan_id":"cebpf4jnsgd1na2vs0mg"},{"bike_id":"0fd220bb-1f70-437d-aa0d-f718762b93c3","system_id":"levelo_inurba_marseille","lat":43.27947,"lon":5.41046,"is_reserved":false,"is_disabled":false,"rental_uris":{"android":"levelo://app?vid=0fd220bb-1f70-437d-aa0d-f718762b93c3","ios":"levelo://app?vid=0fd220bb-1f70-437d-aa0d-f718762b93c3"},"vehicle_type_id":"4","last_reported":1733245736,"current_range_meters":38800,"station_id":"ce4bhnp2rcd13ifvqh0g","pricing_plan_id":"cebpf4jnsgd1na2vs0mg"},{"bike_id":"9f6c887c-613f-4bbf-9147-87c1d70fa5da","system_id":"levelo_inurba_marseille","lat":43.308,"lon":5.38149,"is_reserved":false,"is_disabled":false,"rental_uris":{"android":"levelo://app?vid=9f6c887c-613f-4bbf-9147-87c1d70fa5da","ios":"levelo://app?vid=9f6c887c-613f-4bbf-9147-87c1d70fa5da"},"vehicle_type_id":"4","last_reported":1733245736,"current_range_meters":27600,"station_id":"ce4bgt12rcd13ifvqce0","pricing_plan_id":"cebpf4jnsgd1na2vs0mg"},{"bike_id":"e0dfdff1-ddb1-4b0f-9264-34dfe66d2cfe","system_id":"levelo_inurba_marseille","lat":43.28436,"lon":5.39185,"is_reserved":false,"is_disabled":false,"rental_uris":{"android":"levelo://app?vid=e0dfdff1-ddb1-4b0f-9264-34dfe66d2cfe","ios":"levelo://app?vid=e0dfdff1-ddb1-4b0f-9264-34dfe66d2cfe"},"vehicle_type_id":"4","last_reported":1733245736,"current_range_meters":14400,"station_id":"ce4bhoh2rcd13ifvqh5g","pricing_plan_id":"cebpf4jnsgd1na2vs0mg"},{"bike_id":"da6a7a1d-e653-4950-af8c-8137b06f7d40","system_id":"levelo_inurba_marseille","lat":43.3004,"lon":5.37551,"is_reserved":false,"is_disabled":true,"rental_uris":{"android":"levelo://app?vid=da6a7a1d-e653-4950-af8c-8137b06f7d40","ios":"levelo://app?vid=da6a7a1d-e653-4950-af8c-8137b06f7d40"},"vehicle_type_id":"4","last_reported":1733245736,"current_range_meters":0,"station_id":"","pricing_plan_id":"cebpf4jnsgd1na2vs0mg"},{"bike_id":"e5eb4f14-0983-406c-b54c-0f9683e22d42","system_id":"levelo_inurba_marseille","lat":43.28935,"lon":5.38405,"is_reserved":false,"is_disabled":false,"rental_uris":{"android":"levelo://app?vid=e5eb4f14-0983-406c-b54c-0f9683e22d42","ios":"levelo://app?vid=e5eb4f14-0983-406c-b54c-0f9683e22d42"},"vehicle_type_id":"4","last_reported":1733245736,"current_range_meters":17200,"station_id":"ce4bh612rcd13ifvqe6g","pricing_plan_id":"cebpf4jnsgd1na2vs0mg"},{"bike_id":"05bbc709-5b7b-48fc-95c3-5c72eecddc22","system_id":"levelo_inurba_marseille","lat":43.30211,"lon":5.39463,"is_reserved":false,"is_disabled":false,"rental_uris":{"android":"levelo://app?vid=05bbc709-5b7b-48fc-95c3-5c72eecddc22","ios":"levelo://app?vid=05bbc709-5b7b-48fc-95c3-5c72eecddc22"},"vehicle_type_id":"4","last_reported":1733245736,"current_range_meters":2800,"station_id":"ce4bh0p2rcd13ifvqd70","pricing_plan_id":"cebpf4jnsgd1na2vs0mg"},{"bike_id":"87779b40-d0ed-4337-9bf7-c9a883db3960","system_id":"levelo_inurba_marseille","lat":43.30414,"lon":5.4126,"is_reserved":false,"is_disabled":false,"rental_uris":{"android":"levelo://app?vid=87779b40-d0ed-4337-9bf7-c9a883db3960","ios":"levelo://app?vid=87779b40-d0ed-4337-9bf7-c9a883db3960"},"vehicle_type_id":"4","last_reported":1733245736,"current_range_meters":18800,"station_id":"ce4bhop2rcd13ifvqh8g","pricing_plan_id":"cebpf4jnsgd1na2vs0mg"},{"bike_id":"5fc903fd-8a8e-4aa1-951f-3c6c9940792e","system_id":"levelo_inurba_marseille","lat":43.29045,"lon":5.35918,"is_reserved":false,"is_disabled":false,"rental_uris":{"android":"levelo://app?vid=5fc903fd-8a8e-4aa1-951f-3c6c9940792e","ios":"levelo://app?vid=5fc903fd-8a8e-4aa1-951f-3c6c9940792e"},"vehicle_type_id":"4","last_reported":1733245736,"current_range_meters":6400,"station_id":"ce4bha92rcd13ifvqeg0","pricing_plan_id":"cebpf4jnsgd1na2vs0mg"},{"bike_id":"21ee5e22-81dd-4e52-9e8f-d2c512aad4a9","system_id":"levelo_inurba_marseille","lat":43.27994,"lon":5.38731,"is_reserved":false,"is_disabled":false,"rental_uris":{"android":"levelo://app?vid=21ee5e22-81dd-4e52-9e8f-d2c512aad4a9","ios":"levelo://app?vid=21ee5e22-81dd-4e52-9e8f-d2c512aad4a9"},"vehicle_type_id":"4","last_reported":1733245736,"current_range_meters":34800,"station_id":"ce4bhg12rcd13ifvqf80","pricing_plan_id":"cebpf4jnsgd1na2vs0mg"},{"bike_id":"70c61673-8159-49b2-b6ed-4b8c3dd127e4","system_id":"levelo_inurba_marseille","lat":43.25085,"lon":5.39518,"is_reserved":false,"is_disabled":false,"rental_uris":{"android":"levelo://app?vid=70c61673-8159-49b2-b6ed-4b8c3dd127e4","ios":"levelo://app?vid=70c61673-8159-49b2-b6ed-4b8c3dd127e4"},"vehicle_type_id":"4","last_reported":1733245736,"current_range_meters":39200,"station_id":"ce4bhm12rcd13ifvqgkg","pricing_plan_id":"cebpf4jnsgd1na2vs0mg"},{"bike_id":"69c7e5b8-2331-4bc8-b7db-83a6cbe8dd93","system_id":"levelo_inurba_marseille","lat":43.30526,"lon":5.36707,"is_reserved":false,"is_disabled":true,"rental_uris":{"android":"levelo://app?vid=69c7e5b8-2331-4bc8-b7db-83a6cbe8dd93","ios":"levelo://app?vid=69c7e5b8-2331-4bc8-b7db-83a6cbe8dd93"},"vehicle_type_id":"4","last_reported":1733245736,"current_range_meters":1600,"station_id":"ce4bgrp2rcd13ifvqc9g","pricing_plan_id":"cebpf4jnsgd1na2vs0mg"},{"bike_id":"7b5e0666-04cb-486a-8fff-6a359d6a278e","system_id":"levelo_inurba_marseille","lat":43.26802,"lon":5.40263,"is_reserved":false,"is_disabled":false,"rental_uris":{"android":"levelo://app?vid=7b5e0666-04cb-486a-8fff-6a359d6a278e","ios":"levelo://app?vid=7b5e0666-04cb-486a-8fff-6a359d6a278e"},"vehicle_type_id":"4","last_reported":1733245736,"current_range_meters":8000,"station_id":"ce501612rcd8frsf0b60","pricing_plan_id":"cebpf4jnsgd1na2vs0mg"},{"bike_id":"fe594fc4-83b4-4bec-8445-9ed4df0cad70","system_id":"levelo_inurba_marseille","lat":43.27173,"lon":5.40995,"is_reserved":false,"is_disabled":false,"rental_uris":{"android":"levelo://app?vid=fe594fc4-83b4-4bec-8445-9ed4df0cad70","ios":"levelo://app?vid=fe594fc4-83b4-4bec-8445-9ed4df0cad70"},"vehicle_type_id":"4","last_reported":1733245736,"current_range_meters":36400,"station_id":"ce4bhl12rcd13ifvqgf0","pricing_plan_id":"cebpf4jnsgd1na2vs0mg"},{"bike_id":"d9594733-6e50-4ddc-8ecb-4d3854d84bf6","system_id":"levelo_inurba_marseille","lat":43.26212,"lon":5.37436,"is_reserved":false,"is_disabled":false,"rental_uris":{"android":"levelo://app?vid=d9594733-6e50-4ddc-8ecb-4d3854d84bf6","ios":"levelo://app?vid=d9594733-6e50-4ddc-8ecb-4d3854d84bf6"},"vehicle_type_id":"4","last_reported":1733245736,"current_range_meters":37600,"station_id":"ce4bhgp2rcd13ifvqfc0","pricing_plan_id":"cebpf4jnsgd1na2vs0mg"},{"bike_id":"d9600396-5d38-4428-bbf6-dcf2c609d4d4","system_id":"levelo_inurba_marseille","lat":43.23959,"lon":5.36636,"is_reserved":false,"is_disabled":false,"rental_uris":{"android":"levelo://app?vid=d9600396-5d38-4428-bbf6-dcf2c609d4d4","ios":"levelo://app?vid=d9600396-5d38-4428-bbf6-dcf2c609d4d4"},"vehicle_type_id":"4","last_reported":1733245736,"current_range_meters":38800,"station_id":"ce4bhi12rcd13ifvqfp0","pricing_plan_id":"cebpf4jnsgd1na2vs0mg"},{"bike_id":"1cb864db-d8f9-4113-b9d4-c9bedba3665a","system_id":"levelo_inurba_marseille","lat":43.29085,"lon":5.3813,"is_reserved":false,"is_disabled":false,"rental_uris":{"android":"levelo://app?vid=1cb864db-d8f9-4113-b9d4-c9bedba3665a","ios":"levelo://app?vid=1cb864db-d8f9-4113-b9d4-c9bedba3665a"},"vehicle_type_id":"4","last_reported":1733245736,"current_range_meters":8800,"station_id":"ce4bh512rcd13ifvqe2g","pricing_plan_id":"cebpf4jnsgd1na2vs0mg"},{"bike_id":"8258908c-2685-4346-a02e-eb0907e71275","system_id":"levelo_inurba_marseille","lat":43.28697,"lon":5.37389,"is_reserved":false,"is_disabled":false,"rental_uris":{"android":"levelo://app?vid=8258908c-2685-4346-a02e-eb0907e71275","ios":"levelo://app?vid=8258908c-2685-4346-a02e-eb0907e71275"},"vehicle_type_id":"4","last_reported":1733245736,"current_range_meters":12400,"station_id":"ce4bh3p2rcd13ifvqdq0","pricing_plan_id":"cebpf4jnsgd1na2vs0mg"},{"bike_id":"afee990f-b1ca-4562-adf0-5c85af5d126c","system_id":"levelo_inurba_marseille","lat":43.26038,"lon":5.37546,"is_reserved":false,"is_disabled":false,"rental_uris":{"android":"levelo://app?vid=afee990f-b1ca-4562-adf0-5c85af5d126c","ios":"levelo://app?vid=afee990f-b1ca-4562-adf0-5c85af5d126c"},"vehicle_type_id":"4","last_reported":1733245736,"current_range_meters":33600,"station_id":"ce4bhgh2rcd13ifvqfa0","pricing_plan_id":"cebpf4jnsgd1na2vs0mg"},{"bike_id":"276ed0b6-8548-438f-856e-1dfa5d9a1316","system_id":"levelo_inurba_marseille","lat":43.27959,"lon":5.41044,"is_reserved":false,"is_disabled":true,"rental_uris":{"android":"levelo://app?vid=276ed0b6-8548-438f-856e-1dfa5d9a1316","ios":"levelo://app?vid=276ed0b6-8548-438f-856e-1dfa5d9a1316"},"vehicle_type_id":"4","last_reported":1733245736,"current_range_meters":28000,"station_id":"ce4bhnp2rcd13ifvqh0g","pricing_plan_id":"cebpf4jnsgd1na2vs0mg"},{"bike_id":"a95689b9-33aa-4999-bcfa-e51f7b387b2a","system_id":"levelo_inurba_marseille","lat":43.27973,"lon":5.38736,"is_reserved":false,"is_disabled":true,"rental_uris":{"android":"levelo://app?vid=a95689b9-33aa-4999-bcfa-e51f7b387b2a","ios":"levelo://app?vid=a95689b9-33aa-4999-bcfa-e51f7b387b2a"},"vehicle_type_id":"4","last_reported":1733245736,"current_range_meters":0,"station_id":"ce4bhg12rcd13ifvqf80","pricing_plan_id":"cebpf4jnsgd1na2vs0mg"},{"bike_id":"b43434f1-0384-47e2-a0e4-728743fddc70","system_id":"levelo_inurba_marseille","lat":43.29437,"lon":5.39755,"is_reserved":false,"is_disabled":false,"rental_uris":{"android":"levelo://app?vid=b43434f1-0384-47e2-a0e4-728743fddc70","ios":"levelo://app?vid=b43434f1-0384-47e2-a0e4-728743fddc70"},"vehicle_type_id":"4","last_reported":1733245736,"current_range_meters":7200,"station_id":"ce4bh3h2rcd13ifvqdo0","pricing_plan_id":"cebpf4jnsgd1na2vs0mg"},{"bike_id":"2279ad30-6106-47cf-8014-d015ae4baa95","system_id":"levelo_inurba_marseille","lat":43.28697,"lon":5.3739,"is_reserved":false,"is_disabled":false,"rental_uris":{"android":"levelo://app?vid=2279ad30-6106-47cf-8014-d015ae4baa95","ios":"levelo://app?vid=2279ad30-6106-47cf-8014-d015ae4baa95"},"vehicle_type_id":"4","last_reported":1733245736,"current_range_meters":38800,"station_id":"ce4bh3p2rcd13ifvqdq0","pricing_plan_id":"cebpf4jnsgd1na2vs0mg"},{"bike_id":"5b7638bd-c2dc-46d8-9fd1-814abb0c1b6a","system_id":"levelo_inurba_marseille","lat":43.2804,"lon":5.36942,"is_reserved":false,"is_disabled":false,"rental_uris":{"android":"levelo://app?vid=5b7638bd-c2dc-46d8-9fd1-814abb0c1b6a","ios":"levelo://app?vid=5b7638bd-c2dc-46d8-9fd1-814abb0c1b6a"},"vehicle_type_id":"4","last_reported":1733245736,"current_range_meters":38800,"station_id":"ce4bha12rcd13ifvqef0","pricing_plan_id":"cebpf4jnsgd1na2vs0mg"},{"bike_id":"be8cd377-bf58-414c-876c-45495911bc5b","system_id":"levelo_inurba_marseille","lat":43.28676,"lon":5.4109,"is_reserved":false,"is_disabled":true,"rental_uris":{"android":"levelo://app?vid=be8cd377-bf58-414c-876c-45495911bc5b","ios":"levelo://app?vid=be8cd377-bf58-414c-876c-45495911bc5b"},"vehicle_type_id":"4","last_reported":1733245736,"current_range_meters":13600,"station_id":"","pricing_plan_id":"cebpf4jnsgd1na2vs0mg"},{"bike_id":"19de276f-c4be-48d8-b95c-0a0da1e6d8f3","system_id":"levelo_inurba_marseille","lat":43.28034,"lon":5.36938,"is_reserved":false,"is_disabled":false,"rental_uris":{"android":"levelo://app?vid=19de276f-c4be-48d8-b95c-0a0da1e6d8f3","ios":"levelo://app?vid=19de276f-c4be-48d8-b95c-0a0da1e6d8f3"},"vehicle_type_id":"4","last_reported":1733245736,"current_range_meters":5600,"station_id":"ce4bha12rcd13ifvqef0","pricing_plan_id":"cebpf4jnsgd1na2vs0mg"},{"bike_id":"aa401b72-f2ac-45f9-b9a3-8c2e40f4e27e","system_id":"levelo_inurba_marseille","lat":43.30413,"lon":5.41287,"is_reserved":false,"is_disabled":false,"rental_uris":{"android":"levelo://app?vid=aa401b72-f2ac-45f9-b9a3-8c2e40f4e27e","ios":"levelo://app?vid=aa401b72-f2ac-45f9-b9a3-8c2e40f4e27e"},"vehicle_type_id":"4","last_reported":1733245736,"current_range_meters":38800,"station_id":"ce4bhop2rcd13ifvqh8g","pricing_plan_id":"cebpf4jnsgd1na2vs0mg"},{"bike_id":"6abdb72f-e1e4-409a-b169-ec86230eeb68","system_id":"levelo_inurba_marseille","lat":43.26808,"lon":5.40273,"is_reserved":false,"is_disabled":false,"rental_uris":{"android":"levelo://app?vid=6abdb72f-e1e4-409a-b169-ec86230eeb68","ios":"levelo://app?vid=6abdb72f-e1e4-409a-b169-ec86230eeb68"},"vehicle_type_id":"4","last_reported":1733245736,"current_range_meters":22000,"station_id":"ce501612rcd8frsf0b60","pricing_plan_id":"cebpf4jnsgd1na2vs0mg"},{"bike_id":"ab74d258-8d56-4ed9-9cb7-57ae1639ee73","system_id":"levelo_inurba_marseille","lat":43.26311,"lon":5.40136,"is_reserved":false,"is_disabled":true,"rental_uris":{"android":"levelo://app?vid=ab74d258-8d56-4ed9-9cb7-57ae1639ee73","ios":"levelo://app?vid=ab74d258-8d56-4ed9-9cb7-57ae1639ee73"},"vehicle_type_id":"4","last_reported":1733245736,"current_range_meters":0,"station_id":"","pricing_plan_id":"cebpf4jnsgd1na2vs0mg"},{"bike_id":"54be51a8-4b07-403b-be49-edc139dcb4a5","system_id":"levelo_inurba_marseille","lat":43.27823,"lon":5.40717,"is_reserved":false,"is_disabled":false,"rental_uris":{"android":"levelo://app?vid=54be51a8-4b07-403b-be49-edc139dcb4a5","ios":"levelo://app?vid=54be51a8-4b07-403b-be49-edc139dcb4a5"},"vehicle_type_id":"4","last_reported":1733245736,"current_range_meters":3600,"station_id":"ce4bhnh2rcd13ifvqgtg","pricing_plan_id":"cebpf4jnsgd1na2vs0mg"},{"bike_id":"678d3da3-c493-479e-b6fa-dd475cefb7d7","system_id":"levelo_inurba_marseille","lat":43.30207,"lon":5.39472,"is_reserved":false,"is_disabled":false,"rental_uris":{"android":"levelo://app?vid=678d3da3-c493-479e-b6fa-dd475cefb7d7","ios":"levelo://app?vid=678d3da3-c493-479e-b6fa-dd475cefb7d7"},"vehicle_type_id":"4","last_reported":1733245736,"current_range_meters":10800,"station_id":"ce4bh0p2rcd13ifvqd70","pricing_plan_id":"cebpf4jnsgd1na2vs0mg"},{"bike_id":"2305b7c6-e4e6-45a4-a263-52618fda5e7a","system_id":"levelo_inurba_marseille","lat":43.26555,"lon":5.37289,"is_reserved":false,"is_disabled":false,"rental_uris":{"android":"levelo://app?vid=2305b7c6-e4e6-45a4-a263-52618fda5e7a","ios":"levelo://app?vid=2305b7c6-e4e6-45a4-a263-52618fda5e7a"},"vehicle_type_id":"4","last_reported":1733245736,"current_range_meters":38800,"station_id":"ce4bhg12rcd13ifvqf70","pricing_plan_id":"cebpf4jnsgd1na2vs0mg"},{"bike_id":"5d2edc5c-2847-4617-af2f-8af2de584b15","system_id":"levelo_inurba_marseille","lat":43.2797,"lon":5.38734,"is_reserved":false,"is_disabled":false,"rental_uris":{"android":"levelo://app?vid=5d2edc5c-2847-4617-af2f-8af2de584b15","ios":"levelo://app?vid=5d2edc5c-2847-4617-af2f-8af2de584b15"},"vehicle_type_id":"4","last_reported":1733245736,"current_range_meters":20400,"station_id":"ce4bhg12rcd13ifvqf80","pricing_plan_id":"cebpf4jnsgd1na2vs0mg"},{"bike_id":"ab159c63-e3a2-475a-a3b4-3d258017e95d","system_id":"levelo_inurba_marseille","lat":43.27996,"lon":5.40012,"is_reserved":false,"is_disabled":false,"rental_uris":{"android":"levelo://app?vid=ab159c63-e3a2-475a-a3b4-3d258017e95d","ios":"levelo://app?vid=ab159c63-e3a2-475a-a3b4-3d258017e95d"},