{"last_updated":1751894785,"ttl":60,"version":"2.2","data":{"bikes":[{"bike_id":"3da29fb8-fc97-44c6-b9ac-31dd456b2fd4","system_id":"levelo_inurba_marseille","lat":43.33771,"lon":5.37424,"is_reserved":false,"is_disabled":true,"rental_uris":{"android":"levelo://app?vid=3da29fb8-fc97-44c6-b9ac-31dd456b2fd4","ios":"levelo://app?vid=3da29fb8-fc97-44c6-b9ac-31dd456b2fd4"},"vehicle_type_id":"4","last_reported":1751894786,"current_range_meters":0,"station_id":"","pricing_plan_id":"cebpf4jnsgd1na2vs0mg"},{"bike_id":"01861ad8-a8d7-4be6-816e-651927c87584","system_id":"levelo_inurba_marseille","lat":43.33751,"lon":5.37456,"is_reserved":false,"is_disabled":true,"rental_uris":{"android":"levelo://app?vid=01861ad8-a8d7-4be6-816e-651927c87584","ios":"levelo://app?vid=01861ad8-a8d7-4be6-816e-651927c87584"},"vehicle_type_id":"4","last_reported":1751894786,"current_range_meters":0,"station_id":"","pricing_plan_id":"cebpf4jnsgd1na2vs0mg"},{"bike_id":"95c194a9-5cae-4867-bc56-f8781828dc70","system_id":"levelo_inurba_marseille","lat":43.337444,"lon":5.374475,"is_reserved":false,"is_disabled":true,"rental_uris":{"android":"levelo://app?vid=95c194a9-5cae-4867-bc56-f8781828dc70","ios":"levelo://app?vid=95c194a9-5cae-4867-bc56-f8781828dc70"},"vehicle_type_id":"4","last_reported":1751894786,"current_range_meters":0,"station_id":"","pricing_plan_id":"cebpf4jnsgd1na2vs0mg"},{"bike_id":"573a928a-27e4-4c41-92dd-ed057948734b","system_id":"levelo_inurba_marseille","lat":43.31927,"lon":5.37383,"is_reserved":false,"is_disabled":true,"rental_uris":{"android":"levelo://app?vid=573a928a-27e4-4c41-92dd-ed057948734b","ios":"levelo://app?vid=573a928a-27e4-4c41-92dd-ed057948734b"},"vehicle_type_id":"4","last_reported":1751894786,"current_range_meters":0,"station_id":"","pricing_plan_id":"cebpf4jnsgd1na2vs0mg"},{"bike_id":"318b73ce-fb81-4f93-8d0a-043102cd8f2d","system_id":"levelo_inurba_marseille","lat":43.31137,"lon":5.36958,"is_reserved":false,"is_disabled":true,"rental_uris":{"android":"levelo://app?vid=318b73ce-fb81-4f93-8d0a-043102cd8f2d","ios":"levelo://app?vid=318b73ce-fb81-4f93-8d0a-043102cd8f2d"},"vehicle_type_id":"4","last_reported":1751894786,"current_range_meters":0,"station_id":"","pricing_plan_id":"cebpf4jnsgd1na2vs0mg"},{"bike_id":"b4fad069-4146-4f1d-82cc-40dad4b202fc","system_id":"levelo_inurba_marseille","lat":43.310694,"lon":5.383416,"is_reserved":false,"is_disabled":true,"rental_uris":{"android":"levelo://app?vid=b4fad069-4146-4f1d-82cc-40dad4b202fc","ios":"levelo://app?vid=b4fad069-4146-4f1d-82cc-40dad4b202fc"},"vehicle_type_id":"4","last_reported":1751894786,"current_range_meters":0,"station_id":"ce4bgv92rcd13ifvqcr0","pricing_plan_id":"cebpf4jnsgd1na2vs0mg"},{"bike_id":"53085646-39a6-48e2-b016-58ac2a5e69bc","system_id":"levelo_inurba_marseille","lat":43.2923,"lon":5.360684,"is_reserved":false,"is_disabled":true,"rental_uris":{"android":"levelo://app?vid=53085646-39a6-48e2-b016-58ac2a5e69bc","ios":"levelo://app?vid=53085646-39a6-48e2-b016-58ac2a5e69bc"},"vehicle_type_id":"4","last_reported":1751894786,"current_range_meters":0,"station_id":"ce4bhbh2rcd13ifvqeqg","pricing_plan_id":"cebpf4jnsgd1na2vs0mg"},{"bike_id":"be2f398d-d87d-4ba4-b99e-8c5c6fb2b83e","system_id":"levelo_inurba_marseille","lat":43.28269,"lon":5.35073,"is_reserved":false,"is_disabled":true,"rental_uris":{"android":"levelo://app?vid=be2f398d-d87d-4ba4-b99e-8c5c6fb2b83e","ios":"levelo://app?vid=be2f398d-d87d-4ba4-b99e-8c5c6fb2b83e"},"vehicle_type_id":"4","last_reported":1751894786,"current_range_meters":0,"station_id":"ce4bhbp2rcd13ifvqerg","pricing_plan_id":"cebpf4jnsgd1na2vs0mg"},{"bike_id":"1117f736-30c6-4e17-b0b2-aedbc3053d86","system_id":"levelo_inurba_marseille","lat":43.28265,"lon":5.35061,"is_reserved":false,"is_disabled":true,"rental_uris":{"android":"levelo://app?vid=1117f736-30c6-4e17-b0b2-aedbc3053d86","ios":"levelo://app?vid=1117f736-30c6-4e17-b0b2-aedbc3053d86"},"vehicle_type_id":"4","last_reported":1751894786,"current_range_meters":0,"station_id":"ce4bhbp2rcd13ifvqerg","pricing_plan_id":"cebpf4jnsgd1na2vs0mg"},{"bike_id":"7b93b637-73ba-4ab4-ae2e-274d3d43ed06","system_id":"levelo_inurba_marseille","lat":43.292725,"lon":5.368433,"is_reserved":false,"is_disabled":true,"rental_uris":{"android":"levelo://app?vid=7b93b637-73ba-4ab4-ae2e-274d3d43ed06","ios":"levelo://app?vid=7b93b637-73ba-4ab4-ae2e-274d3d43ed06"},"vehicle_type_id":"4","last_reported":1751894786,"current_range_meters":0,"station_id":"ce4bhbp2rcd13ifvqesg","pricing_plan_id":"cebpf4jnsgd1na2vs0mg"},{"bike_id":"2a9bf48a-8979-4bba-9954-b345fa991b14","system_id":"levelo_inurba_marseille","lat":43.26221,"lon":5.37442,"is_reserved":false,"is_disabled":true,"rental_uris":{"android":"levelo://app?vid=2a9bf48a-8979-4bba-9954-b345fa991b14","ios":"levelo://app?vid=2a9bf48a-8979-4bba-9954-b345fa991b14"},"vehicle_type_id":"4","last_reported":1751894786,"current_range_meters":0,"station_id":"ce4bhgp2rcd13ifvqfc0","pricing_plan_id":"cebpf4jnsgd1na2vs0mg"},{"bike_id":"fc11f1e3-fd7d-492a-8c42-2fb8faf16c6a","system_id":"levelo_inurba_marseille","lat":43.30373,"lon":5.42496,"is_reserved":false,"is_disabled":true,"rental_uris":{"android":"levelo://app?vid=fc11f1e3-fd7d-492a-8c42-2fb8faf16c6a","ios":"levelo://app?vid=fc11f1e3-fd7d-492a-8c42-2fb8faf16c6a"},"vehicle_type_id":"4","last_reported":1751894786,"current_range_meters":0,"station_id":"ce4bhoh2rcd13ifvqh6g","pricing_plan_id":"cebpf4jnsgd1na2vs0mg"},{"bike_id":"b4b7eb6f-5d24-4d35-87d8-f90bab30d04c","system_id":"levelo_inurba_marseille","lat":43.323007,"lon":5.382823,"is_reserved":false,"is_disabled":true,"rental_uris":{"android":"levelo://app?vid=b4b7eb6f-5d24-4d35-87d8-f90bab30d04c","ios":"levelo://app?vid=b4b7eb6f-5d24-4d35-87d8-f90bab30d04c"},"vehicle_type_id":"4","last_reported":1751894786,"current_range_meters":0,"station_id":"ce4bhr12rcd13ifvqhqg","pricing_plan_id":"cebpf4jnsgd1na2vs0mg"},{"bike_id":"3d508917-55ee-42b6-894b-89c2a444dc06","system_id":"levelo_inurba_marseille","lat":43.22526,"lon":5.3478,"is_reserved":false,"is_disabled":true,"rental_uris":{"android":"levelo://app?vid=3d508917-55ee-42b6-894b-89c2a444dc06","ios":"levelo://app?vid=3d508917-55ee-42b6-894b-89c2a444dc06"},"vehicle_type_id":"4","last_reported":1751894786,"current_range_meters":0,"station_id":"st_cvj5dfep6f1abm77gieg","pricing_plan_id":"cebpf4jnsgd1na2vs0mg"},{"bike_id":"e86ba8c9-208d-482c-a826-4c100938472a","system_id":"levelo_inurba_marseille","lat":43.21188,"lon":5.35075,"is_reserved":false,"is_disabled":true,"rental_uris":{"android":"levelo://app?vid=e86ba8c9-208d-482c-a826-4c100938472a","ios":"levelo://app?vid=e86ba8c9-208d-482c-a826-4c100938472a"},"vehicle_type_id":"4","last_reported":1751894786,"current_range_meters":0,"station_id":"st_cvj6sg6p6f1abm77japg","pricing_plan_id":"cebpf4jnsgd1na2vs0mg"},{"bike_id":"f0a19a9e-f150-4c1e-bcc6-db3195370cac","system_id":"levelo_inurba_marseille","lat":43.32693,"lon":5.43127,"is_reserved":false,"is_disabled":true,"rental_uris":{"android":"levelo://app?vid=f0a19a9e-f150-4c1e-bcc6-db3195370cac","ios":"levelo://app?vid=f0a19a9e-f150-4c1e-bcc6-db3195370cac"},"vehicle_type_id":"4","last_reported":1751894786,"current_range_meters":1200,"station_id":"","pricing_plan_id":"cebpf4jnsgd1na2vs0mg"},{"bike_id":"c5819e96-3c2d-41f7-bdfa-67aa96c801cb","system_id":"levelo_inurba_marseille","lat":43.3249,"lon":5.36573,"is_reserved":false,"is_disabled":true,"rental_uris":{"android":"levelo://app?vid=c5819e96-3c2d-41f7-bdfa-67aa96c801cb","ios":"levelo://app?vid=c5819e96-3c2d-41f7-bdfa-67aa96c801cb"},"vehicle_type_id":"4","last_reported":1751894786,"current_range_meters":1200,"station_id":"ce4bhs12rcd13ifvqhvg","pricing_plan_id":"cebpf4jnsgd1na2vs0mg"},{"bike_id":"51f3a102-a5ce-4f9a-aa81-ba0d212da8eb","system_id":"levelo_inurba_marseille","lat":43.26581,"lon":5.390317,"is_reserved":false,"is_disabled":true,"rental_uris":{"android":"levelo://app?vid=51f3a102-a5ce-4f9a-aa81-ba0d212da8eb","ios":"levelo://app?vid=51f3a102-a5ce-4f9a-aa81-ba0d212da8eb"},"vehicle_type_id":"4","last_reported":1751894786,"current_range_meters":2000,"station_id":"ce4bhe12rcd13ifvqf30","pricing_plan_id":"cebpf4jnsgd1na2vs0mg"},{"bike_id":"e00f470a-cb45-4a32-ba53-631b28224a94","system_id":"levelo_inurba_marseille","lat":43.27062,"lon":5.40257,"is_reserved":false,"is_disabled":true,"rental_uris":{"android":"levelo://app?vid=e00f470a-cb45-4a32-ba53-631b28224a94","ios":"levelo://app?vid=e00f470a-cb45-4a32-ba53-631b28224a94"},"vehicle_type_id":"4","last_reported":1751894786,"current_range_meters":2000,"station_id":"ce4bhk92rcd13ifvqgc0","pricing_plan_id":"cebpf4jnsgd1na2vs0mg"},{"bike_id":"d1b57efa-9072-4bf9-af7d-4e264d31470d","system_id":"levelo_inurba_marseille","lat":43.28621,"lon":5.35108,"is_reserved":false,"is_disabled":false,"rental_uris":{"android":"levelo://app?vid=d1b57efa-9072-4bf9-af7d-4e264d31470d","ios":"levelo://app?vid=d1b57efa-9072-4bf9-af7d-4e264d31470d"},"vehicle_type_id":"4","last_reported":1751894786,"current_range_meters":2800,"station_id":"ce4bhch2rcd13ifvqeug","pricing_plan_id":"cebpf4jnsgd1na2vs0mg"},{"bike_id":"89c081bb-29c1-49ec-851a-ee35c7cbdcc8","system_id":"levelo_inurba_marseille","lat":43.28415,"lon":5.34983,"is_reserved":false,"is_disabled":false,"rental_uris":{"android":"levelo://app?vid=89c081bb-29c1-49ec-851a-ee35c7cbdcc8","ios":"levelo://app?vid=89c081bb-29c1-49ec-851a-ee35c7cbdcc8"},"vehicle_type_id":"4","last_reported":1751894786,"current_range_meters":3200,"station_id":"ce4bhbh2rcd13ifvqepg","pricing_plan_id":"cebpf4jnsgd1na2vs0mg"},{"bike_id":"e87bc10d-d2a9-47f2-a20b-3398ed7d37d3","system_id":"levelo_inurba_marseille","lat":43.31476,"lon":5.37301,"is_reserved":false,"is_disabled":false,"rental_uris":{"android":"levelo://app?vid=e87bc10d-d2a9-47f2-a20b-3398ed7d37d3","ios":"levelo://app?vid=e87bc10d-d2a9-47f2-a20b-3398ed7d37d3"},"vehicle_type_id":"4","last_reported":1751894786,"current_range_meters":3600,"station_id":"ce4bgt12rcd13ifvqcd0","pricing_plan_id":"cebpf4jnsgd1na2vs0mg"},{"bike_id":"22e3a755-84bb-47ab-933e-a82906c39430","system_id":"levelo_inurba_marseille","lat":43.28265,"lon":5.35069,"is_reserved":false,"is_disabled":false,"rental_uris":{"android":"levelo://app?vid=22e3a755-84bb-47ab-933e-a82906c39430","ios":"levelo://app?vid=22e3a755-84bb-47ab-933e-a82906c39430"},"vehicle_type_id":"4","last_reported":1751894786,"current_range_meters":3600,"station_id":"ce4bhbp2rcd13ifvqerg","pricing_plan_id":"cebpf4jnsgd1na2vs0mg"},{"bike_id":"8eb283fe-44c7-4bb1-836e-cde6c55f1adf","system_id":"levelo_inurba_marseille","lat":43.31803,"lon":5.36849,"is_reserved":false,"is_disabled":false,"rental_uris":{"android":"levelo://app?vid=8eb283fe-44c7-4bb1-836e-cde6c55f1adf","ios":"levelo://app?vid=8eb283fe-44c7-4bb1-836e-cde6c55f1adf"},"vehicle_type_id":"4","last_reported":1751894786,"current_range_meters":4000,"station_id":"","pricing_plan_id":"cebpf4jnsgd1na2vs0mg"},{"bike_id":"9199a077-e89a-4269-a856-141a07a5f3f1","system_id":"levelo_inurba_marseille","lat":43.30098,"lon":5.39072,"is_reserved":false,"is_disabled":false,"rental_uris":{"android":"levelo://app?vid=9199a077-e89a-4269-a856-141a07a5f3f1","ios":"levelo://app?vid=9199a077-e89a-4269-a856-141a07a5f3f1"},"vehicle_type_id":"4","last_reported":1751894786,"current_range_meters":4000,"station_id":"ce4bh192rcd13ifvqdb0","pricing_plan_id":"cebpf4jnsgd1na2vs0mg"},{"bike_id":"84d753ee-d94b-4c43-8840-10deae1e79b2","system_id":"levelo_inurba_marseille","lat":43.29046,"lon":5.35914,"is_reserved":false,"is_disabled":false,"rental_uris":{"android":"levelo://app?vid=84d753ee-d94b-4c43-8840-10deae1e79b2","ios":"levelo://app?vid=84d753ee-d94b-4c43-8840-10deae1e79b2"},"vehicle_type_id":"4","last_reported":1751894786,"current_range_meters":4800,"station_id":"ce4bha92rcd13ifvqeg0","pricing_plan_id":"cebpf4jnsgd1na2vs0mg"},{"bike_id":"d84cba3f-cbec-44b0-b3ac-3b83b8721d73","system_id":"levelo_inurba_marseille","lat":43.27213,"lon":5.39183,"is_reserved":false,"is_disabled":false,"rental_uris":{"android":"levelo://app?vid=d84cba3f-cbec-44b0-b3ac-3b83b8721d73","ios":"levelo://app?vid=d84cba3f-cbec-44b0-b3ac-3b83b8721d73"},"vehicle_type_id":"4","last_reported":1751894786,"current_range_meters":4800,"station_id":"ce4bhhp2rcd13ifvqfm0","pricing_plan_id":"cebpf4jnsgd1na2vs0mg"},{"bike_id":"7ce60477-c2f5-4db5-b96b-fe7722bc1d64","system_id":"levelo_inurba_marseille","lat":43.270715,"lon":5.422784,"is_reserved":false,"is_disabled":false,"rental_uris":{"android":"levelo://app?vid=7ce60477-c2f5-4db5-b96b-fe7722bc1d64","ios":"levelo://app?vid=7ce60477-c2f5-4db5-b96b-fe7722bc1d64"},"vehicle_type_id":"4","last_reported":1751894786,"current_range_meters":4800,"station_id":"ce4bhk92rcd13ifvqgb0","pricing_plan_id":"cebpf4jnsgd1na2vs0mg"},{"bike_id":"86c92dc1-b4da-49d9-acb8-ba390f939865","system_id":"levelo_inurba_marseille","lat":43.33047,"lon":5.39214,"is_reserved":false,"is_disabled":false,"rental_uris":{"android":"levelo://app?vid=86c92dc1-b4da-49d9-acb8-ba390f939865","ios":"levelo://app?vid=86c92dc1-b4da-49d9-acb8-ba390f939865"},"vehicle_type_id":"4","last_reported":1751894786,"current_range_meters":6000,"station_id":"","pricing_plan_id":"cebpf4jnsgd1na2vs0mg"},{"bike_id":"d58b30ce-fdbb-482b-8027-e0e00c44bd5a","system_id":"levelo_inurba_marseille","lat":43.305484,"lon":5.365799,"is_reserved":false,"is_disabled":false,"rental_uris":{"android":"levelo://app?vid=d58b30ce-fdbb-482b-8027-e0e00c44bd5a","ios":"levelo://app?vid=d58b30ce-fdbb-482b-8027-e0e00c44bd5a"},"vehicle_type_id":"4","last_reported":1751894786,"current_range_meters":6000,"station_id":"ce4bgih2rcd13ifvqba0","pricing_plan_id":"cebpf4jnsgd1na2vs0mg"},{"bike_id":"18e4fd30-99d9-4051-8cb7-9ef0e27577f3","system_id":"levelo_inurba_marseille","lat":43.31486,"lon":5.37295,"is_reserved":false,"is_disabled":false,"rental_uris":{"android":"levelo://app?vid=18e4fd30-99d9-4051-8cb7-9ef0e27577f3","ios":"levelo://app?vid=18e4fd30-99d9-4051-8cb7-9ef0e27577f3"},"vehicle_type_id":"4","last_reported":1751894786,"current_range_meters":6400,"station_id":"ce4bgt12rcd13ifvqcd0","pricing_plan_id":"cebpf4jnsgd1na2vs0mg"},{"bike_id":"268baf60-9c7a-419c-8df6-646409f735b6","system_id":"levelo_inurba_marseille","lat":43.31509,"lon":5.37301,"is_reserved":false,"is_disabled":false,"rental_uris":{"android":"levelo://app?vid=268baf60-9c7a-419c-8df6-646409f735b6","ios":"levelo://app?vid=268baf60-9c7a-419c-8df6-646409f735b6"},"vehicle_type_id":"4","last_reported":1751894786,"current_range_meters":6400,"station_id":"ce4bgt12rcd13ifvqcd0","pricing_plan_id":"cebpf4jnsgd1na2vs0mg"},{"bike_id":"6616a1be-978d-425a-a38f-fa6282663ff2","system_id":"levelo_inurba_marseille","lat":43.292291,"lon":5.360511,"is_reserved":false,"is_disabled":false,"rental_uris":{"android":"levelo://app?vid=6616a1be-978d-425a-a38f-fa6282663ff2","ios":"levelo://app?vid=6616a1be-978d-425a-a38f-fa6282663ff2"},"vehicle_type_id":"4","last_reported":1751894786,"current_range_meters":6800,"station_id":"","pricing_plan_id":"cebpf4jnsgd1na2vs0mg"},{"bike_id":"74b1dda8-0f9c-4b4d-b7f6-1d17291e04a0","system_id":"levelo_inurba_marseille","lat":43.2841,"lon":5.37517,"is_reserved":false,"is_disabled":false,"rental_uris":{"android":"levelo://app?vid=74b1dda8-0f9c-4b4d-b7f6-1d17291e04a0","ios":"levelo://app?vid=74b1dda8-0f9c-4b4d-b7f6-1d17291e04a0"},"vehicle_type_id":"4","last_reported":1751894786,"current_range_meters":6800,"station_id":"ce4bh412rcd13ifvqds0","pricing_plan_id":"cebpf4jnsgd1na2vs0mg"},{"bike_id":"35e27c7f-4564-4be6-a6de-e83b4335d9ca","system_id":"levelo_inurba_marseille","lat":43.269383,"lon":5.38919,"is_reserved":false,"is_disabled":false,"rental_uris":{"android":"levelo://app?vid=35e27c7f-4564-4be6-a6de-e83b4335d9ca","ios":"levelo://app?vid=35e27c7f-4564-4be6-a6de-e83b4335d9ca"},"vehicle_type_id":"4","last_reported":1751894786,"current_range_meters":6800,"station_id":"ce4bhhh2rcd13ifvqfl0","pricing_plan_id":"cebpf4jnsgd1na2vs0mg"},{"bike_id":"bcd93b95-42bf-493f-94b0-7ed8bf180cae","system_id":"levelo_inurba_marseille","lat":43.27939,"lon":5.41047,"is_reserved":false,"is_disabled":false,"rental_uris":{"android":"levelo://app?vid=bcd93b95-42bf-493f-94b0-7ed8bf180cae","ios":"levelo://app?vid=bcd93b95-42bf-493f-94b0-7ed8bf180cae"},"vehicle_type_id":"4","last_reported":1751894786,"current_range_meters":6800,"station_id":"ce4bhnp2rcd13ifvqh0g","pricing_plan_id":"cebpf4jnsgd1na2vs0mg"},{"bike_id":"ed290504-6948-4f69-8584-2e2b0286febf","system_id":"levelo_inurba_marseille","lat":43.21191,"lon":5.35084,"is_reserved":false,"is_disabled":false,"rental_uris":{"android":"levelo://app?vid=ed290504-6948-4f69-8584-2e2b0286febf","ios":"levelo://app?vid=ed290504-6948-4f69-8584-2e2b0286febf"},"vehicle_type_id":"4","last_reported":1751894786,"current_range_meters":6800,"station_id":"st_cvj6sg6p6f1abm77japg","pricing_plan_id":"cebpf4jnsgd1na2vs0mg"},{"bike_id":"0c749cca-037c-4d4f-a91d-2d898943a582","system_id":"levelo_inurba_marseille","lat":43.31357,"lon":5.38495,"is_reserved":false,"is_disabled":false,"rental_uris":{"android":"levelo://app?vid=0c749cca-037c-4d4f-a91d-2d898943a582","ios":"levelo://app?vid=0c749cca-037c-4d4f-a91d-2d898943a582"},"vehicle_type_id":"4","last_reported":1751894786,"current_range_meters":7200,"station_id":"ce4bgt92rcd13ifvqcf0","pricing_plan_id":"cebpf4jnsgd1na2vs0mg"},{"bike_id":"ec199bab-9bd3-4bcd-979b-ff1bdc7517cc","system_id":"levelo_inurba_marseille","lat":43.28407,"lon":5.37503,"is_reserved":false,"is_disabled":false,"rental_uris":{"android":"levelo://app?vid=ec199bab-9bd3-4bcd-979b-ff1bdc7517cc","ios":"levelo://app?vid=ec199bab-9bd3-4bcd-979b-ff1bdc7517cc"},"vehicle_type_id":"4","last_reported":1751894786,"current_range_meters":7200,"station_id":"ce4bh412rcd13ifvqds0","pricing_plan_id":"cebpf4jnsgd1na2vs0mg"},{"bike_id":"0c121f6a-c1d9-44fe-bc5a-da1437b8a163","system_id":"levelo_inurba_marseille","lat":43.30568,"lon":5.365367,"is_reserved":false,"is_disabled":false,"rental_uris":{"android":"levelo://app?vid=0c121f6a-c1d9-44fe-bc5a-da1437b8a163","ios":"levelo://app?vid=0c121f6a-c1d9-44fe-bc5a-da1437b8a163"},"vehicle_type_id":"4","last_reported":1751894786,"current_range_meters":8000,"station_id":"ce4bgs12rcd13ifvqcag","pricing_plan_id":"cebpf4jnsgd1na2vs0mg"},{"bike_id":"9f5992cb-c0c4-4156-9e0a-2038cd804262","system_id":"levelo_inurba_marseille","lat":43.28663,"lon":5.38633,"is_reserved":false,"is_disabled":false,"rental_uris":{"android":"levelo://app?vid=9f5992cb-c0c4-4156-9e0a-2038cd804262","ios":"levelo://app?vid=9f5992cb-c0c4-4156-9e0a-2038cd804262"},"vehicle_type_id":"4","last_reported":1751894786,"current_range_meters":8000,"station_id":"ce4bh8p2rcd13ifvqeb0","pricing_plan_id":"cebpf4jnsgd1na2vs0mg"},{"bike_id":"8fee3e82-dcfb-4fc9-b89c-9b89e44f5e17","system_id":"levelo_inurba_marseille","lat":43.28423,"lon":5.34999,"is_reserved":false,"is_disabled":false,"rental_uris":{"android":"levelo://app?vid=8fee3e82-dcfb-4fc9-b89c-9b89e44f5e17","ios":"levelo://app?vid=8fee3e82-dcfb-4fc9-b89c-9b89e44f5e17"},"vehicle_type_id":"4","last_reported":1751894786,"current_range_meters":8000,"station_id":"ce4bhbh2rcd13ifvqepg","pricing_plan_id":"cebpf4jnsgd1na2vs0mg"},{"bike_id":"fe44924c-dcf0-4048-a1ad-9e680cc9c00c","system_id":"levelo_inurba_marseille","lat":43.26025,"lon":5.41743,"is_reserved":false,"is_disabled":false,"rental_uris":{"android":"levelo://app?vid=fe44924c-dcf0-4048-a1ad-9e680cc9c00c","ios":"levelo://app?vid=fe44924c-dcf0-4048-a1ad-9e680cc9c00c"},"vehicle_type_id":"4","last_reported":1751894786,"current_range_meters":8400,"station_id":"","pricing_plan_id":"cebpf4jnsgd1na2vs0mg"},{"bike_id":"59422fbe-70f9-4fb5-85e0-9f435afd043f","system_id":"levelo_inurba_marseille","lat":43.30568,"lon":5.36552,"is_reserved":false,"is_disabled":false,"rental_uris":{"android":"levelo://app?vid=59422fbe-70f9-4fb5-85e0-9f435afd043f","ios":"levelo://app?vid=59422fbe-70f9-4fb5-85e0-9f435afd043f"},"vehicle_type_id":"4","last_reported":1751894786,"current_range_meters":8400,"station_id":"ce4bgs12rcd13ifvqcag","pricing_plan_id":"cebpf4jnsgd1na2vs0mg"},{"bike_id":"94add758-2002-4c40-881c-d3fe45161db7","system_id":"levelo_inurba_marseille","lat":43.30546,"lon":5.36564,"is_reserved":false,"is_disabled":false,"rental_uris":{"android":"levelo://app?vid=94add758-2002-4c40-881c-d3fe45161db7","ios":"levelo://app?vid=94add758-2002-4c40-881c-d3fe45161db7"},"vehicle_type_id":"4","last_reported":1751894786,"current_range_meters":8400,"station_id":"ce4bgs12rcd13ifvqcag","pricing_plan_id":"cebpf4jnsgd1na2vs0mg"},{"bike_id":"36a2315f-d004-4cc7-8498-25cde3d8f288","system_id":"levelo_inurba_marseille","lat":43.27066,"lon":5.40249,"is_reserved":false,"is_disabled":false,"rental_uris":{"android":"levelo://app?vid=36a2315f-d004-4cc7-8498-25cde3d8f288","ios":"levelo://app?vid=36a2315f-d004-4cc7-8498-25cde3d8f288"},"vehicle_type_id":"4","last_reported":1751894786,"current_range_meters":8400,"station_id":"ce4bhk92rcd13ifvqgc0","pricing_plan_id":"cebpf4jnsgd1na2vs0mg"},{"bike_id":"cad187aa-8e81-4cb7-b657-fa6a8393a7a1","system_id":"levelo_inurba_marseille","lat":43.27049,"lon":5.40268,"is_reserved":false,"is_disabled":false,"rental_uris":{"android":"levelo://app?vid=cad187aa-8e81-4cb7-b657-fa6a8393a7a1","ios":"levelo://app?vid=cad187aa-8e81-4cb7-b657-fa6a8393a7a1"},"vehicle_type_id":"4","last_reported":1751894786,"current_range_meters":8400,"station_id":"ce4bhk92rcd13ifvqgc0","pricing_plan_id":"cebpf4jnsgd1na2vs0mg"},{"bike_id":"cc80a4ee-f6ce-4d50-b991-f41b90ec0f24","system_id":"levelo_inurba_marseille","lat":43.3112,"lon":5.37745,"is_reserved":false,"is_disabled":false,"rental_uris":{"android":"levelo://app?vid=cc80a4ee-f6ce-4d50-b991-f41b90ec0f24","ios":"levelo://app?vid=cc80a4ee-f6ce-4d50-b991-f41b90ec0f24"},"vehicle_type_id":"4","last_reported":1751894786,"current_range_meters":8800,"station_id":"ce4bgt92rcd13ifvqcg0","pricing_plan_id":"cebpf4jnsgd1na2vs0mg"},{"bike_id":"f2812876-9719-4239-89df-6e38e85f86aa","system_id":"levelo_inurba_marseille","lat":43.29108,"lon":5.38125,"is_reserved":false,"is_disabled":false,"rental_uris":{"android":"levelo://app?vid=f2812876-9719-4239-89df-6e38e85f86aa","ios":"levelo://app?vid=f2812876-9719-4239-89df-6e38e85f86aa"},"vehicle_type_id":"4","last_reported":1751894786,"current_range_meters":8800,"station_id":"ce4bh512rcd13ifvqe2g","pricing_plan_id":"cebpf4jnsgd1na2vs0mg"},{"bike_id":"d6c5e041-56d5-44d3-8767-93bb0abd1776","system_id":"levelo_inurba_marseille","lat":43.217527,"lon":5.346023,"is_reserved":false,"is_disabled":false,"rental_uris":{"android":"levelo://app?vid=d6c5e041-56d5-44d3-8767-93bb0abd1776","ios":"levelo://app?vid=d6c5e041-56d5-44d3-8767-93bb0abd1776"},"vehicle_type_id":"4","last_reported":1751894786,"current_range_meters":8800,"station_id":"st_cvj6r9ubvosntc0bgbag","pricing_plan_id":"cebpf4jnsgd1na2vs0mg"},{"bike_id":"3fd7951e-7e67-4568-8552-086bd0052874","system_id":"levelo_inurba_marseille","lat":43.217512,"lon":5.345908,"is_reserved":false,"is_disabled":false,"rental_uris":{"android":"levelo://app?vid=3fd7951e-7e67-4568-8552-086bd0052874","ios":"levelo://app?vid=3fd7951e-7e67-4568-8552-086bd0052874"},"vehicle_type_id":"4","last_reported":1751894786,"current_range_meters":8800,"station_id":"st_cvj6r9ubvosntc0bgbag","pricing_plan_id":"cebpf4jnsgd1na2vs0mg"},{"bike_id":"653697c4-c439-4a6d-869a-0ee928b604f9","system_id":"levelo_inurba_marseille","lat":43.260284,"lon":5.417587,"is_reserved":false,"is_disabled":false,"rental_uris":{"android":"levelo://app?vid=653697c4-c439-4a6d-869a-0ee928b604f9","ios":"levelo://app?vid=653697c4-c439-4a6d-869a-0ee928b604f9"},"vehicle_type_id":"4","last_reported":1751894786,"current_range_meters":9200,"station_id":"","pricing_plan_id":"cebpf4jnsgd1na2vs0mg"},{"bike_id":"15142370-d72d-4a76-8b81-4d2695b23ba2","system_id":"levelo_inurba_marseille","lat":43.284632,"lon":5.358828,"is_reserved":false,"is_disabled":false,"rental_uris":{"android":"levelo://app?vid=15142370-d72d-4a76-8b81-4d2695b23ba2","ios":"levelo://app?vid=15142370-d72d-4a76-8b81-4d2695b23ba2"},"vehicle_type_id":"4","last_reported":1751894786,"current_range_meters":9200,"station_id":"ce4bhah2rcd13ifvqei0","pricing_plan_id":"cebpf4jnsgd1na2vs0mg"},{"bike_id":"b3bcb66d-d236-4f13-8020-b3d623b5fb37","system_id":"levelo_inurba_marseille","lat":43.28408,"lon":5.35002,"is_reserved":false,"is_disabled":false,"rental_uris":{"android":"levelo://app?vid=b3bcb66d-d236-4f13-8020-b3d623b5fb37","ios":"levelo://app?vid=b3bcb66d-d236-4f13-8020-b3d623b5fb37"},"vehicle_type_id":"4","last_reported":1751894786,"current_range_meters":9200,"station_id":"ce4bhbh2rcd13ifvqepg","pricing_plan_id":"cebpf4jnsgd1na2vs0mg"},{"bike_id":"89f85cc4-d949-40a2-8744-d294c7788af2","system_id":"levelo_inurba_marseille","lat":43.26697,"lon":5.38252,"is_reserved":false,"is_disabled":false,"rental_uris":{"android":"levelo://app?vid=89f85cc4-d949-40a2-8744-d294c7788af2","ios":"levelo://app?vid=89f85cc4-d949-40a2-8744-d294c7788af2"},"vehicle_type_id":"4","last_reported":1751894786,"current_range_meters":9200,"station_id":"ce4bhg92rcd13ifvqf90","pricing_plan_id":"cebpf4jnsgd1na2vs0mg"},{"bike_id":"60f3d515-a9ba-4358-ba10-5994fece7a0d","system_id":"levelo_inurba_marseille","lat":43.321007,"lon":5.367803,"is_reserved":false,"is_disabled":false,"rental_uris":{"android":"levelo://app?vid=60f3d515-a9ba-4358-ba10-5994fece7a0d","ios":"levelo://app?vid=60f3d515-a9ba-4358-ba10-5994fece7a0d"},"vehicle_type_id":"4","last_reported":1751894786,"current_range_meters":9200,"station_id":"ce4bhrh2rcd13ifvqhug","pricing_plan_id":"cebpf4jnsgd1na2vs0mg"},{"bike_id":"0b2ccd0f-688e-4ec3-aac3-f69227ec388f","system_id":"levelo_inurba_marseille","lat":43.32122,"lon":5.36747,"is_reserved":false,"is_disabled":false,"rental_uris":{"android":"levelo://app?vid=0b2ccd0f-688e-4ec3-aac3-f69227ec388f","ios":"levelo://app?vid=0b2ccd0f-688e-4ec3-aac3-f69227ec388f"},"vehicle_type_id":"4","last_reported":1751894786,"current_range_meters":9200,"station_id":"ce4bhrh2rcd13ifvqhug","pricing_plan_id":"cebpf4jnsgd1na2vs0mg"},{"bike_id":"b2f2c7b7-fc5a-4e4e-991e-fd4459d05bdf","system_id":"levelo_inurba_marseille","lat":43.30893,"lon":5.39636,"is_reserved":false,"is_disabled":false,"rental_uris":{"android":"levelo://app?vid=b2f2c7b7-fc5a-4e4e-991e-fd4459d05bdf","ios":"levelo://app?vid=b2f2c7b7-fc5a-4e4e-991e-fd4459d05bdf"},"vehicle_type_id":"4","last_reported":1751894786,"current_range_meters":9600,"station_id":"ce4bh012rcd13ifvqcv0","pricing_plan_id":"cebpf4jnsgd1na2vs0mg"},{"bike_id":"4f0bce41-a279-4325-bc45-79454e61f0b4","system_id":"levelo_inurba_marseille","lat":43.30213,"lon":5.39456,"is_reserved":false,"is_disabled":false,"rental_uris":{"android":"levelo://app?vid=4f0bce41-a279-4325-bc45-79454e61f0b4","ios":"levelo://app?vid=4f0bce41-a279-4325-bc45-79454e61f0b4"},"vehicle_type_id":"4","last_reported":1751894786,"current_range_meters":9600,"station_id":"ce4bh0p2rcd13ifvqd70","pricing_plan_id":"cebpf4jnsgd1na2vs0mg"},{"bike_id":"ab506a97-485c-40df-a9cf-906b44e77dbd","system_id":"levelo_inurba_marseille","lat":43.28727,"lon":5.3795,"is_reserved":false,"is_disabled":false,"rental_uris":{"android":"levelo://app?vid=ab506a97-485c-40df-a9cf-906b44e77dbd","ios":"levelo://app?vid=ab506a97-485c-40df-a9cf-906b44e77dbd"},"vehicle_type_id":"4","last_reported":1751894786,"current_range_meters":9600,"station_id":"ce4bh9p2rcd13ifvqec0","pricing_plan_id":"cebpf4jnsgd1na2vs0mg"},{"bike_id":"f709a840-f82a-44d6-b7b6-b9b893b58502","system_id":"levelo_inurba_marseille","lat":43.26045,"lon":5.37555,"is_reserved":false,"is_disabled":false,"rental_uris":{"android":"levelo://app?vid=f709a840-f82a-44d6-b7b6-b9b893b58502","ios":"levelo://app?vid=f709a840-f82a-44d6-b7b6-b9b893b58502"},"vehicle_type_id":"4","last_reported":1751894786,"current_range_meters":9600,"station_id":"ce4bhgh2rcd13ifvqfa0","pricing_plan_id":"cebpf4jnsgd1na2vs0mg"},{"bike_id":"06ec5e73-7c37-4d7d-9933-e904369ec74e","system_id":"levelo_inurba_marseille","lat":43.32357,"lon":5.36758,"is_reserved":false,"is_disabled":false,"rental_uris":{"android":"levelo://app?vid=06ec5e73-7c37-4d7d-9933-e904369ec74e","ios":"levelo://app?vid=06ec5e73-7c37-4d7d-9933-e904369ec74e"},"vehicle_type_id":"4","last_reported":1751894786,"current_range_meters":9600,"station_id":"ce4bhsh2rcd13ifvqi2g","pricing_plan_id":"cebpf4jnsgd1na2vs0mg"},{"bike_id":"05e5a6e1-7644-4e75-865c-ee89781421ca","system_id":"levelo_inurba_marseille","lat":43.29077,"lon":5.37162,"is_reserved":false,"is_disabled":false,"rental_uris":{"android":"levelo://app?vid=05e5a6e1-7644-4e75-865c-ee89781421ca","ios":"levelo://app?vid=05e5a6e1-7644-4e75-865c-ee89781421ca"},"vehicle_type_id":"4","last_reported":1751894786,"current_range_meters":10000,"station_id":"ce4bh5p2rcd13ifvqe4g","pricing_plan_id":"cebpf4jnsgd1na2vs0mg"},{"bike_id":"72b21962-14d2-47b6-86ae-0ea2949a869e","system_id":"levelo_inurba_marseille","lat":43.28416,"lon":5.34991,"is_reserved":false,"is_disabled":false,"rental_uris":{"android":"levelo://app?vid=72b21962-14d2-47b6-86ae-0ea2949a869e","ios":"levelo://app?vid=72b21962-14d2-47b6-86ae-0ea2949a869e"},"vehicle_type_id":"4","last_reported":1751894786,"current_range_meters":10000,"station_id":"ce4bhbh2rcd13ifvqepg","pricing_plan_id":"cebpf4jnsgd1na2vs0mg"},{"bike_id":"ed7c9e0d-6b04-46f2-a48e-9998e89c71fe","system_id":"levelo_inurba_marseille","lat":43.28423,"lon":5.34988,"is_reserved":false,"is_disabled":false,"rental_uris":{"android":"levelo://app?vid=ed7c9e0d-6b04-46f2-a48e-9998e89c71fe","ios":"levelo://app?vid=ed7c9e0d-6b04-46f2-a48e-9998e89c71fe"},"vehicle_type_id":"4","last_reported":1751894786,"current_range_meters":10000,"station_id":"ce4bhbh2rcd13ifvqepg","pricing_plan_id":"cebpf4jnsgd1na2vs0mg"},{"bike_id":"be2e47f9-0531-4c1c-8a62-eae8765f6e3e","system_id":"levelo_inurba_marseille","lat":43.26026,"lon":5.37553,"is_reserved":false,"is_disabled":false,"rental_uris":{"android":"levelo://app?vid=be2e47f9-0531-4c1c-8a62-eae8765f6e3e","ios":"levelo://app?vid=be2e47f9-0531-4c1c-8a62-eae8765f6e3e"},"vehicle_type_id":"4","last_reported":1751894786,"current_range_meters":10000,"station_id":"ce4bhgh2rcd13ifvqfa0","pricing_plan_id":"cebpf4jnsgd1na2vs0mg"},{"bike_id":"e7296137-e0f0-47f0-935c-9393d3e7121f","system_id":"levelo_inurba_marseille","lat":43.24384,"lon":5.37071,"is_reserved":false,"is_disabled":false,"rental_uris":{"android":"levelo://app?vid=e7296137-e0f0-47f0-935c-9393d3e7121f","ios":"levelo://app?vid=e7296137-e0f0-47f0-935c-9393d3e7121f"},"vehicle_type_id":"4","last_reported":1751894786,"current_range_meters":10000,"station_id":"ce4bhhh2rcd13ifvqfk0","pricing_plan_id":"cebpf4jnsgd1na2vs0mg"},{"bike_id":"7b527f00-f6ea-4963-b59d-8da04a2feedb","system_id":"levelo_inurba_marseille","lat":43.32084,"lon":5.40167,"is_reserved":false,"is_disabled":false,"rental_uris":{"android":"levelo://app?vid=7b527f00-f6ea-4963-b59d-8da04a2feedb","ios":"levelo://app?vid=7b527f00-f6ea-4963-b59d-8da04a2feedb"},"vehicle_type_id":"4","last_reported":1751894786,"current_range_meters":10800,"station_id":"","pricing_plan_id":"cebpf4jnsgd1na2vs0mg"},{"bike_id":"88ea42cb-cf0f-4e4a-8442-732645bc4ba5","system_id":"levelo_inurba_marseille","lat":43.31073,"lon":5.36719,"is_reserved":false,"is_disabled":false,"rental_uris":{"android":"levelo://app?vid=88ea42cb-cf0f-4e4a-8442-732645bc4ba5","ios":"levelo://app?vid=88ea42cb-cf0f-4e4a-8442-732645bc4ba5"},"vehicle_type_id":"4","last_reported":1751894786,"current_range_meters":10800,"station_id":"","pricing_plan_id":"cebpf4jnsgd1na2vs0mg"},{"bike_id":"68539a33-cb57-4040-9815-2c84c4738fdf","system_id":"levelo_inurba_marseille","lat":43.30885,"lon":5.39646,"is_reserved":false,"is_disabled":false,"rental_uris":{"android":"levelo://app?vid=68539a33-cb57-4040-9815-2c84c4738fdf","ios":"levelo://app?vid=68539a33-cb57-4040-9815-2c84c4738fdf"},"vehicle_type_id":"4","last_reported":1751894786,"current_range_meters":10800,"station_id":"ce4bh012rcd13ifvqcv0","pricing_plan_id":"cebpf4jnsgd1na2vs0mg"},{"bike_id":"ad7d314b-54e6-4614-b758-1d8bca02f28f","system_id":"levelo_inurba_marseille","lat":43.31268,"lon":5.40169,"is_reserved":false,"is_disabled":false,"rental_uris":{"android":"levelo://app?vid=ad7d314b-54e6-4614-b758-1d8bca02f28f","ios":"levelo://app?vid=ad7d314b-54e6-4614-b758-1d8bca02f28f"},"vehicle_type_id":"4","last_reported":1751894786,"current_range_meters":10800,"station_id":"ce4bh092rcd13ifvqd30","pricing_plan_id":"cebpf4jnsgd1na2vs0mg"},{"bike_id":"53f1abad-a11b-4bba-99ec-e62154e97354","system_id":"levelo_inurba_marseille","lat":43.30948,"lon":5.39032,"is_reserved":false,"is_disabled":false,"rental_uris":{"android":"levelo://app?vid=53f1abad-a11b-4bba-99ec-e62154e97354","ios":"levelo://app?vid=53f1abad-a11b-4bba-99ec-e62154e97354"},"vehicle_type_id":"4","last_reported":1751894786,"current_range_meters":11200,"station_id":"ce4bgup2rcd13ifvqco0","pricing_plan_id":"cebpf4jnsgd1na2vs0mg"},{"bike_id":"db028a2a-8219-4527-a119-b538c193e5d4","system_id":"levelo_inurba_marseille","lat":43.28361,"lon":5.38629,"is_reserved":false,"is_disabled":false,"rental_uris":{"android":"levelo://app?vid=db028a2a-8219-4527-a119-b538c193e5d4","ios":"levelo://app?vid=db028a2a-8219-4527-a119-b538c193e5d4"},"vehicle_type_id":"4","last_reported":1751894786,"current_range_meters":11200,"station_id":"ce4bh492rcd13ifvqdvg","pricing_plan_id":"cebpf4jnsgd1na2vs0mg"},{"bike_id":"80955d0f-8669-4c02-b90f-c6fe20790c37","system_id":"levelo_inurba_marseille","lat":43.2319,"lon":5.35037,"is_reserved":false,"is_disabled":false,"rental_uris":{"android":"levelo://app?vid=80955d0f-8669-4c02-b90f-c6fe20790c37","ios":"levelo://app?vid=80955d0f-8669-4c02-b90f-c6fe20790c37"},"vehicle_type_id":"4","last_reported":1751894786,"current_range_meters":11600,"station_id":"","pricing_plan_id":"cebpf4jnsgd1na2vs0mg"},{"bike_id":"3b22f952-d0bc-4c00-8fd3-7e27b88aea23","system_id":"levelo_inurba_marseille","lat":43.29659,"lon":5.36245,"is_reserved":false,"is_disabled":false,"rental_uris":{"android":"levelo://app?vid=3b22f952-d0bc-4c00-8fd3-7e27b88aea23","ios":"levelo://app?vid=3b22f952-d0bc-4c00-8fd3-7e27b88aea23"},"vehicle_type_id":"4","last_reported":1751894786,"current_range_meters":11600,"station_id":"","pricing_plan_id":"cebpf4jnsgd1na2vs0mg"},{"bike_id":"436deb9c-8998-489e-87bf-eea5700aa1bf","system_id":"levelo_inurba_marseille","lat":43.28673,"lon":5.386446,"is_reserved":false,"is_disabled":false,"rental_uris":{"android":"levelo://app?vid=436deb9c-8998-489e-87bf-eea5700aa1bf","ios":"levelo://app?vid=436deb9c-8998-489e-87bf-eea5700aa1bf"},"vehicle_type_id":"4","last_reported":1751894786,"current_range_meters":11600,"station_id":"ce4bh492rcd13ifvqdug","pricing_plan_id":"cebpf4jnsgd1na2vs0mg"},{"bike_id":"a5a0f82e-d2ec-466d-a6c2-8246a6b408ae","system_id":"levelo_inurba_marseille","lat":43.285805,"lon":5.37084,"is_reserved":false,"is_disabled":false,"rental_uris":{"android":"levelo://app?vid=a5a0f82e-d2ec-466d-a6c2-8246a6b408ae","ios":"levelo://app?vid=a5a0f82e-d2ec-466d-a6c2-8246a6b408ae"},"vehicle_type_id":"4","last_reported":1751894786,"current_range_meters":11600,"station_id":"ce4bhkp2rcd13ifvqgd0","pricing_plan_id":"cebpf4jnsgd1na2vs0mg"},{"bike_id":"baa79fc7-b159-4161-9ecc-97f5511413fd","system_id":"levelo_inurba_marseille","lat":43.28465,"lon":5.358825,"is_reserved":false,"is_disabled":false,"rental_uris":{"android":"levelo://app?vid=baa79fc7-b159-4161-9ecc-97f5511413fd","ios":"levelo://app?vid=baa79fc7-b159-4161-9ecc-97f5511413fd"},"vehicle_type_id":"4","last_reported":1751894786,"current_range_meters":12000,"station_id":"","pricing_plan_id":"cebpf4jnsgd1na2vs0mg"},{"bike_id":"3821d587-028f-415b-a095-27afc57234bd","system_id":"levelo_inurba_marseille","lat":43.30148,"lon":5.38069,"is_reserved":false,"is_disabled":false,"rental_uris":{"android":"levelo://app?vid=3821d587-028f-415b-a095-27afc57234bd","ios":"levelo://app?vid=3821d587-028f-415b-a095-27afc57234bd"},"vehicle_type_id":"4","last_reported":1751894786,"current_range_meters":12000,"station_id":"ce4bgjp2rcd13ifvqbh0","pricing_plan_id":"cebpf4jnsgd1na2vs0mg"},{"bike_id":"9e9e0b5e-0d45-400f-b781-430fdc4129c5","system_id":"levelo_inurba_marseille","lat":43.30539,"lon":5.36705,"is_reserved":false,"is_disabled":false,"rental_uris":{"android":"levelo://app?vid=9e9e0b5e-0d45-400f-b781-430fdc4129c5","ios":"levelo://app?vid=9e9e0b5e-0d45-400f-b781-430fdc4129c5"},"vehicle_type_id":"4","last_reported":1751894786,"current_range_meters":12000,"station_id":"ce4bgrp2rcd13ifvqc9g","pricing_plan_id":"cebpf4jnsgd1na2vs0mg"},{"bike_id":"28056557-4c26-4c1f-86b8-a860e8648af4","system_id":"levelo_inurba_marseille","lat":43.25726,"lon":5.41116,"is_reserved":false,"is_disabled":false,"rental_uris":{"android":"levelo://app?vid=28056557-4c26-4c1f-86b8-a860e8648af4","ios":"levelo://app?vid=28056557-4c26-4c1f-86b8-a860e8648af4"},"vehicle_type_id":"4","last_reported":1751894786,"current_range_meters":12000,"station_id":"ce4bhkp2rcd13ifvqgd0","pricing_plan_id":"cebpf4jnsgd1na2vs0mg"},{"bike_id":"b3854816-e1e5-498c-9947-e1b4099c5e05","system_id":"levelo_inurba_marseille","lat":43.29016,"lon":5.3693,"is_reserved":false,"is_disabled":false,"rental_uris":{"android":"levelo://app?vid=b3854816-e1e5-498c-9947-e1b4099c5e05","ios":"levelo://app?vid=b3854816-e1e5-498c-9947-e1b4099c5e05"},"vehicle_type_id":"4","last_reported":1751894786,"current_range_meters":12400,"station_id":"","pricing_plan_id":"cebpf4jnsgd1na2vs0mg"},{"bike_id":"37f2becd-23f9-4f13-a711-38b8024eeec7","system_id":"levelo_inurba_marseille","lat":43.33768,"lon":5.37516,"is_reserved":false,"is_disabled":false,"rental_uris":{"android":"levelo://app?vid=37f2becd-23f9-4f13-a711-38b8024eeec7","ios":"levelo://app?vid=37f2becd-23f9-4f13-a711-38b8024eeec7"},"vehicle_type_id":"4","last_reported":1751894786,"current_range_meters":12400,"station_id":"","pricing_plan_id":"cebpf4jnsgd1na2vs0mg"},{"bike_id":"2b2926bf-65ff-464e-9075-26064befa3be","system_id":"levelo_inurba_marseille","lat":43.27979,"lon":5.40067,"is_reserved":false,"is_disabled":false,"rental_uris":{"android":"levelo://app?vid=2b2926bf-65ff-464e-9075-26064befa3be","ios":"levelo://app?vid=2b2926bf-65ff-464e-9075-26064befa3be"},"vehicle_type_id":"4","last_reported":1751894786,"current_range_meters":12400,"station_id":"","pricing_plan_id":"cebpf4jnsgd1na2vs0mg"},{"bike_id":"ac882886-b35e-4961-9293-3db50de918aa","system_id":"levelo_inurba_marseille","lat":43.30533,"lon":5.3653,"is_reserved":false,"is_disabled":false,"rental_uris":{"android":"levelo://app?vid=ac882886-b35e-4961-9293-3db50de918aa","ios":"levelo://app?vid=ac882886-b35e-4961-9293-3db50de918aa"},"vehicle_type_id":"4","last_reported":1751894786,"current_range_meters":12400,"station_id":"ce4bgs12rcd13ifvqcag","pricing_plan_id":"cebpf4jnsgd1na2vs0mg"},{"bike_id":"8e1e2a84-7411-4fce-9c76-10addbab41e3","system_id":"levelo_inurba_marseille","lat":43.30547,"lon":5.36546,"is_reserved":false,"is_disabled":false,"rental_uris":{"android":"levelo://app?vid=8e1e2a84-7411-4fce-9c76-10addbab41e3","ios":"levelo://app?vid=8e1e2a84-7411-4fce-9c76-10addbab41e3"},"vehicle_type_id":"4","last_reported":1751894786,"current_range_meters":12400,"station_id":"ce4bgs12rcd13ifvqcag","pricing_plan_id":"cebpf4jnsgd1na2vs0mg"},{"bike_id":"bb7b235b-32aa-423f-b247-e1b5f81f6751","system_id":"levelo_inurba_marseille","lat":43.26195,"lon":5.37448,"is_reserved":false,"is_disabled":false,"rental_uris":{"android":"levelo://app?vid=bb7b235b-32aa-423f-b247-e1b5f81f6751","ios":"levelo://app?vid=bb7b235b-32aa-423f-b247-e1b5f81f6751"},"vehicle_type_id":"4","last_reported":1751894786,"current_range_meters":12400,"station_id":"ce4bhgp2rcd13ifvqfc0","pricing_plan_id":"cebpf4jnsgd1na2vs0mg"},{"bike_id":"abcdfac5-fe00-4da2-b177-13430b577d14","system_id":"levelo_inurba_marseille","lat":43.30506,"lon":5.36523,"is_reserved":false,"is_disabled":false,"rental_uris":{"android":"levelo://app?vid=abcdfac5-fe00-4da2-b177-13430b577d14","ios":"levelo://app?vid=abcdfac5-fe00-4da2-b177-13430b577d14"},"vehicle_type_id":"4","last_reported":1751894786,"current_range_meters":12800,"station_id":"","pricing_plan_id":"cebpf4jnsgd1na2vs0mg"},{"bike_id":"ccc29df5-1113-42b5-b8de-771b9f206409","system_id":"levelo_inurba_marseille","lat":43.26289,"lon":5.37406,"is_reserved":false,"is_disabled":false,"rental_uris":{"android":"levelo://app?vid=ccc29df5-1113-42b5-b8de-771b9f206409","ios":"levelo://app?vid=ccc29df5-1113-42b5-b8de-771b9f206409"},"vehicle_type_id":"4","last_reported":1751894786,"current_range_meters":12800,"station_id":"","pricing_plan_id":"cebpf4jnsgd1na2vs0mg"},{"bike_id":"e0f30e6f-35a5-4a29-8d12-735bbf27e81d","system_id":"levelo_inurba_marseille","lat":43.30556,"lon":5.36551,"is_reserved":false,"is_disabled":false,"rental_uris":{"android":"levelo://app?vid=e0f30e6f-35a5-4a29-8d12-735bbf27e81d","ios":"levelo://app?vid=e0f30e6f-35a5-4a29-8d12-735bbf27e81d"},"vehicle_type_id":"4","last_reported":1751894786,"current_range_meters":12800,"station_id":"ce4bgs12rcd13ifvqcag","pricing_plan_id":"cebpf4jnsgd1na2vs0mg"},{"bike_id":"8cade8fe-d7e6-49e4-b764-a0d4e5bb21c1","system_id":"levelo_inurba_marseille","lat":43.31482,"lon":5.373,"is_reserved":false,"is_disabled":false,"rental_uris":{"android":"levelo://app?vid=8cade8fe-d7e6-49e4-b764-a0d4e5bb21c1","ios":"levelo://app?vid=8cade8fe-d7e6-49e4-b764-a0d4e5bb21c1"},"vehicle_type_id":"4","last_reported":1751894786,"current_range_meters":12800,"station_id":"ce4bgt12rcd13ifvqcd0","pricing_plan_id":"cebpf4jnsgd1na2vs0mg"},{"bike_id":"a7235cae-23c8-4a48-8e13-f9a5220b7352","system_id":"levelo_inurba_marseille","lat":43.31324,"lon":5.39709,"is_reserved":false,"is_disabled":false,"rental_uris":{"android":"levelo://app?vid=a7235cae-23c8-4a48-8e13-f9a5220b7352","ios":"levelo://app?vid=a7235cae-23c8-4a48-8e13-f9a5220b7352"},"vehicle_type_id":"4","last_reported":1751894786,"current_range_meters":12800,"station_id":"ce4bgvp2rcd13ifvqcu0","pricing_plan_id":"cebpf4jnsgd1na2vs0mg"},{"bike_id":"a31d7b1d-f875-4f27-b8f6-640a4ac62493","system_id":"levelo_inurba_marseille","lat":43.33724,"lon":5.391905,"is_reserved":false,"is_disabled":false,"rental_uris":{"android":"levelo://app?vid=a31d7b1d-f875-4f27-b8f6-640a4ac62493","ios":"levelo://app?vid=a31d7b1d-f875-4f27-b8f6-640a4ac62493"},"vehicle_type_id":"4","last_reported":1751894786,"current_range_meters":12800,"station_id":"ce4bhr92rcd13ifvqhsg","pricing_plan_id":"cebpf4jnsgd1na2vs0mg"},{"bike_id":"78c65a7f-d308-40b5-accc-8e6897ac9f8a","system_id":"levelo_inurba_marseille","lat":43.30091,"lon":5.37786,"is_reserved":false,"is_disabled":false,"rental_uris":{"android":"levelo://app?vid=78c65a7f-d308-40b5-accc-8e6897ac9f8a","ios":"levelo://app?vid=78c65a7f-d308-40b5-accc-8e6897ac9f8a"},"vehicle_type_id":"4","last_reported":1751894786,"current_range_meters":13600,"station_id":"","pricing_plan_id":"cebpf4jnsgd1na2vs0mg"},{"bike_id":"5a9693e6-ca2f-4c04-b4a1-04215c7b0d6a","system_id":"levelo_inurba_marseille","lat":43.30553,"lon":5.36699,"is_reserved":false,"is_disabled":false,"rental_uris":{"android":"levelo://app?vid=5a9693e6-ca2f-4c04-b4a1-04215c7b0d6a","ios":"levelo://app?vid=5a9693e6-ca2f-4c04-b4a1-04215c7b0d6a"},"vehicle_type_id":"4","last_reported":1751894786,"current_range_meters":13600,"station_id":"ce4bgrp2rcd13ifvqc9g","pricing_plan_id":"cebpf4jnsgd1na2vs0mg"},{"bike_id":"868a7c7a-4aae-403c-adb0-8e0c8ad886fb","system_id":"levelo_inurba_marseille","lat":43.28619,"lon":5.35103,"is_reserved":false,"is_disabled":false,"rental_uris":{"android":"levelo://app?vid=868a7c7a-4aae-403c-adb0-8e0c8ad886fb","ios":"levelo://app?vid=868a7c7a-4aae-403c-adb0-8e0c8ad886fb"},"vehicle_type_id":"4","last_reported":1751894786,"current_range_meters":13600,"station_id":"ce4bhch2rcd13ifvqeug","pricing_plan_id":"cebpf4jnsgd1na2vs0mg"},{"bike_id":"29102da4-02a2-4f9c-99ed-89cdef887179","system_id":"levelo_inurba_marseille","lat":43.225,"lon":5.34777,"is_reserved":false,"is_disabled":false,"rental_uris":{"android":"levelo://app?vid=29102da4-02a2-4f9c-99ed-89cdef887179","ios":"levelo://app?vid=29102da4-02a2-4f9c-99ed-89cdef887179"},"vehicle_type_id":"4","last_reported":1751894786,"current_range_meters":13600,"station_id":"st_cvj5dfep6f1abm77gieg","pricing_plan_id":"cebpf4jnsgd1na2vs0mg"},{"bike_id":"2a45d725-7c86-4b71-ac8f-fbb41538a388","system_id":"levelo_inurba_marseille","lat":43.31195,"lon":5.36898,"is_reserved":false,"is_disabled":false,"rental_uris":{"android":"levelo://app?vid=2a45d725-7c86-4b71-ac8f-fbb41538a388","ios":"levelo://app?vid=2a45d725-7c86-4b71-ac8f-fbb41538a388"},"vehicle_type_id":"4","last_reported":1751894786,"current_range_meters":14000,"station_id":"ce4bgl92rcd13ifvqbq0","pricing_plan_id":"cebpf4jnsgd1na2vs0mg"},{"bike_id":"da72be63-6f0e-4ae7-be7a-09ded5403478","system_id":"levelo_inurba_marseille","lat":43.25121,"lon":5.40321,"is_reserved":false,"is_disabled":false,"rental_uris":{"android":"levelo://app?vid=da72be63-6f0e-4ae7-be7a-09ded5403478","ios":"levelo://app?vid=da72be63-6f0e-4ae7-be7a-09ded5403478"},"vehicle_type_id":"4","last_reported":1751894786,"current_range_meters":14000,"station_id":"ce4bhlh2rcd13ifvqgig","pricing_plan_id":"cebpf4jnsgd1na2vs0mg"},{"bike_id":"53e9b7ad-625a-486c-a022-46e5911f21a5","system_id":"levelo_inurba_marseille","lat":43.25929,"lon":5.40867,"is_reserved":false,"is_disabled":false,"rental_uris":{"android":"levelo://app?vid=53e9b7ad-625a-486c-a022-46e5911f21a5","ios":"levelo://app?vid=53e9b7ad-625a-486c-a022-46e5911f21a5"},"vehicle_type_id":"4","last_reported":1751894786,"current_range_meters":14000,"station_id":"ce4bhm92rcd13ifvqglg","pricing_plan_id":"cebpf4jnsgd1na2vs0mg"},{"bike_id":"949188bf-6148-425e-828f-98a1d9650134","system_id":"levelo_inurba_marseille","lat":43.32473,"lon":5.3657,"is_reserved":false,"is_disabled":false,"rental_uris":{"android":"levelo://app?vid=949188bf-6148-425e-828f-98a1d9650134","ios":"levelo://app?vid=949188bf-6148-425e-828f-98a1d9650134"},"vehicle_type_id":"4","last_reported":1751894786,"current_range_meters":14000,"station_id":"ce4bhs12rcd13ifvqhvg","pricing_plan_id":"cebpf4jnsgd1na2vs0mg"},{"bike_id":"a70cfab5-f447-4d61-b80a-343a49825360","system_id":"levelo_inurba_marseille","lat":43.31476,"lon":5.39104,"is_reserved":false,"is_disabled":false,"rental_uris":{"android":"levelo://app?vid=a70cfab5-f447-4d61-b80a-343a49825360","ios":"levelo://app?vid=a70cfab5-f447-4d61-b80a-343a49825360"},"vehicle_type_id":"4","last_reported":1751894786,"current_range_meters":14400,"station_id":"","pricing_plan_id":"cebpf4jnsgd1na2vs0mg"},{"bike_id":"d23ff5eb-dc32-46e8-a11a-2ae72fe24931","system_id":"levelo_inurba_marseille","lat":43.29848,"lon":5.36288,"is_reserved":false,"is_disabled":false,"rental_uris":{"android":"levelo://app?vid=d23ff5eb-dc32-46e8-a11a-2ae72fe24931","ios":"levelo://app?vid=d23ff5eb-dc32-46e8-a11a-2ae72fe24931"},"vehicle_type_id":"4","last_reported":1751894786,"current_range_meters":14400,"station_id":"ce4bgpp2rcd13ifvqc3g","pricing_plan_id":"cebpf4jnsgd1na2vs0mg"},{"bike_id":"9def8b07-8521-4023-8fea-449215b8264b","system_id":"levelo_inurba_marseille","lat":43.243906,"lon":5.370615,"is_reserved":false,"is_disabled":false,"rental_uris":{"android":"levelo://app?vid=9def8b07-8521-4023-8fea-449215b8264b","ios":"levelo://app?vid=9def8b07-8521-4023-8fea-449215b8264b"},"vehicle_type_id":"4","last_reported":1751894786,"current_range_meters":14400,"station_id":"ce4bhhh2rcd13ifvqfk0","pricing_plan_id":"cebpf4jnsgd1na2vs0mg"},{"bike_id":"5ec4874c-03c6-4a0e-89ff-0413efb1d60d","system_id":"levelo_inurba_marseille","lat":43.31992,"lon":5.36752,"is_reserved":false,"is_disabled":false,"rental_uris":{"android":"levelo://app?vid=5ec4874c-03c6-4a0e-89ff-0413efb1d60d","ios":"levelo://app?vid=5ec4874c-03c6-4a0e-89ff-0413efb1d60d"},"vehicle_type_id":"4","last_reported":1751894786,"current_range_meters":14400,"station_id":"ce4bhrh2rcd13ifvqhug","pricing_plan_id":"cebpf4jnsgd1na2vs0mg"},{"bike_id":"cd921873-e060-4800-a6eb-05ae1b62a4cb","system_id":"levelo_inurba_marseille","lat":43.31221,"lon":5.36889,"is_reserved":false,"is_disabled":false,"rental_uris":{"android":"levelo://app?vid=cd921873-e060-4800-a6eb-05ae1b62a4cb","ios":"levelo://app?vid=cd921873-e060-4800-a6eb-05ae1b62a4cb"},"vehicle_type_id":"4","last_reported":1751894786,"current_range_meters":14800,"station_id":"ce4bgl92rcd13ifvqbq0","pricing_plan_id":"cebpf4jnsgd1na2vs0mg"},{"bike_id":"0fdb280a-3f1c-4c1f-8d73-ac5396ea91bf","system_id":"levelo_inurba_marseille","lat":43.2869,"lon":5.38652,"is_reserved":false,"is_disabled":false,"rental_uris":{"android":"levelo://app?vid=0fdb280a-3f1c-4c1f-8d73-ac5396ea91bf","ios":"levelo://app?vid=0fdb280a-3f1c-4c1f-8d73-ac5396ea91bf"},"vehicle_type_id":"4","last_reported":1751894786,"current_range_meters":14800,"station_id":"ce4bh492rcd13ifvqdug","pricing_plan_id":"cebpf4jnsgd1na2vs0mg"},{"bike_id":"d7988964-28c6-4fac-b7a3-c9a2ca519892","system_id":"levelo_inurba_marseille","lat":43.2862,"lon":5.35108,"is_reserved":false,"is_disabled":false,"rental_uris":{"android":"levelo://app?vid=d7988964-28c6-4fac-b7a3-c9a2ca519892","ios":"levelo://app?vid=d7988964-28c6-4fac-b7a3-c9a2ca519892"},"vehicle_type_id":"4","last_reported":1751894786,"current_range_meters":14800,"station_id":"ce4bhch2rcd13ifvqeug","pricing_plan_id":"cebpf4jnsgd1na2vs0mg"},{"bike_id":"c1a99dc2-88db-49cf-a31f-dc1c0dab20d7","system_id":"levelo_inurba_marseille","lat":43.28706,"lon":5.37926,"is_reserved":false,"is_disabled":false,"rental_uris":{"android":"levelo://app?vid=c1a99dc2-88db-49cf-a31f-dc1c0dab20d7","ios":"levelo://app?vid=c1a99dc2-88db-49cf-a31f-dc1c0dab20d7"},"vehicle_type_id":"4","last_reported":1751894786,"current_range_meters":15200,"station_id":"ce4bh9p2rcd13ifvqec0","pricing_plan_id":"cebpf4jnsgd1na2vs0mg"},{"bike_id":"522babc5-1b83-4bde-8ab6-ebfde9bd04b2","system_id":"levelo_inurba_marseille","lat":43.255,"lon":5.37662,"is_reserved":false,"is_disabled":false,"rental_uris":{"android":"levelo://app?vid=522babc5-1b83-4bde-8ab6-ebfde9bd04b2","ios":"levelo://app?vid=522babc5-1b83-4bde-8ab6-ebfde9bd04b2"},"vehicle_type_id":"4","last_reported":1751894786,"current_range_meters":15200,"station_id":"ce4bhh12rcd13ifvqff0","pricing_plan_id":"cebpf4jnsgd1na2vs0mg"},{"bike_id":"e417231e-4454-4471-aa92-01bec0d08494","system_id":"levelo_inurba_marseille","lat":43.30266,"lon":5.40068,"is_reserved":false,"is_disabled":false,"rental_uris":{"android":"levelo://app?vid=e417231e-4454-4471-aa92-01bec0d08494","ios":"levelo://app?vid=e417231e-4454-4471-aa92-01bec0d08494"},"vehicle_type_id":"4","last_reported":1751894786,"current_range_meters":16000,"station_id":"ce4bgvh2rcd13ifvqcs0","pricing_plan_id":"cebpf4jnsgd1na2vs0mg"},{"bike_id":"2ddd6815-6193-4bc9-bd9f-34f36bc7c904","system_id":"levelo_inurba_marseille","lat":43.28399,"lon":5.34997,"is_reserved":false,"is_disabled":false,"rental_uris":{"android":"levelo://app?vid=2ddd6815-6193-4bc9-bd9f-34f36bc7c904","ios":"levelo://app?vid=2ddd6815-6193-4bc9-bd9f-34f36bc7c904"},"vehicle_type_id":"4","last_reported":1751894786,"current_range_meters":16000,"station_id":"ce4bhbh2rcd13ifvqepg","pricing_plan_id":"cebpf4jnsgd1na2vs0mg"},{"bike_id":"e79346c8-86fc-4daa-86ef-e1e68b65043e","system_id":"levelo_inurba_marseille","lat":43.24072,"lon":5.37761,"is_reserved":false,"is_disabled":false,"rental_uris":{"android":"levelo://app?vid=e79346c8-86fc-4daa-86ef-e1e68b65043e","ios":"levelo://app?vid=e79346c8-86fc-4daa-86ef-e1e68b65043e"},"vehicle_type_id":"4","last_reported":1751894786,"current_range_meters":16000,"station_id":"ce4bhnp2rcd13ifvqgvg","pricing_plan_id":"cebpf4jnsgd1na2vs0mg"},{"bike_id":"a7c39d59-40bd-4f7b-a228-ff2080b9cf69","system_id":"levelo_inurba_marseille","lat":43.26924,"lon":5.40248,"is_reserved":false,"is_disabled":false,"rental_uris":{"android":"levelo://app?vid=a7c39d59-40bd-4f7b-a228-ff2080b9cf69","ios":"levelo://app?vid=a7c39d59-40bd-4f7b-a228-ff2080b9cf69"},"vehicle_type_id":"4","last_reported":1751894786,"current_range_meters":16000,"station_id":"cjm6bp8fraef2m0cb0m0","pricing_plan_id":"cebpf4jnsgd1na2vs0mg"},{"bike_id":"9b17c7d8-d238-4371-9785-1a2572c0a3a8","system_id":"levelo_inurba_marseille","lat":43.28258,"lon":5.35076,"is_reserved":false,"is_disabled":false,"rental_uris":{"android":"levelo://app?vid=9b17c7d8-d238-4371-9785-1a2572c0a3a8","ios":"levelo://app?vid=9b17c7d8-d238-4371-9785-1a2572c0a3a8"},"vehicle_type_id":"4","last_reported":1751894786,"current_range_meters":16400,"station_id":"ce4bhbp2rcd13ifvqerg","pricing_plan_id":"cebpf4jnsgd1na2vs0mg"},{"bike_id":"dd35cf19-5c68-4f15-84e1-3b0e51e6a65b","system_id":"levelo_inurba_marseille","lat":43.23964,"lon":5.3664,"is_reserved":false,"is_disabled":false,"rental_uris":{"android":"levelo://app?vid=dd35cf19-5c68-4f15-84e1-3b0e51e6a65b","ios":"levelo://app?vid=dd35cf19-5c68-4f15-84e1-3b0e51e6a65b"},"vehicle_type_id":"4","last_reported":1751894786,"current_range_meters":16400,"station_id":"ce4bhi12rcd13ifvqfp0","pricing_plan_id":"cebpf4jnsgd1na2vs0mg"},{"bike_id":"88448def-5dd0-4785-bf46-b6c2e5cfe176","system_id":"levelo_inurba_marseille","lat":43.22524,"lon":5.34763,"is_reserved":false,"is_disabled":false,"rental_uris":{"android":"levelo://app?vid=88448def-5dd0-4785-bf46-b6c2e5cfe176","ios":"levelo://app?vid=88448def-5dd0-4785-bf46-b6c2e5cfe176"},"vehicle_type_id":"4","last_reported":1751894786,"current_range_meters":16400,"station_id":"st_cvj5dfep6f1abm77gieg","pricing_plan_id":"cebpf4jnsgd1na2vs0mg"},{"bike_id":"212827c2-5775-418b-81c4-ee6678099c2b","system_id":"levelo_inurba_marseille","lat":43.21776,"lon":5.34593,"is_reserved":false,"is_disabled":false,"rental_uris":{"android":"levelo://app?vid=212827c2-5775-418b-81c4-ee6678099c2b","ios":"levelo://app?vid=212827c2-5775-418b-81c4-ee6678099c2b"},"vehicle_type_id":"4","last_reported":1751894786,"current_range_meters":16400,"station_id":"st_cvj6r9ubvosntc0bgbag","pricing_plan_id":"cebpf4jnsgd1na2vs0mg"},{"bike_id":"450e874d-b836-491e-9449-b0948ecd6f9a","system_id":"levelo_inurba_marseille","lat":43.30522,"lon":5.36561,"is_reserved":false,"is_disabled":false,"rental_uris":{"android":"levelo://app?vid=450e874d-b836-491e-9449-b0948ecd6f9a","ios":"levelo://app?vid=450e874d-b836-491e-9449-b0948ecd6f9a"},"vehicle_type_id":"4","last_reported":1751894786,"current_range_meters":16800,"station_id":"ce4bgs12rcd13ifvqcag","pricing_plan_id":"cebpf4jnsgd1na2vs0mg"},{"bike_id":"02b10c9f-d125-4421-b296-a24ad4a35dc3","system_id":"levelo_inurba_marseille","lat":43.30276,"lon":5.37716,"is_reserved":false,"is_disabled":false,"rental_uris":{"android":"levelo://app?vid=02b10c9f-d125-4421-b296-a24ad4a35dc3","ios":"levelo://app?vid=02b10c9f-d125-4421-b296-a24ad4a35dc3"},"vehicle_type_id":"4","last_reported":1751894786,"current_range_meters":16800,"station_id":"ce4bguh2rcd13ifvqcj0","pricing_plan_id":"cebpf4jnsgd1na2vs0mg"},{"bike_id":"942a983a-7094-47d3-97b7-ba4ab853d965","system_id":"levelo_inurba_marseille","lat":43.27087,"lon":5.42265,"is_reserved":false,"is_disabled":false,"rental_uris":{"android":"levelo://app?vid=942a983a-7094-47d3-97b7-ba4ab853d965","ios":"levelo://app?vid=942a983a-7094-47d3-97b7-ba4ab853d965"},"vehicle_type_id":"4","last_reported":1751894786,"current_range_meters":16800,"station_id":"ce4bhk92rcd13ifvqgb0","pricing_plan_id":"cebpf4jnsgd1na2vs0mg"},{"bike_id":"869426ca-2edf-448e-a40f-b5b7fafdd2c2","system_id":"levelo_inurba_marseille","lat":43.27066,"lon":5.40254,"is_reserved":false,"is_disabled":false,"rental_uris":{"android":"levelo://app?vid=869426ca-2edf-448e-a40f-b5b7fafdd2c2","ios":"levelo://app?vid=869426ca-2edf-448e-a40f-b5b7fafdd2c2"},"vehicle_type_id":"4","last_reported":1751894786,"current_range_meters":16800,"station_id":"ce4bhk92rcd13ifvqgc0","pricing_plan_id":"cebpf4jnsgd1na2vs0mg"},{"bike_id":"6724b3bb-481b-4829-a8e8-71b2cb5369d9","system_id":"levelo_inurba_marseille","lat":43.25934,"lon":5.409,"is_reserved":false,"is_disabled":false,"rental_uris":{"android":"levelo://app?vid=6724b3bb-481b-4829-a8e8-71b2cb5369d9","ios":"levelo://app?vid=6724b3bb-481b-4829-a8e8-71b2cb5369d9"},"vehicle_type_id":"4","last_reported":1751894786,"current_range_meters":16800,"station_id":"ce4bhm92rcd13ifvqglg","pricing_plan_id":"cebpf4jnsgd1na2vs0mg"},{"bike_id":"2090512e-543d-4a55-b888-2423e2f84234","system_id":"levelo_inurba_marseille","lat":43.24065,"lon":5.37709,"is_reserved":false,"is_disabled":false,"rental_uris":{"android":"levelo://app?vid=2090512e-543d-4a55-b888-2423e2f84234","ios":"levelo://app?vid=2090512e-543d-4a55-b888-2423e2f84234"},"vehicle_type_id":"4","last_reported":1751894786,"current_range_meters":16800,"station_id":"ce4bhnp2rcd13ifvqgvg","pricing_plan_id":"cebpf4jnsgd1na2vs0mg"},{"bike_id":"c4d80167-db70-4f18-b0d8-7c35c6b724a0","system_id":"levelo_inurba_marseille","lat":43.29846,"lon":5.36287,"is_reserved":false,"is_disabled":false,"rental_uris":{"android":"levelo://app?vid=c4d80167-db70-4f18-b0d8-7c35c6b724a0","ios":"levelo://app?vid=c4d80167-db70-4f18-b0d8-7c35c6b724a0"},"vehicle_type_id":"4","last_reported":1751894786,"current_range_meters":17200,"station_id":"ce4bgpp2rcd13ifvqc3g","pricing_plan_id":"cebpf4jnsgd1na2vs0mg"},{"bike_id":"bcc6c0c1-c38f-4c15-8b87-e433bea5441d","system_id":"levelo_inurba_marseille","lat":43.30556,"lon":5.36558,"is_reserved":false,"is_disabled":false,"rental_uris":{"android":"levelo://app?vid=bcc6c0c1-c38f-4c15-8b87-e433bea5441d","ios":"levelo://app?vid=bcc6c0c1-c38f-4c15-8b87-e433bea5441d"},"vehicle_type_id":"4","last_reported":1751894786,"current_range_meters":17200,"station_id":"ce4bgs12rcd13ifvqcag","pricing_plan_id":"cebpf4jnsgd1na2vs0mg"},{"bike_id":"b0d656ed-2c63-4812-91d4-3f355e3e39e7","system_id":"levelo_inurba_marseille","lat":43.31493,"lon":5.37312,"is_reserved":false,"is_disabled":false,"rental_uris":{"android":"levelo://app?vid=b0d656ed-2c63-4812-91d4-3f355e3e39e7","ios":"levelo://app?vid=b0d656ed-2c63-4812-91d4-3f355e3e39e7"},"vehicle_type_id":"4","last_reported":1751894786,"current_range_meters":17200,"station_id":"ce4bgt12rcd13ifvqcd0","pricing_plan_id":"cebpf4jnsgd1na2vs0mg"},{"bike_id":"bb4f3f96-9222-48ad-b6a0-40408ef67be2","system_id":"levelo_inurba_marseille","lat":43.31323,"lon":5.39691,"is_reserved":false,"is_disabled":false,"rental_uris":{"android":"levelo://app?vid=bb4f3f96-9222-48ad-b6a0-40408ef67be2","ios":"levelo://app?vid=bb4f3f96-9222-48ad-b6a0-40408ef67be2"},"vehicle_type_id":"4","last_reported":1751894786,"current_range_meters":17200,"station_id":"ce4bgvp2rcd13ifvqcu0","pricing_plan_id":"cebpf4jnsgd1na2vs0mg"},{"bike_id":"112c0089-4a76-433e-b1f5-74f5b409221d","system_id":"levelo_inurba_marseille","lat":43.24181,"lon":5.39725,"is_reserved":false,"is_disabled":false,"rental_uris":{"android":"levelo://app?vid=112c0089-4a76-433e-b1f5-74f5b409221d","ios":"levelo://app?vid=112c0089-4a76-433e-b1f5-74f5b409221d"},"vehicle_type_id":"4","last_reported":1751894786,"current_range_meters":17200,"station_id":"ce4bhn12rcd13ifvqgpg","pricing_plan_id":"cebpf4jnsgd1na2vs0mg"},{"bike_id":"762784bc-76e0-4220-961c-3afad064fde2","system_id":"levelo_inurba_marseille","lat":43.32121,"lon":5.36726,"is_reserved":false,"is_disabled":false,"rental_uris":{"android":"levelo://app?vid=762784bc-76e0-4220-961c-3afad064fde2","ios":"levelo://app?vid=762784bc-76e0-4220-961c-3afad064fde2"},"vehicle_type_id":"4","last_reported":1751894786,"current_range_meters":17200,"station_id":"ce4bhrh2rcd13ifvqhug","pricing_plan_id":"cebpf4jnsgd1na2vs0mg"},{"bike_id":"43d0a216-171e-45fe-88be-8650fec68cf8","system_id":"levelo_inurba_marseille","lat":43.21202,"lon":5.35064,"is_reserved":false,"is_disabled":false,"rental_uris":{"android":"levelo://app?vid=43d0a216-171e-45fe-88be-8650fec68cf8","ios":"levelo://app?vid=43d0a216-171e-45fe-88be-8650fec68cf8"},"vehicle_type_id":"4","last_reported":1751894786,"current_range_meters":17200,"station_id":"st_cvj6sg6p6f1abm77japg","pricing_plan_id":"cebpf4jnsgd1na2vs0mg"},{"bike_id":"9bfc7d3d-4e60-4f8a-9c32-ef3d0e77ec5b","system_id":"levelo_inurba_marseille","lat":43.211913,"lon":5.35074,"is_reserved":false,"is_disabled":false,"rental_uris":{"android":"levelo://app?vid=9bfc7d3d-4e60-4f8a-9c32-ef3d0e77ec5b","ios":"levelo://app?vid=9bfc7d3d-4e60-4f8a-9c32-ef3d0e77ec5b"},"vehicle_type_id":"4","last_reported":1751894786,"current_range_meters":17200,"station_id":"st_cvj6sg6p6f1abm77japg","pricing_plan_id":"cebpf4jnsgd1na2vs0mg"},{"bike_id":"d48742aa-a62a-4230-921f-553c19ec6f73","system_id":"levelo_inurba_marseille","lat":43.29272,"lon":5.36844,"is_reserved":false,"is_disabled":false,"rental_uris":{"android":"levelo://app?vid=d48742aa-a62a-4230-921f-553c19ec6f73","ios":"levelo://app?vid=d48742aa-a62a-4230-921f-553c19ec6f73"},"vehicle_type_id":"4","last_reported":1751894786,"current_range_meters":17600,"station_id":"ce4bhbp2rcd13ifvqesg","pricing_plan_id":"cebpf4jnsgd1na2vs0mg"},{"bike_id":"c5c0441e-12e1-4acb-90bf-00ad4768237b","system_id":"levelo_inurba_marseille","lat":43.2409,"lon":5.37759,"is_reserved":false,"is_disabled":false,"rental_uris":{"android":"levelo://app?vid=c5c0441e-12e1-4acb-90bf-00ad4768237b","ios":"levelo://app?vid=c5c0441e-12e1-4acb-90bf-00ad4768237b"},"vehicle_type_id":"4","last_reported":1751894786,"current_range_meters":17600,"station_id":"ce4bhnp2rcd13ifvqgvg","pricing_plan_id":"cebpf4jnsgd1na2vs0mg"},{"bike_id":"4aac4324-1577-40ed-816f-92c6a9b0cce1","system_id":"levelo_inurba_marseille","lat":43.28459,"lon":5.3923,"is_reserved":false,"is_disabled":false,"rental_uris":{"android":"levelo://app?vid=4aac4324-1577-40ed-816f-92c6a9b0cce1","ios":"levelo://app?vid=4aac4324-1577-40ed-816f-92c6a9b0cce1"},"vehicle_type_id":"4","last_reported":1751894786,"current_range_meters":17600,"station_id":"ce4bhoh2rcd13ifvqh5g","pricing_plan_id":"cebpf4jnsgd1na2vs0mg"},{"bike_id":"55fda3be-3cc6-4a93-8ee8-a4fd7514483c","system_id":"levelo_inurba_marseille","lat":43.2293,"lon":5.35386,"is_reserved":false,"is_disabled":false,"rental_uris":{"android":"levelo://app?vid=55fda3be-3cc6-4a93-8ee8-a4fd7514483c","ios":"levelo://app?vid=55fda3be-3cc6-4a93-8ee8-a4fd7514483c"},"vehicle_type_id":"4","last_reported":1751894786,"current_range_meters":17600,"station_id":"cpo3532slgdg3j2ikp40","pricing_plan_id":"cebpf4jnsgd1na2vs0mg"},{"bike_id":"89aed59f-866e-4768-b8b5-54548cd7d320","system_id":"levelo_inurba_marseille","lat":43.22505,"lon":5.34788,"is_reserved":false,"is_disabled":false,"rental_uris":{"android":"levelo://app?vid=89aed59f-866e-4768-b8b5-54548cd7d320","ios":"levelo://app?vid=89aed59f-866e-4768-b8b5-54548cd7d320"},"vehicle_type_id":"4","last_reported":1751894786,"current_range_meters":17600,"station_id":"st_cvj5dfep6f1abm77gieg","pricing_plan_id":"cebpf4jnsgd1na2vs0mg"},{"bike_id":"6a3a3e65-1839-43d5-b574-3a73e4e32dac","system_id":"levelo_inurba_marseille","lat":43.32321,"lon":5.3887,"is_reserved":false,"is_disabled":false,"rental_uris":{"android":"levelo://app?vid=6a3a3e65-1839-43d5-b574-3a73e4e32dac","ios":"levelo://app?vid=6a3a3e65-1839-43d5-b574-3a73e4e32dac"},"vehicle_type_id":"4","last_reported":1751894786,"current_range_meters":18000,"station_id":"","pricing_plan_id":"cebpf4jnsgd1na2vs0mg"},{"bike_id":"888522e3-39b6-4ff3-ad74-ff6c6f771157","system_id":"levelo_inurba_marseille","lat":43.294979,"lon":5.402583,"is_reserved":false,"is_disabled":false,"rental_uris":{"android":"levelo://app?vid=888522e3-39b6-4ff3-ad74-ff6c6f771157","ios":"levelo://app?vid=888522e3-39b6-4ff3-ad74-ff6c6f771157"},"vehicle_type_id":"4","last_reported":1751894786,"current_range_meters":18000,"station_id":"","pricing_plan_id":"cebpf4jnsgd1na2vs0mg"},{"bike_id":"c8810e8f-2a78-4a6d-8cb6-3d76e1b529a8","system_id":"levelo_inurba_marseille","lat":43.30509,"lon":5.36751,"is_reserved":false,"is_disabled":false,"rental_uris":{"android":"levelo://app?vid=c8810e8f-2a78-4a6d-8cb6-3d76e1b529a8","ios":"levelo://app?vid=c8810e8f-2a78-4a6d-8cb6-3d76e1b529a8"},"vehicle_type_id":"4","last_reported":1751894786,"current_range_meters":18000,"station_id":"ce4bgrp2rcd13ifvqc9g","pricing_plan_id":"cebpf4jnsgd1na2vs0mg"},{"bike_id":"c03298b0-29f7-4094-9868-fd51e741803e","system_id":"levelo_inurba_marseille","lat":43.30556,"lon":5.36541,"is_reserved":false,"is_disabled":false,"rental_uris":{"android":"levelo://app?vid=c03298b0-29f7-4094-9868-fd51e741803e","ios":"levelo://app?vid=c03298b0-29f7-4094-9868-fd51e741803e"},"vehicle_type_id":"4","last_reported":1751894786,"current_range_meters":18000,"station_id":"ce4bgs12rcd13ifvqcag","pricing_plan_id":"cebpf4jnsgd1na2vs0mg"},{"bike_id":"b8fb51f6-c4b6-4d21-ae59-50869a4ac54c","system_id":"levelo_inurba_marseille","lat":43.28034,"lon":5.3695,"is_reserved":false,"is_disabled":false,"rental_uris":{"android":"levelo://app?vid=b8fb51f6-c4b6-4d21-ae59-50869a4ac54c","ios":"levelo://app?vid=b8fb51f6-c4b6-4d21-ae59-50869a4ac54c"},"vehicle_type_id":"4","last_reported":1751894786,"current_range_meters":18000,"station_id":"ce4bha12rcd13ifvqef0","pricing_plan_id":"cebpf4jnsgd1na2vs0mg"},{"bike_id":"5f663f1f-def5-40cc-9abe-924bd04570e3","system_id":"levelo_inurba_marseille","lat":43.28414,"lon":5.35007,"is_reserved":false,"is_disabled":false,"rental_uris":{"android":"levelo://app?vid=5f663f1f-def5-40cc-9abe-924bd04570e3","ios":"levelo://app?vid=5f663f1f-def5-40cc-9abe-924bd04570e3"},"vehicle_type_id":"4","last_reported":1751894786,"current_range_meters":18000,"station_id":"ce4bhbh2rcd13ifvqepg","pricing_plan_id":"cebpf4jnsgd1na2vs0mg"},{"bike_id":"a19af955-9f5f-4ebf-9657-f7a0141cb78d","system_id":"levelo_inurba_marseille","lat":43.28417,"lon":5.35009,"is_reserved":false,"is_disabled":false,"rental_uris":{"android":"levelo://app?vid=a19af955-9f5f-4ebf-9657-f7a0141cb78d","ios":"levelo://app?vid=a19af955-9f5f-4ebf-9657-f7a0141cb78d"},"vehicle_type_id":"4","last_reported":1751894786,"current_range_meters":18000,"station_id":"ce4bhbh2rcd13ifvqepg","pricing_plan_id":"cebpf4jnsgd1na2vs0mg"},{"bike_id":"763b8113-1bbb-4af0-8495-9ae246154593","system_id":"levelo_inurba_marseille","lat":43.2439,"lon":5.37067,"is_reserved":false,"is_disabled":false,"rental_uris":{"android":"levelo://app?vid=763b8113-1bbb-4af0-8495-9ae246154593","ios":"levelo://app?vid=763b8113-1bbb-4af0-8495-9ae246154593"},"vehicle_type_id":"4","last_reported":1751894786,"current_range_meters":18000,"station_id":"ce4bhhh2rcd13ifvqfk0","pricing_plan_id":"cebpf4jnsgd1na2vs0mg"},{"bike_id":"dbd89490-a40f-4c2b-a941-5035214e3026","system_id":"levelo_inurba_marseille","lat":43.32035,"lon":5.41577,"is_reserved":false,"is_disabled":false,"rental_uris":{"android":"levelo://app?vid=dbd89490-a40f-4c2b-a941-5035214e3026","ios":"levelo://app?vid=dbd89490-a40f-4c2b-a941-5035214e3026"},"vehicle_type_id":"4","last_reported":1751894786,"current_range_meters":18000,"station_id":"ce4bhq92rcd13ifvqhkg","pricing_plan_id":"cebpf4jnsgd1na2vs0mg"},{"bike_id":"d5ef770d-9759-47e3-b3a5-7d2785ef76db","system_id":"levelo_inurba_marseille","lat":43.32929,"lon":5.39031,"is_reserved":false,"is_disabled":false,"rental_uris":{"android":"levelo://app?vid=d5ef770d-9759-47e3-b3a5-7d2785ef76db","ios":"levelo://app?vid=d5ef770d-9759-47e3-b3a5-7d2785ef76db"},"vehicle_type_id":"4","last_reported":1751894786,"current_range_meters":18800,"station_id":"","pricing_plan_id":"cebpf4jnsgd1na2vs0mg"},{"bike_id":"afd2c671-b274-4716-95f7-9abfdfc6dc55","system_id":"levelo_inurba_marseille","lat":43.314,"lon":5.37543,"is_reserved":false,"is_disabled":false,"rental_uris":{"android":"levelo://app?vid=afd2c671-b274-4716-95f7-9abfdfc6dc55","ios":"levelo://app?vid=afd2c671-b274-4716-95f7-9abfdfc6dc55"},"vehicle_type_id":"4","last_reported":1751894786,"current_range_meters":18800,"station_id":"","pricing_plan_id":"cebpf4jnsgd1na2vs0mg"},{"bike_id":"9db15efa-62b5-43dc-beab-14a16c0840b9","system_id":"levelo_inurba_marseille","lat":43.304524,"lon":5.415534,"is_reserved":false,"is_disabled":false,"rental_uris":{"android":"levelo://app?vid=9db15efa-62b5-43dc-beab-14a16c0840b9","ios":"levelo://app?vid=9db15efa-62b5-43dc-beab-14a16c0840b9"},"vehicle_type_id":"4","last_reported":1751894786,"current_range_meters":18800,"station_id":"","pricing_plan_id":"cebpf4jnsgd1na2vs0mg"},{"bike_id":"0df513a5-66af-4575-9c13-0844e112b6d9","system_id":"levelo_inurba_marseille","lat":43.30185,"lon":5.381,"is_reserved":false,"is_disabled":false,"rental_uris":{"android":"levelo://app?vid=0df513a5-66af-4575-9c13-0844e112b6d9","ios":"levelo://app?vid=0df513a5-66af-4575-9c13-0844e112b6d9"},"vehicle_type_id":"4","last_reported":1751894786,"current_range_meters":18800,"station_id":"ce4bgjp2rcd13ifvqbh0","pricing_plan_id":"cebpf4jnsgd1na2vs0mg"},{"bike_id":"e92b287d-d096-41e8-a8dc-5a20d4e20f73","system_id":"levelo_inurba_marseille","lat":43.2885,"lon":5.3585,"is_reserved":false,"is_disabled":false,"rental_uris":{"android":"levelo://app?vid=e92b287d-d096-41e8-a8dc-5a20d4e20f73","ios":"levelo://app?vid=e92b287d-d096-41e8-a8dc-5a20d4e20f73"},"vehicle_type_id":"4","last_reported":1751894786,"current_range_meters":18800,"station_id":"ce4bhb12rcd13ifvqem0","pricing_plan_id":"cebpf4jnsgd1na2vs0mg"},{"bike_id":"1abe875c-4257-4041-a21e-75938c10a34f","system_id":"levelo_inurba_marseille","lat":43.28417,"lon":5.35015,"is_reserved":false,"is_disabled":false,"rental_uris":{"android":"levelo://app?vid=1abe875c-4257-4041-a21e-75938c10a34f","ios":"levelo://app?vid=1abe875c-4257-4041-a21e-75938c10a34f"},"vehicle_type_id":"4","last_reported":1751894786,"current_range_meters":18800,"station_id":"ce4bhbh2rcd13ifvqepg","pricing_plan_id":"cebpf4jnsgd1na2vs0mg"},{"bike_id":"61c4e156-fdcd-4c46-bb0c-33a3e96b31e2","system_id":"levelo_inurba_marseille","lat":43.27055,"lon":5.40264,"is_reserved":false,"is_disabled":false,"rental_uris":{"android":"levelo://app?vid=61c4e156-fdcd-4c46-bb0c-33a3e96b31e2","ios":"levelo://app?vid=61c4e156-fdcd-4c46-bb0c-33a3e96b31e2"},"vehicle_type_id":"4","last_reported":1751894786,"current_range_meters":18800,"station_id":"ce4bhk92rcd13ifvqgc0","pricing_plan_id":"cebpf4jnsgd1na2vs0mg"},{"bike_id":"ade7b9d5-14f1-47cc-96d8-868ccd10cebb","system_id":"levelo_inurba_marseille","lat":43.23161,"lon":5.43715,"is_reserved":false,"is_disabled":false,"rental_uris":{"android":"levelo://app?vid=ade7b9d5-14f1-47cc-96d8-868ccd10cebb","ios":"levelo://app?vid=ade7b9d5-14f1-47cc-96d8-868ccd10cebb"},"vehicle_type_id":"4","last_reported":1751894786,"current_range_meters":18800,"station_id":"ce4bhmp2rcd13ifvqgog","pricing_plan_id":"cebpf4jnsgd1na2vs0mg"},{"bike_id":"a53c7279-83a0-4c8b-888f-e8653560d40f","system_id":"levelo_inurba_marseille","lat":43.21757,"lon":5.34592,"is_reserved":false,"is_disabled":false,"rental_uris":{"android":"levelo://app?vid=a53c7279-83a0-4c8b-888f-e8653560d40f","ios":"levelo://app?vid=a53c7279-83a0-4c8b-888f-e8653560d40f"},"vehicle_type_id":"4","last_reported":1751894786,"current_range_meters":18800,"station_id":"st_cvj6r9ubvosntc0bgbag","pricing_plan_id":"cebpf4jnsgd1na2vs0mg"},{"bike_id":"51890362-46b0-4ee7-9f02-afbf036d064e","system_id":"levelo_inurba_marseille","lat":43.212121,"lon":5.350752,"is_reserved":false,"is_disabled":false,"rental_uris":{"android":"levelo://app?vid=51890362-46b0-4ee7-9f02-afbf036d064e","ios":"levelo://app?vid=51890362-46b0-4ee7-9f02-afbf036d064e"},"vehicle_type_id":"4","last_reported":1751894786,"current_range_meters":18800,"station_id":"st_cvj6sg6p6f1abm77japg","pricing_plan_id":"cebpf4jnsgd1na2vs0mg"},{"bike_id":"084f14d4-0bc9-446c-902e-a4f3b90135fe","system_id":"levelo_inurba_marseille","lat":43.32441,"lon":5.42894,"is_reserved":false,"is_disabled":false,"rental_uris":{"android":"levelo://app?vid=084f14d4-0bc9-446c-902e-a4f3b90135fe","ios":"levelo://app?vid=084f14d4-0bc9-446c-902e-a4f3b90135fe"},"vehicle_type_id":"4","last_reported":1751894786,"current_range_meters":19200,"station_id":"","pricing_plan_id":"cebpf4jnsgd1na2vs0mg"},{"bike_id":"3c35c1cb-c3a7-4f8d-81dc-c78b3d7ef6f7","system_id":"levelo_inurba_marseille","lat":43.31198,"lon":5.37212,"is_reserved":false,"is_disabled":false,"rental_uris":{"android":"levelo://app?vid=3c35c1cb-c3a7-4f8d-81dc-c78b3d7ef6f7","ios":"levelo://app?vid=3c35c1cb-c3a7-4f8d-81dc-c78b3d7ef6f7"},"vehicle_type_id":"4","last_reported":1751894786,"current_range_meters":19200,"station_id":"","pricing_plan_id":"cebpf4jnsgd1na2vs0mg"},{"bike_id":"6c5735ea-65cd-4641-9b5f-2c92b7fb559b","system_id":"levelo_inurba_marseille","lat":43.30223,"lon":5.36464,"is_reserved":false,"is_disabled":false,"rental_uris":{"android":"levelo://app?vid=6c5735ea-65cd-4641-9b5f-2c92b7fb559b","ios":"levelo://app?vid=6c5735ea-65cd-4641-9b5f-2c92b7fb559b"},"vehicle_type_id":"4","last_reported":1751894786,"current_range_meters":19200,"station_id":"ce4bgrh2rcd13ifvqc8g","pricing_plan_id":"cebpf4jnsgd1na2vs0mg"},{"bike_id":"b9638768-b1c3-4713-a242-c13916ccd459","system_id":"levelo_inurba_marseille","lat":43.25494,"lon":5.37654,"is_reserved":false,"is_disabled":false,"rental_uris":{"android":"levelo://app?vid=b9638768-b1c3-4713-a242-c13916ccd459","ios":"levelo://app?vid=b9638768-b1c3-4713-a242-c13916ccd459"},"vehicle_type_id":"4","last_reported":1751894786,"current_range_meters":19200,"station_id":"ce4bhh12rcd13ifvqff0","pricing_plan_id":"cebpf4jnsgd1na2vs0mg"},{"bike_id":"2f32b583-cdea-4b62-815c-df5393905f47","system_id":"levelo_inurba_marseille","lat":43.27071,"lon":5.42273,"is_reserved":false,"is_disabled":false,"rental_uris":{"android":"levelo://app?vid=2f32b583-cdea-4b62-815c-df5393905f47","ios":"levelo://app?vid=2f32b583-cdea-4b62-815c-df5393905f47"},"vehicle_type_id":"4","last_reported":1751894786,"current_range_meters":19200,"station_id":"ce4bhk92rcd13ifvqgb0","pricing_plan_id":"cebpf4jnsgd1na2vs0mg"},{"bike_id":"b69f9b96-7b81-421c-86c5-3f08c25a1ad5","system_id":"levelo_inurba_marseille","lat":43.29896,"lon":5.43669,"is_reserved":false,"is_disabled":false,"rental_uris":{"android":"levelo://app?vid=b69f9b96-7b81-421c-86c5-3f08c25a1ad5","ios":"levelo://app?vid=b69f9b96-7b81-421c-86c5-3f08c25a1ad5"},"vehicle_type_id":"4","last_reported":1751894786,"current_range_meters":19200,"station_id":"ce4bhpp2rcd13ifvqhfg","pricing_plan_id":"cebpf4jnsgd1na2vs0mg"},{"bike_id":"74d1dd5c-9f07-4c49-948a-3ae0ce476859","system_id":"levelo_inurba_marseille","lat":43.30587,"lon":5.36673,"is_reserved":false,"is_disabled":false,"rental_uris":{"android":"levelo://app?vid=74d1dd5c-9f07-4c49-948a-3ae0ce476859","ios":"levelo://app?vid=74d1dd5c-9f07-4c49-948a-3ae0ce476859"},"vehicle_type_id":"4","last_reported":1751894786,"current_range_meters":19600,"station_id":"","pricing_plan_id":"cebpf4jnsgd1na2vs0mg"},{"bike_id":"87c2d236-4978-4760-be77-27d7f5a212e4","system_id":"levelo_inurba_marseille","lat":43.29644,"lon":5.36205,"is_reserved":false,"is_disabled":false,"rental_uris":{"android":"levelo://app?vid=87c2d236-4978-4760-be77-27d7f5a212e4","ios":"levelo://app?vid=87c2d236-4978-4760-be77-27d7f5a212e4"},"vehicle_type_id":"4","last_reported":1751894786,"current_range_meters":19600,"station_id":"","pricing_plan_id":"cebpf4jnsgd1na2vs0mg"},{"bike_id":"36662ccd-8e40-4f86-99ed-9379d261b428","system_id":"levelo_inurba_marseille","lat":43.30642,"lon":5.40103,"is_reserved":false,"is_disabled":false,"rental_uris":{"android":"levelo://app?vid=36662ccd-8e40-4f86-99ed-9379d261b428","ios":"levelo://app?vid=36662ccd-8e40-4f86-99ed-9379d261b428"},"vehicle_type_id":"4","last_reported":1751894786,"current_range_meters":19600,"station_id":"ce4bh112rcd13ifvqda0","pricing_plan_id":"cebpf4jnsgd1na2vs0mg"},{"bike_id":"5acaf273-406c-4dee-9d8b-470df3958f88","system_id":"levelo_inurba_marseille","lat":43.23967,"lon":5.36631,"is_reserved":false,"is_disabled":false,"rental_uris":{"android":"levelo://app?vid=5acaf273-406c-4dee-9d8b-470df3958f88","ios":"levelo://app?vid=5acaf273-406c-4dee-9d8b-470df3958f88"},"vehicle_type_id":"4","last_reported":1751894786,"current_range_meters":19600,"station_id":"ce4bhi12rcd13ifvqfp0","pricing_plan_id":"cebpf4jnsgd1na2vs0mg"},{"bike_id":"c46f5fa7-8551-4ce7-9ab7-f422c056b332","system_id":"levelo_inurba_marseille","lat":43.3095,"lon":5.390413,"is_reserved":false,"is_disabled":false,"rental_uris":{"android":"levelo://app?vid=c46f5fa7-8551-4ce7-9ab7-f422c056b332","ios":"levelo://app?vid=c46f5fa7-8551-4ce7-9ab7-f422c056b332"},"vehicle_type_id":"4","last_reported":1751894786,"current_range_meters":20000,"station_id":"ce4bgup2rcd13ifvqco0","pricing_plan_id":"cebpf4jnsgd1na2vs0mg"},{"bike_id":"59d0f3f3-6886-48e3-b30c-b08edf68057b","system_id":"levelo_inurba_marseille","lat":43.292013,"lon":5.357938,"is_reserved":false,"is_disabled":false,"rental_uris":{"android":"levelo://app?vid=59d0f3f3-6886-48e3-b30c-b08edf68057b","ios":"levelo://app?vid=59d0f3f3-6886-48e3-b30c-b08edf68057b"},"vehicle_type_id":"4","last_reported":1751894786,"current_range_meters":20000,"station_id":"ce4bhb12rcd13ifvqel0","pricing_plan_id":"cebpf4jnsgd1na2vs0mg"},{"bike_id":"4bd3f177-adbf-4e17-b73f-2b2faa98802f","system_id":"levelo_inurba_marseille","lat":43.28416,"lon":5.34983,"is_reserved":false,"is_disabled":false,"rental_uris":{"android":"levelo://app?vid=4bd3f177-adbf-4e17-b73f-2b2faa98802f","ios":"levelo://app?vid=4bd3f177-adbf-4e17-b73f-2b2faa98802f"},"vehicle_type_id":"4","last_reported":1751894786,"current_range_meters":20000,"station_id":"ce4bhbh2rcd13ifvqepg","pricing_plan_id":"cebpf4jnsgd1na2vs0mg"},{"bike_id":"a2ffd6e6-38b4-4cb8-a4c0-524153e1b208","system_id":"levelo_inurba_marseille","lat":43.288577,"lon":5.358507,"is_reserved":false,"is_disabled":false,"rental_uris":{"android":"levelo://app?vid=a2ffd6e6-38b4-4cb8-a4c0-524153e1b208","ios":"levelo://app?vid=a2ffd6e6-38b4-4cb8-a4c0-524153e1b208"},"vehicle_type_id":"4","last_reported":1751894786,"current_range_meters":20000,"station_id":"ce4bhc92rcd13ifvqetg","pricing_plan_id":"cebpf4jnsgd1na2vs0mg"},{"bike_id":"8b735b5d-e576-4f89-bcea-2d063effe603","system_id":"levelo_inurba_marseille","lat":43.32463,"lon":5.36572,"is_reserved":false,"is_disabled":false,"rental_uris":{"android":"levelo://app?vid=8b735b5d-e576-4f89-bcea-2d063effe603","ios":"levelo://app?vid=8b735b5d-e576-4f89-bcea-2d063effe603"},"vehicle_type_id":"4","last_reported":1751894786,"current_range_meters":20000,"station_id":"ce4bhs12rcd13ifvqhvg","pricing_plan_id":"cebpf4jnsgd1na2vs0mg"},{"bike_id":"17305cf0-7079-45f0-9183-900c08dd7439","system_id":"levelo_inurba_marseille","lat":43.2175,"lon":5.34592,"is_reserved":false,"is_disabled":false,"rental_uris":{"android":"levelo://app?vid=17305cf0-7079-45f0-9183-900c08dd7439","ios":"levelo://app?vid=17305cf0-7079-45f0-9183-900c08dd7439"},"vehicle_type_id":"4","last_reported":1751894786,"current_range_meters":20000,"station_id":"st_cvj6r9ubvosntc0bgbag","pricing_plan_id":"cebpf4jnsgd1na2vs0mg"},{"bike_id":"a7c9f70f-9a0d-416c-b8fd-c3c4e2af0fcb","system_id":"levelo_inurba_marseille","lat":43.21755,"lon":5.34587,"is_reserved":false,"is_disabled":false,"rental_uris":{"android":"levelo://app?vid=a7c9f70f-9a0d-416c-b8fd-c3c4e2af0fcb","ios":"levelo://app?vid=a7c9f70f-9a0d-416c-b8fd-c3c4e2af0fcb"},"vehicle_type_id":"4","last_reported":1751894786,"current_range_meters":20000,"station_id":"st_cvj6r9ubvosntc0bgbag","pricing_plan_id":"cebpf4jnsgd1na2vs0mg"},{"bike_id":"7bc40799-4d98-4add-878b-2d4bbdf7d5d0","system_id":"levelo_inurba_marseille","lat":43.27912,"lon":5.39581,"is_reserved":false,"is_disabled":false,"rental_uris":{"android":"levelo://app?vid=7bc40799-4d98-4add-878b-2d4bbdf7d5d0","ios":"levelo://app?vid=7bc40799-4d98-4add-878b-2d4bbdf7d5d0"},"vehicle_type_id":"4","last_reported":1751894786,"current_range_meters":20400,"station_id":"ce4bhf92rcd13ifvqf40","pricing_plan_id":"cebpf4jnsgd1na2vs0mg"},{"bike_id":"e59e19b7-a7e9-420d-80ef-2f5d3c7b61ef","system_id":"levelo_inurba_marseille","lat":43.27065,"lon":5.42269,"is_reserved":false,"is_disabled":false,"rental_uris":{"android":"levelo://app?vid=e59e19b7-a7e9-420d-80ef-2f5d3c7b61ef","ios":"levelo://app?vid=e59e19b7-a7e9-420d-80ef-2f5d3c7b61ef"},"vehicle_type_id":"4","last_reported":1751894786,"current_range_meters":20400,"station_id":"ce4bhk92rcd13ifvqgb0","pricing_plan_id":"cebpf4jnsgd1na2vs0mg"},{"bike_id":"35d41f41-e942-42c5-97f1-40ccdd96f7a4","system_id":"levelo_inurba_marseille","lat":43.21178,"lon":5.35065,"is_reserved":false,"is_disabled":false,"rental_uris":{"android":"levelo://app?vid=35d41f41-e942-42c5-97f1-40ccdd96f7a4","ios":"levelo://app?vid=35d41f41-e942-42c5-97f1-40ccdd96f7a4"},"vehicle_type_id":"4","last_reported":1751894786,"current_range_meters":20400,"station_id":"st_cvj6sg6p6f1abm77japg","pricing_plan_id":"cebpf4jnsgd1na2vs0mg"},{"bike_id":"e9149345-b187-4ff3-9a0b-18f140b11325","system_id":"levelo_inurba_marseille","lat":43.29628,"lon":5.37714,"is_reserved":false,"is_disabled":false,"rental_uris":{"android":"levelo://app?vid=e9149345-b187-4ff3-9a0b-18f140b11325","ios":"levelo://app?vid=e9149345-b187-4ff3-9a0b-18f140b11325"},"vehicle_type_id":"4","last_reported":1751894786,"current_range_meters":20800,"station_id":"ce4bgi92rcd13ifvqb90","pricing_plan_id":"cebpf4jnsgd1na2vs0mg"},{"bike_id":"a47544c5-a040-458b-a9a8-1d25288c3c8b","system_id":"levelo_inurba_marseille","lat":43.30531,"lon":5.36719,"is_reserved":false,"is_disabled":false,"rental_uris":{"android":"levelo://app?vid=a47544c5-a040-458b-a9a8-1d25288c3c8b","ios":"levelo://app?vid=a47544c5-a040-458b-a9a8-1d25288c3c8b"},"vehicle_type_id":"4","last_reported":1751894786,"current_range_meters":20800,"station_id":"ce4bgrp2rcd13ifvqc9g","pricing_plan_id":"cebpf4jnsgd1na2vs0mg"},{"bike_id":"3e6756b1-2361-47a8-b9f5-97e9753f0d77","system_id":"levelo_inurba_marseille","lat":43.3089,"lon":5.37185,"is_reserved":false,"is_disabled":false,"rental_uris":{"android":"levelo://app?vid=3e6756b1-2361-47a8-b9f5-97e9753f0d77","ios":"levelo://app?vid=3e6756b1-2361-47a8-b9f5-97e9753f0d77"},"vehicle_type_id":"4","last_reported":1751894786,"current_range_meters":20800,"station_id":"ce4bguh2rcd13ifvqckg","pricing_plan_id":"cebpf4jnsgd1na2vs0mg"},{"bike_id":"d5a61851-9430-4206-b95f-26e7d53a641f","system_id":"levelo_inurba_marseille","lat":43.28415,"lon":5.34986,"is_reserved":false,"is_disabled":false,"rental_uris":{"android":"levelo://app?vid=d5a61851-9430-4206-b95f-26e7d53a641f","ios":"levelo://app?vid=d5a61851-9430-4206-b95f-26e7d53a641f"},"vehicle_type_id":"4","last_reported":1751894786,"current_range_meters":20800,"station_id":"ce4bhbh2rcd13ifvqepg","pricing_plan_id":"cebpf4jnsgd1na2vs0mg"},{"bike_id":"2695c39e-6304-4770-aa91-558309af57af","system_id":"levelo_inurba_marseille","lat":43.27989,"lon":5.40018,"is_reserved":false,"is_disabled":false,"rental_uris":{"android":"levelo://app?vid=2695c39e-6304-4770-aa91-558309af57af","ios":"levelo://app?vid=2695c39e-6304-4770-aa91-558309af57af"},"vehicle_type_id":"4","last_reported":1751894786,"current_range_meters":20800,"station_id":"ce4bho92rcd13ifvqh4g","pricing_plan_id":"cebpf4jnsgd1na2vs0mg"},{"bike_id":"43014856-d8b6-4a20-b8e7-d4bd45434099","system_id":"levelo_inurba_marseille","lat":43.29931,"lon":5.37456,"is_reserved":false,"is_disabled":false,"rental_uris":{"android":"levelo://app?vid=43014856-d8b6-4a20-b8e7-d4bd45434099","ios":"levelo://app?vid=43014856-d8b6-4a20-b8e7-d4bd45434099"},"vehicle_type_id":"4","last_reported":1751894786,"current_range_meters":21600,"station_id":"ce4bgjh2rcd13ifvqbg0","pricing_plan_id":"cebpf4jnsgd1na2vs0mg"},{"bike_id":"a8186e13-8322-472a-8a33-490343db9ddd","system_id":"levelo_inurba_marseille","lat":43.308976,"lon":5.37211,"is_reserved":false,"is_disabled":false,"rental_uris":{"android":"levelo://app?vid=a8186e13-8322-472a-8a33-490343db9ddd","ios":"levelo://app?vid=a8186e13-8322-472a-8a33-490343db9ddd"},"vehicle_type_id":"4","last_reported":1751894786,"current_range_meters":21600,"station_id":"ce4bguh2rcd13ifvqckg","pricing_plan_id":"cebpf4jnsgd1na2vs0mg"},{"bike_id":"31d0e433-68bf-4957-b424-ed52a22f117f","system_id":"levelo_inurba_marseille","lat":43.27069,"lon":5.42277,"is_reserved":false,"is_disabled":false,"rental_uris":{"android":"levelo://app?vid=31d0e433-68bf-4957-b424-ed52a22f117f","ios":"levelo://app?vid=31d0e433-68bf-4957-b424-ed52a22f117f"},"vehicle_type_id":"4","last_reported":1751894786,"current_range_meters":21600,"station_id":"ce4bhk92rcd13ifvqgb0","pricing_plan_id":"cebpf4jnsgd1na2vs0mg"},{"bike_id":"b287377f-3d0b-47ac-86fe-9e0dfc1563de","system_id":"levelo_inurba_marseille","lat":43.22509,"lon":5.34764,"is_reserved":false,"is_disabled":false,"rental_uris":{"android":"levelo://app?vid=b287377f-3d0b-47ac-86fe-9e0dfc1563de","ios":"levelo://app?vid=b287377f-3d0b-47ac-86fe-9e0dfc1563de"},"vehicle_type_id":"4","last_reported":1751894786,"current_range_meters":21600,"station_id":"st_cvj5dfep6f1abm77gieg","pricing_plan_id":"cebpf4jnsgd1na2vs0mg"},{"bike_id":"57c07147-b63f-40b2-bcf5-0f1855fbf810","system_id":"levelo_inurba_marseille","lat":43.30733,"lon":5.42441,"is_reserved":false,"is_disabled":false,"rental_uris":{"android":"levelo://app?vid=57c07147-b63f-40b2-bcf5-0f1855fbf810","ios":"levelo://app?vid=57c07147-b63f-40b2-bcf5-0f1855fbf810"},"vehicle_type_id":"4","last_reported":1751894786,"current_range_meters":21600,"station_id":"st_cvj6ca6bvosntc0bfgr0","pricing_plan_id":"cebpf4jnsgd1na2vs0mg"},{"bike_id":"ed782019-9dcd-4526-ae3c-daaef3355e7f","system_id":"levelo_inurba_marseille","lat":43.295593,"lon":5.377101,"is_reserved":false,"is_disabled":false,"rental_uris":{"android":"levelo://app?vid=ed782019-9dcd-4526-ae3c-daaef3355e7f","ios":"levelo://app?vid=ed782019-9dcd-4526-ae3c-daaef3355e7f"},"vehicle_type_id":"4","last_reported":1751894786,"current_range_meters":22000,"station_id":"","pricing_plan_id":"cebpf4jnsgd1na2vs0mg"},{"bike_id":"ea7df389-5dc0-4c58-88fe-80a5af035925","system_id":"levelo_inurba_marseille","lat":43.29865,"lon":5.36404,"is_reserved":false,"is_disabled":false,"rental_uris":{"android":"levelo://app?vid=ea7df389-5dc0-4c58-88fe-80a5af035925","ios":"levelo://app?vid=ea7df389-5dc0-4c58-88fe-80a5af035925"},"vehicle_type_id":"4","last_reported":1751894786,"current_range_meters":22000,"station_id":"","pricing_plan_id":"cebpf4jnsgd1na2vs0mg"},{"bike_id":"e99e02f4-258b-4712-92ab-f388b0d6522d","system_id":"levelo_inurba_marseille","lat":43.31489,"lon":5.37312,"is_reserved":false,"is_disabled":false,"rental_uris":{"android":"levelo://app?vid=e99e02f4-258b-4712-92ab-f388b0d6522d","ios":"levelo://app?vid=e99e02f4-258b-4712-92ab-f388b0d6522d"},"vehicle_type_id":"4","last_reported":1751894786,"current_range_meters":22000,"station_id":"ce4bgt12rcd13ifvqcd0","pricing_plan_id":"cebpf4jnsgd1na2vs0mg"},{"bike_id":"04ddb39f-5329-4faf-a8d4-89e956b7cfff","system_id":"levelo_inurba_marseille","lat":43.288522,"lon":5.358506,"is_reserved":false,"is_disabled":false,"rental_uris":{"android":"levelo://app?vid=04ddb39f-5329-4faf-a8d4-89e956b7cfff","ios":"levelo://app?vid=04ddb39f-5329-4faf-a8d4-89e956b7cfff"},"vehicle_type_id":"4","last_reported":1751894786,"current_range_meters":22000,"station_id":"ce4bhb12rcd13ifvqem0","pricing_plan_id":"cebpf4jnsgd1na2vs0mg"},{"bike_id":"0cc3231e-ffee-4111-bbf5-1fd80b1e8f64","system_id":"levelo_inurba_marseille","lat":43.28856,"lon":5.35846,"is_reserved":false,"is_disabled":false,"rental_uris":{"android":"levelo://app?vid=0cc3231e-ffee-4111-bbf5-1fd80b1e8f64","ios":"levelo://app?vid=0cc3231e-ffee-4111-bbf5-1fd80b1e8f64"},"vehicle_type_id":"4","last_reported":1751894786,"current_range_meters":22000,"station_id":"ce4bhb12rcd13ifvqem0","pricing_plan_id":"cebpf4jnsgd1na2vs0mg"},{"bike_id":"eb14a77b-ea13-44ef-9ee9-529373799a18","system_id":"levelo_inurba_marseille","lat":43.29002,"lon":5.35622,"is_reserved":false,"is_disabled":false,"rental_uris":{"android":"levelo://app?vid=eb14a77b-ea13-44ef-9ee9-529373799a18","ios":"levelo://app?vid=eb14a77b-ea13-44ef-9ee9-529373799a18"},"vehicle_type_id":"4","last_reported":1751894786,"current_range_meters":22000,"station_id":"ce4bhb92rcd13ifvqen0","pricing_plan_id":"cebpf4jnsgd1na2vs0mg"},{"bike_id":"bd6303a2-ef52-4150-9c09-9a5c7de14d40","system_id":"levelo_inurba_marseille","lat":43.28426,"lon":5.34994,"is_reserved":false,"is_disabled":false,"rental_uris":{"android":"levelo://app?vid=bd6303a2-ef52-4150-9c09-9a5c7de14d40","ios":"levelo://app?vid=bd6303a2-ef52-4150-9c09-9a5c7de14d40"},"vehicle_type_id":"4","last_reported":1751894786,"current_range_meters":22000,"station_id":"ce4bhbh2rcd13ifvqepg","pricing_plan_id":"cebpf4jnsgd1na2vs0mg"},{"bike_id":"da3c16a7-1722-44ec-a60c-bdcaac1fbdad","system_id":"levelo_inurba_marseille","lat":43.2862,"lon":5.35102,"is_reserved":false,"is_disabled":false,"rental_uris":{"android":"levelo://app?vid=da3c16a7-1722-44ec-a60c-bdcaac1fbdad","ios":"levelo://app?vid=da3c16a7-1722-44ec-a60c-bdcaac1fbdad"},"vehicle_type_id":"4","last_reported":1751894786,"current_range_meters":22000,"station_id":"ce4bhch2rcd13ifvqeug","pricing_plan_id":"cebpf4jnsgd1na2vs0mg"},{"bike_id":"d393a2f7-ad4d-4812-95e9-d17aff84fe5a","system_id":"levelo_inurba_marseille","lat":43.27569,"lon":5.38413,"is_reserved":false,"is_disabled":false,"rental_uris":{"android":"levelo://app?vid=d393a2f7-ad4d-4812-95e9-d17aff84fe5a","ios":"levelo://app?vid=d393a2f7-ad4d-4812-95e9-d17aff84fe5a"},"vehicle_type_id":"4","last_reported":1751894786,"current_range_meters":22000,"station_id":"ce4bhh92rcd13ifvqfi0","pricing_plan_id":"cebpf4jnsgd1na2vs0mg"},{"bike_id":"83ff54ab-c809-4d0a-86fe-6aad4247cd2e","system_id":"levelo_inurba_marseille","lat":43.3046,"lon":5.379,"is_reserved":false,"is_disabled":false,"rental_uris":{"android":"levelo://app?vid=83ff54ab-c809-4d0a-86fe-6aad4247cd2e","ios":"levelo://app?vid=83ff54ab-c809-4d0a-86fe-6aad4247cd2e"},"vehicle_type_id":"4","last_reported":1751894786,"current_range_meters":22400,"station_id":"ce4bgup2rcd13ifvqcn0","pricing_plan_id":"cebpf4jnsgd1na2vs0mg"},{"bike_id":"86dc0b6b-e6fa-4351-8340-aa79ee1bb335","system_id":"levelo_inurba_marseille","lat":43.30375,"lon":5.42488,"is_reserved":false,"is_disabled":false,"rental_uris":{"android":"levelo://app?vid=86dc0b6b-e6fa-4351-8340-aa79ee1bb335","ios":"levelo://app?vid=86dc0b6b-e6fa-4351-8340-aa79ee1bb335"},"vehicle_type_id":"4","last_reported":1751894786,"current_range_meters":22400,"station_id":"ce4bhoh2rcd13ifvqh6g","pricing_plan_id":"cebpf4jnsgd1na2vs0mg"},{"bike_id":"f5c16f07-bc6f-4121-91a7-5ad90eec4f34","system_id":"levelo_inurba_marseille","lat":43.31199,"lon":5.37332,"is_reserved":false,"is_disabled":false,"rental_uris":{"android":"levelo://app?vid=f5c16f07-bc6f-4121-91a7-5ad90eec4f34","ios":"levelo://app?vid=f5c16f07-bc6f-4121-91a7-5ad90eec4f34"},"vehicle_type_id":"4","last_reported":1751894786,"current_range_meters":22800,"station_id":"","pricing_plan_id":"cebpf4jnsgd1na2vs0mg"},{"bike_id":"a85af722-0f66-4468-94a6-76375f5561a0","system_id":"levelo_inurba_marseille","lat":43.30549,"lon":5.36559,"is_reserved":false,"is_disabled":false,"rental_uris":{"android":"levelo://app?vid=a85af722-0f66-4468-94a6-76375f5561a0","ios":"levelo://app?vid=a85af722-0f66-4468-94a6-76375f5561a0"},"vehicle_type_id":"4","last_reported":1751894786,"current_range_meters":22800,"station_id":"ce4bgs12rcd13ifvqcag","pricing_plan_id":"cebpf4jnsgd1na2vs0mg"},{"bike_id":"01710e0b-24ed-4af2-9568-94f98c9e5610","system_id":"levelo_inurba_marseille","lat":43.30803,"lon":5.38163,"is_reserved":false,"is_disabled":false,"rental_uris":{"android":"levelo://app?vid=01710e0b-24ed-4af2-9568-94f98c9e5610","ios":"levelo://app?vid=01710e0b-24ed-4af2-9568-94f98c9e5610"},"vehicle_type_id":"4","last_reported":1751894786,"current_range_meters":22800,"station_id":"ce4bgt12rcd13ifvqce0","pricing_plan_id":"cebpf4jnsgd1na2vs0mg"},{"bike_id":"4d204027-e58f-4770-9c2e-43b395582ed1","system_id":"levelo_inurba_marseille","lat":43.30929,"lon":5.4014,"is_reserved":false,"is_disabled":false,"rental_uris":{"android":"levelo://app?vid=4d204027-e58f-4770-9c2e-43b395582ed1","ios":"levelo://app?vid=4d204027-e58f-4770-9c2e-43b395582ed1"},"vehicle_type_id":"4","last_reported":1751894786,"current_range_meters":22800,"station_id":"ce4bgvp2rcd13ifvqct0","pricing_plan_id":"cebpf4jnsgd1na2vs0mg"},{"bike_id":"ae31bc78-9a84-416a-972b-472a37d4201a","system_id":"levelo_inurba_marseille","lat":43.23172,"lon":5.43759,"is_reserved":false,"is_disabled":false,"rental_uris":{"android":"levelo://app?vid=ae31bc78-9a84-416a-972b-472a37d4201a","ios":"levelo://app?vid=ae31bc78-9a84-416a-972b-472a37d4201a"},"vehicle_type_id":"4","last_reported":1751894786,"current_range_meters":22800,"station_id":"ce4bhmp2rcd13ifvqgog","pricing_plan_id":"cebpf4jnsgd1na2vs0mg"},{"bike_id":"e4793d5e-b4cd-4c12-b9d4-446cb97752b9","system_id":"levelo_inurba_marseille","lat":43.292745,"lon":5.39054,"is_reserved":false,"is_disabled":false,"rental_uris":{"android":"levelo://app?vid=e4793d5e-b4cd-4c12-b9d4-446cb97752b9","ios":"levelo://app?vid=e4793d5e-b4cd-4c12-b9d4-446cb97752b9"},"vehicle_type_id":"4","last_reported":1751894786,"current_range_meters":23200,"station_id":"","pricing_plan_id":"cebpf4jnsgd1na2vs0mg"},{"bike_id":"7d189fb6-c2de-46be-aa41-a048bc00b4f1","system_id":"levelo_inurba_marseille","lat":43.29639,"lon":5.3739,"is_reserved":false,"is_disabled":false,"rental_uris":{"android":"levelo://app?vid=7d189fb6-c2de-46be-aa41-a048bc00b4f1","ios":"levelo://app?vid=7d189fb6-c2de-46be-aa41-a048bc00b4f1"},"vehicle_type_id":"4","last_reported":1751894786,"current_range_meters":23200,"station_id":"","pricing_plan_id":"cebpf4jnsgd1na2vs0mg"},{"bike_id":"85c869be-8b3b-4de5-9502-845006a8d9a7","system_id":"levelo_inurba_marseille","lat":43.28355,"lon":5.38117,"is_reserved":false,"is_disabled":false,"rental_uris":{"android":"levelo://app?vid=85c869be-8b3b-4de5-9502-845006a8d9a7","ios":"levelo://app?vid=85c869be-8b3b-4de5-9502-845006a8d9a7"},"vehicle_type_id":"4","last_reported":1751894786,"current_range_meters":23200,"station_id":"ce4bh412rcd13ifvqdr0","pricing_plan_id":"cebpf4jnsgd1na2vs0mg"},{"bike_id":"cc1b2903-dac3-4bba-a0d6-c28034bf4a29","system_id":"levelo_inurba_marseille","lat":43.28425,"lon":5.34991,"is_reserved":false,"is_disabled":false,"rental_uris":{"android":"levelo://app?vid=cc1b2903-dac3-4bba-a0d6-c28034bf4a29","ios":"levelo://app?vid=cc1b2903-dac3-4bba-a0d6-c28034bf4a29"},"vehicle_type_id":"4","last_reported":1751894786,"current_range_meters":23200,"station_id":"ce4bhbh2rcd13ifvqepg","pricing_plan_id":"cebpf4jnsgd1na2vs0mg"},{"bike_id":"a97200b5-1476-4b36-93cf-5e275f32ebf6","system_id":"levelo_inurba_marseille","lat":43.24526,"lon":5.39544,"is_reserved":false,"is_disabled":false,"rental_uris":{"android":"levelo://app?vid=a97200b5-1476-4b36-93cf-5e275f32ebf6","ios":"levelo://app?vid=a97200b5-1476-4b36-93cf-5e275f32ebf6"},"vehicle_type_id":"4","last_reported":1751894786,"current_range_meters":23200,"station_id":"ce4bhlp2rcd13ifvqgjg","pricing_plan_id":"cebpf4jnsgd1na2vs0mg"},{"bike_id":"d6d0ea9c-a8ce-4c5c-8cc1-bbb995dc1da8","system_id":"levelo_inurba_marseille","lat":43.21764,"lon":5.34615,"is_reserved":false,"is_disabled":false,"rental_uris":{"android":"levelo://app?vid=d6d0ea9c-a8ce-4c5c-8cc1-bbb995dc1da8","ios":"levelo://app?vid=d6d0ea9c-a8ce-4c5c-8cc1-bbb995dc1da8"},"vehicle_type_id":"4","last_reported":1751894786,"current_range_meters":23200,"station_id":"st_cvj6r9ubvosntc0bgbag","pricing_plan_id":"cebpf4jnsgd1na2vs0mg"},{"bike_id":"dd424475-1b09-4cb5-b79b-f20728299dd6","system_id":"levelo_inurba_marseille","lat":43.212003,"lon":5.350861,"is_reserved":false,"is_disabled":false,"rental_uris":{"android":"levelo://app?vid=dd424475-1b09-4cb5-b79b-f20728299dd6","ios":"levelo://app?vid=dd424475-1b09-4cb5-b79b-f20728299dd6"},"vehicle_type_id":"4","last_reported":1751894786,"current_range_meters":23200,"station_id":"st_cvj6sg6p6f1abm77japg","pricing_plan_id":"cebpf4jnsgd1na2vs0mg"},{"bike_id":"06feb6af-5eb5-49ba-8d41-8d2f4dbe1ee1","system_id":"levelo_inurba_marseille","lat":43.2994,"lon":5.36562,"is_reserved":false,"is_disabled":false,"rental_uris":{"android":"levelo://app?vid=06feb6af-5eb5-49ba-8d41-8d2f4dbe1ee1","ios":"levelo://app?vid=06feb6af-5eb5-49ba-8d41-8d2f4dbe1ee1"},"vehicle_type_id":"4","last_reported":1751894786,"current_range_meters":24000,"station_id":"","pricing_plan_id":"cebpf4jnsgd1na2vs0mg"},{"bike_id":"c2b72fe0-bae6-4c7b-ad48-9e771b203dc8","system_id":"levelo_inurba_marseille","lat":43.313608,"lon":5.384764,"is_reserved":false,"is_disabled":false,"rental_uris":{"android":"levelo://app?vid=c2b72fe0-bae6-4c7b-ad48-9e771b203dc8","ios":"levelo://app?vid=c2b72fe0-bae6-4c7b-ad48-9e771b203dc8"},"vehicle_type_id":"4","last_reported":1751894786,"current_range_meters":24000,"station_id":"ce4bgt92rcd13ifvqcf0","pricing_plan_id":"cebpf4jnsgd1na2vs0mg"},{"bike_id":"9ced161e-3397-4ef7-87bd-1b22305f26da","system_id":"levelo_inurba_marseille","lat":43.28617,"lon":5.35104,"is_reserved":false,"is_disabled":false,"rental_uris":{"android":"levelo://app?vid=9ced161e-3397-4ef7-87bd-1b22305f26da","ios":"levelo://app?vid=9ced161e-3397-4ef7-87bd-1b22305f26da"},"vehicle_type_id":"4","last_reported":1751894786,"current_range_meters":24000,"station_id":"ce4bhch2rcd13ifvqeug","pricing_plan_id":"cebpf4jnsgd1na2vs0mg"},{"bike_id":"5f8b9873-c24e-4d59-bd4a-ceca6ad0b28f","system_id":"levelo_inurba_marseille","lat":43.28613,"lon":5.35101,"is_reserved":false,"is_disabled":false,"rental_uris":{"android":"levelo://app?vid=5f8b9873-c24e-4d59-bd4a-ceca6ad0b28f","ios":"levelo://app?vid=5f8b9873-c24e-4d59-bd4a-ceca6ad0b28f"},"vehicle_type_id":"4","last_reported":1751894786,"current_range_meters":24000,"station_id":"ce4bhch2rcd13ifvqeug","pricing_plan_id":"cebpf4jnsgd1na2vs0mg"},{"bike_id":"b9db5413-8f28-44af-8e46-5d1e6200cdce","system_id":"levelo_inurba_marseille","lat":43.30354,"lon":5.41884,"is_reserved":false,"is_disabled":false,"rental_uris":{"android":"levelo://app?vid=b9db5413-8f28-44af-8e46-5d1e6200cdce","ios":"levelo://app?vid=b9db5413-8f28-44af-8e46-5d1e6200cdce"},"vehicle_type_id":"4","last_reported":1751894786,"current_range_meters":24000,"station_id":"ce4bhop2rcd13ifvqh7g","pricing_plan_id":"cebpf4jnsgd1na2vs0mg"},{"bike_id":"56eb3fdf-ea87-4fcf-85df-3680fa66363e","system_id":"levelo_inurba_marseille","lat":43.22507,"lon":5.34783,"is_reserved":false,"is_disabled":false,"rental_uris":{"android":"levelo://app?vid=56eb3fdf-ea87-4fcf-85df-3680fa66363e","ios":"levelo://app?vid=56eb3fdf-ea87-4fcf-85df-3680fa66363e"},"vehicle_type_id":"4","last_reported":1751894786,"current_range_meters":24000,"station_id":"st_cvj5dfep6f1abm77gieg","pricing_plan_id":"cebpf4jnsgd1na2vs0mg"},{"bike_id":"1e91cee9-7d4a-458c-9805-68ef6c30eb40","system_id":"levelo_inurba_marseille","lat":43.217576,"lon":5.346054,"is_reserved":false,"is_disabled":false,"rental_uris":{"android":"levelo://app?vid=1e91cee9-7d4a-458c-9805-68ef6c30eb40","ios":"levelo://app?vid=1e91cee9-7d4a-458c-9805-68ef6c30eb40"},"vehicle_type_id":"4","last_reported":1751894786,"current_range_meters":24000,"station_id":"st_cvj6r9ubvosntc0bgbag","pricing_plan_id":"cebpf4jnsgd1na2vs0mg"},{"bike_id":"bbca0986-aa7a-4363-940e-5dd8032bf40e","system_id":"levelo_inurba_marseille","lat":43.21753,"lon":5.34601,"is_reserved":false,"is_disabled":false,"rental_uris":{"android":"levelo://app?vid=bbca0986-aa7a-4363-940e-5dd8032bf40e","ios":"levelo://app?vid=bbca0986-aa7a-4363-940e-5dd8032bf40e"},"vehicle_type_id":"4","last_reported":1751894786,"current_range_meters":24000,"station_id":"st_cvj6r9ubvosntc0bgbag","pricing_plan_id":"cebpf4jnsgd1na2vs0mg"},{"bike_id":"d0f90c24-dd03-411b-9731-55305f76b7c8","system_id":"levelo_inurba_marseille","lat":43.21199,"lon":5.35091,"is_reserved":false,"is_disabled":false,"rental_uris":{"android":"levelo://app?vid=d0f90c24-dd03-411b-9731-55305f76b7c8","ios":"levelo://app?vid=d0f90c24-dd03-411b-9731-55305f76b7c8"},"vehicle_type_id":"4","last_reported":1751894786,"current_range_meters":24000,"station_id":"st_cvj6sg6p6f1abm77japg","pricing_plan_id":"cebpf4jnsgd1na2vs0mg"},{"bike_id":"c026958a-2c62-4268-9db7-7205b4cc9322","system_id":"levelo_inurba_marseille","lat":43.21257,"lon":5.35021,"is_reserved":false,"is_disabled":false,"rental_uris":{"android":"levelo://app?vid=c026958a-2c62-4268-9db7-7205b4cc9322","ios":"levelo://app?vid=c026958a-2c62-4268-9db7-7205b4cc9322"},"vehicle_type_id":"4","last_reported":1751894786,"current_range_meters":24400,"station_id":"","pricing_plan_id":"cebpf4jnsgd1na2vs0mg"},{"bike_id":"b2caa530-bb19-4cc6-a6bd-61e3e1d7432e","system_id":"levelo_inurba_marseille","lat":43.33763,"lon":5.37461,"is_reserved":false,"is_disabled":false,"rental_uris":{"android":"levelo://app?vid=b2caa530-bb19-4cc6-a6bd-61e3e1d7432e","ios":"levelo://app?vid=b2caa530-bb19-4cc6-a6bd-61e3e1d7432e"},"vehicle_type_id":"4","last_reported":1751894786,"current_range_meters":24400,"station_id":"","pricing_plan_id":"cebpf4jnsgd1na2vs0mg"},