{"last_updated":1742573508,"ttl":60,"version":"2.2","data":{"bikes":[{"bike_id":"a8b8dae1-87ef-4f8a-a2c8-fe9fd9bf0f77","system_id":"levelo_inurba_marseille","lat":43.23672,"lon":5.37767,"is_reserved":false,"is_disabled":false,"rental_uris":{"android":"levelo://app?vid=a8b8dae1-87ef-4f8a-a2c8-fe9fd9bf0f77","ios":"levelo://app?vid=a8b8dae1-87ef-4f8a-a2c8-fe9fd9bf0f77"},"vehicle_type_id":"4","last_reported":1742573508,"current_range_meters":2800,"station_id":"","pricing_plan_id":"cebpf4jnsgd1na2vs0mg"},{"bike_id":"6ca743f8-53c0-4646-a596-f133d9e729be","system_id":"levelo_inurba_marseille","lat":43.29571,"lon":5.37511,"is_reserved":false,"is_disabled":false,"rental_uris":{"android":"levelo://app?vid=6ca743f8-53c0-4646-a596-f133d9e729be","ios":"levelo://app?vid=6ca743f8-53c0-4646-a596-f133d9e729be"},"vehicle_type_id":"4","last_reported":1742573508,"current_range_meters":2800,"station_id":"ce4bgh92rcd13ifvqb50","pricing_plan_id":"cebpf4jnsgd1na2vs0mg"},{"bike_id":"d4dda121-43e5-4339-aaaa-dffb0965c131","system_id":"levelo_inurba_marseille","lat":43.30467,"lon":5.37907,"is_reserved":false,"is_disabled":false,"rental_uris":{"android":"levelo://app?vid=d4dda121-43e5-4339-aaaa-dffb0965c131","ios":"levelo://app?vid=d4dda121-43e5-4339-aaaa-dffb0965c131"},"vehicle_type_id":"4","last_reported":1742573508,"current_range_meters":2800,"station_id":"ce4bgup2rcd13ifvqcn0","pricing_plan_id":"cebpf4jnsgd1na2vs0mg"},{"bike_id":"e7beacb2-86ba-4300-9382-bead5c5544e8","system_id":"levelo_inurba_marseille","lat":43.26556,"lon":5.37273,"is_reserved":false,"is_disabled":false,"rental_uris":{"android":"levelo://app?vid=e7beacb2-86ba-4300-9382-bead5c5544e8","ios":"levelo://app?vid=e7beacb2-86ba-4300-9382-bead5c5544e8"},"vehicle_type_id":"4","last_reported":1742573508,"current_range_meters":3200,"station_id":"ce4bhg12rcd13ifvqf70","pricing_plan_id":"cebpf4jnsgd1na2vs0mg"},{"bike_id":"1464a903-a11a-448a-9a87-e10526b28969","system_id":"levelo_inurba_marseille","lat":43.30558,"lon":5.36533,"is_reserved":false,"is_disabled":false,"rental_uris":{"android":"levelo://app?vid=1464a903-a11a-448a-9a87-e10526b28969","ios":"levelo://app?vid=1464a903-a11a-448a-9a87-e10526b28969"},"vehicle_type_id":"4","last_reported":1742573508,"current_range_meters":3200,"station_id":"ce4bgs12rcd13ifvqcag","pricing_plan_id":"cebpf4jnsgd1na2vs0mg"},{"bike_id":"5fa43231-e63c-4e20-9b69-e53f24eed317","system_id":"levelo_inurba_marseille","lat":43.24648,"lon":5.3889,"is_reserved":false,"is_disabled":true,"rental_uris":{"android":"levelo://app?vid=5fa43231-e63c-4e20-9b69-e53f24eed317","ios":"levelo://app?vid=5fa43231-e63c-4e20-9b69-e53f24eed317"},"vehicle_type_id":"4","last_reported":1742573508,"current_range_meters":3600,"station_id":"ce4bhg12rcd13ifvqf60","pricing_plan_id":"cebpf4jnsgd1na2vs0mg"},{"bike_id":"6b93b44c-e31e-44a7-8dbd-f5f16760eace","system_id":"levelo_inurba_marseille","lat":43.28967,"lon":5.37842,"is_reserved":false,"is_disabled":false,"rental_uris":{"android":"levelo://app?vid=6b93b44c-e31e-44a7-8dbd-f5f16760eace","ios":"levelo://app?vid=6b93b44c-e31e-44a7-8dbd-f5f16760eace"},"vehicle_type_id":"4","last_reported":1742573508,"current_range_meters":3600,"station_id":"ce4bh9p2rcd13ifvqed0","pricing_plan_id":"cebpf4jnsgd1na2vs0mg"},{"bike_id":"5d28bce7-ab1a-4e8b-ae70-12e427a81793","system_id":"levelo_inurba_marseille","lat":43.24178,"lon":5.36379,"is_reserved":false,"is_disabled":true,"rental_uris":{"android":"levelo://app?vid=5d28bce7-ab1a-4e8b-ae70-12e427a81793","ios":"levelo://app?vid=5d28bce7-ab1a-4e8b-ae70-12e427a81793"},"vehicle_type_id":"4","last_reported":1742573508,"current_range_meters":3600,"station_id":"cpo36qri1sfpv3e86is0","pricing_plan_id":"cebpf4jnsgd1na2vs0mg"},{"bike_id":"b6419d00-1347-4663-a4ea-be5ef5233e0f","system_id":"levelo_inurba_marseille","lat":43.30905,"lon":5.37199,"is_reserved":false,"is_disabled":false,"rental_uris":{"android":"levelo://app?vid=b6419d00-1347-4663-a4ea-be5ef5233e0f","ios":"levelo://app?vid=b6419d00-1347-4663-a4ea-be5ef5233e0f"},"vehicle_type_id":"4","last_reported":1742573508,"current_range_meters":3600,"station_id":"ce4bguh2rcd13ifvqckg","pricing_plan_id":"cebpf4jnsgd1na2vs0mg"},{"bike_id":"8355cefc-e518-4d51-9570-2ccf73949ffc","system_id":"levelo_inurba_marseille","lat":43.30148,"lon":5.37393,"is_reserved":false,"is_disabled":false,"rental_uris":{"android":"levelo://app?vid=8355cefc-e518-4d51-9570-2ccf73949ffc","ios":"levelo://app?vid=8355cefc-e518-4d51-9570-2ccf73949ffc"},"vehicle_type_id":"4","last_reported":1742573508,"current_range_meters":4000,"station_id":"ce4bgs92rcd13ifvqcc0","pricing_plan_id":"cebpf4jnsgd1na2vs0mg"},{"bike_id":"da01e494-398d-498e-a442-6c9221ea8d8b","system_id":"levelo_inurba_marseille","lat":43.330643,"lon":5.378276,"is_reserved":false,"is_disabled":false,"rental_uris":{"android":"levelo://app?vid=da01e494-398d-498e-a442-6c9221ea8d8b","ios":"levelo://app?vid=da01e494-398d-498e-a442-6c9221ea8d8b"},"vehicle_type_id":"4","last_reported":1742573508,"current_range_meters":4000,"station_id":"ce4bhr92rcd13ifvqhrg","pricing_plan_id":"cebpf4jnsgd1na2vs0mg"},{"bike_id":"56c49a03-aa10-456c-8a9d-0f554446f74e","system_id":"levelo_inurba_marseille","lat":43.26561,"lon":5.3902,"is_reserved":false,"is_disabled":false,"rental_uris":{"android":"levelo://app?vid=56c49a03-aa10-456c-8a9d-0f554446f74e","ios":"levelo://app?vid=56c49a03-aa10-456c-8a9d-0f554446f74e"},"vehicle_type_id":"4","last_reported":1742573508,"current_range_meters":4000,"station_id":"ce4bhe12rcd13ifvqf30","pricing_plan_id":"cebpf4jnsgd1na2vs0mg"},{"bike_id":"cc655352-aad8-4cf8-95b2-69e9b5ed0ec5","system_id":"levelo_inurba_marseille","lat":43.27192,"lon":5.40977,"is_reserved":false,"is_disabled":false,"rental_uris":{"android":"levelo://app?vid=cc655352-aad8-4cf8-95b2-69e9b5ed0ec5","ios":"levelo://app?vid=cc655352-aad8-4cf8-95b2-69e9b5ed0ec5"},"vehicle_type_id":"4","last_reported":1742573508,"current_range_meters":4400,"station_id":"ce4bhl12rcd13ifvqgf0","pricing_plan_id":"cebpf4jnsgd1na2vs0mg"},{"bike_id":"6134ca0a-7bd2-42ae-acbb-3f2fee05f075","system_id":"levelo_inurba_marseille","lat":43.29417,"lon":5.38636,"is_reserved":false,"is_disabled":false,"rental_uris":{"android":"levelo://app?vid=6134ca0a-7bd2-42ae-acbb-3f2fee05f075","ios":"levelo://app?vid=6134ca0a-7bd2-42ae-acbb-3f2fee05f075"},"vehicle_type_id":"4","last_reported":1742573508,"current_range_meters":4400,"station_id":"ce4bh2h2rcd13ifvqdh0","pricing_plan_id":"cebpf4jnsgd1na2vs0mg"},{"bike_id":"5d97522d-75a6-4fa8-9b14-e8a02bbe65a1","system_id":"levelo_inurba_marseille","lat":43.30106,"lon":5.39848,"is_reserved":false,"is_disabled":false,"rental_uris":{"android":"levelo://app?vid=5d97522d-75a6-4fa8-9b14-e8a02bbe65a1","ios":"levelo://app?vid=5d97522d-75a6-4fa8-9b14-e8a02bbe65a1"},"vehicle_type_id":"4","last_reported":1742573508,"current_range_meters":4400,"station_id":"ce4bh0h2rcd13ifvqd40","pricing_plan_id":"cebpf4jnsgd1na2vs0mg"},{"bike_id":"7f1fd183-097e-4d98-b4e5-8bd0d5eb0c2c","system_id":"levelo_inurba_marseille","lat":43.313595,"lon":5.384861,"is_reserved":false,"is_disabled":false,"rental_uris":{"android":"levelo://app?vid=7f1fd183-097e-4d98-b4e5-8bd0d5eb0c2c","ios":"levelo://app?vid=7f1fd183-097e-4d98-b4e5-8bd0d5eb0c2c"},"vehicle_type_id":"4","last_reported":1742573508,"current_range_meters":4400,"station_id":"ce4bgt92rcd13ifvqcf0","pricing_plan_id":"cebpf4jnsgd1na2vs0mg"},{"bike_id":"a290e572-c2c5-409a-927b-45c41c2e75dd","system_id":"levelo_inurba_marseille","lat":43.25104,"lon":5.40323,"is_reserved":false,"is_disabled":false,"rental_uris":{"android":"levelo://app?vid=a290e572-c2c5-409a-927b-45c41c2e75dd","ios":"levelo://app?vid=a290e572-c2c5-409a-927b-45c41c2e75dd"},"vehicle_type_id":"4","last_reported":1742573508,"current_range_meters":4400,"station_id":"ce4bhlh2rcd13ifvqgig","pricing_plan_id":"cebpf4jnsgd1na2vs0mg"},{"bike_id":"38fa863a-91a2-44eb-b718-19af02253b65","system_id":"levelo_inurba_marseille","lat":43.26945,"lon":5.40272,"is_reserved":false,"is_disabled":true,"rental_uris":{"android":"levelo://app?vid=38fa863a-91a2-44eb-b718-19af02253b65","ios":"levelo://app?vid=38fa863a-91a2-44eb-b718-19af02253b65"},"vehicle_type_id":"4","last_reported":1742573508,"current_range_meters":4400,"station_id":"cjm6bp8fraef2m0cb0m0","pricing_plan_id":"cebpf4jnsgd1na2vs0mg"},{"bike_id":"1a23aeea-0837-4f01-9d7f-c9016688c836","system_id":"levelo_inurba_marseille","lat":43.29871,"lon":5.39725,"is_reserved":false,"is_disabled":false,"rental_uris":{"android":"levelo://app?vid=1a23aeea-0837-4f01-9d7f-c9016688c836","ios":"levelo://app?vid=1a23aeea-0837-4f01-9d7f-c9016688c836"},"vehicle_type_id":"4","last_reported":1742573508,"current_range_meters":4400,"station_id":"ce4bh0h2rcd13ifvqd50","pricing_plan_id":"cebpf4jnsgd1na2vs0mg"},{"bike_id":"e8f2c4d4-447f-4528-a7a8-7fb90a7245ac","system_id":"levelo_inurba_marseille","lat":43.2573,"lon":5.41108,"is_reserved":false,"is_disabled":false,"rental_uris":{"android":"levelo://app?vid=e8f2c4d4-447f-4528-a7a8-7fb90a7245ac","ios":"levelo://app?vid=e8f2c4d4-447f-4528-a7a8-7fb90a7245ac"},"vehicle_type_id":"4","last_reported":1742573508,"current_range_meters":6000,"station_id":"ce4bhkp2rcd13ifvqgd0","pricing_plan_id":"cebpf4jnsgd1na2vs0mg"},{"bike_id":"c9334f47-21e6-40e4-8e5a-256a048ec72c","system_id":"levelo_inurba_marseille","lat":43.27172,"lon":5.4099,"is_reserved":false,"is_disabled":false,"rental_uris":{"android":"levelo://app?vid=c9334f47-21e6-40e4-8e5a-256a048ec72c","ios":"levelo://app?vid=c9334f47-21e6-40e4-8e5a-256a048ec72c"},"vehicle_type_id":"4","last_reported":1742573508,"current_range_meters":5600,"station_id":"ce4bhl12rcd13ifvqgf0","pricing_plan_id":"cebpf4jnsgd1na2vs0mg"},{"bike_id":"d1649662-1355-444d-abad-bb4404b1e1d1","system_id":"levelo_inurba_marseille","lat":43.23968,"lon":5.3663,"is_reserved":false,"is_disabled":false,"rental_uris":{"android":"levelo://app?vid=d1649662-1355-444d-abad-bb4404b1e1d1","ios":"levelo://app?vid=d1649662-1355-444d-abad-bb4404b1e1d1"},"vehicle_type_id":"4","last_reported":1742573508,"current_range_meters":5600,"station_id":"ce4bhi12rcd13ifvqfp0","pricing_plan_id":"cebpf4jnsgd1na2vs0mg"},{"bike_id":"d22e7cb6-db7a-4572-b8a3-44cdf3733a9e","system_id":"levelo_inurba_marseille","lat":43.27062,"lon":5.4027,"is_reserved":false,"is_disabled":false,"rental_uris":{"android":"levelo://app?vid=d22e7cb6-db7a-4572-b8a3-44cdf3733a9e","ios":"levelo://app?vid=d22e7cb6-db7a-4572-b8a3-44cdf3733a9e"},"vehicle_type_id":"4","last_reported":1742573508,"current_range_meters":6000,"station_id":"ce4bhk92rcd13ifvqgc0","pricing_plan_id":"cebpf4jnsgd1na2vs0mg"},{"bike_id":"b599efb9-e599-4a9e-8634-36c6c4d23491","system_id":"levelo_inurba_marseille","lat":43.27542,"lon":5.38424,"is_reserved":false,"is_disabled":false,"rental_uris":{"android":"levelo://app?vid=b599efb9-e599-4a9e-8634-36c6c4d23491","ios":"levelo://app?vid=b599efb9-e599-4a9e-8634-36c6c4d23491"},"vehicle_type_id":"4","last_reported":1742573508,"current_range_meters":5600,"station_id":"ce4bhh92rcd13ifvqfi0","pricing_plan_id":"cebpf4jnsgd1na2vs0mg"},{"bike_id":"a1d4474e-dc54-4e96-8359-81b099ba1a93","system_id":"levelo_inurba_marseille","lat":43.23197,"lon":5.39987,"is_reserved":false,"is_disabled":false,"rental_uris":{"android":"levelo://app?vid=a1d4474e-dc54-4e96-8359-81b099ba1a93","ios":"levelo://app?vid=a1d4474e-dc54-4e96-8359-81b099ba1a93"},"vehicle_type_id":"4","last_reported":1742573508,"current_range_meters":6400,"station_id":"ce4bhn12rcd13ifvqgqg","pricing_plan_id":"cebpf4jnsgd1na2vs0mg"},{"bike_id":"b266faba-4e26-4c50-b078-a54d17773ddd","system_id":"levelo_inurba_marseille","lat":43.2455,"lon":5.39522,"is_reserved":false,"is_disabled":false,"rental_uris":{"android":"levelo://app?vid=b266faba-4e26-4c50-b078-a54d17773ddd","ios":"levelo://app?vid=b266faba-4e26-4c50-b078-a54d17773ddd"},"vehicle_type_id":"4","last_reported":1742573508,"current_range_meters":6400,"station_id":"ce4bhlp2rcd13ifvqgjg","pricing_plan_id":"cebpf4jnsgd1na2vs0mg"},{"bike_id":"14a735e9-99b6-4f6d-9bb4-12630be92274","system_id":"levelo_inurba_marseille","lat":43.2509,"lon":5.39515,"is_reserved":false,"is_disabled":false,"rental_uris":{"android":"levelo://app?vid=14a735e9-99b6-4f6d-9bb4-12630be92274","ios":"levelo://app?vid=14a735e9-99b6-4f6d-9bb4-12630be92274"},"vehicle_type_id":"4","last_reported":1742573508,"current_range_meters":6400,"station_id":"ce4bhm12rcd13ifvqgkg","pricing_plan_id":"cebpf4jnsgd1na2vs0mg"},{"bike_id":"0d8f66dc-5e30-476f-81a8-1ca73af0ec7a","system_id":"levelo_inurba_marseille","lat":43.28714,"lon":5.39993,"is_reserved":false,"is_disabled":false,"rental_uris":{"android":"levelo://app?vid=0d8f66dc-5e30-476f-81a8-1ca73af0ec7a","ios":"levelo://app?vid=0d8f66dc-5e30-476f-81a8-1ca73af0ec7a"},"vehicle_type_id":"4","last_reported":1742573508,"current_range_meters":6400,"station_id":"ce4bho92rcd13ifvqh3g","pricing_plan_id":"cebpf4jnsgd1na2vs0mg"},{"bike_id":"ffbee1c9-ab8d-45ee-b606-c546ab78c5f2","system_id":"levelo_inurba_marseille","lat":43.29735,"lon":5.37777,"is_reserved":false,"is_disabled":false,"rental_uris":{"android":"levelo://app?vid=ffbee1c9-ab8d-45ee-b606-c546ab78c5f2","ios":"levelo://app?vid=ffbee1c9-ab8d-45ee-b606-c546ab78c5f2"},"vehicle_type_id":"4","last_reported":1742573508,"current_range_meters":6400,"station_id":"","pricing_plan_id":"cebpf4jnsgd1na2vs0mg"},{"bike_id":"17cf9dff-5308-49d4-8479-c0b2be020768","system_id":"levelo_inurba_marseille","lat":43.27812,"lon":5.40709,"is_reserved":false,"is_disabled":false,"rental_uris":{"android":"levelo://app?vid=17cf9dff-5308-49d4-8479-c0b2be020768","ios":"levelo://app?vid=17cf9dff-5308-49d4-8479-c0b2be020768"},"vehicle_type_id":"4","last_reported":1742573508,"current_range_meters":6400,"station_id":"ce4bhnh2rcd13ifvqgtg","pricing_plan_id":"cebpf4jnsgd1na2vs0mg"},{"bike_id":"399b43de-a5c1-4bc6-9061-e12f52a9da37","system_id":"levelo_inurba_marseille","lat":43.26562,"lon":5.37288,"is_reserved":false,"is_disabled":false,"rental_uris":{"android":"levelo://app?vid=399b43de-a5c1-4bc6-9061-e12f52a9da37","ios":"levelo://app?vid=399b43de-a5c1-4bc6-9061-e12f52a9da37"},"vehicle_type_id":"4","last_reported":1742573508,"current_range_meters":6400,"station_id":"ce4bhg12rcd13ifvqf70","pricing_plan_id":"cebpf4jnsgd1na2vs0mg"},{"bike_id":"74ca8f8e-770f-4c39-9bcc-04d356dfc1fe","system_id":"levelo_inurba_marseille","lat":43.32478,"lon":5.36572,"is_reserved":false,"is_disabled":false,"rental_uris":{"android":"levelo://app?vid=74ca8f8e-770f-4c39-9bcc-04d356dfc1fe","ios":"levelo://app?vid=74ca8f8e-770f-4c39-9bcc-04d356dfc1fe"},"vehicle_type_id":"4","last_reported":1742573508,"current_range_meters":6800,"station_id":"ce4bhs12rcd13ifvqhvg","pricing_plan_id":"cebpf4jnsgd1na2vs0mg"},{"bike_id":"99d63961-9866-4650-bbc6-2180678acbc0","system_id":"levelo_inurba_marseille","lat":43.29258,"lon":5.40905,"is_reserved":false,"is_disabled":false,"rental_uris":{"android":"levelo://app?vid=99d63961-9866-4650-bbc6-2180678acbc0","ios":"levelo://app?vid=99d63961-9866-4650-bbc6-2180678acbc0"},"vehicle_type_id":"4","last_reported":1742573508,"current_range_meters":6800,"station_id":"ce4bh192rcd13ifvqdc0","pricing_plan_id":"cebpf4jnsgd1na2vs0mg"},{"bike_id":"da953833-0efc-4c81-8494-01f3479d7c0f","system_id":"levelo_inurba_marseille","lat":43.29156,"lon":5.37165,"is_reserved":false,"is_disabled":false,"rental_uris":{"android":"levelo://app?vid=da953833-0efc-4c81-8494-01f3479d7c0f","ios":"levelo://app?vid=da953833-0efc-4c81-8494-01f3479d7c0f"},"vehicle_type_id":"4","last_reported":1742573508,"current_range_meters":6800,"station_id":"ce4bha92rcd13ifvqeh0","pricing_plan_id":"cebpf4jnsgd1na2vs0mg"},{"bike_id":"ba2f5c15-99e3-4827-a136-4fac08b3a2db","system_id":"levelo_inurba_marseille","lat":43.29786,"lon":5.39332,"is_reserved":false,"is_disabled":false,"rental_uris":{"android":"levelo://app?vid=ba2f5c15-99e3-4827-a136-4fac08b3a2db","ios":"levelo://app?vid=ba2f5c15-99e3-4827-a136-4fac08b3a2db"},"vehicle_type_id":"4","last_reported":1742573508,"current_range_meters":6800,"station_id":"chh1huq6cuj3fo74tm60","pricing_plan_id":"cebpf4jnsgd1na2vs0mg"},{"bike_id":"b9e4bdd0-024c-4547-9a94-39d0c7923642","system_id":"levelo_inurba_marseille","lat":43.24176,"lon":5.3638,"is_reserved":false,"is_disabled":false,"rental_uris":{"android":"levelo://app?vid=b9e4bdd0-024c-4547-9a94-39d0c7923642","ios":"levelo://app?vid=b9e4bdd0-024c-4547-9a94-39d0c7923642"},"vehicle_type_id":"4","last_reported":1742573508,"current_range_meters":6800,"station_id":"cpo36qri1sfpv3e86is0","pricing_plan_id":"cebpf4jnsgd1na2vs0mg"},{"bike_id":"c5bb5dca-1dc9-450e-9a3d-9fa737cf345d","system_id":"levelo_inurba_marseille","lat":43.24646,"lon":5.38879,"is_reserved":false,"is_disabled":false,"rental_uris":{"android":"levelo://app?vid=c5bb5dca-1dc9-450e-9a3d-9fa737cf345d","ios":"levelo://app?vid=c5bb5dca-1dc9-450e-9a3d-9fa737cf345d"},"vehicle_type_id":"4","last_reported":1742573508,"current_range_meters":6800,"station_id":"ce4bhg12rcd13ifvqf60","pricing_plan_id":"cebpf4jnsgd1na2vs0mg"},{"bike_id":"53eaee5b-849c-41bb-8366-606961d6c5ff","system_id":"levelo_inurba_marseille","lat":43.30548,"lon":5.36538,"is_reserved":false,"is_disabled":false,"rental_uris":{"android":"levelo://app?vid=53eaee5b-849c-41bb-8366-606961d6c5ff","ios":"levelo://app?vid=53eaee5b-849c-41bb-8366-606961d6c5ff"},"vehicle_type_id":"4","last_reported":1742573508,"current_range_meters":7200,"station_id":"ce4bgs12rcd13ifvqcag","pricing_plan_id":"cebpf4jnsgd1na2vs0mg"},{"bike_id":"8682048b-22d3-4d81-b8c1-fb4c78459528","system_id":"levelo_inurba_marseille","lat":43.32651,"lon":5.40977,"is_reserved":false,"is_disabled":false,"rental_uris":{"android":"levelo://app?vid=8682048b-22d3-4d81-b8c1-fb4c78459528","ios":"levelo://app?vid=8682048b-22d3-4d81-b8c1-fb4c78459528"},"vehicle_type_id":"4","last_reported":1742573508,"current_range_meters":7200,"station_id":"ce4bhpp2rcd13ifvqhgg","pricing_plan_id":"cebpf4jnsgd1na2vs0mg"},{"bike_id":"8c9fa4ba-3022-472d-a524-2b34aef0abf8","system_id":"levelo_inurba_marseille","lat":43.29971,"lon":5.37189,"is_reserved":false,"is_disabled":true,"rental_uris":{"android":"levelo://app?vid=8c9fa4ba-3022-472d-a524-2b34aef0abf8","ios":"levelo://app?vid=8c9fa4ba-3022-472d-a524-2b34aef0abf8"},"vehicle_type_id":"4","last_reported":1742573508,"current_range_meters":7200,"station_id":"ce4bgr92rcd13ifvqc7g","pricing_plan_id":"cebpf4jnsgd1na2vs0mg"},{"bike_id":"9b80c4db-51e1-4e4e-8ecd-a558d3a24fd7","system_id":"levelo_inurba_marseille","lat":43.33162,"lon":5.382,"is_reserved":false,"is_disabled":false,"rental_uris":{"android":"levelo://app?vid=9b80c4db-51e1-4e4e-8ecd-a558d3a24fd7","ios":"levelo://app?vid=9b80c4db-51e1-4e4e-8ecd-a558d3a24fd7"},"vehicle_type_id":"4","last_reported":1742573508,"current_range_meters":7200,"station_id":"","pricing_plan_id":"cebpf4jnsgd1na2vs0mg"},{"bike_id":"9a607aa7-a3eb-4479-bc6a-747ddda6c723","system_id":"levelo_inurba_marseille","lat":43.30795,"lon":5.38156,"is_reserved":false,"is_disabled":false,"rental_uris":{"android":"levelo://app?vid=9a607aa7-a3eb-4479-bc6a-747ddda6c723","ios":"levelo://app?vid=9a607aa7-a3eb-4479-bc6a-747ddda6c723"},"vehicle_type_id":"4","last_reported":1742573508,"current_range_meters":7200,"station_id":"ce4bgt12rcd13ifvqce0","pricing_plan_id":"cebpf4jnsgd1na2vs0mg"},{"bike_id":"fd87eab3-6dd6-4660-91cd-04d2e7effdd0","system_id":"levelo_inurba_marseille","lat":43.27951,"lon":5.41037,"is_reserved":false,"is_disabled":false,"rental_uris":{"android":"levelo://app?vid=fd87eab3-6dd6-4660-91cd-04d2e7effdd0","ios":"levelo://app?vid=fd87eab3-6dd6-4660-91cd-04d2e7effdd0"},"vehicle_type_id":"4","last_reported":1742573508,"current_range_meters":7200,"station_id":"ce4bhnp2rcd13ifvqh0g","pricing_plan_id":"cebpf4jnsgd1na2vs0mg"},{"bike_id":"0010967d-0d8f-40f7-97e0-a2907c6c71e3","system_id":"levelo_inurba_marseille","lat":43.29641,"lon":5.40585,"is_reserved":false,"is_disabled":false,"rental_uris":{"android":"levelo://app?vid=0010967d-0d8f-40f7-97e0-a2907c6c71e3","ios":"levelo://app?vid=0010967d-0d8f-40f7-97e0-a2907c6c71e3"},"vehicle_type_id":"4","last_reported":1742573508,"current_range_meters":7200,"station_id":"ce4bh0h2rcd13ifvqd60","pricing_plan_id":"cebpf4jnsgd1na2vs0mg"},{"bike_id":"1d8daad7-9bb4-40dd-adfc-e589f483368c","system_id":"levelo_inurba_marseille","lat":43.25826,"lon":5.39432,"is_reserved":false,"is_disabled":false,"rental_uris":{"android":"levelo://app?vid=1d8daad7-9bb4-40dd-adfc-e589f483368c","ios":"levelo://app?vid=1d8daad7-9bb4-40dd-adfc-e589f483368c"},"vehicle_type_id":"4","last_reported":1742573508,"current_range_meters":8000,"station_id":"ce4bhip2rcd13ifvqft0","pricing_plan_id":"cebpf4jnsgd1na2vs0mg"},{"bike_id":"62bf2f5c-9819-4816-afad-4a268d7a76b8","system_id":"levelo_inurba_marseille","lat":43.24176,"lon":5.36379,"is_reserved":false,"is_disabled":false,"rental_uris":{"android":"levelo://app?vid=62bf2f5c-9819-4816-afad-4a268d7a76b8","ios":"levelo://app?vid=62bf2f5c-9819-4816-afad-4a268d7a76b8"},"vehicle_type_id":"4","last_reported":1742573508,"current_range_meters":8000,"station_id":"cpo36qri1sfpv3e86is0","pricing_plan_id":"cebpf4jnsgd1na2vs0mg"},{"bike_id":"88fe2498-45e4-4ad6-8a7e-50fb4e6f9622","system_id":"levelo_inurba_marseille","lat":43.281711,"lon":5.424635,"is_reserved":false,"is_disabled":false,"rental_uris":{"android":"levelo://app?vid=88fe2498-45e4-4ad6-8a7e-50fb4e6f9622","ios":"levelo://app?vid=88fe2498-45e4-4ad6-8a7e-50fb4e6f9622"},"vehicle_type_id":"4","last_reported":1742573508,"current_range_meters":8000,"station_id":"ce4bhnh2rcd13ifvqgug","pricing_plan_id":"cebpf4jnsgd1na2vs0mg"},{"bike_id":"af0dd9ac-7466-4151-a052-abde29cf9b49","system_id":"levelo_inurba_marseille","lat":43.23189,"lon":5.35581,"is_reserved":false,"is_disabled":false,"rental_uris":{"android":"levelo://app?vid=af0dd9ac-7466-4151-a052-abde29cf9b49","ios":"levelo://app?vid=af0dd9ac-7466-4151-a052-abde29cf9b49"},"vehicle_type_id":"4","last_reported":1742573508,"current_range_meters":8000,"station_id":"ce4bhu92rcd13ifvqi70","pricing_plan_id":"cebpf4jnsgd1na2vs0mg"},{"bike_id":"37ead676-6192-4cea-a2c7-7b12b82e588f","system_id":"levelo_inurba_marseille","lat":43.30361,"lon":5.41863,"is_reserved":false,"is_disabled":false,"rental_uris":{"android":"levelo://app?vid=37ead676-6192-4cea-a2c7-7b12b82e588f","ios":"levelo://app?vid=37ead676-6192-4cea-a2c7-7b12b82e588f"},"vehicle_type_id":"4","last_reported":1742573508,"current_range_meters":8000,"station_id":"ce4bhop2rcd13ifvqh7g","pricing_plan_id":"cebpf4jnsgd1na2vs0mg"},{"bike_id":"23969a40-941b-4536-888e-6a890a1cc96a","system_id":"levelo_inurba_marseille","lat":43.28154,"lon":5.42648,"is_reserved":false,"is_disabled":false,"rental_uris":{"android":"levelo://app?vid=23969a40-941b-4536-888e-6a890a1cc96a","ios":"levelo://app?vid=23969a40-941b-4536-888e-6a890a1cc96a"},"vehicle_type_id":"4","last_reported":1742573508,"current_range_meters":7200,"station_id":"ce4bhnh2rcd13ifvqgug","pricing_plan_id":"cebpf4jnsgd1na2vs0mg"},{"bike_id":"2d86cf0c-8220-4a0c-a77e-5b4210ae7f59","system_id":"levelo_inurba_marseille","lat":43.305,"lon":5.37071,"is_reserved":false,"is_disabled":false,"rental_uris":{"android":"levelo://app?vid=2d86cf0c-8220-4a0c-a77e-5b4210ae7f59","ios":"levelo://app?vid=2d86cf0c-8220-4a0c-a77e-5b4210ae7f59"},"vehicle_type_id":"4","last_reported":1742573508,"current_range_meters":8000,"station_id":"","pricing_plan_id":"cebpf4jnsgd1na2vs0mg"},{"bike_id":"2678929a-312d-4089-b116-1e816de7db90","system_id":"levelo_inurba_marseille","lat":43.32111,"lon":5.3681,"is_reserved":false,"is_disabled":false,"rental_uris":{"android":"levelo://app?vid=2678929a-312d-4089-b116-1e816de7db90","ios":"levelo://app?vid=2678929a-312d-4089-b116-1e816de7db90"},"vehicle_type_id":"4","last_reported":1742573508,"current_range_meters":8400,"station_id":"ce4bhrh2rcd13ifvqhug","pricing_plan_id":"cebpf4jnsgd1na2vs0mg"},{"bike_id":"219beb86-a593-4614-9c1a-fc0709ba9ada","system_id":"levelo_inurba_marseille","lat":43.29567,"lon":5.39986,"is_reserved":false,"is_disabled":false,"rental_uris":{"android":"levelo://app?vid=219beb86-a593-4614-9c1a-fc0709ba9ada","ios":"levelo://app?vid=219beb86-a593-4614-9c1a-fc0709ba9ada"},"vehicle_type_id":"4","last_reported":1742573508,"current_range_meters":8400,"station_id":"ce4bh312rcd13ifvqdj0","pricing_plan_id":"cebpf4jnsgd1na2vs0mg"},{"bike_id":"037dbfe4-6d41-4ed0-a07d-0521a0c84e5d","system_id":"levelo_inurba_marseille","lat":43.26236,"lon":5.37439,"is_reserved":false,"is_disabled":false,"rental_uris":{"android":"levelo://app?vid=037dbfe4-6d41-4ed0-a07d-0521a0c84e5d","ios":"levelo://app?vid=037dbfe4-6d41-4ed0-a07d-0521a0c84e5d"},"vehicle_type_id":"4","last_reported":1742573508,"current_range_meters":8400,"station_id":"ce4bhgp2rcd13ifvqfc0","pricing_plan_id":"cebpf4jnsgd1na2vs0mg"},{"bike_id":"a52dfbd3-560f-4dad-8ae6-494d05ea4c89","system_id":"levelo_inurba_marseille","lat":43.3229,"lon":5.38294,"is_reserved":false,"is_disabled":false,"rental_uris":{"android":"levelo://app?vid=a52dfbd3-560f-4dad-8ae6-494d05ea4c89","ios":"levelo://app?vid=a52dfbd3-560f-4dad-8ae6-494d05ea4c89"},"vehicle_type_id":"4","last_reported":1742573508,"current_range_meters":8400,"station_id":"ce4bhr12rcd13ifvqhqg","pricing_plan_id":"cebpf4jnsgd1na2vs0mg"},{"bike_id":"a367acbd-2ed4-4455-8635-a0fa66f891f5","system_id":"levelo_inurba_marseille","lat":43.23193,"lon":5.39979,"is_reserved":false,"is_disabled":false,"rental_uris":{"android":"levelo://app?vid=a367acbd-2ed4-4455-8635-a0fa66f891f5","ios":"levelo://app?vid=a367acbd-2ed4-4455-8635-a0fa66f891f5"},"vehicle_type_id":"4","last_reported":1742573508,"current_range_meters":8400,"station_id":"ce4bhn12rcd13ifvqgqg","pricing_plan_id":"cebpf4jnsgd1na2vs0mg"},{"bike_id":"b932d33e-91a4-45e0-8ca0-dca14df5ba52","system_id":"levelo_inurba_marseille","lat":43.31125,"lon":5.37756,"is_reserved":false,"is_disabled":false,"rental_uris":{"android":"levelo://app?vid=b932d33e-91a4-45e0-8ca0-dca14df5ba52","ios":"levelo://app?vid=b932d33e-91a4-45e0-8ca0-dca14df5ba52"},"vehicle_type_id":"4","last_reported":1742573508,"current_range_meters":8400,"station_id":"ce4bgt92rcd13ifvqcg0","pricing_plan_id":"cebpf4jnsgd1na2vs0mg"},{"bike_id":"1c3b5361-695c-4ccc-94f9-aca7f37b6d45","system_id":"levelo_inurba_marseille","lat":43.2319,"lon":5.35558,"is_reserved":false,"is_disabled":false,"rental_uris":{"android":"levelo://app?vid=1c3b5361-695c-4ccc-94f9-aca7f37b6d45","ios":"levelo://app?vid=1c3b5361-695c-4ccc-94f9-aca7f37b6d45"},"vehicle_type_id":"4","last_reported":1742573508,"current_range_meters":8800,"station_id":"ce4bhu92rcd13ifvqi70","pricing_plan_id":"cebpf4jnsgd1na2vs0mg"},{"bike_id":"502eb119-ee82-471e-b396-89a832cd315a","system_id":"levelo_inurba_marseille","lat":43.32474,"lon":5.36564,"is_reserved":false,"is_disabled":false,"rental_uris":{"android":"levelo://app?vid=502eb119-ee82-471e-b396-89a832cd315a","ios":"levelo://app?vid=502eb119-ee82-471e-b396-89a832cd315a"},"vehicle_type_id":"4","last_reported":1742573508,"current_range_meters":8800,"station_id":"ce4bhs12rcd13ifvqhvg","pricing_plan_id":"cebpf4jnsgd1na2vs0mg"},{"bike_id":"a67c54b6-5ce9-4632-8070-5ca7d5b7fc9e","system_id":"levelo_inurba_marseille","lat":43.2306,"lon":5.35482,"is_reserved":false,"is_disabled":false,"rental_uris":{"android":"levelo://app?vid=a67c54b6-5ce9-4632-8070-5ca7d5b7fc9e","ios":"levelo://app?vid=a67c54b6-5ce9-4632-8070-5ca7d5b7fc9e"},"vehicle_type_id":"4","last_reported":1742573508,"current_range_meters":8800,"station_id":"cpo3342slgdg3j2ifvpg","pricing_plan_id":"cebpf4jnsgd1na2vs0mg"},{"bike_id":"fb760a2a-eafb-4b87-bc2a-c783575d8e0b","system_id":"levelo_inurba_marseille","lat":43.2929,"lon":5.40115,"is_reserved":false,"is_disabled":false,"rental_uris":{"android":"levelo://app?vid=fb760a2a-eafb-4b87-bc2a-c783575d8e0b","ios":"levelo://app?vid=fb760a2a-eafb-4b87-bc2a-c783575d8e0b"},"vehicle_type_id":"4","last_reported":1742573508,"current_range_meters":8800,"station_id":"ce4bh312rcd13ifvqdk0","pricing_plan_id":"cebpf4jnsgd1na2vs0mg"},{"bike_id":"0466dbdc-a980-434b-8e72-e99d01941101","system_id":"levelo_inurba_marseille","lat":43.29453,"lon":5.39754,"is_reserved":false,"is_disabled":false,"rental_uris":{"android":"levelo://app?vid=0466dbdc-a980-434b-8e72-e99d01941101","ios":"levelo://app?vid=0466dbdc-a980-434b-8e72-e99d01941101"},"vehicle_type_id":"4","last_reported":1742573508,"current_range_meters":8400,"station_id":"ce4bh3h2rcd13ifvqdo0","pricing_plan_id":"cebpf4jnsgd1na2vs0mg"},{"bike_id":"9fcb3f14-f368-4f79-aa70-01b27150c36b","system_id":"levelo_inurba_marseille","lat":43.30642,"lon":5.37215,"is_reserved":false,"is_disabled":false,"rental_uris":{"android":"levelo://app?vid=9fcb3f14-f368-4f79-aa70-01b27150c36b","ios":"levelo://app?vid=9fcb3f14-f368-4f79-aa70-01b27150c36b"},"vehicle_type_id":"4","last_reported":1742573508,"current_range_meters":9200,"station_id":"ce4bgqh2rcd13ifvqc4g","pricing_plan_id":"cebpf4jnsgd1na2vs0mg"},{"bike_id":"14170c29-4771-40bf-91c1-21d46e98ac28","system_id":"levelo_inurba_marseille","lat":43.30096,"lon":5.39082,"is_reserved":false,"is_disabled":false,"rental_uris":{"android":"levelo://app?vid=14170c29-4771-40bf-91c1-21d46e98ac28","ios":"levelo://app?vid=14170c29-4771-40bf-91c1-21d46e98ac28"},"vehicle_type_id":"4","last_reported":1742573508,"current_range_meters":9200,"station_id":"ce4bh192rcd13ifvqdb0","pricing_plan_id":"cebpf4jnsgd1na2vs0mg"},{"bike_id":"3a260712-d654-4076-bb8e-2d2c938680e2","system_id":"levelo_inurba_marseille","lat":43.33612,"lon":5.40999,"is_reserved":false,"is_disabled":false,"rental_uris":{"android":"levelo://app?vid=3a260712-d654-4076-bb8e-2d2c938680e2","ios":"levelo://app?vid=3a260712-d654-4076-bb8e-2d2c938680e2"},"vehicle_type_id":"4","last_reported":1742573508,"current_range_meters":9200,"station_id":"ce4bhqh2rcd13ifvqhmg","pricing_plan_id":"cebpf4jnsgd1na2vs0mg"},{"bike_id":"7473a9df-556d-4c30-afcc-81245f1f001f","system_id":"levelo_inurba_marseille","lat":43.29449,"lon":5.39755,"is_reserved":false,"is_disabled":false,"rental_uris":{"android":"levelo://app?vid=7473a9df-556d-4c30-afcc-81245f1f001f","ios":"levelo://app?vid=7473a9df-556d-4c30-afcc-81245f1f001f"},"vehicle_type_id":"4","last_reported":1742573508,"current_range_meters":8800,"station_id":"ce4bh3h2rcd13ifvqdo0","pricing_plan_id":"cebpf4jnsgd1na2vs0mg"},{"bike_id":"f589539d-d63d-45fb-bd41-4fe66d427517","system_id":"levelo_inurba_marseille","lat":43.31078,"lon":5.38364,"is_reserved":false,"is_disabled":false,"rental_uris":{"android":"levelo://app?vid=f589539d-d63d-45fb-bd41-4fe66d427517","ios":"levelo://app?vid=f589539d-d63d-45fb-bd41-4fe66d427517"},"vehicle_type_id":"4","last_reported":1742573508,"current_range_meters":9200,"station_id":"ce4bgv92rcd13ifvqcr0","pricing_plan_id":"cebpf4jnsgd1na2vs0mg"},{"bike_id":"e09ea78d-2140-4757-82ad-0990e20b6a27","system_id":"levelo_inurba_marseille","lat":43.314027,"lon":5.402841,"is_reserved":false,"is_disabled":false,"rental_uris":{"android":"levelo://app?vid=e09ea78d-2140-4757-82ad-0990e20b6a27","ios":"levelo://app?vid=e09ea78d-2140-4757-82ad-0990e20b6a27"},"vehicle_type_id":"4","last_reported":1742573508,"current_range_meters":8800,"station_id":"ce4bgvp2rcd13ifvqct0","pricing_plan_id":"cebpf4jnsgd1na2vs0mg"},{"bike_id":"bb9aef7f-b168-4a61-b93a-e2890d5b5b5e","system_id":"levelo_inurba_marseille","lat":43.24393,"lon":5.37057,"is_reserved":false,"is_disabled":false,"rental_uris":{"android":"levelo://app?vid=bb9aef7f-b168-4a61-b93a-e2890d5b5b5e","ios":"levelo://app?vid=bb9aef7f-b168-4a61-b93a-e2890d5b5b5e"},"vehicle_type_id":"4","last_reported":1742573508,"current_range_meters":8800,"station_id":"ce4bhhh2rcd13ifvqfk0","pricing_plan_id":"cebpf4jnsgd1na2vs0mg"},{"bike_id":"899ab87e-4ea4-40e5-9304-e09f83aad3d0","system_id":"levelo_inurba_marseille","lat":43.23966,"lon":5.36635,"is_reserved":false,"is_disabled":false,"rental_uris":{"android":"levelo://app?vid=899ab87e-4ea4-40e5-9304-e09f83aad3d0","ios":"levelo://app?vid=899ab87e-4ea4-40e5-9304-e09f83aad3d0"},"vehicle_type_id":"4","last_reported":1742573508,"current_range_meters":9600,"station_id":"ce4bhi12rcd13ifvqfp0","pricing_plan_id":"cebpf4jnsgd1na2vs0mg"},{"bike_id":"019f9a07-79ef-4e83-b033-32955beed218","system_id":"levelo_inurba_marseille","lat":43.30837,"lon":5.37905,"is_reserved":false,"is_disabled":false,"rental_uris":{"android":"levelo://app?vid=019f9a07-79ef-4e83-b033-32955beed218","ios":"levelo://app?vid=019f9a07-79ef-4e83-b033-32955beed218"},"vehicle_type_id":"4","last_reported":1742573508,"current_range_meters":9600,"station_id":"","pricing_plan_id":"cebpf4jnsgd1na2vs0mg"},{"bike_id":"6b9f258c-1031-4975-9128-1ece84625cf6","system_id":"levelo_inurba_marseille","lat":43.31065,"lon":5.38344,"is_reserved":false,"is_disabled":false,"rental_uris":{"android":"levelo://app?vid=6b9f258c-1031-4975-9128-1ece84625cf6","ios":"levelo://app?vid=6b9f258c-1031-4975-9128-1ece84625cf6"},"vehicle_type_id":"4","last_reported":1742573508,"current_range_meters":9600,"station_id":"ce4bgv92rcd13ifvqcr0","pricing_plan_id":"cebpf4jnsgd1na2vs0mg"},{"bike_id":"1323d2cd-c4e0-4783-b4f1-4daaeb41faef","system_id":"levelo_inurba_marseille","lat":43.23971,"lon":5.36647,"is_reserved":false,"is_disabled":false,"rental_uris":{"android":"levelo://app?vid=1323d2cd-c4e0-4783-b4f1-4daaeb41faef","ios":"levelo://app?vid=1323d2cd-c4e0-4783-b4f1-4daaeb41faef"},"vehicle_type_id":"4","last_reported":1742573508,"current_range_meters":9600,"station_id":"ce4bhi12rcd13ifvqfp0","pricing_plan_id":"cebpf4jnsgd1na2vs0mg"},{"bike_id":"bf5d7bdb-65a8-4310-b955-6a76e2cbd7fe","system_id":"levelo_inurba_marseille","lat":43.33747,"lon":5.39206,"is_reserved":false,"is_disabled":false,"rental_uris":{"android":"levelo://app?vid=bf5d7bdb-65a8-4310-b955-6a76e2cbd7fe","ios":"levelo://app?vid=bf5d7bdb-65a8-4310-b955-6a76e2cbd7fe"},"vehicle_type_id":"4","last_reported":1742573508,"current_range_meters":9600,"station_id":"ce4bhr92rcd13ifvqhsg","pricing_plan_id":"cebpf4jnsgd1na2vs0mg"},{"bike_id":"cad6deed-29cb-4fd5-adb9-bf281ce629e5","system_id":"levelo_inurba_marseille","lat":43.29912,"lon":5.38141,"is_reserved":false,"is_disabled":false,"rental_uris":{"android":"levelo://app?vid=cad6deed-29cb-4fd5-adb9-bf281ce629e5","ios":"levelo://app?vid=cad6deed-29cb-4fd5-adb9-bf281ce629e5"},"vehicle_type_id":"4","last_reported":1742573508,"current_range_meters":9600,"station_id":"ce4bgj12rcd13ifvqbc0","pricing_plan_id":"cebpf4jnsgd1na2vs0mg"},{"bike_id":"c247e2d9-bc0a-43fc-96f6-63366ce4549c","system_id":"levelo_inurba_marseille","lat":43.28442,"lon":5.39199,"is_reserved":false,"is_disabled":false,"rental_uris":{"android":"levelo://app?vid=c247e2d9-bc0a-43fc-96f6-63366ce4549c","ios":"levelo://app?vid=c247e2d9-bc0a-43fc-96f6-63366ce4549c"},"vehicle_type_id":"4","last_reported":1742573508,"current_range_meters":9600,"station_id":"ce4bhoh2rcd13ifvqh5g","pricing_plan_id":"cebpf4jnsgd1na2vs0mg"},{"bike_id":"240b6b7b-184f-4edb-aa69-f3adda171ad8","system_id":"levelo_inurba_marseille","lat":43.29049,"lon":5.37562,"is_reserved":false,"is_disabled":false,"rental_uris":{"android":"levelo://app?vid=240b6b7b-184f-4edb-aa69-f3adda171ad8","ios":"levelo://app?vid=240b6b7b-184f-4edb-aa69-f3adda171ad8"},"vehicle_type_id":"4","last_reported":1742573508,"current_range_meters":9600,"station_id":"ce4bhjp2rcd13ifvqga0","pricing_plan_id":"cebpf4jnsgd1na2vs0mg"},{"bike_id":"490f24fb-19fa-45d1-aeb1-cf2283f14534","system_id":"levelo_inurba_marseille","lat":43.3061,"lon":5.37213,"is_reserved":false,"is_disabled":false,"rental_uris":{"android":"levelo://app?vid=490f24fb-19fa-45d1-aeb1-cf2283f14534","ios":"levelo://app?vid=490f24fb-19fa-45d1-aeb1-cf2283f14534"},"vehicle_type_id":"4","last_reported":1742573508,"current_range_meters":10000,"station_id":"ce4bgqh2rcd13ifvqc4g","pricing_plan_id":"cebpf4jnsgd1na2vs0mg"},{"bike_id":"dbeb4140-aada-4903-9abe-13f3c0f2daf9","system_id":"levelo_inurba_marseille","lat":43.295724,"lon":5.367444,"is_reserved":false,"is_disabled":false,"rental_uris":{"android":"levelo://app?vid=dbeb4140-aada-4903-9abe-13f3c0f2daf9","ios":"levelo://app?vid=dbeb4140-aada-4903-9abe-13f3c0f2daf9"},"vehicle_type_id":"4","last_reported":1742573508,"current_range_meters":10000,"station_id":"ce4bgph2rcd13ifvqc2g","pricing_plan_id":"cebpf4jnsgd1na2vs0mg"},{"bike_id":"20e2be53-78ac-4b24-8dad-96b43d72add2","system_id":"levelo_inurba_marseille","lat":43.31083,"lon":5.3835,"is_reserved":false,"is_disabled":false,"rental_uris":{"android":"levelo://app?vid=20e2be53-78ac-4b24-8dad-96b43d72add2","ios":"levelo://app?vid=20e2be53-78ac-4b24-8dad-96b43d72add2"},"vehicle_type_id":"4","last_reported":1742573508,"current_range_meters":10000,"station_id":"ce4bgv92rcd13ifvqcr0","pricing_plan_id":"cebpf4jnsgd1na2vs0mg"},{"bike_id":"cff5c5d7-b2c2-4661-bcba-b7a09aa5def1","system_id":"levelo_inurba_marseille","lat":43.30288,"lon":5.36916,"is_reserved":false,"is_disabled":false,"rental_uris":{"android":"levelo://app?vid=cff5c5d7-b2c2-4661-bcba-b7a09aa5def1","ios":"levelo://app?vid=cff5c5d7-b2c2-4661-bcba-b7a09aa5def1"},"vehicle_type_id":"4","last_reported":1742573508,"current_range_meters":10000,"station_id":"ce4bgqh2rcd13ifvqc5g","pricing_plan_id":"cebpf4jnsgd1na2vs0mg"},{"bike_id":"f9224636-af69-4108-8bc7-e8433a5db3a3","system_id":"levelo_inurba_marseille","lat":43.25003,"lon":5.38933,"is_reserved":false,"is_disabled":false,"rental_uris":{"android":"levelo://app?vid=f9224636-af69-4108-8bc7-e8433a5db3a3","ios":"levelo://app?vid=f9224636-af69-4108-8bc7-e8433a5db3a3"},"vehicle_type_id":"4","last_reported":1742573508,"current_range_meters":10000,"station_id":"ce4bhgp2rcd13ifvqfd0","pricing_plan_id":"cebpf4jnsgd1na2vs0mg"},{"bike_id":"1f4b5356-d265-454a-aa48-2f7dec9d4d2a","system_id":"levelo_inurba_marseille","lat":43.33717,"lon":5.39238,"is_reserved":false,"is_disabled":false,"rental_uris":{"android":"levelo://app?vid=1f4b5356-d265-454a-aa48-2f7dec9d4d2a","ios":"levelo://app?vid=1f4b5356-d265-454a-aa48-2f7dec9d4d2a"},"vehicle_type_id":"4","last_reported":1742573508,"current_range_meters":10000,"station_id":"ce4bhr92rcd13ifvqhsg","pricing_plan_id":"cebpf4jnsgd1na2vs0mg"},{"bike_id":"a06df953-ee24-4eee-acd9-cfb685fc1c62","system_id":"levelo_inurba_marseille","lat":43.31407,"lon":5.3745,"is_reserved":false,"is_disabled":false,"rental_uris":{"android":"levelo://app?vid=a06df953-ee24-4eee-acd9-cfb685fc1c62","ios":"levelo://app?vid=a06df953-ee24-4eee-acd9-cfb685fc1c62"},"vehicle_type_id":"4","last_reported":1742573508,"current_range_meters":10800,"station_id":"","pricing_plan_id":"cebpf4jnsgd1na2vs0mg"},{"bike_id":"c19aec8c-21a5-4cef-859d-c26bb2a61d7b","system_id":"levelo_inurba_marseille","lat":43.3136,"lon":5.38499,"is_reserved":false,"is_disabled":false,"rental_uris":{"android":"levelo://app?vid=c19aec8c-21a5-4cef-859d-c26bb2a61d7b","ios":"levelo://app?vid=c19aec8c-21a5-4cef-859d-c26bb2a61d7b"},"vehicle_type_id":"4","last_reported":1742573508,"current_range_meters":10800,"station_id":"ce4bgt92rcd13ifvqcf0","pricing_plan_id":"cebpf4jnsgd1na2vs0mg"},{"bike_id":"52c16ac5-3447-4053-956c-78fc8bf0dc7c","system_id":"levelo_inurba_marseille","lat":43.32323,"lon":5.36724,"is_reserved":false,"is_disabled":false,"rental_uris":{"android":"levelo://app?vid=52c16ac5-3447-4053-956c-78fc8bf0dc7c","ios":"levelo://app?vid=52c16ac5-3447-4053-956c-78fc8bf0dc7c"},"vehicle_type_id":"4","last_reported":1742573508,"current_range_meters":10800,"station_id":"ce4bhsh2rcd13ifvqi2g","pricing_plan_id":"cebpf4jnsgd1na2vs0mg"},{"bike_id":"2b75be19-d94e-4b6c-be88-04f2452ee0ca","system_id":"levelo_inurba_marseille","lat":43.29416,"lon":5.38629,"is_reserved":false,"is_disabled":false,"rental_uris":{"android":"levelo://app?vid=2b75be19-d94e-4b6c-be88-04f2452ee0ca","ios":"levelo://app?vid=2b75be19-d94e-4b6c-be88-04f2452ee0ca"},"vehicle_type_id":"4","last_reported":1742573508,"current_range_meters":10800,"station_id":"ce4bh2h2rcd13ifvqdh0","pricing_plan_id":"cebpf4jnsgd1na2vs0mg"},{"bike_id":"9f1c3e5c-869d-4869-b7c6-0c926f2da6bf","system_id":"levelo_inurba_marseille","lat":43.28376,"lon":5.39786,"is_reserved":false,"is_disabled":false,"rental_uris":{"android":"levelo://app?vid=9f1c3e5c-869d-4869-b7c6-0c926f2da6bf","ios":"levelo://app?vid=9f1c3e5c-869d-4869-b7c6-0c926f2da6bf"},"vehicle_type_id":"4","last_reported":1742573508,"current_range_meters":10800,"station_id":"","pricing_plan_id":"cebpf4jnsgd1na2vs0mg"},{"bike_id":"4b0555ad-d2b5-4ecc-84f6-cfd625ff2258","system_id":"levelo_inurba_marseille","lat":43.32516,"lon":5.36568,"is_reserved":false,"is_disabled":false,"rental_uris":{"android":"levelo://app?vid=4b0555ad-d2b5-4ecc-84f6-cfd625ff2258","ios":"levelo://app?vid=4b0555ad-d2b5-4ecc-84f6-cfd625ff2258"},"vehicle_type_id":"4","last_reported":1742573508,"current_range_meters":10800,"station_id":"ce4bhs12rcd13ifvqhvg","pricing_plan_id":"cebpf4jnsgd1na2vs0mg"},{"bike_id":"4d620080-f21e-4ff2-b83f-03bb483a2d1f","system_id":"levelo_inurba_marseille","lat":43.27922,"lon":5.39582,"is_reserved":false,"is_disabled":false,"rental_uris":{"android":"levelo://app?vid=4d620080-f21e-4ff2-b83f-03bb483a2d1f","ios":"levelo://app?vid=4d620080-f21e-4ff2-b83f-03bb483a2d1f"},"vehicle_type_id":"4","last_reported":1742573508,"current_range_meters":10800,"station_id":"ce4bhf92rcd13ifvqf40","pricing_plan_id":"cebpf4jnsgd1na2vs0mg"},{"bike_id":"34d85503-fe05-4ef0-be2d-ae027523bea7","system_id":"levelo_inurba_marseille","lat":43.29509,"lon":5.37516,"is_reserved":false,"is_disabled":false,"rental_uris":{"android":"levelo://app?vid=34d85503-fe05-4ef0-be2d-ae027523bea7","ios":"levelo://app?vid=34d85503-fe05-4ef0-be2d-ae027523bea7"},"vehicle_type_id":"4","last_reported":1742573508,"current_range_meters":14400,"station_id":"ce4bgkp2rcd13ifvqbmg","pricing_plan_id":"cebpf4jnsgd1na2vs0mg"},{"bike_id":"37c8fdf5-6421-41e6-986c-33ac030fa386","system_id":"levelo_inurba_marseille","lat":43.29912,"lon":5.39756,"is_reserved":false,"is_disabled":false,"rental_uris":{"android":"levelo://app?vid=37c8fdf5-6421-41e6-986c-33ac030fa386","ios":"levelo://app?vid=37c8fdf5-6421-41e6-986c-33ac030fa386"},"vehicle_type_id":"4","last_reported":1742573508,"current_range_meters":10800,"station_id":"ce4bh0h2rcd13ifvqd50","pricing_plan_id":"cebpf4jnsgd1na2vs0mg"},{"bike_id":"86ba3482-a270-4470-a749-a3b0c0e4e405","system_id":"levelo_inurba_marseille","lat":43.30134,"lon":5.39873,"is_reserved":false,"is_disabled":false,"rental_uris":{"android":"levelo://app?vid=86ba3482-a270-4470-a749-a3b0c0e4e405","ios":"levelo://app?vid=86ba3482-a270-4470-a749-a3b0c0e4e405"},"vehicle_type_id":"4","last_reported":1742573508,"current_range_meters":10800,"station_id":"ce4bh0h2rcd13ifvqd40","pricing_plan_id":"cebpf4jnsgd1na2vs0mg"},{"bike_id":"0f80b972-4322-47c7-b207-99f01f8c9f01","system_id":"levelo_inurba_marseille","lat":43.26554,"lon":5.37287,"is_reserved":false,"is_disabled":false,"rental_uris":{"android":"levelo://app?vid=0f80b972-4322-47c7-b207-99f01f8c9f01","ios":"levelo://app?vid=0f80b972-4322-47c7-b207-99f01f8c9f01"},"vehicle_type_id":"4","last_reported":1742573508,"current_range_meters":10800,"station_id":"ce4bhg12rcd13ifvqf70","pricing_plan_id":"cebpf4jnsgd1na2vs0mg"},{"bike_id":"f0322b54-cc86-49b8-a830-6a67cfa8931a","system_id":"levelo_inurba_marseille","lat":43.30346,"lon":5.38622,"is_reserved":false,"is_disabled":false,"rental_uris":{"android":"levelo://app?vid=f0322b54-cc86-49b8-a830-6a67cfa8931a","ios":"levelo://app?vid=f0322b54-cc86-49b8-a830-6a67cfa8931a"},"vehicle_type_id":"4","last_reported":1742573508,"current_range_meters":11200,"station_id":"","pricing_plan_id":"cebpf4jnsgd1na2vs0mg"},{"bike_id":"f26047fe-e325-4cda-a7da-2e6f1320cab5","system_id":"levelo_inurba_marseille","lat":43.2648,"lon":5.39564,"is_reserved":false,"is_disabled":false,"rental_uris":{"android":"levelo://app?vid=f26047fe-e325-4cda-a7da-2e6f1320cab5","ios":"levelo://app?vid=f26047fe-e325-4cda-a7da-2e6f1320cab5"},"vehicle_type_id":"4","last_reported":1742573508,"current_range_meters":10800,"station_id":"ce4bhi12rcd13ifvqfq0","pricing_plan_id":"cebpf4jnsgd1na2vs0mg"},{"bike_id":"e62dac40-44c1-4bd0-960d-9e1c5df60e4a","system_id":"levelo_inurba_marseille","lat":43.30317,"lon":5.36899,"is_reserved":false,"is_disabled":false,"rental_uris":{"android":"levelo://app?vid=e62dac40-44c1-4bd0-960d-9e1c5df60e4a","ios":"levelo://app?vid=e62dac40-44c1-4bd0-960d-9e1c5df60e4a"},"vehicle_type_id":"4","last_reported":1742573508,"current_range_meters":10800,"station_id":"ce4bgqh2rcd13ifvqc5g","pricing_plan_id":"cebpf4jnsgd1na2vs0mg"},{"bike_id":"3ee69224-7c6a-448e-b5bc-935bb2df6bdf","system_id":"levelo_inurba_marseille","lat":43.280737,"lon":5.396537,"is_reserved":false,"is_disabled":false,"rental_uris":{"android":"levelo://app?vid=3ee69224-7c6a-448e-b5bc-935bb2df6bdf","ios":"levelo://app?vid=3ee69224-7c6a-448e-b5bc-935bb2df6bdf"},"vehicle_type_id":"4","last_reported":1742573508,"current_range_meters":10800,"station_id":"ce4bho12rcd13ifvqh2g","pricing_plan_id":"cebpf4jnsgd1na2vs0mg"},{"bike_id":"1c78c8dc-69da-4abe-8de1-c75c570b07ad","system_id":"levelo_inurba_marseille","lat":43.28621,"lon":5.35097,"is_reserved":false,"is_disabled":false,"rental_uris":{"android":"levelo://app?vid=1c78c8dc-69da-4abe-8de1-c75c570b07ad","ios":"levelo://app?vid=1c78c8dc-69da-4abe-8de1-c75c570b07ad"},"vehicle_type_id":"4","last_reported":1742573508,"current_range_meters":10800,"station_id":"ce4bhch2rcd13ifvqeug","pricing_plan_id":"cebpf4jnsgd1na2vs0mg"},{"bike_id":"4eed87ec-6ba8-4423-bb2a-902257d20a6d","system_id":"levelo_inurba_marseille","lat":43.2313,"lon":5.43708,"is_reserved":false,"is_disabled":false,"rental_uris":{"android":"levelo://app?vid=4eed87ec-6ba8-4423-bb2a-902257d20a6d","ios":"levelo://app?vid=4eed87ec-6ba8-4423-bb2a-902257d20a6d"},"vehicle_type_id":"4","last_reported":1742573508,"current_range_meters":11200,"station_id":"ce4bhmp2rcd13ifvqgog","pricing_plan_id":"cebpf4jnsgd1na2vs0mg"},{"bike_id":"486687c4-d722-4458-8a06-5ba4ca3dbb7e","system_id":"levelo_inurba_marseille","lat":43.26555,"lon":5.37288,"is_reserved":false,"is_disabled":false,"rental_uris":{"android":"levelo://app?vid=486687c4-d722-4458-8a06-5ba4ca3dbb7e","ios":"levelo://app?vid=486687c4-d722-4458-8a06-5ba4ca3dbb7e"},"vehicle_type_id":"4","last_reported":1742573508,"current_range_meters":11200,"station_id":"ce4bhg12rcd13ifvqf70","pricing_plan_id":"cebpf4jnsgd1na2vs0mg"},{"bike_id":"798b0616-faff-4d86-95fb-bae55574f3d5","system_id":"levelo_inurba_marseille","lat":43.30132,"lon":5.39876,"is_reserved":false,"is_disabled":false,"rental_uris":{"android":"levelo://app?vid=798b0616-faff-4d86-95fb-bae55574f3d5","ios":"levelo://app?vid=798b0616-faff-4d86-95fb-bae55574f3d5"},"vehicle_type_id":"4","last_reported":1742573508,"current_range_meters":11200,"station_id":"ce4bh0h2rcd13ifvqd40","pricing_plan_id":"cebpf4jnsgd1na2vs0mg"},{"bike_id":"fbbb3028-b15b-4750-98dc-ac90972ecc9b","system_id":"levelo_inurba_marseille","lat":43.3211,"lon":5.36784,"is_reserved":false,"is_disabled":false,"rental_uris":{"android":"levelo://app?vid=fbbb3028-b15b-4750-98dc-ac90972ecc9b","ios":"levelo://app?vid=fbbb3028-b15b-4750-98dc-ac90972ecc9b"},"vehicle_type_id":"4","last_reported":1742573508,"current_range_meters":11200,"station_id":"ce4bhrh2rcd13ifvqhug","pricing_plan_id":"cebpf4jnsgd1na2vs0mg"},{"bike_id":"276613ec-3310-44d6-ae3f-44328dd4fd15","system_id":"levelo_inurba_marseille","lat":43.25847,"lon":5.39429,"is_reserved":false,"is_disabled":false,"rental_uris":{"android":"levelo://app?vid=276613ec-3310-44d6-ae3f-44328dd4fd15","ios":"levelo://app?vid=276613ec-3310-44d6-ae3f-44328dd4fd15"},"vehicle_type_id":"4","last_reported":1742573508,"current_range_meters":11200,"station_id":"ce4bhip2rcd13ifvqft0","pricing_plan_id":"cebpf4jnsgd1na2vs0mg"},{"bike_id":"225f7fc2-2214-417a-94d8-573a71efde8e","system_id":"levelo_inurba_marseille","lat":43.29421,"lon":5.3863,"is_reserved":false,"is_disabled":false,"rental_uris":{"android":"levelo://app?vid=225f7fc2-2214-417a-94d8-573a71efde8e","ios":"levelo://app?vid=225f7fc2-2214-417a-94d8-573a71efde8e"},"vehicle_type_id":"4","last_reported":1742573508,"current_range_meters":11200,"station_id":"ce4bh2h2rcd13ifvqdh0","pricing_plan_id":"cebpf4jnsgd1na2vs0mg"},{"bike_id":"1b9561ea-161f-46a8-a691-c315bd08841f","system_id":"levelo_inurba_marseille","lat":43.26507,"lon":5.39522,"is_reserved":false,"is_disabled":false,"rental_uris":{"android":"levelo://app?vid=1b9561ea-161f-46a8-a691-c315bd08841f","ios":"levelo://app?vid=1b9561ea-161f-46a8-a691-c315bd08841f"},"vehicle_type_id":"4","last_reported":1742573508,"current_range_meters":11200,"station_id":"ce4bhi12rcd13ifvqfq0","pricing_plan_id":"cebpf4jnsgd1na2vs0mg"},{"bike_id":"257266cf-683b-4c8a-a350-70a5c3f41572","system_id":"levelo_inurba_marseille","lat":43.31184,"lon":5.3872,"is_reserved":false,"is_disabled":false,"rental_uris":{"android":"levelo://app?vid=257266cf-683b-4c8a-a350-70a5c3f41572","ios":"levelo://app?vid=257266cf-683b-4c8a-a350-70a5c3f41572"},"vehicle_type_id":"4","last_reported":1742573508,"current_range_meters":11600,"station_id":"ce4bgv12rcd13ifvqcp0","pricing_plan_id":"cebpf4jnsgd1na2vs0mg"},{"bike_id":"33063778-d13b-488d-a098-00d76ac265e1","system_id":"levelo_inurba_marseille","lat":43.31067,"lon":5.38354,"is_reserved":false,"is_disabled":false,"rental_uris":{"android":"levelo://app?vid=33063778-d13b-488d-a098-00d76ac265e1","ios":"levelo://app?vid=33063778-d13b-488d-a098-00d76ac265e1"},"vehicle_type_id":"4","last_reported":1742573508,"current_range_meters":11600,"station_id":"ce4bgv92rcd13ifvqcr0","pricing_plan_id":"cebpf4jnsgd1na2vs0mg"},{"bike_id":"339f8946-6d4c-4361-9f14-2488a0482822","system_id":"levelo_inurba_marseille","lat":43.28699,"lon":5.39988,"is_reserved":false,"is_disabled":false,"rental_uris":{"android":"levelo://app?vid=339f8946-6d4c-4361-9f14-2488a0482822","ios":"levelo://app?vid=339f8946-6d4c-4361-9f14-2488a0482822"},"vehicle_type_id":"4","last_reported":1742573508,"current_range_meters":11600,"station_id":"ce4bho92rcd13ifvqh3g","pricing_plan_id":"cebpf4jnsgd1na2vs0mg"},{"bike_id":"dc537980-6042-493d-8080-0667efb1d6ad","system_id":"levelo_inurba_marseille","lat":43.24549,"lon":5.39527,"is_reserved":false,"is_disabled":false,"rental_uris":{"android":"levelo://app?vid=dc537980-6042-493d-8080-0667efb1d6ad","ios":"levelo://app?vid=dc537980-6042-493d-8080-0667efb1d6ad"},"vehicle_type_id":"4","last_reported":1742573508,"current_range_meters":11600,"station_id":"ce4bhlp2rcd13ifvqgjg","pricing_plan_id":"cebpf4jnsgd1na2vs0mg"},{"bike_id":"3ddc33bd-e1d4-464e-94f5-7bf7dc1512b3","system_id":"levelo_inurba_marseille","lat":43.32289,"lon":5.38269,"is_reserved":false,"is_disabled":false,"rental_uris":{"android":"levelo://app?vid=3ddc33bd-e1d4-464e-94f5-7bf7dc1512b3","ios":"levelo://app?vid=3ddc33bd-e1d4-464e-94f5-7bf7dc1512b3"},"vehicle_type_id":"4","last_reported":1742573508,"current_range_meters":11600,"station_id":"ce4bhr12rcd13ifvqhqg","pricing_plan_id":"cebpf4jnsgd1na2vs0mg"},{"bike_id":"bba4f879-70b7-4b89-8049-fec406436484","system_id":"levelo_inurba_marseille","lat":43.24549,"lon":5.39528,"is_reserved":false,"is_disabled":false,"rental_uris":{"android":"levelo://app?vid=bba4f879-70b7-4b89-8049-fec406436484","ios":"levelo://app?vid=bba4f879-70b7-4b89-8049-fec406436484"},"vehicle_type_id":"4","last_reported":1742573508,"current_range_meters":11600,"station_id":"ce4bhlp2rcd13ifvqgjg","pricing_plan_id":"cebpf4jnsgd1na2vs0mg"},{"bike_id":"1fad67af-8cdd-43a0-aba6-5326c8e26603","system_id":"levelo_inurba_marseille","lat":43.28379,"lon":5.38617,"is_reserved":false,"is_disabled":false,"rental_uris":{"android":"levelo://app?vid=1fad67af-8cdd-43a0-aba6-5326c8e26603","ios":"levelo://app?vid=1fad67af-8cdd-43a0-aba6-5326c8e26603"},"vehicle_type_id":"4","last_reported":1742573508,"current_range_meters":11600,"station_id":"ce4bh492rcd13ifvqdvg","pricing_plan_id":"cebpf4jnsgd1na2vs0mg"},{"bike_id":"48f2a215-7a63-4ee4-b8ca-a2ac971f9a74","system_id":"levelo_inurba_marseille","lat":43.30358,"lon":5.41879,"is_reserved":false,"is_disabled":false,"rental_uris":{"android":"levelo://app?vid=48f2a215-7a63-4ee4-b8ca-a2ac971f9a74","ios":"levelo://app?vid=48f2a215-7a63-4ee4-b8ca-a2ac971f9a74"},"vehicle_type_id":"4","last_reported":1742573508,"current_range_meters":11600,"station_id":"ce4bhop2rcd13ifvqh7g","pricing_plan_id":"cebpf4jnsgd1na2vs0mg"},{"bike_id":"1f2450bd-5d37-4d98-a50b-ea6795b7b300","system_id":"levelo_inurba_marseille","lat":43.30895,"lon":5.371952,"is_reserved":false,"is_disabled":false,"rental_uris":{"android":"levelo://app?vid=1f2450bd-5d37-4d98-a50b-ea6795b7b300","ios":"levelo://app?vid=1f2450bd-5d37-4d98-a50b-ea6795b7b300"},"vehicle_type_id":"4","last_reported":1742573508,"current_range_meters":12000,"station_id":"ce4bguh2rcd13ifvqckg","pricing_plan_id":"cebpf4jnsgd1na2vs0mg"},{"bike_id":"f7b19721-c68b-4280-b653-43eff6dbb1fd","system_id":"levelo_inurba_marseille","lat":43.32102,"lon":5.36791,"is_reserved":false,"is_disabled":false,"rental_uris":{"android":"levelo://app?vid=f7b19721-c68b-4280-b653-43eff6dbb1fd","ios":"levelo://app?vid=f7b19721-c68b-4280-b653-43eff6dbb1fd"},"vehicle_type_id":"4","last_reported":1742573508,"current_range_meters":12000,"station_id":"ce4bhrh2rcd13ifvqhug","pricing_plan_id":"cebpf4jnsgd1na2vs0mg"},{"bike_id":"aad8559b-e137-4459-b1c9-e668b0a1b60c","system_id":"levelo_inurba_marseille","lat":43.30136,"lon":5.39881,"is_reserved":false,"is_disabled":false,"rental_uris":{"android":"levelo://app?vid=aad8559b-e137-4459-b1c9-e668b0a1b60c","ios":"levelo://app?vid=aad8559b-e137-4459-b1c9-e668b0a1b60c"},"vehicle_type_id":"4","last_reported":1742573508,"current_range_meters":12000,"station_id":"ce4bh0h2rcd13ifvqd40","pricing_plan_id":"cebpf4jnsgd1na2vs0mg"},{"bike_id":"acf55bcd-9f08-415b-bd2e-04491767d479","system_id":"levelo_inurba_marseille","lat":43.312781,"lon":5.401716,"is_reserved":false,"is_disabled":false,"rental_uris":{"android":"levelo://app?vid=acf55bcd-9f08-415b-bd2e-04491767d479","ios":"levelo://app?vid=acf55bcd-9f08-415b-bd2e-04491767d479"},"vehicle_type_id":"4","last_reported":1742573508,"current_range_meters":12000,"station_id":"ce4bh092rcd13ifvqd30","pricing_plan_id":"cebpf4jnsgd1na2vs0mg"},{"bike_id":"0dfb7246-4940-47d8-abaa-e2bf352d8448","system_id":"levelo_inurba_marseille","lat":43.28699,"lon":5.399775,"is_reserved":false,"is_disabled":false,"rental_uris":{"android":"levelo://app?vid=0dfb7246-4940-47d8-abaa-e2bf352d8448","ios":"levelo://app?vid=0dfb7246-4940-47d8-abaa-e2bf352d8448"},"vehicle_type_id":"4","last_reported":1742573508,"current_range_meters":12000,"station_id":"ce4bho92rcd13ifvqh3g","pricing_plan_id":"cebpf4jnsgd1na2vs0mg"},{"bike_id":"97f391d0-b5e0-46a3-8abf-6dc6a27d6fb0","system_id":"levelo_inurba_marseille","lat":43.29799,"lon":5.39352,"is_reserved":false,"is_disabled":false,"rental_uris":{"android":"levelo://app?vid=97f391d0-b5e0-46a3-8abf-6dc6a27d6fb0","ios":"levelo://app?vid=97f391d0-b5e0-46a3-8abf-6dc6a27d6fb0"},"vehicle_type_id":"4","last_reported":1742573508,"current_range_meters":12000,"station_id":"chh1huq6cuj3fo74tm60","pricing_plan_id":"cebpf4jnsgd1na2vs0mg"},{"bike_id":"29c299a3-8deb-46e4-8cd6-c7a928ea34d7","system_id":"levelo_inurba_marseille","lat":43.26559,"lon":5.3728,"is_reserved":false,"is_disabled":false,"rental_uris":{"android":"levelo://app?vid=29c299a3-8deb-46e4-8cd6-c7a928ea34d7","ios":"levelo://app?vid=29c299a3-8deb-46e4-8cd6-c7a928ea34d7"},"vehicle_type_id":"4","last_reported":1742573508,"current_range_meters":12400,"station_id":"ce4bhg12rcd13ifvqf70","pricing_plan_id":"cebpf4jnsgd1na2vs0mg"},{"bike_id":"6f21d642-1ff8-4437-97e4-2c2a50e89d88","system_id":"levelo_inurba_marseille","lat":43.32659,"lon":5.40984,"is_reserved":false,"is_disabled":false,"rental_uris":{"android":"levelo://app?vid=6f21d642-1ff8-4437-97e4-2c2a50e89d88","ios":"levelo://app?vid=6f21d642-1ff8-4437-97e4-2c2a50e89d88"},"vehicle_type_id":"4","last_reported":1742573508,"current_range_meters":12400,"station_id":"ce4bhpp2rcd13ifvqhgg","pricing_plan_id":"cebpf4jnsgd1na2vs0mg"},{"bike_id":"d5008c42-98f6-4ef7-bc26-398f502db47d","system_id":"levelo_inurba_marseille","lat":43.28707,"lon":5.39965,"is_reserved":false,"is_disabled":false,"rental_uris":{"android":"levelo://app?vid=d5008c42-98f6-4ef7-bc26-398f502db47d","ios":"levelo://app?vid=d5008c42-98f6-4ef7-bc26-398f502db47d"},"vehicle_type_id":"4","last_reported":1742573508,"current_range_meters":12400,"station_id":"ce4bho92rcd13ifvqh3g","pricing_plan_id":"cebpf4jnsgd1na2vs0mg"},{"bike_id":"ca61cb84-b066-4a04-aaa5-f4256f12cd87","system_id":"levelo_inurba_marseille","lat":43.29419,"lon":5.38622,"is_reserved":false,"is_disabled":false,"rental_uris":{"android":"levelo://app?vid=ca61cb84-b066-4a04-aaa5-f4256f12cd87","ios":"levelo://app?vid=ca61cb84-b066-4a04-aaa5-f4256f12cd87"},"vehicle_type_id":"4","last_reported":1742573508,"current_range_meters":12800,"station_id":"ce4bh2h2rcd13ifvqdh0","pricing_plan_id":"cebpf4jnsgd1na2vs0mg"},{"bike_id":"3edb904b-ad5d-447e-ba08-4ac1801adea2","system_id":"levelo_inurba_marseille","lat":43.28074,"lon":5.39648,"is_reserved":false,"is_disabled":false,"rental_uris":{"android":"levelo://app?vid=3edb904b-ad5d-447e-ba08-4ac1801adea2","ios":"levelo://app?vid=3edb904b-ad5d-447e-ba08-4ac1801adea2"},"vehicle_type_id":"4","last_reported":1742573508,"current_range_meters":12800,"station_id":"ce4bho12rcd13ifvqh2g","pricing_plan_id":"cebpf4jnsgd1na2vs0mg"},{"bike_id":"b1f6ea93-7044-495f-a7d4-bf4950cd6269","system_id":"levelo_inurba_marseille","lat":43.28849,"lon":5.39306,"is_reserved":false,"is_disabled":false,"rental_uris":{"android":"levelo://app?vid=b1f6ea93-7044-495f-a7d4-bf4950cd6269","ios":"levelo://app?vid=b1f6ea93-7044-495f-a7d4-bf4950cd6269"},"vehicle_type_id":"4","last_reported":1742573508,"current_range_meters":12800,"station_id":"ce4bh2p2rcd13ifvqdi0","pricing_plan_id":"cebpf4jnsgd1na2vs0mg"},{"bike_id":"fe239f3d-5c83-42bd-8b99-e0b3f3784fb5","system_id":"levelo_inurba_marseille","lat":43.24617,"lon":5.3839,"is_reserved":false,"is_disabled":false,"rental_uris":{"android":"levelo://app?vid=fe239f3d-5c83-42bd-8b99-e0b3f3784fb5","ios":"levelo://app?vid=fe239f3d-5c83-42bd-8b99-e0b3f3784fb5"},"vehicle_type_id":"4","last_reported":1742573508,"current_range_meters":12800,"station_id":"","pricing_plan_id":"cebpf4jnsgd1na2vs0mg"},{"bike_id":"295b2b96-8a22-4b6f-a45b-df5a7ed58969","system_id":"levelo_inurba_marseille","lat":43.33751,"lon":5.392,"is_reserved":false,"is_disabled":false,"rental_uris":{"android":"levelo://app?vid=295b2b96-8a22-4b6f-a45b-df5a7ed58969","ios":"levelo://app?vid=295b2b96-8a22-4b6f-a45b-df5a7ed58969"},"vehicle_type_id":"4","last_reported":1742573508,"current_range_meters":13600,"station_id":"ce4bhr92rcd13ifvqhsg","pricing_plan_id":"cebpf4jnsgd1na2vs0mg"},{"bike_id":"357fcb4a-31c7-44c2-9e15-2afb154d68e1","system_id":"levelo_inurba_marseille","lat":43.2872,"lon":5.37369,"is_reserved":false,"is_disabled":false,"rental_uris":{"android":"levelo://app?vid=357fcb4a-31c7-44c2-9e15-2afb154d68e1","ios":"levelo://app?vid=357fcb4a-31c7-44c2-9e15-2afb154d68e1"},"vehicle_type_id":"4","last_reported":1742573508,"current_range_meters":13600,"station_id":"ce4bh3p2rcd13ifvqdq0","pricing_plan_id":"cebpf4jnsgd1na2vs0mg"},{"bike_id":"60afe453-7d87-4345-970d-923e0e879b03","system_id":"levelo_inurba_marseille","lat":43.29881,"lon":5.39731,"is_reserved":false,"is_disabled":false,"rental_uris":{"android":"levelo://app?vid=60afe453-7d87-4345-970d-923e0e879b03","ios":"levelo://app?vid=60afe453-7d87-4345-970d-923e0e879b03"},"vehicle_type_id":"4","last_reported":1742573508,"current_range_meters":13600,"station_id":"ce4bh0h2rcd13ifvqd50","pricing_plan_id":"cebpf4jnsgd1na2vs0mg"},{"bike_id":"961b8a12-f229-4021-afa8-ab050915273b","system_id":"levelo_inurba_marseille","lat":43.29039,"lon":5.38147,"is_reserved":false,"is_disabled":false,"rental_uris":{"android":"levelo://app?vid=961b8a12-f229-4021-afa8-ab050915273b","ios":"levelo://app?vid=961b8a12-f229-4021-afa8-ab050915273b"},"vehicle_type_id":"4","last_reported":1742573508,"current_range_meters":13600,"station_id":"ce4bh4p2rcd13ifvqe1g","pricing_plan_id":"cebpf4jnsgd1na2vs0mg"},{"bike_id":"d09b0ce1-3b18-44fe-ab1d-252b5aad2033","system_id":"levelo_inurba_marseille","lat":43.29848,"lon":5.363,"is_reserved":false,"is_disabled":false,"rental_uris":{"android":"levelo://app?vid=d09b0ce1-3b18-44fe-ab1d-252b5aad2033","ios":"levelo://app?vid=d09b0ce1-3b18-44fe-ab1d-252b5aad2033"},"vehicle_type_id":"4","last_reported":1742573508,"current_range_meters":13600,"station_id":"ce4bgpp2rcd13ifvqc3g","pricing_plan_id":"cebpf4jnsgd1na2vs0mg"},{"bike_id":"0a508f78-69ff-4cbc-be36-7a8a3a087a4e","system_id":"levelo_inurba_marseille","lat":43.2953,"lon":5.39399,"is_reserved":false,"is_disabled":false,"rental_uris":{"android":"levelo://app?vid=0a508f78-69ff-4cbc-be36-7a8a3a087a4e","ios":"levelo://app?vid=0a508f78-69ff-4cbc-be36-7a8a3a087a4e"},"vehicle_type_id":"4","last_reported":1742573508,"current_range_meters":13600,"station_id":"ce4bh292rcd13ifvqdf0","pricing_plan_id":"cebpf4jnsgd1na2vs0mg"},{"bike_id":"b5fcb98a-c8d5-4f1a-a9b4-b3362af2a9c7","system_id":"levelo_inurba_marseille","lat":43.23057,"lon":5.35487,"is_reserved":false,"is_disabled":false,"rental_uris":{"android":"levelo://app?vid=b5fcb98a-c8d5-4f1a-a9b4-b3362af2a9c7","ios":"levelo://app?vid=b5fcb98a-c8d5-4f1a-a9b4-b3362af2a9c7"},"vehicle_type_id":"4","last_reported":1742573508,"current_range_meters":13600,"station_id":"cpo3342slgdg3j2ifvpg","pricing_plan_id":"cebpf4jnsgd1na2vs0mg"},{"bike_id":"da850836-2b44-47e8-8929-b31a7cf4c8fe","system_id":"levelo_inurba_marseille","lat":43.2781,"lon":5.40731,"is_reserved":false,"is_disabled":false,"rental_uris":{"android":"levelo://app?vid=da850836-2b44-47e8-8929-b31a7cf4c8fe","ios":"levelo://app?vid=da850836-2b44-47e8-8929-b31a7cf4c8fe"},"vehicle_type_id":"4","last_reported":1742573508,"current_range_meters":13600,"station_id":"ce4bhnh2rcd13ifvqgtg","pricing_plan_id":"cebpf4jnsgd1na2vs0mg"},{"bike_id":"83357f61-610c-43a4-980c-c462d635afa8","system_id":"levelo_inurba_marseille","lat":43.32035,"lon":5.41562,"is_reserved":false,"is_disabled":false,"rental_uris":{"android":"levelo://app?vid=83357f61-610c-43a4-980c-c462d635afa8","ios":"levelo://app?vid=83357f61-610c-43a4-980c-c462d635afa8"},"vehicle_type_id":"4","last_reported":1742573508,"current_range_meters":13600,"station_id":"ce4bhq92rcd13ifvqhkg","pricing_plan_id":"cebpf4jnsgd1na2vs0mg"},{"bike_id":"edfdad1f-408d-443e-937a-51d791046fb3","system_id":"levelo_inurba_marseille","lat":43.30226,"lon":5.39469,"is_reserved":false,"is_disabled":false,"rental_uris":{"android":"levelo://app?vid=edfdad1f-408d-443e-937a-51d791046fb3","ios":"levelo://app?vid=edfdad1f-408d-443e-937a-51d791046fb3"},"vehicle_type_id":"4","last_reported":1742573508,"current_range_meters":14000,"station_id":"ce4bh0p2rcd13ifvqd70","pricing_plan_id":"cebpf4jnsgd1na2vs0mg"},{"bike_id":"38044645-ece5-4bcd-8d4d-db0d7b3b13cd","system_id":"levelo_inurba_marseille","lat":43.24544,"lon":5.39541,"is_reserved":false,"is_disabled":false,"rental_uris":{"android":"levelo://app?vid=38044645-ece5-4bcd-8d4d-db0d7b3b13cd","ios":"levelo://app?vid=38044645-ece5-4bcd-8d4d-db0d7b3b13cd"},"vehicle_type_id":"4","last_reported":1742573508,"current_range_meters":14000,"station_id":"ce4bhlp2rcd13ifvqgjg","pricing_plan_id":"cebpf4jnsgd1na2vs0mg"},{"bike_id":"c5cfc8db-7976-4232-ac70-e31bb819dabf","system_id":"levelo_inurba_marseille","lat":43.31086,"lon":5.42433,"is_reserved":false,"is_disabled":false,"rental_uris":{"android":"levelo://app?vid=c5cfc8db-7976-4232-ac70-e31bb819dabf","ios":"levelo://app?vid=c5cfc8db-7976-4232-ac70-e31bb819dabf"},"vehicle_type_id":"4","last_reported":1742573508,"current_range_meters":14400,"station_id":"ce4bhp92rcd13ifvqhag","pricing_plan_id":"cebpf4jnsgd1na2vs0mg"},{"bike_id":"98089dec-9145-477f-b6c7-9ad1ff4ce10e","system_id":"levelo_inurba_marseille","lat":43.31693,"lon":5.40479,"is_reserved":false,"is_disabled":false,"rental_uris":{"android":"levelo://app?vid=98089dec-9145-477f-b6c7-9ad1ff4ce10e","ios":"levelo://app?vid=98089dec-9145-477f-b6c7-9ad1ff4ce10e"},"vehicle_type_id":"4","last_reported":1742573508,"current_range_meters":14400,"station_id":"ce4bh012rcd13ifvqd00","pricing_plan_id":"cebpf4jnsgd1na2vs0mg"},{"bike_id":"085d6e90-ff31-4453-a174-79277c92962a","system_id":"levelo_inurba_marseille","lat":43.31376,"lon":5.38487,"is_reserved":false,"is_disabled":false,"rental_uris":{"android":"levelo://app?vid=085d6e90-ff31-4453-a174-79277c92962a","ios":"levelo://app?vid=085d6e90-ff31-4453-a174-79277c92962a"},"vehicle_type_id":"4","last_reported":1742573508,"current_range_meters":14400,"station_id":"ce4bgt92rcd13ifvqcf0","pricing_plan_id":"cebpf4jnsgd1na2vs0mg"},{"bike_id":"8554844d-ad1f-4179-94b2-8ae283e549a0","system_id":"levelo_inurba_marseille","lat":43.30537,"lon":5.36542,"is_reserved":false,"is_disabled":false,"rental_uris":{"android":"levelo://app?vid=8554844d-ad1f-4179-94b2-8ae283e549a0","ios":"levelo://app?vid=8554844d-ad1f-4179-94b2-8ae283e549a0"},"vehicle_type_id":"4","last_reported":1742573508,"current_range_meters":14400,"station_id":"ce4bgs12rcd13ifvqcag","pricing_plan_id":"cebpf4jnsgd1na2vs0mg"},{"bike_id":"385a7c8f-1762-44e7-bc1b-afbb69957e81","system_id":"levelo_inurba_marseille","lat":43.31655,"lon":5.37197,"is_reserved":false,"is_disabled":false,"rental_uris":{"android":"levelo://app?vid=385a7c8f-1762-44e7-bc1b-afbb69957e81","ios":"levelo://app?vid=385a7c8f-1762-44e7-bc1b-afbb69957e81"},"vehicle_type_id":"4","last_reported":1742573508,"current_range_meters":14400,"station_id":"","pricing_plan_id":"cebpf4jnsgd1na2vs0mg"},{"bike_id":"16a2499d-9820-4f36-949a-a94bbd5e5647","system_id":"levelo_inurba_marseille","lat":43.30918,"lon":5.40155,"is_reserved":false,"is_disabled":false,"rental_uris":{"android":"levelo://app?vid=16a2499d-9820-4f36-949a-a94bbd5e5647","ios":"levelo://app?vid=16a2499d-9820-4f36-949a-a94bbd5e5647"},"vehicle_type_id":"4","last_reported":1742573508,"current_range_meters":14400,"station_id":"ce4bgvp2rcd13ifvqct0","pricing_plan_id":"cebpf4jnsgd1na2vs0mg"},{"bike_id":"bd8d68a4-7c02-43cb-8ecc-9dad85015f10","system_id":"levelo_inurba_marseille","lat":43.29252,"lon":5.40917,"is_reserved":false,"is_disabled":false,"rental_uris":{"android":"levelo://app?vid=bd8d68a4-7c02-43cb-8ecc-9dad85015f10","ios":"levelo://app?vid=bd8d68a4-7c02-43cb-8ecc-9dad85015f10"},"vehicle_type_id":"4","last_reported":1742573508,"current_range_meters":14400,"station_id":"ce4bh192rcd13ifvqdc0","pricing_plan_id":"cebpf4jnsgd1na2vs0mg"},{"bike_id":"5b0fce43-3e12-4757-9de7-875968833c20","system_id":"levelo_inurba_marseille","lat":43.28857,"lon":5.35851,"is_reserved":false,"is_disabled":false,"rental_uris":{"android":"levelo://app?vid=5b0fce43-3e12-4757-9de7-875968833c20","ios":"levelo://app?vid=5b0fce43-3e12-4757-9de7-875968833c20"},"vehicle_type_id":"4","last_reported":1742573508,"current_range_meters":14800,"station_id":"ce4bhb12rcd13ifvqem0","pricing_plan_id":"cebpf4jnsgd1na2vs0mg"},{"bike_id":"e9815d41-dd21-4bba-8b2d-1cc104ef55de","system_id":"levelo_inurba_marseille","lat":43.28039,"lon":5.36947,"is_reserved":false,"is_disabled":false,"rental_uris":{"android":"levelo://app?vid=e9815d41-dd21-4bba-8b2d-1cc104ef55de","ios":"levelo://app?vid=e9815d41-dd21-4bba-8b2d-1cc104ef55de"},"vehicle_type_id":"4","last_reported":1742573508,"current_range_meters":14800,"station_id":"ce4bha12rcd13ifvqef0","pricing_plan_id":"cebpf4jnsgd1na2vs0mg"},{"bike_id":"9683555e-fe04-4de7-b706-7a9b0019a6a7","system_id":"levelo_inurba_marseille","lat":43.33753,"lon":5.37495,"is_reserved":false,"is_disabled":true,"rental_uris":{"android":"levelo://app?vid=9683555e-fe04-4de7-b706-7a9b0019a6a7","ios":"levelo://app?vid=9683555e-fe04-4de7-b706-7a9b0019a6a7"},"vehicle_type_id":"4","last_reported":1742573508,"current_range_meters":14800,"station_id":"ce4bh2h2rcd13ifvqdh0","pricing_plan_id":"cebpf4jnsgd1na2vs0mg"},{"bike_id":"d3ebde68-98d7-4a24-a835-e6ce3b34fc4b","system_id":"levelo_inurba_marseille","lat":43.26555,"lon":5.37284,"is_reserved":false,"is_disabled":false,"rental_uris":{"android":"levelo://app?vid=d3ebde68-98d7-4a24-a835-e6ce3b34fc4b","ios":"levelo://app?vid=d3ebde68-98d7-4a24-a835-e6ce3b34fc4b"},"vehicle_type_id":"4","last_reported":1742573508,"current_range_meters":14800,"station_id":"ce4bhg12rcd13ifvqf70","pricing_plan_id":"cebpf4jnsgd1na2vs0mg"},{"bike_id":"1941e1fe-aa74-4007-afde-fda9d78d046e","system_id":"levelo_inurba_marseille","lat":43.29261,"lon":5.37637,"is_reserved":false,"is_disabled":false,"rental_uris":{"android":"levelo://app?vid=1941e1fe-aa74-4007-afde-fda9d78d046e","ios":"levelo://app?vid=1941e1fe-aa74-4007-afde-fda9d78d046e"},"vehicle_type_id":"4","last_reported":1742573508,"current_range_meters":15200,"station_id":"ce4bgi12rcd13ifvqb80","pricing_plan_id":"cebpf4jnsgd1na2vs0mg"},{"bike_id":"b9b43fbc-a2e4-40eb-8479-010c39cae221","system_id":"levelo_inurba_marseille","lat":43.295202,"lon":5.394026,"is_reserved":false,"is_disabled":false,"rental_uris":{"android":"levelo://app?vid=b9b43fbc-a2e4-40eb-8479-010c39cae221","ios":"levelo://app?vid=b9b43fbc-a2e4-40eb-8479-010c39cae221"},"vehicle_type_id":"4","last_reported":1742573508,"current_range_meters":15200,"station_id":"ce4bh292rcd13ifvqdf0","pricing_plan_id":"cebpf4jnsgd1na2vs0mg"},{"bike_id":"583a751e-f07d-4e84-a5dc-8f54144268e4","system_id":"levelo_inurba_marseille","lat":43.26505,"lon":5.39539,"is_reserved":false,"is_disabled":false,"rental_uris":{"android":"levelo://app?vid=583a751e-f07d-4e84-a5dc-8f54144268e4","ios":"levelo://app?vid=583a751e-f07d-4e84-a5dc-8f54144268e4"},"vehicle_type_id":"4","last_reported":1742573508,"current_range_meters":15200,"station_id":"ce4bhi12rcd13ifvqfq0","pricing_plan_id":"cebpf4jnsgd1na2vs0mg"},{"bike_id":"0aa0a03c-f78d-4a46-bdab-7487a81a4b05","system_id":"levelo_inurba_marseille","lat":43.284864,"lon":5.385465,"is_reserved":false,"is_disabled":false,"rental_uris":{"android":"levelo://app?vid=0aa0a03c-f78d-4a46-bdab-7487a81a4b05","ios":"levelo://app?vid=0aa0a03c-f78d-4a46-bdab-7487a81a4b05"},"vehicle_type_id":"4","last_reported":1742573508,"current_range_meters":15200,"station_id":"ce4bh8p2rcd13ifvqeb0","pricing_plan_id":"cebpf4jnsgd1na2vs0mg"},{"bike_id":"f7d99d5b-5d03-43fe-a8b3-3f8f3b5b929d","system_id":"levelo_inurba_marseille","lat":43.29895,"lon":5.39745,"is_reserved":false,"is_disabled":false,"rental_uris":{"android":"levelo://app?vid=f7d99d5b-5d03-43fe-a8b3-3f8f3b5b929d","ios":"levelo://app?vid=f7d99d5b-5d03-43fe-a8b3-3f8f3b5b929d"},"vehicle_type_id":"4","last_reported":1742573508,"current_range_meters":15200,"station_id":"ce4bh0h2rcd13ifvqd50","pricing_plan_id":"cebpf4jnsgd1na2vs0mg"},{"bike_id":"4ffcf960-69a7-4565-992e-d404ff7cb7c1","system_id":"levelo_inurba_marseille","lat":43.29248,"lon":5.40907,"is_reserved":false,"is_disabled":false,"rental_uris":{"android":"levelo://app?vid=4ffcf960-69a7-4565-992e-d404ff7cb7c1","ios":"levelo://app?vid=4ffcf960-69a7-4565-992e-d404ff7cb7c1"},"vehicle_type_id":"4","last_reported":1742573508,"current_range_meters":11200,"station_id":"ce4bh192rcd13ifvqdc0","pricing_plan_id":"cebpf4jnsgd1na2vs0mg"},{"bike_id":"6e0b2987-7114-46b3-ba18-75a8af637801","system_id":"levelo_inurba_marseille","lat":43.30382,"lon":5.4249,"is_reserved":false,"is_disabled":false,"rental_uris":{"android":"levelo://app?vid=6e0b2987-7114-46b3-ba18-75a8af637801","ios":"levelo://app?vid=6e0b2987-7114-46b3-ba18-75a8af637801"},"vehicle_type_id":"4","last_reported":1742573508,"current_range_meters":16000,"station_id":"ce4bhoh2rcd13ifvqh6g","pricing_plan_id":"cebpf4jnsgd1na2vs0mg"},{"bike_id":"5afd4d56-5d3c-418a-838a-8ffdf44a1c36","system_id":"levelo_inurba_marseille","lat":43.320385,"lon":5.415527,"is_reserved":false,"is_disabled":false,"rental_uris":{"android":"levelo://app?vid=5afd4d56-5d3c-418a-838a-8ffdf44a1c36","ios":"levelo://app?vid=5afd4d56-5d3c-418a-838a-8ffdf44a1c36"},"vehicle_type_id":"4","last_reported":1742573508,"current_range_meters":16000,"station_id":"ce4bhpp2rcd13ifvqhgg","pricing_plan_id":"cebpf4jnsgd1na2vs0mg"},{"bike_id":"1d6f3fb0-48b3-419b-b118-d4fcf9d3a1c0","system_id":"levelo_inurba_marseille","lat":43.28475,"lon":5.3757,"is_reserved":false,"is_disabled":false,"rental_uris":{"android":"levelo://app?vid=1d6f3fb0-48b3-419b-b118-d4fcf9d3a1c0","ios":"levelo://app?vid=1d6f3fb0-48b3-419b-b118-d4fcf9d3a1c0"},"vehicle_type_id":"4","last_reported":1742573508,"current_range_meters":16400,"station_id":"ce4bh412rcd13ifvqdr0","pricing_plan_id":"cebpf4jnsgd1na2vs0mg"},{"bike_id":"41c1f824-39c5-4121-b451-e5db2aab8aa1","system_id":"levelo_inurba_marseille","lat":43.30139,"lon":5.39861,"is_reserved":false,"is_disabled":false,"rental_uris":{"android":"levelo://app?vid=41c1f824-39c5-4121-b451-e5db2aab8aa1","ios":"levelo://app?vid=41c1f824-39c5-4121-b451-e5db2aab8aa1"},"vehicle_type_id":"4","last_reported":1742573508,"current_range_meters":16000,"station_id":"ce4bh0h2rcd13ifvqd40","pricing_plan_id":"cebpf4jnsgd1na2vs0mg"},{"bike_id":"f868f3a0-3960-43b4-a73e-6272eb02b90c","system_id":"levelo_inurba_marseille","lat":43.29168,"lon":5.37169,"is_reserved":false,"is_disabled":false,"rental_uris":{"android":"levelo://app?vid=f868f3a0-3960-43b4-a73e-6272eb02b90c","ios":"levelo://app?vid=f868f3a0-3960-43b4-a73e-6272eb02b90c"},"vehicle_type_id":"4","last_reported":1742573508,"current_range_meters":16000,"station_id":"ce4bha92rcd13ifvqeh0","pricing_plan_id":"cebpf4jnsgd1na2vs0mg"},{"bike_id":"605cf234-f225-408c-83a8-89a9c941a273","system_id":"levelo_inurba_marseille","lat":43.30133,"lon":5.39876,"is_reserved":false,"is_disabled":false,"rental_uris":{"android":"levelo://app?vid=605cf234-f225-408c-83a8-89a9c941a273","ios":"levelo://app?vid=605cf234-f225-408c-83a8-89a9c941a273"},"vehicle_type_id":"4","last_reported":1742573508,"current_range_meters":16000,"station_id":"ce4bh0h2rcd13ifvqd40","pricing_plan_id":"cebpf4jnsgd1na2vs0mg"},{"bike_id":"0b49bdf5-e1e6-4881-ad0b-23dfc5b30bed","system_id":"levelo_inurba_marseille","lat":43.30793,"lon":5.3765,"is_reserved":false,"is_disabled":false,"rental_uris":{"android":"levelo://app?vid=0b49bdf5-e1e6-4881-ad0b-23dfc5b30bed","ios":"levelo://app?vid=0b49bdf5-e1e6-4881-ad0b-23dfc5b30bed"},"vehicle_type_id":"4","last_reported":1742573508,"current_range_meters":16000,"station_id":"ce4bgv92rcd13ifvqcq0","pricing_plan_id":"cebpf4jnsgd1na2vs0mg"},{"bike_id":"47476f7a-6089-40f4-82cd-55d2acb8987b","system_id":"levelo_inurba_marseille","lat":43.23963,"lon":5.36634,"is_reserved":false,"is_disabled":false,"rental_uris":{"android":"levelo://app?vid=47476f7a-6089-40f4-82cd-55d2acb8987b","ios":"levelo://app?vid=47476f7a-6089-40f4-82cd-55d2acb8987b"},"vehicle_type_id":"4","last_reported":1742573508,"current_range_meters":16000,"station_id":"ce4bhi12rcd13ifvqfp0","pricing_plan_id":"cebpf4jnsgd1na2vs0mg"},{"bike_id":"f1c1254d-d9d6-4485-8910-4ae2a7c84bc0","system_id":"levelo_inurba_marseille","lat":43.23192,"lon":5.39983,"is_reserved":false,"is_disabled":false,"rental_uris":{"android":"levelo://app?vid=f1c1254d-d9d6-4485-8910-4ae2a7c84bc0","ios":"levelo://app?vid=f1c1254d-d9d6-4485-8910-4ae2a7c84bc0"},"vehicle_type_id":"4","last_reported":1742573508,"current_range_meters":16000,"station_id":"ce4bhn12rcd13ifvqgqg","pricing_plan_id":"cebpf4jnsgd1na2vs0mg"},{"bike_id":"f7003bb3-03d7-4582-a7f9-014098a0174d","system_id":"levelo_inurba_marseille","lat":43.32285,"lon":5.38286,"is_reserved":false,"is_disabled":false,"rental_uris":{"android":"levelo://app?vid=f7003bb3-03d7-4582-a7f9-014098a0174d","ios":"levelo://app?vid=f7003bb3-03d7-4582-a7f9-014098a0174d"},"vehicle_type_id":"4","last_reported":1742573508,"current_range_meters":16400,"station_id":"ce4bhr12rcd13ifvqhqg","pricing_plan_id":"cebpf4jnsgd1na2vs0mg"},{"bike_id":"e65fdea6-45d3-423a-85b4-6347f360306a","system_id":"levelo_inurba_marseille","lat":43.3302,"lon":5.39031,"is_reserved":false,"is_disabled":false,"rental_uris":{"android":"levelo://app?vid=e65fdea6-45d3-423a-85b4-6347f360306a","ios":"levelo://app?vid=e65fdea6-45d3-423a-85b4-6347f360306a"},"vehicle_type_id":"4","last_reported":1742573508,"current_range_meters":16400,"station_id":"ce4bhr92rcd13ifvqhrg","pricing_plan_id":"cebpf4jnsgd1na2vs0mg"},{"bike_id":"684ed3c4-225b-4961-a000-ca6df8c328e0","system_id":"levelo_inurba_marseille","lat":43.29911,"lon":5.39744,"is_reserved":false,"is_disabled":false,"rental_uris":{"android":"levelo://app?vid=684ed3c4-225b-4961-a000-ca6df8c328e0","ios":"levelo://app?vid=684ed3c4-225b-4961-a000-ca6df8c328e0"},"vehicle_type_id":"4","last_reported":1742573508,"current_range_meters":16400,"station_id":"","pricing_plan_id":"cebpf4jnsgd1na2vs0mg"},{"bike_id":"7e771b2a-22b9-4bc8-96cd-8e3ba0f36811","system_id":"levelo_inurba_marseille","lat":43.28119,"lon":5.37872,"is_reserved":false,"is_disabled":false,"rental_uris":{"android":"levelo://app?vid=7e771b2a-22b9-4bc8-96cd-8e3ba0f36811","ios":"levelo://app?vid=7e771b2a-22b9-4bc8-96cd-8e3ba0f36811"},"vehicle_type_id":"4","last_reported":1742573508,"current_range_meters":16400,"station_id":"ce4bha12rcd13ifvqee0","pricing_plan_id":"cebpf4jnsgd1na2vs0mg"},{"bike_id":"514035ca-4058-4010-81fa-5f74f554ce83","system_id":"levelo_inurba_marseille","lat":43.29977,"lon":5.38502,"is_reserved":false,"is_disabled":false,"rental_uris":{"android":"levelo://app?vid=514035ca-4058-4010-81fa-5f74f554ce83","ios":"levelo://app?vid=514035ca-4058-4010-81fa-5f74f554ce83"},"vehicle_type_id":"4","last_reported":1742573508,"current_range_meters":16400,"station_id":"ce4bgj92rcd13ifvqbd0","pricing_plan_id":"cebpf4jnsgd1na2vs0mg"},{"bike_id":"72503a27-a949-4a46-b139-c44d4f416a58","system_id":"levelo_inurba_marseille","lat":43.23183,"lon":5.3557,"is_reserved":false,"is_disabled":false,"rental_uris":{"android":"levelo://app?vid=72503a27-a949-4a46-b139-c44d4f416a58","ios":"levelo://app?vid=72503a27-a949-4a46-b139-c44d4f416a58"},"vehicle_type_id":"4","last_reported":1742573508,"current_range_meters":16400,"station_id":"ce4bhu92rcd13ifvqi70","pricing_plan_id":"cebpf4jnsgd1na2vs0mg"},{"bike_id":"64f51205-2913-4046-9dd8-8d7630cce332","system_id":"levelo_inurba_marseille","lat":43.28859,"lon":5.39308,"is_reserved":false,"is_disabled":false,"rental_uris":{"android":"levelo://app?vid=64f51205-2913-4046-9dd8-8d7630cce332","ios":"levelo://app?vid=64f51205-2913-4046-9dd8-8d7630cce332"},"vehicle_type_id":"4","last_reported":1742573508,"current_range_meters":16400,"station_id":"ce4bh2p2rcd13ifvqdi0","pricing_plan_id":"cebpf4jnsgd1na2vs0mg"},{"bike_id":"321a6bfc-d51c-466c-b5f3-db6834ca6be0","system_id":"levelo_inurba_marseille","lat":43.30469,"lon":5.37906,"is_reserved":false,"is_disabled":false,"rental_uris":{"android":"levelo://app?vid=321a6bfc-d51c-466c-b5f3-db6834ca6be0","ios":"levelo://app?vid=321a6bfc-d51c-466c-b5f3-db6834ca6be0"},"vehicle_type_id":"4","last_reported":1742573508,"current_range_meters":16400,"station_id":"ce4bgup2rcd13ifvqcn0","pricing_plan_id":"cebpf4jnsgd1na2vs0mg"},{"bike_id":"8b9f614e-92bb-4d27-8984-51ee40acdd3c","system_id":"levelo_inurba_marseille","lat":43.29595,"lon":5.38102,"is_reserved":false,"is_disabled":false,"rental_uris":{"android":"levelo://app?vid=8b9f614e-92bb-4d27-8984-51ee40acdd3c","ios":"levelo://app?vid=8b9f614e-92bb-4d27-8984-51ee40acdd3c"},"vehicle_type_id":"4","last_reported":1742573508,"current_range_meters":16400,"station_id":"ce4bgl12rcd13ifvqbo0","pricing_plan_id":"cebpf4jnsgd1na2vs0mg"},{"bike_id":"a490f70e-3087-422b-974e-2c896f9f495c","system_id":"levelo_inurba_marseille","lat":43.33766,"lon":5.39098,"is_reserved":false,"is_disabled":false,"rental_uris":{"android":"levelo://app?vid=a490f70e-3087-422b-974e-2c896f9f495c","ios":"levelo://app?vid=a490f70e-3087-422b-974e-2c896f9f495c"},"vehicle_type_id":"4","last_reported":1742573508,"current_range_meters":16400,"station_id":"","pricing_plan_id":"cebpf4jnsgd1na2vs0mg"},{"bike_id":"dc6517f9-591a-423f-bac6-cd0ceee7bc40","system_id":"levelo_inurba_marseille","lat":43.30479,"lon":5.37898,"is_reserved":false,"is_disabled":false,"rental_uris":{"android":"levelo://app?vid=dc6517f9-591a-423f-bac6-cd0ceee7bc40","ios":"levelo://app?vid=dc6517f9-591a-423f-bac6-cd0ceee7bc40"},"vehicle_type_id":"4","last_reported":1742573508,"current_range_meters":16400,"station_id":"ce4bgup2rcd13ifvqcn0","pricing_plan_id":"cebpf4jnsgd1na2vs0mg"},{"bike_id":"5b6747f8-9040-44f1-8a70-97bb2c5e13f5","system_id":"levelo_inurba_marseille","lat":43.30151,"lon":5.3807,"is_reserved":false,"is_disabled":false,"rental_uris":{"android":"levelo://app?vid=5b6747f8-9040-44f1-8a70-97bb2c5e13f5","ios":"levelo://app?vid=5b6747f8-9040-44f1-8a70-97bb2c5e13f5"},"vehicle_type_id":"4","last_reported":1742573508,"current_range_meters":16800,"station_id":"ce4bgjp2rcd13ifvqbh0","pricing_plan_id":"cebpf4jnsgd1na2vs0mg"},{"bike_id":"fbb498fe-0420-4fc0-a001-6f20ac1d59dd","system_id":"levelo_inurba_marseille","lat":43.33623,"lon":5.41031,"is_reserved":false,"is_disabled":true,"rental_uris":{"android":"levelo://app?vid=fbb498fe-0420-4fc0-a001-6f20ac1d59dd","ios":"levelo://app?vid=fbb498fe-0420-4fc0-a001-6f20ac1d59dd"},"vehicle_type_id":"4","last_reported":1742573508,"current_range_meters":16800,"station_id":"ce4bhqh2rcd13ifvqhmg","pricing_plan_id":"cebpf4jnsgd1na2vs0mg"},{"bike_id":"fabef5ba-78bd-444f-8775-d6c21179e6f7","system_id":"levelo_inurba_marseille","lat":43.29422,"lon":5.38618,"is_reserved":false,"is_disabled":true,"rental_uris":{"android":"levelo://app?vid=fabef5ba-78bd-444f-8775-d6c21179e6f7","ios":"levelo://app?vid=fabef5ba-78bd-444f-8775-d6c21179e6f7"},"vehicle_type_id":"4","last_reported":1742573508,"current_range_meters":16800,"station_id":"ce4bh2h2rcd13ifvqdh0","pricing_plan_id":"cebpf4jnsgd1na2vs0mg"},{"bike_id":"1d051785-f31b-4db2-bd9a-b1f97811e834","system_id":"levelo_inurba_marseille","lat":43.26569,"lon":5.37275,"is_reserved":false,"is_disabled":false,"rental_uris":{"android":"levelo://app?vid=1d051785-f31b-4db2-bd9a-b1f97811e834","ios":"levelo://app?vid=1d051785-f31b-4db2-bd9a-b1f97811e834"},"vehicle_type_id":"4","last_reported":1742573508,"current_range_meters":16800,"station_id":"ce4bhg12rcd13ifvqf70","pricing_plan_id":"cebpf4jnsgd1na2vs0mg"},{"bike_id":"7d9bf2d2-5153-499c-a1fb-dcb365a9e566","system_id":"levelo_inurba_marseille","lat":43.24184,"lon":5.39725,"is_reserved":false,"is_disabled":false,"rental_uris":{"android":"levelo://app?vid=7d9bf2d2-5153-499c-a1fb-dcb365a9e566","ios":"levelo://app?vid=7d9bf2d2-5153-499c-a1fb-dcb365a9e566"},"vehicle_type_id":"4","last_reported":1742573508,"current_range_meters":16800,"station_id":"ce4bhn12rcd13ifvqgpg","pricing_plan_id":"cebpf4jnsgd1na2vs0mg"},{"bike_id":"b4b2a2a4-db9f-4cf3-bbe3-0d0eeb6fd499","system_id":"levelo_inurba_marseille","lat":43.32012,"lon":5.3815,"is_reserved":false,"is_disabled":false,"rental_uris":{"android":"levelo://app?vid=b4b2a2a4-db9f-4cf3-bbe3-0d0eeb6fd499","ios":"levelo://app?vid=b4b2a2a4-db9f-4cf3-bbe3-0d0eeb6fd499"},"vehicle_type_id":"4","last_reported":1742573508,"current_range_meters":16800,"station_id":"ce4bhr12rcd13ifvqhpg","pricing_plan_id":"cebpf4jnsgd1na2vs0mg"},{"bike_id":"b8947409-508b-461c-b433-a1d5d02b6078","system_id":"levelo_inurba_marseille","lat":43.26555,"lon":5.37288,"is_reserved":false,"is_disabled":false,"rental_uris":{"android":"levelo://app?vid=b8947409-508b-461c-b433-a1d5d02b6078","ios":"levelo://app?vid=b8947409-508b-461c-b433-a1d5d02b6078"},"vehicle_type_id":"4","last_reported":1742573508,"current_range_meters":16800,"station_id":"ce4bhg12rcd13ifvqf70","pricing_plan_id":"cebpf4jnsgd1na2vs0mg"},{"bike_id":"31252256-cc1c-43ef-a05c-181aa83dd138","system_id":"levelo_inurba_marseille","lat":43.29528,"lon":5.39048,"is_reserved":false,"is_disabled":false,"rental_uris":{"android":"levelo://app?vid=31252256-cc1c-43ef-a05c-181aa83dd138","ios":"levelo://app?vid=31252256-cc1c-43ef-a05c-181aa83dd138"},"vehicle_type_id":"4","last_reported":1742573508,"current_range_meters":17200,"station_id":"ce4bh3p2rcd13ifvqdp0","pricing_plan_id":"cebpf4jnsgd1na2vs0mg"},{"bike_id":"01daf23e-8336-44a0-94cf-ff9a9018c2e3","system_id":"levelo_inurba_marseille","lat":43.27574,"lon":5.38406,"is_reserved":false,"is_disabled":false,"rental_uris":{"android":"levelo://app?vid=01daf23e-8336-44a0-94cf-ff9a9018c2e3","ios":"levelo://app?vid=01daf23e-8336-44a0-94cf-ff9a9018c2e3"},"vehicle_type_id":"4","last_reported":1742573508,"current_range_meters":17200,"station_id":"ce4bhh92rcd13ifvqfi0","pricing_plan_id":"cebpf4jnsgd1na2vs0mg"},{"bike_id":"f39eebaf-f4e1-4cce-8237-2c3fcbf1a21f","system_id":"levelo_inurba_marseille","lat":43.2905,"lon":5.35914,"is_reserved":false,"is_disabled":false,"rental_uris":{"android":"levelo://app?vid=f39eebaf-f4e1-4cce-8237-2c3fcbf1a21f","ios":"levelo://app?vid=f39eebaf-f4e1-4cce-8237-2c3fcbf1a21f"},"vehicle_type_id":"4","last_reported":1742573508,"current_range_meters":17200,"station_id":"ce4bha92rcd13ifvqeg0","pricing_plan_id":"cebpf4jnsgd1na2vs0mg"},{"bike_id":"890811b7-ee0b-44f6-b994-0aba951c2567","system_id":"levelo_inurba_marseille","lat":43.31278,"lon":5.4017,"is_reserved":false,"is_disabled":false,"rental_uris":{"android":"levelo://app?vid=890811b7-ee0b-44f6-b994-0aba951c2567","ios":"levelo://app?vid=890811b7-ee0b-44f6-b994-0aba951c2567"},"vehicle_type_id":"4","last_reported":1742573508,"current_range_meters":17200,"station_id":"ce4bh092rcd13ifvqd30","pricing_plan_id":"cebpf4jnsgd1na2vs0mg"},{"bike_id":"d0cf742f-b3d8-4f28-9887-331b047a4f10","system_id":"levelo_inurba_marseille","lat":43.3079,"lon":5.38153,"is_reserved":false,"is_disabled":false,"rental_uris":{"android":"levelo://app?vid=d0cf742f-b3d8-4f28-9887-331b047a4f10","ios":"levelo://app?vid=d0cf742f-b3d8-4f28-9887-331b047a4f10"},"vehicle_type_id":"4","last_reported":1742573508,"current_range_meters":17200,"station_id":"ce4bgt12rcd13ifvqce0","pricing_plan_id":"cebpf4jnsgd1na2vs0mg"},{"bike_id":"8a054b14-ea22-4e36-b02b-2d11ec563b2c","system_id":"levelo_inurba_marseille","lat":43.26066,"lon":5.39397,"is_reserved":false,"is_disabled":false,"rental_uris":{"android":"levelo://app?vid=8a054b14-ea22-4e36-b02b-2d11ec563b2c","ios":"levelo://app?vid=8a054b14-ea22-4e36-b02b-2d11ec563b2c"},"vehicle_type_id":"4","last_reported":1742573508,"current_range_meters":17200,"station_id":"ce4bhh92rcd13ifvqfj0","pricing_plan_id":"cebpf4jnsgd1na2vs0mg"},{"bike_id":"027b7ba4-6eaf-49f4-b436-402c5a65053e","system_id":"levelo_inurba_marseille","lat":43.28706,"lon":5.37931,"is_reserved":false,"is_disabled":false,"rental_uris":{"android":"levelo://app?vid=027b7ba4-6eaf-49f4-b436-402c5a65053e","ios":"levelo://app?vid=027b7ba4-6eaf-49f4-b436-402c5a65053e"},"vehicle_type_id":"4","last_reported":1742573508,"current_range_meters":16800,"station_id":"ce4bh9p2rcd13ifvqec0","pricing_plan_id":"cebpf4jnsgd1na2vs0mg"},{"bike_id":"e1a36a7c-e0d8-4417-b374-c92d0486cebb","system_id":"levelo_inurba_marseille","lat":43.29566,"lon":5.37522,"is_reserved":false,"is_disabled":false,"rental_uris":{"android":"levelo://app?vid=e1a36a7c-e0d8-4417-b374-c92d0486cebb","ios":"levelo://app?vid=e1a36a7c-e0d8-4417-b374-c92d0486cebb"},"vehicle_type_id":"4","last_reported":1742573508,"current_range_meters":17200,"station_id":"ce4bgh92rcd13ifvqb50","pricing_plan_id":"cebpf4jnsgd1na2vs0mg"},{"bike_id":"bbe18a63-3547-45c1-991c-472922ecddce","system_id":"levelo_inurba_marseille","lat":43.29534,"lon":5.3855,"is_reserved":false,"is_disabled":false,"rental_uris":{"android":"levelo://app?vid=bbe18a63-3547-45c1-991c-472922ecddce","ios":"levelo://app?vid=bbe18a63-3547-45c1-991c-472922ecddce"},"vehicle_type_id":"4","last_reported":1742573508,"current_range_meters":17200,"station_id":"ce4bgih2rcd13ifvqba0","pricing_plan_id":"cebpf4jnsgd1na2vs0mg"},{"bike_id":"d16d5ae2-a108-44f8-a226-14fecf4f3137","system_id":"levelo_inurba_marseille","lat":43.28002,"lon":5.40004,"is_reserved":false,"is_disabled":false,"rental_uris":{"android":"levelo://app?vid=d16d5ae2-a108-44f8-a226-14fecf4f3137","ios":"levelo://app?vid=d16d5ae2-a108-44f8-a226-14fecf4f3137"},"vehicle_type_id":"4","last_reported":1742573508,"current_range_meters":17200,"station_id":"ce4bho92rcd13ifvqh4g","pricing_plan_id":"cebpf4jnsgd1na2vs0mg"},{"bike_id":"11bfbbff-726c-4e95-a1f0-089f685bac68","system_id":"levelo_inurba_marseille","lat":43.2439,"lon":5.37062,"is_reserved":false,"is_disabled":false,"rental_uris":{"android":"levelo://app?vid=11bfbbff-726c-4e95-a1f0-089f685bac68","ios":"levelo://app?vid=11bfbbff-726c-4e95-a1f0-089f685bac68"},"vehicle_type_id":"4","last_reported":1742573508,"current_range_meters":17200,"station_id":"ce4bhhh2rcd13ifvqfk0","pricing_plan_id":"cebpf4jnsgd1na2vs0mg"},{"bike_id":"2032e81a-8d24-4036-9cc6-bf67698b8322","system_id":"levelo_inurba_marseille","lat":43.24154,"lon":5.39731,"is_reserved":false,"is_disabled":false,"rental_uris":{"android":"levelo://app?vid=2032e81a-8d24-4036-9cc6-bf67698b8322","ios":"levelo://app?vid=2032e81a-8d24-4036-9cc6-bf67698b8322"},"vehicle_type_id":"4","last_reported":1742573508,"current_range_meters":17200,"station_id":"ce4bhn12rcd13ifvqgpg","pricing_plan_id":"cebpf4jnsgd1na2vs0mg"},{"bike_id":"b6069b84-a07b-445d-a58c-8caad1641412","system_id":"levelo_inurba_marseille","lat":43.29317,"lon":5.37151,"is_reserved":false,"is_disabled":false,"rental_uris":{"android":"levelo://app?vid=b6069b84-a07b-445d-a58c-8caad1641412","ios":"levelo://app?vid=b6069b84-a07b-445d-a58c-8caad1641412"},"vehicle_type_id":"4","last_reported":1742573508,"current_range_meters":17200,"station_id":"ce4bgh92rcd13ifvqb40","pricing_plan_id":"cebpf4jnsgd1na2vs0mg"},{"bike_id":"567c2e92-6ce3-4f4d-8dc2-b36f773fb4fa","system_id":"levelo_inurba_marseille","lat":43.30265,"lon":5.40078,"is_reserved":false,"is_disabled":false,"rental_uris":{"android":"levelo://app?vid=567c2e92-6ce3-4f4d-8dc2-b36f773fb4fa","ios":"levelo://app?vid=567c2e92-6ce3-4f4d-8dc2-b36f773fb4fa"},"vehicle_type_id":"4","last_reported":1742573508,"current_range_meters":17200,"station_id":"ce4bgvh2rcd13ifvqcs0","pricing_plan_id":"cebpf4jnsgd1na2vs0mg"},{"bike_id":"351bea18-2e11-49dd-a774-c142d66d6c08","system_id":"levelo_inurba_marseille","lat":43.28567,"lon":5.39499,"is_reserved":false,"is_disabled":false,"rental_uris":{"android":"levelo://app?vid=351bea18-2e11-49dd-a774-c142d66d6c08","ios":"levelo://app?vid=351bea18-2e11-49dd-a774-c142d66d6c08"},"vehicle_type_id":"4","last_reported":1742573508,"current_range_meters":17600,"station_id":"ce4bh292rcd13ifvqdg0","pricing_plan_id":"cebpf4jnsgd1na2vs0mg"},{"bike_id":"528d96c4-a0eb-45e5-be7b-0c0d727ac068","system_id":"levelo_inurba_marseille","lat":43.30797,"lon":5.43523,"is_reserved":false,"is_disabled":false,"rental_uris":{"android":"levelo://app?vid=528d96c4-a0eb-45e5-be7b-0c0d727ac068","ios":"levelo://app?vid=528d96c4-a0eb-45e5-be7b-0c0d727ac068"},"vehicle_type_id":"4","last_reported":1742573508,"current_range_meters":17600,"station_id":"ce4bhph2rcd13ifvqheg","pricing_plan_id":"cebpf4jnsgd1na2vs0mg"},{"bike_id":"5e3e35b3-6759-4954-a22e-0acf9fa523e5","system_id":"levelo_inurba_marseille","lat":43.31358,"lon":5.36729,"is_reserved":false,"is_disabled":false,"rental_uris":{"android":"levelo://app?vid=5e3e35b3-6759-4954-a22e-0acf9fa523e5","ios":"levelo://app?vid=5e3e35b3-6759-4954-a22e-0acf9fa523e5"},"vehicle_type_id":"4","last_reported":1742573508,"current_range_meters":17600,"station_id":"ce4bgr92rcd13ifvqc6g","pricing_plan_id":"cebpf4jnsgd1na2vs0mg"},{"bike_id":"ff0b86f7-1349-4aed-8f97-17f96801d957","system_id":"levelo_inurba_marseille","lat":43.28434,"lon":5.39201,"is_reserved":false,"is_disabled":false,"rental_uris":{"android":"levelo://app?vid=ff0b86f7-1349-4aed-8f97-17f96801d957","ios":"levelo://app?vid=ff0b86f7-1349-4aed-8f97-17f96801d957"},"vehicle_type_id":"4","last_reported":1742573508,"current_range_meters":17600,"station_id":"ce4bhoh2rcd13ifvqh5g","pricing_plan_id":"cebpf4jnsgd1na2vs0mg"},{"bike_id":"20319b38-0bb2-4cba-8151-8eb47e1235c3","system_id":"levelo_inurba_marseille","lat":43.26953,"lon":5.39311,"is_reserved":false,"is_disabled":false,"rental_uris":{"android":"levelo://app?vid=20319b38-0bb2-4cba-8151-8eb47e1235c3","ios":"levelo://app?vid=20319b38-0bb2-4cba-8151-8eb47e1235c3"},"vehicle_type_id":"4","last_reported":1742573508,"current_range_meters":17600,"station_id":"","pricing_plan_id":"cebpf4jnsgd1na2vs0mg"},{"bike_id":"e92e00e4-6e10-44e9-9ebe-f52c29860674","system_id":"levelo_inurba_marseille","lat":43.28726,"lon":5.39996,"is_reserved":false,"is_disabled":false,"rental_uris":{"android":"levelo://app?vid=e92e00e4-6e10-44e9-9ebe-f52c29860674","ios":"levelo://app?vid=e92e00e4-6e10-44e9-9ebe-f52c29860674"},"vehicle_type_id":"4","last_reported":1742573508,"current_range_meters":17600,"station_id":"ce4bho92rcd13ifvqh3g","pricing_plan_id":"cebpf4jnsgd1na2vs0mg"},{"bike_id":"7b3bc240-601c-478c-937d-6d5599bb66bc","system_id":"levelo_inurba_marseille","lat":43.2622,"lon":5.37439,"is_reserved":false,"is_disabled":false,"rental_uris":{"android":"levelo://app?vid=7b3bc240-601c-478c-937d-6d5599bb66bc","ios":"levelo://app?vid=7b3bc240-601c-478c-937d-6d5599bb66bc"},"vehicle_type_id":"4","last_reported":1742573508,"current_range_meters":17600,"station_id":"ce4bhgp2rcd13ifvqfc0","pricing_plan_id":"cebpf4jnsgd1na2vs0mg"},{"bike_id":"302da745-dc3e-489e-b2c8-445dcb3c38b1","system_id":"levelo_inurba_marseille","lat":43.23073,"lon":5.355,"is_reserved":false,"is_disabled":false,"rental_uris":{"android":"levelo://app?vid=302da745-dc3e-489e-b2c8-445dcb3c38b1","ios":"levelo://app?vid=302da745-dc3e-489e-b2c8-445dcb3c38b1"},"vehicle_type_id":"4","last_reported":1742573508,"current_range_meters":17600,"station_id":"cpo3342slgdg3j2ifvpg","pricing_plan_id":"cebpf4jnsgd1na2vs0mg"},{"bike_id":"63e71ad8-73b4-4460-bfd8-e958ddd3c41a","system_id":"levelo_inurba_marseille","lat":43.30885,"lon":5.39657,"is_reserved":false,"is_disabled":false,"rental_uris":{"android":"levelo://app?vid=63e71ad8-73b4-4460-bfd8-e958ddd3c41a","ios":"levelo://app?vid=63e71ad8-73b4-4460-bfd8-e958ddd3c41a"},"vehicle_type_id":"4","last_reported":1742573508,"current_range_meters":17600,"station_id":"ce4bh012rcd13ifvqcv0","pricing_plan_id":"cebpf4jnsgd1na2vs0mg"},{"bike_id":"3861bda8-dded-4064-8b14-eff211895b68","system_id":"levelo_inurba_marseille","lat":43.28612,"lon":5.35119,"is_reserved":false,"is_disabled":false,"rental_uris":{"android":"levelo://app?vid=3861bda8-dded-4064-8b14-eff211895b68","ios":"levelo://app?vid=3861bda8-dded-4064-8b14-eff211895b68"},"vehicle_type_id":"4","last_reported":1742573508,"current_range_meters":17600,"station_id":"ce4bhch2rcd13ifvqeug","pricing_plan_id":"cebpf4jnsgd1na2vs0mg"},{"bike_id":"c10163d4-17b2-4595-a9a4-2356ead87ae7","system_id":"levelo_inurba_marseille","lat":43.29848,"lon":5.3627,"is_reserved":false,"is_disabled":false,"rental_uris":{"android":"levelo://app?vid=c10163d4-17b2-4595-a9a4-2356ead87ae7","ios":"levelo://app?vid=c10163d4-17b2-4595-a9a4-2356ead87ae7"},"vehicle_type_id":"4","last_reported":1742573508,"current_range_meters":17600,"station_id":"ce4bgpp2rcd13ifvqc3g","pricing_plan_id":"cebpf4jnsgd1na2vs0mg"},{"bike_id":"34e5a419-a461-44a0-b4bb-7045f7d55e36","system_id":"levelo_inurba_marseille","lat":43.31539,"lon":5.3803,"is_reserved":false,"is_disabled":false,"rental_uris":{"android":"levelo://app?vid=34e5a419-a461-44a0-b4bb-7045f7d55e36","ios":"levelo://app?vid=34e5a419-a461-44a0-b4bb-7045f7d55e36"},"vehicle_type_id":"4","last_reported":1742573508,"current_range_meters":17600,"station_id":"ce4bhsp2rcd13ifvqi50","pricing_plan_id":"cebpf4jnsgd1na2vs0mg"},{"bike_id":"041746e8-f612-4f02-ba2c-e784ef31f6c4","system_id":"levelo_inurba_marseille","lat":43.23155,"lon":5.4371,"is_reserved":false,"is_disabled":false,"rental_uris":{"android":"levelo://app?vid=041746e8-f612-4f02-ba2c-e784ef31f6c4","ios":"levelo://app?vid=041746e8-f612-4f02-ba2c-e784ef31f6c4"},"vehicle_type_id":"4","last_reported":1742573508,"current_range_meters":18000,"station_id":"ce4bhmp2rcd13ifvqgog","pricing_plan_id":"cebpf4jnsgd1na2vs0mg"},{"bike_id":"9bc3f53d-2cf2-4345-9e53-c0da14849bd2","system_id":"levelo_inurba_marseille","lat":43.27188,"lon":5.40988,"is_reserved":false,"is_disabled":false,"rental_uris":{"android":"levelo://app?vid=9bc3f53d-2cf2-4345-9e53-c0da14849bd2","ios":"levelo://app?vid=9bc3f53d-2cf2-4345-9e53-c0da14849bd2"},"vehicle_type_id":"4","last_reported":1742573508,"current_range_meters":18000,"station_id":"ce4bhl12rcd13ifvqgf0","pricing_plan_id":"cebpf4jnsgd1na2vs0mg"},{"bike_id":"4fcd5aa8-47a6-47e0-acf8-4669a5d049c7","system_id":"levelo_inurba_marseille","lat":43.3236,"lon":5.38889,"is_reserved":false,"is_disabled":false,"rental_uris":{"android":"levelo://app?vid=4fcd5aa8-47a6-47e0-acf8-4669a5d049c7","ios":"levelo://app?vid=4fcd5aa8-47a6-47e0-acf8-4669a5d049c7"},"vehicle_type_id":"4","last_reported":1742573508,"current_range_meters":18000,"station_id":"ce4bhqp2rcd13ifvqhog","pricing_plan_id":"cebpf4jnsgd1na2vs0mg"},{"bike_id":"a1abd43d-b831-4aef-806b-2c87564102d5","system_id":"levelo_inurba_marseille","lat":43.30896,"lon":5.37213,"is_reserved":false,"is_disabled":false,"rental_uris":{"android":"levelo://app?vid=a1abd43d-b831-4aef-806b-2c87564102d5","ios":"levelo://app?vid=a1abd43d-b831-4aef-806b-2c87564102d5"},"vehicle_type_id":"4","last_reported":1742573508,"current_range_meters":18000,"station_id":"ce4bguh2rcd13ifvqckg","pricing_plan_id":"cebpf4jnsgd1na2vs0mg"},{"bike_id":"d876b3f8-c14f-4c55-89c0-38001ca5fba4","system_id":"levelo_inurba_marseille","lat":43.2721,"lon":5.39184,"is_reserved":false,"is_disabled":false,"rental_uris":{"android":"levelo://app?vid=d876b3f8-c14f-4c55-89c0-38001ca5fba4","ios":"levelo://app?vid=d876b3f8-c14f-4c55-89c0-38001ca5fba4"},"vehicle_type_id":"4","last_reported":1742573508,"current_range_meters":18000,"station_id":"ce4bhhp2rcd13ifvqfm0","pricing_plan_id":"cebpf4jnsgd1na2vs0mg"},{"bike_id":"0107fb56-bdbb-44ce-b451-bb48458bd3dd","system_id":"levelo_inurba_marseille","lat":43.26078,"lon":5.39402,"is_reserved":false,"is_disabled":false,"rental_uris":{"android":"levelo://app?vid=0107fb56-bdbb-44ce-b451-bb48458bd3dd","ios":"levelo://app?vid=0107fb56-bdbb-44ce-b451-bb48458bd3dd"},"vehicle_type_id":"4","last_reported":1742573508,"current_range_meters":18000,"station_id":"ce4bhh92rcd13ifvqfj0","pricing_plan_id":"cebpf4jnsgd1na2vs0mg"},{"bike_id":"d9d90e28-0cde-498e-9e49-e2278f18bc23","system_id":"levelo_inurba_marseille","lat":43.32355,"lon":5.38913,"is_reserved":false,"is_disabled":false,"rental_uris":{"android":"levelo://app?vid=d9d90e28-0cde-498e-9e49-e2278f18bc23","ios":"levelo://app?vid=d9d90e28-0cde-498e-9e49-e2278f18bc23"},"vehicle_type_id":"4","last_reported":1742573508,"current_range_meters":18000,"station_id":"ce4bhqp2rcd13ifvqhog","pricing_plan_id":"cebpf4jnsgd1na2vs0mg"},{"bike_id":"167ce552-eac2-4d61-9e73-809d6c5d218c","system_id":"levelo_inurba_marseille","lat":43.2782,"lon":5.39199,"is_reserved":false,"is_disabled":false,"rental_uris":{"android":"levelo://app?vid=167ce552-eac2-4d61-9e73-809d6c5d218c","ios":"levelo://app?vid=167ce552-eac2-4d61-9e73-809d6c5d218c"},"vehicle_type_id":"4","last_reported":1742573508,"current_range_meters":18800,"station_id":"ce4bhjp2rcd13ifvqga0","pricing_plan_id":"cebpf4jnsgd1na2vs0mg"},{"bike_id":"3b7554be-f892-4f24-bedc-1fcf15a063f3","system_id":"levelo_inurba_marseille","lat":43.23203,"lon":5.35554,"is_reserved":false,"is_disabled":false,"rental_uris":{"android":"levelo://app?vid=3b7554be-f892-4f24-bedc-1fcf15a063f3","ios":"levelo://app?vid=3b7554be-f892-4f24-bedc-1fcf15a063f3"},"vehicle_type_id":"4","last_reported":1742573508,"current_range_meters":18800,"station_id":"ce4bhu92rcd13ifvqi70","pricing_plan_id":"cebpf4jnsgd1na2vs0mg"},{"bike_id":"838ee26b-42a6-4c5a-9801-28f81be1d28d","system_id":"levelo_inurba_marseille","lat":43.30788,"lon":5.37633,"is_reserved":false,"is_disabled":false,"rental_uris":{"android":"levelo://app?vid=838ee26b-42a6-4c5a-9801-28f81be1d28d","ios":"levelo://app?vid=838ee26b-42a6-4c5a-9801-28f81be1d28d"},"vehicle_type_id":"4","last_reported":1742573508,"current_range_meters":18800,"station_id":"ce4bgv92rcd13ifvqcq0","pricing_plan_id":"cebpf4jnsgd1na2vs0mg"},{"bike_id":"0aea01eb-7607-4fc7-9a76-fc17ec613578","system_id":"levelo_inurba_marseille","lat":43.28425,"lon":5.37511,"is_reserved":false,"is_disabled":false,"rental_uris":{"android":"levelo://app?vid=0aea01eb-7607-4fc7-9a76-fc17ec613578","ios":"levelo://app?vid=0aea01eb-7607-4fc7-9a76-fc17ec613578"},"vehicle_type_id":"4","last_reported":1742573508,"current_range_meters":18800,"station_id":"ce4bh412rcd13ifvqds0","pricing_plan_id":"cebpf4jnsgd1na2vs0mg"},