{"last_updated":1743382441,"ttl":60,"version":"2.2","data":{"bikes":[{"bike_id":"f28a2132-9d11-411c-a599-c4352a550e43","system_id":"levelo_inurba_marseille","lat":43.24904,"lon":5.39394,"is_reserved":false,"is_disabled":true,"rental_uris":{"android":"levelo://app?vid=f28a2132-9d11-411c-a599-c4352a550e43","ios":"levelo://app?vid=f28a2132-9d11-411c-a599-c4352a550e43"},"vehicle_type_id":"4","last_reported":1743382442,"current_range_meters":0,"station_id":"","pricing_plan_id":"cebpf4jnsgd1na2vs0mg"},{"bike_id":"524c0a99-e50a-4944-b98a-364c85fd198c","system_id":"levelo_inurba_marseille","lat":43.28641,"lon":5.44324,"is_reserved":false,"is_disabled":true,"rental_uris":{"android":"levelo://app?vid=524c0a99-e50a-4944-b98a-364c85fd198c","ios":"levelo://app?vid=524c0a99-e50a-4944-b98a-364c85fd198c"},"vehicle_type_id":"4","last_reported":1743382442,"current_range_meters":0,"station_id":"","pricing_plan_id":"cebpf4jnsgd1na2vs0mg"},{"bike_id":"646b4b6f-1ba9-4554-b1a7-e4dc009abba1","system_id":"levelo_inurba_marseille","lat":43.29106,"lon":5.42783,"is_reserved":false,"is_disabled":true,"rental_uris":{"android":"levelo://app?vid=646b4b6f-1ba9-4554-b1a7-e4dc009abba1","ios":"levelo://app?vid=646b4b6f-1ba9-4554-b1a7-e4dc009abba1"},"vehicle_type_id":"4","last_reported":1743382442,"current_range_meters":0,"station_id":"","pricing_plan_id":"cebpf4jnsgd1na2vs0mg"},{"bike_id":"be6725c0-5c09-4663-99b8-0b7371d27e21","system_id":"levelo_inurba_marseille","lat":43.25493,"lon":5.375,"is_reserved":false,"is_disabled":true,"rental_uris":{"android":"levelo://app?vid=be6725c0-5c09-4663-99b8-0b7371d27e21","ios":"levelo://app?vid=be6725c0-5c09-4663-99b8-0b7371d27e21"},"vehicle_type_id":"4","last_reported":1743382442,"current_range_meters":0,"station_id":"","pricing_plan_id":"cebpf4jnsgd1na2vs0mg"},{"bike_id":"579b8b66-6a37-4f4c-ad3b-0acee14f6d2d","system_id":"levelo_inurba_marseille","lat":43.29546,"lon":5.4426,"is_reserved":false,"is_disabled":true,"rental_uris":{"android":"levelo://app?vid=579b8b66-6a37-4f4c-ad3b-0acee14f6d2d","ios":"levelo://app?vid=579b8b66-6a37-4f4c-ad3b-0acee14f6d2d"},"vehicle_type_id":"4","last_reported":1743382442,"current_range_meters":0,"station_id":"","pricing_plan_id":"cebpf4jnsgd1na2vs0mg"},{"bike_id":"addfee32-b434-4d1a-a720-7460ebc95d3d","system_id":"levelo_inurba_marseille","lat":43.265915,"lon":5.393424,"is_reserved":false,"is_disabled":true,"rental_uris":{"android":"levelo://app?vid=addfee32-b434-4d1a-a720-7460ebc95d3d","ios":"levelo://app?vid=addfee32-b434-4d1a-a720-7460ebc95d3d"},"vehicle_type_id":"4","last_reported":1743382442,"current_range_meters":0,"station_id":"","pricing_plan_id":"cebpf4jnsgd1na2vs0mg"},{"bike_id":"04d84667-80d2-430a-a2ab-b0adb0b8c9ad","system_id":"levelo_inurba_marseille","lat":43.337444,"lon":5.374475,"is_reserved":false,"is_disabled":true,"rental_uris":{"android":"levelo://app?vid=04d84667-80d2-430a-a2ab-b0adb0b8c9ad","ios":"levelo://app?vid=04d84667-80d2-430a-a2ab-b0adb0b8c9ad"},"vehicle_type_id":"4","last_reported":1743382442,"current_range_meters":0,"station_id":"","pricing_plan_id":"cebpf4jnsgd1na2vs0mg"},{"bike_id":"deb3f671-3ace-4bcf-92e5-bfca91b65c0c","system_id":"levelo_inurba_marseille","lat":43.26911,"lon":5.39315,"is_reserved":false,"is_disabled":true,"rental_uris":{"android":"levelo://app?vid=deb3f671-3ace-4bcf-92e5-bfca91b65c0c","ios":"levelo://app?vid=deb3f671-3ace-4bcf-92e5-bfca91b65c0c"},"vehicle_type_id":"4","last_reported":1743382442,"current_range_meters":0,"station_id":"","pricing_plan_id":"cebpf4jnsgd1na2vs0mg"},{"bike_id":"288bb5a4-8592-4715-9f1c-af47147cb3c6","system_id":"levelo_inurba_marseille","lat":43.26151,"lon":5.41629,"is_reserved":false,"is_disabled":true,"rental_uris":{"android":"levelo://app?vid=288bb5a4-8592-4715-9f1c-af47147cb3c6","ios":"levelo://app?vid=288bb5a4-8592-4715-9f1c-af47147cb3c6"},"vehicle_type_id":"4","last_reported":1743382442,"current_range_meters":0,"station_id":"","pricing_plan_id":"cebpf4jnsgd1na2vs0mg"},{"bike_id":"c35f7468-1371-4b51-bf37-de9b928bcd7e","system_id":"levelo_inurba_marseille","lat":43.27915,"lon":5.41242,"is_reserved":false,"is_disabled":true,"rental_uris":{"android":"levelo://app?vid=c35f7468-1371-4b51-bf37-de9b928bcd7e","ios":"levelo://app?vid=c35f7468-1371-4b51-bf37-de9b928bcd7e"},"vehicle_type_id":"4","last_reported":1743382442,"current_range_meters":0,"station_id":"","pricing_plan_id":"cebpf4jnsgd1na2vs0mg"},{"bike_id":"28a0c0d8-d972-47f4-83ac-ced8ba391da9","system_id":"levelo_inurba_marseille","lat":43.30649,"lon":5.40092,"is_reserved":false,"is_disabled":true,"rental_uris":{"android":"levelo://app?vid=28a0c0d8-d972-47f4-83ac-ced8ba391da9","ios":"levelo://app?vid=28a0c0d8-d972-47f4-83ac-ced8ba391da9"},"vehicle_type_id":"4","last_reported":1743382442,"current_range_meters":0,"station_id":"ce4bh112rcd13ifvqda0","pricing_plan_id":"cebpf4jnsgd1na2vs0mg"},{"bike_id":"7a27eaeb-5a2f-4681-a220-1aeb5306552a","system_id":"levelo_inurba_marseille","lat":43.27381,"lon":5.41441,"is_reserved":false,"is_disabled":true,"rental_uris":{"android":"levelo://app?vid=7a27eaeb-5a2f-4681-a220-1aeb5306552a","ios":"levelo://app?vid=7a27eaeb-5a2f-4681-a220-1aeb5306552a"},"vehicle_type_id":"4","last_reported":1743382442,"current_range_meters":800,"station_id":"","pricing_plan_id":"cebpf4jnsgd1na2vs0mg"},{"bike_id":"54ddccb5-3e82-4e09-ad9d-1f88cce9f960","system_id":"levelo_inurba_marseille","lat":43.32995,"lon":5.43866,"is_reserved":false,"is_disabled":true,"rental_uris":{"android":"levelo://app?vid=54ddccb5-3e82-4e09-ad9d-1f88cce9f960","ios":"levelo://app?vid=54ddccb5-3e82-4e09-ad9d-1f88cce9f960"},"vehicle_type_id":"4","last_reported":1743382442,"current_range_meters":800,"station_id":"","pricing_plan_id":"cebpf4jnsgd1na2vs0mg"},{"bike_id":"761ced5a-5c25-496f-a9cb-7bf4a609bd79","system_id":"levelo_inurba_marseille","lat":43.29093,"lon":5.38158,"is_reserved":false,"is_disabled":false,"rental_uris":{"android":"levelo://app?vid=761ced5a-5c25-496f-a9cb-7bf4a609bd79","ios":"levelo://app?vid=761ced5a-5c25-496f-a9cb-7bf4a609bd79"},"vehicle_type_id":"4","last_reported":1743382442,"current_range_meters":3200,"station_id":"ce4bh512rcd13ifvqe2g","pricing_plan_id":"cebpf4jnsgd1na2vs0mg"},{"bike_id":"7c07071e-68ba-48b9-b431-26cb6c62ac42","system_id":"levelo_inurba_marseille","lat":43.30972,"lon":5.40482,"is_reserved":false,"is_disabled":false,"rental_uris":{"android":"levelo://app?vid=7c07071e-68ba-48b9-b431-26cb6c62ac42","ios":"levelo://app?vid=7c07071e-68ba-48b9-b431-26cb6c62ac42"},"vehicle_type_id":"4","last_reported":1743382442,"current_range_meters":3600,"station_id":"","pricing_plan_id":"cebpf4jnsgd1na2vs0mg"},{"bike_id":"90e43240-5fbb-4984-89b9-4fe361656612","system_id":"levelo_inurba_marseille","lat":43.28688,"lon":5.37332,"is_reserved":false,"is_disabled":false,"rental_uris":{"android":"levelo://app?vid=90e43240-5fbb-4984-89b9-4fe361656612","ios":"levelo://app?vid=90e43240-5fbb-4984-89b9-4fe361656612"},"vehicle_type_id":"4","last_reported":1743382442,"current_range_meters":3600,"station_id":"ce4bh3p2rcd13ifvqdq0","pricing_plan_id":"cebpf4jnsgd1na2vs0mg"},{"bike_id":"7a16227c-8b85-46e8-a87c-8349c4711248","system_id":"levelo_inurba_marseille","lat":43.2813,"lon":5.44607,"is_reserved":false,"is_disabled":false,"rental_uris":{"android":"levelo://app?vid=7a16227c-8b85-46e8-a87c-8349c4711248","ios":"levelo://app?vid=7a16227c-8b85-46e8-a87c-8349c4711248"},"vehicle_type_id":"4","last_reported":1743382442,"current_range_meters":4000,"station_id":"","pricing_plan_id":"cebpf4jnsgd1na2vs0mg"},{"bike_id":"6b630bab-586d-4918-9387-11a7f141fc2e","system_id":"levelo_inurba_marseille","lat":43.30593,"lon":5.3936,"is_reserved":false,"is_disabled":false,"rental_uris":{"android":"levelo://app?vid=6b630bab-586d-4918-9387-11a7f141fc2e","ios":"levelo://app?vid=6b630bab-586d-4918-9387-11a7f141fc2e"},"vehicle_type_id":"4","last_reported":1743382442,"current_range_meters":4000,"station_id":"ce4bh0p2rcd13ifvqd80","pricing_plan_id":"cebpf4jnsgd1na2vs0mg"},{"bike_id":"360d9955-ff3f-47af-ab0b-5ac80505515c","system_id":"levelo_inurba_marseille","lat":43.24665,"lon":5.38148,"is_reserved":false,"is_disabled":false,"rental_uris":{"android":"levelo://app?vid=360d9955-ff3f-47af-ab0b-5ac80505515c","ios":"levelo://app?vid=360d9955-ff3f-47af-ab0b-5ac80505515c"},"vehicle_type_id":"4","last_reported":1743382442,"current_range_meters":4000,"station_id":"ce4bhih2rcd13ifvqfr0","pricing_plan_id":"cebpf4jnsgd1na2vs0mg"},{"bike_id":"fdde11bf-c2fe-4ccd-9b43-6a2e94f13d8a","system_id":"levelo_inurba_marseille","lat":43.23196,"lon":5.35554,"is_reserved":false,"is_disabled":false,"rental_uris":{"android":"levelo://app?vid=fdde11bf-c2fe-4ccd-9b43-6a2e94f13d8a","ios":"levelo://app?vid=fdde11bf-c2fe-4ccd-9b43-6a2e94f13d8a"},"vehicle_type_id":"4","last_reported":1743382442,"current_range_meters":4000,"station_id":"ce4bhu92rcd13ifvqi70","pricing_plan_id":"cebpf4jnsgd1na2vs0mg"},{"bike_id":"4ac85f9e-5b07-4e93-b0ae-477825bffb27","system_id":"levelo_inurba_marseille","lat":43.23125,"lon":5.35624,"is_reserved":false,"is_disabled":false,"rental_uris":{"android":"levelo://app?vid=4ac85f9e-5b07-4e93-b0ae-477825bffb27","ios":"levelo://app?vid=4ac85f9e-5b07-4e93-b0ae-477825bffb27"},"vehicle_type_id":"4","last_reported":1743382442,"current_range_meters":4400,"station_id":"","pricing_plan_id":"cebpf4jnsgd1na2vs0mg"},{"bike_id":"e4023b76-3b3e-4e0a-83d8-f1f2c86a9a1a","system_id":"levelo_inurba_marseille","lat":43.25091,"lon":5.39515,"is_reserved":false,"is_disabled":false,"rental_uris":{"android":"levelo://app?vid=e4023b76-3b3e-4e0a-83d8-f1f2c86a9a1a","ios":"levelo://app?vid=e4023b76-3b3e-4e0a-83d8-f1f2c86a9a1a"},"vehicle_type_id":"4","last_reported":1743382442,"current_range_meters":4400,"station_id":"ce4bhm12rcd13ifvqgkg","pricing_plan_id":"cebpf4jnsgd1na2vs0mg"},{"bike_id":"94297c78-9551-48bb-8e6c-6b4b9126779c","system_id":"levelo_inurba_marseille","lat":43.29513,"lon":5.39405,"is_reserved":false,"is_disabled":false,"rental_uris":{"android":"levelo://app?vid=94297c78-9551-48bb-8e6c-6b4b9126779c","ios":"levelo://app?vid=94297c78-9551-48bb-8e6c-6b4b9126779c"},"vehicle_type_id":"4","last_reported":1743382442,"current_range_meters":4800,"station_id":"ce4bh292rcd13ifvqdf0","pricing_plan_id":"cebpf4jnsgd1na2vs0mg"},{"bike_id":"2c9578af-b0d9-47f5-ad7f-24de6a285c12","system_id":"levelo_inurba_marseille","lat":43.29097,"lon":5.38151,"is_reserved":false,"is_disabled":false,"rental_uris":{"android":"levelo://app?vid=2c9578af-b0d9-47f5-ad7f-24de6a285c12","ios":"levelo://app?vid=2c9578af-b0d9-47f5-ad7f-24de6a285c12"},"vehicle_type_id":"4","last_reported":1743382442,"current_range_meters":4800,"station_id":"ce4bh512rcd13ifvqe2g","pricing_plan_id":"cebpf4jnsgd1na2vs0mg"},{"bike_id":"fe6d6f07-05ac-424a-b90b-cbc12e60b19c","system_id":"levelo_inurba_marseille","lat":43.28359,"lon":5.38119,"is_reserved":false,"is_disabled":false,"rental_uris":{"android":"levelo://app?vid=fe6d6f07-05ac-424a-b90b-cbc12e60b19c","ios":"levelo://app?vid=fe6d6f07-05ac-424a-b90b-cbc12e60b19c"},"vehicle_type_id":"4","last_reported":1743382442,"current_range_meters":5600,"station_id":"ce4bh412rcd13ifvqdr0","pricing_plan_id":"cebpf4jnsgd1na2vs0mg"},{"bike_id":"1883c27e-144c-41ce-ab4f-aa27cd372bb9","system_id":"levelo_inurba_marseille","lat":43.28031,"lon":5.36933,"is_reserved":false,"is_disabled":false,"rental_uris":{"android":"levelo://app?vid=1883c27e-144c-41ce-ab4f-aa27cd372bb9","ios":"levelo://app?vid=1883c27e-144c-41ce-ab4f-aa27cd372bb9"},"vehicle_type_id":"4","last_reported":1743382442,"current_range_meters":6000,"station_id":"ce4bha12rcd13ifvqef0","pricing_plan_id":"cebpf4jnsgd1na2vs0mg"},{"bike_id":"42bc7b23-0e2f-4d72-b583-40bcdabb28c7","system_id":"levelo_inurba_marseille","lat":43.29543,"lon":5.3738,"is_reserved":false,"is_disabled":false,"rental_uris":{"android":"levelo://app?vid=42bc7b23-0e2f-4d72-b583-40bcdabb28c7","ios":"levelo://app?vid=42bc7b23-0e2f-4d72-b583-40bcdabb28c7"},"vehicle_type_id":"4","last_reported":1743382442,"current_range_meters":6400,"station_id":"","pricing_plan_id":"cebpf4jnsgd1na2vs0mg"},{"bike_id":"96ac20e8-5840-4579-b371-184ec6253952","system_id":"levelo_inurba_marseille","lat":43.274947,"lon":5.411394,"is_reserved":false,"is_disabled":false,"rental_uris":{"android":"levelo://app?vid=96ac20e8-5840-4579-b371-184ec6253952","ios":"levelo://app?vid=96ac20e8-5840-4579-b371-184ec6253952"},"vehicle_type_id":"4","last_reported":1743382442,"current_range_meters":6400,"station_id":"","pricing_plan_id":"cebpf4jnsgd1na2vs0mg"},{"bike_id":"56d29448-d7b6-4e90-a159-3b8ae5c1099a","system_id":"levelo_inurba_marseille","lat":43.28343,"lon":5.3808,"is_reserved":false,"is_disabled":false,"rental_uris":{"android":"levelo://app?vid=56d29448-d7b6-4e90-a159-3b8ae5c1099a","ios":"levelo://app?vid=56d29448-d7b6-4e90-a159-3b8ae5c1099a"},"vehicle_type_id":"4","last_reported":1743382442,"current_range_meters":6400,"station_id":"ce4bh412rcd13ifvqdr0","pricing_plan_id":"cebpf4jnsgd1na2vs0mg"},{"bike_id":"85062fdb-5189-4986-883f-98f74d185c95","system_id":"levelo_inurba_marseille","lat":43.27826,"lon":5.39206,"is_reserved":false,"is_disabled":false,"rental_uris":{"android":"levelo://app?vid=85062fdb-5189-4986-883f-98f74d185c95","ios":"levelo://app?vid=85062fdb-5189-4986-883f-98f74d185c95"},"vehicle_type_id":"4","last_reported":1743382442,"current_range_meters":6400,"station_id":"ce4bhjp2rcd13ifvqga0","pricing_plan_id":"cebpf4jnsgd1na2vs0mg"},{"bike_id":"95680750-2ec7-438d-ae6c-2a63efb22917","system_id":"levelo_inurba_marseille","lat":43.27068,"lon":5.42269,"is_reserved":false,"is_disabled":false,"rental_uris":{"android":"levelo://app?vid=95680750-2ec7-438d-ae6c-2a63efb22917","ios":"levelo://app?vid=95680750-2ec7-438d-ae6c-2a63efb22917"},"vehicle_type_id":"4","last_reported":1743382442,"current_range_meters":6400,"station_id":"ce4bhk92rcd13ifvqgb0","pricing_plan_id":"cebpf4jnsgd1na2vs0mg"},{"bike_id":"37f41d5f-3983-4db2-8781-c345307ed7b9","system_id":"levelo_inurba_marseille","lat":43.27495,"lon":5.42453,"is_reserved":false,"is_disabled":false,"rental_uris":{"android":"levelo://app?vid=37f41d5f-3983-4db2-8781-c345307ed7b9","ios":"levelo://app?vid=37f41d5f-3983-4db2-8781-c345307ed7b9"},"vehicle_type_id":"4","last_reported":1743382442,"current_range_meters":6400,"station_id":"ce4bhn92rcd13ifvqgrg","pricing_plan_id":"cebpf4jnsgd1na2vs0mg"},{"bike_id":"25bb5fbc-8229-4010-b703-31f5ee6ac141","system_id":"levelo_inurba_marseille","lat":43.30621,"lon":5.36562,"is_reserved":false,"is_disabled":false,"rental_uris":{"android":"levelo://app?vid=25bb5fbc-8229-4010-b703-31f5ee6ac141","ios":"levelo://app?vid=25bb5fbc-8229-4010-b703-31f5ee6ac141"},"vehicle_type_id":"4","last_reported":1743382442,"current_range_meters":6800,"station_id":"","pricing_plan_id":"cebpf4jnsgd1na2vs0mg"},{"bike_id":"d0ed36b4-3c5a-4da6-8fb4-955c321dd03a","system_id":"levelo_inurba_marseille","lat":43.27508,"lon":5.41027,"is_reserved":false,"is_disabled":false,"rental_uris":{"android":"levelo://app?vid=d0ed36b4-3c5a-4da6-8fb4-955c321dd03a","ios":"levelo://app?vid=d0ed36b4-3c5a-4da6-8fb4-955c321dd03a"},"vehicle_type_id":"4","last_reported":1743382442,"current_range_meters":6800,"station_id":"","pricing_plan_id":"cebpf4jnsgd1na2vs0mg"},{"bike_id":"6a19d630-bf6c-4c8a-be64-a4b6492e3489","system_id":"levelo_inurba_marseille","lat":43.31111,"lon":5.3777,"is_reserved":false,"is_disabled":false,"rental_uris":{"android":"levelo://app?vid=6a19d630-bf6c-4c8a-be64-a4b6492e3489","ios":"levelo://app?vid=6a19d630-bf6c-4c8a-be64-a4b6492e3489"},"vehicle_type_id":"4","last_reported":1743382442,"current_range_meters":6800,"station_id":"ce4bgt92rcd13ifvqcg0","pricing_plan_id":"cebpf4jnsgd1na2vs0mg"},{"bike_id":"18ffd8b5-b58f-4ff4-99c4-d0284b97d3ff","system_id":"levelo_inurba_marseille","lat":43.28921,"lon":5.36596,"is_reserved":false,"is_disabled":false,"rental_uris":{"android":"levelo://app?vid=18ffd8b5-b58f-4ff4-99c4-d0284b97d3ff","ios":"levelo://app?vid=18ffd8b5-b58f-4ff4-99c4-d0284b97d3ff"},"vehicle_type_id":"4","last_reported":1743382442,"current_range_meters":6800,"station_id":"ce4bhap2rcd13ifvqek0","pricing_plan_id":"cebpf4jnsgd1na2vs0mg"},{"bike_id":"e0743fb3-3f95-41cc-baee-399e42fa0d56","system_id":"levelo_inurba_marseille","lat":43.25724,"lon":5.41108,"is_reserved":false,"is_disabled":false,"rental_uris":{"android":"levelo://app?vid=e0743fb3-3f95-41cc-baee-399e42fa0d56","ios":"levelo://app?vid=e0743fb3-3f95-41cc-baee-399e42fa0d56"},"vehicle_type_id":"4","last_reported":1743382442,"current_range_meters":6800,"station_id":"ce4bhkp2rcd13ifvqgd0","pricing_plan_id":"cebpf4jnsgd1na2vs0mg"},{"bike_id":"bd941b2d-2cb5-472c-998b-f4462c0a8cac","system_id":"levelo_inurba_marseille","lat":43.27947,"lon":5.41031,"is_reserved":false,"is_disabled":false,"rental_uris":{"android":"levelo://app?vid=bd941b2d-2cb5-472c-998b-f4462c0a8cac","ios":"levelo://app?vid=bd941b2d-2cb5-472c-998b-f4462c0a8cac"},"vehicle_type_id":"4","last_reported":1743382442,"current_range_meters":6800,"station_id":"ce4bhnp2rcd13ifvqh0g","pricing_plan_id":"cebpf4jnsgd1na2vs0mg"},{"bike_id":"0bd05e5a-21c4-4c5d-8e58-f818e6cbd2b3","system_id":"levelo_inurba_marseille","lat":43.308881,"lon":5.396409,"is_reserved":false,"is_disabled":false,"rental_uris":{"android":"levelo://app?vid=0bd05e5a-21c4-4c5d-8e58-f818e6cbd2b3","ios":"levelo://app?vid=0bd05e5a-21c4-4c5d-8e58-f818e6cbd2b3"},"vehicle_type_id":"4","last_reported":1743382442,"current_range_meters":7200,"station_id":"ce4bh012rcd13ifvqcv0","pricing_plan_id":"cebpf4jnsgd1na2vs0mg"},{"bike_id":"8dad926c-0482-4381-8a18-3a3a3659fbd1","system_id":"levelo_inurba_marseille","lat":43.28421,"lon":5.37512,"is_reserved":false,"is_disabled":false,"rental_uris":{"android":"levelo://app?vid=8dad926c-0482-4381-8a18-3a3a3659fbd1","ios":"levelo://app?vid=8dad926c-0482-4381-8a18-3a3a3659fbd1"},"vehicle_type_id":"4","last_reported":1743382442,"current_range_meters":7200,"station_id":"ce4bh412rcd13ifvqds0","pricing_plan_id":"cebpf4jnsgd1na2vs0mg"},{"bike_id":"eb4db687-25ee-443f-a35c-1047fbf585b5","system_id":"levelo_inurba_marseille","lat":43.28416,"lon":5.37503,"is_reserved":false,"is_disabled":false,"rental_uris":{"android":"levelo://app?vid=eb4db687-25ee-443f-a35c-1047fbf585b5","ios":"levelo://app?vid=eb4db687-25ee-443f-a35c-1047fbf585b5"},"vehicle_type_id":"4","last_reported":1743382442,"current_range_meters":7200,"station_id":"ce4bh412rcd13ifvqds0","pricing_plan_id":"cebpf4jnsgd1na2vs0mg"},{"bike_id":"1a19be2c-4d6f-4c17-93ea-16abc221547c","system_id":"levelo_inurba_marseille","lat":43.28713,"lon":5.37925,"is_reserved":false,"is_disabled":false,"rental_uris":{"android":"levelo://app?vid=1a19be2c-4d6f-4c17-93ea-16abc221547c","ios":"levelo://app?vid=1a19be2c-4d6f-4c17-93ea-16abc221547c"},"vehicle_type_id":"4","last_reported":1743382442,"current_range_meters":7200,"station_id":"ce4bh9p2rcd13ifvqec0","pricing_plan_id":"cebpf4jnsgd1na2vs0mg"},{"bike_id":"ea0f0861-9d06-4d26-8986-d926f68481ed","system_id":"levelo_inurba_marseille","lat":43.27939,"lon":5.39589,"is_reserved":false,"is_disabled":false,"rental_uris":{"android":"levelo://app?vid=ea0f0861-9d06-4d26-8986-d926f68481ed","ios":"levelo://app?vid=ea0f0861-9d06-4d26-8986-d926f68481ed"},"vehicle_type_id":"4","last_reported":1743382442,"current_range_meters":7200,"station_id":"ce4bhf92rcd13ifvqf40","pricing_plan_id":"cebpf4jnsgd1na2vs0mg"},{"bike_id":"7325f9cd-e964-451a-9d25-93e7785861e7","system_id":"levelo_inurba_marseille","lat":43.27567,"lon":5.38436,"is_reserved":false,"is_disabled":false,"rental_uris":{"android":"levelo://app?vid=7325f9cd-e964-451a-9d25-93e7785861e7","ios":"levelo://app?vid=7325f9cd-e964-451a-9d25-93e7785861e7"},"vehicle_type_id":"4","last_reported":1743382442,"current_range_meters":7200,"station_id":"ce4bhh92rcd13ifvqfi0","pricing_plan_id":"cebpf4jnsgd1na2vs0mg"},{"bike_id":"d2464740-db85-4794-a0dc-559f8c565e31","system_id":"levelo_inurba_marseille","lat":43.30326,"lon":5.36906,"is_reserved":false,"is_disabled":false,"rental_uris":{"android":"levelo://app?vid=d2464740-db85-4794-a0dc-559f8c565e31","ios":"levelo://app?vid=d2464740-db85-4794-a0dc-559f8c565e31"},"vehicle_type_id":"4","last_reported":1743382442,"current_range_meters":8000,"station_id":"ce4bgqh2rcd13ifvqc5g","pricing_plan_id":"cebpf4jnsgd1na2vs0mg"},{"bike_id":"6c649787-1fb1-48d1-a8fc-6081cbc7958a","system_id":"levelo_inurba_marseille","lat":43.31105,"lon":5.37784,"is_reserved":false,"is_disabled":false,"rental_uris":{"android":"levelo://app?vid=6c649787-1fb1-48d1-a8fc-6081cbc7958a","ios":"levelo://app?vid=6c649787-1fb1-48d1-a8fc-6081cbc7958a"},"vehicle_type_id":"4","last_reported":1743382442,"current_range_meters":8000,"station_id":"ce4bgt92rcd13ifvqcg0","pricing_plan_id":"cebpf4jnsgd1na2vs0mg"},{"bike_id":"d3439c95-a7ce-46d9-8363-a111c027ec07","system_id":"levelo_inurba_marseille","lat":43.31117,"lon":5.37782,"is_reserved":false,"is_disabled":false,"rental_uris":{"android":"levelo://app?vid=d3439c95-a7ce-46d9-8363-a111c027ec07","ios":"levelo://app?vid=d3439c95-a7ce-46d9-8363-a111c027ec07"},"vehicle_type_id":"4","last_reported":1743382442,"current_range_meters":8000,"station_id":"ce4bgt92rcd13ifvqcg0","pricing_plan_id":"cebpf4jnsgd1na2vs0mg"},{"bike_id":"feae1bc9-79f9-4ea6-a617-860834b223f0","system_id":"levelo_inurba_marseille","lat":43.31318,"lon":5.39698,"is_reserved":false,"is_disabled":false,"rental_uris":{"android":"levelo://app?vid=feae1bc9-79f9-4ea6-a617-860834b223f0","ios":"levelo://app?vid=feae1bc9-79f9-4ea6-a617-860834b223f0"},"vehicle_type_id":"4","last_reported":1743382442,"current_range_meters":8000,"station_id":"ce4bgvp2rcd13ifvqcu0","pricing_plan_id":"cebpf4jnsgd1na2vs0mg"},{"bike_id":"3b6d2e40-f4c8-4b87-a7f6-2b1686bde9a4","system_id":"levelo_inurba_marseille","lat":43.28341,"lon":5.38113,"is_reserved":false,"is_disabled":false,"rental_uris":{"android":"levelo://app?vid=3b6d2e40-f4c8-4b87-a7f6-2b1686bde9a4","ios":"levelo://app?vid=3b6d2e40-f4c8-4b87-a7f6-2b1686bde9a4"},"vehicle_type_id":"4","last_reported":1743382442,"current_range_meters":8000,"station_id":"ce4bh412rcd13ifvqdr0","pricing_plan_id":"cebpf4jnsgd1na2vs0mg"},{"bike_id":"6995bcd1-b1cc-4780-80c3-df67787fe1d4","system_id":"levelo_inurba_marseille","lat":43.28477,"lon":5.35924,"is_reserved":false,"is_disabled":false,"rental_uris":{"android":"levelo://app?vid=6995bcd1-b1cc-4780-80c3-df67787fe1d4","ios":"levelo://app?vid=6995bcd1-b1cc-4780-80c3-df67787fe1d4"},"vehicle_type_id":"4","last_reported":1743382442,"current_range_meters":8000,"station_id":"ce4bhah2rcd13ifvqei0","pricing_plan_id":"cebpf4jnsgd1na2vs0mg"},{"bike_id":"ec214d59-e307-435e-82f5-8a58499dbb5f","system_id":"levelo_inurba_marseille","lat":43.27564,"lon":5.38419,"is_reserved":false,"is_disabled":false,"rental_uris":{"android":"levelo://app?vid=ec214d59-e307-435e-82f5-8a58499dbb5f","ios":"levelo://app?vid=ec214d59-e307-435e-82f5-8a58499dbb5f"},"vehicle_type_id":"4","last_reported":1743382442,"current_range_meters":8000,"station_id":"ce4bhh92rcd13ifvqfi0","pricing_plan_id":"cebpf4jnsgd1na2vs0mg"},{"bike_id":"93b55f3d-b1dd-4f3f-b1f6-f78029e736da","system_id":"levelo_inurba_marseille","lat":43.23157,"lon":5.43708,"is_reserved":false,"is_disabled":false,"rental_uris":{"android":"levelo://app?vid=93b55f3d-b1dd-4f3f-b1f6-f78029e736da","ios":"levelo://app?vid=93b55f3d-b1dd-4f3f-b1f6-f78029e736da"},"vehicle_type_id":"4","last_reported":1743382442,"current_range_meters":8000,"station_id":"ce4bhmp2rcd13ifvqgog","pricing_plan_id":"cebpf4jnsgd1na2vs0mg"},{"bike_id":"f43cccf4-7cd2-4fa6-9fbb-fb74d7164516","system_id":"levelo_inurba_marseille","lat":43.24069,"lon":5.37766,"is_reserved":false,"is_disabled":false,"rental_uris":{"android":"levelo://app?vid=f43cccf4-7cd2-4fa6-9fbb-fb74d7164516","ios":"levelo://app?vid=f43cccf4-7cd2-4fa6-9fbb-fb74d7164516"},"vehicle_type_id":"4","last_reported":1743382442,"current_range_meters":8000,"station_id":"ce4bhnp2rcd13ifvqgvg","pricing_plan_id":"cebpf4jnsgd1na2vs0mg"},{"bike_id":"9ed69624-3b57-4436-ba9e-f6097ca1a4d2","system_id":"levelo_inurba_marseille","lat":43.27941,"lon":5.41044,"is_reserved":false,"is_disabled":false,"rental_uris":{"android":"levelo://app?vid=9ed69624-3b57-4436-ba9e-f6097ca1a4d2","ios":"levelo://app?vid=9ed69624-3b57-4436-ba9e-f6097ca1a4d2"},"vehicle_type_id":"4","last_reported":1743382442,"current_range_meters":8000,"station_id":"ce4bhnp2rcd13ifvqh0g","pricing_plan_id":"cebpf4jnsgd1na2vs0mg"},{"bike_id":"a61e929a-8f51-4802-a48f-59a3600cc8f3","system_id":"levelo_inurba_marseille","lat":43.24641,"lon":5.3811,"is_reserved":false,"is_disabled":false,"rental_uris":{"android":"levelo://app?vid=a61e929a-8f51-4802-a48f-59a3600cc8f3","ios":"levelo://app?vid=a61e929a-8f51-4802-a48f-59a3600cc8f3"},"vehicle_type_id":"4","last_reported":1743382442,"current_range_meters":8400,"station_id":"","pricing_plan_id":"cebpf4jnsgd1na2vs0mg"},{"bike_id":"86f139b9-ffd3-4a79-86e8-d22d017328ee","system_id":"levelo_inurba_marseille","lat":43.34722,"lon":5.38129,"is_reserved":false,"is_disabled":false,"rental_uris":{"android":"levelo://app?vid=86f139b9-ffd3-4a79-86e8-d22d017328ee","ios":"levelo://app?vid=86f139b9-ffd3-4a79-86e8-d22d017328ee"},"vehicle_type_id":"4","last_reported":1743382442,"current_range_meters":8400,"station_id":"","pricing_plan_id":"cebpf4jnsgd1na2vs0mg"},{"bike_id":"6abfcf76-b46b-48ec-9741-222295465860","system_id":"levelo_inurba_marseille","lat":43.28612,"lon":5.37067,"is_reserved":false,"is_disabled":false,"rental_uris":{"android":"levelo://app?vid=6abfcf76-b46b-48ec-9741-222295465860","ios":"levelo://app?vid=6abfcf76-b46b-48ec-9741-222295465860"},"vehicle_type_id":"4","last_reported":1743382442,"current_range_meters":8400,"station_id":"ce4bh312rcd13ifvqdj0","pricing_plan_id":"cebpf4jnsgd1na2vs0mg"},{"bike_id":"cb950b1c-8de5-416f-ab3d-1f60f60b3d8d","system_id":"levelo_inurba_marseille","lat":43.28667,"lon":5.36352,"is_reserved":false,"is_disabled":false,"rental_uris":{"android":"levelo://app?vid=cb950b1c-8de5-416f-ab3d-1f60f60b3d8d","ios":"levelo://app?vid=cb950b1c-8de5-416f-ab3d-1f60f60b3d8d"},"vehicle_type_id":"4","last_reported":1743382442,"current_range_meters":8400,"station_id":"ce4bhah2rcd13ifvqej0","pricing_plan_id":"cebpf4jnsgd1na2vs0mg"},{"bike_id":"0d48df8e-25d3-4bea-9b13-4e7c28d30250","system_id":"levelo_inurba_marseille","lat":43.27575,"lon":5.38446,"is_reserved":false,"is_disabled":false,"rental_uris":{"android":"levelo://app?vid=0d48df8e-25d3-4bea-9b13-4e7c28d30250","ios":"levelo://app?vid=0d48df8e-25d3-4bea-9b13-4e7c28d30250"},"vehicle_type_id":"4","last_reported":1743382442,"current_range_meters":8400,"station_id":"ce4bhh92rcd13ifvqfi0","pricing_plan_id":"cebpf4jnsgd1na2vs0mg"},{"bike_id":"b6efc305-df1b-4d74-adbd-3d6638f82769","system_id":"levelo_inurba_marseille","lat":43.23165,"lon":5.39988,"is_reserved":false,"is_disabled":false,"rental_uris":{"android":"levelo://app?vid=b6efc305-df1b-4d74-adbd-3d6638f82769","ios":"levelo://app?vid=b6efc305-df1b-4d74-adbd-3d6638f82769"},"vehicle_type_id":"4","last_reported":1743382442,"current_range_meters":8400,"station_id":"ce4bhn12rcd13ifvqgqg","pricing_plan_id":"cebpf4jnsgd1na2vs0mg"},{"bike_id":"b6723e1a-d2ea-4c3e-a3cf-69a7a179e49c","system_id":"levelo_inurba_marseille","lat":43.31173,"lon":5.38707,"is_reserved":false,"is_disabled":false,"rental_uris":{"android":"levelo://app?vid=b6723e1a-d2ea-4c3e-a3cf-69a7a179e49c","ios":"levelo://app?vid=b6723e1a-d2ea-4c3e-a3cf-69a7a179e49c"},"vehicle_type_id":"4","last_reported":1743382442,"current_range_meters":8800,"station_id":"ce4bgv12rcd13ifvqcp0","pricing_plan_id":"cebpf4jnsgd1na2vs0mg"},{"bike_id":"ad60912c-6000-4325-92cb-03d07db25537","system_id":"levelo_inurba_marseille","lat":43.286917,"lon":5.399919,"is_reserved":false,"is_disabled":false,"rental_uris":{"android":"levelo://app?vid=ad60912c-6000-4325-92cb-03d07db25537","ios":"levelo://app?vid=ad60912c-6000-4325-92cb-03d07db25537"},"vehicle_type_id":"4","last_reported":1743382442,"current_range_meters":8800,"station_id":"ce4bho92rcd13ifvqh3g","pricing_plan_id":"cebpf4jnsgd1na2vs0mg"},{"bike_id":"d8cd430a-ec97-45db-a9d1-9d7b9e88dd86","system_id":"levelo_inurba_marseille","lat":43.323516,"lon":5.388857,"is_reserved":false,"is_disabled":false,"rental_uris":{"android":"levelo://app?vid=d8cd430a-ec97-45db-a9d1-9d7b9e88dd86","ios":"levelo://app?vid=d8cd430a-ec97-45db-a9d1-9d7b9e88dd86"},"vehicle_type_id":"4","last_reported":1743382442,"current_range_meters":8800,"station_id":"ce4bhqp2rcd13ifvqhog","pricing_plan_id":"cebpf4jnsgd1na2vs0mg"},{"bike_id":"bfcad82b-6acc-493c-b418-93ec0bae17e4","system_id":"levelo_inurba_marseille","lat":43.32099,"lon":5.36757,"is_reserved":false,"is_disabled":false,"rental_uris":{"android":"levelo://app?vid=bfcad82b-6acc-493c-b418-93ec0bae17e4","ios":"levelo://app?vid=bfcad82b-6acc-493c-b418-93ec0bae17e4"},"vehicle_type_id":"4","last_reported":1743382442,"current_range_meters":8800,"station_id":"ce4bhrh2rcd13ifvqhug","pricing_plan_id":"cebpf4jnsgd1na2vs0mg"},{"bike_id":"8f5fdcfb-4565-4d08-8d54-d199e32ad589","system_id":"levelo_inurba_marseille","lat":43.31327,"lon":5.39702,"is_reserved":false,"is_disabled":false,"rental_uris":{"android":"levelo://app?vid=8f5fdcfb-4565-4d08-8d54-d199e32ad589","ios":"levelo://app?vid=8f5fdcfb-4565-4d08-8d54-d199e32ad589"},"vehicle_type_id":"4","last_reported":1743382442,"current_range_meters":9200,"station_id":"ce4bgvp2rcd13ifvqcu0","pricing_plan_id":"cebpf4jnsgd1na2vs0mg"},{"bike_id":"0473c2df-6a5c-4f03-8055-0ddeb5fdd9d1","system_id":"levelo_inurba_marseille","lat":43.30596,"lon":5.39362,"is_reserved":false,"is_disabled":false,"rental_uris":{"android":"levelo://app?vid=0473c2df-6a5c-4f03-8055-0ddeb5fdd9d1","ios":"levelo://app?vid=0473c2df-6a5c-4f03-8055-0ddeb5fdd9d1"},"vehicle_type_id":"4","last_reported":1743382442,"current_range_meters":9200,"station_id":"ce4bh0p2rcd13ifvqd80","pricing_plan_id":"cebpf4jnsgd1na2vs0mg"},{"bike_id":"6d476741-3045-4964-a8ca-5a43b8573cfd","system_id":"levelo_inurba_marseille","lat":43.27839,"lon":5.39216,"is_reserved":false,"is_disabled":false,"rental_uris":{"android":"levelo://app?vid=6d476741-3045-4964-a8ca-5a43b8573cfd","ios":"levelo://app?vid=6d476741-3045-4964-a8ca-5a43b8573cfd"},"vehicle_type_id":"4","last_reported":1743382442,"current_range_meters":9200,"station_id":"ce4bhjp2rcd13ifvqga0","pricing_plan_id":"cebpf4jnsgd1na2vs0mg"},{"bike_id":"533dde56-3c6f-4b30-a6d4-69433b869256","system_id":"levelo_inurba_marseille","lat":43.28701,"lon":5.3998,"is_reserved":false,"is_disabled":false,"rental_uris":{"android":"levelo://app?vid=533dde56-3c6f-4b30-a6d4-69433b869256","ios":"levelo://app?vid=533dde56-3c6f-4b30-a6d4-69433b869256"},"vehicle_type_id":"4","last_reported":1743382442,"current_range_meters":9200,"station_id":"ce4bho92rcd13ifvqh3g","pricing_plan_id":"cebpf4jnsgd1na2vs0mg"},{"bike_id":"7e46e322-27d9-4f9d-b1ce-11741eb7c78f","system_id":"levelo_inurba_marseille","lat":43.31762,"lon":5.39028,"is_reserved":false,"is_disabled":false,"rental_uris":{"android":"levelo://app?vid=7e46e322-27d9-4f9d-b1ce-11741eb7c78f","ios":"levelo://app?vid=7e46e322-27d9-4f9d-b1ce-11741eb7c78f"},"vehicle_type_id":"4","last_reported":1743382442,"current_range_meters":9200,"station_id":"ce4bhqp2rcd13ifvqhng","pricing_plan_id":"cebpf4jnsgd1na2vs0mg"},{"bike_id":"1db49edd-6de7-48f9-b18a-23a07e8ebd2c","system_id":"levelo_inurba_marseille","lat":43.23205,"lon":5.35542,"is_reserved":false,"is_disabled":false,"rental_uris":{"android":"levelo://app?vid=1db49edd-6de7-48f9-b18a-23a07e8ebd2c","ios":"levelo://app?vid=1db49edd-6de7-48f9-b18a-23a07e8ebd2c"},"vehicle_type_id":"4","last_reported":1743382442,"current_range_meters":9200,"station_id":"ce4bhu92rcd13ifvqi70","pricing_plan_id":"cebpf4jnsgd1na2vs0mg"},{"bike_id":"452ee7ed-aed5-4f3a-80c1-b63ab3953967","system_id":"levelo_inurba_marseille","lat":43.27944,"lon":5.41034,"is_reserved":false,"is_disabled":false,"rental_uris":{"android":"levelo://app?vid=452ee7ed-aed5-4f3a-80c1-b63ab3953967","ios":"levelo://app?vid=452ee7ed-aed5-4f3a-80c1-b63ab3953967"},"vehicle_type_id":"4","last_reported":1743382442,"current_range_meters":9600,"station_id":"ce4bhnp2rcd13ifvqh0g","pricing_plan_id":"cebpf4jnsgd1na2vs0mg"},{"bike_id":"2403089b-07d2-4817-842f-5393e534470e","system_id":"levelo_inurba_marseille","lat":43.27993,"lon":5.41655,"is_reserved":false,"is_disabled":false,"rental_uris":{"android":"levelo://app?vid=2403089b-07d2-4817-842f-5393e534470e","ios":"levelo://app?vid=2403089b-07d2-4817-842f-5393e534470e"},"vehicle_type_id":"4","last_reported":1743382442,"current_range_meters":9600,"station_id":"ce4bho12rcd13ifvqh1g","pricing_plan_id":"cebpf4jnsgd1na2vs0mg"},{"bike_id":"6165c5e1-15f4-4779-ba2f-91df8ba3f8c0","system_id":"levelo_inurba_marseille","lat":43.28928,"lon":5.42992,"is_reserved":false,"is_disabled":false,"rental_uris":{"android":"levelo://app?vid=6165c5e1-15f4-4779-ba2f-91df8ba3f8c0","ios":"levelo://app?vid=6165c5e1-15f4-4779-ba2f-91df8ba3f8c0"},"vehicle_type_id":"4","last_reported":1743382442,"current_range_meters":10000,"station_id":"","pricing_plan_id":"cebpf4jnsgd1na2vs0mg"},{"bike_id":"204ecd7d-d79a-4494-8305-7c83c69add7d","system_id":"levelo_inurba_marseille","lat":43.25655,"lon":5.41976,"is_reserved":false,"is_disabled":false,"rental_uris":{"android":"levelo://app?vid=204ecd7d-d79a-4494-8305-7c83c69add7d","ios":"levelo://app?vid=204ecd7d-d79a-4494-8305-7c83c69add7d"},"vehicle_type_id":"4","last_reported":1743382442,"current_range_meters":10000,"station_id":"","pricing_plan_id":"cebpf4jnsgd1na2vs0mg"},{"bike_id":"b44b1bac-4f1a-4bf7-98ba-32d0b19eeb57","system_id":"levelo_inurba_marseille","lat":43.30621,"lon":5.39329,"is_reserved":false,"is_disabled":false,"rental_uris":{"android":"levelo://app?vid=b44b1bac-4f1a-4bf7-98ba-32d0b19eeb57","ios":"levelo://app?vid=b44b1bac-4f1a-4bf7-98ba-32d0b19eeb57"},"vehicle_type_id":"4","last_reported":1743382442,"current_range_meters":10000,"station_id":"ce4bh0p2rcd13ifvqd80","pricing_plan_id":"cebpf4jnsgd1na2vs0mg"},{"bike_id":"07ec0419-41dd-4756-91b5-f9e4802c50a1","system_id":"levelo_inurba_marseille","lat":43.29516,"lon":5.39426,"is_reserved":false,"is_disabled":false,"rental_uris":{"android":"levelo://app?vid=07ec0419-41dd-4756-91b5-f9e4802c50a1","ios":"levelo://app?vid=07ec0419-41dd-4756-91b5-f9e4802c50a1"},"vehicle_type_id":"4","last_reported":1743382442,"current_range_meters":10000,"station_id":"ce4bh292rcd13ifvqdf0","pricing_plan_id":"cebpf4jnsgd1na2vs0mg"},{"bike_id":"07742a93-8c33-4b3f-91a0-8165edbd7762","system_id":"levelo_inurba_marseille","lat":43.29033,"lon":5.39967,"is_reserved":false,"is_disabled":false,"rental_uris":{"android":"levelo://app?vid=07742a93-8c33-4b3f-91a0-8165edbd7762","ios":"levelo://app?vid=07742a93-8c33-4b3f-91a0-8165edbd7762"},"vehicle_type_id":"4","last_reported":1743382442,"current_range_meters":10000,"station_id":"ce4bh392rcd13ifvqdm0","pricing_plan_id":"cebpf4jnsgd1na2vs0mg"},{"bike_id":"fc91984a-ca60-482c-8b4c-39732d1fd181","system_id":"levelo_inurba_marseille","lat":43.28403,"lon":5.37487,"is_reserved":false,"is_disabled":false,"rental_uris":{"android":"levelo://app?vid=fc91984a-ca60-482c-8b4c-39732d1fd181","ios":"levelo://app?vid=fc91984a-ca60-482c-8b4c-39732d1fd181"},"vehicle_type_id":"4","last_reported":1743382442,"current_range_meters":10000,"station_id":"ce4bh412rcd13ifvqds0","pricing_plan_id":"cebpf4jnsgd1na2vs0mg"},{"bike_id":"3d370df4-c787-4eff-9ed9-eeb4ac5d36a0","system_id":"levelo_inurba_marseille","lat":43.28941,"lon":5.36635,"is_reserved":false,"is_disabled":false,"rental_uris":{"android":"levelo://app?vid=3d370df4-c787-4eff-9ed9-eeb4ac5d36a0","ios":"levelo://app?vid=3d370df4-c787-4eff-9ed9-eeb4ac5d36a0"},"vehicle_type_id":"4","last_reported":1743382442,"current_range_meters":10000,"station_id":"ce4bhap2rcd13ifvqek0","pricing_plan_id":"cebpf4jnsgd1na2vs0mg"},{"bike_id":"c1a01883-6c1d-4e89-ba9e-0dbae1b4948f","system_id":"levelo_inurba_marseille","lat":43.25008,"lon":5.38931,"is_reserved":false,"is_disabled":false,"rental_uris":{"android":"levelo://app?vid=c1a01883-6c1d-4e89-ba9e-0dbae1b4948f","ios":"levelo://app?vid=c1a01883-6c1d-4e89-ba9e-0dbae1b4948f"},"vehicle_type_id":"4","last_reported":1743382442,"current_range_meters":10000,"station_id":"ce4bhgp2rcd13ifvqfd0","pricing_plan_id":"cebpf4jnsgd1na2vs0mg"},{"bike_id":"3f7a0957-674f-4dc8-9c1c-d9c9b0c2fdf5","system_id":"levelo_inurba_marseille","lat":43.25818,"lon":5.39469,"is_reserved":false,"is_disabled":false,"rental_uris":{"android":"levelo://app?vid=3f7a0957-674f-4dc8-9c1c-d9c9b0c2fdf5","ios":"levelo://app?vid=3f7a0957-674f-4dc8-9c1c-d9c9b0c2fdf5"},"vehicle_type_id":"4","last_reported":1743382442,"current_range_meters":10000,"station_id":"ce4bhip2rcd13ifvqft0","pricing_plan_id":"cebpf4jnsgd1na2vs0mg"},{"bike_id":"3a99ce02-631d-4ff6-bde1-68d6f80dff2c","system_id":"levelo_inurba_marseille","lat":43.32009,"lon":5.38172,"is_reserved":false,"is_disabled":false,"rental_uris":{"android":"levelo://app?vid=3a99ce02-631d-4ff6-bde1-68d6f80dff2c","ios":"levelo://app?vid=3a99ce02-631d-4ff6-bde1-68d6f80dff2c"},"vehicle_type_id":"4","last_reported":1743382442,"current_range_meters":10000,"station_id":"ce4bhr12rcd13ifvqhpg","pricing_plan_id":"cebpf4jnsgd1na2vs0mg"},{"bike_id":"7ca6f145-aad1-46a9-862f-db9fe95e22ed","system_id":"levelo_inurba_marseille","lat":43.32103,"lon":5.36784,"is_reserved":false,"is_disabled":false,"rental_uris":{"android":"levelo://app?vid=7ca6f145-aad1-46a9-862f-db9fe95e22ed","ios":"levelo://app?vid=7ca6f145-aad1-46a9-862f-db9fe95e22ed"},"vehicle_type_id":"4","last_reported":1743382442,"current_range_meters":10000,"station_id":"ce4bhrh2rcd13ifvqhug","pricing_plan_id":"cebpf4jnsgd1na2vs0mg"},{"bike_id":"0b60b6cc-65bb-4e73-8958-1b351c6fdd96","system_id":"levelo_inurba_marseille","lat":43.32096,"lon":5.36769,"is_reserved":false,"is_disabled":false,"rental_uris":{"android":"levelo://app?vid=0b60b6cc-65bb-4e73-8958-1b351c6fdd96","ios":"levelo://app?vid=0b60b6cc-65bb-4e73-8958-1b351c6fdd96"},"vehicle_type_id":"4","last_reported":1743382442,"current_range_meters":10000,"station_id":"ce4bhrh2rcd13ifvqhug","pricing_plan_id":"cebpf4jnsgd1na2vs0mg"},{"bike_id":"5cf4ca76-6b9c-4699-94e2-2af7022f6b29","system_id":"levelo_inurba_marseille","lat":43.29349,"lon":5.38521,"is_reserved":false,"is_disabled":false,"rental_uris":{"android":"levelo://app?vid=5cf4ca76-6b9c-4699-94e2-2af7022f6b29","ios":"levelo://app?vid=5cf4ca76-6b9c-4699-94e2-2af7022f6b29"},"vehicle_type_id":"4","last_reported":1743382442,"current_range_meters":10800,"station_id":"","pricing_plan_id":"cebpf4jnsgd1na2vs0mg"},{"bike_id":"8d32980f-fa1d-487c-9ee4-e21d4298ab4e","system_id":"levelo_inurba_marseille","lat":43.29707,"lon":5.40719,"is_reserved":false,"is_disabled":false,"rental_uris":{"android":"levelo://app?vid=8d32980f-fa1d-487c-9ee4-e21d4298ab4e","ios":"levelo://app?vid=8d32980f-fa1d-487c-9ee4-e21d4298ab4e"},"vehicle_type_id":"4","last_reported":1743382442,"current_range_meters":10800,"station_id":"","pricing_plan_id":"cebpf4jnsgd1na2vs0mg"},{"bike_id":"ba1107aa-9b1f-4710-bb75-05314e757fc6","system_id":"levelo_inurba_marseille","lat":43.31656,"lon":5.37255,"is_reserved":false,"is_disabled":false,"rental_uris":{"android":"levelo://app?vid=ba1107aa-9b1f-4710-bb75-05314e757fc6","ios":"levelo://app?vid=ba1107aa-9b1f-4710-bb75-05314e757fc6"},"vehicle_type_id":"4","last_reported":1743382442,"current_range_meters":10800,"station_id":"","pricing_plan_id":"cebpf4jnsgd1na2vs0mg"},{"bike_id":"556f7c0c-b1b4-4388-8d23-cf4afee4de97","system_id":"levelo_inurba_marseille","lat":43.30303,"lon":5.39214,"is_reserved":false,"is_disabled":false,"rental_uris":{"android":"levelo://app?vid=556f7c0c-b1b4-4388-8d23-cf4afee4de97","ios":"levelo://app?vid=556f7c0c-b1b4-4388-8d23-cf4afee4de97"},"vehicle_type_id":"4","last_reported":1743382442,"current_range_meters":10800,"station_id":"ce4bgkh2rcd13ifvqbk0","pricing_plan_id":"cebpf4jnsgd1na2vs0mg"},{"bike_id":"13714d50-ff84-4fb9-af69-91d18874acc5","system_id":"levelo_inurba_marseille","lat":43.28569,"lon":5.39501,"is_reserved":false,"is_disabled":false,"rental_uris":{"android":"levelo://app?vid=13714d50-ff84-4fb9-af69-91d18874acc5","ios":"levelo://app?vid=13714d50-ff84-4fb9-af69-91d18874acc5"},"vehicle_type_id":"4","last_reported":1743382442,"current_range_meters":10800,"station_id":"ce4bh292rcd13ifvqdg0","pricing_plan_id":"cebpf4jnsgd1na2vs0mg"},{"bike_id":"e0f71501-acc1-4a88-b79d-a8dc35fb0e64","system_id":"levelo_inurba_marseille","lat":43.28626,"lon":5.35102,"is_reserved":false,"is_disabled":false,"rental_uris":{"android":"levelo://app?vid=e0f71501-acc1-4a88-b79d-a8dc35fb0e64","ios":"levelo://app?vid=e0f71501-acc1-4a88-b79d-a8dc35fb0e64"},"vehicle_type_id":"4","last_reported":1743382442,"current_range_meters":10800,"station_id":"ce4bhch2rcd13ifvqeug","pricing_plan_id":"cebpf4jnsgd1na2vs0mg"},{"bike_id":"a0eb0cb7-cfd0-4c44-a801-cca8496833e5","system_id":"levelo_inurba_marseille","lat":43.23173,"lon":5.39976,"is_reserved":false,"is_disabled":false,"rental_uris":{"android":"levelo://app?vid=a0eb0cb7-cfd0-4c44-a801-cca8496833e5","ios":"levelo://app?vid=a0eb0cb7-cfd0-4c44-a801-cca8496833e5"},"vehicle_type_id":"4","last_reported":1743382442,"current_range_meters":10800,"station_id":"ce4bhn12rcd13ifvqgqg","pricing_plan_id":"cebpf4jnsgd1na2vs0mg"},{"bike_id":"dd108344-997f-4dd5-a561-1447f9dd83ab","system_id":"levelo_inurba_marseille","lat":43.3107,"lon":5.38363,"is_reserved":false,"is_disabled":false,"rental_uris":{"android":"levelo://app?vid=dd108344-997f-4dd5-a561-1447f9dd83ab","ios":"levelo://app?vid=dd108344-997f-4dd5-a561-1447f9dd83ab"},"vehicle_type_id":"4","last_reported":1743382442,"current_range_meters":11200,"station_id":"ce4bgv92rcd13ifvqcr0","pricing_plan_id":"cebpf4jnsgd1na2vs0mg"},{"bike_id":"8800990b-0588-4701-9f9b-d00ff201f1bf","system_id":"levelo_inurba_marseille","lat":43.317568,"lon":5.390174,"is_reserved":false,"is_disabled":false,"rental_uris":{"android":"levelo://app?vid=8800990b-0588-4701-9f9b-d00ff201f1bf","ios":"levelo://app?vid=8800990b-0588-4701-9f9b-d00ff201f1bf"},"vehicle_type_id":"4","last_reported":1743382442,"current_range_meters":11200,"station_id":"ce4bhqp2rcd13ifvqhng","pricing_plan_id":"cebpf4jnsgd1na2vs0mg"},{"bike_id":"5f4b6dec-c8cd-4fba-a769-4892a6dbdf94","system_id":"levelo_inurba_marseille","lat":43.28134,"lon":5.39871,"is_reserved":false,"is_disabled":false,"rental_uris":{"android":"levelo://app?vid=5f4b6dec-c8cd-4fba-a769-4892a6dbdf94","ios":"levelo://app?vid=5f4b6dec-c8cd-4fba-a769-4892a6dbdf94"},"vehicle_type_id":"4","last_reported":1743382442,"current_range_meters":11600,"station_id":"","pricing_plan_id":"cebpf4jnsgd1na2vs0mg"},{"bike_id":"3acbff62-f10d-4d9f-84af-f9b8601a1c18","system_id":"levelo_inurba_marseille","lat":43.29045,"lon":5.39944,"is_reserved":false,"is_disabled":false,"rental_uris":{"android":"levelo://app?vid=3acbff62-f10d-4d9f-84af-f9b8601a1c18","ios":"levelo://app?vid=3acbff62-f10d-4d9f-84af-f9b8601a1c18"},"vehicle_type_id":"4","last_reported":1743382442,"current_range_meters":11600,"station_id":"ce4bh392rcd13ifvqdm0","pricing_plan_id":"cebpf4jnsgd1na2vs0mg"},{"bike_id":"77ae0fd8-548a-49ab-a8f7-cca075701042","system_id":"levelo_inurba_marseille","lat":43.28941,"lon":5.36397,"is_reserved":false,"is_disabled":false,"rental_uris":{"android":"levelo://app?vid=77ae0fd8-548a-49ab-a8f7-cca075701042","ios":"levelo://app?vid=77ae0fd8-548a-49ab-a8f7-cca075701042"},"vehicle_type_id":"4","last_reported":1743382442,"current_range_meters":11600,"station_id":"ce4bhc92rcd13ifvqetg","pricing_plan_id":"cebpf4jnsgd1na2vs0mg"},{"bike_id":"121010d1-d0ea-475b-97a6-f9054736109c","system_id":"levelo_inurba_marseille","lat":43.23179,"lon":5.39966,"is_reserved":false,"is_disabled":false,"rental_uris":{"android":"levelo://app?vid=121010d1-d0ea-475b-97a6-f9054736109c","ios":"levelo://app?vid=121010d1-d0ea-475b-97a6-f9054736109c"},"vehicle_type_id":"4","last_reported":1743382442,"current_range_meters":11600,"station_id":"ce4bhn12rcd13ifvqgqg","pricing_plan_id":"cebpf4jnsgd1na2vs0mg"},{"bike_id":"935d9231-d440-4d35-a880-9f92171a87f4","system_id":"levelo_inurba_marseille","lat":43.30292,"lon":5.39189,"is_reserved":false,"is_disabled":false,"rental_uris":{"android":"levelo://app?vid=935d9231-d440-4d35-a880-9f92171a87f4","ios":"levelo://app?vid=935d9231-d440-4d35-a880-9f92171a87f4"},"vehicle_type_id":"4","last_reported":1743382442,"current_range_meters":12000,"station_id":"ce4bgkh2rcd13ifvqbk0","pricing_plan_id":"cebpf4jnsgd1na2vs0mg"},{"bike_id":"c92de98d-457d-424f-86b4-290753b2a66b","system_id":"levelo_inurba_marseille","lat":43.28949,"lon":5.39615,"is_reserved":false,"is_disabled":false,"rental_uris":{"android":"levelo://app?vid=c92de98d-457d-424f-86b4-290753b2a66b","ios":"levelo://app?vid=c92de98d-457d-424f-86b4-290753b2a66b"},"vehicle_type_id":"4","last_reported":1743382442,"current_range_meters":12000,"station_id":"ce4bh3h2rcd13ifvqdn0","pricing_plan_id":"cebpf4jnsgd1na2vs0mg"},{"bike_id":"676c95bb-8aa0-4d3f-89d0-18e66f4288cf","system_id":"levelo_inurba_marseille","lat":43.29102,"lon":5.38147,"is_reserved":false,"is_disabled":false,"rental_uris":{"android":"levelo://app?vid=676c95bb-8aa0-4d3f-89d0-18e66f4288cf","ios":"levelo://app?vid=676c95bb-8aa0-4d3f-89d0-18e66f4288cf"},"vehicle_type_id":"4","last_reported":1743382442,"current_range_meters":12000,"station_id":"ce4bh512rcd13ifvqe2g","pricing_plan_id":"cebpf4jnsgd1na2vs0mg"},{"bike_id":"67f6ad16-73d8-49e4-8119-f6692e87ac6e","system_id":"levelo_inurba_marseille","lat":43.27086,"lon":5.42291,"is_reserved":false,"is_disabled":false,"rental_uris":{"android":"levelo://app?vid=67f6ad16-73d8-49e4-8119-f6692e87ac6e","ios":"levelo://app?vid=67f6ad16-73d8-49e4-8119-f6692e87ac6e"},"vehicle_type_id":"4","last_reported":1743382442,"current_range_meters":12000,"station_id":"ce4bhk92rcd13ifvqgb0","pricing_plan_id":"cebpf4jnsgd1na2vs0mg"},{"bike_id":"3e536dc8-f946-48e3-b1e7-2b9c2149b17d","system_id":"levelo_inurba_marseille","lat":43.28439,"lon":5.39188,"is_reserved":false,"is_disabled":false,"rental_uris":{"android":"levelo://app?vid=3e536dc8-f946-48e3-b1e7-2b9c2149b17d","ios":"levelo://app?vid=3e536dc8-f946-48e3-b1e7-2b9c2149b17d"},"vehicle_type_id":"4","last_reported":1743382442,"current_range_meters":12000,"station_id":"ce4bhoh2rcd13ifvqh5g","pricing_plan_id":"cebpf4jnsgd1na2vs0mg"},{"bike_id":"56f4a9cd-6ccf-4fe6-98d1-7b3192e53bd4","system_id":"levelo_inurba_marseille","lat":43.30086,"lon":5.39083,"is_reserved":false,"is_disabled":false,"rental_uris":{"android":"levelo://app?vid=56f4a9cd-6ccf-4fe6-98d1-7b3192e53bd4","ios":"levelo://app?vid=56f4a9cd-6ccf-4fe6-98d1-7b3192e53bd4"},"vehicle_type_id":"4","last_reported":1743382442,"current_range_meters":12400,"station_id":"ce4bh192rcd13ifvqdb0","pricing_plan_id":"cebpf4jnsgd1na2vs0mg"},{"bike_id":"a9caf971-8a8c-4bcd-bfc0-7c7b783406ce","system_id":"levelo_inurba_marseille","lat":43.28431,"lon":5.37533,"is_reserved":false,"is_disabled":false,"rental_uris":{"android":"levelo://app?vid=a9caf971-8a8c-4bcd-bfc0-7c7b783406ce","ios":"levelo://app?vid=a9caf971-8a8c-4bcd-bfc0-7c7b783406ce"},"vehicle_type_id":"4","last_reported":1743382442,"current_range_meters":12400,"station_id":"ce4bh412rcd13ifvqds0","pricing_plan_id":"cebpf4jnsgd1na2vs0mg"},{"bike_id":"b91184c2-0fca-4a97-bd03-058f3f161a0c","system_id":"levelo_inurba_marseille","lat":43.28154,"lon":5.42643,"is_reserved":false,"is_disabled":false,"rental_uris":{"android":"levelo://app?vid=b91184c2-0fca-4a97-bd03-058f3f161a0c","ios":"levelo://app?vid=b91184c2-0fca-4a97-bd03-058f3f161a0c"},"vehicle_type_id":"4","last_reported":1743382442,"current_range_meters":12400,"station_id":"ce4bhnh2rcd13ifvqgug","pricing_plan_id":"cebpf4jnsgd1na2vs0mg"},{"bike_id":"8fa5fb11-10c8-4bed-b75c-83f4c72259ad","system_id":"levelo_inurba_marseille","lat":43.32362,"lon":5.36747,"is_reserved":false,"is_disabled":false,"rental_uris":{"android":"levelo://app?vid=8fa5fb11-10c8-4bed-b75c-83f4c72259ad","ios":"levelo://app?vid=8fa5fb11-10c8-4bed-b75c-83f4c72259ad"},"vehicle_type_id":"4","last_reported":1743382442,"current_range_meters":12400,"station_id":"ce4bhsh2rcd13ifvqi2g","pricing_plan_id":"cebpf4jnsgd1na2vs0mg"},{"bike_id":"99e7d147-e2b6-4982-8a11-f600737d5497","system_id":"levelo_inurba_marseille","lat":43.31803,"lon":5.3684,"is_reserved":false,"is_disabled":false,"rental_uris":{"android":"levelo://app?vid=99e7d147-e2b6-4982-8a11-f600737d5497","ios":"levelo://app?vid=99e7d147-e2b6-4982-8a11-f600737d5497"},"vehicle_type_id":"4","last_reported":1743382442,"current_range_meters":12800,"station_id":"","pricing_plan_id":"cebpf4jnsgd1na2vs0mg"},{"bike_id":"bf52878d-50c0-460b-8b6d-8720c81fc09b","system_id":"levelo_inurba_marseille","lat":43.29525,"lon":5.39423,"is_reserved":false,"is_disabled":false,"rental_uris":{"android":"levelo://app?vid=bf52878d-50c0-460b-8b6d-8720c81fc09b","ios":"levelo://app?vid=bf52878d-50c0-460b-8b6d-8720c81fc09b"},"vehicle_type_id":"4","last_reported":1743382442,"current_range_meters":12800,"station_id":"ce4bh292rcd13ifvqdf0","pricing_plan_id":"cebpf4jnsgd1na2vs0mg"},{"bike_id":"8487bf1b-17f2-4f8c-8d61-5aff47a55955","system_id":"levelo_inurba_marseille","lat":43.28154,"lon":5.42653,"is_reserved":false,"is_disabled":false,"rental_uris":{"android":"levelo://app?vid=8487bf1b-17f2-4f8c-8d61-5aff47a55955","ios":"levelo://app?vid=8487bf1b-17f2-4f8c-8d61-5aff47a55955"},"vehicle_type_id":"4","last_reported":1743382442,"current_range_meters":12800,"station_id":"ce4bhnh2rcd13ifvqgug","pricing_plan_id":"cebpf4jnsgd1na2vs0mg"},{"bike_id":"6d724032-fb9c-4e6e-bd90-452fee067c69","system_id":"levelo_inurba_marseille","lat":43.3234,"lon":5.40621,"is_reserved":false,"is_disabled":false,"rental_uris":{"android":"levelo://app?vid=6d724032-fb9c-4e6e-bd90-452fee067c69","ios":"levelo://app?vid=6d724032-fb9c-4e6e-bd90-452fee067c69"},"vehicle_type_id":"4","last_reported":1743382442,"current_range_meters":12800,"station_id":"ce4bhq92rcd13ifvqhjg","pricing_plan_id":"cebpf4jnsgd1na2vs0mg"},{"bike_id":"0f8f638f-6c59-4dfb-ab4f-882d40e453aa","system_id":"levelo_inurba_marseille","lat":43.29282,"lon":5.42764,"is_reserved":false,"is_disabled":false,"rental_uris":{"android":"levelo://app?vid=0f8f638f-6c59-4dfb-ab4f-882d40e453aa","ios":"levelo://app?vid=0f8f638f-6c59-4dfb-ab4f-882d40e453aa"},"vehicle_type_id":"4","last_reported":1743382442,"current_range_meters":13600,"station_id":"","pricing_plan_id":"cebpf4jnsgd1na2vs0mg"},{"bike_id":"f23a406c-22a2-4c3c-bab0-128877abf12d","system_id":"levelo_inurba_marseille","lat":43.2951,"lon":5.38558,"is_reserved":false,"is_disabled":false,"rental_uris":{"android":"levelo://app?vid=f23a406c-22a2-4c3c-bab0-128877abf12d","ios":"levelo://app?vid=f23a406c-22a2-4c3c-bab0-128877abf12d"},"vehicle_type_id":"4","last_reported":1743382442,"current_range_meters":13600,"station_id":"ce4bgih2rcd13ifvqba0","pricing_plan_id":"cebpf4jnsgd1na2vs0mg"},{"bike_id":"986e705b-322e-4d5b-845a-77349bec28db","system_id":"levelo_inurba_marseille","lat":43.29284,"lon":5.40123,"is_reserved":false,"is_disabled":false,"rental_uris":{"android":"levelo://app?vid=986e705b-322e-4d5b-845a-77349bec28db","ios":"levelo://app?vid=986e705b-322e-4d5b-845a-77349bec28db"},"vehicle_type_id":"4","last_reported":1743382442,"current_range_meters":13600,"station_id":"ce4bh312rcd13ifvqdk0","pricing_plan_id":"cebpf4jnsgd1na2vs0mg"},{"bike_id":"67a3cd10-00f8-45c4-972d-51e59607a3e3","system_id":"levelo_inurba_marseille","lat":43.28429,"lon":5.38452,"is_reserved":false,"is_disabled":false,"rental_uris":{"android":"levelo://app?vid=67a3cd10-00f8-45c4-972d-51e59607a3e3","ios":"levelo://app?vid=67a3cd10-00f8-45c4-972d-51e59607a3e3"},"vehicle_type_id":"4","last_reported":1743382442,"current_range_meters":13600,"station_id":"ce4bh512rcd13ifvqe3g","pricing_plan_id":"cebpf4jnsgd1na2vs0mg"},{"bike_id":"b3dddbdf-a6bc-4eb2-8b8b-05654b1a2ef4","system_id":"levelo_inurba_marseille","lat":43.28937,"lon":5.36627,"is_reserved":false,"is_disabled":false,"rental_uris":{"android":"levelo://app?vid=b3dddbdf-a6bc-4eb2-8b8b-05654b1a2ef4","ios":"levelo://app?vid=b3dddbdf-a6bc-4eb2-8b8b-05654b1a2ef4"},"vehicle_type_id":"4","last_reported":1743382442,"current_range_meters":13600,"station_id":"ce4bhap2rcd13ifvqek0","pricing_plan_id":"cebpf4jnsgd1na2vs0mg"},{"bike_id":"cb488461-922b-4378-a925-3277508f321d","system_id":"levelo_inurba_marseille","lat":43.30777,"lon":5.37662,"is_reserved":false,"is_disabled":false,"rental_uris":{"android":"levelo://app?vid=cb488461-922b-4378-a925-3277508f321d","ios":"levelo://app?vid=cb488461-922b-4378-a925-3277508f321d"},"vehicle_type_id":"4","last_reported":1743382442,"current_range_meters":14000,"station_id":"ce4bgv92rcd13ifvqcq0","pricing_plan_id":"cebpf4jnsgd1na2vs0mg"},{"bike_id":"9938de39-9b44-42c0-8aa2-b4011fe2a576","system_id":"levelo_inurba_marseille","lat":43.30105,"lon":5.39075,"is_reserved":false,"is_disabled":false,"rental_uris":{"android":"levelo://app?vid=9938de39-9b44-42c0-8aa2-b4011fe2a576","ios":"levelo://app?vid=9938de39-9b44-42c0-8aa2-b4011fe2a576"},"vehicle_type_id":"4","last_reported":1743382442,"current_range_meters":14000,"station_id":"ce4bh192rcd13ifvqdb0","pricing_plan_id":"cebpf4jnsgd1na2vs0mg"},{"bike_id":"2bf31f9f-c5c0-434c-ab3b-b017d7dc966d","system_id":"levelo_inurba_marseille","lat":43.23066,"lon":5.35493,"is_reserved":false,"is_disabled":false,"rental_uris":{"android":"levelo://app?vid=2bf31f9f-c5c0-434c-ab3b-b017d7dc966d","ios":"levelo://app?vid=2bf31f9f-c5c0-434c-ab3b-b017d7dc966d"},"vehicle_type_id":"4","last_reported":1743382442,"current_range_meters":14000,"station_id":"cpo3342slgdg3j2ifvpg","pricing_plan_id":"cebpf4jnsgd1na2vs0mg"},{"bike_id":"a51eba65-0816-47d5-847e-11e62950c240","system_id":"levelo_inurba_marseille","lat":43.29598,"lon":5.38628,"is_reserved":false,"is_disabled":false,"rental_uris":{"android":"levelo://app?vid=a51eba65-0816-47d5-847e-11e62950c240","ios":"levelo://app?vid=a51eba65-0816-47d5-847e-11e62950c240"},"vehicle_type_id":"4","last_reported":1743382442,"current_range_meters":14400,"station_id":"","pricing_plan_id":"cebpf4jnsgd1na2vs0mg"},{"bike_id":"51978973-8141-43c4-9a6c-b50852994e60","system_id":"levelo_inurba_marseille","lat":43.32384,"lon":5.38875,"is_reserved":false,"is_disabled":false,"rental_uris":{"android":"levelo://app?vid=51978973-8141-43c4-9a6c-b50852994e60","ios":"levelo://app?vid=51978973-8141-43c4-9a6c-b50852994e60"},"vehicle_type_id":"4","last_reported":1743382442,"current_range_meters":14400,"station_id":"ce4bhqp2rcd13ifvqhog","pricing_plan_id":"cebpf4jnsgd1na2vs0mg"},{"bike_id":"f0d1a177-272b-4b40-9047-5d442acb245c","system_id":"levelo_inurba_marseille","lat":43.28396,"lon":5.375,"is_reserved":false,"is_disabled":false,"rental_uris":{"android":"levelo://app?vid=f0d1a177-272b-4b40-9047-5d442acb245c","ios":"levelo://app?vid=f0d1a177-272b-4b40-9047-5d442acb245c"},"vehicle_type_id":"4","last_reported":1743382442,"current_range_meters":14800,"station_id":"ce4bh412rcd13ifvqds0","pricing_plan_id":"cebpf4jnsgd1na2vs0mg"},{"bike_id":"3897bf96-03e2-406c-8886-331235583a77","system_id":"levelo_inurba_marseille","lat":43.27949,"lon":5.41034,"is_reserved":false,"is_disabled":false,"rental_uris":{"android":"levelo://app?vid=3897bf96-03e2-406c-8886-331235583a77","ios":"levelo://app?vid=3897bf96-03e2-406c-8886-331235583a77"},"vehicle_type_id":"4","last_reported":1743382442,"current_range_meters":14800,"station_id":"ce4bhnp2rcd13ifvqh0g","pricing_plan_id":"cebpf4jnsgd1na2vs0mg"},{"bike_id":"c3689a63-1d58-4137-a12d-d7cbc439865c","system_id":"levelo_inurba_marseille","lat":43.27943,"lon":5.38276,"is_reserved":false,"is_disabled":false,"rental_uris":{"android":"levelo://app?vid=c3689a63-1d58-4137-a12d-d7cbc439865c","ios":"levelo://app?vid=c3689a63-1d58-4137-a12d-d7cbc439865c"},"vehicle_type_id":"4","last_reported":1743382442,"current_range_meters":15200,"station_id":"","pricing_plan_id":"cebpf4jnsgd1na2vs0mg"},{"bike_id":"08e023cc-498c-4cff-acdd-8edb1143f6d8","system_id":"levelo_inurba_marseille","lat":43.30095,"lon":5.39079,"is_reserved":false,"is_disabled":false,"rental_uris":{"android":"levelo://app?vid=08e023cc-498c-4cff-acdd-8edb1143f6d8","ios":"levelo://app?vid=08e023cc-498c-4cff-acdd-8edb1143f6d8"},"vehicle_type_id":"4","last_reported":1743382442,"current_range_meters":15200,"station_id":"ce4bh192rcd13ifvqdb0","pricing_plan_id":"cebpf4jnsgd1na2vs0mg"},{"bike_id":"03419bd0-4a7a-4d8d-bf5d-89192f6be5b7","system_id":"levelo_inurba_marseille","lat":43.23192,"lon":5.39976,"is_reserved":false,"is_disabled":false,"rental_uris":{"android":"levelo://app?vid=03419bd0-4a7a-4d8d-bf5d-89192f6be5b7","ios":"levelo://app?vid=03419bd0-4a7a-4d8d-bf5d-89192f6be5b7"},"vehicle_type_id":"4","last_reported":1743382442,"current_range_meters":15200,"station_id":"ce4bhn12rcd13ifvqgqg","pricing_plan_id":"cebpf4jnsgd1na2vs0mg"},{"bike_id":"6ca46f01-4a9c-4585-9e5d-dfa3f99bd816","system_id":"levelo_inurba_marseille","lat":43.24163,"lon":5.36402,"is_reserved":false,"is_disabled":false,"rental_uris":{"android":"levelo://app?vid=6ca46f01-4a9c-4585-9e5d-dfa3f99bd816","ios":"levelo://app?vid=6ca46f01-4a9c-4585-9e5d-dfa3f99bd816"},"vehicle_type_id":"4","last_reported":1743382442,"current_range_meters":15200,"station_id":"cpo36qri1sfpv3e86is0","pricing_plan_id":"cebpf4jnsgd1na2vs0mg"},{"bike_id":"0bf290b9-80e6-40c2-85da-cc123a53473e","system_id":"levelo_inurba_marseille","lat":43.30116,"lon":5.36563,"is_reserved":false,"is_disabled":false,"rental_uris":{"android":"levelo://app?vid=0bf290b9-80e6-40c2-85da-cc123a53473e","ios":"levelo://app?vid=0bf290b9-80e6-40c2-85da-cc123a53473e"},"vehicle_type_id":"4","last_reported":1743382442,"current_range_meters":16000,"station_id":"","pricing_plan_id":"cebpf4jnsgd1na2vs0mg"},{"bike_id":"fd63be84-051e-408d-b006-77fc7d83d3c7","system_id":"levelo_inurba_marseille","lat":43.3224,"lon":5.3941,"is_reserved":false,"is_disabled":false,"rental_uris":{"android":"levelo://app?vid=fd63be84-051e-408d-b006-77fc7d83d3c7","ios":"levelo://app?vid=fd63be84-051e-408d-b006-77fc7d83d3c7"},"vehicle_type_id":"4","last_reported":1743382442,"current_range_meters":16000,"station_id":"","pricing_plan_id":"cebpf4jnsgd1na2vs0mg"},{"bike_id":"ce4f4ad1-6719-4215-ac68-a5ffabb618e5","system_id":"levelo_inurba_marseille","lat":43.30299,"lon":5.39205,"is_reserved":false,"is_disabled":false,"rental_uris":{"android":"levelo://app?vid=ce4f4ad1-6719-4215-ac68-a5ffabb618e5","ios":"levelo://app?vid=ce4f4ad1-6719-4215-ac68-a5ffabb618e5"},"vehicle_type_id":"4","last_reported":1743382442,"current_range_meters":16000,"station_id":"ce4bgkh2rcd13ifvqbk0","pricing_plan_id":"cebpf4jnsgd1na2vs0mg"},{"bike_id":"7965483e-feb5-4e25-ad18-9d1bbfde19fb","system_id":"levelo_inurba_marseille","lat":43.31127,"lon":5.37764,"is_reserved":false,"is_disabled":false,"rental_uris":{"android":"levelo://app?vid=7965483e-feb5-4e25-ad18-9d1bbfde19fb","ios":"levelo://app?vid=7965483e-feb5-4e25-ad18-9d1bbfde19fb"},"vehicle_type_id":"4","last_reported":1743382442,"current_range_meters":16000,"station_id":"ce4bgt92rcd13ifvqcg0","pricing_plan_id":"cebpf4jnsgd1na2vs0mg"},{"bike_id":"38410917-924d-4083-a5d2-ae5fafbf82f6","system_id":"levelo_inurba_marseille","lat":43.31108,"lon":5.3777,"is_reserved":false,"is_disabled":false,"rental_uris":{"android":"levelo://app?vid=38410917-924d-4083-a5d2-ae5fafbf82f6","ios":"levelo://app?vid=38410917-924d-4083-a5d2-ae5fafbf82f6"},"vehicle_type_id":"4","last_reported":1743382442,"current_range_meters":16000,"station_id":"ce4bgt92rcd13ifvqcg0","pricing_plan_id":"cebpf4jnsgd1na2vs0mg"},{"bike_id":"d4ffd79f-156c-4f1d-89c7-58df85fed546","system_id":"levelo_inurba_marseille","lat":43.2921,"lon":5.39312,"is_reserved":false,"is_disabled":false,"rental_uris":{"android":"levelo://app?vid=d4ffd79f-156c-4f1d-89c7-58df85fed546","ios":"levelo://app?vid=d4ffd79f-156c-4f1d-89c7-58df85fed546"},"vehicle_type_id":"4","last_reported":1743382442,"current_range_meters":16000,"station_id":"ce4bh192rcd13ifvqdd0","pricing_plan_id":"cebpf4jnsgd1na2vs0mg"},{"bike_id":"3afac0dc-70f0-48d3-8972-f956628b6f44","system_id":"levelo_inurba_marseille","lat":43.32341,"lon":5.40615,"is_reserved":false,"is_disabled":false,"rental_uris":{"android":"levelo://app?vid=3afac0dc-70f0-48d3-8972-f956628b6f44","ios":"levelo://app?vid=3afac0dc-70f0-48d3-8972-f956628b6f44"},"vehicle_type_id":"4","last_reported":1743382442,"current_range_meters":16000,"station_id":"ce4bhq92rcd13ifvqhjg","pricing_plan_id":"cebpf4jnsgd1na2vs0mg"},{"bike_id":"af06e0f6-b887-4346-8513-cf12aa385522","system_id":"levelo_inurba_marseille","lat":43.32343,"lon":5.40607,"is_reserved":false,"is_disabled":false,"rental_uris":{"android":"levelo://app?vid=af06e0f6-b887-4346-8513-cf12aa385522","ios":"levelo://app?vid=af06e0f6-b887-4346-8513-cf12aa385522"},"vehicle_type_id":"4","last_reported":1743382442,"current_range_meters":16000,"station_id":"ce4bhq92rcd13ifvqhjg","pricing_plan_id":"cebpf4jnsgd1na2vs0mg"},{"bike_id":"cf98f9e0-97c5-411b-9c0d-6a6bcb8c1c0a","system_id":"levelo_inurba_marseille","lat":43.31491,"lon":5.37289,"is_reserved":false,"is_disabled":false,"rental_uris":{"android":"levelo://app?vid=cf98f9e0-97c5-411b-9c0d-6a6bcb8c1c0a","ios":"levelo://app?vid=cf98f9e0-97c5-411b-9c0d-6a6bcb8c1c0a"},"vehicle_type_id":"4","last_reported":1743382442,"current_range_meters":16400,"station_id":"ce4bgt12rcd13ifvqcd0","pricing_plan_id":"cebpf4jnsgd1na2vs0mg"},{"bike_id":"074a55ca-2130-4385-9cac-62c681ada6cb","system_id":"levelo_inurba_marseille","lat":43.29265,"lon":5.40902,"is_reserved":false,"is_disabled":false,"rental_uris":{"android":"levelo://app?vid=074a55ca-2130-4385-9cac-62c681ada6cb","ios":"levelo://app?vid=074a55ca-2130-4385-9cac-62c681ada6cb"},"vehicle_type_id":"4","last_reported":1743382442,"current_range_meters":16400,"station_id":"ce4bh192rcd13ifvqdc0","pricing_plan_id":"cebpf4jnsgd1na2vs0mg"},{"bike_id":"27d3c47e-bf7b-497a-a92b-fd39c85c24b8","system_id":"levelo_inurba_marseille","lat":43.25083,"lon":5.3951,"is_reserved":false,"is_disabled":false,"rental_uris":{"android":"levelo://app?vid=27d3c47e-bf7b-497a-a92b-fd39c85c24b8","ios":"levelo://app?vid=27d3c47e-bf7b-497a-a92b-fd39c85c24b8"},"vehicle_type_id":"4","last_reported":1743382442,"current_range_meters":16400,"station_id":"ce4bhm12rcd13ifvqgkg","pricing_plan_id":"cebpf4jnsgd1na2vs0mg"},{"bike_id":"3dc83c33-8dbd-46cd-95f1-9a9e73791e30","system_id":"levelo_inurba_marseille","lat":43.26229,"lon":5.40453,"is_reserved":false,"is_disabled":false,"rental_uris":{"android":"levelo://app?vid=3dc83c33-8dbd-46cd-95f1-9a9e73791e30","ios":"levelo://app?vid=3dc83c33-8dbd-46cd-95f1-9a9e73791e30"},"vehicle_type_id":"4","last_reported":1743382442,"current_range_meters":16400,"station_id":"ce4bhmh2rcd13ifvqgmg","pricing_plan_id":"cebpf4jnsgd1na2vs0mg"},{"bike_id":"f32f9bd5-8248-4af4-9308-a2932576cc4e","system_id":"levelo_inurba_marseille","lat":43.28684,"lon":5.38654,"is_reserved":false,"is_disabled":false,"rental_uris":{"android":"levelo://app?vid=f32f9bd5-8248-4af4-9308-a2932576cc4e","ios":"levelo://app?vid=f32f9bd5-8248-4af4-9308-a2932576cc4e"},"vehicle_type_id":"4","last_reported":1743382442,"current_range_meters":16800,"station_id":"ce4bh492rcd13ifvqdug","pricing_plan_id":"cebpf4jnsgd1na2vs0mg"},{"bike_id":"bbaacd93-ad99-467b-80db-cd1756d7b6b4","system_id":"levelo_inurba_marseille","lat":43.27917,"lon":5.39564,"is_reserved":false,"is_disabled":false,"rental_uris":{"android":"levelo://app?vid=bbaacd93-ad99-467b-80db-cd1756d7b6b4","ios":"levelo://app?vid=bbaacd93-ad99-467b-80db-cd1756d7b6b4"},"vehicle_type_id":"4","last_reported":1743382442,"current_range_meters":16800,"station_id":"ce4bhf92rcd13ifvqf40","pricing_plan_id":"cebpf4jnsgd1na2vs0mg"},{"bike_id":"c0df8ce0-b306-461c-9ebc-778c2050dfa4","system_id":"levelo_inurba_marseille","lat":43.30307,"lon":5.36895,"is_reserved":false,"is_disabled":false,"rental_uris":{"android":"levelo://app?vid=c0df8ce0-b306-461c-9ebc-778c2050dfa4","ios":"levelo://app?vid=c0df8ce0-b306-461c-9ebc-778c2050dfa4"},"vehicle_type_id":"4","last_reported":1743382442,"current_range_meters":17200,"station_id":"ce4bgqh2rcd13ifvqc5g","pricing_plan_id":"cebpf4jnsgd1na2vs0mg"},{"bike_id":"7e96f3f6-78d2-4595-bf16-2dd6592cfdd9","system_id":"levelo_inurba_marseille","lat":43.31115,"lon":5.37771,"is_reserved":false,"is_disabled":false,"rental_uris":{"android":"levelo://app?vid=7e96f3f6-78d2-4595-bf16-2dd6592cfdd9","ios":"levelo://app?vid=7e96f3f6-78d2-4595-bf16-2dd6592cfdd9"},"vehicle_type_id":"4","last_reported":1743382442,"current_range_meters":17200,"station_id":"ce4bgt92rcd13ifvqcg0","pricing_plan_id":"cebpf4jnsgd1na2vs0mg"},{"bike_id":"d4c4cdb7-62dc-45de-b6db-8d81c60e54cc","system_id":"levelo_inurba_marseille","lat":43.291014,"lon":5.381335,"is_reserved":false,"is_disabled":false,"rental_uris":{"android":"levelo://app?vid=d4c4cdb7-62dc-45de-b6db-8d81c60e54cc","ios":"levelo://app?vid=d4c4cdb7-62dc-45de-b6db-8d81c60e54cc"},"vehicle_type_id":"4","last_reported":1743382442,"current_range_meters":17200,"station_id":"ce4bh512rcd13ifvqe2g","pricing_plan_id":"cebpf4jnsgd1na2vs0mg"},{"bike_id":"2ed7ca39-6367-4e60-8d1d-c6283339e500","system_id":"levelo_inurba_marseille","lat":43.28649,"lon":5.36342,"is_reserved":false,"is_disabled":false,"rental_uris":{"android":"levelo://app?vid=2ed7ca39-6367-4e60-8d1d-c6283339e500","ios":"levelo://app?vid=2ed7ca39-6367-4e60-8d1d-c6283339e500"},"vehicle_type_id":"4","last_reported":1743382442,"current_range_meters":17200,"station_id":"ce4bhah2rcd13ifvqej0","pricing_plan_id":"cebpf4jnsgd1na2vs0mg"},{"bike_id":"86dc83d2-803f-4099-b079-7f6d977bb526","system_id":"levelo_inurba_marseille","lat":43.28944,"lon":5.39632,"is_reserved":false,"is_disabled":false,"rental_uris":{"android":"levelo://app?vid=86dc83d2-803f-4099-b079-7f6d977bb526","ios":"levelo://app?vid=86dc83d2-803f-4099-b079-7f6d977bb526"},"vehicle_type_id":"4","last_reported":1743382442,"current_range_meters":17600,"station_id":"ce4bh3h2rcd13ifvqdn0","pricing_plan_id":"cebpf4jnsgd1na2vs0mg"},{"bike_id":"c3183cf0-409e-48c5-aa4c-ea8511bcd41e","system_id":"levelo_inurba_marseille","lat":43.25889,"lon":5.39924,"is_reserved":false,"is_disabled":false,"rental_uris":{"android":"levelo://app?vid=c3183cf0-409e-48c5-aa4c-ea8511bcd41e","ios":"levelo://app?vid=c3183cf0-409e-48c5-aa4c-ea8511bcd41e"},"vehicle_type_id":"4","last_reported":1743382442,"current_range_meters":17600,"station_id":"ce4bhl92rcd13ifvqghg","pricing_plan_id":"cebpf4jnsgd1na2vs0mg"},{"bike_id":"ef4cd4df-dfe6-46b4-baf8-eb01cb6d1741","system_id":"levelo_inurba_marseille","lat":43.28149,"lon":5.42656,"is_reserved":false,"is_disabled":false,"rental_uris":{"android":"levelo://app?vid=ef4cd4df-dfe6-46b4-baf8-eb01cb6d1741","ios":"levelo://app?vid=ef4cd4df-dfe6-46b4-baf8-eb01cb6d1741"},"vehicle_type_id":"4","last_reported":1743382442,"current_range_meters":17600,"station_id":"ce4bhnh2rcd13ifvqgug","pricing_plan_id":"cebpf4jnsgd1na2vs0mg"},{"bike_id":"c0fa12a3-690b-41cb-9a37-aa7cadfac878","system_id":"levelo_inurba_marseille","lat":43.32849,"lon":5.36232,"is_reserved":false,"is_disabled":false,"rental_uris":{"android":"levelo://app?vid=c0fa12a3-690b-41cb-9a37-aa7cadfac878","ios":"levelo://app?vid=c0fa12a3-690b-41cb-9a37-aa7cadfac878"},"vehicle_type_id":"4","last_reported":1743382442,"current_range_meters":18000,"station_id":"","pricing_plan_id":"cebpf4jnsgd1na2vs0mg"},{"bike_id":"dfd6e3e4-8c29-4f67-a0c6-7ea2a278e9c8","system_id":"levelo_inurba_marseille","lat":43.2954,"lon":5.38547,"is_reserved":false,"is_disabled":false,"rental_uris":{"android":"levelo://app?vid=dfd6e3e4-8c29-4f67-a0c6-7ea2a278e9c8","ios":"levelo://app?vid=dfd6e3e4-8c29-4f67-a0c6-7ea2a278e9c8"},"vehicle_type_id":"4","last_reported":1743382442,"current_range_meters":18000,"station_id":"ce4bgih2rcd13ifvqba0","pricing_plan_id":"cebpf4jnsgd1na2vs0mg"},{"bike_id":"a8600a42-0988-45a4-b581-0c0cefa27cc5","system_id":"levelo_inurba_marseille","lat":43.29283,"lon":5.40115,"is_reserved":false,"is_disabled":false,"rental_uris":{"android":"levelo://app?vid=a8600a42-0988-45a4-b581-0c0cefa27cc5","ios":"levelo://app?vid=a8600a42-0988-45a4-b581-0c0cefa27cc5"},"vehicle_type_id":"4","last_reported":1743382442,"current_range_meters":18000,"station_id":"ce4bh312rcd13ifvqdk0","pricing_plan_id":"cebpf4jnsgd1na2vs0mg"},{"bike_id":"6298f8df-fd03-43a3-a50d-1857ffd16401","system_id":"levelo_inurba_marseille","lat":43.28434,"lon":5.37467,"is_reserved":false,"is_disabled":false,"rental_uris":{"android":"levelo://app?vid=6298f8df-fd03-43a3-a50d-1857ffd16401","ios":"levelo://app?vid=6298f8df-fd03-43a3-a50d-1857ffd16401"},"vehicle_type_id":"4","last_reported":1743382442,"current_range_meters":18000,"station_id":"ce4bh412rcd13ifvqds0","pricing_plan_id":"cebpf4jnsgd1na2vs0mg"},{"bike_id":"a6f874fd-bd80-49db-9f3f-cb040cae2422","system_id":"levelo_inurba_marseille","lat":43.27854,"lon":5.40773,"is_reserved":false,"is_disabled":false,"rental_uris":{"android":"levelo://app?vid=a6f874fd-bd80-49db-9f3f-cb040cae2422","ios":"levelo://app?vid=a6f874fd-bd80-49db-9f3f-cb040cae2422"},"vehicle_type_id":"4","last_reported":1743382442,"current_range_meters":18000,"station_id":"ce4bhnh2rcd13ifvqgtg","pricing_plan_id":"cebpf4jnsgd1na2vs0mg"},{"bike_id":"8edc5960-190d-49a6-a395-90de404e4659","system_id":"levelo_inurba_marseille","lat":43.30654,"lon":5.3659,"is_reserved":false,"is_disabled":false,"rental_uris":{"android":"levelo://app?vid=8edc5960-190d-49a6-a395-90de404e4659","ios":"levelo://app?vid=8edc5960-190d-49a6-a395-90de404e4659"},"vehicle_type_id":"4","last_reported":1743382442,"current_range_meters":18800,"station_id":"","pricing_plan_id":"cebpf4jnsgd1na2vs0mg"},{"bike_id":"3b579e50-e9c0-499f-a89e-36fef62f9bcd","system_id":"levelo_inurba_marseille","lat":43.32138,"lon":5.36779,"is_reserved":false,"is_disabled":false,"rental_uris":{"android":"levelo://app?vid=3b579e50-e9c0-499f-a89e-36fef62f9bcd","ios":"levelo://app?vid=3b579e50-e9c0-499f-a89e-36fef62f9bcd"},"vehicle_type_id":"4","last_reported":1743382442,"current_range_meters":18800,"station_id":"","pricing_plan_id":"cebpf4jnsgd1na2vs0mg"},{"bike_id":"e47bc61d-df2d-41b3-b26b-dd94e6e5e301","system_id":"levelo_inurba_marseille","lat":43.26241,"lon":5.4213,"is_reserved":false,"is_disabled":false,"rental_uris":{"android":"levelo://app?vid=e47bc61d-df2d-41b3-b26b-dd94e6e5e301","ios":"levelo://app?vid=e47bc61d-df2d-41b3-b26b-dd94e6e5e301"},"vehicle_type_id":"4","last_reported":1743382442,"current_range_meters":18800,"station_id":"","pricing_plan_id":"cebpf4jnsgd1na2vs0mg"},{"bike_id":"cb797003-a50b-40d0-8cf1-c7d1f9ac6e77","system_id":"levelo_inurba_marseille","lat":43.30929,"lon":5.40151,"is_reserved":false,"is_disabled":false,"rental_uris":{"android":"levelo://app?vid=cb797003-a50b-40d0-8cf1-c7d1f9ac6e77","ios":"levelo://app?vid=cb797003-a50b-40d0-8cf1-c7d1f9ac6e77"},"vehicle_type_id":"4","last_reported":1743382442,"current_range_meters":18800,"station_id":"ce4bgvp2rcd13ifvqct0","pricing_plan_id":"cebpf4jnsgd1na2vs0mg"},{"bike_id":"502bb342-b6df-4e50-8bac-37dbb114ce44","system_id":"levelo_inurba_marseille","lat":43.30644,"lon":5.39279,"is_reserved":false,"is_disabled":false,"rental_uris":{"android":"levelo://app?vid=502bb342-b6df-4e50-8bac-37dbb114ce44","ios":"levelo://app?vid=502bb342-b6df-4e50-8bac-37dbb114ce44"},"vehicle_type_id":"4","last_reported":1743382442,"current_range_meters":18800,"station_id":"ce4bh0p2rcd13ifvqd80","pricing_plan_id":"cebpf4jnsgd1na2vs0mg"},{"bike_id":"604b4eb0-25a7-4618-bd6b-493b9f8cb1f6","system_id":"levelo_inurba_marseille","lat":43.30083,"lon":5.39101,"is_reserved":false,"is_disabled":false,"rental_uris":{"android":"levelo://app?vid=604b4eb0-25a7-4618-bd6b-493b9f8cb1f6","ios":"levelo://app?vid=604b4eb0-25a7-4618-bd6b-493b9f8cb1f6"},"vehicle_type_id":"4","last_reported":1743382442,"current_range_meters":18800,"station_id":"ce4bh192rcd13ifvqdb0","pricing_plan_id":"cebpf4jnsgd1na2vs0mg"},{"bike_id":"b5f22170-b700-4f86-ba66-95638ce04210","system_id":"levelo_inurba_marseille","lat":43.2921,"lon":5.39286,"is_reserved":false,"is_disabled":false,"rental_uris":{"android":"levelo://app?vid=b5f22170-b700-4f86-ba66-95638ce04210","ios":"levelo://app?vid=b5f22170-b700-4f86-ba66-95638ce04210"},"vehicle_type_id":"4","last_reported":1743382442,"current_range_meters":18800,"station_id":"ce4bh192rcd13ifvqdd0","pricing_plan_id":"cebpf4jnsgd1na2vs0mg"},{"bike_id":"8eed9464-a94d-4fbb-8edb-21394fe09d8a","system_id":"levelo_inurba_marseille","lat":43.295231,"lon":5.394033,"is_reserved":false,"is_disabled":false,"rental_uris":{"android":"levelo://app?vid=8eed9464-a94d-4fbb-8edb-21394fe09d8a","ios":"levelo://app?vid=8eed9464-a94d-4fbb-8edb-21394fe09d8a"},"vehicle_type_id":"4","last_reported":1743382442,"current_range_meters":18800,"station_id":"ce4bh292rcd13ifvqdf0","pricing_plan_id":"cebpf4jnsgd1na2vs0mg"},{"bike_id":"e146b6a9-164e-4964-97de-4547050cf39e","system_id":"levelo_inurba_marseille","lat":43.25753,"lon":5.41113,"is_reserved":false,"is_disabled":false,"rental_uris":{"android":"levelo://app?vid=e146b6a9-164e-4964-97de-4547050cf39e","ios":"levelo://app?vid=e146b6a9-164e-4964-97de-4547050cf39e"},"vehicle_type_id":"4","last_reported":1743382442,"current_range_meters":19200,"station_id":"","pricing_plan_id":"cebpf4jnsgd1na2vs0mg"},{"bike_id":"1b63ccb2-1298-4d96-b7f3-6ad6cace00e9","system_id":"levelo_inurba_marseille","lat":43.26125,"lon":5.40099,"is_reserved":false,"is_disabled":false,"rental_uris":{"android":"levelo://app?vid=1b63ccb2-1298-4d96-b7f3-6ad6cace00e9","ios":"levelo://app?vid=1b63ccb2-1298-4d96-b7f3-6ad6cace00e9"},"vehicle_type_id":"4","last_reported":1743382442,"current_range_meters":19200,"station_id":"","pricing_plan_id":"cebpf4jnsgd1na2vs0mg"},{"bike_id":"6c3e62ed-83b0-470c-b364-e1231a90e513","system_id":"levelo_inurba_marseille","lat":43.30326,"lon":5.36878,"is_reserved":false,"is_disabled":false,"rental_uris":{"android":"levelo://app?vid=6c3e62ed-83b0-470c-b364-e1231a90e513","ios":"levelo://app?vid=6c3e62ed-83b0-470c-b364-e1231a90e513"},"vehicle_type_id":"4","last_reported":1743382442,"current_range_meters":19200,"station_id":"ce4bgqh2rcd13ifvqc5g","pricing_plan_id":"cebpf4jnsgd1na2vs0mg"},{"bike_id":"64c8564a-2308-4ceb-9d17-172972213623","system_id":"levelo_inurba_marseille","lat":43.30108,"lon":5.3907,"is_reserved":false,"is_disabled":false,"rental_uris":{"android":"levelo://app?vid=64c8564a-2308-4ceb-9d17-172972213623","ios":"levelo://app?vid=64c8564a-2308-4ceb-9d17-172972213623"},"vehicle_type_id":"4","last_reported":1743382442,"current_range_meters":19200,"station_id":"ce4bh192rcd13ifvqdb0","pricing_plan_id":"cebpf4jnsgd1na2vs0mg"},{"bike_id":"27773214-4312-4127-aa54-e74cba3d6d07","system_id":"levelo_inurba_marseille","lat":43.27786,"lon":5.40746,"is_reserved":false,"is_disabled":false,"rental_uris":{"android":"levelo://app?vid=27773214-4312-4127-aa54-e74cba3d6d07","ios":"levelo://app?vid=27773214-4312-4127-aa54-e74cba3d6d07"},"vehicle_type_id":"4","last_reported":1743382442,"current_range_meters":19200,"station_id":"ce4bhnh2rcd13ifvqgtg","pricing_plan_id":"cebpf4jnsgd1na2vs0mg"},{"bike_id":"cc91f520-1773-45ac-9e06-856759f2be9e","system_id":"levelo_inurba_marseille","lat":43.32108,"lon":5.36788,"is_reserved":false,"is_disabled":false,"rental_uris":{"android":"levelo://app?vid=cc91f520-1773-45ac-9e06-856759f2be9e","ios":"levelo://app?vid=cc91f520-1773-45ac-9e06-856759f2be9e"},"vehicle_type_id":"4","last_reported":1743382442,"current_range_meters":19200,"station_id":"ce4bhrh2rcd13ifvqhug","pricing_plan_id":"cebpf4jnsgd1na2vs0mg"},{"bike_id":"28363aee-daa6-4757-a8fc-82f7d257dcfd","system_id":"levelo_inurba_marseille","lat":43.32161,"lon":5.36715,"is_reserved":false,"is_disabled":false,"rental_uris":{"android":"levelo://app?vid=28363aee-daa6-4757-a8fc-82f7d257dcfd","ios":"levelo://app?vid=28363aee-daa6-4757-a8fc-82f7d257dcfd"},"vehicle_type_id":"4","last_reported":1743382442,"current_range_meters":19600,"station_id":"","pricing_plan_id":"cebpf4jnsgd1na2vs0mg"},{"bike_id":"cbe30557-6c7a-45a2-9170-ebfec8cfa4f7","system_id":"levelo_inurba_marseille","lat":43.28685,"lon":5.38657,"is_reserved":false,"is_disabled":false,"rental_uris":{"android":"levelo://app?vid=cbe30557-6c7a-45a2-9170-ebfec8cfa4f7","ios":"levelo://app?vid=cbe30557-6c7a-45a2-9170-ebfec8cfa4f7"},"vehicle_type_id":"4","last_reported":1743382442,"current_range_meters":19600,"station_id":"ce4bh492rcd13ifvqdug","pricing_plan_id":"cebpf4jnsgd1na2vs0mg"},{"bike_id":"9bb34f3a-dcfd-4cd0-a2be-83a189c1cc76","system_id":"levelo_inurba_marseille","lat":43.28935,"lon":5.36628,"is_reserved":false,"is_disabled":false,"rental_uris":{"android":"levelo://app?vid=9bb34f3a-dcfd-4cd0-a2be-83a189c1cc76","ios":"levelo://app?vid=9bb34f3a-dcfd-4cd0-a2be-83a189c1cc76"},"vehicle_type_id":"4","last_reported":1743382442,"current_range_meters":19600,"station_id":"ce4bhap2rcd13ifvqek0","pricing_plan_id":"cebpf4jnsgd1na2vs0mg"},{"bike_id":"8b0a99a6-fc17-4cad-8c79-20264c4e48e9","system_id":"levelo_inurba_marseille","lat":43.26806,"lon":5.40258,"is_reserved":false,"is_disabled":false,"rental_uris":{"android":"levelo://app?vid=8b0a99a6-fc17-4cad-8c79-20264c4e48e9","ios":"levelo://app?vid=8b0a99a6-fc17-4cad-8c79-20264c4e48e9"},"vehicle_type_id":"4","last_reported":1743382442,"current_range_meters":19600,"station_id":"ce501612rcd8frsf0b60","pricing_plan_id":"cebpf4jnsgd1na2vs0mg"},{"bike_id":"616e5700-9dc3-4e6a-b158-c312f6fa9cac","system_id":"levelo_inurba_marseille","lat":43.30293,"lon":5.39208,"is_reserved":false,"is_disabled":false,"rental_uris":{"android":"levelo://app?vid=616e5700-9dc3-4e6a-b158-c312f6fa9cac","ios":"levelo://app?vid=616e5700-9dc3-4e6a-b158-c312f6fa9cac"},"vehicle_type_id":"4","last_reported":1743382442,"current_range_meters":20000,"station_id":"ce4bgkh2rcd13ifvqbk0","pricing_plan_id":"cebpf4jnsgd1na2vs0mg"},{"bike_id":"53d187f7-215a-4782-bd40-74fb216f7631","system_id":"levelo_inurba_marseille","lat":43.31127,"lon":5.37755,"is_reserved":false,"is_disabled":false,"rental_uris":{"android":"levelo://app?vid=53d187f7-215a-4782-bd40-74fb216f7631","ios":"levelo://app?vid=53d187f7-215a-4782-bd40-74fb216f7631"},"vehicle_type_id":"4","last_reported":1743382442,"current_range_meters":20000,"station_id":"ce4bgt92rcd13ifvqcg0","pricing_plan_id":"cebpf4jnsgd1na2vs0mg"},{"bike_id":"64804891-d9af-4eb2-b854-4f3dac50bdad","system_id":"levelo_inurba_marseille","lat":43.30092,"lon":5.39071,"is_reserved":false,"is_disabled":false,"rental_uris":{"android":"levelo://app?vid=64804891-d9af-4eb2-b854-4f3dac50bdad","ios":"levelo://app?vid=64804891-d9af-4eb2-b854-4f3dac50bdad"},"vehicle_type_id":"4","last_reported":1743382442,"current_range_meters":20000,"station_id":"ce4bh192rcd13ifvqdb0","pricing_plan_id":"cebpf4jnsgd1na2vs0mg"},{"bike_id":"60616422-468f-4dee-9eff-d5aca2096c9a","system_id":"levelo_inurba_marseille","lat":43.29509,"lon":5.39399,"is_reserved":false,"is_disabled":false,"rental_uris":{"android":"levelo://app?vid=60616422-468f-4dee-9eff-d5aca2096c9a","ios":"levelo://app?vid=60616422-468f-4dee-9eff-d5aca2096c9a"},"vehicle_type_id":"4","last_reported":1743382442,"current_range_meters":20000,"station_id":"ce4bh292rcd13ifvqdf0","pricing_plan_id":"cebpf4jnsgd1na2vs0mg"},{"bike_id":"9378416e-8a8b-45fd-8c33-34a2298c056f","system_id":"levelo_inurba_marseille","lat":43.28575,"lon":5.39495,"is_reserved":false,"is_disabled":false,"rental_uris":{"android":"levelo://app?vid=9378416e-8a8b-45fd-8c33-34a2298c056f","ios":"levelo://app?vid=9378416e-8a8b-45fd-8c33-34a2298c056f"},"vehicle_type_id":"4","last_reported":1743382442,"current_range_meters":20000,"station_id":"ce4bh292rcd13ifvqdg0","pricing_plan_id":"cebpf4jnsgd1na2vs0mg"},{"bike_id":"67314219-bb48-40ce-8785-4357d6b9f6d7","system_id":"levelo_inurba_marseille","lat":43.25928,"lon":5.4089,"is_reserved":false,"is_disabled":false,"rental_uris":{"android":"levelo://app?vid=67314219-bb48-40ce-8785-4357d6b9f6d7","ios":"levelo://app?vid=67314219-bb48-40ce-8785-4357d6b9f6d7"},"vehicle_type_id":"4","last_reported":1743382442,"current_range_meters":20000,"station_id":"ce4bhm92rcd13ifvqglg","pricing_plan_id":"cebpf4jnsgd1na2vs0mg"},{"bike_id":"ae1d224c-cc9a-42e3-98fb-ca8be492f83d","system_id":"levelo_inurba_marseille","lat":43.29454,"lon":5.38129,"is_reserved":false,"is_disabled":false,"rental_uris":{"android":"levelo://app?vid=ae1d224c-cc9a-42e3-98fb-ca8be492f83d","ios":"levelo://app?vid=ae1d224c-cc9a-42e3-98fb-ca8be492f83d"},"vehicle_type_id":"4","last_reported":1743382442,"current_range_meters":20400,"station_id":"","pricing_plan_id":"cebpf4jnsgd1na2vs0mg"},{"bike_id":"93d6b920-4e04-4fe4-b6ac-a9ca6cabcf06","system_id":"levelo_inurba_marseille","lat":43.29882,"lon":5.38924,"is_reserved":false,"is_disabled":false,"rental_uris":{"android":"levelo://app?vid=93d6b920-4e04-4fe4-b6ac-a9ca6cabcf06","ios":"levelo://app?vid=93d6b920-4e04-4fe4-b6ac-a9ca6cabcf06"},"vehicle_type_id":"4","last_reported":1743382442,"current_range_meters":20400,"station_id":"ce4bh392rcd13ifvqdl0","pricing_plan_id":"cebpf4jnsgd1na2vs0mg"},{"bike_id":"3bb64c12-6fb5-4c4a-b58e-d8b3d38ddc93","system_id":"levelo_inurba_marseille","lat":43.26564,"lon":5.39021,"is_reserved":false,"is_disabled":false,"rental_uris":{"android":"levelo://app?vid=3bb64c12-6fb5-4c4a-b58e-d8b3d38ddc93","ios":"levelo://app?vid=3bb64c12-6fb5-4c4a-b58e-d8b3d38ddc93"},"vehicle_type_id":"4","last_reported":1743382442,"current_range_meters":20400,"station_id":"ce4bhe12rcd13ifvqf30","pricing_plan_id":"cebpf4jnsgd1na2vs0mg"},{"bike_id":"5499824c-eb4c-4ac5-ab9d-beb6f6fee33d","system_id":"levelo_inurba_marseille","lat":43.241735,"lon":5.397307,"is_reserved":false,"is_disabled":false,"rental_uris":{"android":"levelo://app?vid=5499824c-eb4c-4ac5-ab9d-beb6f6fee33d","ios":"levelo://app?vid=5499824c-eb4c-4ac5-ab9d-beb6f6fee33d"},"vehicle_type_id":"4","last_reported":1743382442,"current_range_meters":20400,"station_id":"ce4bhn12rcd13ifvqgpg","pricing_plan_id":"cebpf4jnsgd1na2vs0mg"},{"bike_id":"5ff82159-db68-4435-82f5-9f6c0a349f38","system_id":"levelo_inurba_marseille","lat":43.28426,"lon":5.3918,"is_reserved":false,"is_disabled":false,"rental_uris":{"android":"levelo://app?vid=5ff82159-db68-4435-82f5-9f6c0a349f38","ios":"levelo://app?vid=5ff82159-db68-4435-82f5-9f6c0a349f38"},"vehicle_type_id":"4","last_reported":1743382442,"current_range_meters":20400,"station_id":"ce4bhoh2rcd13ifvqh5g","pricing_plan_id":"cebpf4jnsgd1na2vs0mg"},{"bike_id":"825fa134-5eda-4b96-9352-0d8207be093b","system_id":"levelo_inurba_marseille","lat":43.28032,"lon":5.36959,"is_reserved":false,"is_disabled":false,"rental_uris":{"android":"levelo://app?vid=825fa134-5eda-4b96-9352-0d8207be093b","ios":"levelo://app?vid=825fa134-5eda-4b96-9352-0d8207be093b"},"vehicle_type_id":"4","last_reported":1743382442,"current_range_meters":20800,"station_id":"ce4bha12rcd13ifvqef0","pricing_plan_id":"cebpf4jnsgd1na2vs0mg"},{"bike_id":"dd3db03f-0f43-4986-9ec8-2a76818fb28c","system_id":"levelo_inurba_marseille","lat":43.23199,"lon":5.35562,"is_reserved":false,"is_disabled":false,"rental_uris":{"android":"levelo://app?vid=dd3db03f-0f43-4986-9ec8-2a76818fb28c","ios":"levelo://app?vid=dd3db03f-0f43-4986-9ec8-2a76818fb28c"},"vehicle_type_id":"4","last_reported":1743382442,"current_range_meters":20800,"station_id":"ce4bhu92rcd13ifvqi70","pricing_plan_id":"cebpf4jnsgd1na2vs0mg"},{"bike_id":"f2c85a9c-1190-4af8-bc2c-1f7e3514da60","system_id":"levelo_inurba_marseille","lat":43.28432,"lon":5.37518,"is_reserved":false,"is_disabled":false,"rental_uris":{"android":"levelo://app?vid=f2c85a9c-1190-4af8-bc2c-1f7e3514da60","ios":"levelo://app?vid=f2c85a9c-1190-4af8-bc2c-1f7e3514da60"},"vehicle_type_id":"4","last_reported":1743382442,"current_range_meters":21600,"station_id":"ce4bh412rcd13ifvqds0","pricing_plan_id":"cebpf4jnsgd1na2vs0mg"},{"bike_id":"1f7d8fed-df44-49a4-b4aa-a48dc92bd755","system_id":"levelo_inurba_marseille","lat":43.2317,"lon":5.39954,"is_reserved":false,"is_disabled":false,"rental_uris":{"android":"levelo://app?vid=1f7d8fed-df44-49a4-b4aa-a48dc92bd755","ios":"levelo://app?vid=1f7d8fed-df44-49a4-b4aa-a48dc92bd755"},"vehicle_type_id":"4","last_reported":1743382442,"current_range_meters":21600,"station_id":"ce4bhn12rcd13ifvqgqg","pricing_plan_id":"cebpf4jnsgd1na2vs0mg"},{"bike_id":"ac7143d4-a41d-414b-bae7-ea3fa410d0f1","system_id":"levelo_inurba_marseille","lat":43.34155,"lon":5.40909,"is_reserved":false,"is_disabled":false,"rental_uris":{"android":"levelo://app?vid=ac7143d4-a41d-414b-bae7-ea3fa410d0f1","ios":"levelo://app?vid=ac7143d4-a41d-414b-bae7-ea3fa410d0f1"},"vehicle_type_id":"4","last_reported":1743382442,"current_range_meters":21600,"station_id":"ce4bhqh2rcd13ifvqhlg","pricing_plan_id":"cebpf4jnsgd1na2vs0mg"},{"bike_id":"0a679810-880e-48c0-84e2-046e54ad09c2","system_id":"levelo_inurba_marseille","lat":43.31278,"lon":5.40165,"is_reserved":false,"is_disabled":false,"rental_uris":{"android":"levelo://app?vid=0a679810-880e-48c0-84e2-046e54ad09c2","ios":"levelo://app?vid=0a679810-880e-48c0-84e2-046e54ad09c2"},"vehicle_type_id":"4","last_reported":1743382442,"current_range_meters":22000,"station_id":"ce4bh092rcd13ifvqd30","pricing_plan_id":"cebpf4jnsgd1na2vs0mg"},{"bike_id":"53c4c73e-20e0-409d-8fa1-f9aacb762a06","system_id":"levelo_inurba_marseille","lat":43.29203,"lon":5.39974,"is_reserved":false,"is_disabled":false,"rental_uris":{"android":"levelo://app?vid=53c4c73e-20e0-409d-8fa1-f9aacb762a06","ios":"levelo://app?vid=53c4c73e-20e0-409d-8fa1-f9aacb762a06"},"vehicle_type_id":"4","last_reported":1743382442,"current_range_meters":22400,"station_id":"","pricing_plan_id":"cebpf4jnsgd1na2vs0mg"},{"bike_id":"d2d8c4ea-379e-4637-92c9-049835e7a683","system_id":"levelo_inurba_marseille","lat":43.30256,"lon":5.40081,"is_reserved":false,"is_disabled":false,"rental_uris":{"android":"levelo://app?vid=d2d8c4ea-379e-4637-92c9-049835e7a683","ios":"levelo://app?vid=d2d8c4ea-379e-4637-92c9-049835e7a683"},"vehicle_type_id":"4","last_reported":1743382442,"current_range_meters":22400,"station_id":"ce4bgvh2rcd13ifvqcs0","pricing_plan_id":"cebpf4jnsgd1na2vs0mg"},{"bike_id":"4b9f0e0a-2971-47a2-8e00-2924a9ce3b44","system_id":"levelo_inurba_marseille","lat":43.30931,"lon":5.40136,"is_reserved":false,"is_disabled":false,"rental_uris":{"android":"levelo://app?vid=4b9f0e0a-2971-47a2-8e00-2924a9ce3b44","ios":"levelo://app?vid=4b9f0e0a-2971-47a2-8e00-2924a9ce3b44"},"vehicle_type_id":"4","last_reported":1743382442,"current_range_meters":22400,"station_id":"ce4bgvp2rcd13ifvqct0","pricing_plan_id":"cebpf4jnsgd1na2vs0mg"},{"bike_id":"a7cc3076-bd2d-4671-8426-3d722b495fd1","system_id":"levelo_inurba_marseille","lat":43.25095,"lon":5.40284,"is_reserved":false,"is_disabled":false,"rental_uris":{"android":"levelo://app?vid=a7cc3076-bd2d-4671-8426-3d722b495fd1","ios":"levelo://app?vid=a7cc3076-bd2d-4671-8426-3d722b495fd1"},"vehicle_type_id":"4","last_reported":1743382442,"current_range_meters":22400,"station_id":"ce4bhlh2rcd13ifvqgig","pricing_plan_id":"cebpf4jnsgd1na2vs0mg"},{"bike_id":"75dae32f-059a-4b5b-a5e8-963c6eda2f66","system_id":"levelo_inurba_marseille","lat":43.27526,"lon":5.41029,"is_reserved":false,"is_disabled":false,"rental_uris":{"android":"levelo://app?vid=75dae32f-059a-4b5b-a5e8-963c6eda2f66","ios":"levelo://app?vid=75dae32f-059a-4b5b-a5e8-963c6eda2f66"},"vehicle_type_id":"4","last_reported":1743382442,"current_range_meters":22800,"station_id":"","pricing_plan_id":"cebpf4jnsgd1na2vs0mg"},{"bike_id":"415a9c3e-470f-4a73-8695-e4f6ccfce4a3","system_id":"levelo_inurba_marseille","lat":43.30456,"lon":5.3889,"is_reserved":false,"is_disabled":false,"rental_uris":{"android":"levelo://app?vid=415a9c3e-470f-4a73-8695-e4f6ccfce4a3","ios":"levelo://app?vid=415a9c3e-470f-4a73-8695-e4f6ccfce4a3"},"vehicle_type_id":"4","last_reported":1743382442,"current_range_meters":22800,"station_id":"ce4bgk12rcd13ifvqbi0","pricing_plan_id":"cebpf4jnsgd1na2vs0mg"},{"bike_id":"ca0ec887-a143-47c6-8010-881cd265a677","system_id":"levelo_inurba_marseille","lat":43.29194,"lon":5.35809,"is_reserved":false,"is_disabled":false,"rental_uris":{"android":"levelo://app?vid=ca0ec887-a143-47c6-8010-881cd265a677","ios":"levelo://app?vid=ca0ec887-a143-47c6-8010-881cd265a677"},"vehicle_type_id":"4","last_reported":1743382442,"current_range_meters":22800,"station_id":"ce4bhb12rcd13ifvqel0","pricing_plan_id":"cebpf4jnsgd1na2vs0mg"},{"bike_id":"29940c00-770c-4d7b-97b2-12a8a6e74966","system_id":"levelo_inurba_marseille","lat":43.28621,"lon":5.35102,"is_reserved":false,"is_disabled":false,"rental_uris":{"android":"levelo://app?vid=29940c00-770c-4d7b-97b2-12a8a6e74966","ios":"levelo://app?vid=29940c00-770c-4d7b-97b2-12a8a6e74966"},"vehicle_type_id":"4","last_reported":1743382442,"current_range_meters":22800,"station_id":"ce4bhch2rcd13ifvqeug","pricing_plan_id":"cebpf4jnsgd1na2vs0mg"},{"bike_id":"c8e700e7-8679-437b-ad78-0f7cca50bff3","system_id":"levelo_inurba_marseille","lat":43.2624,"lon":5.40435,"is_reserved":false,"is_disabled":false,"rental_uris":{"android":"levelo://app?vid=c8e700e7-8679-437b-ad78-0f7cca50bff3","ios":"levelo://app?vid=c8e700e7-8679-437b-ad78-0f7cca50bff3"},"vehicle_type_id":"4","last_reported":1743382442,"current_range_meters":22800,"station_id":"ce4bhmh2rcd13ifvqgmg","pricing_plan_id":"cebpf4jnsgd1na2vs0mg"},{"bike_id":"83a5bc72-8be7-4310-91c2-fd2d9860c213","system_id":"levelo_inurba_marseille","lat":43.29561,"lon":5.38604,"is_reserved":false,"is_disabled":false,"rental_uris":{"android":"levelo://app?vid=83a5bc72-8be7-4310-91c2-fd2d9860c213","ios":"levelo://app?vid=83a5bc72-8be7-4310-91c2-fd2d9860c213"},"vehicle_type_id":"4","last_reported":1743382442,"current_range_meters":23200,"station_id":"","pricing_plan_id":"cebpf4jnsgd1na2vs0mg"},{"bike_id":"c226a6e5-2369-47d4-b5a2-1857713bab88","system_id":"levelo_inurba_marseille","lat":43.27901,"lon":5.39646,"is_reserved":false,"is_disabled":false,"rental_uris":{"android":"levelo://app?vid=c226a6e5-2369-47d4-b5a2-1857713bab88","ios":"levelo://app?vid=c226a6e5-2369-47d4-b5a2-1857713bab88"},"vehicle_type_id":"4","last_reported":1743382442,"current_range_meters":23200,"station_id":"","pricing_plan_id":"cebpf4jnsgd1na2vs0mg"},{"bike_id":"3160f778-e015-430a-9b70-2da5e0735663","system_id":"levelo_inurba_marseille","lat":43.30307,"lon":5.39214,"is_reserved":false,"is_disabled":false,"rental_uris":{"android":"levelo://app?vid=3160f778-e015-430a-9b70-2da5e0735663","ios":"levelo://app?vid=3160f778-e015-430a-9b70-2da5e0735663"},"vehicle_type_id":"4","last_reported":1743382442,"current_range_meters":23200,"station_id":"ce4bgkh2rcd13ifvqbk0","pricing_plan_id":"cebpf4jnsgd1na2vs0mg"},{"bike_id":"dd71fcfc-b225-483a-bec3-ad95907f0798","system_id":"levelo_inurba_marseille","lat":43.29722,"lon":5.36611,"is_reserved":false,"is_disabled":false,"rental_uris":{"android":"levelo://app?vid=dd71fcfc-b225-483a-bec3-ad95907f0798","ios":"levelo://app?vid=dd71fcfc-b225-483a-bec3-ad95907f0798"},"vehicle_type_id":"4","last_reported":1743382442,"current_range_meters":23200,"station_id":"ce4bgn12rcd13ifvqbt0","pricing_plan_id":"cebpf4jnsgd1na2vs0mg"},{"bike_id":"d7712657-beaf-4b9d-b29c-94fc788e89a3","system_id":"levelo_inurba_marseille","lat":43.31211,"lon":5.38658,"is_reserved":false,"is_disabled":false,"rental_uris":{"android":"levelo://app?vid=d7712657-beaf-4b9d-b29c-94fc788e89a3","ios":"levelo://app?vid=d7712657-beaf-4b9d-b29c-94fc788e89a3"},"vehicle_type_id":"4","last_reported":1743382442,"current_range_meters":23200,"station_id":"ce4bgv12rcd13ifvqcp0","pricing_plan_id":"cebpf4jnsgd1na2vs0mg"},{"bike_id":"87206e1c-6d53-4818-a08c-aa13676561cc","system_id":"levelo_inurba_marseille","lat":43.3116,"lon":5.38691,"is_reserved":false,"is_disabled":false,"rental_uris":{"android":"levelo://app?vid=87206e1c-6d53-4818-a08c-aa13676561cc","ios":"levelo://app?vid=87206e1c-6d53-4818-a08c-aa13676561cc"},"vehicle_type_id":"4","last_reported":1743382442,"current_range_meters":23200,"station_id":"ce4bgv12rcd13ifvqcp0","pricing_plan_id":"cebpf4jnsgd1na2vs0mg"},{"bike_id":"1485b273-5aac-4c11-95a1-88934667f127","system_id":"levelo_inurba_marseille","lat":43.30791,"lon":5.37672,"is_reserved":false,"is_disabled":false,"rental_uris":{"android":"levelo://app?vid=1485b273-5aac-4c11-95a1-88934667f127","ios":"levelo://app?vid=1485b273-5aac-4c11-95a1-88934667f127"},"vehicle_type_id":"4","last_reported":1743382442,"current_range_meters":23200,"station_id":"ce4bgv92rcd13ifvqcq0","pricing_plan_id":"cebpf4jnsgd1na2vs0mg"},{"bike_id":"17b2ab2e-2067-43af-94eb-0eed220bf47d","system_id":"levelo_inurba_marseille","lat":43.28348,"lon":5.38114,"is_reserved":false,"is_disabled":false,"rental_uris":{"android":"levelo://app?vid=17b2ab2e-2067-43af-94eb-0eed220bf47d","ios":"levelo://app?vid=17b2ab2e-2067-43af-94eb-0eed220bf47d"},"vehicle_type_id":"4","last_reported":1743382442,"current_range_meters":23200,"station_id":"ce4bh412rcd13ifvqdr0","pricing_plan_id":"cebpf4jnsgd1na2vs0mg"},{"bike_id":"659d5209-a418-494e-bb58-ded5d4ea6827","system_id":"levelo_inurba_marseille","lat":43.25501,"lon":5.37654,"is_reserved":false,"is_disabled":false,"rental_uris":{"android":"levelo://app?vid=659d5209-a418-494e-bb58-ded5d4ea6827","ios":"levelo://app?vid=659d5209-a418-494e-bb58-ded5d4ea6827"},"vehicle_type_id":"4","last_reported":1743382442,"current_range_meters":23200,"station_id":"ce4bhh12rcd13ifvqff0","pricing_plan_id":"cebpf4jnsgd1na2vs0mg"},{"bike_id":"b7ec42e1-600a-487e-b279-686d736d8c88","system_id":"levelo_inurba_marseille","lat":43.27043,"lon":5.42266,"is_reserved":false,"is_disabled":false,"rental_uris":{"android":"levelo://app?vid=b7ec42e1-600a-487e-b279-686d736d8c88","ios":"levelo://app?vid=b7ec42e1-600a-487e-b279-686d736d8c88"},"vehicle_type_id":"4","last_reported":1743382442,"current_range_meters":23200,"station_id":"ce4bhk92rcd13ifvqgb0","pricing_plan_id":"cebpf4jnsgd1na2vs0mg"},{"bike_id":"d0eb5eab-ee9f-44c6-967d-4c60aa7c46b4","system_id":"levelo_inurba_marseille","lat":43.23187,"lon":5.39986,"is_reserved":false,"is_disabled":false,"rental_uris":{"android":"levelo://app?vid=d0eb5eab-ee9f-44c6-967d-4c60aa7c46b4","ios":"levelo://app?vid=d0eb5eab-ee9f-44c6-967d-4c60aa7c46b4"},"vehicle_type_id":"4","last_reported":1743382442,"current_range_meters":23200,"station_id":"ce4bhn12rcd13ifvqgqg","pricing_plan_id":"cebpf4jnsgd1na2vs0mg"},{"bike_id":"50f8b6d4-a4ed-4459-bb20-691069d63fab","system_id":"levelo_inurba_marseille","lat":43.28152,"lon":5.42607,"is_reserved":false,"is_disabled":false,"rental_uris":{"android":"levelo://app?vid=50f8b6d4-a4ed-4459-bb20-691069d63fab","ios":"levelo://app?vid=50f8b6d4-a4ed-4459-bb20-691069d63fab"},"vehicle_type_id":"4","last_reported":1743382442,"current_range_meters":23200,"station_id":"ce4bhnh2rcd13ifvqgug","pricing_plan_id":"cebpf4jnsgd1na2vs0mg"},{"bike_id":"b80ee275-2592-4659-b2e9-175feb839700","system_id":"levelo_inurba_marseille","lat":43.23204,"lon":5.35542,"is_reserved":false,"is_disabled":false,"rental_uris":{"android":"levelo://app?vid=b80ee275-2592-4659-b2e9-175feb839700","ios":"levelo://app?vid=b80ee275-2592-4659-b2e9-175feb839700"},"vehicle_type_id":"4","last_reported":1743382442,"current_range_meters":23200,"station_id":"ce4bhu92rcd13ifvqi70","pricing_plan_id":"cebpf4jnsgd1na2vs0mg"},{"bike_id":"117d6bbf-3b83-408c-aec5-245fa74b2a24","system_id":"levelo_inurba_marseille","lat":43.28372,"lon":5.41674,"is_reserved":false,"is_disabled":false,"rental_uris":{"android":"levelo://app?vid=117d6bbf-3b83-408c-aec5-245fa74b2a24","ios":"levelo://app?vid=117d6bbf-3b83-408c-aec5-245fa74b2a24"},"vehicle_type_id":"4","last_reported":1743382442,"current_range_meters":24000,"station_id":"","pricing_plan_id":"cebpf4jnsgd1na2vs0mg"},{"bike_id":"2f148fe8-6c0f-40bc-87c5-3ccf624c9eca","system_id":"levelo_inurba_marseille","lat":43.29399,"lon":5.40099,"is_reserved":false,"is_disabled":false,"rental_uris":{"android":"levelo://app?vid=2f148fe8-6c0f-40bc-87c5-3ccf624c9eca","ios":"levelo://app?vid=2f148fe8-6c0f-40bc-87c5-3ccf624c9eca"},"vehicle_type_id":"4","last_reported":1743382442,"current_range_meters":24000,"station_id":"","pricing_plan_id":"cebpf4jnsgd1na2vs0mg"},{"bike_id":"9c9137b0-6693-49a6-bedc-f2ea63e283a3","system_id":"levelo_inurba_marseille","lat":43.30539,"lon":5.37076,"is_reserved":false,"is_disabled":false,"rental_uris":{"android":"levelo://app?vid=9c9137b0-6693-49a6-bedc-f2ea63e283a3","ios":"levelo://app?vid=9c9137b0-6693-49a6-bedc-f2ea63e283a3"},"vehicle_type_id":"4","last_reported":1743382442,"current_range_meters":24000,"station_id":"","pricing_plan_id":"cebpf4jnsgd1na2vs0mg"},{"bike_id":"12c1a852-1eb2-406b-af27-e2b533bb0a60","system_id":"levelo_inurba_marseille","lat":43.31114,"lon":5.37769,"is_reserved":false,"is_disabled":false,"rental_uris":{"android":"levelo://app?vid=12c1a852-1eb2-406b-af27-e2b533bb0a60","ios":"levelo://app?vid=12c1a852-1eb2-406b-af27-e2b533bb0a60"},"vehicle_type_id":"4","last_reported":1743382442,"current_range_meters":24000,"station_id":"ce4bgt92rcd13ifvqcg0","pricing_plan_id":"cebpf4jnsgd1na2vs0mg"},{"bike_id":"408f475f-b21e-4719-ad9c-74d58a473837","system_id":"levelo_inurba_marseille","lat":43.31179,"lon":5.38702,"is_reserved":false,"is_disabled":false,"rental_uris":{"android":"levelo://app?vid=408f475f-b21e-4719-ad9c-74d58a473837","ios":"levelo://app?vid=408f475f-b21e-4719-ad9c-74d58a473837"},"vehicle_type_id":"4","last_reported":1743382442,"current_range_meters":24000,"station_id":"ce4bgv12rcd13ifvqcp0","pricing_plan_id":"cebpf4jnsgd1na2vs0mg"},{"bike_id":"213a39bf-d0d3-452a-92f8-6c2225789bc6","system_id":"levelo_inurba_marseille","lat":43.29416,"lon":5.38634,"is_reserved":false,"is_disabled":false,"rental_uris":{"android":"levelo://app?vid=213a39bf-d0d3-452a-92f8-6c2225789bc6","ios":"levelo://app?vid=213a39bf-d0d3-452a-92f8-6c2225789bc6"},"vehicle_type_id":"4","last_reported":1743382442,"current_range_meters":24000,"station_id":"ce4bh2h2rcd13ifvqdh0","pricing_plan_id":"cebpf4jnsgd1na2vs0mg"},{"bike_id":"fe4ebbd3-d973-49fa-997c-023426b29a9e","system_id":"levelo_inurba_marseille","lat":43.29882,"lon":5.38917,"is_reserved":false,"is_disabled":false,"rental_uris":{"android":"levelo://app?vid=fe4ebbd3-d973-49fa-997c-023426b29a9e","ios":"levelo://app?vid=fe4ebbd3-d973-49fa-997c-023426b29a9e"},"vehicle_type_id":"4","last_reported":1743382442,"current_range_meters":24000,"station_id":"ce4bh392rcd13ifvqdl0","pricing_plan_id":"cebpf4jnsgd1na2vs0mg"},{"bike_id":"8ae1e10c-7768-48ee-81a7-ef0c54c7827d","system_id":"levelo_inurba_marseille","lat":43.28484,"lon":5.38444,"is_reserved":false,"is_disabled":false,"rental_uris":{"android":"levelo://app?vid=8ae1e10c-7768-48ee-81a7-ef0c54c7827d","ios":"levelo://app?vid=8ae1e10c-7768-48ee-81a7-ef0c54c7827d"},"vehicle_type_id":"4","last_reported":1743382442,"current_range_meters":24000,"station_id":"ce4bh512rcd13ifvqe3g","pricing_plan_id":"cebpf4jnsgd1na2vs0mg"},{"bike_id":"db694429-8b78-4b7c-8a48-e1fb0f891986","system_id":"levelo_inurba_marseille","lat":43.27937,"lon":5.41045,"is_reserved":false,"is_disabled":false,"rental_uris":{"android":"levelo://app?vid=db694429-8b78-4b7c-8a48-e1fb0f891986","ios":"levelo://app?vid=db694429-8b78-4b7c-8a48-e1fb0f891986"},"vehicle_type_id":"4","last_reported":1743382442,"current_range_meters":24000,"station_id":"ce4bhnp2rcd13ifvqh0g","pricing_plan_id":"cebpf4jnsgd1na2vs0mg"},{"bike_id":"6b9bd8ae-8ee9-4269-b2bd-6c3d8c883a71","system_id":"levelo_inurba_marseille","lat":43.29782,"lon":5.39354,"is_reserved":false,"is_disabled":false,"rental_uris":{"android":"levelo://app?vid=6b9bd8ae-8ee9-4269-b2bd-6c3d8c883a71","ios":"levelo://app?vid=6b9bd8ae-8ee9-4269-b2bd-6c3d8c883a71"},"vehicle_type_id":"4","last_reported":1743382442,"current_range_meters":24000,"station_id":"chh1huq6cuj3fo74tm60","pricing_plan_id":"cebpf4jnsgd1na2vs0mg"},{"bike_id":"ed37a272-9b97-41e2-aa37-d4d2ac3d881e","system_id":"levelo_inurba_marseille","lat":43.3062,"lon":5.37217,"is_reserved":false,"is_disabled":false,"rental_uris":{"android":"levelo://app?vid=ed37a272-9b97-41e2-aa37-d4d2ac3d881e","ios":"levelo://app?vid=ed37a272-9b97-41e2-aa37-d4d2ac3d881e"},"vehicle_type_id":"4","last_reported":1743382442,"current_range_meters":24400,"station_id":"ce4bgqh2rcd13ifvqc4g","pricing_plan_id":"cebpf4jnsgd1na2vs0mg"},{"bike_id":"57065948-6079-4811-bfa2-dec945550849","system_id":"levelo_inurba_marseille","lat":43.3151,"lon":5.37292,"is_reserved":false,"is_disabled":false,"rental_uris":{"android":"levelo://app?vid=57065948-6079-4811-bfa2-dec945550849","ios":"levelo://app?vid=57065948-6079-4811-bfa2-dec945550849"},"vehicle_type_id":"4","last_reported":1743382442,"current_range_meters":24400,"station_id":"ce4bgt12rcd13ifvqcd0","pricing_plan_id":"cebpf4jnsgd1na2vs0mg"},