{"last_updated":1732230550,"ttl":60,"version":"2.2","data":{"bikes":[{"bike_id":"ce0ed8a1-4d7d-4faa-b157-bd30f7d3774d","system_id":"levelo_inurba_marseille","lat":43.30801,"lon":5.38157,"is_reserved":false,"is_disabled":false,"rental_uris":{"android":"levelo://app?vid=ce0ed8a1-4d7d-4faa-b157-bd30f7d3774d","ios":"levelo://app?vid=ce0ed8a1-4d7d-4faa-b157-bd30f7d3774d"},"vehicle_type_id":"4","last_reported":1732230550,"current_range_meters":28400,"station_id":"ce4bgt12rcd13ifvqce0","pricing_plan_id":"cebpf4jnsgd1na2vs0mg"},{"bike_id":"a10be396-1705-483a-9984-718f9d010c8e","system_id":"levelo_inurba_marseille","lat":43.29871,"lon":5.39747,"is_reserved":false,"is_disabled":true,"rental_uris":{"android":"levelo://app?vid=a10be396-1705-483a-9984-718f9d010c8e","ios":"levelo://app?vid=a10be396-1705-483a-9984-718f9d010c8e"},"vehicle_type_id":"4","last_reported":1732230550,"current_range_meters":0,"station_id":"ce4bh0h2rcd13ifvqd50","pricing_plan_id":"cebpf4jnsgd1na2vs0mg"},{"bike_id":"156320ae-cdf1-448d-a5dd-5f82d48b8bf7","system_id":"levelo_inurba_marseille","lat":43.28613,"lon":5.35101,"is_reserved":false,"is_disabled":false,"rental_uris":{"android":"levelo://app?vid=156320ae-cdf1-448d-a5dd-5f82d48b8bf7","ios":"levelo://app?vid=156320ae-cdf1-448d-a5dd-5f82d48b8bf7"},"vehicle_type_id":"4","last_reported":1732230550,"current_range_meters":35200,"station_id":"ce4bhch2rcd13ifvqeug","pricing_plan_id":"cebpf4jnsgd1na2vs0mg"},{"bike_id":"9903085d-c2d5-4e51-9142-a76cb5b64c42","system_id":"levelo_inurba_marseille","lat":43.29042,"lon":5.3995,"is_reserved":false,"is_disabled":true,"rental_uris":{"android":"levelo://app?vid=9903085d-c2d5-4e51-9142-a76cb5b64c42","ios":"levelo://app?vid=9903085d-c2d5-4e51-9142-a76cb5b64c42"},"vehicle_type_id":"4","last_reported":1732230550,"current_range_meters":40000,"station_id":"ce4bh392rcd13ifvqdm0","pricing_plan_id":"cebpf4jnsgd1na2vs0mg"},{"bike_id":"c16bc96c-299e-45e4-b62e-204697b43f12","system_id":"levelo_inurba_marseille","lat":43.25863,"lon":5.39905,"is_reserved":false,"is_disabled":false,"rental_uris":{"android":"levelo://app?vid=c16bc96c-299e-45e4-b62e-204697b43f12","ios":"levelo://app?vid=c16bc96c-299e-45e4-b62e-204697b43f12"},"vehicle_type_id":"4","last_reported":1732230550,"current_range_meters":38800,"station_id":"ce4bhl92rcd13ifvqghg","pricing_plan_id":"cebpf4jnsgd1na2vs0mg"},{"bike_id":"8527133f-e94b-41ef-9b16-c99901d73e95","system_id":"levelo_inurba_marseille","lat":43.25586,"lon":5.38231,"is_reserved":false,"is_disabled":false,"rental_uris":{"android":"levelo://app?vid=8527133f-e94b-41ef-9b16-c99901d73e95","ios":"levelo://app?vid=8527133f-e94b-41ef-9b16-c99901d73e95"},"vehicle_type_id":"4","last_reported":1732230550,"current_range_meters":36800,"station_id":"ce4bhih2rcd13ifvqfs0","pricing_plan_id":"cebpf4jnsgd1na2vs0mg"},{"bike_id":"c480a2ef-4b48-4056-a957-65e19257a79d","system_id":"levelo_inurba_marseille","lat":43.25869,"lon":5.39899,"is_reserved":false,"is_disabled":false,"rental_uris":{"android":"levelo://app?vid=c480a2ef-4b48-4056-a957-65e19257a79d","ios":"levelo://app?vid=c480a2ef-4b48-4056-a957-65e19257a79d"},"vehicle_type_id":"4","last_reported":1732230550,"current_range_meters":37600,"station_id":"ce4bhl92rcd13ifvqghg","pricing_plan_id":"cebpf4jnsgd1na2vs0mg"},{"bike_id":"6eab0e70-ffd4-4409-9655-e88461052ca2","system_id":"levelo_inurba_marseille","lat":43.29304,"lon":5.3719,"is_reserved":false,"is_disabled":false,"rental_uris":{"android":"levelo://app?vid=6eab0e70-ffd4-4409-9655-e88461052ca2","ios":"levelo://app?vid=6eab0e70-ffd4-4409-9655-e88461052ca2"},"vehicle_type_id":"4","last_reported":1732230550,"current_range_meters":27200,"station_id":"ce4bgh92rcd13ifvqb40","pricing_plan_id":"cebpf4jnsgd1na2vs0mg"},{"bike_id":"17f14fe9-d05f-46df-a870-18947470dd16","system_id":"levelo_inurba_marseille","lat":43.28265,"lon":5.35066,"is_reserved":false,"is_disabled":false,"rental_uris":{"android":"levelo://app?vid=17f14fe9-d05f-46df-a870-18947470dd16","ios":"levelo://app?vid=17f14fe9-d05f-46df-a870-18947470dd16"},"vehicle_type_id":"4","last_reported":1732230550,"current_range_meters":9600,"station_id":"ce4bhbp2rcd13ifvqerg","pricing_plan_id":"cebpf4jnsgd1na2vs0mg"},{"bike_id":"00249599-2873-4411-8e6b-9d1fb221012c","system_id":"levelo_inurba_marseille","lat":43.29011,"lon":5.35622,"is_reserved":false,"is_disabled":false,"rental_uris":{"android":"levelo://app?vid=00249599-2873-4411-8e6b-9d1fb221012c","ios":"levelo://app?vid=00249599-2873-4411-8e6b-9d1fb221012c"},"vehicle_type_id":"4","last_reported":1732230550,"current_range_meters":38800,"station_id":"ce4bhb92rcd13ifvqen0","pricing_plan_id":"cebpf4jnsgd1na2vs0mg"},{"bike_id":"54aaffa4-3b5a-4b20-98be-cf6af0d90cf7","system_id":"levelo_inurba_marseille","lat":43.30796,"lon":5.43534,"is_reserved":false,"is_disabled":false,"rental_uris":{"android":"levelo://app?vid=54aaffa4-3b5a-4b20-98be-cf6af0d90cf7","ios":"levelo://app?vid=54aaffa4-3b5a-4b20-98be-cf6af0d90cf7"},"vehicle_type_id":"4","last_reported":1732230550,"current_range_meters":38800,"station_id":"ce4bhph2rcd13ifvqheg","pricing_plan_id":"cebpf4jnsgd1na2vs0mg"},{"bike_id":"4245f16b-81bb-45a9-976d-cb0d30835d0f","system_id":"levelo_inurba_marseille","lat":43.29026,"lon":5.38139,"is_reserved":false,"is_disabled":false,"rental_uris":{"android":"levelo://app?vid=4245f16b-81bb-45a9-976d-cb0d30835d0f","ios":"levelo://app?vid=4245f16b-81bb-45a9-976d-cb0d30835d0f"},"vehicle_type_id":"4","last_reported":1732230550,"current_range_meters":26000,"station_id":"ce4bh4p2rcd13ifvqe1g","pricing_plan_id":"cebpf4jnsgd1na2vs0mg"},{"bike_id":"c5b7bc71-e002-44ae-83d1-66d9b8072ba2","system_id":"levelo_inurba_marseille","lat":43.30329,"lon":5.40437,"is_reserved":false,"is_disabled":false,"rental_uris":{"android":"levelo://app?vid=c5b7bc71-e002-44ae-83d1-66d9b8072ba2","ios":"levelo://app?vid=c5b7bc71-e002-44ae-83d1-66d9b8072ba2"},"vehicle_type_id":"4","last_reported":1732230550,"current_range_meters":38800,"station_id":"ce4bh012rcd13ifvqd10","pricing_plan_id":"cebpf4jnsgd1na2vs0mg"},{"bike_id":"428d72ce-47cc-4c94-841a-e3c923cc1cb6","system_id":"levelo_inurba_marseille","lat":43.28698,"lon":5.37399,"is_reserved":false,"is_disabled":true,"rental_uris":{"android":"levelo://app?vid=428d72ce-47cc-4c94-841a-e3c923cc1cb6","ios":"levelo://app?vid=428d72ce-47cc-4c94-841a-e3c923cc1cb6"},"vehicle_type_id":"4","last_reported":1732230550,"current_range_meters":30800,"station_id":"ce4bh3p2rcd13ifvqdq0","pricing_plan_id":"cebpf4jnsgd1na2vs0mg"},{"bike_id":"cc45001e-86ba-42cc-9993-ed5261abbfe0","system_id":"levelo_inurba_marseille","lat":43.32367,"lon":5.38877,"is_reserved":false,"is_disabled":false,"rental_uris":{"android":"levelo://app?vid=cc45001e-86ba-42cc-9993-ed5261abbfe0","ios":"levelo://app?vid=cc45001e-86ba-42cc-9993-ed5261abbfe0"},"vehicle_type_id":"4","last_reported":1732230550,"current_range_meters":17200,"station_id":"ce4bhqp2rcd13ifvqhog","pricing_plan_id":"cebpf4jnsgd1na2vs0mg"},{"bike_id":"9f6bdd31-f160-46d4-9930-0d3c52dfcd9a","system_id":"levelo_inurba_marseille","lat":43.30932,"lon":5.40153,"is_reserved":false,"is_disabled":false,"rental_uris":{"android":"levelo://app?vid=9f6bdd31-f160-46d4-9930-0d3c52dfcd9a","ios":"levelo://app?vid=9f6bdd31-f160-46d4-9930-0d3c52dfcd9a"},"vehicle_type_id":"4","last_reported":1732230550,"current_range_meters":40000,"station_id":"ce4bgvp2rcd13ifvqct0","pricing_plan_id":"cebpf4jnsgd1na2vs0mg"},{"bike_id":"d433276c-5613-4590-877a-5d54651240df","system_id":"levelo_inurba_marseille","lat":43.265805,"lon":5.373391,"is_reserved":false,"is_disabled":false,"rental_uris":{"android":"levelo://app?vid=d433276c-5613-4590-877a-5d54651240df","ios":"levelo://app?vid=d433276c-5613-4590-877a-5d54651240df"},"vehicle_type_id":"4","last_reported":1732230550,"current_range_meters":26000,"station_id":"ce4bhg12rcd13ifvqf70","pricing_plan_id":"cebpf4jnsgd1na2vs0mg"},{"bike_id":"c0755ad7-8353-40d1-98a4-bba43ca0e3ab","system_id":"levelo_inurba_marseille","lat":43.33724,"lon":5.39181,"is_reserved":false,"is_disabled":false,"rental_uris":{"android":"levelo://app?vid=c0755ad7-8353-40d1-98a4-bba43ca0e3ab","ios":"levelo://app?vid=c0755ad7-8353-40d1-98a4-bba43ca0e3ab"},"vehicle_type_id":"4","last_reported":1732230550,"current_range_meters":16400,"station_id":"ce4bhr92rcd13ifvqhsg","pricing_plan_id":"cebpf4jnsgd1na2vs0mg"},{"bike_id":"a9a4af61-0fd7-4a8f-8c37-b9e8613d2302","system_id":"levelo_inurba_marseille","lat":43.23185,"lon":5.39987,"is_reserved":false,"is_disabled":false,"rental_uris":{"android":"levelo://app?vid=a9a4af61-0fd7-4a8f-8c37-b9e8613d2302","ios":"levelo://app?vid=a9a4af61-0fd7-4a8f-8c37-b9e8613d2302"},"vehicle_type_id":"4","last_reported":1732230550,"current_range_meters":38400,"station_id":"ce4bhn12rcd13ifvqgqg","pricing_plan_id":"cebpf4jnsgd1na2vs0mg"},{"bike_id":"32e59b57-e8e9-429f-bd78-4e66280864e0","system_id":"levelo_inurba_marseille","lat":43.30195,"lon":5.39789,"is_reserved":false,"is_disabled":true,"rental_uris":{"android":"levelo://app?vid=32e59b57-e8e9-429f-bd78-4e66280864e0","ios":"levelo://app?vid=32e59b57-e8e9-429f-bd78-4e66280864e0"},"vehicle_type_id":"4","last_reported":1732230550,"current_range_meters":31200,"station_id":"","pricing_plan_id":"cebpf4jnsgd1na2vs0mg"},{"bike_id":"78bb5da4-eb26-47d4-a1b5-b4f21cccc3d3","system_id":"levelo_inurba_marseille","lat":43.30363,"lon":5.41873,"is_reserved":false,"is_disabled":false,"rental_uris":{"android":"levelo://app?vid=78bb5da4-eb26-47d4-a1b5-b4f21cccc3d3","ios":"levelo://app?vid=78bb5da4-eb26-47d4-a1b5-b4f21cccc3d3"},"vehicle_type_id":"4","last_reported":1732230550,"current_range_meters":28800,"station_id":"ce4bhop2rcd13ifvqh7g","pricing_plan_id":"cebpf4jnsgd1na2vs0mg"},{"bike_id":"99105d98-2d54-466e-8046-97245f7e74d6","system_id":"levelo_inurba_marseille","lat":43.28731,"lon":5.3609,"is_reserved":false,"is_disabled":false,"rental_uris":{"android":"levelo://app?vid=99105d98-2d54-466e-8046-97245f7e74d6","ios":"levelo://app?vid=99105d98-2d54-466e-8046-97245f7e74d6"},"vehicle_type_id":"4","last_reported":1732230550,"current_range_meters":10800,"station_id":"cki0cbj6b192h4jlfktg","pricing_plan_id":"cebpf4jnsgd1na2vs0mg"},{"bike_id":"9a647369-8939-4340-ae5b-78047f39d3bb","system_id":"levelo_inurba_marseille","lat":43.26846,"lon":5.39379,"is_reserved":false,"is_disabled":false,"rental_uris":{"android":"levelo://app?vid=9a647369-8939-4340-ae5b-78047f39d3bb","ios":"levelo://app?vid=9a647369-8939-4340-ae5b-78047f39d3bb"},"vehicle_type_id":"4","last_reported":1732230550,"current_range_meters":35200,"station_id":"ce4bhh12rcd13ifvqfg0","pricing_plan_id":"cebpf4jnsgd1na2vs0mg"},{"bike_id":"17cbae47-3136-4d40-bd29-b716fef4fc6b","system_id":"levelo_inurba_marseille","lat":43.30891,"lon":5.3965,"is_reserved":false,"is_disabled":false,"rental_uris":{"android":"levelo://app?vid=17cbae47-3136-4d40-bd29-b716fef4fc6b","ios":"levelo://app?vid=17cbae47-3136-4d40-bd29-b716fef4fc6b"},"vehicle_type_id":"4","last_reported":1732230550,"current_range_meters":22400,"station_id":"ce4bh012rcd13ifvqcv0","pricing_plan_id":"cebpf4jnsgd1na2vs0mg"},{"bike_id":"fd1e905e-0070-4395-8279-72b1c9e566e2","system_id":"levelo_inurba_marseille","lat":43.28718,"lon":5.37945,"is_reserved":false,"is_disabled":false,"rental_uris":{"android":"levelo://app?vid=fd1e905e-0070-4395-8279-72b1c9e566e2","ios":"levelo://app?vid=fd1e905e-0070-4395-8279-72b1c9e566e2"},"vehicle_type_id":"4","last_reported":1732230550,"current_range_meters":36800,"station_id":"ce4bh9p2rcd13ifvqec0","pricing_plan_id":"cebpf4jnsgd1na2vs0mg"},{"bike_id":"d2321b4c-ae3a-4b43-8bcd-12cb7984481d","system_id":"levelo_inurba_marseille","lat":43.30759,"lon":5.37014,"is_reserved":false,"is_disabled":true,"rental_uris":{"android":"levelo://app?vid=d2321b4c-ae3a-4b43-8bcd-12cb7984481d","ios":"levelo://app?vid=d2321b4c-ae3a-4b43-8bcd-12cb7984481d"},"vehicle_type_id":"4","last_reported":1732230550,"current_range_meters":20400,"station_id":"","pricing_plan_id":"cebpf4jnsgd1na2vs0mg"},{"bike_id":"0284c8dd-fe4e-4f60-80c7-c7956c61156a","system_id":"levelo_inurba_marseille","lat":43.30922,"lon":5.40139,"is_reserved":false,"is_disabled":false,"rental_uris":{"android":"levelo://app?vid=0284c8dd-fe4e-4f60-80c7-c7956c61156a","ios":"levelo://app?vid=0284c8dd-fe4e-4f60-80c7-c7956c61156a"},"vehicle_type_id":"4","last_reported":1732230550,"current_range_meters":3200,"station_id":"ce4bgvp2rcd13ifvqct0","pricing_plan_id":"cebpf4jnsgd1na2vs0mg"},{"bike_id":"b82c6aca-0424-472d-aecd-3a5f68babc21","system_id":"levelo_inurba_marseille","lat":43.28841,"lon":5.35847,"is_reserved":false,"is_disabled":false,"rental_uris":{"android":"levelo://app?vid=b82c6aca-0424-472d-aecd-3a5f68babc21","ios":"levelo://app?vid=b82c6aca-0424-472d-aecd-3a5f68babc21"},"vehicle_type_id":"4","last_reported":1732230550,"current_range_meters":18800,"station_id":"ce4bhb12rcd13ifvqem0","pricing_plan_id":"cebpf4jnsgd1na2vs0mg"},{"bike_id":"a1b98c93-ef7e-45de-9f91-96e2bc6df935","system_id":"levelo_inurba_marseille","lat":43.34558,"lon":5.37814,"is_reserved":false,"is_disabled":false,"rental_uris":{"android":"levelo://app?vid=a1b98c93-ef7e-45de-9f91-96e2bc6df935","ios":"levelo://app?vid=a1b98c93-ef7e-45de-9f91-96e2bc6df935"},"vehicle_type_id":"4","last_reported":1732230550,"current_range_meters":8800,"station_id":"","pricing_plan_id":"cebpf4jnsgd1na2vs0mg"},{"bike_id":"cca93b01-0bdc-4f8d-aa16-f8a9ca90e5e2","system_id":"levelo_inurba_marseille","lat":43.2928,"lon":5.40122,"is_reserved":false,"is_disabled":false,"rental_uris":{"android":"levelo://app?vid=cca93b01-0bdc-4f8d-aa16-f8a9ca90e5e2","ios":"levelo://app?vid=cca93b01-0bdc-4f8d-aa16-f8a9ca90e5e2"},"vehicle_type_id":"4","last_reported":1732230550,"current_range_meters":8400,"station_id":"ce4bh312rcd13ifvqdk0","pricing_plan_id":"cebpf4jnsgd1na2vs0mg"},{"bike_id":"5c3000a0-a190-4007-a723-aa2707fd1ce3","system_id":"levelo_inurba_marseille","lat":43.229395,"lon":5.353791,"is_reserved":false,"is_disabled":false,"rental_uris":{"android":"levelo://app?vid=5c3000a0-a190-4007-a723-aa2707fd1ce3","ios":"levelo://app?vid=5c3000a0-a190-4007-a723-aa2707fd1ce3"},"vehicle_type_id":"4","last_reported":1732230550,"current_range_meters":38800,"station_id":"cpo3532slgdg3j2ikp40","pricing_plan_id":"cebpf4jnsgd1na2vs0mg"},{"bike_id":"cb8253bc-18a0-4c39-b5d9-826c67abe7ae","system_id":"levelo_inurba_marseille","lat":43.30133,"lon":5.39859,"is_reserved":false,"is_disabled":false,"rental_uris":{"android":"levelo://app?vid=cb8253bc-18a0-4c39-b5d9-826c67abe7ae","ios":"levelo://app?vid=cb8253bc-18a0-4c39-b5d9-826c67abe7ae"},"vehicle_type_id":"4","last_reported":1732230550,"current_range_meters":36800,"station_id":"ce4bh0h2rcd13ifvqd40","pricing_plan_id":"cebpf4jnsgd1na2vs0mg"},{"bike_id":"9bf00278-281e-45df-b9cb-0f55e5af1df2","system_id":"levelo_inurba_marseille","lat":43.255758,"lon":5.382326,"is_reserved":false,"is_disabled":false,"rental_uris":{"android":"levelo://app?vid=9bf00278-281e-45df-b9cb-0f55e5af1df2","ios":"levelo://app?vid=9bf00278-281e-45df-b9cb-0f55e5af1df2"},"vehicle_type_id":"4","last_reported":1732230550,"current_range_meters":38400,"station_id":"ce4bhih2rcd13ifvqfs0","pricing_plan_id":"cebpf4jnsgd1na2vs0mg"},{"bike_id":"a614f1dc-1373-4326-880e-d1a7464c7547","system_id":"levelo_inurba_marseille","lat":43.30784,"lon":5.37652,"is_reserved":false,"is_disabled":false,"rental_uris":{"android":"levelo://app?vid=a614f1dc-1373-4326-880e-d1a7464c7547","ios":"levelo://app?vid=a614f1dc-1373-4326-880e-d1a7464c7547"},"vehicle_type_id":"4","last_reported":1732230550,"current_range_meters":10000,"station_id":"ce4bgv92rcd13ifvqcq0","pricing_plan_id":"cebpf4jnsgd1na2vs0mg"},{"bike_id":"922bd877-8ef2-4e72-a9c2-b448135ba6e2","system_id":"levelo_inurba_marseille","lat":43.23199,"lon":5.35549,"is_reserved":false,"is_disabled":false,"rental_uris":{"android":"levelo://app?vid=922bd877-8ef2-4e72-a9c2-b448135ba6e2","ios":"levelo://app?vid=922bd877-8ef2-4e72-a9c2-b448135ba6e2"},"vehicle_type_id":"4","last_reported":1732230550,"current_range_meters":17200,"station_id":"ce4bhu92rcd13ifvqi70","pricing_plan_id":"cebpf4jnsgd1na2vs0mg"},{"bike_id":"0e16ab20-72d4-4355-aebe-6b64480b2cae","system_id":"levelo_inurba_marseille","lat":43.28856,"lon":5.39314,"is_reserved":false,"is_disabled":false,"rental_uris":{"android":"levelo://app?vid=0e16ab20-72d4-4355-aebe-6b64480b2cae","ios":"levelo://app?vid=0e16ab20-72d4-4355-aebe-6b64480b2cae"},"vehicle_type_id":"4","last_reported":1732230550,"current_range_meters":23200,"station_id":"ce4bh2p2rcd13ifvqdi0","pricing_plan_id":"cebpf4jnsgd1na2vs0mg"},{"bike_id":"8d135339-b76b-4a63-a2b1-207af862afc1","system_id":"levelo_inurba_marseille","lat":43.316874,"lon":5.404774,"is_reserved":false,"is_disabled":false,"rental_uris":{"android":"levelo://app?vid=8d135339-b76b-4a63-a2b1-207af862afc1","ios":"levelo://app?vid=8d135339-b76b-4a63-a2b1-207af862afc1"},"vehicle_type_id":"4","last_reported":1732230550,"current_range_meters":34000,"station_id":"ce4bh012rcd13ifvqd00","pricing_plan_id":"cebpf4jnsgd1na2vs0mg"},{"bike_id":"47d7d621-91a2-4cd8-8a61-a7660b1167ab","system_id":"levelo_inurba_marseille","lat":43.28573,"lon":5.39501,"is_reserved":false,"is_disabled":false,"rental_uris":{"android":"levelo://app?vid=47d7d621-91a2-4cd8-8a61-a7660b1167ab","ios":"levelo://app?vid=47d7d621-91a2-4cd8-8a61-a7660b1167ab"},"vehicle_type_id":"4","last_reported":1732230550,"current_range_meters":30000,"station_id":"ce4bh292rcd13ifvqdg0","pricing_plan_id":"cebpf4jnsgd1na2vs0mg"},{"bike_id":"bbfb734b-ffce-4a95-93ad-ee926b831dca","system_id":"levelo_inurba_marseille","lat":43.30643,"lon":5.4008,"is_reserved":false,"is_disabled":false,"rental_uris":{"android":"levelo://app?vid=bbfb734b-ffce-4a95-93ad-ee926b831dca","ios":"levelo://app?vid=bbfb734b-ffce-4a95-93ad-ee926b831dca"},"vehicle_type_id":"4","last_reported":1732230550,"current_range_meters":38800,"station_id":"ce4bh112rcd13ifvqda0","pricing_plan_id":"cebpf4jnsgd1na2vs0mg"},{"bike_id":"b4955a4d-3bac-493e-a294-6c6cc4ed6030","system_id":"levelo_inurba_marseille","lat":43.29793,"lon":5.39343,"is_reserved":false,"is_disabled":false,"rental_uris":{"android":"levelo://app?vid=b4955a4d-3bac-493e-a294-6c6cc4ed6030","ios":"levelo://app?vid=b4955a4d-3bac-493e-a294-6c6cc4ed6030"},"vehicle_type_id":"4","last_reported":1732230550,"current_range_meters":21600,"station_id":"chh1huq6cuj3fo74tm60","pricing_plan_id":"cebpf4jnsgd1na2vs0mg"},{"bike_id":"48cd0835-aecf-4328-9ec2-0085c18d7831","system_id":"levelo_inurba_marseille","lat":43.275656,"lon":5.384124,"is_reserved":false,"is_disabled":true,"rental_uris":{"android":"levelo://app?vid=48cd0835-aecf-4328-9ec2-0085c18d7831","ios":"levelo://app?vid=48cd0835-aecf-4328-9ec2-0085c18d7831"},"vehicle_type_id":"4","last_reported":1732230550,"current_range_meters":39200,"station_id":"ce4bhh92rcd13ifvqfi0","pricing_plan_id":"cebpf4jnsgd1na2vs0mg"},{"bike_id":"9a59232d-168d-46fd-a49f-2d36fc17d90a","system_id":"levelo_inurba_marseille","lat":43.27565,"lon":5.38425,"is_reserved":false,"is_disabled":false,"rental_uris":{"android":"levelo://app?vid=9a59232d-168d-46fd-a49f-2d36fc17d90a","ios":"levelo://app?vid=9a59232d-168d-46fd-a49f-2d36fc17d90a"},"vehicle_type_id":"4","last_reported":1732230550,"current_range_meters":38800,"station_id":"ce4bhh92rcd13ifvqfi0","pricing_plan_id":"cebpf4jnsgd1na2vs0mg"},{"bike_id":"1cd0daee-d68a-4e66-9883-fbe67fd8260f","system_id":"levelo_inurba_marseille","lat":43.30577,"lon":5.37077,"is_reserved":false,"is_disabled":true,"rental_uris":{"android":"levelo://app?vid=1cd0daee-d68a-4e66-9883-fbe67fd8260f","ios":"levelo://app?vid=1cd0daee-d68a-4e66-9883-fbe67fd8260f"},"vehicle_type_id":"4","last_reported":1732230550,"current_range_meters":0,"station_id":"","pricing_plan_id":"cebpf4jnsgd1na2vs0mg"},{"bike_id":"f6a92db1-11ed-4c87-84fe-7bc25d11cfa7","system_id":"levelo_inurba_marseille","lat":43.30806,"lon":5.3816,"is_reserved":false,"is_disabled":true,"rental_uris":{"android":"levelo://app?vid=f6a92db1-11ed-4c87-84fe-7bc25d11cfa7","ios":"levelo://app?vid=f6a92db1-11ed-4c87-84fe-7bc25d11cfa7"},"vehicle_type_id":"4","last_reported":1732230550,"current_range_meters":8000,"station_id":"ce4bgt12rcd13ifvqce0","pricing_plan_id":"cebpf4jnsgd1na2vs0mg"},{"bike_id":"ace76aa7-058f-48c8-b84b-cf1706a9dddb","system_id":"levelo_inurba_marseille","lat":43.28704,"lon":5.37391,"is_reserved":false,"is_disabled":false,"rental_uris":{"android":"levelo://app?vid=ace76aa7-058f-48c8-b84b-cf1706a9dddb","ios":"levelo://app?vid=ace76aa7-058f-48c8-b84b-cf1706a9dddb"},"vehicle_type_id":"4","last_reported":1732230550,"current_range_meters":38800,"station_id":"ce4bh3p2rcd13ifvqdq0","pricing_plan_id":"cebpf4jnsgd1na2vs0mg"},{"bike_id":"2bf3ff34-3127-4666-9da0-d6ff76bb6a0d","system_id":"levelo_inurba_marseille","lat":43.28459,"lon":5.35892,"is_reserved":false,"is_disabled":false,"rental_uris":{"android":"levelo://app?vid=2bf3ff34-3127-4666-9da0-d6ff76bb6a0d","ios":"levelo://app?vid=2bf3ff34-3127-4666-9da0-d6ff76bb6a0d"},"vehicle_type_id":"4","last_reported":1732230550,"current_range_meters":9600,"station_id":"ce4bhah2rcd13ifvqei0","pricing_plan_id":"cebpf4jnsgd1na2vs0mg"},{"bike_id":"73530774-b6d2-4f7b-b5b8-20757dba63f7","system_id":"levelo_inurba_marseille","lat":43.323384,"lon":5.406257,"is_reserved":false,"is_disabled":false,"rental_uris":{"android":"levelo://app?vid=73530774-b6d2-4f7b-b5b8-20757dba63f7","ios":"levelo://app?vid=73530774-b6d2-4f7b-b5b8-20757dba63f7"},"vehicle_type_id":"4","last_reported":1732230550,"current_range_meters":29600,"station_id":"ce4bhq92rcd13ifvqhjg","pricing_plan_id":"cebpf4jnsgd1na2vs0mg"},{"bike_id":"e651a064-df8b-4f96-8f09-ab621b1ad80c","system_id":"levelo_inurba_marseille","lat":43.30324,"lon":5.40445,"is_reserved":false,"is_disabled":false,"rental_uris":{"android":"levelo://app?vid=e651a064-df8b-4f96-8f09-ab621b1ad80c","ios":"levelo://app?vid=e651a064-df8b-4f96-8f09-ab621b1ad80c"},"vehicle_type_id":"4","last_reported":1732230550,"current_range_meters":38800,"station_id":"ce4bh012rcd13ifvqd10","pricing_plan_id":"cebpf4jnsgd1na2vs0mg"},{"bike_id":"e4d1110f-959b-40b4-88a0-d41c994c54f7","system_id":"levelo_inurba_marseille","lat":43.24666,"lon":5.38156,"is_reserved":false,"is_disabled":false,"rental_uris":{"android":"levelo://app?vid=e4d1110f-959b-40b4-88a0-d41c994c54f7","ios":"levelo://app?vid=e4d1110f-959b-40b4-88a0-d41c994c54f7"},"vehicle_type_id":"4","last_reported":1732230550,"current_range_meters":38800,"station_id":"ce4bhih2rcd13ifvqfr0","pricing_plan_id":"cebpf4jnsgd1na2vs0mg"},{"bike_id":"93c41fb7-e4d2-473a-b7e1-4a5a649c5649","system_id":"levelo_inurba_marseille","lat":43.325353,"lon":5.414416,"is_reserved":false,"is_disabled":false,"rental_uris":{"android":"levelo://app?vid=93c41fb7-e4d2-473a-b7e1-4a5a649c5649","ios":"levelo://app?vid=93c41fb7-e4d2-473a-b7e1-4a5a649c5649"},"vehicle_type_id":"4","last_reported":1732230550,"current_range_meters":37600,"station_id":"ce4bhq12rcd13ifvqhhg","pricing_plan_id":"cebpf4jnsgd1na2vs0mg"},{"bike_id":"2f72cd79-465a-41fb-985a-e0fba7eef047","system_id":"levelo_inurba_marseille","lat":43.28035,"lon":5.36946,"is_reserved":false,"is_disabled":false,"rental_uris":{"android":"levelo://app?vid=2f72cd79-465a-41fb-985a-e0fba7eef047","ios":"levelo://app?vid=2f72cd79-465a-41fb-985a-e0fba7eef047"},"vehicle_type_id":"4","last_reported":1732230550,"current_range_meters":31200,"station_id":"ce4bha12rcd13ifvqef0","pricing_plan_id":"cebpf4jnsgd1na2vs0mg"},{"bike_id":"cbc9f3c1-4348-4707-b560-0243bcecad2d","system_id":"levelo_inurba_marseille","lat":43.28038,"lon":5.36948,"is_reserved":false,"is_disabled":false,"rental_uris":{"android":"levelo://app?vid=cbc9f3c1-4348-4707-b560-0243bcecad2d","ios":"levelo://app?vid=cbc9f3c1-4348-4707-b560-0243bcecad2d"},"vehicle_type_id":"4","last_reported":1732230550,"current_range_meters":31200,"station_id":"ce4bha12rcd13ifvqef0","pricing_plan_id":"cebpf4jnsgd1na2vs0mg"},{"bike_id":"27595034-ca87-4da8-aceb-3fdfae42b176","system_id":"levelo_inurba_marseille","lat":43.30782,"lon":5.37641,"is_reserved":false,"is_disabled":false,"rental_uris":{"android":"levelo://app?vid=27595034-ca87-4da8-aceb-3fdfae42b176","ios":"levelo://app?vid=27595034-ca87-4da8-aceb-3fdfae42b176"},"vehicle_type_id":"4","last_reported":1732230550,"current_range_meters":38800,"station_id":"ce4bgv92rcd13ifvqcq0","pricing_plan_id":"cebpf4jnsgd1na2vs0mg"},{"bike_id":"cbd6d88c-3a6a-45bb-9f95-2756c09de0b8","system_id":"levelo_inurba_marseille","lat":43.27613,"lon":5.41736,"is_reserved":false,"is_disabled":true,"rental_uris":{"android":"levelo://app?vid=cbd6d88c-3a6a-45bb-9f95-2756c09de0b8","ios":"levelo://app?vid=cbd6d88c-3a6a-45bb-9f95-2756c09de0b8"},"vehicle_type_id":"4","last_reported":1732230550,"current_range_meters":24800,"station_id":"","pricing_plan_id":"cebpf4jnsgd1na2vs0mg"},{"bike_id":"708f6428-5d3d-4d57-9495-9961639aa047","system_id":"levelo_inurba_marseille","lat":43.29791,"lon":5.3935,"is_reserved":false,"is_disabled":false,"rental_uris":{"android":"levelo://app?vid=708f6428-5d3d-4d57-9495-9961639aa047","ios":"levelo://app?vid=708f6428-5d3d-4d57-9495-9961639aa047"},"vehicle_type_id":"4","last_reported":1732230550,"current_range_meters":12800,"station_id":"chh1huq6cuj3fo74tm60","pricing_plan_id":"cebpf4jnsgd1na2vs0mg"},{"bike_id":"94f0960c-7704-444e-ba1c-39e54d989b0b","system_id":"levelo_inurba_marseille","lat":43.297117,"lon":5.366163,"is_reserved":false,"is_disabled":true,"rental_uris":{"android":"levelo://app?vid=94f0960c-7704-444e-ba1c-39e54d989b0b","ios":"levelo://app?vid=94f0960c-7704-444e-ba1c-39e54d989b0b"},"vehicle_type_id":"4","last_reported":1732230550,"current_range_meters":29600,"station_id":"ce4bgn12rcd13ifvqbt0","pricing_plan_id":"cebpf4jnsgd1na2vs0mg"},{"bike_id":"478beee7-0d9b-4d4c-a2fc-ced293c0b226","system_id":"levelo_inurba_marseille","lat":43.28681,"lon":5.36051,"is_reserved":false,"is_disabled":false,"rental_uris":{"android":"levelo://app?vid=478beee7-0d9b-4d4c-a2fc-ced293c0b226","ios":"levelo://app?vid=478beee7-0d9b-4d4c-a2fc-ced293c0b226"},"vehicle_type_id":"4","last_reported":1732230550,"current_range_meters":20000,"station_id":"cki0cbj6b192h4jlfktg","pricing_plan_id":"cebpf4jnsgd1na2vs0mg"},{"bike_id":"bf98d94e-1e91-42a0-a8dd-da6b5a368e0a","system_id":"levelo_inurba_marseille","lat":43.29709,"lon":5.36608,"is_reserved":false,"is_disabled":false,"rental_uris":{"android":"levelo://app?vid=bf98d94e-1e91-42a0-a8dd-da6b5a368e0a","ios":"levelo://app?vid=bf98d94e-1e91-42a0-a8dd-da6b5a368e0a"},"vehicle_type_id":"4","last_reported":1732230550,"current_range_meters":34000,"station_id":"ce4bgn12rcd13ifvqbt0","pricing_plan_id":"cebpf4jnsgd1na2vs0mg"},{"bike_id":"6121e704-2ad8-44a9-85b3-645d99065972","system_id":"levelo_inurba_marseille","lat":43.27614,"lon":5.3612,"is_reserved":false,"is_disabled":false,"rental_uris":{"android":"levelo://app?vid=6121e704-2ad8-44a9-85b3-645d99065972","ios":"levelo://app?vid=6121e704-2ad8-44a9-85b3-645d99065972"},"vehicle_type_id":"4","last_reported":1732230550,"current_range_meters":38800,"station_id":"ce4bgj92rcd13ifvqbe0","pricing_plan_id":"cebpf4jnsgd1na2vs0mg"},{"bike_id":"d6a22aba-fc67-4c2d-be68-5af23aedc6c1","system_id":"levelo_inurba_marseille","lat":43.30648,"lon":5.40098,"is_reserved":false,"is_disabled":false,"rental_uris":{"android":"levelo://app?vid=d6a22aba-fc67-4c2d-be68-5af23aedc6c1","ios":"levelo://app?vid=d6a22aba-fc67-4c2d-be68-5af23aedc6c1"},"vehicle_type_id":"4","last_reported":1732230550,"current_range_meters":36800,"station_id":"ce4bh112rcd13ifvqda0","pricing_plan_id":"cebpf4jnsgd1na2vs0mg"},{"bike_id":"77c1a45e-ab6c-4e04-8bbd-e718ab149450","system_id":"levelo_inurba_marseille","lat":43.28571,"lon":5.39495,"is_reserved":false,"is_disabled":false,"rental_uris":{"android":"levelo://app?vid=77c1a45e-ab6c-4e04-8bbd-e718ab149450","ios":"levelo://app?vid=77c1a45e-ab6c-4e04-8bbd-e718ab149450"},"vehicle_type_id":"4","last_reported":1732230550,"current_range_meters":24400,"station_id":"ce4bh292rcd13ifvqdg0","pricing_plan_id":"cebpf4jnsgd1na2vs0mg"},{"bike_id":"1b96d97e-4b15-4060-a62b-3ed86ddab951","system_id":"levelo_inurba_marseille","lat":43.28611,"lon":5.37064,"is_reserved":false,"is_disabled":false,"rental_uris":{"android":"levelo://app?vid=1b96d97e-4b15-4060-a62b-3ed86ddab951","ios":"levelo://app?vid=1b96d97e-4b15-4060-a62b-3ed86ddab951"},"vehicle_type_id":"4","last_reported":1732230550,"current_range_meters":30400,"station_id":"ce4bht12rcd13ifvqi60","pricing_plan_id":"cebpf4jnsgd1na2vs0mg"},{"bike_id":"0661744c-b366-418a-a5da-eacf7215a7a7","system_id":"levelo_inurba_marseille","lat":43.32336,"lon":5.40625,"is_reserved":false,"is_disabled":false,"rental_uris":{"android":"levelo://app?vid=0661744c-b366-418a-a5da-eacf7215a7a7","ios":"levelo://app?vid=0661744c-b366-418a-a5da-eacf7215a7a7"},"vehicle_type_id":"4","last_reported":1732230550,"current_range_meters":13600,"station_id":"ce4bhq92rcd13ifvqhjg","pricing_plan_id":"cebpf4jnsgd1na2vs0mg"},{"bike_id":"34c69495-450d-44c2-b0ce-9efc22d4bdb7","system_id":"levelo_inurba_marseille","lat":43.28036,"lon":5.36949,"is_reserved":false,"is_disabled":false,"rental_uris":{"android":"levelo://app?vid=34c69495-450d-44c2-b0ce-9efc22d4bdb7","ios":"levelo://app?vid=34c69495-450d-44c2-b0ce-9efc22d4bdb7"},"vehicle_type_id":"4","last_reported":1732230550,"current_range_meters":10000,"station_id":"ce4bha12rcd13ifvqef0","pricing_plan_id":"cebpf4jnsgd1na2vs0mg"},{"bike_id":"3501b69b-284e-4de9-9b51-7292ad8f3d91","system_id":"levelo_inurba_marseille","lat":43.2582,"lon":5.39434,"is_reserved":false,"is_disabled":false,"rental_uris":{"android":"levelo://app?vid=3501b69b-284e-4de9-9b51-7292ad8f3d91","ios":"levelo://app?vid=3501b69b-284e-4de9-9b51-7292ad8f3d91"},"vehicle_type_id":"4","last_reported":1732230550,"current_range_meters":38800,"station_id":"ce4bhip2rcd13ifvqft0","pricing_plan_id":"cebpf4jnsgd1na2vs0mg"},{"bike_id":"584349bc-2591-4018-b108-13dd4f4a1bfa","system_id":"levelo_inurba_marseille","lat":43.3093,"lon":5.40154,"is_reserved":false,"is_disabled":false,"rental_uris":{"android":"levelo://app?vid=584349bc-2591-4018-b108-13dd4f4a1bfa","ios":"levelo://app?vid=584349bc-2591-4018-b108-13dd4f4a1bfa"},"vehicle_type_id":"4","last_reported":1732230550,"current_range_meters":33200,"station_id":"ce4bgvp2rcd13ifvqct0","pricing_plan_id":"cebpf4jnsgd1na2vs0mg"},{"bike_id":"f177a44a-6838-4377-a75a-a3903ce3658e","system_id":"levelo_inurba_marseille","lat":43.31179,"lon":5.38707,"is_reserved":false,"is_disabled":false,"rental_uris":{"android":"levelo://app?vid=f177a44a-6838-4377-a75a-a3903ce3658e","ios":"levelo://app?vid=f177a44a-6838-4377-a75a-a3903ce3658e"},"vehicle_type_id":"4","last_reported":1732230550,"current_range_meters":38400,"station_id":"ce4bgv12rcd13ifvqcp0","pricing_plan_id":"cebpf4jnsgd1na2vs0mg"},{"bike_id":"de707ec8-7ff1-44a6-b46b-7240d692d92e","system_id":"levelo_inurba_marseille","lat":43.27965,"lon":5.38709,"is_reserved":false,"is_disabled":false,"rental_uris":{"android":"levelo://app?vid=de707ec8-7ff1-44a6-b46b-7240d692d92e","ios":"levelo://app?vid=de707ec8-7ff1-44a6-b46b-7240d692d92e"},"vehicle_type_id":"4","last_reported":1732230550,"current_range_meters":36800,"station_id":"ce4bhg12rcd13ifvqf80","pricing_plan_id":"cebpf4jnsgd1na2vs0mg"},{"bike_id":"567b5bec-6f69-4097-9d92-252add5a5c8a","system_id":"levelo_inurba_marseille","lat":43.2558,"lon":5.38234,"is_reserved":false,"is_disabled":false,"rental_uris":{"android":"levelo://app?vid=567b5bec-6f69-4097-9d92-252add5a5c8a","ios":"levelo://app?vid=567b5bec-6f69-4097-9d92-252add5a5c8a"},"vehicle_type_id":"4","last_reported":1732230550,"current_range_meters":38400,"station_id":"ce4bhih2rcd13ifvqfs0","pricing_plan_id":"cebpf4jnsgd1na2vs0mg"},{"bike_id":"50797971-4d6c-4d44-97df-20b0ab4a9889","system_id":"levelo_inurba_marseille","lat":43.26059,"lon":5.394,"is_reserved":false,"is_disabled":false,"rental_uris":{"android":"levelo://app?vid=50797971-4d6c-4d44-97df-20b0ab4a9889","ios":"levelo://app?vid=50797971-4d6c-4d44-97df-20b0ab4a9889"},"vehicle_type_id":"4","last_reported":1732230550,"current_range_meters":36400,"station_id":"ce4bhh92rcd13ifvqfj0","pricing_plan_id":"cebpf4jnsgd1na2vs0mg"},{"bike_id":"7d5ba0aa-0f48-4a7f-82de-9d26e1521cfb","system_id":"levelo_inurba_marseille","lat":43.32292,"lon":5.38271,"is_reserved":false,"is_disabled":false,"rental_uris":{"android":"levelo://app?vid=7d5ba0aa-0f48-4a7f-82de-9d26e1521cfb","ios":"levelo://app?vid=7d5ba0aa-0f48-4a7f-82de-9d26e1521cfb"},"vehicle_type_id":"4","last_reported":1732230550,"current_range_meters":24800,"station_id":"ce4bhr12rcd13ifvqhqg","pricing_plan_id":"cebpf4jnsgd1na2vs0mg"},{"bike_id":"550f0269-af81-4f74-bed5-fe17c4459dfd","system_id":"levelo_inurba_marseille","lat":43.25937,"lon":5.40919,"is_reserved":false,"is_disabled":false,"rental_uris":{"android":"levelo://app?vid=550f0269-af81-4f74-bed5-fe17c4459dfd","ios":"levelo://app?vid=550f0269-af81-4f74-bed5-fe17c4459dfd"},"vehicle_type_id":"4","last_reported":1732230550,"current_range_meters":38800,"station_id":"ce4bhm92rcd13ifvqglg","pricing_plan_id":"cebpf4jnsgd1na2vs0mg"},{"bike_id":"9c37a5af-6b01-4e75-9657-7ef6bddc1bc6","system_id":"levelo_inurba_marseille","lat":43.33024,"lon":5.39041,"is_reserved":false,"is_disabled":false,"rental_uris":{"android":"levelo://app?vid=9c37a5af-6b01-4e75-9657-7ef6bddc1bc6","ios":"levelo://app?vid=9c37a5af-6b01-4e75-9657-7ef6bddc1bc6"},"vehicle_type_id":"4","last_reported":1732230550,"current_range_meters":25600,"station_id":"ce4bhr92rcd13ifvqhrg","pricing_plan_id":"cebpf4jnsgd1na2vs0mg"},{"bike_id":"d6d41b2e-30ea-4987-8625-f242318469f8","system_id":"levelo_inurba_marseille","lat":43.288467,"lon":5.358512,"is_reserved":false,"is_disabled":false,"rental_uris":{"android":"levelo://app?vid=d6d41b2e-30ea-4987-8625-f242318469f8","ios":"levelo://app?vid=d6d41b2e-30ea-4987-8625-f242318469f8"},"vehicle_type_id":"4","last_reported":1732230550,"current_range_meters":38800,"station_id":"ce4bhb12rcd13ifvqem0","pricing_plan_id":"cebpf4jnsgd1na2vs0mg"},{"bike_id":"9f934346-12ba-4a28-9c95-5f1cd22e3880","system_id":"levelo_inurba_marseille","lat":43.30324,"lon":5.40443,"is_reserved":false,"is_disabled":false,"rental_uris":{"android":"levelo://app?vid=9f934346-12ba-4a28-9c95-5f1cd22e3880","ios":"levelo://app?vid=9f934346-12ba-4a28-9c95-5f1cd22e3880"},"vehicle_type_id":"4","last_reported":1732230550,"current_range_meters":9600,"station_id":"ce4bh012rcd13ifvqd10","pricing_plan_id":"cebpf4jnsgd1na2vs0mg"},{"bike_id":"3585d018-4b66-4cf5-bca5-17fcec2fef21","system_id":"levelo_inurba_marseille","lat":43.23195,"lon":5.35559,"is_reserved":false,"is_disabled":false,"rental_uris":{"android":"levelo://app?vid=3585d018-4b66-4cf5-bca5-17fcec2fef21","ios":"levelo://app?vid=3585d018-4b66-4cf5-bca5-17fcec2fef21"},"vehicle_type_id":"4","last_reported":1732230550,"current_range_meters":30400,"station_id":"ce4bhu92rcd13ifvqi70","pricing_plan_id":"cebpf4jnsgd1na2vs0mg"},{"bike_id":"a3938afa-a654-428c-a5fd-d0947961cd45","system_id":"levelo_inurba_marseille","lat":43.27812,"lon":5.40731,"is_reserved":false,"is_disabled":false,"rental_uris":{"android":"levelo://app?vid=a3938afa-a654-428c-a5fd-d0947961cd45","ios":"levelo://app?vid=a3938afa-a654-428c-a5fd-d0947961cd45"},"vehicle_type_id":"4","last_reported":1732230550,"current_range_meters":23200,"station_id":"ce4bhnh2rcd13ifvqgtg","pricing_plan_id":"cebpf4jnsgd1na2vs0mg"},{"bike_id":"823803fc-2257-422c-9ff7-21a7e108f1ae","system_id":"levelo_inurba_marseille","lat":43.31757,"lon":5.39015,"is_reserved":false,"is_disabled":false,"rental_uris":{"android":"levelo://app?vid=823803fc-2257-422c-9ff7-21a7e108f1ae","ios":"levelo://app?vid=823803fc-2257-422c-9ff7-21a7e108f1ae"},"vehicle_type_id":"4","last_reported":1732230550,"current_range_meters":34800,"station_id":"ce4bhqp2rcd13ifvqhng","pricing_plan_id":"cebpf4jnsgd1na2vs0mg"},{"bike_id":"d00d78e1-f439-46df-9c94-a7741af85824","system_id":"levelo_inurba_marseille","lat":43.3108,"lon":5.38366,"is_reserved":false,"is_disabled":false,"rental_uris":{"android":"levelo://app?vid=d00d78e1-f439-46df-9c94-a7741af85824","ios":"levelo://app?vid=d00d78e1-f439-46df-9c94-a7741af85824"},"vehicle_type_id":"4","last_reported":1732230550,"current_range_meters":36000,"station_id":"ce4bgv92rcd13ifvqcr0","pricing_plan_id":"cebpf4jnsgd1na2vs0mg"},{"bike_id":"3344fc2c-f2e9-4701-b0c4-a4ec11457950","system_id":"levelo_inurba_marseille","lat":43.25577,"lon":5.38226,"is_reserved":false,"is_disabled":false,"rental_uris":{"android":"levelo://app?vid=3344fc2c-f2e9-4701-b0c4-a4ec11457950","ios":"levelo://app?vid=3344fc2c-f2e9-4701-b0c4-a4ec11457950"},"vehicle_type_id":"4","last_reported":1732230550,"current_range_meters":35200,"station_id":"ce4bhih2rcd13ifvqfs0","pricing_plan_id":"cebpf4jnsgd1na2vs0mg"},{"bike_id":"d979d12e-0952-4b0d-a112-f005022fbbe4","system_id":"levelo_inurba_marseille","lat":43.26202,"lon":5.37937,"is_reserved":false,"is_disabled":false,"rental_uris":{"android":"levelo://app?vid=d979d12e-0952-4b0d-a112-f005022fbbe4","ios":"levelo://app?vid=d979d12e-0952-4b0d-a112-f005022fbbe4"},"vehicle_type_id":"4","last_reported":1732230550,"current_range_meters":38800,"station_id":"ce4bhjp2rcd13ifvqg90","pricing_plan_id":"cebpf4jnsgd1na2vs0mg"},{"bike_id":"46474b26-4a68-4e5d-9e97-c5c9729111a1","system_id":"levelo_inurba_marseille","lat":43.27945,"lon":5.42348,"is_reserved":false,"is_disabled":true,"rental_uris":{"android":"levelo://app?vid=46474b26-4a68-4e5d-9e97-c5c9729111a1","ios":"levelo://app?vid=46474b26-4a68-4e5d-9e97-c5c9729111a1"},"vehicle_type_id":"4","last_reported":1732230550,"current_range_meters":0,"station_id":"","pricing_plan_id":"cebpf4jnsgd1na2vs0mg"},{"bike_id":"01fade1f-4c0e-41f5-a847-3ee1ed0ae04c","system_id":"levelo_inurba_marseille","lat":43.31325,"lon":5.39693,"is_reserved":false,"is_disabled":false,"rental_uris":{"android":"levelo://app?vid=01fade1f-4c0e-41f5-a847-3ee1ed0ae04c","ios":"levelo://app?vid=01fade1f-4c0e-41f5-a847-3ee1ed0ae04c"},"vehicle_type_id":"4","last_reported":1732230550,"current_range_meters":38800,"station_id":"ce4bgvp2rcd13ifvqcu0","pricing_plan_id":"cebpf4jnsgd1na2vs0mg"},{"bike_id":"7ef9a5ef-b3b2-4ff2-82cc-f161ced30464","system_id":"levelo_inurba_marseille","lat":43.29416,"lon":5.38609,"is_reserved":false,"is_disabled":true,"rental_uris":{"android":"levelo://app?vid=7ef9a5ef-b3b2-4ff2-82cc-f161ced30464","ios":"levelo://app?vid=7ef9a5ef-b3b2-4ff2-82cc-f161ced30464"},"vehicle_type_id":"4","last_reported":1732230550,"current_range_meters":32000,"station_id":"ce4bh2h2rcd13ifvqdh0","pricing_plan_id":"cebpf4jnsgd1na2vs0mg"},{"bike_id":"720f81fb-677a-4c49-b487-f03f9bbece03","system_id":"levelo_inurba_marseille","lat":43.28926,"lon":5.36387,"is_reserved":false,"is_disabled":false,"rental_uris":{"android":"levelo://app?vid=720f81fb-677a-4c49-b487-f03f9bbece03","ios":"levelo://app?vid=720f81fb-677a-4c49-b487-f03f9bbece03"},"vehicle_type_id":"4","last_reported":1732230550,"current_range_meters":28000,"station_id":"ce4bhc92rcd13ifvqetg","pricing_plan_id":"cebpf4jnsgd1na2vs0mg"},{"bike_id":"ca830116-b4f0-46a6-89c4-00566a1ee122","system_id":"levelo_inurba_marseille","lat":43.30355,"lon":5.41881,"is_reserved":false,"is_disabled":false,"rental_uris":{"android":"levelo://app?vid=ca830116-b4f0-46a6-89c4-00566a1ee122","ios":"levelo://app?vid=ca830116-b4f0-46a6-89c4-00566a1ee122"},"vehicle_type_id":"4","last_reported":1732230550,"current_range_meters":38400,"station_id":"ce4bhop2rcd13ifvqh7g","pricing_plan_id":"cebpf4jnsgd1na2vs0mg"},{"bike_id":"3a0abff8-e4e5-422e-b944-1e043dd140db","system_id":"levelo_inurba_marseille","lat":43.31328,"lon":5.39695,"is_reserved":false,"is_disabled":false,"rental_uris":{"android":"levelo://app?vid=3a0abff8-e4e5-422e-b944-1e043dd140db","ios":"levelo://app?vid=3a0abff8-e4e5-422e-b944-1e043dd140db"},"vehicle_type_id":"4","last_reported":1732230550,"current_range_meters":24800,"station_id":"ce4bgvp2rcd13ifvqcu0","pricing_plan_id":"cebpf4jnsgd1na2vs0mg"},{"bike_id":"a5293350-2c66-4a6d-b624-10809080acd8","system_id":"levelo_inurba_marseille","lat":43.28034,"lon":5.3695,"is_reserved":false,"is_disabled":false,"rental_uris":{"android":"levelo://app?vid=a5293350-2c66-4a6d-b624-10809080acd8","ios":"levelo://app?vid=a5293350-2c66-4a6d-b624-10809080acd8"},"vehicle_type_id":"4","last_reported":1732230550,"current_range_meters":12800,"station_id":"ce4bha12rcd13ifvqef0","pricing_plan_id":"cebpf4jnsgd1na2vs0mg"},{"bike_id":"e6f269d5-78f6-4043-917f-52913283f83c","system_id":"levelo_inurba_marseille","lat":43.23151,"lon":5.43723,"is_reserved":false,"is_disabled":false,"rental_uris":{"android":"levelo://app?vid=e6f269d5-78f6-4043-917f-52913283f83c","ios":"levelo://app?vid=e6f269d5-78f6-4043-917f-52913283f83c"},"vehicle_type_id":"4","last_reported":1732230550,"current_range_meters":28800,"station_id":"ce4bhmp2rcd13ifvqgog","pricing_plan_id":"cebpf4jnsgd1na2vs0mg"},{"bike_id":"844cb461-f780-45f5-88b2-3951b51e6462","system_id":"levelo_inurba_marseille","lat":43.30116,"lon":5.37791,"is_reserved":false,"is_disabled":true,"rental_uris":{"android":"levelo://app?vid=844cb461-f780-45f5-88b2-3951b51e6462","ios":"levelo://app?vid=844cb461-f780-45f5-88b2-3951b51e6462"},"vehicle_type_id":"4","last_reported":1732230550,"current_range_meters":0,"station_id":"","pricing_plan_id":"cebpf4jnsgd1na2vs0mg"},{"bike_id":"d4efb85e-c230-4eed-b6e2-3485fcccf8fe","system_id":"levelo_inurba_marseille","lat":43.23962,"lon":5.36645,"is_reserved":false,"is_disabled":false,"rental_uris":{"android":"levelo://app?vid=d4efb85e-c230-4eed-b6e2-3485fcccf8fe","ios":"levelo://app?vid=d4efb85e-c230-4eed-b6e2-3485fcccf8fe"},"vehicle_type_id":"4","last_reported":1732230550,"current_range_meters":19600,"station_id":"ce4bhi12rcd13ifvqfp0","pricing_plan_id":"cebpf4jnsgd1na2vs0mg"},{"bike_id":"5b46af25-3eac-419b-a378-8801337dc6ec","system_id":"levelo_inurba_marseille","lat":43.25866,"lon":5.39897,"is_reserved":false,"is_disabled":false,"rental_uris":{"android":"levelo://app?vid=5b46af25-3eac-419b-a378-8801337dc6ec","ios":"levelo://app?vid=5b46af25-3eac-419b-a378-8801337dc6ec"},"vehicle_type_id":"4","last_reported":1732230550,"current_range_meters":38800,"station_id":"ce4bhl92rcd13ifvqghg","pricing_plan_id":"cebpf4jnsgd1na2vs0mg"},{"bike_id":"b3ff0223-9f3b-40c9-ba64-b1074cf27420","system_id":"levelo_inurba_marseille","lat":43.28036,"lon":5.36944,"is_reserved":false,"is_disabled":false,"rental_uris":{"android":"levelo://app?vid=b3ff0223-9f3b-40c9-ba64-b1074cf27420","ios":"levelo://app?vid=b3ff0223-9f3b-40c9-ba64-b1074cf27420"},"vehicle_type_id":"4","last_reported":1732230550,"current_range_meters":38800,"station_id":"ce4bha12rcd13ifvqef0","pricing_plan_id":"cebpf4jnsgd1na2vs0mg"},{"bike_id":"8f7f94ba-f2e9-4b09-b796-810787973207","system_id":"levelo_inurba_marseille","lat":43.24071,"lon":5.37768,"is_reserved":false,"is_disabled":false,"rental_uris":{"android":"levelo://app?vid=8f7f94ba-f2e9-4b09-b796-810787973207","ios":"levelo://app?vid=8f7f94ba-f2e9-4b09-b796-810787973207"},"vehicle_type_id":"4","last_reported":1732230550,"current_range_meters":36800,"station_id":"ce4bhnp2rcd13ifvqgvg","pricing_plan_id":"cebpf4jnsgd1na2vs0mg"},{"bike_id":"786329d4-a364-4aee-bb86-124298f7a780","system_id":"levelo_inurba_marseille","lat":43.25826,"lon":5.39434,"is_reserved":false,"is_disabled":false,"rental_uris":{"android":"levelo://app?vid=786329d4-a364-4aee-bb86-124298f7a780","ios":"levelo://app?vid=786329d4-a364-4aee-bb86-124298f7a780"},"vehicle_type_id":"4","last_reported":1732230550,"current_range_meters":19600,"station_id":"ce4bhip2rcd13ifvqft0","pricing_plan_id":"cebpf4jnsgd1na2vs0mg"},{"bike_id":"72998ba3-d1e0-40d5-bf1d-4005fb8033c8","system_id":"levelo_inurba_marseille","lat":43.29139,"lon":5.40022,"is_reserved":false,"is_disabled":false,"rental_uris":{"android":"levelo://app?vid=72998ba3-d1e0-40d5-bf1d-4005fb8033c8","ios":"levelo://app?vid=72998ba3-d1e0-40d5-bf1d-4005fb8033c8"},"vehicle_type_id":"4","last_reported":1732230550,"current_range_meters":9200,"station_id":"","pricing_plan_id":"cebpf4jnsgd1na2vs0mg"},{"bike_id":"7600f33f-7939-4934-a2d3-4e3beb56f9e3","system_id":"levelo_inurba_marseille","lat":43.29068,"lon":5.37161,"is_reserved":false,"is_disabled":false,"rental_uris":{"android":"levelo://app?vid=7600f33f-7939-4934-a2d3-4e3beb56f9e3","ios":"levelo://app?vid=7600f33f-7939-4934-a2d3-4e3beb56f9e3"},"vehicle_type_id":"4","last_reported":1732230550,"current_range_meters":35200,"station_id":"ce4bh5p2rcd13ifvqe4g","pricing_plan_id":"cebpf4jnsgd1na2vs0mg"},{"bike_id":"cdaafd2d-0da1-4fac-9881-15c66a7cd7c0","system_id":"levelo_inurba_marseille","lat":43.23154,"lon":5.4371,"is_reserved":false,"is_disabled":false,"rental_uris":{"android":"levelo://app?vid=cdaafd2d-0da1-4fac-9881-15c66a7cd7c0","ios":"levelo://app?vid=cdaafd2d-0da1-4fac-9881-15c66a7cd7c0"},"vehicle_type_id":"4","last_reported":1732230550,"current_range_meters":38800,"station_id":"ce4bhmp2rcd13ifvqgog","pricing_plan_id":"cebpf4jnsgd1na2vs0mg"},{"bike_id":"c1024338-3a35-4c5d-8621-6f53a0a7a406","system_id":"levelo_inurba_marseille","lat":43.336669,"lon":5.39812,"is_reserved":false,"is_disabled":false,"rental_uris":{"android":"levelo://app?vid=c1024338-3a35-4c5d-8621-6f53a0a7a406","ios":"levelo://app?vid=c1024338-3a35-4c5d-8621-6f53a0a7a406"},"vehicle_type_id":"4","last_reported":1732230550,"current_range_meters":36000,"station_id":"","pricing_plan_id":"cebpf4jnsgd1na2vs0mg"},{"bike_id":"b03f69f7-b71a-4f20-b004-cac08d3d55e5","system_id":"levelo_inurba_marseille","lat":43.32363,"lon":5.38883,"is_reserved":false,"is_disabled":false,"rental_uris":{"android":"levelo://app?vid=b03f69f7-b71a-4f20-b004-cac08d3d55e5","ios":"levelo://app?vid=b03f69f7-b71a-4f20-b004-cac08d3d55e5"},"vehicle_type_id":"4","last_reported":1732230550,"current_range_meters":32800,"station_id":"ce4bhqp2rcd13ifvqhog","pricing_plan_id":"cebpf4jnsgd1na2vs0mg"},{"bike_id":"8d5ad0a8-268e-4afd-be61-7919f93826c7","system_id":"levelo_inurba_marseille","lat":43.29907,"lon":5.37465,"is_reserved":false,"is_disabled":true,"rental_uris":{"android":"levelo://app?vid=8d5ad0a8-268e-4afd-be61-7919f93826c7","ios":"levelo://app?vid=8d5ad0a8-268e-4afd-be61-7919f93826c7"},"vehicle_type_id":"4","last_reported":1732230550,"current_range_meters":30800,"station_id":"ce4bgjh2rcd13ifvqbg0","pricing_plan_id":"cebpf4jnsgd1na2vs0mg"},{"bike_id":"068df6a0-d246-40aa-a5bc-bb5000665c46","system_id":"levelo_inurba_marseille","lat":43.3009,"lon":5.3908,"is_reserved":false,"is_disabled":false,"rental_uris":{"android":"levelo://app?vid=068df6a0-d246-40aa-a5bc-bb5000665c46","ios":"levelo://app?vid=068df6a0-d246-40aa-a5bc-bb5000665c46"},"vehicle_type_id":"4","last_reported":1732230550,"current_range_meters":14000,"station_id":"ce4bh192rcd13ifvqdb0","pricing_plan_id":"cebpf4jnsgd1na2vs0mg"},{"bike_id":"1ef17f0c-9df8-40aa-bad8-8fe504107889","system_id":"levelo_inurba_marseille","lat":43.31755,"lon":5.39015,"is_reserved":false,"is_disabled":false,"rental_uris":{"android":"levelo://app?vid=1ef17f0c-9df8-40aa-bad8-8fe504107889","ios":"levelo://app?vid=1ef17f0c-9df8-40aa-bad8-8fe504107889"},"vehicle_type_id":"4","last_reported":1732230550,"current_range_meters":17200,"station_id":"ce4bhqp2rcd13ifvqhng","pricing_plan_id":"cebpf4jnsgd1na2vs0mg"},{"bike_id":"adedb9f4-37ec-40d9-9537-7ab4d85d6184","system_id":"levelo_inurba_marseille","lat":43.25862,"lon":5.39901,"is_reserved":false,"is_disabled":false,"rental_uris":{"android":"levelo://app?vid=adedb9f4-37ec-40d9-9537-7ab4d85d6184","ios":"levelo://app?vid=adedb9f4-37ec-40d9-9537-7ab4d85d6184"},"vehicle_type_id":"4","last_reported":1732230550,"current_range_meters":7200,"station_id":"ce4bhl92rcd13ifvqghg","pricing_plan_id":"cebpf4jnsgd1na2vs0mg"},{"bike_id":"4e4ec322-b955-43e8-a380-810b55932567","system_id":"levelo_inurba_marseille","lat":43.31117,"lon":5.37769,"is_reserved":false,"is_disabled":false,"rental_uris":{"android":"levelo://app?vid=4e4ec322-b955-43e8-a380-810b55932567","ios":"levelo://app?vid=4e4ec322-b955-43e8-a380-810b55932567"},"vehicle_type_id":"4","last_reported":1732230550,"current_range_meters":27200,"station_id":"ce4bgt92rcd13ifvqcg0","pricing_plan_id":"cebpf4jnsgd1na2vs0mg"},{"bike_id":"a4c63d0a-7c8c-410d-a8bf-0765f54acd0f","system_id":"levelo_inurba_marseille","lat":43.25123,"lon":5.40317,"is_reserved":false,"is_disabled":false,"rental_uris":{"android":"levelo://app?vid=a4c63d0a-7c8c-410d-a8bf-0765f54acd0f","ios":"levelo://app?vid=a4c63d0a-7c8c-410d-a8bf-0765f54acd0f"},"vehicle_type_id":"4","last_reported":1732230550,"current_range_meters":28400,"station_id":"ce4bhlh2rcd13ifvqgig","pricing_plan_id":"cebpf4jnsgd1na2vs0mg"},{"bike_id":"a08b9ee5-a034-42cb-8f16-d2d4243992ea","system_id":"levelo_inurba_marseille","lat":43.33726,"lon":5.39189,"is_reserved":false,"is_disabled":false,"rental_uris":{"android":"levelo://app?vid=a08b9ee5-a034-42cb-8f16-d2d4243992ea","ios":"levelo://app?vid=a08b9ee5-a034-42cb-8f16-d2d4243992ea"},"vehicle_type_id":"4","last_reported":1732230550,"current_range_meters":26000,"station_id":"ce4bhr92rcd13ifvqhsg","pricing_plan_id":"cebpf4jnsgd1na2vs0mg"},{"bike_id":"16146fe0-0cd5-4990-8e3f-57bd30bd52ae","system_id":"levelo_inurba_marseille","lat":43.23186,"lon":5.39984,"is_reserved":false,"is_disabled":false,"rental_uris":{"android":"levelo://app?vid=16146fe0-0cd5-4990-8e3f-57bd30bd52ae","ios":"levelo://app?vid=16146fe0-0cd5-4990-8e3f-57bd30bd52ae"},"vehicle_type_id":"4","last_reported":1732230550,"current_range_meters":19200,"station_id":"ce4bhn12rcd13ifvqgqg","pricing_plan_id":"cebpf4jnsgd1na2vs0mg"},{"bike_id":"83562081-a3ee-416f-bce2-999df91d293b","system_id":"levelo_inurba_marseille","lat":43.28352,"lon":5.38105,"is_reserved":false,"is_disabled":false,"rental_uris":{"android":"levelo://app?vid=83562081-a3ee-416f-bce2-999df91d293b","ios":"levelo://app?vid=83562081-a3ee-416f-bce2-999df91d293b"},"vehicle_type_id":"4","last_reported":1732230550,"current_range_meters":36400,"station_id":"ce4bh412rcd13ifvqdr0","pricing_plan_id":"cebpf4jnsgd1na2vs0mg"},{"bike_id":"b6265fe2-d010-46a6-8660-f7b7f1c807be","system_id":"levelo_inurba_marseille","lat":43.2619,"lon":5.3745,"is_reserved":false,"is_disabled":true,"rental_uris":{"android":"levelo://app?vid=b6265fe2-d010-46a6-8660-f7b7f1c807be","ios":"levelo://app?vid=b6265fe2-d010-46a6-8660-f7b7f1c807be"},"vehicle_type_id":"4","last_reported":1732230550,"current_range_meters":35200,"station_id":"ce4bhgp2rcd13ifvqfc0","pricing_plan_id":"cebpf4jnsgd1na2vs0mg"},{"bike_id":"319639f6-c364-407e-9612-56f449d4d076","system_id":"levelo_inurba_marseille","lat":43.28075,"lon":5.39657,"is_reserved":false,"is_disabled":true,"rental_uris":{"android":"levelo://app?vid=319639f6-c364-407e-9612-56f449d4d076","ios":"levelo://app?vid=319639f6-c364-407e-9612-56f449d4d076"},"vehicle_type_id":"4","last_reported":1732230550,"current_range_meters":0,"station_id":"ce4bho12rcd13ifvqh2g","pricing_plan_id":"cebpf4jnsgd1na2vs0mg"},{"bike_id":"321798ee-ba5a-4802-9529-77ead58e8685","system_id":"levelo_inurba_marseille","lat":43.29978,"lon":5.37183,"is_reserved":false,"is_disabled":false,"rental_uris":{"android":"levelo://app?vid=321798ee-ba5a-4802-9529-77ead58e8685","ios":"levelo://app?vid=321798ee-ba5a-4802-9529-77ead58e8685"},"vehicle_type_id":"4","last_reported":1732230550,"current_range_meters":38400,"station_id":"ce4bgr92rcd13ifvqc7g","pricing_plan_id":"cebpf4jnsgd1na2vs0mg"},{"bike_id":"d2540f16-0a56-4fe4-8c79-cfdd37d7ef35","system_id":"levelo_inurba_marseille","lat":43.29631,"lon":5.40602,"is_reserved":false,"is_disabled":false,"rental_uris":{"android":"levelo://app?vid=d2540f16-0a56-4fe4-8c79-cfdd37d7ef35","ios":"levelo://app?vid=d2540f16-0a56-4fe4-8c79-cfdd37d7ef35"},"vehicle_type_id":"4","last_reported":1732230550,"current_range_meters":30800,"station_id":"ce4bh0h2rcd13ifvqd60","pricing_plan_id":"cebpf4jnsgd1na2vs0mg"},{"bike_id":"45dec922-f467-4f7c-b62a-bccf4896d5f9","system_id":"levelo_inurba_marseille","lat":43.27068,"lon":5.42278,"is_reserved":false,"is_disabled":false,"rental_uris":{"android":"levelo://app?vid=45dec922-f467-4f7c-b62a-bccf4896d5f9","ios":"levelo://app?vid=45dec922-f467-4f7c-b62a-bccf4896d5f9"},"vehicle_type_id":"4","last_reported":1732230550,"current_range_meters":38800,"station_id":"ce4bhk92rcd13ifvqgb0","pricing_plan_id":"cebpf4jnsgd1na2vs0mg"},{"bike_id":"517de483-3968-47e4-bb2c-54fbf4822f78","system_id":"levelo_inurba_marseille","lat":43.28607,"lon":5.38421,"is_reserved":false,"is_disabled":false,"rental_uris":{"android":"levelo://app?vid=517de483-3968-47e4-bb2c-54fbf4822f78","ios":"levelo://app?vid=517de483-3968-47e4-bb2c-54fbf4822f78"},"vehicle_type_id":"4","last_reported":1732230550,"current_range_meters":24800,"station_id":"","pricing_plan_id":"cebpf4jnsgd1na2vs0mg"},{"bike_id":"11c5ed7c-dad2-4605-8db8-4918d0818190","system_id":"levelo_inurba_marseille","lat":43.31724,"lon":5.42407,"is_reserved":false,"is_disabled":false,"rental_uris":{"android":"levelo://app?vid=11c5ed7c-dad2-4605-8db8-4918d0818190","ios":"levelo://app?vid=11c5ed7c-dad2-4605-8db8-4918d0818190"},"vehicle_type_id":"4","last_reported":1732230550,"current_range_meters":38000,"station_id":"ce4bhp92rcd13ifvqhbg","pricing_plan_id":"cebpf4jnsgd1na2vs0mg"},{"bike_id":"53bbdfc0-4d63-4cc4-86e6-4ec910061123","system_id":"levelo_inurba_marseille","lat":43.30906,"lon":5.36701,"is_reserved":false,"is_disabled":true,"rental_uris":{"android":"levelo://app?vid=53bbdfc0-4d63-4cc4-86e6-4ec910061123","ios":"levelo://app?vid=53bbdfc0-4d63-4cc4-86e6-4ec910061123"},"vehicle_type_id":"4","last_reported":1732230550,"current_range_meters":0,"station_id":"","pricing_plan_id":"cebpf4jnsgd1na2vs0mg"},{"bike_id":"9f45cfa7-be04-48c8-90f0-8104aae5328f","system_id":"levelo_inurba_marseille","lat":43.25719,"lon":5.41112,"is_reserved":false,"is_disabled":false,"rental_uris":{"android":"levelo://app?vid=9f45cfa7-be04-48c8-90f0-8104aae5328f","ios":"levelo://app?vid=9f45cfa7-be04-48c8-90f0-8104aae5328f"},"vehicle_type_id":"4","last_reported":1732230550,"current_range_meters":28400,"station_id":"ce4bhkp2rcd13ifvqgd0","pricing_plan_id":"cebpf4jnsgd1na2vs0mg"},{"bike_id":"ace13d1d-b728-46b7-8466-1efb4f080fde","system_id":"levelo_inurba_marseille","lat":43.28936,"lon":5.36628,"is_reserved":false,"is_disabled":false,"rental_uris":{"android":"levelo://app?vid=ace13d1d-b728-46b7-8466-1efb4f080fde","ios":"levelo://app?vid=ace13d1d-b728-46b7-8466-1efb4f080fde"},"vehicle_type_id":"4","last_reported":1732230550,"current_range_meters":36400,"station_id":"ce4bhap2rcd13ifvqek0","pricing_plan_id":"cebpf4jnsgd1na2vs0mg"},{"bike_id":"29ebef88-6687-4f8d-8962-17568fa53980","system_id":"levelo_inurba_marseille","lat":43.28272,"lon":5.35072,"is_reserved":false,"is_disabled":false,"rental_uris":{"android":"levelo://app?vid=29ebef88-6687-4f8d-8962-17568fa53980","ios":"levelo://app?vid=29ebef88-6687-4f8d-8962-17568fa53980"},"vehicle_type_id":"4","last_reported":1732230550,"current_range_meters":38800,"station_id":"ce4bhbp2rcd13ifvqerg","pricing_plan_id":"cebpf4jnsgd1na2vs0mg"},{"bike_id":"dfca3e23-b1dd-40cd-81b2-441e5e82c803","system_id":"levelo_inurba_marseille","lat":43.24164,"lon":5.36407,"is_reserved":false,"is_disabled":false,"rental_uris":{"android":"levelo://app?vid=dfca3e23-b1dd-40cd-81b2-441e5e82c803","ios":"levelo://app?vid=dfca3e23-b1dd-40cd-81b2-441e5e82c803"},"vehicle_type_id":"4","last_reported":1732230550,"current_range_meters":38800,"station_id":"cpo36qri1sfpv3e86is0","pricing_plan_id":"cebpf4jnsgd1na2vs0mg"},{"bike_id":"1516f9f1-286e-4472-a67e-80667c613d4d","system_id":"levelo_inurba_marseille","lat":43.29858,"lon":5.39738,"is_reserved":false,"is_disabled":false,"rental_uris":{"android":"levelo://app?vid=1516f9f1-286e-4472-a67e-80667c613d4d","ios":"levelo://app?vid=1516f9f1-286e-4472-a67e-80667c613d4d"},"vehicle_type_id":"4","last_reported":1732230550,"current_range_meters":32000,"station_id":"ce4bh0h2rcd13ifvqd50","pricing_plan_id":"cebpf4jnsgd1na2vs0mg"},{"bike_id":"3193222d-584b-4642-a1d8-0c04b2309736","system_id":"levelo_inurba_marseille","lat":43.3372,"lon":5.39184,"is_reserved":false,"is_disabled":false,"rental_uris":{"android":"levelo://app?vid=3193222d-584b-4642-a1d8-0c04b2309736","ios":"levelo://app?vid=3193222d-584b-4642-a1d8-0c04b2309736"},"vehicle_type_id":"4","last_reported":1732230550,"current_range_meters":38800,"station_id":"ce4bhr92rcd13ifvqhsg","pricing_plan_id":"cebpf4jnsgd1na2vs0mg"},{"bike_id":"604830c0-2cdb-4c21-84ed-75b7c125f3e4","system_id":"levelo_inurba_marseille","lat":43.28937,"lon":5.36385,"is_reserved":false,"is_disabled":false,"rental_uris":{"android":"levelo://app?vid=604830c0-2cdb-4c21-84ed-75b7c125f3e4","ios":"levelo://app?vid=604830c0-2cdb-4c21-84ed-75b7c125f3e4"},"vehicle_type_id":"4","last_reported":1732230550,"current_range_meters":24400,"station_id":"ce4bhc92rcd13ifvqetg","pricing_plan_id":"cebpf4jnsgd1na2vs0mg"},{"bike_id":"09fd5406-a3f4-429c-ba24-3bf1a01994b6","system_id":"levelo_inurba_marseille","lat":43.30882,"lon":5.39636,"is_reserved":false,"is_disabled":false,"rental_uris":{"android":"levelo://app?vid=09fd5406-a3f4-429c-ba24-3bf1a01994b6","ios":"levelo://app?vid=09fd5406-a3f4-429c-ba24-3bf1a01994b6"},"vehicle_type_id":"4","last_reported":1732230550,"current_range_meters":38000,"station_id":"ce4bh012rcd13ifvqcv0","pricing_plan_id":"cebpf4jnsgd1na2vs0mg"},{"bike_id":"ae5f4fa2-650d-4b63-bf33-cd6e43e193d3","system_id":"levelo_inurba_marseille","lat":43.29037,"lon":5.3996,"is_reserved":false,"is_disabled":false,"rental_uris":{"android":"levelo://app?vid=ae5f4fa2-650d-4b63-bf33-cd6e43e193d3","ios":"levelo://app?vid=ae5f4fa2-650d-4b63-bf33-cd6e43e193d3"},"vehicle_type_id":"4","last_reported":1732230550,"current_range_meters":30000,"station_id":"ce4bh392rcd13ifvqdm0","pricing_plan_id":"cebpf4jnsgd1na2vs0mg"},{"bike_id":"94c5e368-3d75-4bb3-9148-edd5a1c42bd6","system_id":"levelo_inurba_marseille","lat":43.26201,"lon":5.37927,"is_reserved":false,"is_disabled":false,"rental_uris":{"android":"levelo://app?vid=94c5e368-3d75-4bb3-9148-edd5a1c42bd6","ios":"levelo://app?vid=94c5e368-3d75-4bb3-9148-edd5a1c42bd6"},"vehicle_type_id":"4","last_reported":1732230550,"current_range_meters":26800,"station_id":"ce4bhjp2rcd13ifvqg90","pricing_plan_id":"cebpf4jnsgd1na2vs0mg"},{"bike_id":"9a092c72-3381-4a02-b1c9-6e779405e1af","system_id":"levelo_inurba_marseille","lat":43.30774,"lon":5.37652,"is_reserved":false,"is_disabled":false,"rental_uris":{"android":"levelo://app?vid=9a092c72-3381-4a02-b1c9-6e779405e1af","ios":"levelo://app?vid=9a092c72-3381-4a02-b1c9-6e779405e1af"},"vehicle_type_id":"4","last_reported":1732230550,"current_range_meters":38800,"station_id":"ce4bgv92rcd13ifvqcq0","pricing_plan_id":"cebpf4jnsgd1na2vs0mg"},{"bike_id":"36b670a5-88a4-4791-8e46-829fcedcb23e","system_id":"levelo_inurba_marseille","lat":43.24998,"lon":5.38935,"is_reserved":false,"is_disabled":false,"rental_uris":{"android":"levelo://app?vid=36b670a5-88a4-4791-8e46-829fcedcb23e","ios":"levelo://app?vid=36b670a5-88a4-4791-8e46-829fcedcb23e"},"vehicle_type_id":"4","last_reported":1732230550,"current_range_meters":39200,"station_id":"ce4bhgp2rcd13ifvqfd0","pricing_plan_id":"cebpf4jnsgd1na2vs0mg"},{"bike_id":"e4c541a5-fcc4-4afa-ac75-a5b93754e021","system_id":"levelo_inurba_marseille","lat":43.29042,"lon":5.39961,"is_reserved":false,"is_disabled":false,"rental_uris":{"android":"levelo://app?vid=e4c541a5-fcc4-4afa-ac75-a5b93754e021","ios":"levelo://app?vid=e4c541a5-fcc4-4afa-ac75-a5b93754e021"},"vehicle_type_id":"4","last_reported":1732230550,"current_range_meters":19200,"station_id":"ce4bh392rcd13ifvqdm0","pricing_plan_id":"cebpf4jnsgd1na2vs0mg"},{"bike_id":"44c591fc-c53d-4d91-b1fd-9af6c1ee34e2","system_id":"levelo_inurba_marseille","lat":43.27828,"lon":5.39205,"is_reserved":false,"is_disabled":false,"rental_uris":{"android":"levelo://app?vid=44c591fc-c53d-4d91-b1fd-9af6c1ee34e2","ios":"levelo://app?vid=44c591fc-c53d-4d91-b1fd-9af6c1ee34e2"},"vehicle_type_id":"4","last_reported":1732230550,"current_range_meters":17600,"station_id":"ce4bhjp2rcd13ifvqga0","pricing_plan_id":"cebpf4jnsgd1na2vs0mg"},{"bike_id":"0cf6324e-3dc1-42b4-a88e-ea6f78bbab63","system_id":"levelo_inurba_marseille","lat":43.24072,"lon":5.37759,"is_reserved":false,"is_disabled":false,"rental_uris":{"android":"levelo://app?vid=0cf6324e-3dc1-42b4-a88e-ea6f78bbab63","ios":"levelo://app?vid=0cf6324e-3dc1-42b4-a88e-ea6f78bbab63"},"vehicle_type_id":"4","last_reported":1732230550,"current_range_meters":38800,"station_id":"ce4bhnp2rcd13ifvqgvg","pricing_plan_id":"cebpf4jnsgd1na2vs0mg"},{"bike_id":"ddcb792a-4f9a-4e4a-83ec-dc31020cab7c","system_id":"levelo_inurba_marseille","lat":43.3065,"lon":5.40088,"is_reserved":false,"is_disabled":false,"rental_uris":{"android":"levelo://app?vid=ddcb792a-4f9a-4e4a-83ec-dc31020cab7c","ios":"levelo://app?vid=ddcb792a-4f9a-4e4a-83ec-dc31020cab7c"},"vehicle_type_id":"4","last_reported":1732230550,"current_range_meters":35600,"station_id":"ce4bh112rcd13ifvqda0","pricing_plan_id":"cebpf4jnsgd1na2vs0mg"},{"bike_id":"fa3219f5-4dff-4643-87f9-3461cb850ce0","system_id":"levelo_inurba_marseille","lat":43.28704,"lon":5.37395,"is_reserved":false,"is_disabled":false,"rental_uris":{"android":"levelo://app?vid=fa3219f5-4dff-4643-87f9-3461cb850ce0","ios":"levelo://app?vid=fa3219f5-4dff-4643-87f9-3461cb850ce0"},"vehicle_type_id":"4","last_reported":1732230550,"current_range_meters":38800,"station_id":"ce4bh3p2rcd13ifvqdq0","pricing_plan_id":"cebpf4jnsgd1na2vs0mg"},{"bike_id":"6460ea25-8e01-4b6f-9c77-511fa32ab350","system_id":"levelo_inurba_marseille","lat":43.31123,"lon":5.37822,"is_reserved":false,"is_disabled":false,"rental_uris":{"android":"levelo://app?vid=6460ea25-8e01-4b6f-9c77-511fa32ab350","ios":"levelo://app?vid=6460ea25-8e01-4b6f-9c77-511fa32ab350"},"vehicle_type_id":"4","last_reported":1732230550,"current_range_meters":16400,"station_id":"ce4bgt92rcd13ifvqcg0","pricing_plan_id":"cebpf4jnsgd1na2vs0mg"},{"bike_id":"9a509f86-7a8e-4d0d-9e25-e117d71079dc","system_id":"levelo_inurba_marseille","lat":43.29433,"lon":5.39756,"is_reserved":false,"is_disabled":false,"rental_uris":{"android":"levelo://app?vid=9a509f86-7a8e-4d0d-9e25-e117d71079dc","ios":"levelo://app?vid=9a509f86-7a8e-4d0d-9e25-e117d71079dc"},"vehicle_type_id":"4","last_reported":1732230550,"current_range_meters":26800,"station_id":"ce4bh3h2rcd13ifvqdo0","pricing_plan_id":"cebpf4jnsgd1na2vs0mg"},{"bike_id":"24618c6c-9f3e-4480-ac3f-3dfa9b93dc99","system_id":"levelo_inurba_marseille","lat":43.279493,"lon":5.41047,"is_reserved":false,"is_disabled":false,"rental_uris":{"android":"levelo://app?vid=24618c6c-9f3e-4480-ac3f-3dfa9b93dc99","ios":"levelo://app?vid=24618c6c-9f3e-4480-ac3f-3dfa9b93dc99"},"vehicle_type_id":"4","last_reported":1732230550,"current_range_meters":38800,"station_id":"ce4bhnp2rcd13ifvqh0g","pricing_plan_id":"cebpf4jnsgd1na2vs0mg"},{"bike_id":"4f3296af-1411-40b6-acba-e6f076d524a7","system_id":"levelo_inurba_marseille","lat":43.30197,"lon":5.36624,"is_reserved":false,"is_disabled":true,"rental_uris":{"android":"levelo://app?vid=4f3296af-1411-40b6-acba-e6f076d524a7","ios":"levelo://app?vid=4f3296af-1411-40b6-acba-e6f076d524a7"},"vehicle_type_id":"4","last_reported":1732230550,"current_range_meters":28400,"station_id":"ce4bgrh2rcd13ifvqc8g","pricing_plan_id":"cebpf4jnsgd1na2vs0mg"},{"bike_id":"358e3773-0dfd-4762-b47f-c924c6bcbfe8","system_id":"levelo_inurba_marseille","lat":43.2857,"lon":5.39519,"is_reserved":false,"is_disabled":false,"rental_uris":{"android":"levelo://app?vid=358e3773-0dfd-4762-b47f-c924c6bcbfe8","ios":"levelo://app?vid=358e3773-0dfd-4762-b47f-c924c6bcbfe8"},"vehicle_type_id":"4","last_reported":1732230550,"current_range_meters":30800,"station_id":"ce4bh292rcd13ifvqdg0","pricing_plan_id":"cebpf4jnsgd1na2vs0mg"},{"bike_id":"1550a876-ada7-4258-a4e9-ca2b0fd7af5f","system_id":"levelo_inurba_marseille","lat":43.29932,"lon":5.36547,"is_reserved":false,"is_disabled":false,"rental_uris":{"android":"levelo://app?vid=1550a876-ada7-4258-a4e9-ca2b0fd7af5f","ios":"levelo://app?vid=1550a876-ada7-4258-a4e9-ca2b0fd7af5f"},"vehicle_type_id":"4","last_reported":1732230550,"current_range_meters":32000,"station_id":"ce4bgm92rcd13ifvqbr0","pricing_plan_id":"cebpf4jnsgd1na2vs0mg"},{"bike_id":"beb72136-9e08-4a80-a39b-b95d75825578","system_id":"levelo_inurba_marseille","lat":43.28726,"lon":5.36079,"is_reserved":false,"is_disabled":false,"rental_uris":{"android":"levelo://app?vid=beb72136-9e08-4a80-a39b-b95d75825578","ios":"levelo://app?vid=beb72136-9e08-4a80-a39b-b95d75825578"},"vehicle_type_id":"4","last_reported":1732230550,"current_range_meters":10800,"station_id":"cki0cbj6b192h4jlfktg","pricing_plan_id":"cebpf4jnsgd1na2vs0mg"},{"bike_id":"547f0bff-d26b-4849-b94d-77cf4a5a869f","system_id":"levelo_inurba_marseille","lat":43.23957,"lon":5.36637,"is_reserved":false,"is_disabled":false,"rental_uris":{"android":"levelo://app?vid=547f0bff-d26b-4849-b94d-77cf4a5a869f","ios":"levelo://app?vid=547f0bff-d26b-4849-b94d-77cf4a5a869f"},"vehicle_type_id":"4","last_reported":1732230550,"current_range_meters":36800,"station_id":"ce4bhi12rcd13ifvqfp0","pricing_plan_id":"cebpf4jnsgd1na2vs0mg"},{"bike_id":"c610b329-5202-4d05-a2b3-b243749bba54","system_id":"levelo_inurba_marseille","lat":43.24802,"lon":5.37456,"is_reserved":false,"is_disabled":false,"rental_uris":{"android":"levelo://app?vid=c610b329-5202-4d05-a2b3-b243749bba54","ios":"levelo://app?vid=c610b329-5202-4d05-a2b3-b243749bba54"},"vehicle_type_id":"4","last_reported":1732230550,"current_range_meters":38800,"station_id":"ce4bhgh2rcd13ifvqfb0","pricing_plan_id":"cebpf4jnsgd1na2vs0mg"},{"bike_id":"92f6245e-b347-4433-a58a-1977abc0dfc9","system_id":"levelo_inurba_marseille","lat":43.28463,"lon":5.35896,"is_reserved":false,"is_disabled":false,"rental_uris":{"android":"levelo://app?vid=92f6245e-b347-4433-a58a-1977abc0dfc9","ios":"levelo://app?vid=92f6245e-b347-4433-a58a-1977abc0dfc9"},"vehicle_type_id":"4","last_reported":1732230550,"current_range_meters":25600,"station_id":"ce4bhah2rcd13ifvqei0","pricing_plan_id":"cebpf4jnsgd1na2vs0mg"},{"bike_id":"d05b8e41-dec1-4669-af10-1f34995f6bf4","system_id":"levelo_inurba_marseille","lat":43.29031,"lon":5.3755,"is_reserved":false,"is_disabled":true,"rental_uris":{"android":"levelo://app?vid=d05b8e41-dec1-4669-af10-1f34995f6bf4","ios":"levelo://app?vid=d05b8e41-dec1-4669-af10-1f34995f6bf4"},"vehicle_type_id":"4","last_reported":1732230550,"current_range_meters":30400,"station_id":"ce4bh692rcd13ifvqe90","pricing_plan_id":"cebpf4jnsgd1na2vs0mg"},{"bike_id":"5916751e-cfa7-493d-a73f-1cd4b4d3bc97","system_id":"levelo_inurba_marseille","lat":43.29968,"lon":5.37175,"is_reserved":false,"is_disabled":false,"rental_uris":{"android":"levelo://app?vid=5916751e-cfa7-493d-a73f-1cd4b4d3bc97","ios":"levelo://app?vid=5916751e-cfa7-493d-a73f-1cd4b4d3bc97"},"vehicle_type_id":"4","last_reported":1732230550,"current_range_meters":38000,"station_id":"ce4bgr92rcd13ifvqc7g","pricing_plan_id":"cebpf4jnsgd1na2vs0mg"},{"bike_id":"679d559c-672c-425e-b42c-aed386205b80","system_id":"levelo_inurba_marseille","lat":43.28859,"lon":5.35835,"is_reserved":false,"is_disabled":false,"rental_uris":{"android":"levelo://app?vid=679d559c-672c-425e-b42c-aed386205b80","ios":"levelo://app?vid=679d559c-672c-425e-b42c-aed386205b80"},"vehicle_type_id":"4","last_reported":1732230550,"current_range_meters":9600,"station_id":"ce4bhb12rcd13ifvqem0","pricing_plan_id":"cebpf4jnsgd1na2vs0mg"},{"bike_id":"1ebd5e01-5c8b-44a9-8afc-659c827347e7","system_id":"levelo_inurba_marseille","lat":43.28848,"lon":5.35845,"is_reserved":false,"is_disabled":false,"rental_uris":{"android":"levelo://app?vid=1ebd5e01-5c8b-44a9-8afc-659c827347e7","ios":"levelo://app?vid=1ebd5e01-5c8b-44a9-8afc-659c827347e7"},"vehicle_type_id":"4","last_reported":1732230550,"current_range_meters":38800,"station_id":"ce4bhb12rcd13ifvqem0","pricing_plan_id":"cebpf4jnsgd1na2vs0mg"},{"bike_id":"686eab07-2168-4be5-a463-34bb7bb9d2f1","system_id":"levelo_inurba_marseille","lat":43.26944,"lon":5.38635,"is_reserved":false,"is_disabled":false,"rental_uris":{"android":"levelo://app?vid=686eab07-2168-4be5-a463-34bb7bb9d2f1","ios":"levelo://app?vid=686eab07-2168-4be5-a463-34bb7bb9d2f1"},"vehicle_type_id":"4","last_reported":1732230550,"current_range_meters":35600,"station_id":"ce4bhh92rcd13ifvqfh0","pricing_plan_id":"cebpf4jnsgd1na2vs0mg"},{"bike_id":"f227330d-bb3b-4498-b89e-ddc6bbb4269a","system_id":"levelo_inurba_marseille","lat":43.32657,"lon":5.40992,"is_reserved":false,"is_disabled":false,"rental_uris":{"android":"levelo://app?vid=f227330d-bb3b-4498-b89e-ddc6bbb4269a","ios":"levelo://app?vid=f227330d-bb3b-4498-b89e-ddc6bbb4269a"},"vehicle_type_id":"4","last_reported":1732230550,"current_range_meters":15200,"station_id":"ce4bhpp2rcd13ifvqhgg","pricing_plan_id":"cebpf4jnsgd1na2vs0mg"},{"bike_id":"f2e3c589-ac06-4462-88ed-bf0bb4668d6e","system_id":"levelo_inurba_marseille","lat":43.2979,"lon":5.39357,"is_reserved":false,"is_disabled":false,"rental_uris":{"android":"levelo://app?vid=f2e3c589-ac06-4462-88ed-bf0bb4668d6e","ios":"levelo://app?vid=f2e3c589-ac06-4462-88ed-bf0bb4668d6e"},"vehicle_type_id":"4","last_reported":1732230550,"current_range_meters":26800,"station_id":"chh1huq6cuj3fo74tm60","pricing_plan_id":"cebpf4jnsgd1na2vs0mg"},{"bike_id":"2f09e16b-7298-426a-b658-c69e68fd6700","system_id":"levelo_inurba_marseille","lat":43.24074,"lon":5.37761,"is_reserved":false,"is_disabled":false,"rental_uris":{"android":"levelo://app?vid=2f09e16b-7298-426a-b658-c69e68fd6700","ios":"levelo://app?vid=2f09e16b-7298-426a-b658-c69e68fd6700"},"vehicle_type_id":"4","last_reported":1732230550,"current_range_meters":34000,"station_id":"ce4bhnp2rcd13ifvqgvg","pricing_plan_id":"cebpf4jnsgd1na2vs0mg"},{"bike_id":"1904e4d6-e1e0-456f-9800-8b0e0e7107b4","system_id":"levelo_inurba_marseille","lat":43.23151,"lon":5.43707,"is_reserved":false,"is_disabled":false,"rental_uris":{"android":"levelo://app?vid=1904e4d6-e1e0-456f-9800-8b0e0e7107b4","ios":"levelo://app?vid=1904e4d6-e1e0-456f-9800-8b0e0e7107b4"},"vehicle_type_id":"4","last_reported":1732230550,"current_range_meters":38800,"station_id":"ce4bhmp2rcd13ifvqgog","pricing_plan_id":"cebpf4jnsgd1na2vs0mg"},{"bike_id":"51654fed-9c06-4ccc-8baa-01fb71e67e1e","system_id":"levelo_inurba_marseille","lat":43.23183,"lon":5.39993,"is_reserved":false,"is_disabled":false,"rental_uris":{"android":"levelo://app?vid=51654fed-9c06-4ccc-8baa-01fb71e67e1e","ios":"levelo://app?vid=51654fed-9c06-4ccc-8baa-01fb71e67e1e"},"vehicle_type_id":"4","last_reported":1732230550,"current_range_meters":32000,"station_id":"ce4bhn12rcd13ifvqgqg","pricing_plan_id":"cebpf4jnsgd1na2vs0mg"},{"bike_id":"9495fb11-5a0e-4266-b488-ca4f73e5ebed","system_id":"levelo_inurba_marseille","lat":43.29257,"lon":5.40896,"is_reserved":false,"is_disabled":false,"rental_uris":{"android":"levelo://app?vid=9495fb11-5a0e-4266-b488-ca4f73e5ebed","ios":"levelo://app?vid=9495fb11-5a0e-4266-b488-ca4f73e5ebed"},"vehicle_type_id":"4","last_reported":1732230550,"current_range_meters":15200,"station_id":"ce4bh192rcd13ifvqdc0","pricing_plan_id":"cebpf4jnsgd1na2vs0mg"},{"bike_id":"c3f49b43-97fd-4f8b-98a1-94bd890101a8","system_id":"levelo_inurba_marseille","lat":43.28732,"lon":5.36077,"is_reserved":false,"is_disabled":false,"rental_uris":{"android":"levelo://app?vid=c3f49b43-97fd-4f8b-98a1-94bd890101a8","ios":"levelo://app?vid=c3f49b43-97fd-4f8b-98a1-94bd890101a8"},"vehicle_type_id":"4","last_reported":1732230550,"current_range_meters":32000,"station_id":"cki0cbj6b192h4jlfktg","pricing_plan_id":"cebpf4jnsgd1na2vs0mg"},{"bike_id":"f6d7c493-a0c0-43f8-b476-04a60b09fa64","system_id":"levelo_inurba_marseille","lat":43.29789,"lon":5.37092,"is_reserved":false,"is_disabled":false,"rental_uris":{"android":"levelo://app?vid=f6d7c493-a0c0-43f8-b476-04a60b09fa64","ios":"levelo://app?vid=f6d7c493-a0c0-43f8-b476-04a60b09fa64"},"vehicle_type_id":"4","last_reported":1732230550,"current_range_meters":38400,"station_id":"ce4bgop2rcd13ifvqc1g","pricing_plan_id":"cebpf4jnsgd1na2vs0mg"},{"bike_id":"1eff5ce5-2d56-4465-a12c-60db9ec2175a","system_id":"levelo_inurba_marseille","lat":43.22927,"lon":5.35388,"is_reserved":false,"is_disabled":false,"rental_uris":{"android":"levelo://app?vid=1eff5ce5-2d56-4465-a12c-60db9ec2175a","ios":"levelo://app?vid=1eff5ce5-2d56-4465-a12c-60db9ec2175a"},"vehicle_type_id":"4","last_reported":1732230550,"current_range_meters":8400,"station_id":"cpo3532slgdg3j2ikp40","pricing_plan_id":"cebpf4jnsgd1na2vs0mg"},{"bike_id":"f0b7cdc7-f3ab-4af1-9087-701ebf5745e3","system_id":"levelo_inurba_marseille","lat":43.24085,"lon":5.37739,"is_reserved":false,"is_disabled":true,"rental_uris":{"android":"levelo://app?vid=f0b7cdc7-f3ab-4af1-9087-701ebf5745e3","ios":"levelo://app?vid=f0b7cdc7-f3ab-4af1-9087-701ebf5745e3"},"vehicle_type_id":"4","last_reported":1732230550,"current_range_meters":20400,"station_id":"ce4bhnp2rcd13ifvqgvg","pricing_plan_id":"cebpf4jnsgd1na2vs0mg"},{"bike_id":"ce6d46e5-4223-4bce-a0db-85f63ca84039","system_id":"levelo_inurba_marseille","lat":43.30176,"lon":5.40055,"is_reserved":false,"is_disabled":true,"rental_uris":{"android":"levelo://app?vid=ce6d46e5-4223-4bce-a0db-85f63ca84039","ios":"levelo://app?vid=ce6d46e5-4223-4bce-a0db-85f63ca84039"},"vehicle_type_id":"4","last_reported":1732230550,"current_range_meters":800,"station_id":"","pricing_plan_id":"cebpf4jnsgd1na2vs0mg"},{"bike_id":"dc815649-e3e3-48aa-b0fd-022cdb8ac58a","system_id":"levelo_inurba_marseille","lat":43.32368,"lon":5.38882,"is_reserved":false,"is_disabled":false,"rental_uris":{"android":"levelo://app?vid=dc815649-e3e3-48aa-b0fd-022cdb8ac58a","ios":"levelo://app?vid=dc815649-e3e3-48aa-b0fd-022cdb8ac58a"},"vehicle_type_id":"4","last_reported":1732230550,"current_range_meters":38400,"station_id":"ce4bhqp2rcd13ifvqhog","pricing_plan_id":"cebpf4jnsgd1na2vs0mg"},{"bike_id":"d1c68a04-2d02-4c39-9221-99ab877c4eff","system_id":"levelo_inurba_marseille","lat":43.28719,"lon":5.37937,"is_reserved":false,"is_disabled":false,"rental_uris":{"android":"levelo://app?vid=d1c68a04-2d02-4c39-9221-99ab877c4eff","ios":"levelo://app?vid=d1c68a04-2d02-4c39-9221-99ab877c4eff"},"vehicle_type_id":"4","last_reported":1732230550,"current_range_meters":31200,"station_id":"ce4bh9p2rcd13ifvqec0","pricing_plan_id":"cebpf4jnsgd1na2vs0mg"},{"bike_id":"94778856-84ad-4460-8657-a4ee09d16025","system_id":"levelo_inurba_marseille","lat":43.27943,"lon":5.41047,"is_reserved":false,"is_disabled":false,"rental_uris":{"android":"levelo://app?vid=94778856-84ad-4460-8657-a4ee09d16025","ios":"levelo://app?vid=94778856-84ad-4460-8657-a4ee09d16025"},"vehicle_type_id":"4","last_reported":1732230550,"current_range_meters":9200,"station_id":"ce4bhnp2rcd13ifvqh0g","pricing_plan_id":"cebpf4jnsgd1na2vs0mg"},{"bike_id":"623cb655-d37d-4c1c-92a3-1dbd173968d5","system_id":"levelo_inurba_marseille","lat":43.26803,"lon":5.4027,"is_reserved":false,"is_disabled":false,"rental_uris":{"android":"levelo://app?vid=623cb655-d37d-4c1c-92a3-1dbd173968d5","ios":"levelo://app?vid=623cb655-d37d-4c1c-92a3-1dbd173968d5"},"vehicle_type_id":"4","last_reported":1732230550,"current_range_meters":38400,"station_id":"ce501612rcd8frsf0b60","pricing_plan_id":"cebpf4jnsgd1na2vs0mg"},{"bike_id":"070a4e3a-ff3e-4b5d-91f1-497d8af78fbb","system_id":"levelo_inurba_marseille","lat":43.26804,"lon":5.40265,"is_reserved":false,"is_disabled":false,"rental_uris":{"android":"levelo://app?vid=070a4e3a-ff3e-4b5d-91f1-497d8af78fbb","ios":"levelo://app?vid=070a4e3a-ff3e-4b5d-91f1-497d8af78fbb"},"vehicle_type_id":"4","last_reported":1732230550,"current_range_meters":39200,"station_id":"ce501612rcd8frsf0b60","pricing_plan_id":"cebpf4jnsgd1na2vs0mg"},{"bike_id":"f57e4770-a047-478a-92f1-500c1701e7c5","system_id":"levelo_inurba_marseille","lat":43.27812,"lon":5.40721,"is_reserved":false,"is_disabled":false,"rental_uris":{"android":"levelo://app?vid=f57e4770-a047-478a-92f1-500c1701e7c5","ios":"levelo://app?vid=f57e4770-a047-478a-92f1-500c1701e7c5"},"vehicle_type_id":"4","last_reported":1732230550,"current_range_meters":12400,"station_id":"ce4bhnh2rcd13ifvqgtg","pricing_plan_id":"cebpf4jnsgd1na2vs0mg"},{"bike_id":"88fb266f-d72a-433a-af30-62485258d74f","system_id":"levelo_inurba_marseille","lat":43.2718,"lon":5.40995,"is_reserved":false,"is_disabled":false,"rental_uris":{"android":"levelo://app?vid=88fb266f-d72a-433a-af30-62485258d74f","ios":"levelo://app?vid=88fb266f-d72a-433a-af30-62485258d74f"},"vehicle_type_id":"4","last_reported":1732230550,"current_range_meters":38800,"station_id":"ce4bhl12rcd13ifvqgf0","pricing_plan_id":"cebpf4jnsgd1na2vs0mg"},{"bike_id":"a35de2ce-28c4-4e9e-95f8-d6073aaf220f","system_id":"levelo_inurba_marseille","lat":43.27813,"lon":5.40704,"is_reserved":false,"is_disabled":false,"rental_uris":{"android":"levelo://app?vid=a35de2ce-28c4-4e9e-95f8-d6073aaf220f","ios":"levelo://app?vid=a35de2ce-28c4-4e9e-95f8-d6073aaf220f"},"vehicle_type_id":"4","last_reported":1732230550,"current_range_meters":38800,"station_id":"ce4bhnh2rcd13ifvqgtg","pricing_plan_id":"cebpf4jnsgd1na2vs0mg"},{"bike_id":"3be6886c-cced-40b5-8572-003e9059f911","system_id":"levelo_inurba_marseille","lat":43.27903,"lon":5.3802,"is_reserved":false,"is_disabled":false,"rental_uris":{"android":"levelo://app?vid=3be6886c-cced-40b5-8572-003e9059f911","ios":"levelo://app?vid=3be6886c-cced-40b5-8572-003e9059f911"},"vehicle_type_id":"4","last_reported":1732230550,"current_range_meters":38000,"station_id":"ce4bhf92rcd13ifvqf50","pricing_plan_id":"cebpf4jnsgd1na2vs0mg"},{"bike_id":"34ca497a-3700-4364-8f2a-eab1455e860b","system_id":"levelo_inurba_marseille","lat":43.28448,"lon":5.39194,"is_reserved":false,"is_disabled":false,"rental_uris":{"android":"levelo://app?vid=34ca497a-3700-4364-8f2a-eab1455e860b","ios":"levelo://app?vid=34ca497a-3700-4364-8f2a-eab1455e860b"},"vehicle_type_id":"4","last_reported":1732230550,"current_range_meters":38800,"station_id":"ce4bhoh2rcd13ifvqh5g","pricing_plan_id":"cebpf4jnsgd1na2vs0mg"},{"bike_id":"e6c10177-5c11-4966-8dab-29a0aaa5f967","system_id":"levelo_inurba_marseille","lat":43.29785,"lon":5.39348,"is_reserved":false,"is_disabled":false,"rental_uris":{"android":"levelo://app?vid=e6c10177-5c11-4966-8dab-29a0aaa5f967","ios":"levelo://app?vid=e6c10177-5c11-4966-8dab-29a0aaa5f967"},"vehicle_type_id":"4","last_reported":1732230550,"current_range_meters":32000,"station_id":"chh1huq6cuj3fo74tm60","pricing_plan_id":"cebpf4jnsgd1na2vs0mg"},{"bike_id":"47f7086c-8a62-4ad6-81a2-978d1da50091","system_id":"levelo_inurba_marseille","lat":43.29918,"lon":5.37477,"is_reserved":false,"is_disabled":false,"rental_uris":{"android":"levelo://app?vid=47f7086c-8a62-4ad6-81a2-978d1da50091","ios":"levelo://app?vid=47f7086c-8a62-4ad6-81a2-978d1da50091"},"vehicle_type_id":"4","last_reported":1732230550,"current_range_meters":34800,"station_id":"ce4bgjh2rcd13ifvqbg0","pricing_plan_id":"cebpf4jnsgd1na2vs0mg"},{"bike_id":"8e5f7d32-6613-4d7e-b53d-b5ddff5cb6c6","system_id":"levelo_inurba_marseille","lat":43.23966,"lon":5.36631,"is_reserved":false,"is_disabled":false,"rental_uris":{"android":"levelo://app?vid=8e5f7d32-6613-4d7e-b53d-b5ddff5cb6c6","ios":"levelo://app?vid=8e5f7d32-6613-4d7e-b53d-b5ddff5cb6c6"},"vehicle_type_id":"4","last_reported":1732230550,"current_range_meters":22400,"station_id":"ce4bhi12rcd13ifvqfp0","pricing_plan_id":"cebpf4jnsgd1na2vs0mg"},{"bike_id":"bbe8d0df-1371-421b-8e5b-00862b9e6eb9","system_id":"levelo_inurba_marseille","lat":43.32332,"lon":5.40616,"is_reserved":false,"is_disabled":false,"rental_uris":{"android":"levelo://app?vid=bbe8d0df-1371-421b-8e5b-00862b9e6eb9","ios":"levelo://app?vid=bbe8d0df-1371-421b-8e5b-00862b9e6eb9"},"vehicle_type_id":"4","last_reported":1732230550,"current_range_meters":38800,"station_id":"ce4bhq92rcd13ifvqhjg","pricing_plan_id":"cebpf4jnsgd1na2vs0mg"},{"bike_id":"7728be18-7122-4cf1-9720-d7330dae3cfa","system_id":"levelo_inurba_marseille","lat":43.31999,"lon":5.38153,"is_reserved":false,"is_disabled":false,"rental_uris":{"android":"levelo://app?vid=7728be18-7122-4cf1-9720-d7330dae3cfa","ios":"levelo://app?vid=7728be18-7122-4cf1-9720-d7330dae3cfa"},"vehicle_type_id":"4","last_reported":1732230550,"current_range_meters":39200,"station_id":"ce4bhr12rcd13ifvqhpg","pricing_plan_id":"cebpf4jnsgd1na2vs0mg"},{"bike_id":"adcbd199-b708-407d-a409-d2dcec00b06e","system_id":"levelo_inurba_marseille","lat":43.30441,"lon":5.38898,"is_reserved":false,"is_disabled":false,"rental_uris":{"android":"levelo://app?vid=adcbd199-b708-407d-a409-d2dcec00b06e","ios":"levelo://app?vid=adcbd199-b708-407d-a409-d2dcec00b06e"},"vehicle_type_id":"4","last_reported":1732230550,"current_range_meters":30400,"station_id":"ce4bgk12rcd13ifvqbi0","pricing_plan_id":"cebpf4jnsgd1na2vs0mg"},{"bike_id":"42d6fa67-3d3d-427c-a63a-15e267a4a6ee","system_id":"levelo_inurba_marseille","lat":43.279514,"lon":5.410487,"is_reserved":false,"is_disabled":true,"rental_uris":{"android":"levelo://app?vid=42d6fa67-3d3d-427c-a63a-15e267a4a6ee","ios":"levelo://app?vid=42d6fa67-3d3d-427c-a63a-15e267a4a6ee"},"vehicle_type_id":"4","last_reported":1732230550,"current_range_meters":20800,"station_id":"ce4bhnp2rcd13ifvqh0g","pricing_plan_id":"cebpf4jnsgd1na2vs0mg"},{"bike_id":"74d9873c-e555-4d5f-92c9-8d5bfaa31f2e","system_id":"levelo_inurba_marseille","lat":43.29162,"lon":5.3715,"is_reserved":false,"is_disabled":false,"rental_uris":{"android":"levelo://app?vid=74d9873c-e555-4d5f-92c9-8d5bfaa31f2e","ios":"levelo://app?vid=74d9873c-e555-4d5f-92c9-8d5bfaa31f2e"},"vehicle_type_id":"4","last_reported":1732230550,"current_range_meters":38800,"station_id":"ce4bha92rcd13ifvqeh0","pricing_plan_id":"cebpf4jnsgd1na2vs0mg"},{"bike_id":"abf4d4b6-f406-4072-b43d-c225a65ac296","system_id":"levelo_inurba_marseille","lat":43.27214,"lon":5.39181,"is_reserved":false,"is_disabled":false,"rental_uris":{"android":"levelo://app?vid=abf4d4b6-f406-4072-b43d-c225a65ac296","ios":"levelo://app?vid=abf4d4b6-f406-4072-b43d-c225a65ac296"},"vehicle_type_id":"4","last_reported":1732230550,"current_range_meters":36400,"station_id":"ce4bhhp2rcd13ifvqfm0","pricing_plan_id":"cebpf4jnsgd1na2vs0mg"},{"bike_id":"63339ce0-1b14-41a7-8a3d-adff0912dfe7","system_id":"levelo_inurba_marseille","lat":43.28727,"lon":5.36091,"is_reserved":false,"is_disabled":false,"rental_uris":{"android":"levelo://app?vid=63339ce0-1b14-41a7-8a3d-adff0912dfe7","ios":"levelo://app?vid=63339ce0-1b14-41a7-8a3d-adff0912dfe7"},"vehicle_type_id":"4","last_reported":1732230550,"current_range_meters":37600,"station_id":"cki0cbj6b192h4jlfktg","pricing_plan_id":"cebpf4jnsgd1na2vs0mg"},{"bike_id":"1961bc51-373a-428c-96e7-5732c1bba3d1","system_id":"levelo_inurba_marseille","lat":43.3229,"lon":5.382793,"is_reserved":false,"is_disabled":false,"rental_uris":{"android":"levelo://app?vid=1961bc51-373a-428c-96e7-5732c1bba3d1","ios":"levelo://app?vid=1961bc51-373a-428c-96e7-5732c1bba3d1"},"vehicle_type_id":"4","last_reported":1732230550,"current_range_meters":38000,"station_id":"ce4bhr12rcd13ifvqhqg","pricing_plan_id":"cebpf4jnsgd1na2vs0mg"},{"bike_id":"99aa7099-227e-4b1c-86ca-1ad3dcac5426","system_id":"levelo_inurba_marseille","lat":43.29258,"lon":5.409072,"is_reserved":false,"is_disabled":true,"rental_uris":{"android":"levelo://app?vid=99aa7099-227e-4b1c-86ca-1ad3dcac5426","ios":"levelo://app?vid=99aa7099-227e-4b1c-86ca-1ad3dcac5426"},"vehicle_type_id":"4","last_reported":1732230550,"current_range_meters":32400,"station_id":"ce4bh192rcd13ifvqdc0","pricing_plan_id":"cebpf4jnsgd1na2vs0mg"},{"bike_id":"25b2fa8d-7f65-40fd-9237-8394d8428b8e","system_id":"levelo_inurba_marseille","lat":43.30803,"lon":5.38145,"is_reserved":false,"is_disabled":false,"rental_uris":{"android":"levelo://app?vid=25b2fa8d-7f65-40fd-9237-8394d8428b8e","ios":"levelo://app?vid=25b2fa8d-7f65-40fd-9237-8394d8428b8e"},"vehicle_type_id":"4","last_reported":1732230550,"current_range_meters":39200,"station_id":"ce4bgt12rcd13ifvqce0","pricing_plan_id":"cebpf4jnsgd1na2vs0mg"},{"bike_id":"b40ede3d-3df1-4e75-aa7c-f784505f0ad9","system_id":"levelo_inurba_marseille","lat":43.31997,"lon":5.38148,"is_reserved":false,"is_disabled":false,"rental_uris":{"android":"levelo://app?vid=b40ede3d-3df1-4e75-aa7c-f784505f0ad9","ios":"levelo://app?vid=b40ede3d-3df1-4e75-aa7c-f784505f0ad9"},"vehicle_type_id":"4","last_reported":1732230550,"current_range_meters":39200,"station_id":"ce4bhr12rcd13ifvqhpg","pricing_plan_id":"cebpf4jnsgd1na2vs0mg"},{"bike_id":"94778b22-ba52-4096-b5b4-96317763dfce","system_id":"levelo_inurba_marseille","lat":43.25725,"lon":5.4111,"is_reserved":false,"is_disabled":true,"rental_uris":{"android":"levelo://app?vid=94778b22-ba52-4096-b5b4-96317763dfce","ios":"levelo://app?vid=94778b22-ba52-4096-b5b4-96317763dfce"},"vehicle_type_id":"4","last_reported":1732230550,"current_range_meters":38800,"station_id":"ce4bhkp2rcd13ifvqgd0","pricing_plan_id":"cebpf4jnsgd1na2vs0mg"},{"bike_id":"f18a5045-ab35-4048-aa48-991860e858c3","system_id":"levelo_inurba_marseille","lat":43.28565,"lon":5.39504,"is_reserved":false,"is_disabled":false,"rental_uris":{"android":"levelo://app?vid=f18a5045-ab35-4048-aa48-991860e858c3","ios":"levelo://app?vid=f18a5045-ab35-4048-aa48-991860e858c3"},"vehicle_type_id":"4","last_reported":1732230550,"current_range_meters":22800,"station_id":"ce4bh292rcd13ifvqdg0","pricing_plan_id":"cebpf4jnsgd1na2vs0mg"},{"bike_id":"5caf8f7e-4794-44e2-839f-9a00f297db5f","system_id":"levelo_inurba_marseille","lat":43.29889,"lon":5.43657,"is_reserved":false,"is_disabled":false,"rental_uris":{"android":"levelo://app?vid=5caf8f7e-4794-44e2-839f-9a00f297db5f","ios":"levelo://app?vid=5caf8f7e-4794-44e2-839f-9a00f297db5f"},"vehicle_type_id":"4","last_reported":1732230550,"current_range_meters":25600,"station_id":"ce4bhpp2rcd13ifvqhfg","pricing_plan_id":"cebpf4jnsgd1na2vs0mg"},{"bike_id":"b7647b63-91d4-4ba0-b898-98a701c2b793","system_id":"levelo_inurba_marseille","lat":43.28663,"lon":5.38667,"is_reserved":false,"is_disabled":false,"rental_uris":{"android":"levelo://app?vid=b7647b63-91d4-4ba0-b898-98a701c2b793","ios":"levelo://app?vid=b7647b63-91d4-4ba0-b898-98a701c2b793"},"vehicle_type_id":"4","last_reported":1732230550,"current_range_meters":38000,"station_id":"ce4bh492rcd13ifvqdug","pricing_plan_id":"cebpf4jnsgd1na2vs0mg"},{"bike_id":"8c4cc71e-8d2c-4fc6-8383-b5ed328782a6","system_id":"levelo_inurba_marseille","lat":43.30422,"lon":5.38888,"is_reserved":false,"is_disabled":false,"rental_uris":{"android":"levelo://app?vid=8c4cc71e-8d2c-4fc6-8383-b5ed328782a6","ios":"levelo://app?vid=8c4cc71e-8d2c-4fc6-8383-b5ed328782a6"},"vehicle_type_id":"4","last_reported":1732230550,"current_range_meters":37600,"station_id":"ce4bgk12rcd13ifvqbi0","pricing_plan_id":"cebpf4jnsgd1na2vs0mg"},{"bike_id":"3b6decf1-6cd1-4587-af40-637cd78965e7","system_id":"levelo_inurba_marseille","lat":43.29791,"lon":5.39352,"is_reserved":false,"is_disabled":false,"rental_uris":{"android":"levelo://app?vid=3b6decf1-6cd1-4587-af40-637cd78965e7","ios":"levelo://app?vid=3b6decf1-6cd1-4587-af40-637cd78965e7"},"vehicle_type_id":"4","last_reported":1732230550,"current_range_meters":34800,"station_id":"chh1huq6cuj3fo74tm60","pricing_plan_id":"cebpf4jnsgd1na2vs0mg"},{"bike_id":"552ae1f9-34eb-4d70-a19b-3616d3661778","system_id":"levelo_inurba_marseille","lat":43.3373,"lon":5.39172,"is_reserved":false,"is_disabled":false,"rental_uris":{"android":"levelo://app?vid=552ae1f9-34eb-4d70-a19b-3616d3661778","ios":"levelo://app?vid=552ae1f9-34eb-4d70-a19b-3616d3661778"},"vehicle_type_id":"4","last_reported":1732230550,"current_range_meters":27600,"station_id":"ce4bhr92rcd13ifvqhsg","pricing_plan_id":"cebpf4jnsgd1na2vs0mg"},{"bike_id":"1bf91585-1655-41ca-aa3f-ff0ba6e8cc52","system_id":"levelo_inurba_marseille","lat":43.33027,"lon":5.3904,"is_reserved":false,"is_disabled":false,"rental_uris":{"android":"levelo://app?vid=1bf91585-1655-41ca-aa3f-ff0ba6e8cc52","ios":"levelo://app?vid=1bf91585-1655-41ca-aa3f-ff0ba6e8cc52"},"vehicle_type_id":"4","last_reported":1732230550,"current_range_meters":39200,"station_id":"ce4bhr92rcd13ifvqhrg","pricing_plan_id":"cebpf4jnsgd1na2vs0mg"},{"bike_id":"537ff586-0d5d-4ae4-bc36-a01b96dcf59b","system_id":"levelo_inurba_marseille","lat":43.283522,"lon":5.38125,"is_reserved":false,"is_disabled":false,"rental_uris":{"android":"levelo://app?vid=537ff586-0d5d-4ae4-bc36-a01b96dcf59b","ios":"levelo://app?vid=537ff586-0d5d-4ae4-bc36-a01b96dcf59b"},"vehicle_type_id":"4","last_reported":1732230550,"current_range_meters":31200,"station_id":"ce4bh412rcd13ifvqdr0","pricing_plan_id":"cebpf4jnsgd1na2vs0mg"},{"bike_id":"6178f234-9efb-45f7-9365-bc8bed638c43","system_id":"levelo_inurba_marseille","lat":43.23183,"lon":5.39987,"is_reserved":false,"is_disabled":false,"rental_uris":{"android":"levelo://app?vid=6178f234-9efb-45f7-9365-bc8bed638c43","ios":"levelo://app?vid=6178f234-9efb-45f7-9365-bc8bed638c43"},"vehicle_type_id":"4","last_reported":1732230550,"current_range_meters":8800,"station_id":"ce4bhn12rcd13ifvqgqg","pricing_plan_id":"cebpf4jnsgd1na2vs0mg"},{"bike_id":"7a942108-16ea-4f98-9d80-82c238759071","system_id":"levelo_inurba_marseille","lat":43.2957,"lon":5.39967,"is_reserved":false,"is_disabled":true,"rental_uris":{"android":"levelo://app?vid=7a942108-16ea-4f98-9d80-82c238759071","ios":"levelo://app?vid=7a942108-16ea-4f98-9d80-82c238759071"},"vehicle_type_id":"4","last_reported":1732230550,"current_range_meters":31200,"station_id":"ce4bh312rcd13ifvqdj0","pricing_plan_id":"cebpf4jnsgd1na2vs0mg"},{"bike_id":"028e5427-36e2-49e1-b3db-260058fffb58","system_id":"levelo_inurba_marseille","lat":43.25574,"lon":5.38237,"is_reserved":false,"is_disabled":false,"rental_uris":{"android":"levelo://app?vid=028e5427-36e2-49e1-b3db-260058fffb58","ios":"levelo://app?vid=028e5427-36e2-49e1-b3db-260058fffb58"},"vehicle_type_id":"4","last_reported":1732230550,"current_range_meters":20400,"station_id":"ce4bhih2rcd13ifvqfs0","pricing_plan_id":"cebpf4jnsgd1na2vs0mg"},{"bike_id":"489f4263-2d06-4bf4-81af-1783869d0e6a","system_id":"levelo_inurba_marseille","lat":43.23964,"lon":5.36647,"is_reserved":false,"is_disabled":false,"rental_uris":{"android":"levelo://app?vid=489f4263-2d06-4bf4-81af-1783869d0e6a","ios":"levelo://app?vid=489f4263-2d06-4bf4-81af-1783869d0e6a"},"vehicle_type_id":"4","last_reported":1732230550,"current_range_meters":8400,"station_id":"ce4bhi12rcd13ifvqfp0","pricing_plan_id":"cebpf4jnsgd1na2vs0mg"},{"bike_id":"1453fddf-c64f-4c02-ace1-55caffeaf55e","system_id":"levelo_inurba_marseille","lat":43.32292,"lon":5.38273,"is_reserved":false,"is_disabled":false,"rental_uris":{"android":"levelo://app?vid=1453fddf-c64f-4c02-ace1-55caffeaf55e","ios":"levelo://app?vid=1453fddf-c64f-4c02-ace1-55caffeaf55e"},"vehicle_type_id":"4","last_reported":1732230550,"current_range_meters":36800,"station_id":"ce4bhr12rcd13ifvqhqg","pricing_plan_id":"cebpf4jnsgd1na2vs0mg"},{"bike_id":"7e17a81f-3b24-49e1-a5fc-e88f9462d78d","system_id":"levelo_inurba_marseille","lat":43.28416,"lon":5.40946,"is_reserved":false,"is_disabled":false,"rental_uris":{"android":"levelo://app?vid=7e17a81f-3b24-49e1-a5fc-e88f9462d78d","ios":"levelo://app?vid=7e17a81f-3b24-49e1-a5fc-e88f9462d78d"},"vehicle_type_id":"4","last_reported":1732230550,"current_range_meters":8000,"station_id":"","pricing_plan_id":"cebpf4jnsgd1na2vs0mg"},{"bike_id":"0d5efe48-32bd-461f-be09-c1d5e2d6ef37","system_id":"levelo_inurba_marseille","lat":43.32365,"lon":5.38887,"is_reserved":false,"is_disabled":false,"rental_uris":{"android":"levelo://app?vid=0d5efe48-32bd-461f-be09-c1d5e2d6ef37","ios":"levelo://app?vid=0d5efe48-32bd-461f-be09-c1d5e2d6ef37"},"vehicle_type_id":"4","last_reported":1732230550,"current_range_meters":36400,"station_id":"ce4bhqp2rcd13ifvqhog","pricing_plan_id":"cebpf4jnsgd1na2vs0mg"},{"bike_id":"9cb25104-a344-44e1-b011-ee0babb96f44","system_id":"levelo_inurba_marseille","lat":43.25581,"lon":5.38233,"is_reserved":false,"is_disabled":false,"rental_uris":{"android":"levelo://app?vid=9cb25104-a344-44e1-b011-ee0babb96f44","ios":"levelo://app?vid=9cb25104-a344-44e1-b011-ee0babb96f44"},"vehicle_type_id":"4","last_reported":1732230550,"current_range_meters":36800,"station_id":"ce4bhih2rcd13ifvqfs0","pricing_plan_id":"cebpf4jnsgd1na2vs0mg"},{"bike_id":"61f0e660-3916-460b-ac79-c18b9b1dd5f0","system_id":"levelo_inurba_marseille","lat":43.29031,"lon":5.3755,"is_reserved":false,"is_disabled":true,"rental_uris":{"android":"levelo://app?vid=61f0e660-3916-460b-ac79-c18b9b1dd5f0","ios":"levelo://app?vid=61f0e660-3916-460b-ac79-c18b9b1dd5f0"},"vehicle_type_id":"4","last_reported":1732230550,"current_range_meters":11200,"station_id":"ce4bh692rcd13ifvqe90","pricing_plan_id":"cebpf4jnsgd1na2vs0mg"},{"bike_id":"1893e5c1-2d0e-42cc-9366-97e66e129920","system_id":"levelo_inurba_marseille","lat":43.30297,"lon":5.39201,"is_reserved":false,"is_disabled":false,"rental_uris":{"android":"levelo://app?vid=1893e5c1-2d0e-42cc-9366-97e66e129920","ios":"levelo://app?vid=1893e5c1-2d0e-42cc-9366-97e66e129920"},"vehicle_type_id":"4","last_reported":1732230550,"current_range_meters":36800,"station_id":"ce4bgkh2rcd13ifvqbk0","pricing_plan_id":"cebpf4jnsgd1na2vs0mg"},{"bike_id":"2d9fabb3-dc11-4c22-95a1-aa770f89fc01","system_id":"levelo_inurba_marseille","lat":43.30892,"lon":5.39634,"is_reserved":false,"is_disabled":false,"rental_uris":{"android":"levelo://app?vid=2d9fabb3-dc11-4c22-95a1-aa770f89fc01","ios":"levelo://app?vid=2d9fabb3-dc11-4c22-95a1-aa770f89fc01"},"vehicle_type_id":"4","last_reported":1732230550,"current_range_meters":22400,"station_id":"ce4bh012rcd13ifvqcv0","pricing_plan_id":"cebpf4jnsgd1na2vs0mg"},{"bike_id":"af5fa79d-8811-4686-8049-d071aab460e7","system_id":"levelo_inurba_marseille","lat":43.28662,"lon":5.36354,"is_reserved":false,"is_disabled":false,"rental_uris":{"android":"levelo://app?vid=af5fa79d-8811-4686-8049-d071aab460e7","ios":"levelo://app?vid=af5fa79d-8811-4686-8049-d071aab460e7"},"vehicle_type_id":"4","last_reported":1732230550,"current_range_meters":38800,"station_id":"ce4bhah2rcd13ifvqej0","pricing_plan_id":"cebpf4jnsgd1na2vs0mg"},{"bike_id":"03bc7832-c86f-4b1a-bfc3-78c4b3d4e808","system_id":"levelo_inurba_marseille","lat":43.31481,"lon":5.37307,"is_reserved":false,"is_disabled":false,"rental_uris":{"android":"levelo://app?vid=03bc7832-c86f-4b1a-bfc3-78c4b3d4e808","ios":"levelo://app?vid=03bc7832-c86f-4b1a-bfc3-78c4b3d4e808"},"vehicle_type_id":"4","last_reported":1732230550,"current_range_meters":24400,"station_id":"ce4bgt12rcd13ifvqcd0","pricing_plan_id":"cebpf4jnsgd1na2vs0mg"},{"bike_id":"d3e34764-2e94-4f7a-939f-42015a1a467c","system_id":"levelo_inurba_marseille","lat":43.28938,"lon":5.39621,"is_reserved":false,"is_disabled":false,"rental_uris":{"android":"levelo://app?vid=d3e34764-2e94-4f7a-939f-42015a1a467c","ios":"levelo://app?vid=d3e34764-2e94-4f7a-939f-42015a1a467c"},"vehicle_type_id":"4","last_reported":1732230550,"current_range_meters":28800,"station_id":"ce4bh3h2rcd13ifvqdn0","pricing_plan_id":"cebpf4jnsgd1na2vs0mg"},{"bike_id":"6a9c5bb1-a14b-4355-b199-4a65364f214b","system_id":"levelo_inurba_marseille","lat":43.30883,"lon":5.3964,"is_reserved":false,"is_disabled":false,"rental_uris":{"android":"levelo://app?vid=6a9c5bb1-a14b-4355-b199-4a65364f214b","ios":"levelo://app?vid=6a9c5bb1-a14b-4355-b199-4a65364f214b"},"vehicle_type_id":"4","last_reported":1732230550,"current_range_meters":8400,"station_id":"ce4bh012rcd13ifvqcv0","pricing_plan_id":"cebpf4jnsgd1na2vs0mg"},{"bike_id":"0e294447-d1f0-4aa5-8953-b25c2c8f8eef","system_id":"levelo_inurba_marseille","lat":43.30142,"lon":5.38077,"is_reserved":false,"is_disabled":false,"rental_uris":{"android":"levelo://app?vid=0e294447-d1f0-4aa5-8953-b25c2c8f8eef","ios":"levelo://app?vid=0e294447-d1f0-4aa5-8953-b25c2c8f8eef"},"vehicle_type_id":"4","last_reported":1732230550,"current_range_meters":24000,"station_id":"ce4bgjp2rcd13ifvqbh0","pricing_plan_id":"cebpf4jnsgd1na2vs0mg"},{"bike_id":"0aeb214c-fde7-45c8-b020-03be17efcbb9","system_id":"levelo_inurba_marseille","lat":43.33028,"lon":5.39039,"is_reserved":false,"is_disabled":false,"rental_uris":{"android":"levelo://app?vid=0aeb214c-fde7-45c8-b020-03be17efcbb9","ios":"levelo://app?vid=0aeb214c-fde7-45c8-b020-03be17efcbb9"},"vehicle_type_id":"4","last_reported":1732230550,"current_range_meters":27200,"station_id":"ce4bhr92rcd13ifvqhrg","pricing_plan_id":"cebpf4jnsgd1na2vs0mg"},{"bike_id":"796dac1e-b92c-478b-8572-8a73fdc202b8","system_id":"levelo_inurba_marseille","lat":43.24264,"lon":5.37961,"is_reserved":false,"is_disabled":true,"rental_uris":{"android":"levelo://app?vid=796dac1e-b92c-478b-8572-8a73fdc202b8","ios":"levelo://app?vid=796dac1e-b92c-478b-8572-8a73fdc202b8"},"vehicle_type_id":"4","last_reported":1732230550,"current_range_meters":0,"station_id":"","pricing_plan_id":"cebpf4jnsgd1na2vs0mg"},{"bike_id":"e4ce58e6-3ad4-4dde-bd59-a2f2190128c5","system_id":"levelo_inurba_marseille","lat":43.31719,"lon":5.4239,"is_reserved":false,"is_disabled":false,"rental_uris":{"android":"levelo://app?vid=e4ce58e6-3ad4-4dde-bd59-a2f2190128c5","ios":"levelo://app?vid=e4ce58e6-3ad4-4dde-bd59-a2f2190128c5"},"vehicle_type_id":"4","last_reported":1732230550,"current_range_meters":22400,"station_id":"ce4bhp92rcd13ifvqhbg","pricing_plan_id":"cebpf4jnsgd1na2vs0mg"},{"bike_id":"e4e3495c-9d93-4eff-a4ab-712e0ae01181","system_id":"levelo_inurba_marseille","lat":43.26568,"lon":5.39012,"is_reserved":false,"is_disabled":false,"rental_uris":{"android":"levelo://app?vid=e4e3495c-9d93-4eff-a4ab-712e0ae01181","ios":"levelo://app?vid=e4e3495c-9d93-4eff-a4ab-712e0ae01181"},"vehicle_type_id":"4","last_reported":1732230550,"current_range_meters":38800,"station_id":"ce4bhe12rcd13ifvqf30","pricing_plan_id":"cebpf4jnsgd1na2vs0mg"},{"bike_id":"c67ba2ea-e78b-4061-a9b7-2bf6322c0813","system_id":"levelo_inurba_marseille","lat":43.26487,"lon":5.395332,"is_reserved":false,"is_disabled":false,"rental_uris":{"android":"levelo://app?vid=c67ba2ea-e78b-4061-a9b7-2bf6322c0813","ios":"levelo://app?vid=c67ba2ea-e78b-4061-a9b7-2bf6322c0813"},"vehicle_type_id":"4","last_reported":1732230550,"current_range_meters":38000,"station_id":"ce4bhi12rcd13ifvqfq0","pricing_plan_id":"cebpf4jnsgd1na2vs0mg"},{"bike_id":"d293b19b-b815-422b-9263-cae9f1348ca7","system_id":"levelo_inurba_marseille","lat":43.298007,"lon":5.403997,"is_reserved":false,"is_disabled":false,"rental_uris":{"android":"levelo://app?vid=d293b19b-b815-422b-9263-cae9f1348ca7","ios":"levelo://app?vid=d293b19b-b815-422b-9263-cae9f1348ca7"},"vehicle_type_id":"4","last_reported":1732230550,"current_range_meters":38800,"station_id":"ce4bh112rcd13ifvqd90","pricing_plan_id":"cebpf4jnsgd1na2vs0mg"},{"bike_id":"4651a46c-e15e-429a-8d6a-c6d2319a15b4","system_id":"levelo_inurba_marseille","lat":43.29631,"lon":5.40599,"is_reserved":false,"is_disabled":false,"rental_uris":{"android":"levelo://app?vid=4651a46c-e15e-429a-8d6a-c6d2319a15b4","ios":"levelo://app?vid=4651a46c-e15e-429a-8d6a-c6d2319a15b4"},"vehicle_type_id":"4","last_reported":1732230550,"current_range_meters":35200,"station_id":"ce4bh0h2rcd13ifvqd60","pricing_plan_id":"cebpf4jnsgd1na2vs0mg"},{"bike_id":"6a79eb55-4814-47f2-b781-0c326c3b2dd9","system_id":"levelo_inurba_marseille","lat":43.29781,"lon":5.3709,"is_reserved":false,"is_disabled":false,"rental_uris":{"android":"levelo://app?vid=6a79eb55-4814-47f2-b781-0c326c3b2dd9","ios":"levelo://app?vid=6a79eb55-4814-47f2-b781-0c326c3b2dd9"},"vehicle_type_id":"4","last_reported":1732230550,"current_range_meters":38800,"station_id":"ce4bgop2rcd13ifvqc1g","pricing_plan_id":"cebpf4jnsgd1na2vs0mg"},{"bike_id":"e5951ee3-4a5a-4ebb-b469-096c5188dfa3","system_id":"levelo_inurba_marseille","lat":43.23192,"lon":5.35556,"is_reserved":false,"is_disabled":false,"rental_uris":{"android":"levelo://app?vid=e5951ee3-4a5a-4ebb-b469-096c5188dfa3","ios":"levelo://app?vid=e5951ee3-4a5a-4ebb-b469-096c5188dfa3"},"vehicle_type_id":"4","last_reported":1732230550,"current_range_meters":32000,"station_id":"ce4bhu92rcd13ifvqi70","pricing_plan_id":"cebpf4jnsgd1na2vs0mg"},{"bike_id":"541f6f56-903d-491c-af80-83443f79e57e","system_id":"levelo_inurba_marseille","lat":43.27831,"lon":5.39208,"is_reserved":false,"is_disabled":false,"rental_uris":{"android":"levelo://app?vid=541f6f56-903d-491c-af80-83443f79e57e","ios":"levelo://app?vid=541f6f56-903d-491c-af80-83443f79e57e"},"vehicle_type_id":"4","last_reported":1732230550,"current_range_meters":39200,"station_id":"ce4bhjp2rcd13ifvqga0","pricing_plan_id":"cebpf4jnsgd1na2vs0mg"},