{"last_updated":1747674553,"ttl":60,"version":"2.2","data":{"bikes":[{"bike_id":"c0b9fd4f-e181-46ce-b0bf-f5119973334f","system_id":"levelo_inurba_marseille","lat":43.33771,"lon":5.37424,"is_reserved":false,"is_disabled":true,"rental_uris":{"android":"levelo://app?vid=c0b9fd4f-e181-46ce-b0bf-f5119973334f","ios":"levelo://app?vid=c0b9fd4f-e181-46ce-b0bf-f5119973334f"},"vehicle_type_id":"4","last_reported":1747674553,"current_range_meters":0,"station_id":"","pricing_plan_id":"cebpf4jnsgd1na2vs0mg"},{"bike_id":"25b4f69a-1726-4c58-a89d-ca45327456b0","system_id":"levelo_inurba_marseille","lat":43.27281,"lon":5.36266,"is_reserved":false,"is_disabled":true,"rental_uris":{"android":"levelo://app?vid=25b4f69a-1726-4c58-a89d-ca45327456b0","ios":"levelo://app?vid=25b4f69a-1726-4c58-a89d-ca45327456b0"},"vehicle_type_id":"4","last_reported":1747674553,"current_range_meters":0,"station_id":"","pricing_plan_id":"cebpf4jnsgd1na2vs0mg"},{"bike_id":"fc2577e7-1497-425b-9d4f-ab8d7dc843c6","system_id":"levelo_inurba_marseille","lat":43.33771,"lon":5.37485,"is_reserved":false,"is_disabled":true,"rental_uris":{"android":"levelo://app?vid=fc2577e7-1497-425b-9d4f-ab8d7dc843c6","ios":"levelo://app?vid=fc2577e7-1497-425b-9d4f-ab8d7dc843c6"},"vehicle_type_id":"4","last_reported":1747674553,"current_range_meters":0,"station_id":"","pricing_plan_id":"cebpf4jnsgd1na2vs0mg"},{"bike_id":"522a6fa9-3b0f-41ae-92d4-659155b9e6e8","system_id":"levelo_inurba_marseille","lat":43.239272,"lon":5.36185,"is_reserved":false,"is_disabled":true,"rental_uris":{"android":"levelo://app?vid=522a6fa9-3b0f-41ae-92d4-659155b9e6e8","ios":"levelo://app?vid=522a6fa9-3b0f-41ae-92d4-659155b9e6e8"},"vehicle_type_id":"4","last_reported":1747674553,"current_range_meters":0,"station_id":"","pricing_plan_id":"cebpf4jnsgd1na2vs0mg"},{"bike_id":"8f3685e3-183d-4c98-9513-bfeeb8fbc041","system_id":"levelo_inurba_marseille","lat":43.27948,"lon":5.41231,"is_reserved":false,"is_disabled":true,"rental_uris":{"android":"levelo://app?vid=8f3685e3-183d-4c98-9513-bfeeb8fbc041","ios":"levelo://app?vid=8f3685e3-183d-4c98-9513-bfeeb8fbc041"},"vehicle_type_id":"4","last_reported":1747674553,"current_range_meters":0,"station_id":"","pricing_plan_id":"cebpf4jnsgd1na2vs0mg"},{"bike_id":"54255574-d73a-48d1-85ed-ee6fbfc41d57","system_id":"levelo_inurba_marseille","lat":43.264128,"lon":5.373492,"is_reserved":false,"is_disabled":true,"rental_uris":{"android":"levelo://app?vid=54255574-d73a-48d1-85ed-ee6fbfc41d57","ios":"levelo://app?vid=54255574-d73a-48d1-85ed-ee6fbfc41d57"},"vehicle_type_id":"4","last_reported":1747674553,"current_range_meters":0,"station_id":"","pricing_plan_id":"cebpf4jnsgd1na2vs0mg"},{"bike_id":"80b49949-2015-46f6-95ad-3d3616eb898e","system_id":"levelo_inurba_marseille","lat":43.33768,"lon":5.37448,"is_reserved":false,"is_disabled":true,"rental_uris":{"android":"levelo://app?vid=80b49949-2015-46f6-95ad-3d3616eb898e","ios":"levelo://app?vid=80b49949-2015-46f6-95ad-3d3616eb898e"},"vehicle_type_id":"4","last_reported":1747674553,"current_range_meters":0,"station_id":"","pricing_plan_id":"cebpf4jnsgd1na2vs0mg"},{"bike_id":"e17c1131-0312-4553-b6a7-29309a16f639","system_id":"levelo_inurba_marseille","lat":43.292607,"lon":5.384422,"is_reserved":false,"is_disabled":true,"rental_uris":{"android":"levelo://app?vid=e17c1131-0312-4553-b6a7-29309a16f639","ios":"levelo://app?vid=e17c1131-0312-4553-b6a7-29309a16f639"},"vehicle_type_id":"4","last_reported":1747674553,"current_range_meters":0,"station_id":"","pricing_plan_id":"cebpf4jnsgd1na2vs0mg"},{"bike_id":"e9dd3aa4-b5e7-4480-926d-d7f537719bfa","system_id":"levelo_inurba_marseille","lat":43.23032,"lon":5.40195,"is_reserved":false,"is_disabled":true,"rental_uris":{"android":"levelo://app?vid=e9dd3aa4-b5e7-4480-926d-d7f537719bfa","ios":"levelo://app?vid=e9dd3aa4-b5e7-4480-926d-d7f537719bfa"},"vehicle_type_id":"4","last_reported":1747674553,"current_range_meters":0,"station_id":"","pricing_plan_id":"cebpf4jnsgd1na2vs0mg"},{"bike_id":"5e2c7bf6-12f7-4d7a-898c-ca02aded867c","system_id":"levelo_inurba_marseille","lat":43.31681,"lon":5.40467,"is_reserved":false,"is_disabled":true,"rental_uris":{"android":"levelo://app?vid=5e2c7bf6-12f7-4d7a-898c-ca02aded867c","ios":"levelo://app?vid=5e2c7bf6-12f7-4d7a-898c-ca02aded867c"},"vehicle_type_id":"4","last_reported":1747674553,"current_range_meters":0,"station_id":"ce4bh012rcd13ifvqd00","pricing_plan_id":"cebpf4jnsgd1na2vs0mg"},{"bike_id":"d19c5ce2-4b0b-416c-8245-5e627166315d","system_id":"levelo_inurba_marseille","lat":43.29519,"lon":5.39033,"is_reserved":false,"is_disabled":true,"rental_uris":{"android":"levelo://app?vid=d19c5ce2-4b0b-416c-8245-5e627166315d","ios":"levelo://app?vid=d19c5ce2-4b0b-416c-8245-5e627166315d"},"vehicle_type_id":"4","last_reported":1747674553,"current_range_meters":0,"station_id":"ce4bh3p2rcd13ifvqdp0","pricing_plan_id":"cebpf4jnsgd1na2vs0mg"},{"bike_id":"a27a2c1d-43d0-4cc1-b926-2d12b63db4fb","system_id":"levelo_inurba_marseille","lat":43.28929,"lon":5.36641,"is_reserved":false,"is_disabled":true,"rental_uris":{"android":"levelo://app?vid=a27a2c1d-43d0-4cc1-b926-2d12b63db4fb","ios":"levelo://app?vid=a27a2c1d-43d0-4cc1-b926-2d12b63db4fb"},"vehicle_type_id":"4","last_reported":1747674553,"current_range_meters":0,"station_id":"ce4bhap2rcd13ifvqek0","pricing_plan_id":"cebpf4jnsgd1na2vs0mg"},{"bike_id":"c8f85c0b-d3af-49be-8638-f8973d0f49ba","system_id":"levelo_inurba_marseille","lat":43.292004,"lon":5.358047,"is_reserved":false,"is_disabled":true,"rental_uris":{"android":"levelo://app?vid=c8f85c0b-d3af-49be-8638-f8973d0f49ba","ios":"levelo://app?vid=c8f85c0b-d3af-49be-8638-f8973d0f49ba"},"vehicle_type_id":"4","last_reported":1747674553,"current_range_meters":0,"station_id":"ce4bhb12rcd13ifvqel0","pricing_plan_id":"cebpf4jnsgd1na2vs0mg"},{"bike_id":"eb14e4c2-e53d-4003-8733-7327662db336","system_id":"levelo_inurba_marseille","lat":43.29223,"lon":5.3606,"is_reserved":false,"is_disabled":true,"rental_uris":{"android":"levelo://app?vid=eb14e4c2-e53d-4003-8733-7327662db336","ios":"levelo://app?vid=eb14e4c2-e53d-4003-8733-7327662db336"},"vehicle_type_id":"4","last_reported":1747674553,"current_range_meters":0,"station_id":"ce4bhbh2rcd13ifvqeqg","pricing_plan_id":"cebpf4jnsgd1na2vs0mg"},{"bike_id":"d52b909f-f062-4f8d-b9be-56ca85d5fdf3","system_id":"levelo_inurba_marseille","lat":43.28615,"lon":5.35105,"is_reserved":false,"is_disabled":true,"rental_uris":{"android":"levelo://app?vid=d52b909f-f062-4f8d-b9be-56ca85d5fdf3","ios":"levelo://app?vid=d52b909f-f062-4f8d-b9be-56ca85d5fdf3"},"vehicle_type_id":"4","last_reported":1747674553,"current_range_meters":0,"station_id":"ce4bhch2rcd13ifvqeug","pricing_plan_id":"cebpf4jnsgd1na2vs0mg"},{"bike_id":"29859f8a-2ac1-4176-8f57-108fef25a108","system_id":"levelo_inurba_marseille","lat":43.26061,"lon":5.394,"is_reserved":false,"is_disabled":true,"rental_uris":{"android":"levelo://app?vid=29859f8a-2ac1-4176-8f57-108fef25a108","ios":"levelo://app?vid=29859f8a-2ac1-4176-8f57-108fef25a108"},"vehicle_type_id":"4","last_reported":1747674553,"current_range_meters":0,"station_id":"ce4bhh92rcd13ifvqfj0","pricing_plan_id":"cebpf4jnsgd1na2vs0mg"},{"bike_id":"2651ad8e-f34d-40a4-b9f7-3730c8166020","system_id":"levelo_inurba_marseille","lat":43.25579,"lon":5.38227,"is_reserved":false,"is_disabled":true,"rental_uris":{"android":"levelo://app?vid=2651ad8e-f34d-40a4-b9f7-3730c8166020","ios":"levelo://app?vid=2651ad8e-f34d-40a4-b9f7-3730c8166020"},"vehicle_type_id":"4","last_reported":1747674553,"current_range_meters":0,"station_id":"ce4bhih2rcd13ifvqfs0","pricing_plan_id":"cebpf4jnsgd1na2vs0mg"},{"bike_id":"f761e2fe-13c6-4665-9b43-79b71fa6f275","system_id":"levelo_inurba_marseille","lat":43.27833,"lon":5.39209,"is_reserved":false,"is_disabled":true,"rental_uris":{"android":"levelo://app?vid=f761e2fe-13c6-4665-9b43-79b71fa6f275","ios":"levelo://app?vid=f761e2fe-13c6-4665-9b43-79b71fa6f275"},"vehicle_type_id":"4","last_reported":1747674553,"current_range_meters":0,"station_id":"ce4bhjp2rcd13ifvqga0","pricing_plan_id":"cebpf4jnsgd1na2vs0mg"},{"bike_id":"e6705cab-7d0a-4769-af92-2a1502f18da3","system_id":"levelo_inurba_marseille","lat":43.2511,"lon":5.4032,"is_reserved":false,"is_disabled":true,"rental_uris":{"android":"levelo://app?vid=e6705cab-7d0a-4769-af92-2a1502f18da3","ios":"levelo://app?vid=e6705cab-7d0a-4769-af92-2a1502f18da3"},"vehicle_type_id":"4","last_reported":1747674553,"current_range_meters":0,"station_id":"ce4bhlh2rcd13ifvqgig","pricing_plan_id":"cebpf4jnsgd1na2vs0mg"},{"bike_id":"cf03af0f-df68-4807-b323-d7a893e061c8","system_id":"levelo_inurba_marseille","lat":43.25111,"lon":5.40317,"is_reserved":false,"is_disabled":true,"rental_uris":{"android":"levelo://app?vid=cf03af0f-df68-4807-b323-d7a893e061c8","ios":"levelo://app?vid=cf03af0f-df68-4807-b323-d7a893e061c8"},"vehicle_type_id":"4","last_reported":1747674553,"current_range_meters":0,"station_id":"ce4bhlh2rcd13ifvqgig","pricing_plan_id":"cebpf4jnsgd1na2vs0mg"},{"bike_id":"cabc3ba3-d79c-44f0-b71f-3932a2db2e48","system_id":"levelo_inurba_marseille","lat":43.231519,"lon":5.437137,"is_reserved":false,"is_disabled":true,"rental_uris":{"android":"levelo://app?vid=cabc3ba3-d79c-44f0-b71f-3932a2db2e48","ios":"levelo://app?vid=cabc3ba3-d79c-44f0-b71f-3932a2db2e48"},"vehicle_type_id":"4","last_reported":1747674553,"current_range_meters":0,"station_id":"ce4bhmp2rcd13ifvqgog","pricing_plan_id":"cebpf4jnsgd1na2vs0mg"},{"bike_id":"fe3186e2-9fe5-4228-a6f6-0d97100efe96","system_id":"levelo_inurba_marseille","lat":43.21749,"lon":5.34599,"is_reserved":false,"is_disabled":true,"rental_uris":{"android":"levelo://app?vid=fe3186e2-9fe5-4228-a6f6-0d97100efe96","ios":"levelo://app?vid=fe3186e2-9fe5-4228-a6f6-0d97100efe96"},"vehicle_type_id":"4","last_reported":1747674553,"current_range_meters":0,"station_id":"st_cvj6r9ubvosntc0bgbag","pricing_plan_id":"cebpf4jnsgd1na2vs0mg"},{"bike_id":"6985b769-f9ff-46c0-94cb-903602d08ef6","system_id":"levelo_inurba_marseille","lat":43.29037,"lon":5.38149,"is_reserved":false,"is_disabled":true,"rental_uris":{"android":"levelo://app?vid=6985b769-f9ff-46c0-94cb-903602d08ef6","ios":"levelo://app?vid=6985b769-f9ff-46c0-94cb-903602d08ef6"},"vehicle_type_id":"4","last_reported":1747674553,"current_range_meters":400,"station_id":"","pricing_plan_id":"cebpf4jnsgd1na2vs0mg"},{"bike_id":"87dddb43-e14d-4211-a2c5-e788c5296776","system_id":"levelo_inurba_marseille","lat":43.2175,"lon":5.346,"is_reserved":false,"is_disabled":true,"rental_uris":{"android":"levelo://app?vid=87dddb43-e14d-4211-a2c5-e788c5296776","ios":"levelo://app?vid=87dddb43-e14d-4211-a2c5-e788c5296776"},"vehicle_type_id":"4","last_reported":1747674553,"current_range_meters":400,"station_id":"","pricing_plan_id":"cebpf4jnsgd1na2vs0mg"},{"bike_id":"e3675072-d8d5-480f-a403-44966076c254","system_id":"levelo_inurba_marseille","lat":43.30589,"lon":5.39365,"is_reserved":false,"is_disabled":true,"rental_uris":{"android":"levelo://app?vid=e3675072-d8d5-480f-a403-44966076c254","ios":"levelo://app?vid=e3675072-d8d5-480f-a403-44966076c254"},"vehicle_type_id":"4","last_reported":1747674553,"current_range_meters":400,"station_id":"ce4bh0p2rcd13ifvqd80","pricing_plan_id":"cebpf4jnsgd1na2vs0mg"},{"bike_id":"73306b91-810f-4a7b-bd8c-ecbc9fd3bc7b","system_id":"levelo_inurba_marseille","lat":43.25102,"lon":5.40326,"is_reserved":false,"is_disabled":true,"rental_uris":{"android":"levelo://app?vid=73306b91-810f-4a7b-bd8c-ecbc9fd3bc7b","ios":"levelo://app?vid=73306b91-810f-4a7b-bd8c-ecbc9fd3bc7b"},"vehicle_type_id":"4","last_reported":1747674553,"current_range_meters":400,"station_id":"ce4bhlh2rcd13ifvqgig","pricing_plan_id":"cebpf4jnsgd1na2vs0mg"},{"bike_id":"58542bbc-626a-4cda-9db3-5a8269dc9f7b","system_id":"levelo_inurba_marseille","lat":43.25109,"lon":5.40316,"is_reserved":false,"is_disabled":true,"rental_uris":{"android":"levelo://app?vid=58542bbc-626a-4cda-9db3-5a8269dc9f7b","ios":"levelo://app?vid=58542bbc-626a-4cda-9db3-5a8269dc9f7b"},"vehicle_type_id":"4","last_reported":1747674553,"current_range_meters":400,"station_id":"ce4bhlh2rcd13ifvqgig","pricing_plan_id":"cebpf4jnsgd1na2vs0mg"},{"bike_id":"b371c7f4-1159-4fd3-9b0d-e8c8fbe981bb","system_id":"levelo_inurba_marseille","lat":43.25099,"lon":5.40334,"is_reserved":false,"is_disabled":true,"rental_uris":{"android":"levelo://app?vid=b371c7f4-1159-4fd3-9b0d-e8c8fbe981bb","ios":"levelo://app?vid=b371c7f4-1159-4fd3-9b0d-e8c8fbe981bb"},"vehicle_type_id":"4","last_reported":1747674553,"current_range_meters":400,"station_id":"ce4bhlh2rcd13ifvqgig","pricing_plan_id":"cebpf4jnsgd1na2vs0mg"},{"bike_id":"00f4fafd-b91e-4643-be3d-5d2f715443e7","system_id":"levelo_inurba_marseille","lat":43.29795,"lon":5.40401,"is_reserved":false,"is_disabled":true,"rental_uris":{"android":"levelo://app?vid=00f4fafd-b91e-4643-be3d-5d2f715443e7","ios":"levelo://app?vid=00f4fafd-b91e-4643-be3d-5d2f715443e7"},"vehicle_type_id":"4","last_reported":1747674553,"current_range_meters":800,"station_id":"ce4bh112rcd13ifvqd90","pricing_plan_id":"cebpf4jnsgd1na2vs0mg"},{"bike_id":"ffda14b9-5cf8-491b-8ce5-832acadf1c83","system_id":"levelo_inurba_marseille","lat":43.271728,"lon":5.40995,"is_reserved":false,"is_disabled":true,"rental_uris":{"android":"levelo://app?vid=ffda14b9-5cf8-491b-8ce5-832acadf1c83","ios":"levelo://app?vid=ffda14b9-5cf8-491b-8ce5-832acadf1c83"},"vehicle_type_id":"4","last_reported":1747674553,"current_range_meters":800,"station_id":"ce4bhl12rcd13ifvqgf0","pricing_plan_id":"cebpf4jnsgd1na2vs0mg"},{"bike_id":"f209436c-cf03-43e8-877d-9b828e8b2287","system_id":"levelo_inurba_marseille","lat":43.25118,"lon":5.40314,"is_reserved":false,"is_disabled":true,"rental_uris":{"android":"levelo://app?vid=f209436c-cf03-43e8-877d-9b828e8b2287","ios":"levelo://app?vid=f209436c-cf03-43e8-877d-9b828e8b2287"},"vehicle_type_id":"4","last_reported":1747674553,"current_range_meters":800,"station_id":"ce4bhlh2rcd13ifvqgig","pricing_plan_id":"cebpf4jnsgd1na2vs0mg"},{"bike_id":"252dba7f-9bbd-48d2-a90d-e1c85b5e3d0c","system_id":"levelo_inurba_marseille","lat":43.26567,"lon":5.40325,"is_reserved":false,"is_disabled":true,"rental_uris":{"android":"levelo://app?vid=252dba7f-9bbd-48d2-a90d-e1c85b5e3d0c","ios":"levelo://app?vid=252dba7f-9bbd-48d2-a90d-e1c85b5e3d0c"},"vehicle_type_id":"4","last_reported":1747674553,"current_range_meters":1200,"station_id":"","pricing_plan_id":"cebpf4jnsgd1na2vs0mg"},{"bike_id":"80f847bd-3e8e-48fc-9aa4-4c016d2a0c83","system_id":"levelo_inurba_marseille","lat":43.28727,"lon":5.37954,"is_reserved":false,"is_disabled":true,"rental_uris":{"android":"levelo://app?vid=80f847bd-3e8e-48fc-9aa4-4c016d2a0c83","ios":"levelo://app?vid=80f847bd-3e8e-48fc-9aa4-4c016d2a0c83"},"vehicle_type_id":"4","last_reported":1747674553,"current_range_meters":1200,"station_id":"ce4bh9p2rcd13ifvqec0","pricing_plan_id":"cebpf4jnsgd1na2vs0mg"},{"bike_id":"e8715d36-dc84-44f2-a5a0-8e13e3251236","system_id":"levelo_inurba_marseille","lat":43.27686,"lon":5.38908,"is_reserved":false,"is_disabled":true,"rental_uris":{"android":"levelo://app?vid=e8715d36-dc84-44f2-a5a0-8e13e3251236","ios":"levelo://app?vid=e8715d36-dc84-44f2-a5a0-8e13e3251236"},"vehicle_type_id":"4","last_reported":1747674553,"current_range_meters":1200,"station_id":"ce4bhi12rcd13ifvqfo0","pricing_plan_id":"cebpf4jnsgd1na2vs0mg"},{"bike_id":"06c4f154-95ef-407e-9a51-8935b179df2f","system_id":"levelo_inurba_marseille","lat":43.25119,"lon":5.40315,"is_reserved":false,"is_disabled":true,"rental_uris":{"android":"levelo://app?vid=06c4f154-95ef-407e-9a51-8935b179df2f","ios":"levelo://app?vid=06c4f154-95ef-407e-9a51-8935b179df2f"},"vehicle_type_id":"4","last_reported":1747674553,"current_range_meters":1200,"station_id":"ce4bhlh2rcd13ifvqgig","pricing_plan_id":"cebpf4jnsgd1na2vs0mg"},{"bike_id":"532abca0-2075-4222-a61a-9761e6008d5c","system_id":"levelo_inurba_marseille","lat":43.30433,"lon":5.38893,"is_reserved":false,"is_disabled":true,"rental_uris":{"android":"levelo://app?vid=532abca0-2075-4222-a61a-9761e6008d5c","ios":"levelo://app?vid=532abca0-2075-4222-a61a-9761e6008d5c"},"vehicle_type_id":"4","last_reported":1747674553,"current_range_meters":1600,"station_id":"ce4bgk12rcd13ifvqbi0","pricing_plan_id":"cebpf4jnsgd1na2vs0mg"},{"bike_id":"c41d9fa0-7268-449e-a51b-6f5672c95346","system_id":"levelo_inurba_marseille","lat":43.30297,"lon":5.39215,"is_reserved":false,"is_disabled":true,"rental_uris":{"android":"levelo://app?vid=c41d9fa0-7268-449e-a51b-6f5672c95346","ios":"levelo://app?vid=c41d9fa0-7268-449e-a51b-6f5672c95346"},"vehicle_type_id":"4","last_reported":1747674553,"current_range_meters":1600,"station_id":"ce4bgkh2rcd13ifvqbk0","pricing_plan_id":"cebpf4jnsgd1na2vs0mg"},{"bike_id":"0246f6a4-02c0-4008-adad-e789c9516ea9","system_id":"levelo_inurba_marseille","lat":43.28675,"lon":5.38661,"is_reserved":false,"is_disabled":true,"rental_uris":{"android":"levelo://app?vid=0246f6a4-02c0-4008-adad-e789c9516ea9","ios":"levelo://app?vid=0246f6a4-02c0-4008-adad-e789c9516ea9"},"vehicle_type_id":"4","last_reported":1747674553,"current_range_meters":1600,"station_id":"ce4bh492rcd13ifvqdug","pricing_plan_id":"cebpf4jnsgd1na2vs0mg"},{"bike_id":"4f5b828d-ac12-4c7f-9ce7-4156c1082d25","system_id":"levelo_inurba_marseille","lat":43.28474,"lon":5.38423,"is_reserved":false,"is_disabled":true,"rental_uris":{"android":"levelo://app?vid=4f5b828d-ac12-4c7f-9ce7-4156c1082d25","ios":"levelo://app?vid=4f5b828d-ac12-4c7f-9ce7-4156c1082d25"},"vehicle_type_id":"4","last_reported":1747674553,"current_range_meters":2000,"station_id":"ce4bh512rcd13ifvqe3g","pricing_plan_id":"cebpf4jnsgd1na2vs0mg"},{"bike_id":"b495aa1c-b8ef-4278-9ee3-c40491983a62","system_id":"levelo_inurba_marseille","lat":43.28615,"lon":5.351,"is_reserved":false,"is_disabled":true,"rental_uris":{"android":"levelo://app?vid=b495aa1c-b8ef-4278-9ee3-c40491983a62","ios":"levelo://app?vid=b495aa1c-b8ef-4278-9ee3-c40491983a62"},"vehicle_type_id":"4","last_reported":1747674553,"current_range_meters":2000,"station_id":"ce4bhch2rcd13ifvqeug","pricing_plan_id":"cebpf4jnsgd1na2vs0mg"},{"bike_id":"07ea78aa-c396-4148-89bb-4c5f478082fb","system_id":"levelo_inurba_marseille","lat":43.26782,"lon":5.39415,"is_reserved":false,"is_disabled":true,"rental_uris":{"android":"levelo://app?vid=07ea78aa-c396-4148-89bb-4c5f478082fb","ios":"levelo://app?vid=07ea78aa-c396-4148-89bb-4c5f478082fb"},"vehicle_type_id":"4","last_reported":1747674553,"current_range_meters":2000,"station_id":"ce4bhh12rcd13ifvqfg0","pricing_plan_id":"cebpf4jnsgd1na2vs0mg"},{"bike_id":"08b6d844-e3ae-44bf-92d2-6f4278efd146","system_id":"levelo_inurba_marseille","lat":43.28001,"lon":5.40004,"is_reserved":false,"is_disabled":true,"rental_uris":{"android":"levelo://app?vid=08b6d844-e3ae-44bf-92d2-6f4278efd146","ios":"levelo://app?vid=08b6d844-e3ae-44bf-92d2-6f4278efd146"},"vehicle_type_id":"4","last_reported":1747674553,"current_range_meters":2000,"station_id":"ce4bho92rcd13ifvqh4g","pricing_plan_id":"cebpf4jnsgd1na2vs0mg"},{"bike_id":"4d047d95-2ecf-474e-b131-04ed80afe329","system_id":"levelo_inurba_marseille","lat":43.276825,"lon":6.12066,"is_reserved":false,"is_disabled":false,"rental_uris":{"android":"levelo://app?vid=4d047d95-2ecf-474e-b131-04ed80afe329","ios":"levelo://app?vid=4d047d95-2ecf-474e-b131-04ed80afe329"},"vehicle_type_id":"4","last_reported":1747674553,"current_range_meters":2800,"station_id":"ce4bh412rcd13ifvqdr0","pricing_plan_id":"cebpf4jnsgd1na2vs0mg"},{"bike_id":"98f7a848-8b02-407d-8f22-ef936f21bb92","system_id":"levelo_inurba_marseille","lat":43.28353,"lon":5.38114,"is_reserved":false,"is_disabled":false,"rental_uris":{"android":"levelo://app?vid=98f7a848-8b02-407d-8f22-ef936f21bb92","ios":"levelo://app?vid=98f7a848-8b02-407d-8f22-ef936f21bb92"},"vehicle_type_id":"4","last_reported":1747674553,"current_range_meters":2800,"station_id":"ce4bh412rcd13ifvqdr0","pricing_plan_id":"cebpf4jnsgd1na2vs0mg"},{"bike_id":"5f969978-f2f1-4db8-9b76-408fd4f1e758","system_id":"levelo_inurba_marseille","lat":43.28726,"lon":5.37952,"is_reserved":false,"is_disabled":false,"rental_uris":{"android":"levelo://app?vid=5f969978-f2f1-4db8-9b76-408fd4f1e758","ios":"levelo://app?vid=5f969978-f2f1-4db8-9b76-408fd4f1e758"},"vehicle_type_id":"4","last_reported":1747674553,"current_range_meters":2800,"station_id":"ce4bh9p2rcd13ifvqec0","pricing_plan_id":"cebpf4jnsgd1na2vs0mg"},{"bike_id":"11df1229-a6f0-4193-82a1-eeeb8d9b3fff","system_id":"levelo_inurba_marseille","lat":43.23172,"lon":5.39985,"is_reserved":false,"is_disabled":false,"rental_uris":{"android":"levelo://app?vid=11df1229-a6f0-4193-82a1-eeeb8d9b3fff","ios":"levelo://app?vid=11df1229-a6f0-4193-82a1-eeeb8d9b3fff"},"vehicle_type_id":"4","last_reported":1747674553,"current_range_meters":2800,"station_id":"ce4bhn12rcd13ifvqgqg","pricing_plan_id":"cebpf4jnsgd1na2vs0mg"},{"bike_id":"8cbc27df-9094-447d-9cf8-2117f97d4a1b","system_id":"levelo_inurba_marseille","lat":43.30141,"lon":5.38771,"is_reserved":false,"is_disabled":false,"rental_uris":{"android":"levelo://app?vid=8cbc27df-9094-447d-9cf8-2117f97d4a1b","ios":"levelo://app?vid=8cbc27df-9094-447d-9cf8-2117f97d4a1b"},"vehicle_type_id":"4","last_reported":1747674553,"current_range_meters":3200,"station_id":"ce4bghh2rcd13ifvqb60","pricing_plan_id":"cebpf4jnsgd1na2vs0mg"},{"bike_id":"14fb2f21-ca9d-4015-8892-14d38fbd1cf3","system_id":"levelo_inurba_marseille","lat":43.28264,"lon":5.35065,"is_reserved":false,"is_disabled":false,"rental_uris":{"android":"levelo://app?vid=14fb2f21-ca9d-4015-8892-14d38fbd1cf3","ios":"levelo://app?vid=14fb2f21-ca9d-4015-8892-14d38fbd1cf3"},"vehicle_type_id":"4","last_reported":1747674553,"current_range_meters":3200,"station_id":"ce4bhbp2rcd13ifvqerg","pricing_plan_id":"cebpf4jnsgd1na2vs0mg"},{"bike_id":"7112e1b2-33d6-4fd7-b2fd-dd390606d004","system_id":"levelo_inurba_marseille","lat":43.24647,"lon":5.3889,"is_reserved":false,"is_disabled":false,"rental_uris":{"android":"levelo://app?vid=7112e1b2-33d6-4fd7-b2fd-dd390606d004","ios":"levelo://app?vid=7112e1b2-33d6-4fd7-b2fd-dd390606d004"},"vehicle_type_id":"4","last_reported":1747674553,"current_range_meters":3200,"station_id":"ce4bhg12rcd13ifvqf60","pricing_plan_id":"cebpf4jnsgd1na2vs0mg"},{"bike_id":"59c698b9-97a4-4d91-b5f0-0b4fd91fbcc9","system_id":"levelo_inurba_marseille","lat":43.25124,"lon":5.4032,"is_reserved":false,"is_disabled":false,"rental_uris":{"android":"levelo://app?vid=59c698b9-97a4-4d91-b5f0-0b4fd91fbcc9","ios":"levelo://app?vid=59c698b9-97a4-4d91-b5f0-0b4fd91fbcc9"},"vehicle_type_id":"4","last_reported":1747674553,"current_range_meters":3200,"station_id":"ce4bhlh2rcd13ifvqgig","pricing_plan_id":"cebpf4jnsgd1na2vs0mg"},{"bike_id":"8ecae786-9b40-4ae4-93c9-aad4073703d5","system_id":"levelo_inurba_marseille","lat":43.2317,"lon":5.3999,"is_reserved":false,"is_disabled":true,"rental_uris":{"android":"levelo://app?vid=8ecae786-9b40-4ae4-93c9-aad4073703d5","ios":"levelo://app?vid=8ecae786-9b40-4ae4-93c9-aad4073703d5"},"vehicle_type_id":"4","last_reported":1747674553,"current_range_meters":3200,"station_id":"ce4bhn12rcd13ifvqgqg","pricing_plan_id":"cebpf4jnsgd1na2vs0mg"},{"bike_id":"25efd7d8-fd8b-4c49-b03c-fe55321b94d4","system_id":"levelo_inurba_marseille","lat":43.30894,"lon":5.3728,"is_reserved":false,"is_disabled":false,"rental_uris":{"android":"levelo://app?vid=25efd7d8-fd8b-4c49-b03c-fe55321b94d4","ios":"levelo://app?vid=25efd7d8-fd8b-4c49-b03c-fe55321b94d4"},"vehicle_type_id":"4","last_reported":1747674553,"current_range_meters":3600,"station_id":"","pricing_plan_id":"cebpf4jnsgd1na2vs0mg"},{"bike_id":"2b27667f-523b-4d45-9c56-36e1c51f0f85","system_id":"levelo_inurba_marseille","lat":43.28849,"lon":5.35841,"is_reserved":false,"is_disabled":false,"rental_uris":{"android":"levelo://app?vid=2b27667f-523b-4d45-9c56-36e1c51f0f85","ios":"levelo://app?vid=2b27667f-523b-4d45-9c56-36e1c51f0f85"},"vehicle_type_id":"4","last_reported":1747674553,"current_range_meters":3600,"station_id":"ce4bhb12rcd13ifvqem0","pricing_plan_id":"cebpf4jnsgd1na2vs0mg"},{"bike_id":"b7c8c918-3e2a-4b1f-b77f-f3a2fec64779","system_id":"levelo_inurba_marseille","lat":43.24652,"lon":5.389,"is_reserved":false,"is_disabled":false,"rental_uris":{"android":"levelo://app?vid=b7c8c918-3e2a-4b1f-b77f-f3a2fec64779","ios":"levelo://app?vid=b7c8c918-3e2a-4b1f-b77f-f3a2fec64779"},"vehicle_type_id":"4","last_reported":1747674553,"current_range_meters":3600,"station_id":"ce4bhg12rcd13ifvqf60","pricing_plan_id":"cebpf4jnsgd1na2vs0mg"},{"bike_id":"1aae96e9-27a9-42a4-970c-72c97807d798","system_id":"levelo_inurba_marseille","lat":43.24663,"lon":5.38165,"is_reserved":false,"is_disabled":false,"rental_uris":{"android":"levelo://app?vid=1aae96e9-27a9-42a4-970c-72c97807d798","ios":"levelo://app?vid=1aae96e9-27a9-42a4-970c-72c97807d798"},"vehicle_type_id":"4","last_reported":1747674553,"current_range_meters":3600,"station_id":"ce4bhih2rcd13ifvqfr0","pricing_plan_id":"cebpf4jnsgd1na2vs0mg"},{"bike_id":"32b87b51-5301-4a90-bffb-6dfc5b11b244","system_id":"levelo_inurba_marseille","lat":43.25107,"lon":5.40327,"is_reserved":false,"is_disabled":false,"rental_uris":{"android":"levelo://app?vid=32b87b51-5301-4a90-bffb-6dfc5b11b244","ios":"levelo://app?vid=32b87b51-5301-4a90-bffb-6dfc5b11b244"},"vehicle_type_id":"4","last_reported":1747674553,"current_range_meters":3600,"station_id":"ce4bhlh2rcd13ifvqgig","pricing_plan_id":"cebpf4jnsgd1na2vs0mg"},{"bike_id":"14603e41-b2dd-4757-a53c-2e366aa4f983","system_id":"levelo_inurba_marseille","lat":43.269963,"lon":5.428301,"is_reserved":false,"is_disabled":false,"rental_uris":{"android":"levelo://app?vid=14603e41-b2dd-4757-a53c-2e366aa4f983","ios":"levelo://app?vid=14603e41-b2dd-4757-a53c-2e366aa4f983"},"vehicle_type_id":"4","last_reported":1747674553,"current_range_meters":4000,"station_id":"","pricing_plan_id":"cebpf4jnsgd1na2vs0mg"},{"bike_id":"ff6394b9-a571-4663-b9c9-e2720e5ebe92","system_id":"levelo_inurba_marseille","lat":43.29527,"lon":5.38546,"is_reserved":false,"is_disabled":false,"rental_uris":{"android":"levelo://app?vid=ff6394b9-a571-4663-b9c9-e2720e5ebe92","ios":"levelo://app?vid=ff6394b9-a571-4663-b9c9-e2720e5ebe92"},"vehicle_type_id":"4","last_reported":1747674553,"current_range_meters":4000,"station_id":"ce4bgih2rcd13ifvqba0","pricing_plan_id":"cebpf4jnsgd1na2vs0mg"},{"bike_id":"7376f0af-a5c2-4496-b829-ef1f8bc5df10","system_id":"levelo_inurba_marseille","lat":43.304296,"lon":5.388922,"is_reserved":false,"is_disabled":false,"rental_uris":{"android":"levelo://app?vid=7376f0af-a5c2-4496-b829-ef1f8bc5df10","ios":"levelo://app?vid=7376f0af-a5c2-4496-b829-ef1f8bc5df10"},"vehicle_type_id":"4","last_reported":1747674553,"current_range_meters":4000,"station_id":"ce4bgk12rcd13ifvqbi0","pricing_plan_id":"cebpf4jnsgd1na2vs0mg"},{"bike_id":"c3047519-526e-49ca-8904-b3a7f20180e0","system_id":"levelo_inurba_marseille","lat":43.2903,"lon":5.38652,"is_reserved":false,"is_disabled":false,"rental_uris":{"android":"levelo://app?vid=c3047519-526e-49ca-8904-b3a7f20180e0","ios":"levelo://app?vid=c3047519-526e-49ca-8904-b3a7f20180e0"},"vehicle_type_id":"4","last_reported":1747674553,"current_range_meters":4000,"station_id":"ce4bh4p2rcd13ifvqe0g","pricing_plan_id":"cebpf4jnsgd1na2vs0mg"},{"bike_id":"7d0bac92-7189-4483-9c17-2a88fc892d93","system_id":"levelo_inurba_marseille","lat":43.28413,"lon":5.34991,"is_reserved":false,"is_disabled":false,"rental_uris":{"android":"levelo://app?vid=7d0bac92-7189-4483-9c17-2a88fc892d93","ios":"levelo://app?vid=7d0bac92-7189-4483-9c17-2a88fc892d93"},"vehicle_type_id":"4","last_reported":1747674553,"current_range_meters":4000,"station_id":"ce4bhbh2rcd13ifvqepg","pricing_plan_id":"cebpf4jnsgd1na2vs0mg"},{"bike_id":"dce6d56b-161e-40c8-b76d-a8da4680ca2b","system_id":"levelo_inurba_marseille","lat":43.28418,"lon":5.34995,"is_reserved":false,"is_disabled":false,"rental_uris":{"android":"levelo://app?vid=dce6d56b-161e-40c8-b76d-a8da4680ca2b","ios":"levelo://app?vid=dce6d56b-161e-40c8-b76d-a8da4680ca2b"},"vehicle_type_id":"4","last_reported":1747674553,"current_range_meters":4000,"station_id":"ce4bhbh2rcd13ifvqepg","pricing_plan_id":"cebpf4jnsgd1na2vs0mg"},{"bike_id":"23d504e6-c758-46fe-8ce8-6300d414b9d1","system_id":"levelo_inurba_marseille","lat":43.27566,"lon":5.3843,"is_reserved":false,"is_disabled":false,"rental_uris":{"android":"levelo://app?vid=23d504e6-c758-46fe-8ce8-6300d414b9d1","ios":"levelo://app?vid=23d504e6-c758-46fe-8ce8-6300d414b9d1"},"vehicle_type_id":"4","last_reported":1747674553,"current_range_meters":4000,"station_id":"ce4bhh92rcd13ifvqfi0","pricing_plan_id":"cebpf4jnsgd1na2vs0mg"},{"bike_id":"8411dae8-990f-4b5a-9035-b69869e47ff5","system_id":"levelo_inurba_marseille","lat":43.25821,"lon":5.39437,"is_reserved":false,"is_disabled":false,"rental_uris":{"android":"levelo://app?vid=8411dae8-990f-4b5a-9035-b69869e47ff5","ios":"levelo://app?vid=8411dae8-990f-4b5a-9035-b69869e47ff5"},"vehicle_type_id":"4","last_reported":1747674553,"current_range_meters":4000,"station_id":"ce4bhip2rcd13ifvqft0","pricing_plan_id":"cebpf4jnsgd1na2vs0mg"},{"bike_id":"ad137c39-6bf4-4f14-9200-e3096bd9a0e8","system_id":"levelo_inurba_marseille","lat":43.28152,"lon":5.42646,"is_reserved":false,"is_disabled":false,"rental_uris":{"android":"levelo://app?vid=ad137c39-6bf4-4f14-9200-e3096bd9a0e8","ios":"levelo://app?vid=ad137c39-6bf4-4f14-9200-e3096bd9a0e8"},"vehicle_type_id":"4","last_reported":1747674553,"current_range_meters":4000,"station_id":"ce4bhnh2rcd13ifvqgug","pricing_plan_id":"cebpf4jnsgd1na2vs0mg"},{"bike_id":"9eb2f909-0929-4415-b78c-9861a6b70846","system_id":"levelo_inurba_marseille","lat":43.28448,"lon":5.39211,"is_reserved":false,"is_disabled":false,"rental_uris":{"android":"levelo://app?vid=9eb2f909-0929-4415-b78c-9861a6b70846","ios":"levelo://app?vid=9eb2f909-0929-4415-b78c-9861a6b70846"},"vehicle_type_id":"4","last_reported":1747674553,"current_range_meters":4000,"station_id":"ce4bhoh2rcd13ifvqh5g","pricing_plan_id":"cebpf4jnsgd1na2vs0mg"},{"bike_id":"de667fcc-8d2b-4a1a-8ef7-2c15e5bebb88","system_id":"levelo_inurba_marseille","lat":43.286205,"lon":5.369979,"is_reserved":false,"is_disabled":false,"rental_uris":{"android":"levelo://app?vid=de667fcc-8d2b-4a1a-8ef7-2c15e5bebb88","ios":"levelo://app?vid=de667fcc-8d2b-4a1a-8ef7-2c15e5bebb88"},"vehicle_type_id":"4","last_reported":1747674553,"current_range_meters":4000,"station_id":"ce4bht12rcd13ifvqi60","pricing_plan_id":"cebpf4jnsgd1na2vs0mg"},{"bike_id":"273eba49-a379-47d3-9c20-1b17c5619c3f","system_id":"levelo_inurba_marseille","lat":43.28155,"lon":5.42645,"is_reserved":false,"is_disabled":false,"rental_uris":{"android":"levelo://app?vid=273eba49-a379-47d3-9c20-1b17c5619c3f","ios":"levelo://app?vid=273eba49-a379-47d3-9c20-1b17c5619c3f"},"vehicle_type_id":"4","last_reported":1747674553,"current_range_meters":4400,"station_id":"","pricing_plan_id":"cebpf4jnsgd1na2vs0mg"},{"bike_id":"6fc303b8-4912-48ec-965c-8651aa953228","system_id":"levelo_inurba_marseille","lat":43.30945,"lon":5.3902,"is_reserved":false,"is_disabled":false,"rental_uris":{"android":"levelo://app?vid=6fc303b8-4912-48ec-965c-8651aa953228","ios":"levelo://app?vid=6fc303b8-4912-48ec-965c-8651aa953228"},"vehicle_type_id":"4","last_reported":1747674553,"current_range_meters":4400,"station_id":"ce4bgup2rcd13ifvqco0","pricing_plan_id":"cebpf4jnsgd1na2vs0mg"},{"bike_id":"3126481a-996a-46ad-be7b-cb2a8e399a79","system_id":"levelo_inurba_marseille","lat":43.30882,"lon":5.39662,"is_reserved":false,"is_disabled":false,"rental_uris":{"android":"levelo://app?vid=3126481a-996a-46ad-be7b-cb2a8e399a79","ios":"levelo://app?vid=3126481a-996a-46ad-be7b-cb2a8e399a79"},"vehicle_type_id":"4","last_reported":1747674553,"current_range_meters":4400,"station_id":"ce4bh012rcd13ifvqcv0","pricing_plan_id":"cebpf4jnsgd1na2vs0mg"},{"bike_id":"b4b15575-a401-4b8c-b577-39a250ba6f7f","system_id":"levelo_inurba_marseille","lat":43.28697,"lon":5.37388,"is_reserved":false,"is_disabled":false,"rental_uris":{"android":"levelo://app?vid=b4b15575-a401-4b8c-b577-39a250ba6f7f","ios":"levelo://app?vid=b4b15575-a401-4b8c-b577-39a250ba6f7f"},"vehicle_type_id":"4","last_reported":1747674553,"current_range_meters":4400,"station_id":"ce4bh3p2rcd13ifvqdq0","pricing_plan_id":"cebpf4jnsgd1na2vs0mg"},{"bike_id":"1bd2885d-3ff5-4669-88db-69f9502120e1","system_id":"levelo_inurba_marseille","lat":43.29253,"lon":5.38436,"is_reserved":false,"is_disabled":false,"rental_uris":{"android":"levelo://app?vid=1bd2885d-3ff5-4669-88db-69f9502120e1","ios":"levelo://app?vid=1bd2885d-3ff5-4669-88db-69f9502120e1"},"vehicle_type_id":"4","last_reported":1747674553,"current_range_meters":4400,"station_id":"ce4bh692rcd13ifvqea0","pricing_plan_id":"cebpf4jnsgd1na2vs0mg"},{"bike_id":"52f955fb-dee3-47f5-a8a3-366e3ee9b343","system_id":"levelo_inurba_marseille","lat":43.29001,"lon":5.35609,"is_reserved":false,"is_disabled":false,"rental_uris":{"android":"levelo://app?vid=52f955fb-dee3-47f5-a8a3-366e3ee9b343","ios":"levelo://app?vid=52f955fb-dee3-47f5-a8a3-366e3ee9b343"},"vehicle_type_id":"4","last_reported":1747674553,"current_range_meters":4400,"station_id":"ce4bhb92rcd13ifvqen0","pricing_plan_id":"cebpf4jnsgd1na2vs0mg"},{"bike_id":"da29be6a-25e7-4271-baf7-35022f2d363d","system_id":"levelo_inurba_marseille","lat":43.29627,"lon":5.40601,"is_reserved":false,"is_disabled":false,"rental_uris":{"android":"levelo://app?vid=da29be6a-25e7-4271-baf7-35022f2d363d","ios":"levelo://app?vid=da29be6a-25e7-4271-baf7-35022f2d363d"},"vehicle_type_id":"4","last_reported":1747674553,"current_range_meters":4800,"station_id":"ce4bh0h2rcd13ifvqd60","pricing_plan_id":"cebpf4jnsgd1na2vs0mg"},{"bike_id":"d00b780d-9380-41ad-91a0-ba69663c8ab4","system_id":"levelo_inurba_marseille","lat":43.27367,"lon":5.36255,"is_reserved":false,"is_disabled":false,"rental_uris":{"android":"levelo://app?vid=d00b780d-9380-41ad-91a0-ba69663c8ab4","ios":"levelo://app?vid=d00b780d-9380-41ad-91a0-ba69663c8ab4"},"vehicle_type_id":"4","last_reported":1747674553,"current_range_meters":4800,"station_id":"ce4bhbh2rcd13ifvqeo0","pricing_plan_id":"cebpf4jnsgd1na2vs0mg"},{"bike_id":"8888e192-8eba-4ff4-bcb4-a2e79438368b","system_id":"levelo_inurba_marseille","lat":43.278103,"lon":5.407086,"is_reserved":false,"is_disabled":false,"rental_uris":{"android":"levelo://app?vid=8888e192-8eba-4ff4-bcb4-a2e79438368b","ios":"levelo://app?vid=8888e192-8eba-4ff4-bcb4-a2e79438368b"},"vehicle_type_id":"4","last_reported":1747674553,"current_range_meters":4800,"station_id":"ce4bhnh2rcd13ifvqgtg","pricing_plan_id":"cebpf4jnsgd1na2vs0mg"},{"bike_id":"948a7511-4596-44d3-a2f9-714e89c3b220","system_id":"levelo_inurba_marseille","lat":43.30945,"lon":5.39042,"is_reserved":false,"is_disabled":false,"rental_uris":{"android":"levelo://app?vid=948a7511-4596-44d3-a2f9-714e89c3b220","ios":"levelo://app?vid=948a7511-4596-44d3-a2f9-714e89c3b220"},"vehicle_type_id":"4","last_reported":1747674553,"current_range_meters":5600,"station_id":"ce4bgup2rcd13ifvqco0","pricing_plan_id":"cebpf4jnsgd1na2vs0mg"},{"bike_id":"8ce7b3bd-13b9-4c54-a064-810196953101","system_id":"levelo_inurba_marseille","lat":43.29437,"lon":5.39757,"is_reserved":false,"is_disabled":false,"rental_uris":{"android":"levelo://app?vid=8ce7b3bd-13b9-4c54-a064-810196953101","ios":"levelo://app?vid=8ce7b3bd-13b9-4c54-a064-810196953101"},"vehicle_type_id":"4","last_reported":1747674553,"current_range_meters":5600,"station_id":"ce4bh3h2rcd13ifvqdo0","pricing_plan_id":"cebpf4jnsgd1na2vs0mg"},{"bike_id":"0414b911-9244-4e99-8e86-0d3a16db7274","system_id":"levelo_inurba_marseille","lat":43.28927,"lon":5.384,"is_reserved":false,"is_disabled":false,"rental_uris":{"android":"levelo://app?vid=0414b911-9244-4e99-8e86-0d3a16db7274","ios":"levelo://app?vid=0414b911-9244-4e99-8e86-0d3a16db7274"},"vehicle_type_id":"4","last_reported":1747674553,"current_range_meters":5600,"station_id":"ce4bh612rcd13ifvqe6g","pricing_plan_id":"cebpf4jnsgd1na2vs0mg"},{"bike_id":"61868f89-323f-4f2e-9b71-aa0159e2d35b","system_id":"levelo_inurba_marseille","lat":43.26061,"lon":5.39397,"is_reserved":false,"is_disabled":false,"rental_uris":{"android":"levelo://app?vid=61868f89-323f-4f2e-9b71-aa0159e2d35b","ios":"levelo://app?vid=61868f89-323f-4f2e-9b71-aa0159e2d35b"},"vehicle_type_id":"4","last_reported":1747674553,"current_range_meters":5600,"station_id":"ce4bhh92rcd13ifvqfj0","pricing_plan_id":"cebpf4jnsgd1na2vs0mg"},{"bike_id":"d99ea4f4-b853-474a-aa35-f62f9f0038be","system_id":"levelo_inurba_marseille","lat":43.24386,"lon":5.37057,"is_reserved":false,"is_disabled":false,"rental_uris":{"android":"levelo://app?vid=d99ea4f4-b853-474a-aa35-f62f9f0038be","ios":"levelo://app?vid=d99ea4f4-b853-474a-aa35-f62f9f0038be"},"vehicle_type_id":"4","last_reported":1747674553,"current_range_meters":5600,"station_id":"ce4bhhh2rcd13ifvqfk0","pricing_plan_id":"cebpf4jnsgd1na2vs0mg"},{"bike_id":"20e0075d-499c-476c-926b-ec2b60732b74","system_id":"levelo_inurba_marseille","lat":43.27994,"lon":5.4001,"is_reserved":false,"is_disabled":false,"rental_uris":{"android":"levelo://app?vid=20e0075d-499c-476c-926b-ec2b60732b74","ios":"levelo://app?vid=20e0075d-499c-476c-926b-ec2b60732b74"},"vehicle_type_id":"4","last_reported":1747674553,"current_range_meters":5600,"station_id":"ce4bho92rcd13ifvqh4g","pricing_plan_id":"cebpf4jnsgd1na2vs0mg"},{"bike_id":"88b95945-1458-44a5-87c1-cc3ef2895aad","system_id":"levelo_inurba_marseille","lat":43.29714,"lon":5.37688,"is_reserved":false,"is_disabled":false,"rental_uris":{"android":"levelo://app?vid=88b95945-1458-44a5-87c1-cc3ef2895aad","ios":"levelo://app?vid=88b95945-1458-44a5-87c1-cc3ef2895aad"},"vehicle_type_id":"4","last_reported":1747674553,"current_range_meters":6000,"station_id":"ce4bgkh2rcd13ifvqbl0","pricing_plan_id":"cebpf4jnsgd1na2vs0mg"},{"bike_id":"d3cf03aa-5476-4b0d-a209-490a741ffb3d","system_id":"levelo_inurba_marseille","lat":43.29195,"lon":5.35798,"is_reserved":false,"is_disabled":false,"rental_uris":{"android":"levelo://app?vid=d3cf03aa-5476-4b0d-a209-490a741ffb3d","ios":"levelo://app?vid=d3cf03aa-5476-4b0d-a209-490a741ffb3d"},"vehicle_type_id":"4","last_reported":1747674553,"current_range_meters":6000,"station_id":"ce4bhb12rcd13ifvqel0","pricing_plan_id":"cebpf4jnsgd1na2vs0mg"},{"bike_id":"efb9ab8d-1cc0-4ba9-b06d-ca514289ce0f","system_id":"levelo_inurba_marseille","lat":43.28614,"lon":5.35108,"is_reserved":false,"is_disabled":false,"rental_uris":{"android":"levelo://app?vid=efb9ab8d-1cc0-4ba9-b06d-ca514289ce0f","ios":"levelo://app?vid=efb9ab8d-1cc0-4ba9-b06d-ca514289ce0f"},"vehicle_type_id":"4","last_reported":1747674553,"current_range_meters":6000,"station_id":"ce4bhch2rcd13ifvqeug","pricing_plan_id":"cebpf4jnsgd1na2vs0mg"},{"bike_id":"014f8347-40af-4595-8198-7a43a15a1468","system_id":"levelo_inurba_marseille","lat":43.29597,"lon":5.38103,"is_reserved":false,"is_disabled":false,"rental_uris":{"android":"levelo://app?vid=014f8347-40af-4595-8198-7a43a15a1468","ios":"levelo://app?vid=014f8347-40af-4595-8198-7a43a15a1468"},"vehicle_type_id":"4","last_reported":1747674553,"current_range_meters":6400,"station_id":"ce4bgl12rcd13ifvqbo0","pricing_plan_id":"cebpf4jnsgd1na2vs0mg"},{"bike_id":"fcbf76c6-aa20-4ee2-a52f-8935259711f3","system_id":"levelo_inurba_marseille","lat":43.30544,"lon":5.36558,"is_reserved":false,"is_disabled":false,"rental_uris":{"android":"levelo://app?vid=fcbf76c6-aa20-4ee2-a52f-8935259711f3","ios":"levelo://app?vid=fcbf76c6-aa20-4ee2-a52f-8935259711f3"},"vehicle_type_id":"4","last_reported":1747674553,"current_range_meters":6400,"station_id":"ce4bgs12rcd13ifvqcag","pricing_plan_id":"cebpf4jnsgd1na2vs0mg"},{"bike_id":"7230c341-32e5-49f3-b77a-b2e7db2e6496","system_id":"levelo_inurba_marseille","lat":43.28717,"lon":5.37942,"is_reserved":false,"is_disabled":false,"rental_uris":{"android":"levelo://app?vid=7230c341-32e5-49f3-b77a-b2e7db2e6496","ios":"levelo://app?vid=7230c341-32e5-49f3-b77a-b2e7db2e6496"},"vehicle_type_id":"4","last_reported":1747674553,"current_range_meters":6800,"station_id":"ce4bh9p2rcd13ifvqec0","pricing_plan_id":"cebpf4jnsgd1na2vs0mg"},{"bike_id":"d03cf0f7-3897-4bb6-8d3e-077b5c7b8f0b","system_id":"levelo_inurba_marseille","lat":43.23962,"lon":5.36632,"is_reserved":false,"is_disabled":false,"rental_uris":{"android":"levelo://app?vid=d03cf0f7-3897-4bb6-8d3e-077b5c7b8f0b","ios":"levelo://app?vid=d03cf0f7-3897-4bb6-8d3e-077b5c7b8f0b"},"vehicle_type_id":"4","last_reported":1747674553,"current_range_meters":6800,"station_id":"ce4bhi12rcd13ifvqfp0","pricing_plan_id":"cebpf4jnsgd1na2vs0mg"},{"bike_id":"0eb7f958-813c-4599-a947-cc188a070eb3","system_id":"levelo_inurba_marseille","lat":43.25119,"lon":5.40339,"is_reserved":false,"is_disabled":false,"rental_uris":{"android":"levelo://app?vid=0eb7f958-813c-4599-a947-cc188a070eb3","ios":"levelo://app?vid=0eb7f958-813c-4599-a947-cc188a070eb3"},"vehicle_type_id":"4","last_reported":1747674553,"current_range_meters":6800,"station_id":"ce4bhlh2rcd13ifvqgig","pricing_plan_id":"cebpf4jnsgd1na2vs0mg"},{"bike_id":"a5069c23-eea7-40f4-9d9a-11b963aa48ad","system_id":"levelo_inurba_marseille","lat":43.23183,"lon":5.39976,"is_reserved":false,"is_disabled":false,"rental_uris":{"android":"levelo://app?vid=a5069c23-eea7-40f4-9d9a-11b963aa48ad","ios":"levelo://app?vid=a5069c23-eea7-40f4-9d9a-11b963aa48ad"},"vehicle_type_id":"4","last_reported":1747674553,"current_range_meters":6800,"station_id":"ce4bhn12rcd13ifvqgqg","pricing_plan_id":"cebpf4jnsgd1na2vs0mg"},{"bike_id":"4431c85a-d648-40e0-bce5-7e253c1618c9","system_id":"levelo_inurba_marseille","lat":43.27492,"lon":5.42448,"is_reserved":false,"is_disabled":false,"rental_uris":{"android":"levelo://app?vid=4431c85a-d648-40e0-bce5-7e253c1618c9","ios":"levelo://app?vid=4431c85a-d648-40e0-bce5-7e253c1618c9"},"vehicle_type_id":"4","last_reported":1747674553,"current_range_meters":6800,"station_id":"ce4bhn92rcd13ifvqgrg","pricing_plan_id":"cebpf4jnsgd1na2vs0mg"},{"bike_id":"d44e7665-a2ca-4912-ae60-ef67f0e438ac","system_id":"levelo_inurba_marseille","lat":43.27995,"lon":5.41667,"is_reserved":false,"is_disabled":false,"rental_uris":{"android":"levelo://app?vid=d44e7665-a2ca-4912-ae60-ef67f0e438ac","ios":"levelo://app?vid=d44e7665-a2ca-4912-ae60-ef67f0e438ac"},"vehicle_type_id":"4","last_reported":1747674553,"current_range_meters":6800,"station_id":"ce4bho12rcd13ifvqh1g","pricing_plan_id":"cebpf4jnsgd1na2vs0mg"},{"bike_id":"efba3c1a-f07b-4af6-80d1-f46898183377","system_id":"levelo_inurba_marseille","lat":43.295697,"lon":5.399911,"is_reserved":false,"is_disabled":false,"rental_uris":{"android":"levelo://app?vid=efba3c1a-f07b-4af6-80d1-f46898183377","ios":"levelo://app?vid=efba3c1a-f07b-4af6-80d1-f46898183377"},"vehicle_type_id":"4","last_reported":1747674553,"current_range_meters":7200,"station_id":"ce4bh312rcd13ifvqdj0","pricing_plan_id":"cebpf4jnsgd1na2vs0mg"},{"bike_id":"f00e4c85-4b74-4b78-914c-e4ecaf8cbdf9","system_id":"levelo_inurba_marseille","lat":43.27496,"lon":5.42444,"is_reserved":false,"is_disabled":false,"rental_uris":{"android":"levelo://app?vid=f00e4c85-4b74-4b78-914c-e4ecaf8cbdf9","ios":"levelo://app?vid=f00e4c85-4b74-4b78-914c-e4ecaf8cbdf9"},"vehicle_type_id":"4","last_reported":1747674553,"current_range_meters":7200,"station_id":"ce4bhn92rcd13ifvqgrg","pricing_plan_id":"cebpf4jnsgd1na2vs0mg"},{"bike_id":"6b07083b-5866-4a09-8394-7ec5442cd408","system_id":"levelo_inurba_marseille","lat":43.26808,"lon":5.40264,"is_reserved":false,"is_disabled":false,"rental_uris":{"android":"levelo://app?vid=6b07083b-5866-4a09-8394-7ec5442cd408","ios":"levelo://app?vid=6b07083b-5866-4a09-8394-7ec5442cd408"},"vehicle_type_id":"4","last_reported":1747674553,"current_range_meters":7200,"station_id":"ce501612rcd8frsf0b60","pricing_plan_id":"cebpf4jnsgd1na2vs0mg"},{"bike_id":"dbd40d1d-cb2e-46b1-bad2-21f837ac2d17","system_id":"levelo_inurba_marseille","lat":43.30638,"lon":5.4009,"is_reserved":false,"is_disabled":false,"rental_uris":{"android":"levelo://app?vid=dbd40d1d-cb2e-46b1-bad2-21f837ac2d17","ios":"levelo://app?vid=dbd40d1d-cb2e-46b1-bad2-21f837ac2d17"},"vehicle_type_id":"4","last_reported":1747674553,"current_range_meters":8000,"station_id":"ce4bh112rcd13ifvqda0","pricing_plan_id":"cebpf4jnsgd1na2vs0mg"},{"bike_id":"78e25948-ce77-49b3-84b8-26714f39ac25","system_id":"levelo_inurba_marseille","lat":43.29272,"lon":5.40114,"is_reserved":false,"is_disabled":false,"rental_uris":{"android":"levelo://app?vid=78e25948-ce77-49b3-84b8-26714f39ac25","ios":"levelo://app?vid=78e25948-ce77-49b3-84b8-26714f39ac25"},"vehicle_type_id":"4","last_reported":1747674553,"current_range_meters":8000,"station_id":"ce4bh312rcd13ifvqdk0","pricing_plan_id":"cebpf4jnsgd1na2vs0mg"},{"bike_id":"5dd1d75c-56a1-4e57-9876-2c8933a8da63","system_id":"levelo_inurba_marseille","lat":43.28615,"lon":5.35099,"is_reserved":false,"is_disabled":false,"rental_uris":{"android":"levelo://app?vid=5dd1d75c-56a1-4e57-9876-2c8933a8da63","ios":"levelo://app?vid=5dd1d75c-56a1-4e57-9876-2c8933a8da63"},"vehicle_type_id":"4","last_reported":1747674553,"current_range_meters":8000,"station_id":"ce4bhch2rcd13ifvqeug","pricing_plan_id":"cebpf4jnsgd1na2vs0mg"},{"bike_id":"5687fad2-fcb2-42bf-adce-87a294de3480","system_id":"levelo_inurba_marseille","lat":43.26549,"lon":5.37286,"is_reserved":false,"is_disabled":false,"rental_uris":{"android":"levelo://app?vid=5687fad2-fcb2-42bf-adce-87a294de3480","ios":"levelo://app?vid=5687fad2-fcb2-42bf-adce-87a294de3480"},"vehicle_type_id":"4","last_reported":1747674553,"current_range_meters":8000,"station_id":"ce4bhg12rcd13ifvqf70","pricing_plan_id":"cebpf4jnsgd1na2vs0mg"},{"bike_id":"9c85904f-b435-4858-b085-0678b1628f9a","system_id":"levelo_inurba_marseille","lat":43.24992,"lon":5.38933,"is_reserved":false,"is_disabled":false,"rental_uris":{"android":"levelo://app?vid=9c85904f-b435-4858-b085-0678b1628f9a","ios":"levelo://app?vid=9c85904f-b435-4858-b085-0678b1628f9a"},"vehicle_type_id":"4","last_reported":1747674553,"current_range_meters":8000,"station_id":"ce4bhgp2rcd13ifvqfd0","pricing_plan_id":"cebpf4jnsgd1na2vs0mg"},{"bike_id":"1f7dea22-24a3-45e9-b0c2-bb2b4d863d65","system_id":"levelo_inurba_marseille","lat":43.23199,"lon":5.39971,"is_reserved":false,"is_disabled":false,"rental_uris":{"android":"levelo://app?vid=1f7dea22-24a3-45e9-b0c2-bb2b4d863d65","ios":"levelo://app?vid=1f7dea22-24a3-45e9-b0c2-bb2b4d863d65"},"vehicle_type_id":"4","last_reported":1747674553,"current_range_meters":8000,"station_id":"ce4bhn12rcd13ifvqgqg","pricing_plan_id":"cebpf4jnsgd1na2vs0mg"},{"bike_id":"92a6af25-c13e-41f1-9234-7144ec89b7a9","system_id":"levelo_inurba_marseille","lat":43.231862,"lon":5.399748,"is_reserved":false,"is_disabled":false,"rental_uris":{"android":"levelo://app?vid=92a6af25-c13e-41f1-9234-7144ec89b7a9","ios":"levelo://app?vid=92a6af25-c13e-41f1-9234-7144ec89b7a9"},"vehicle_type_id":"4","last_reported":1747674553,"current_range_meters":8000,"station_id":"ce4bhn12rcd13ifvqgqg","pricing_plan_id":"cebpf4jnsgd1na2vs0mg"},{"bike_id":"59c4e672-6014-4ab1-9d3e-34c83cf8eec9","system_id":"levelo_inurba_marseille","lat":43.27993,"lon":5.41662,"is_reserved":false,"is_disabled":false,"rental_uris":{"android":"levelo://app?vid=59c4e672-6014-4ab1-9d3e-34c83cf8eec9","ios":"levelo://app?vid=59c4e672-6014-4ab1-9d3e-34c83cf8eec9"},"vehicle_type_id":"4","last_reported":1747674553,"current_range_meters":8000,"station_id":"ce4bho12rcd13ifvqh1g","pricing_plan_id":"cebpf4jnsgd1na2vs0mg"},{"bike_id":"43bec3a4-5429-4cfd-8eb7-0b66171b0ccf","system_id":"levelo_inurba_marseille","lat":43.30251,"lon":5.40077,"is_reserved":false,"is_disabled":false,"rental_uris":{"android":"levelo://app?vid=43bec3a4-5429-4cfd-8eb7-0b66171b0ccf","ios":"levelo://app?vid=43bec3a4-5429-4cfd-8eb7-0b66171b0ccf"},"vehicle_type_id":"4","last_reported":1747674553,"current_range_meters":8400,"station_id":"ce4bgvh2rcd13ifvqcs0","pricing_plan_id":"cebpf4jnsgd1na2vs0mg"},{"bike_id":"05bf446e-06af-4cd8-9b8c-c98d86f5b0bf","system_id":"levelo_inurba_marseille","lat":43.30649,"lon":5.40103,"is_reserved":false,"is_disabled":false,"rental_uris":{"android":"levelo://app?vid=05bf446e-06af-4cd8-9b8c-c98d86f5b0bf","ios":"levelo://app?vid=05bf446e-06af-4cd8-9b8c-c98d86f5b0bf"},"vehicle_type_id":"4","last_reported":1747674553,"current_range_meters":8400,"station_id":"ce4bh112rcd13ifvqda0","pricing_plan_id":"cebpf4jnsgd1na2vs0mg"},{"bike_id":"57d868ee-ea14-4118-8093-254181b25d01","system_id":"levelo_inurba_marseille","lat":43.27366,"lon":5.36266,"is_reserved":false,"is_disabled":false,"rental_uris":{"android":"levelo://app?vid=57d868ee-ea14-4118-8093-254181b25d01","ios":"levelo://app?vid=57d868ee-ea14-4118-8093-254181b25d01"},"vehicle_type_id":"4","last_reported":1747674553,"current_range_meters":8400,"station_id":"ce4bhbh2rcd13ifvqeo0","pricing_plan_id":"cebpf4jnsgd1na2vs0mg"},{"bike_id":"d9090cda-5b81-447f-829a-dd86382e9b77","system_id":"levelo_inurba_marseille","lat":43.27371,"lon":5.36258,"is_reserved":false,"is_disabled":false,"rental_uris":{"android":"levelo://app?vid=d9090cda-5b81-447f-829a-dd86382e9b77","ios":"levelo://app?vid=d9090cda-5b81-447f-829a-dd86382e9b77"},"vehicle_type_id":"4","last_reported":1747674553,"current_range_meters":8400,"station_id":"ce4bhbh2rcd13ifvqeo0","pricing_plan_id":"cebpf4jnsgd1na2vs0mg"},{"bike_id":"5a90b5f2-63e4-4c01-ab92-78fe2859cbbb","system_id":"levelo_inurba_marseille","lat":43.28613,"lon":5.35108,"is_reserved":false,"is_disabled":false,"rental_uris":{"android":"levelo://app?vid=5a90b5f2-63e4-4c01-ab92-78fe2859cbbb","ios":"levelo://app?vid=5a90b5f2-63e4-4c01-ab92-78fe2859cbbb"},"vehicle_type_id":"4","last_reported":1747674553,"current_range_meters":8400,"station_id":"ce4bhch2rcd13ifvqeug","pricing_plan_id":"cebpf4jnsgd1na2vs0mg"},{"bike_id":"cf29c1de-b613-4dc5-b4a2-16263b25b79d","system_id":"levelo_inurba_marseille","lat":43.27323,"lon":5.39066,"is_reserved":false,"is_disabled":false,"rental_uris":{"android":"levelo://app?vid=cf29c1de-b613-4dc5-b4a2-16263b25b79d","ios":"levelo://app?vid=cf29c1de-b613-4dc5-b4a2-16263b25b79d"},"vehicle_type_id":"4","last_reported":1747674553,"current_range_meters":8400,"station_id":"ce4bhgp2rcd13ifvqfe0","pricing_plan_id":"cebpf4jnsgd1na2vs0mg"},{"bike_id":"c445e76c-e851-457b-8ea3-e4c18f7c1686","system_id":"levelo_inurba_marseille","lat":43.23954,"lon":5.36641,"is_reserved":false,"is_disabled":false,"rental_uris":{"android":"levelo://app?vid=c445e76c-e851-457b-8ea3-e4c18f7c1686","ios":"levelo://app?vid=c445e76c-e851-457b-8ea3-e4c18f7c1686"},"vehicle_type_id":"4","last_reported":1747674553,"current_range_meters":8400,"station_id":"ce4bhi12rcd13ifvqfp0","pricing_plan_id":"cebpf4jnsgd1na2vs0mg"},{"bike_id":"ffaa332f-dbaf-4c77-afe2-ca4a25a1731c","system_id":"levelo_inurba_marseille","lat":43.25867,"lon":5.39893,"is_reserved":false,"is_disabled":false,"rental_uris":{"android":"levelo://app?vid=ffaa332f-dbaf-4c77-afe2-ca4a25a1731c","ios":"levelo://app?vid=ffaa332f-dbaf-4c77-afe2-ca4a25a1731c"},"vehicle_type_id":"4","last_reported":1747674553,"current_range_meters":8400,"station_id":"ce4bhl92rcd13ifvqghg","pricing_plan_id":"cebpf4jnsgd1na2vs0mg"},{"bike_id":"e58b1b8d-e063-4c4e-8514-80ba8763c424","system_id":"levelo_inurba_marseille","lat":43.27994,"lon":5.4001,"is_reserved":false,"is_disabled":false,"rental_uris":{"android":"levelo://app?vid=e58b1b8d-e063-4c4e-8514-80ba8763c424","ios":"levelo://app?vid=e58b1b8d-e063-4c4e-8514-80ba8763c424"},"vehicle_type_id":"4","last_reported":1747674553,"current_range_meters":8400,"station_id":"ce4bho92rcd13ifvqh4g","pricing_plan_id":"cebpf4jnsgd1na2vs0mg"},{"bike_id":"8372d15c-478f-4697-b890-7598b8e11b2c","system_id":"levelo_inurba_marseille","lat":43.304097,"lon":5.41288,"is_reserved":false,"is_disabled":false,"rental_uris":{"android":"levelo://app?vid=8372d15c-478f-4697-b890-7598b8e11b2c","ios":"levelo://app?vid=8372d15c-478f-4697-b890-7598b8e11b2c"},"vehicle_type_id":"4","last_reported":1747674553,"current_range_meters":8400,"station_id":"ce4bhop2rcd13ifvqh8g","pricing_plan_id":"cebpf4jnsgd1na2vs0mg"},{"bike_id":"248410bd-5cbe-4698-9be4-d3bc83760b55","system_id":"levelo_inurba_marseille","lat":43.29531,"lon":5.38537,"is_reserved":false,"is_disabled":false,"rental_uris":{"android":"levelo://app?vid=248410bd-5cbe-4698-9be4-d3bc83760b55","ios":"levelo://app?vid=248410bd-5cbe-4698-9be4-d3bc83760b55"},"vehicle_type_id":"4","last_reported":1747674553,"current_range_meters":8800,"station_id":"ce4bgih2rcd13ifvqba0","pricing_plan_id":"cebpf4jnsgd1na2vs0mg"},{"bike_id":"3aac132b-7e99-44d1-9597-e4082188c43b","system_id":"levelo_inurba_marseille","lat":43.30135,"lon":5.3987,"is_reserved":false,"is_disabled":false,"rental_uris":{"android":"levelo://app?vid=3aac132b-7e99-44d1-9597-e4082188c43b","ios":"levelo://app?vid=3aac132b-7e99-44d1-9597-e4082188c43b"},"vehicle_type_id":"4","last_reported":1747674553,"current_range_meters":8800,"station_id":"ce4bh0h2rcd13ifvqd40","pricing_plan_id":"cebpf4jnsgd1na2vs0mg"},{"bike_id":"006ee777-9612-44d5-8936-4181eab71026","system_id":"levelo_inurba_marseille","lat":43.270705,"lon":5.422807,"is_reserved":false,"is_disabled":false,"rental_uris":{"android":"levelo://app?vid=006ee777-9612-44d5-8936-4181eab71026","ios":"levelo://app?vid=006ee777-9612-44d5-8936-4181eab71026"},"vehicle_type_id":"4","last_reported":1747674553,"current_range_meters":8800,"station_id":"ce4bhk92rcd13ifvqgb0","pricing_plan_id":"cebpf4jnsgd1na2vs0mg"},{"bike_id":"7a4c3280-f36d-4251-a19f-968eff822136","system_id":"levelo_inurba_marseille","lat":43.24175,"lon":5.39736,"is_reserved":false,"is_disabled":false,"rental_uris":{"android":"levelo://app?vid=7a4c3280-f36d-4251-a19f-968eff822136","ios":"levelo://app?vid=7a4c3280-f36d-4251-a19f-968eff822136"},"vehicle_type_id":"4","last_reported":1747674553,"current_range_meters":8800,"station_id":"ce4bhn12rcd13ifvqgpg","pricing_plan_id":"cebpf4jnsgd1na2vs0mg"},{"bike_id":"fe6ea599-0224-47f2-a6bd-8be1b1f68afd","system_id":"levelo_inurba_marseille","lat":43.24072,"lon":5.37767,"is_reserved":false,"is_disabled":false,"rental_uris":{"android":"levelo://app?vid=fe6ea599-0224-47f2-a6bd-8be1b1f68afd","ios":"levelo://app?vid=fe6ea599-0224-47f2-a6bd-8be1b1f68afd"},"vehicle_type_id":"4","last_reported":1747674553,"current_range_meters":8800,"station_id":"ce4bhnp2rcd13ifvqgvg","pricing_plan_id":"cebpf4jnsgd1na2vs0mg"},{"bike_id":"090d7e0d-1e95-48e7-9403-e4828ed827d4","system_id":"levelo_inurba_marseille","lat":43.29796,"lon":5.40398,"is_reserved":false,"is_disabled":false,"rental_uris":{"android":"levelo://app?vid=090d7e0d-1e95-48e7-9403-e4828ed827d4","ios":"levelo://app?vid=090d7e0d-1e95-48e7-9403-e4828ed827d4"},"vehicle_type_id":"4","last_reported":1747674553,"current_range_meters":9200,"station_id":"ce4bh112rcd13ifvqd90","pricing_plan_id":"cebpf4jnsgd1na2vs0mg"},{"bike_id":"622a6443-71bd-4d44-9741-5943069edfcd","system_id":"levelo_inurba_marseille","lat":43.28945,"lon":5.36634,"is_reserved":false,"is_disabled":false,"rental_uris":{"android":"levelo://app?vid=622a6443-71bd-4d44-9741-5943069edfcd","ios":"levelo://app?vid=622a6443-71bd-4d44-9741-5943069edfcd"},"vehicle_type_id":"4","last_reported":1747674553,"current_range_meters":9200,"station_id":"ce4bhap2rcd13ifvqek0","pricing_plan_id":"cebpf4jnsgd1na2vs0mg"},{"bike_id":"a0ce1796-904b-404f-a3a2-78c940e95b15","system_id":"levelo_inurba_marseille","lat":43.28621,"lon":5.35101,"is_reserved":false,"is_disabled":false,"rental_uris":{"android":"levelo://app?vid=a0ce1796-904b-404f-a3a2-78c940e95b15","ios":"levelo://app?vid=a0ce1796-904b-404f-a3a2-78c940e95b15"},"vehicle_type_id":"4","last_reported":1747674553,"current_range_meters":9200,"station_id":"ce4bhch2rcd13ifvqeug","pricing_plan_id":"cebpf4jnsgd1na2vs0mg"},{"bike_id":"cba5ee50-87f1-49b7-b373-54abb830d812","system_id":"levelo_inurba_marseille","lat":43.24649,"lon":5.38891,"is_reserved":false,"is_disabled":false,"rental_uris":{"android":"levelo://app?vid=cba5ee50-87f1-49b7-b373-54abb830d812","ios":"levelo://app?vid=cba5ee50-87f1-49b7-b373-54abb830d812"},"vehicle_type_id":"4","last_reported":1747674553,"current_range_meters":9200,"station_id":"ce4bhg12rcd13ifvqf60","pricing_plan_id":"cebpf4jnsgd1na2vs0mg"},{"bike_id":"58ad445d-65e4-48be-acfd-b0b6ce71d615","system_id":"levelo_inurba_marseille","lat":43.25008,"lon":5.38924,"is_reserved":false,"is_disabled":false,"rental_uris":{"android":"levelo://app?vid=58ad445d-65e4-48be-acfd-b0b6ce71d615","ios":"levelo://app?vid=58ad445d-65e4-48be-acfd-b0b6ce71d615"},"vehicle_type_id":"4","last_reported":1747674553,"current_range_meters":9200,"station_id":"ce4bhgp2rcd13ifvqfd0","pricing_plan_id":"cebpf4jnsgd1na2vs0mg"},{"bike_id":"493fef86-dd4d-4a0b-bbbc-f0ef8e344899","system_id":"levelo_inurba_marseille","lat":43.25499,"lon":5.37654,"is_reserved":false,"is_disabled":false,"rental_uris":{"android":"levelo://app?vid=493fef86-dd4d-4a0b-bbbc-f0ef8e344899","ios":"levelo://app?vid=493fef86-dd4d-4a0b-bbbc-f0ef8e344899"},"vehicle_type_id":"4","last_reported":1747674553,"current_range_meters":9200,"station_id":"ce4bhh12rcd13ifvqff0","pricing_plan_id":"cebpf4jnsgd1na2vs0mg"},{"bike_id":"6fea22ed-4a89-40bc-9e3c-4cee0855deda","system_id":"levelo_inurba_marseille","lat":43.2815,"lon":5.42642,"is_reserved":false,"is_disabled":false,"rental_uris":{"android":"levelo://app?vid=6fea22ed-4a89-40bc-9e3c-4cee0855deda","ios":"levelo://app?vid=6fea22ed-4a89-40bc-9e3c-4cee0855deda"},"vehicle_type_id":"4","last_reported":1747674553,"current_range_meters":9200,"station_id":"ce4bhnh2rcd13ifvqgug","pricing_plan_id":"cebpf4jnsgd1na2vs0mg"},{"bike_id":"60171ad8-4341-46a8-b0b6-510a48fb7710","system_id":"levelo_inurba_marseille","lat":43.30596,"lon":5.39342,"is_reserved":false,"is_disabled":false,"rental_uris":{"android":"levelo://app?vid=60171ad8-4341-46a8-b0b6-510a48fb7710","ios":"levelo://app?vid=60171ad8-4341-46a8-b0b6-510a48fb7710"},"vehicle_type_id":"4","last_reported":1747674553,"current_range_meters":9600,"station_id":"ce4bh0p2rcd13ifvqd80","pricing_plan_id":"cebpf4jnsgd1na2vs0mg"},{"bike_id":"7d078d06-4765-42b5-abe8-5e2fb009b2b8","system_id":"levelo_inurba_marseille","lat":43.29043,"lon":5.35914,"is_reserved":false,"is_disabled":false,"rental_uris":{"android":"levelo://app?vid=7d078d06-4765-42b5-abe8-5e2fb009b2b8","ios":"levelo://app?vid=7d078d06-4765-42b5-abe8-5e2fb009b2b8"},"vehicle_type_id":"4","last_reported":1747674553,"current_range_meters":9600,"station_id":"ce4bha92rcd13ifvqeg0","pricing_plan_id":"cebpf4jnsgd1na2vs0mg"},{"bike_id":"06e452b4-00bd-4194-8cf0-97e51cbae02e","system_id":"levelo_inurba_marseille","lat":43.23188,"lon":5.39984,"is_reserved":false,"is_disabled":false,"rental_uris":{"android":"levelo://app?vid=06e452b4-00bd-4194-8cf0-97e51cbae02e","ios":"levelo://app?vid=06e452b4-00bd-4194-8cf0-97e51cbae02e"},"vehicle_type_id":"4","last_reported":1747674553,"current_range_meters":9600,"station_id":"ce4bhn12rcd13ifvqgqg","pricing_plan_id":"cebpf4jnsgd1na2vs0mg"},{"bike_id":"0bee8310-e3c6-4566-aecb-00d86829bb71","system_id":"levelo_inurba_marseille","lat":43.28138,"lon":5.4264,"is_reserved":false,"is_disabled":false,"rental_uris":{"android":"levelo://app?vid=0bee8310-e3c6-4566-aecb-00d86829bb71","ios":"levelo://app?vid=0bee8310-e3c6-4566-aecb-00d86829bb71"},"vehicle_type_id":"4","last_reported":1747674553,"current_range_meters":9600,"station_id":"ce4bhnh2rcd13ifvqgug","pricing_plan_id":"cebpf4jnsgd1na2vs0mg"},{"bike_id":"b2a8a085-4afe-4995-b62f-39dc8b761b89","system_id":"levelo_inurba_marseille","lat":43.21191,"lon":5.35072,"is_reserved":false,"is_disabled":false,"rental_uris":{"android":"levelo://app?vid=b2a8a085-4afe-4995-b62f-39dc8b761b89","ios":"levelo://app?vid=b2a8a085-4afe-4995-b62f-39dc8b761b89"},"vehicle_type_id":"4","last_reported":1747674553,"current_range_meters":9600,"station_id":"st_cvj6sg6p6f1abm77japg","pricing_plan_id":"cebpf4jnsgd1na2vs0mg"},{"bike_id":"0f9f88d4-7078-450b-b922-eb27ba0d2e1b","system_id":"levelo_inurba_marseille","lat":43.29527,"lon":5.3854,"is_reserved":false,"is_disabled":false,"rental_uris":{"android":"levelo://app?vid=0f9f88d4-7078-450b-b922-eb27ba0d2e1b","ios":"levelo://app?vid=0f9f88d4-7078-450b-b922-eb27ba0d2e1b"},"vehicle_type_id":"4","last_reported":1747674553,"current_range_meters":10000,"station_id":"ce4bgih2rcd13ifvqba0","pricing_plan_id":"cebpf4jnsgd1na2vs0mg"},{"bike_id":"be2c77d3-ac48-4cac-80e9-93acd0bc2553","system_id":"levelo_inurba_marseille","lat":43.30319,"lon":5.40442,"is_reserved":false,"is_disabled":false,"rental_uris":{"android":"levelo://app?vid=be2c77d3-ac48-4cac-80e9-93acd0bc2553","ios":"levelo://app?vid=be2c77d3-ac48-4cac-80e9-93acd0bc2553"},"vehicle_type_id":"4","last_reported":1747674553,"current_range_meters":10000,"station_id":"ce4bh012rcd13ifvqd10","pricing_plan_id":"cebpf4jnsgd1na2vs0mg"},{"bike_id":"341b073e-0cc3-4810-ab3e-c86591a0a258","system_id":"levelo_inurba_marseille","lat":43.28627,"lon":5.35093,"is_reserved":false,"is_disabled":false,"rental_uris":{"android":"levelo://app?vid=341b073e-0cc3-4810-ab3e-c86591a0a258","ios":"levelo://app?vid=341b073e-0cc3-4810-ab3e-c86591a0a258"},"vehicle_type_id":"4","last_reported":1747674553,"current_range_meters":10000,"station_id":"ce4bhch2rcd13ifvqeug","pricing_plan_id":"cebpf4jnsgd1na2vs0mg"},{"bike_id":"dbf8222a-eea0-42f0-80c2-a4791ac4ed58","system_id":"levelo_inurba_marseille","lat":43.24987,"lon":5.38956,"is_reserved":false,"is_disabled":false,"rental_uris":{"android":"levelo://app?vid=dbf8222a-eea0-42f0-80c2-a4791ac4ed58","ios":"levelo://app?vid=dbf8222a-eea0-42f0-80c2-a4791ac4ed58"},"vehicle_type_id":"4","last_reported":1747674553,"current_range_meters":10000,"station_id":"ce4bhgp2rcd13ifvqfd0","pricing_plan_id":"cebpf4jnsgd1na2vs0mg"},{"bike_id":"7b4ebcee-a823-442f-a8fb-bd9eabc7a6ed","system_id":"levelo_inurba_marseille","lat":43.24996,"lon":5.38932,"is_reserved":false,"is_disabled":false,"rental_uris":{"android":"levelo://app?vid=7b4ebcee-a823-442f-a8fb-bd9eabc7a6ed","ios":"levelo://app?vid=7b4ebcee-a823-442f-a8fb-bd9eabc7a6ed"},"vehicle_type_id":"4","last_reported":1747674553,"current_range_meters":10000,"station_id":"ce4bhgp2rcd13ifvqfd0","pricing_plan_id":"cebpf4jnsgd1na2vs0mg"},{"bike_id":"b23545d6-2ccd-4ba3-ac8f-c83707ca450d","system_id":"levelo_inurba_marseille","lat":43.23963,"lon":5.36629,"is_reserved":false,"is_disabled":false,"rental_uris":{"android":"levelo://app?vid=b23545d6-2ccd-4ba3-ac8f-c83707ca450d","ios":"levelo://app?vid=b23545d6-2ccd-4ba3-ac8f-c83707ca450d"},"vehicle_type_id":"4","last_reported":1747674553,"current_range_meters":10000,"station_id":"ce4bhi12rcd13ifvqfp0","pricing_plan_id":"cebpf4jnsgd1na2vs0mg"},{"bike_id":"ffe6d238-6026-4e0e-a599-949c46ef6d5a","system_id":"levelo_inurba_marseille","lat":43.25102,"lon":5.40328,"is_reserved":false,"is_disabled":false,"rental_uris":{"android":"levelo://app?vid=ffe6d238-6026-4e0e-a599-949c46ef6d5a","ios":"levelo://app?vid=ffe6d238-6026-4e0e-a599-949c46ef6d5a"},"vehicle_type_id":"4","last_reported":1747674553,"current_range_meters":10000,"station_id":"ce4bhlh2rcd13ifvqgig","pricing_plan_id":"cebpf4jnsgd1na2vs0mg"},{"bike_id":"41d6d43b-cdd6-43a9-a37f-11682e05448d","system_id":"levelo_inurba_marseille","lat":43.26805,"lon":5.40263,"is_reserved":false,"is_disabled":false,"rental_uris":{"android":"levelo://app?vid=41d6d43b-cdd6-43a9-a37f-11682e05448d","ios":"levelo://app?vid=41d6d43b-cdd6-43a9-a37f-11682e05448d"},"vehicle_type_id":"4","last_reported":1747674553,"current_range_meters":10000,"station_id":"ce501612rcd8frsf0b60","pricing_plan_id":"cebpf4jnsgd1na2vs0mg"},{"bike_id":"bcbdbd69-7be8-42f8-a855-a4358565de8f","system_id":"levelo_inurba_marseille","lat":43.27722,"lon":5.41383,"is_reserved":false,"is_disabled":false,"rental_uris":{"android":"levelo://app?vid=bcbdbd69-7be8-42f8-a855-a4358565de8f","ios":"levelo://app?vid=bcbdbd69-7be8-42f8-a855-a4358565de8f"},"vehicle_type_id":"4","last_reported":1747674553,"current_range_meters":10800,"station_id":"","pricing_plan_id":"cebpf4jnsgd1na2vs0mg"},{"bike_id":"829f9f17-8e4d-4675-8105-3ee910c5e2cb","system_id":"levelo_inurba_marseille","lat":43.30669,"lon":5.38316,"is_reserved":false,"is_disabled":false,"rental_uris":{"android":"levelo://app?vid=829f9f17-8e4d-4675-8105-3ee910c5e2cb","ios":"levelo://app?vid=829f9f17-8e4d-4675-8105-3ee910c5e2cb"},"vehicle_type_id":"4","last_reported":1747674553,"current_range_meters":10800,"station_id":"","pricing_plan_id":"cebpf4jnsgd1na2vs0mg"},{"bike_id":"01f253e5-d779-4222-aea2-c2e014906b39","system_id":"levelo_inurba_marseille","lat":43.29253,"lon":5.40903,"is_reserved":false,"is_disabled":false,"rental_uris":{"android":"levelo://app?vid=01f253e5-d779-4222-aea2-c2e014906b39","ios":"levelo://app?vid=01f253e5-d779-4222-aea2-c2e014906b39"},"vehicle_type_id":"4","last_reported":1747674553,"current_range_meters":10800,"station_id":"ce4bh192rcd13ifvqdc0","pricing_plan_id":"cebpf4jnsgd1na2vs0mg"},{"bike_id":"d3b4bab6-0c00-4d91-b17f-c928b4b07b3a","system_id":"levelo_inurba_marseille","lat":43.29252,"lon":5.38428,"is_reserved":false,"is_disabled":false,"rental_uris":{"android":"levelo://app?vid=d3b4bab6-0c00-4d91-b17f-c928b4b07b3a","ios":"levelo://app?vid=d3b4bab6-0c00-4d91-b17f-c928b4b07b3a"},"vehicle_type_id":"4","last_reported":1747674553,"current_range_meters":10800,"station_id":"ce4bh692rcd13ifvqea0","pricing_plan_id":"cebpf4jnsgd1na2vs0mg"},{"bike_id":"2b8516fc-766a-452d-9c12-cbde858c75bc","system_id":"levelo_inurba_marseille","lat":43.26954,"lon":5.38627,"is_reserved":false,"is_disabled":false,"rental_uris":{"android":"levelo://app?vid=2b8516fc-766a-452d-9c12-cbde858c75bc","ios":"levelo://app?vid=2b8516fc-766a-452d-9c12-cbde858c75bc"},"vehicle_type_id":"4","last_reported":1747674553,"current_range_meters":10800,"station_id":"ce4bhh92rcd13ifvqfh0","pricing_plan_id":"cebpf4jnsgd1na2vs0mg"},{"bike_id":"33768530-affb-4a38-8491-31966e2acc6c","system_id":"levelo_inurba_marseille","lat":43.26492,"lon":5.39536,"is_reserved":false,"is_disabled":false,"rental_uris":{"android":"levelo://app?vid=33768530-affb-4a38-8491-31966e2acc6c","ios":"levelo://app?vid=33768530-affb-4a38-8491-31966e2acc6c"},"vehicle_type_id":"4","last_reported":1747674553,"current_range_meters":10800,"station_id":"ce4bhi12rcd13ifvqfq0","pricing_plan_id":"cebpf4jnsgd1na2vs0mg"},{"bike_id":"34475a86-1c7b-4b43-926d-9d41a48520d3","system_id":"levelo_inurba_marseille","lat":43.24551,"lon":5.39526,"is_reserved":false,"is_disabled":false,"rental_uris":{"android":"levelo://app?vid=34475a86-1c7b-4b43-926d-9d41a48520d3","ios":"levelo://app?vid=34475a86-1c7b-4b43-926d-9d41a48520d3"},"vehicle_type_id":"4","last_reported":1747674553,"current_range_meters":10800,"station_id":"ce4bhlp2rcd13ifvqgjg","pricing_plan_id":"cebpf4jnsgd1na2vs0mg"},{"bike_id":"1304491c-9598-4f85-b166-545686317b13","system_id":"levelo_inurba_marseille","lat":43.23162,"lon":5.43694,"is_reserved":false,"is_disabled":false,"rental_uris":{"android":"levelo://app?vid=1304491c-9598-4f85-b166-545686317b13","ios":"levelo://app?vid=1304491c-9598-4f85-b166-545686317b13"},"vehicle_type_id":"4","last_reported":1747674553,"current_range_meters":10800,"station_id":"ce4bhmp2rcd13ifvqgog","pricing_plan_id":"cebpf4jnsgd1na2vs0mg"},{"bike_id":"d3308718-90cf-4063-89cc-9035c39e4ac4","system_id":"levelo_inurba_marseille","lat":43.29527,"lon":5.38538,"is_reserved":false,"is_disabled":false,"rental_uris":{"android":"levelo://app?vid=d3308718-90cf-4063-89cc-9035c39e4ac4","ios":"levelo://app?vid=d3308718-90cf-4063-89cc-9035c39e4ac4"},"vehicle_type_id":"4","last_reported":1747674553,"current_range_meters":11200,"station_id":"ce4bgih2rcd13ifvqba0","pricing_plan_id":"cebpf4jnsgd1na2vs0mg"},{"bike_id":"f5440de2-700b-48f2-a603-6a5b63464c86","system_id":"levelo_inurba_marseille","lat":43.29052,"lon":5.35934,"is_reserved":false,"is_disabled":false,"rental_uris":{"android":"levelo://app?vid=f5440de2-700b-48f2-a603-6a5b63464c86","ios":"levelo://app?vid=f5440de2-700b-48f2-a603-6a5b63464c86"},"vehicle_type_id":"4","last_reported":1747674553,"current_range_meters":11200,"station_id":"ce4bha92rcd13ifvqeg0","pricing_plan_id":"cebpf4jnsgd1na2vs0mg"},{"bike_id":"9026fd37-0490-4b05-b4cc-5510f55a884c","system_id":"levelo_inurba_marseille","lat":43.28636,"lon":5.35095,"is_reserved":false,"is_disabled":false,"rental_uris":{"android":"levelo://app?vid=9026fd37-0490-4b05-b4cc-5510f55a884c","ios":"levelo://app?vid=9026fd37-0490-4b05-b4cc-5510f55a884c"},"vehicle_type_id":"4","last_reported":1747674553,"current_range_meters":11200,"station_id":"ce4bhch2rcd13ifvqeug","pricing_plan_id":"cebpf4jnsgd1na2vs0mg"},{"bike_id":"5fbc1e7a-a641-41a8-8487-50b908e3b4db","system_id":"levelo_inurba_marseille","lat":43.27949,"lon":5.41036,"is_reserved":false,"is_disabled":false,"rental_uris":{"android":"levelo://app?vid=5fbc1e7a-a641-41a8-8487-50b908e3b4db","ios":"levelo://app?vid=5fbc1e7a-a641-41a8-8487-50b908e3b4db"},"vehicle_type_id":"4","last_reported":1747674553,"current_range_meters":11200,"station_id":"ce4bhnp2rcd13ifvqh0g","pricing_plan_id":"cebpf4jnsgd1na2vs0mg"},{"bike_id":"60393716-8180-42eb-a367-cc5098e8bc92","system_id":"levelo_inurba_marseille","lat":43.27995,"lon":5.40012,"is_reserved":false,"is_disabled":false,"rental_uris":{"android":"levelo://app?vid=60393716-8180-42eb-a367-cc5098e8bc92","ios":"levelo://app?vid=60393716-8180-42eb-a367-cc5098e8bc92"},"vehicle_type_id":"4","last_reported":1747674553,"current_range_meters":11200,"station_id":"ce4bho92rcd13ifvqh4g","pricing_plan_id":"cebpf4jnsgd1na2vs0mg"},{"bike_id":"c076ad54-d589-4eeb-ac51-e1376a33ec39","system_id":"levelo_inurba_marseille","lat":43.29549,"lon":5.42294,"is_reserved":false,"is_disabled":false,"rental_uris":{"android":"levelo://app?vid=c076ad54-d589-4eeb-ac51-e1376a33ec39","ios":"levelo://app?vid=c076ad54-d589-4eeb-ac51-e1376a33ec39"},"vehicle_type_id":"4","last_reported":1747674553,"current_range_meters":11200,"station_id":"ce4bhph2rcd13ifvqhdg","pricing_plan_id":"cebpf4jnsgd1na2vs0mg"},{"bike_id":"e84646b4-4375-45e8-bf6e-d5052914cbc0","system_id":"levelo_inurba_marseille","lat":43.28723,"lon":5.36089,"is_reserved":false,"is_disabled":false,"rental_uris":{"android":"levelo://app?vid=e84646b4-4375-45e8-bf6e-d5052914cbc0","ios":"levelo://app?vid=e84646b4-4375-45e8-bf6e-d5052914cbc0"},"vehicle_type_id":"4","last_reported":1747674553,"current_range_meters":11200,"station_id":"cki0cbj6b192h4jlfktg","pricing_plan_id":"cebpf4jnsgd1na2vs0mg"},{"bike_id":"b69e9525-f9fe-475a-a8d8-418ab1b45f8d","system_id":"levelo_inurba_marseille","lat":43.287267,"lon":5.36075,"is_reserved":false,"is_disabled":false,"rental_uris":{"android":"levelo://app?vid=b69e9525-f9fe-475a-a8d8-418ab1b45f8d","ios":"levelo://app?vid=b69e9525-f9fe-475a-a8d8-418ab1b45f8d"},"vehicle_type_id":"4","last_reported":1747674553,"current_range_meters":11200,"station_id":"cki0cbj6b192h4jlfktg","pricing_plan_id":"cebpf4jnsgd1na2vs0mg"},{"bike_id":"d859a572-52ea-40b3-acb2-873e1010b0bb","system_id":"levelo_inurba_marseille","lat":43.27373,"lon":5.36259,"is_reserved":false,"is_disabled":false,"rental_uris":{"android":"levelo://app?vid=d859a572-52ea-40b3-acb2-873e1010b0bb","ios":"levelo://app?vid=d859a572-52ea-40b3-acb2-873e1010b0bb"},"vehicle_type_id":"4","last_reported":1747674553,"current_range_meters":11600,"station_id":"ce4bhbh2rcd13ifvqeo0","pricing_plan_id":"cebpf4jnsgd1na2vs0mg"},{"bike_id":"38b5c13c-ecfe-476a-abb0-33b1528de2bb","system_id":"levelo_inurba_marseille","lat":43.29951,"lon":5.41335,"is_reserved":false,"is_disabled":false,"rental_uris":{"android":"levelo://app?vid=38b5c13c-ecfe-476a-abb0-33b1528de2bb","ios":"levelo://app?vid=38b5c13c-ecfe-476a-abb0-33b1528de2bb"},"vehicle_type_id":"4","last_reported":1747674553,"current_range_meters":11600,"station_id":"ce4bhp12rcd13ifvqh9g","pricing_plan_id":"cebpf4jnsgd1na2vs0mg"},{"bike_id":"7f9dc312-f150-4c03-872a-e3d9c3778413","system_id":"levelo_inurba_marseille","lat":43.28352,"lon":5.38116,"is_reserved":false,"is_disabled":false,"rental_uris":{"android":"levelo://app?vid=7f9dc312-f150-4c03-872a-e3d9c3778413","ios":"levelo://app?vid=7f9dc312-f150-4c03-872a-e3d9c3778413"},"vehicle_type_id":"4","last_reported":1747674553,"current_range_meters":12000,"station_id":"ce4bh412rcd13ifvqdr0","pricing_plan_id":"cebpf4jnsgd1na2vs0mg"},{"bike_id":"40d5f946-42f0-423c-82a6-7cd8e3c0679d","system_id":"levelo_inurba_marseille","lat":43.28414,"lon":5.37512,"is_reserved":false,"is_disabled":false,"rental_uris":{"android":"levelo://app?vid=40d5f946-42f0-423c-82a6-7cd8e3c0679d","ios":"levelo://app?vid=40d5f946-42f0-423c-82a6-7cd8e3c0679d"},"vehicle_type_id":"4","last_reported":1747674553,"current_range_meters":12000,"station_id":"ce4bh412rcd13ifvqds0","pricing_plan_id":"cebpf4jnsgd1na2vs0mg"},{"bike_id":"6b4b9780-7a95-4644-8508-bebbe195016b","system_id":"levelo_inurba_marseille","lat":43.28458,"lon":5.35889,"is_reserved":false,"is_disabled":false,"rental_uris":{"android":"levelo://app?vid=6b4b9780-7a95-4644-8508-bebbe195016b","ios":"levelo://app?vid=6b4b9780-7a95-4644-8508-bebbe195016b"},"vehicle_type_id":"4","last_reported":1747674553,"current_range_meters":12000,"station_id":"ce4bhah2rcd13ifvqei0","pricing_plan_id":"cebpf4jnsgd1na2vs0mg"},{"bike_id":"e3e7d035-2242-4bb8-830e-a93c6168a97c","system_id":"levelo_inurba_marseille","lat":43.30135,"lon":5.38776,"is_reserved":false,"is_disabled":false,"rental_uris":{"android":"levelo://app?vid=e3e7d035-2242-4bb8-830e-a93c6168a97c","ios":"levelo://app?vid=e3e7d035-2242-4bb8-830e-a93c6168a97c"},"vehicle_type_id":"4","last_reported":1747674553,"current_range_meters":12400,"station_id":"ce4bghh2rcd13ifvqb60","pricing_plan_id":"cebpf4jnsgd1na2vs0mg"},{"bike_id":"0fa8f247-b3fb-4bae-a0bb-1519bc0a70c4","system_id":"levelo_inurba_marseille","lat":43.29935,"lon":5.3654,"is_reserved":false,"is_disabled":false,"rental_uris":{"android":"levelo://app?vid=0fa8f247-b3fb-4bae-a0bb-1519bc0a70c4","ios":"levelo://app?vid=0fa8f247-b3fb-4bae-a0bb-1519bc0a70c4"},"vehicle_type_id":"4","last_reported":1747674553,"current_range_meters":12400,"station_id":"ce4bgm92rcd13ifvqbr0","pricing_plan_id":"cebpf4jnsgd1na2vs0mg"},{"bike_id":"b7d2e140-1854-4e01-804a-f1d6c49cc640","system_id":"levelo_inurba_marseille","lat":43.30145,"lon":5.39875,"is_reserved":false,"is_disabled":false,"rental_uris":{"android":"levelo://app?vid=b7d2e140-1854-4e01-804a-f1d6c49cc640","ios":"levelo://app?vid=b7d2e140-1854-4e01-804a-f1d6c49cc640"},"vehicle_type_id":"4","last_reported":1747674553,"current_range_meters":12400,"station_id":"ce4bh0h2rcd13ifvqd40","pricing_plan_id":"cebpf4jnsgd1na2vs0mg"},{"bike_id":"222104a9-43d4-43df-b232-a496e2ed36e4","system_id":"levelo_inurba_marseille","lat":43.30127,"lon":5.398476,"is_reserved":false,"is_disabled":false,"rental_uris":{"android":"levelo://app?vid=222104a9-43d4-43df-b232-a496e2ed36e4","ios":"levelo://app?vid=222104a9-43d4-43df-b232-a496e2ed36e4"},"vehicle_type_id":"4","last_reported":1747674553,"current_range_meters":12400,"station_id":"ce4bh0h2rcd13ifvqd40","pricing_plan_id":"cebpf4jnsgd1na2vs0mg"},{"bike_id":"1c1b28cb-bcbd-4beb-8f94-e6be2a86510b","system_id":"levelo_inurba_marseille","lat":43.290246,"lon":5.386504,"is_reserved":false,"is_disabled":false,"rental_uris":{"android":"levelo://app?vid=1c1b28cb-bcbd-4beb-8f94-e6be2a86510b","ios":"levelo://app?vid=1c1b28cb-bcbd-4beb-8f94-e6be2a86510b"},"vehicle_type_id":"4","last_reported":1747674553,"current_range_meters":12400,"station_id":"ce4bh4p2rcd13ifvqe0g","pricing_plan_id":"cebpf4jnsgd1na2vs0mg"},{"bike_id":"b60509db-18e6-4f3c-9ba5-5bf3c44cda7d","system_id":"levelo_inurba_marseille","lat":43.28455,"lon":5.3588,"is_reserved":false,"is_disabled":false,"rental_uris":{"android":"levelo://app?vid=b60509db-18e6-4f3c-9ba5-5bf3c44cda7d","ios":"levelo://app?vid=b60509db-18e6-4f3c-9ba5-5bf3c44cda7d"},"vehicle_type_id":"4","last_reported":1747674553,"current_range_meters":12400,"station_id":"ce4bhah2rcd13ifvqei0","pricing_plan_id":"cebpf4jnsgd1na2vs0mg"},{"bike_id":"a6cfd5fe-33f6-45c5-9370-942836d2e595","system_id":"levelo_inurba_marseille","lat":43.231805,"lon":5.39993,"is_reserved":false,"is_disabled":false,"rental_uris":{"android":"levelo://app?vid=a6cfd5fe-33f6-45c5-9370-942836d2e595","ios":"levelo://app?vid=a6cfd5fe-33f6-45c5-9370-942836d2e595"},"vehicle_type_id":"4","last_reported":1747674553,"current_range_meters":12400,"station_id":"ce4bhn12rcd13ifvqgqg","pricing_plan_id":"cebpf4jnsgd1na2vs0mg"},{"bike_id":"027e1fb9-8ab2-4245-a791-27e9dcd17185","system_id":"levelo_inurba_marseille","lat":43.29551,"lon":5.4229,"is_reserved":false,"is_disabled":false,"rental_uris":{"android":"levelo://app?vid=027e1fb9-8ab2-4245-a791-27e9dcd17185","ios":"levelo://app?vid=027e1fb9-8ab2-4245-a791-27e9dcd17185"},"vehicle_type_id":"4","last_reported":1747674553,"current_range_meters":12400,"station_id":"ce4bhph2rcd13ifvqhdg","pricing_plan_id":"cebpf4jnsgd1na2vs0mg"},{"bike_id":"bffbaf88-357a-4e87-a68c-a9a27a6e01e6","system_id":"levelo_inurba_marseille","lat":43.2623,"lon":5.42128,"is_reserved":false,"is_disabled":false,"rental_uris":{"android":"levelo://app?vid=bffbaf88-357a-4e87-a68c-a9a27a6e01e6","ios":"levelo://app?vid=bffbaf88-357a-4e87-a68c-a9a27a6e01e6"},"vehicle_type_id":"4","last_reported":1747674553,"current_range_meters":12800,"station_id":"","pricing_plan_id":"cebpf4jnsgd1na2vs0mg"},{"bike_id":"f0be192c-ae4f-446a-8b5a-34019ce7051f","system_id":"levelo_inurba_marseille","lat":43.29838,"lon":5.36259,"is_reserved":false,"is_disabled":false,"rental_uris":{"android":"levelo://app?vid=f0be192c-ae4f-446a-8b5a-34019ce7051f","ios":"levelo://app?vid=f0be192c-ae4f-446a-8b5a-34019ce7051f"},"vehicle_type_id":"4","last_reported":1747674553,"current_range_meters":12800,"station_id":"ce4bgpp2rcd13ifvqc3g","pricing_plan_id":"cebpf4jnsgd1na2vs0mg"},{"bike_id":"2091cbf3-c390-4e5c-81a6-410804471862","system_id":"levelo_inurba_marseille","lat":43.28627,"lon":5.35104,"is_reserved":false,"is_disabled":false,"rental_uris":{"android":"levelo://app?vid=2091cbf3-c390-4e5c-81a6-410804471862","ios":"levelo://app?vid=2091cbf3-c390-4e5c-81a6-410804471862"},"vehicle_type_id":"4","last_reported":1747674553,"current_range_meters":12800,"station_id":"ce4bhch2rcd13ifvqeug","pricing_plan_id":"cebpf4jnsgd1na2vs0mg"},{"bike_id":"40993360-e411-478f-bb81-384d2906af78","system_id":"levelo_inurba_marseille","lat":43.26058,"lon":5.39397,"is_reserved":false,"is_disabled":false,"rental_uris":{"android":"levelo://app?vid=40993360-e411-478f-bb81-384d2906af78","ios":"levelo://app?vid=40993360-e411-478f-bb81-384d2906af78"},"vehicle_type_id":"4","last_reported":1747674553,"current_range_meters":12800,"station_id":"ce4bhh92rcd13ifvqfj0","pricing_plan_id":"cebpf4jnsgd1na2vs0mg"},{"bike_id":"f06cbf8c-abb7-4812-8f83-5300e084d255","system_id":"levelo_inurba_marseille","lat":43.28442,"lon":5.39209,"is_reserved":false,"is_disabled":false,"rental_uris":{"android":"levelo://app?vid=f06cbf8c-abb7-4812-8f83-5300e084d255","ios":"levelo://app?vid=f06cbf8c-abb7-4812-8f83-5300e084d255"},"vehicle_type_id":"4","last_reported":1747674553,"current_range_meters":12800,"station_id":"ce4bhoh2rcd13ifvqh5g","pricing_plan_id":"cebpf4jnsgd1na2vs0mg"},{"bike_id":"52a39732-f389-4238-8320-12a8ecb43bc9","system_id":"levelo_inurba_marseille","lat":43.33759,"lon":5.3747,"is_reserved":false,"is_disabled":false,"rental_uris":{"android":"levelo://app?vid=52a39732-f389-4238-8320-12a8ecb43bc9","ios":"levelo://app?vid=52a39732-f389-4238-8320-12a8ecb43bc9"},"vehicle_type_id":"4","last_reported":1747674553,"current_range_meters":13600,"station_id":"","pricing_plan_id":"cebpf4jnsgd1na2vs0mg"},{"bike_id":"97478a0c-7e4b-401d-91dd-659b6303a52a","system_id":"levelo_inurba_marseille","lat":43.29521,"lon":5.39059,"is_reserved":false,"is_disabled":false,"rental_uris":{"android":"levelo://app?vid=97478a0c-7e4b-401d-91dd-659b6303a52a","ios":"levelo://app?vid=97478a0c-7e4b-401d-91dd-659b6303a52a"},"vehicle_type_id":"4","last_reported":1747674553,"current_range_meters":13600,"station_id":"ce4bh3p2rcd13ifvqdp0","pricing_plan_id":"cebpf4jnsgd1na2vs0mg"},{"bike_id":"d49062f1-2aa4-45a7-89de-65f7f814a8f3","system_id":"levelo_inurba_marseille","lat":43.284211,"lon":5.349839,"is_reserved":false,"is_disabled":false,"rental_uris":{"android":"levelo://app?vid=d49062f1-2aa4-45a7-89de-65f7f814a8f3","ios":"levelo://app?vid=d49062f1-2aa4-45a7-89de-65f7f814a8f3"},"vehicle_type_id":"4","last_reported":1747674553,"current_range_meters":13600,"station_id":"ce4bhbh2rcd13ifvqepg","pricing_plan_id":"cebpf4jnsgd1na2vs0mg"},{"bike_id":"71817c77-e9f1-483d-89c1-16ca77de3122","system_id":"levelo_inurba_marseille","lat":43.25087,"lon":5.395227,"is_reserved":false,"is_disabled":false,"rental_uris":{"android":"levelo://app?vid=71817c77-e9f1-483d-89c1-16ca77de3122","ios":"levelo://app?vid=71817c77-e9f1-483d-89c1-16ca77de3122"},"vehicle_type_id":"4","last_reported":1747674553,"current_range_meters":13600,"station_id":"ce4bhm12rcd13ifvqgkg","pricing_plan_id":"cebpf4jnsgd1na2vs0mg"},{"bike_id":"ca51947a-d1b7-4f5e-b01b-015df89c772e","system_id":"levelo_inurba_marseille","lat":43.278143,"lon":5.40692,"is_reserved":false,"is_disabled":false,"rental_uris":{"android":"levelo://app?vid=ca51947a-d1b7-4f5e-b01b-015df89c772e","ios":"levelo://app?vid=ca51947a-d1b7-4f5e-b01b-015df89c772e"},"vehicle_type_id":"4","last_reported":1747674553,"current_range_meters":13600,"station_id":"ce4bhnh2rcd13ifvqgtg","pricing_plan_id":"cebpf4jnsgd1na2vs0mg"},{"bike_id":"9764d64f-0f5a-4e28-855f-fb9774594893","system_id":"levelo_inurba_marseille","lat":43.28006,"lon":5.40002,"is_reserved":false,"is_disabled":false,"rental_uris":{"android":"levelo://app?vid=9764d64f-0f5a-4e28-855f-fb9774594893","ios":"levelo://app?vid=9764d64f-0f5a-4e28-855f-fb9774594893"},"vehicle_type_id":"4","last_reported":1747674553,"current_range_meters":13600,"station_id":"ce4bho92rcd13ifvqh4g","pricing_plan_id":"cebpf4jnsgd1na2vs0mg"},{"bike_id":"598900bc-cc96-46f3-b8f9-32958f862dd5","system_id":"levelo_inurba_marseille","lat":43.30418,"lon":5.36779,"is_reserved":false,"is_disabled":false,"rental_uris":{"android":"levelo://app?vid=598900bc-cc96-46f3-b8f9-32958f862dd5","ios":"levelo://app?vid=598900bc-cc96-46f3-b8f9-32958f862dd5"},"vehicle_type_id":"4","last_reported":1747674553,"current_range_meters":14000,"station_id":"","pricing_plan_id":"cebpf4jnsgd1na2vs0mg"},{"bike_id":"4eb02e2d-b028-4f9b-960f-e86d13cc55bf","system_id":"levelo_inurba_marseille","lat":43.29967,"lon":5.38488,"is_reserved":false,"is_disabled":false,"rental_uris":{"android":"levelo://app?vid=4eb02e2d-b028-4f9b-960f-e86d13cc55bf","ios":"levelo://app?vid=4eb02e2d-b028-4f9b-960f-e86d13cc55bf"},"vehicle_type_id":"4","last_reported":1747674553,"current_range_meters":14000,"station_id":"ce4bgj92rcd13ifvqbd0","pricing_plan_id":"cebpf4jnsgd1na2vs0mg"},{"bike_id":"a9e9792e-1f24-4bf5-a694-4ec93f5e7c36","system_id":"levelo_inurba_marseille","lat":43.292733,"lon":5.368396,"is_reserved":false,"is_disabled":false,"rental_uris":{"android":"levelo://app?vid=a9e9792e-1f24-4bf5-a694-4ec93f5e7c36","ios":"levelo://app?vid=a9e9792e-1f24-4bf5-a694-4ec93f5e7c36"},"vehicle_type_id":"4","last_reported":1747674553,"current_range_meters":14000,"station_id":"ce4bhbp2rcd13ifvqesg","pricing_plan_id":"cebpf4jnsgd1na2vs0mg"},{"bike_id":"f0d00738-fc1c-42ef-ad45-49e70d527506","system_id":"levelo_inurba_marseille","lat":43.28617,"lon":5.35106,"is_reserved":false,"is_disabled":false,"rental_uris":{"android":"levelo://app?vid=f0d00738-fc1c-42ef-ad45-49e70d527506","ios":"levelo://app?vid=f0d00738-fc1c-42ef-ad45-49e70d527506"},"vehicle_type_id":"4","last_reported":1747674553,"current_range_meters":14000,"station_id":"ce4bhch2rcd13ifvqeug","pricing_plan_id":"cebpf4jnsgd1na2vs0mg"},{"bike_id":"d3c336d8-cc35-4b4f-9058-5d579e21aabe","system_id":"levelo_inurba_marseille","lat":43.25498,"lon":5.37651,"is_reserved":false,"is_disabled":false,"rental_uris":{"android":"levelo://app?vid=d3c336d8-cc35-4b4f-9058-5d579e21aabe","ios":"levelo://app?vid=d3c336d8-cc35-4b4f-9058-5d579e21aabe"},"vehicle_type_id":"4","last_reported":1747674553,"current_range_meters":14000,"station_id":"ce4bhh12rcd13ifvqff0","pricing_plan_id":"cebpf4jnsgd1na2vs0mg"},{"bike_id":"73489ae9-1bd3-492b-9cf0-ca734b6b5ef4","system_id":"levelo_inurba_marseille","lat":43.27836,"lon":5.39204,"is_reserved":false,"is_disabled":false,"rental_uris":{"android":"levelo://app?vid=73489ae9-1bd3-492b-9cf0-ca734b6b5ef4","ios":"levelo://app?vid=73489ae9-1bd3-492b-9cf0-ca734b6b5ef4"},"vehicle_type_id":"4","last_reported":1747674553,"current_range_meters":14000,"station_id":"ce4bhjp2rcd13ifvqga0","pricing_plan_id":"cebpf4jnsgd1na2vs0mg"},{"bike_id":"bbf39a3d-8db3-472f-8277-fd26cd31e8ac","system_id":"levelo_inurba_marseille","lat":43.27177,"lon":5.40974,"is_reserved":false,"is_disabled":false,"rental_uris":{"android":"levelo://app?vid=bbf39a3d-8db3-472f-8277-fd26cd31e8ac","ios":"levelo://app?vid=bbf39a3d-8db3-472f-8277-fd26cd31e8ac"},"vehicle_type_id":"4","last_reported":1747674553,"current_range_meters":14000,"station_id":"ce4bhl12rcd13ifvqgf0","pricing_plan_id":"cebpf4jnsgd1na2vs0mg"},{"bike_id":"08129706-0840-4cc7-a7e9-4dbc2d7407ba","system_id":"levelo_inurba_marseille","lat":43.231956,"lon":5.399801,"is_reserved":false,"is_disabled":false,"rental_uris":{"android":"levelo://app?vid=08129706-0840-4cc7-a7e9-4dbc2d7407ba","ios":"levelo://app?vid=08129706-0840-4cc7-a7e9-4dbc2d7407ba"},"vehicle_type_id":"4","last_reported":1747674553,"current_range_meters":14000,"station_id":"ce4bhn12rcd13ifvqgqg","pricing_plan_id":"cebpf4jnsgd1na2vs0mg"},{"bike_id":"16946d15-e471-407c-9c28-dd33b731afef","system_id":"levelo_inurba_marseille","lat":43.25585,"lon":5.38223,"is_reserved":false,"is_disabled":false,"rental_uris":{"android":"levelo://app?vid=16946d15-e471-407c-9c28-dd33b731afef","ios":"levelo://app?vid=16946d15-e471-407c-9c28-dd33b731afef"},"vehicle_type_id":"4","last_reported":1747674553,"current_range_meters":14400,"station_id":"ce4bhih2rcd13ifvqfs0","pricing_plan_id":"cebpf4jnsgd1na2vs0mg"},{"bike_id":"826ff8fc-d0bc-4c54-b0a7-73db7137ff38","system_id":"levelo_inurba_marseille","lat":43.26199,"lon":5.37932,"is_reserved":false,"is_disabled":false,"rental_uris":{"android":"levelo://app?vid=826ff8fc-d0bc-4c54-b0a7-73db7137ff38","ios":"levelo://app?vid=826ff8fc-d0bc-4c54-b0a7-73db7137ff38"},"vehicle_type_id":"4","last_reported":1747674553,"current_range_meters":14400,"station_id":"ce4bhjp2rcd13ifvqg90","pricing_plan_id":"cebpf4jnsgd1na2vs0mg"},{"bike_id":"9b0a9e58-48c1-4800-88b1-e86859e043e6","system_id":"levelo_inurba_marseille","lat":43.298633,"lon":5.362903,"is_reserved":false,"is_disabled":false,"rental_uris":{"android":"levelo://app?vid=9b0a9e58-48c1-4800-88b1-e86859e043e6","ios":"levelo://app?vid=9b0a9e58-48c1-4800-88b1-e86859e043e6"},"vehicle_type_id":"4","last_reported":1747674553,"current_range_meters":14800,"station_id":"ce4bgpp2rcd13ifvqc3g","pricing_plan_id":"cebpf4jnsgd1na2vs0mg"},{"bike_id":"e0bbcf26-2f97-450a-a62b-7619569ccdc7","system_id":"levelo_inurba_marseille","lat":43.27947,"lon":5.41053,"is_reserved":false,"is_disabled":false,"rental_uris":{"android":"levelo://app?vid=e0bbcf26-2f97-450a-a62b-7619569ccdc7","ios":"levelo://app?vid=e0bbcf26-2f97-450a-a62b-7619569ccdc7"},"vehicle_type_id":"4","last_reported":1747674553,"current_range_meters":14800,"station_id":"ce4bhnp2rcd13ifvqh0g","pricing_plan_id":"cebpf4jnsgd1na2vs0mg"},{"bike_id":"e8162579-a5ad-485f-ad83-fec8a2ebe7e1","system_id":"levelo_inurba_marseille","lat":43.26826,"lon":5.39099,"is_reserved":false,"is_disabled":false,"rental_uris":{"android":"levelo://app?vid=e8162579-a5ad-485f-ad83-fec8a2ebe7e1","ios":"levelo://app?vid=e8162579-a5ad-485f-ad83-fec8a2ebe7e1"},"vehicle_type_id":"4","last_reported":1747674553,"current_range_meters":15200,"station_id":"","pricing_plan_id":"cebpf4jnsgd1na2vs0mg"},{"bike_id":"f9bd452a-300d-4454-890a-c716cf8ab1c5","system_id":"levelo_inurba_marseille","lat":43.2502,"lon":5.38923,"is_reserved":false,"is_disabled":false,"rental_uris":{"android":"levelo://app?vid=f9bd452a-300d-4454-890a-c716cf8ab1c5","ios":"levelo://app?vid=f9bd452a-300d-4454-890a-c716cf8ab1c5"},"vehicle_type_id":"4","last_reported":1747674553,"current_range_meters":15200,"station_id":"ce4bhgp2rcd13ifvqfd0","pricing_plan_id":"cebpf4jnsgd1na2vs0mg"},{"bike_id":"58edc354-c183-4da4-b527-1ba0f2d395e0","system_id":"levelo_inurba_marseille","lat":43.27666,"lon":5.35747,"is_reserved":false,"is_disabled":false,"rental_uris":{"android":"levelo://app?vid=58edc354-c183-4da4-b527-1ba0f2d395e0","ios":"levelo://app?vid=58edc354-c183-4da4-b527-1ba0f2d395e0"},"vehicle_type_id":"4","last_reported":1747674553,"current_range_meters":16000,"station_id":"","pricing_plan_id":"cebpf4jnsgd1na2vs0mg"},{"bike_id":"2ee69147-64d0-465e-b249-310663bc9580","system_id":"levelo_inurba_marseille","lat":43.29033,"lon":5.38648,"is_reserved":false,"is_disabled":false,"rental_uris":{"android":"levelo://app?vid=2ee69147-64d0-465e-b249-310663bc9580","ios":"levelo://app?vid=2ee69147-64d0-465e-b249-310663bc9580"},"vehicle_type_id":"4","last_reported":1747674553,"current_range_meters":16000,"station_id":"ce4bh4p2rcd13ifvqe0g","pricing_plan_id":"cebpf4jnsgd1na2vs0mg"},{"bike_id":"0f9d6bdf-1d4f-466e-aa63-557c75d3adc2","system_id":"levelo_inurba_marseille","lat":43.28033,"lon":5.3694,"is_reserved":false,"is_disabled":false,"rental_uris":{"android":"levelo://app?vid=0f9d6bdf-1d4f-466e-aa63-557c75d3adc2","ios":"levelo://app?vid=0f9d6bdf-1d4f-466e-aa63-557c75d3adc2"},"vehicle_type_id":"4","last_reported":1747674553,"current_range_meters":16000,"station_id":"ce4bha12rcd13ifvqef0","pricing_plan_id":"cebpf4jnsgd1na2vs0mg"},{"bike_id":"c0f862bf-aa51-4ca0-a8aa-ec4fbd6d9082","system_id":"levelo_inurba_marseille","lat":43.30413,"lon":5.41291,"is_reserved":false,"is_disabled":false,"rental_uris":{"android":"levelo://app?vid=c0f862bf-aa51-4ca0-a8aa-ec4fbd6d9082","ios":"levelo://app?vid=c0f862bf-aa51-4ca0-a8aa-ec4fbd6d9082"},"vehicle_type_id":"4","last_reported":1747674553,"current_range_meters":16000,"station_id":"ce4bhop2rcd13ifvqh8g","pricing_plan_id":"cebpf4jnsgd1na2vs0mg"},{"bike_id":"3552fbf2-b43a-446f-93f5-d695fc251b73","system_id":"levelo_inurba_marseille","lat":43.25177,"lon":5.37517,"is_reserved":false,"is_disabled":false,"rental_uris":{"android":"levelo://app?vid=3552fbf2-b43a-446f-93f5-d695fc251b73","ios":"levelo://app?vid=3552fbf2-b43a-446f-93f5-d695fc251b73"},"vehicle_type_id":"4","last_reported":1747674553,"current_range_meters":16400,"station_id":"","pricing_plan_id":"cebpf4jnsgd1na2vs0mg"},{"bike_id":"eff8db06-dc95-4b68-954c-7925ab801ee8","system_id":"levelo_inurba_marseille","lat":43.30946,"lon":5.39034,"is_reserved":false,"is_disabled":false,"rental_uris":{"android":"levelo://app?vid=eff8db06-dc95-4b68-954c-7925ab801ee8","ios":"levelo://app?vid=eff8db06-dc95-4b68-954c-7925ab801ee8"},"vehicle_type_id":"4","last_reported":1747674553,"current_range_meters":16400,"station_id":"ce4bgup2rcd13ifvqco0","pricing_plan_id":"cebpf4jnsgd1na2vs0mg"},{"bike_id":"0d9799a7-717e-43c0-8b86-242e941017c5","system_id":"levelo_inurba_marseille","lat":43.30592,"lon":5.3936,"is_reserved":false,"is_disabled":false,"rental_uris":{"android":"levelo://app?vid=0d9799a7-717e-43c0-8b86-242e941017c5","ios":"levelo://app?vid=0d9799a7-717e-43c0-8b86-242e941017c5"},"vehicle_type_id":"4","last_reported":1747674553,"current_range_meters":16400,"station_id":"ce4bh0p2rcd13ifvqd80","pricing_plan_id":"cebpf4jnsgd1na2vs0mg"},{"bike_id":"2995f5cf-ced2-4f74-a517-d5914e26322d","system_id":"levelo_inurba_marseille","lat":43.28709,"lon":5.37376,"is_reserved":false,"is_disabled":false,"rental_uris":{"android":"levelo://app?vid=2995f5cf-ced2-4f74-a517-d5914e26322d","ios":"levelo://app?vid=2995f5cf-ced2-4f74-a517-d5914e26322d"},"vehicle_type_id":"4","last_reported":1747674553,"current_range_meters":16400,"station_id":"ce4bh3p2rcd13ifvqdq0","pricing_plan_id":"cebpf4jnsgd1na2vs0mg"},{"bike_id":"98a2e49d-fea3-4042-9f0f-b3befd994ced","system_id":"levelo_inurba_marseille","lat":43.29167,"lon":5.37156,"is_reserved":false,"is_disabled":false,"rental_uris":{"android":"levelo://app?vid=98a2e49d-fea3-4042-9f0f-b3befd994ced","ios":"levelo://app?vid=98a2e49d-fea3-4042-9f0f-b3befd994ced"},"vehicle_type_id":"4","last_reported":1747674553,"current_range_meters":16400,"station_id":"ce4bha92rcd13ifvqeh0","pricing_plan_id":"cebpf4jnsgd1na2vs0mg"},{"bike_id":"b39d210f-6b04-4001-ac4c-97bf695ee7a2","system_id":"levelo_inurba_marseille","lat":43.27921,"lon":5.39586,"is_reserved":false,"is_disabled":false,"rental_uris":{"android":"levelo://app?vid=b39d210f-6b04-4001-ac4c-97bf695ee7a2","ios":"levelo://app?vid=b39d210f-6b04-4001-ac4c-97bf695ee7a2"},"vehicle_type_id":"4","last_reported":1747674553,"current_range_meters":16400,"station_id":"ce4bhf92rcd13ifvqf40","pricing_plan_id":"cebpf4jnsgd1na2vs0mg"},{"bike_id":"c3c11b11-8507-45b4-bd48-1e3bdd46fbbe","system_id":"levelo_inurba_marseille","lat":43.231839,"lon":5.399808,"is_reserved":false,"is_disabled":false,"rental_uris":{"android":"levelo://app?vid=c3c11b11-8507-45b4-bd48-1e3bdd46fbbe","ios":"levelo://app?vid=c3c11b11-8507-45b4-bd48-1e3bdd46fbbe"},"vehicle_type_id":"4","last_reported":1747674553,"current_range_meters":16400,"station_id":"ce4bhn12rcd13ifvqgqg","pricing_plan_id":"cebpf4jnsgd1na2vs0mg"},{"bike_id":"e2e3a6f6-0f08-4185-b27b-75bc9500a96d","system_id":"levelo_inurba_marseille","lat":43.211936,"lon":5.350672,"is_reserved":false,"is_disabled":false,"rental_uris":{"android":"levelo://app?vid=e2e3a6f6-0f08-4185-b27b-75bc9500a96d","ios":"levelo://app?vid=e2e3a6f6-0f08-4185-b27b-75bc9500a96d"},"vehicle_type_id":"4","last_reported":1747674553,"current_range_meters":16400,"station_id":"st_cvj6sg6p6f1abm77japg","pricing_plan_id":"cebpf4jnsgd1na2vs0mg"},{"bike_id":"b4092363-ce05-481e-b8a5-74f257327df5","system_id":"levelo_inurba_marseille","lat":43.250869,"lon":5.395242,"is_reserved":false,"is_disabled":false,"rental_uris":{"android":"levelo://app?vid=b4092363-ce05-481e-b8a5-74f257327df5","ios":"levelo://app?vid=b4092363-ce05-481e-b8a5-74f257327df5"},"vehicle_type_id":"4","last_reported":1747674553,"current_range_meters":16800,"station_id":"ce4bhm12rcd13ifvqgkg","pricing_plan_id":"cebpf4jnsgd1na2vs0mg"},{"bike_id":"9b63efe6-d6c2-49a4-b3cc-9fd09ada16ea","system_id":"levelo_inurba_marseille","lat":43.3171,"lon":5.43709,"is_reserved":false,"is_disabled":false,"rental_uris":{"android":"levelo://app?vid=9b63efe6-d6c2-49a4-b3cc-9fd09ada16ea","ios":"levelo://app?vid=9b63efe6-d6c2-49a4-b3cc-9fd09ada16ea"},"vehicle_type_id":"4","last_reported":1747674553,"current_range_meters":16800,"station_id":"ce4bhp92rcd13ifvqhcg","pricing_plan_id":"cebpf4jnsgd1na2vs0mg"},{"bike_id":"f7ba69ff-6dec-445d-8348-61600896a4d0","system_id":"levelo_inurba_marseille","lat":43.270701,"lon":5.392113,"is_reserved":false,"is_disabled":false,"rental_uris":{"android":"levelo://app?vid=f7ba69ff-6dec-445d-8348-61600896a4d0","ios":"levelo://app?vid=f7ba69ff-6dec-445d-8348-61600896a4d0"},"vehicle_type_id":"4","last_reported":1747674553,"current_range_meters":16800,"station_id":"cjm6bp8fraef2m0cb0m0","pricing_plan_id":"cebpf4jnsgd1na2vs0mg"},{"bike_id":"a77299a9-0afc-4000-817b-f97ca1eaadca","system_id":"levelo_inurba_marseille","lat":43.28826,"lon":5.45936,"is_reserved":false,"is_disabled":false,"rental_uris":{"android":"levelo://app?vid=a77299a9-0afc-4000-817b-f97ca1eaadca","ios":"levelo://app?vid=a77299a9-0afc-4000-817b-f97ca1eaadca"},"vehicle_type_id":"4","last_reported":1747674553,"current_range_meters":17200,"station_id":"","pricing_plan_id":"cebpf4jnsgd1na2vs0mg"},{"bike_id":"6386b301-5c5b-41dc-9be6-064d845d26a2","system_id":"levelo_inurba_marseille","lat":43.28639,"lon":5.40656,"is_reserved":false,"is_disabled":false,"rental_uris":{"android":"levelo://app?vid=6386b301-5c5b-41dc-9be6-064d845d26a2","ios":"levelo://app?vid=6386b301-5c5b-41dc-9be6-064d845d26a2"},"vehicle_type_id":"4","last_reported":1747674553,"current_range_meters":17200,"station_id":"","pricing_plan_id":"cebpf4jnsgd1na2vs0mg"},{"bike_id":"bde564e2-333a-45c0-848b-4ff0142d7c37","system_id":"levelo_inurba_marseille","lat":43.25822,"lon":5.39429,"is_reserved":false,"is_disabled":false,"rental_uris":{"android":"levelo://app?vid=bde564e2-333a-45c0-848b-4ff0142d7c37","ios":"levelo://app?vid=bde564e2-333a-45c0-848b-4ff0142d7c37"},"vehicle_type_id":"4","last_reported":1747674553,"current_range_meters":17200,"station_id":"ce4bhip2rcd13ifvqft0","pricing_plan_id":"cebpf4jnsgd1na2vs0mg"},{"bike_id":"5f93adbf-6709-4962-95a9-7ffaf645704a","system_id":"levelo_inurba_marseille","lat":43.245697,"lon":5.39527,"is_reserved":false,"is_disabled":false,"rental_uris":{"android":"levelo://app?vid=5f93adbf-6709-4962-95a9-7ffaf645704a","ios":"levelo://app?vid=5f93adbf-6709-4962-95a9-7ffaf645704a"},"vehicle_type_id":"4","last_reported":1747674553,"current_range_meters":17200,"station_id":"ce4bhlp2rcd13ifvqgjg","pricing_plan_id":"cebpf4jnsgd1na2vs0mg"},{"bike_id":"0c75e290-2f49-4428-9202-02a35670787a","system_id":"levelo_inurba_marseille","lat":43.23183,"lon":5.39979,"is_reserved":false,"is_disabled":false,"rental_uris":{"android":"levelo://app?vid=0c75e290-2f49-4428-9202-02a35670787a","ios":"levelo://app?vid=0c75e290-2f49-4428-9202-02a35670787a"},"vehicle_type_id":"4","last_reported":1747674553,"current_range_meters":17200,"station_id":"ce4bhn12rcd13ifvqgqg","pricing_plan_id":"cebpf4jnsgd1na2vs0mg"},{"bike_id":"e897920b-c2c2-40a1-b7a0-9930347d71db","system_id":"levelo_inurba_marseille","lat":43.27947,"lon":5.41046,"is_reserved":false,"is_disabled":false,"rental_uris":{"android":"levelo://app?vid=e897920b-c2c2-40a1-b7a0-9930347d71db","ios":"levelo://app?vid=e897920b-c2c2-40a1-b7a0-9930347d71db"},"vehicle_type_id":"4","last_reported":1747674553,"current_range_meters":17200,"station_id":"ce4bhnp2rcd13ifvqh0g","pricing_plan_id":"cebpf4jnsgd1na2vs0mg"},{"bike_id":"97e224b2-e630-45bb-9358-0e2427dc8579","system_id":"levelo_inurba_marseille","lat":43.30413,"lon":5.39762,"is_reserved":false,"is_disabled":false,"rental_uris":{"android":"levelo://app?vid=97e224b2-e630-45bb-9358-0e2427dc8579","ios":"levelo://app?vid=97e224b2-e630-45bb-9358-0e2427dc8579"},"vehicle_type_id":"4","last_reported":1747674553,"current_range_meters":17600,"station_id":"ce4bh092rcd13ifvqd20","pricing_plan_id":"cebpf4jnsgd1na2vs0mg"},{"bike_id":"dd1443b1-efde-4609-9add-34f7004f63c4","system_id":"levelo_inurba_marseille","lat":43.29518,"lon":5.39028,"is_reserved":false,"is_disabled":false,"rental_uris":{"android":"levelo://app?vid=dd1443b1-efde-4609-9add-34f7004f63c4","ios":"levelo://app?vid=dd1443b1-efde-4609-9add-34f7004f63c4"},"vehicle_type_id":"4","last_reported":1747674553,"current_range_meters":17600,"station_id":"ce4bh3p2rcd13ifvqdp0","pricing_plan_id":"cebpf4jnsgd1na2vs0mg"},{"bike_id":"7d1c40fa-64e8-4e5e-8db7-f6f3ff7921e4","system_id":"levelo_inurba_marseille","lat":43.26194,"lon":5.37936,"is_reserved":false,"is_disabled":false,"rental_uris":{"android":"levelo://app?vid=7d1c40fa-64e8-4e5e-8db7-f6f3ff7921e4","ios":"levelo://app?vid=7d1c40fa-64e8-4e5e-8db7-f6f3ff7921e4"},"vehicle_type_id":"4","last_reported":1747674553,"current_range_meters":17600,"station_id":"ce4bhjp2rcd13ifvqg90","pricing_plan_id":"cebpf4jnsgd1na2vs0mg"},{"bike_id":"abdb0c25-ebd3-40f8-9746-55bd22fa796a","system_id":"levelo_inurba_marseille","lat":43.27809,"lon":5.40712,"is_reserved":false,"is_disabled":false,"rental_uris":{"android":"levelo://app?vid=abdb0c25-ebd3-40f8-9746-55bd22fa796a","ios":"levelo://app?vid=abdb0c25-ebd3-40f8-9746-55bd22fa796a"},"vehicle_type_id":"4","last_reported":1747674553,"current_range_meters":17600,"station_id":"ce4bhnh2rcd13ifvqgtg","pricing_plan_id":"cebpf4jnsgd1na2vs0mg"},{"bike_id":"75dee7d2-0f48-4cd8-b326-0e219910beed","system_id":"levelo_inurba_marseille","lat":43.307954,"lon":5.435368,"is_reserved":false,"is_disabled":false,"rental_uris":{"android":"levelo://app?vid=75dee7d2-0f48-4cd8-b326-0e219910beed","ios":"levelo://app?vid=75dee7d2-0f48-4cd8-b326-0e219910beed"},"vehicle_type_id":"4","last_reported":1747674553,"current_range_meters":17600,"station_id":"ce4bhph2rcd13ifvqheg","pricing_plan_id":"cebpf4jnsgd1na2vs0mg"},{"bike_id":"52e5a0fd-9a82-4a4a-8f0b-b92665327644","system_id":"levelo_inurba_marseille","lat":43.30808,"lon":5.43514,"is_reserved":false,"is_disabled":false,"rental_uris":{"android":"levelo://app?vid=52e5a0fd-9a82-4a4a-8f0b-b92665327644","ios":"levelo://app?vid=52e5a0fd-9a82-4a4a-8f0b-b92665327644"},"vehicle_type_id":"4","last_reported":1747674553,"current_range_meters":17600,"station_id":"ce4bhph2rcd13ifvqheg","pricing_plan_id":"cebpf4jnsgd1na2vs0mg"},