{"last_updated":1725984629,"ttl":30,"version":"2.2","data":{"bikes":[{"bike_id":"3b058357-aa33-4376-b3b6-10902fcac2c4","system_id":"levelo_inurba_marseille","lat":43.2827,"lon":5.35059,"is_reserved":false,"is_disabled":false,"rental_uris":{"android":"levelo://app?vid=3b058357-aa33-4376-b3b6-10902fcac2c4","ios":"levelo://app?vid=3b058357-aa33-4376-b3b6-10902fcac2c4"},"vehicle_type_id":"4","last_reported":1725984630,"current_range_meters":20800,"station_id":"ce4bhbp2rcd13ifvqerg","pricing_plan_id":"cebpf4jnsgd1na2vs0mg"},{"bike_id":"7d877363-4448-4b92-8e0a-8d49e7075f50","system_id":"levelo_inurba_marseille","lat":43.27365,"lon":5.36252,"is_reserved":false,"is_disabled":false,"rental_uris":{"android":"levelo://app?vid=7d877363-4448-4b92-8e0a-8d49e7075f50","ios":"levelo://app?vid=7d877363-4448-4b92-8e0a-8d49e7075f50"},"vehicle_type_id":"4","last_reported":1725984630,"current_range_meters":34000,"station_id":"ce4bhbh2rcd13ifvqeo0","pricing_plan_id":"cebpf4jnsgd1na2vs0mg"},{"bike_id":"0b795877-1d3f-4ca2-b300-6e6c2ec0e82a","system_id":"levelo_inurba_marseille","lat":43.28484,"lon":5.38408,"is_reserved":false,"is_disabled":false,"rental_uris":{"android":"levelo://app?vid=0b795877-1d3f-4ca2-b300-6e6c2ec0e82a","ios":"levelo://app?vid=0b795877-1d3f-4ca2-b300-6e6c2ec0e82a"},"vehicle_type_id":"4","last_reported":1725984630,"current_range_meters":6800,"station_id":"ce4bh512rcd13ifvqe3g","pricing_plan_id":"cebpf4jnsgd1na2vs0mg"},{"bike_id":"97926d2c-bc7c-432b-80df-bea3f68ad505","system_id":"levelo_inurba_marseille","lat":43.26558,"lon":5.37281,"is_reserved":false,"is_disabled":false,"rental_uris":{"android":"levelo://app?vid=97926d2c-bc7c-432b-80df-bea3f68ad505","ios":"levelo://app?vid=97926d2c-bc7c-432b-80df-bea3f68ad505"},"vehicle_type_id":"4","last_reported":1725984630,"current_range_meters":16000,"station_id":"ce4bhg12rcd13ifvqf70","pricing_plan_id":"cebpf4jnsgd1na2vs0mg"},{"bike_id":"bbb3d976-3e5d-4afd-b2f0-a1debaa89fae","system_id":"levelo_inurba_marseille","lat":43.29328,"lon":5.41162,"is_reserved":false,"is_disabled":false,"rental_uris":{"android":"levelo://app?vid=bbb3d976-3e5d-4afd-b2f0-a1debaa89fae","ios":"levelo://app?vid=bbb3d976-3e5d-4afd-b2f0-a1debaa89fae"},"vehicle_type_id":"4","last_reported":1725984630,"current_range_meters":24800,"station_id":"","pricing_plan_id":"cebpf4jnsgd1na2vs0mg"},{"bike_id":"c5aa09ce-f362-4ab0-a63e-ed9a3362f8b1","system_id":"levelo_inurba_marseille","lat":43.29419,"lon":5.38627,"is_reserved":false,"is_disabled":false,"rental_uris":{"android":"levelo://app?vid=c5aa09ce-f362-4ab0-a63e-ed9a3362f8b1","ios":"levelo://app?vid=c5aa09ce-f362-4ab0-a63e-ed9a3362f8b1"},"vehicle_type_id":"4","last_reported":1725984630,"current_range_meters":18000,"station_id":"ce4bh2h2rcd13ifvqdh0","pricing_plan_id":"cebpf4jnsgd1na2vs0mg"},{"bike_id":"fd6fa305-ba07-4131-a17f-78ca97b8678f","system_id":"levelo_inurba_marseille","lat":43.27072,"lon":5.42277,"is_reserved":false,"is_disabled":false,"rental_uris":{"android":"levelo://app?vid=fd6fa305-ba07-4131-a17f-78ca97b8678f","ios":"levelo://app?vid=fd6fa305-ba07-4131-a17f-78ca97b8678f"},"vehicle_type_id":"4","last_reported":1725984630,"current_range_meters":36000,"station_id":"ce4bhk92rcd13ifvqgb0","pricing_plan_id":"cebpf4jnsgd1na2vs0mg"},{"bike_id":"f34747ce-f309-4326-987e-7bc67d09e8c3","system_id":"levelo_inurba_marseille","lat":43.322879,"lon":5.382663,"is_reserved":false,"is_disabled":false,"rental_uris":{"android":"levelo://app?vid=f34747ce-f309-4326-987e-7bc67d09e8c3","ios":"levelo://app?vid=f34747ce-f309-4326-987e-7bc67d09e8c3"},"vehicle_type_id":"4","last_reported":1725984630,"current_range_meters":34000,"station_id":"ce4bhr12rcd13ifvqhqg","pricing_plan_id":"cebpf4jnsgd1na2vs0mg"},{"bike_id":"8919cd27-0653-429b-a6a2-2364d4ecad0d","system_id":"levelo_inurba_marseille","lat":43.26213,"lon":5.37445,"is_reserved":false,"is_disabled":false,"rental_uris":{"android":"levelo://app?vid=8919cd27-0653-429b-a6a2-2364d4ecad0d","ios":"levelo://app?vid=8919cd27-0653-429b-a6a2-2364d4ecad0d"},"vehicle_type_id":"4","last_reported":1725984630,"current_range_meters":2800,"station_id":"ce4bhgp2rcd13ifvqfc0","pricing_plan_id":"cebpf4jnsgd1na2vs0mg"},{"bike_id":"3a610c72-f44c-428a-ba87-6ec4a94fc829","system_id":"levelo_inurba_marseille","lat":43.29222,"lon":5.36051,"is_reserved":false,"is_disabled":false,"rental_uris":{"android":"levelo://app?vid=3a610c72-f44c-428a-ba87-6ec4a94fc829","ios":"levelo://app?vid=3a610c72-f44c-428a-ba87-6ec4a94fc829"},"vehicle_type_id":"4","last_reported":1725984630,"current_range_meters":11600,"station_id":"ce4bhbh2rcd13ifvqeqg","pricing_plan_id":"cebpf4jnsgd1na2vs0mg"},{"bike_id":"74244c78-25ab-4d9d-bcbf-e77ece6657bd","system_id":"levelo_inurba_marseille","lat":43.29374,"lon":5.37858,"is_reserved":false,"is_disabled":false,"rental_uris":{"android":"levelo://app?vid=74244c78-25ab-4d9d-bcbf-e77ece6657bd","ios":"levelo://app?vid=74244c78-25ab-4d9d-bcbf-e77ece6657bd"},"vehicle_type_id":"4","last_reported":1725984630,"current_range_meters":17200,"station_id":"ce4bgjh2rcd13ifvqbf0","pricing_plan_id":"cebpf4jnsgd1na2vs0mg"},{"bike_id":"0aa33401-7b64-4103-908f-0e65fc02cfc0","system_id":"levelo_inurba_marseille","lat":43.28465,"lon":5.3587,"is_reserved":false,"is_disabled":false,"rental_uris":{"android":"levelo://app?vid=0aa33401-7b64-4103-908f-0e65fc02cfc0","ios":"levelo://app?vid=0aa33401-7b64-4103-908f-0e65fc02cfc0"},"vehicle_type_id":"4","last_reported":1725984630,"current_range_meters":0,"station_id":"ce4bhah2rcd13ifvqei0","pricing_plan_id":"cebpf4jnsgd1na2vs0mg"},{"bike_id":"4f8ec2a3-9c15-4c8b-8510-320d8c9c92e6","system_id":"levelo_inurba_marseille","lat":43.26554,"lon":5.37282,"is_reserved":false,"is_disabled":false,"rental_uris":{"android":"levelo://app?vid=4f8ec2a3-9c15-4c8b-8510-320d8c9c92e6","ios":"levelo://app?vid=4f8ec2a3-9c15-4c8b-8510-320d8c9c92e6"},"vehicle_type_id":"4","last_reported":1725984630,"current_range_meters":25200,"station_id":"ce4bhg12rcd13ifvqf70","pricing_plan_id":"cebpf4jnsgd1na2vs0mg"},{"bike_id":"b8e736ea-da7d-492d-b5e7-27d0ad9b3e50","system_id":"levelo_inurba_marseille","lat":43.280847,"lon":5.396983,"is_reserved":false,"is_disabled":false,"rental_uris":{"android":"levelo://app?vid=b8e736ea-da7d-492d-b5e7-27d0ad9b3e50","ios":"levelo://app?vid=b8e736ea-da7d-492d-b5e7-27d0ad9b3e50"},"vehicle_type_id":"4","last_reported":1725984630,"current_range_meters":19200,"station_id":"ce4bho12rcd13ifvqh2g","pricing_plan_id":"cebpf4jnsgd1na2vs0mg"},{"bike_id":"b2bd166e-3b1b-40d9-8bb9-e833695567ac","system_id":"levelo_inurba_marseille","lat":43.28942,"lon":5.36639,"is_reserved":false,"is_disabled":false,"rental_uris":{"android":"levelo://app?vid=b2bd166e-3b1b-40d9-8bb9-e833695567ac","ios":"levelo://app?vid=b2bd166e-3b1b-40d9-8bb9-e833695567ac"},"vehicle_type_id":"4","last_reported":1725984630,"current_range_meters":6000,"station_id":"ce4bhap2rcd13ifvqek0","pricing_plan_id":"cebpf4jnsgd1na2vs0mg"},{"bike_id":"6c02a711-e0d4-4009-9d44-fba5428f55b2","system_id":"levelo_inurba_marseille","lat":43.23194,"lon":5.3556,"is_reserved":false,"is_disabled":false,"rental_uris":{"android":"levelo://app?vid=6c02a711-e0d4-4009-9d44-fba5428f55b2","ios":"levelo://app?vid=6c02a711-e0d4-4009-9d44-fba5428f55b2"},"vehicle_type_id":"4","last_reported":1725984630,"current_range_meters":8800,"station_id":"ce4bhu92rcd13ifvqi70","pricing_plan_id":"cebpf4jnsgd1na2vs0mg"},{"bike_id":"bb4606be-d1db-4c9f-8784-d7e9ae75b2f0","system_id":"levelo_inurba_marseille","lat":43.30077,"lon":5.39831,"is_reserved":false,"is_disabled":false,"rental_uris":{"android":"levelo://app?vid=bb4606be-d1db-4c9f-8784-d7e9ae75b2f0","ios":"levelo://app?vid=bb4606be-d1db-4c9f-8784-d7e9ae75b2f0"},"vehicle_type_id":"4","last_reported":1725984630,"current_range_meters":2800,"station_id":"ce4bh392rcd13ifvqdl0","pricing_plan_id":"cebpf4jnsgd1na2vs0mg"},{"bike_id":"8f60d83a-d0d0-447b-b727-e492e38157a9","system_id":"levelo_inurba_marseille","lat":43.31522,"lon":5.38027,"is_reserved":false,"is_disabled":false,"rental_uris":{"android":"levelo://app?vid=8f60d83a-d0d0-447b-b727-e492e38157a9","ios":"levelo://app?vid=8f60d83a-d0d0-447b-b727-e492e38157a9"},"vehicle_type_id":"4","last_reported":1725984630,"current_range_meters":10800,"station_id":"ce4bhsp2rcd13ifvqi50","pricing_plan_id":"cebpf4jnsgd1na2vs0mg"},{"bike_id":"24413c6b-9105-42df-9335-235cdba8ce04","system_id":"levelo_inurba_marseille","lat":43.25722,"lon":5.41107,"is_reserved":false,"is_disabled":false,"rental_uris":{"android":"levelo://app?vid=24413c6b-9105-42df-9335-235cdba8ce04","ios":"levelo://app?vid=24413c6b-9105-42df-9335-235cdba8ce04"},"vehicle_type_id":"4","last_reported":1725984630,"current_range_meters":14800,"station_id":"ce4bhkp2rcd13ifvqgd0","pricing_plan_id":"cebpf4jnsgd1na2vs0mg"},{"bike_id":"1a50f7b8-8d6a-4ca0-9b9a-88f97898efad","system_id":"levelo_inurba_marseille","lat":43.26491,"lon":5.39543,"is_reserved":false,"is_disabled":false,"rental_uris":{"android":"levelo://app?vid=1a50f7b8-8d6a-4ca0-9b9a-88f97898efad","ios":"levelo://app?vid=1a50f7b8-8d6a-4ca0-9b9a-88f97898efad"},"vehicle_type_id":"4","last_reported":1725984630,"current_range_meters":7200,"station_id":"ce4bhi12rcd13ifvqfq0","pricing_plan_id":"cebpf4jnsgd1na2vs0mg"},{"bike_id":"ab18c23e-34f4-493c-b4f8-df6a26d519e4","system_id":"levelo_inurba_marseille","lat":43.28613,"lon":5.35101,"is_reserved":false,"is_disabled":false,"rental_uris":{"android":"levelo://app?vid=ab18c23e-34f4-493c-b4f8-df6a26d519e4","ios":"levelo://app?vid=ab18c23e-34f4-493c-b4f8-df6a26d519e4"},"vehicle_type_id":"4","last_reported":1725984630,"current_range_meters":7200,"station_id":"ce4bhch2rcd13ifvqeug","pricing_plan_id":"cebpf4jnsgd1na2vs0mg"},{"bike_id":"b59d6bb8-aefb-4db8-b3f2-f169f342ddcd","system_id":"levelo_inurba_marseille","lat":43.32364,"lon":5.38889,"is_reserved":false,"is_disabled":false,"rental_uris":{"android":"levelo://app?vid=b59d6bb8-aefb-4db8-b3f2-f169f342ddcd","ios":"levelo://app?vid=b59d6bb8-aefb-4db8-b3f2-f169f342ddcd"},"vehicle_type_id":"4","last_reported":1725984630,"current_range_meters":7200,"station_id":"ce4bhqp2rcd13ifvqhog","pricing_plan_id":"cebpf4jnsgd1na2vs0mg"},{"bike_id":"1f048da0-4801-471a-ac34-eb7fc651e924","system_id":"levelo_inurba_marseille","lat":43.23967,"lon":5.36632,"is_reserved":false,"is_disabled":false,"rental_uris":{"android":"levelo://app?vid=1f048da0-4801-471a-ac34-eb7fc651e924","ios":"levelo://app?vid=1f048da0-4801-471a-ac34-eb7fc651e924"},"vehicle_type_id":"4","last_reported":1725984630,"current_range_meters":6400,"station_id":"ce4bhi12rcd13ifvqfp0","pricing_plan_id":"cebpf4jnsgd1na2vs0mg"},{"bike_id":"c24de65c-6650-4c34-9b6c-9c8ecc0399c2","system_id":"levelo_inurba_marseille","lat":43.28621,"lon":5.35106,"is_reserved":false,"is_disabled":false,"rental_uris":{"android":"levelo://app?vid=c24de65c-6650-4c34-9b6c-9c8ecc0399c2","ios":"levelo://app?vid=c24de65c-6650-4c34-9b6c-9c8ecc0399c2"},"vehicle_type_id":"4","last_reported":1725984630,"current_range_meters":36000,"station_id":"ce4bhch2rcd13ifvqeug","pricing_plan_id":"cebpf4jnsgd1na2vs0mg"},{"bike_id":"cd8b0970-de93-4cc3-85ec-cc9b2216e220","system_id":"levelo_inurba_marseille","lat":43.30305,"lon":5.39216,"is_reserved":false,"is_disabled":false,"rental_uris":{"android":"levelo://app?vid=cd8b0970-de93-4cc3-85ec-cc9b2216e220","ios":"levelo://app?vid=cd8b0970-de93-4cc3-85ec-cc9b2216e220"},"vehicle_type_id":"4","last_reported":1725984630,"current_range_meters":3600,"station_id":"ce4bgkh2rcd13ifvqbk0","pricing_plan_id":"cebpf4jnsgd1na2vs0mg"},{"bike_id":"d84a0d30-4ac4-4e6a-b8f8-2bddec432685","system_id":"levelo_inurba_marseille","lat":43.31765,"lon":5.39014,"is_reserved":false,"is_disabled":false,"rental_uris":{"android":"levelo://app?vid=d84a0d30-4ac4-4e6a-b8f8-2bddec432685","ios":"levelo://app?vid=d84a0d30-4ac4-4e6a-b8f8-2bddec432685"},"vehicle_type_id":"4","last_reported":1725984630,"current_range_meters":4000,"station_id":"ce4bhqp2rcd13ifvqhng","pricing_plan_id":"cebpf4jnsgd1na2vs0mg"},{"bike_id":"e7856795-7181-4708-965e-28de31ac7220","system_id":"levelo_inurba_marseille","lat":43.317363,"lon":5.423916,"is_reserved":false,"is_disabled":false,"rental_uris":{"android":"levelo://app?vid=e7856795-7181-4708-965e-28de31ac7220","ios":"levelo://app?vid=e7856795-7181-4708-965e-28de31ac7220"},"vehicle_type_id":"4","last_reported":1725984630,"current_range_meters":30400,"station_id":"ce4bhp92rcd13ifvqhbg","pricing_plan_id":"cebpf4jnsgd1na2vs0mg"},{"bike_id":"d94cf20d-19e4-4d88-bbb3-72b7a4c6baa3","system_id":"levelo_inurba_marseille","lat":43.32288,"lon":5.38273,"is_reserved":false,"is_disabled":false,"rental_uris":{"android":"levelo://app?vid=d94cf20d-19e4-4d88-bbb3-72b7a4c6baa3","ios":"levelo://app?vid=d94cf20d-19e4-4d88-bbb3-72b7a4c6baa3"},"vehicle_type_id":"4","last_reported":1725984630,"current_range_meters":34000,"station_id":"ce4bhr12rcd13ifvqhqg","pricing_plan_id":"cebpf4jnsgd1na2vs0mg"},{"bike_id":"a13f03dd-a149-4b66-8883-db940e9250e2","system_id":"levelo_inurba_marseille","lat":43.28609,"lon":5.3707,"is_reserved":false,"is_disabled":false,"rental_uris":{"android":"levelo://app?vid=a13f03dd-a149-4b66-8883-db940e9250e2","ios":"levelo://app?vid=a13f03dd-a149-4b66-8883-db940e9250e2"},"vehicle_type_id":"4","last_reported":1725984630,"current_range_meters":2800,"station_id":"ce4bht12rcd13ifvqi60","pricing_plan_id":"cebpf4jnsgd1na2vs0mg"},{"bike_id":"f003917f-2a99-4063-b38d-f843a84c3a63","system_id":"levelo_inurba_marseille","lat":43.284133,"lon":5.375012,"is_reserved":false,"is_disabled":false,"rental_uris":{"android":"levelo://app?vid=f003917f-2a99-4063-b38d-f843a84c3a63","ios":"levelo://app?vid=f003917f-2a99-4063-b38d-f843a84c3a63"},"vehicle_type_id":"4","last_reported":1725984630,"current_range_meters":27600,"station_id":"ce4bh412rcd13ifvqds0","pricing_plan_id":"cebpf4jnsgd1na2vs0mg"},{"bike_id":"c06e239b-5ef3-4cdb-9ba5-b04fb62a3d5c","system_id":"levelo_inurba_marseille","lat":43.297826,"lon":5.371047,"is_reserved":false,"is_disabled":false,"rental_uris":{"android":"levelo://app?vid=c06e239b-5ef3-4cdb-9ba5-b04fb62a3d5c","ios":"levelo://app?vid=c06e239b-5ef3-4cdb-9ba5-b04fb62a3d5c"},"vehicle_type_id":"4","last_reported":1725984630,"current_range_meters":33600,"station_id":"ce4bgop2rcd13ifvqc1g","pricing_plan_id":"cebpf4jnsgd1na2vs0mg"},{"bike_id":"0349538c-e53e-43a7-a4ea-50844ea05ce8","system_id":"levelo_inurba_marseille","lat":43.31078,"lon":5.42427,"is_reserved":false,"is_disabled":false,"rental_uris":{"android":"levelo://app?vid=0349538c-e53e-43a7-a4ea-50844ea05ce8","ios":"levelo://app?vid=0349538c-e53e-43a7-a4ea-50844ea05ce8"},"vehicle_type_id":"4","last_reported":1725984630,"current_range_meters":6400,"station_id":"ce4bhp92rcd13ifvqhag","pricing_plan_id":"cebpf4jnsgd1na2vs0mg"},{"bike_id":"d88f2e52-8c81-4ab3-9963-8c1e58946083","system_id":"levelo_inurba_marseille","lat":43.28423,"lon":5.34981,"is_reserved":false,"is_disabled":false,"rental_uris":{"android":"levelo://app?vid=d88f2e52-8c81-4ab3-9963-8c1e58946083","ios":"levelo://app?vid=d88f2e52-8c81-4ab3-9963-8c1e58946083"},"vehicle_type_id":"4","last_reported":1725984630,"current_range_meters":38400,"station_id":"ce4bhbh2rcd13ifvqepg","pricing_plan_id":"cebpf4jnsgd1na2vs0mg"},{"bike_id":"2e23597d-e77d-486c-a95e-6cdb71b1bd53","system_id":"levelo_inurba_marseille","lat":43.3236,"lon":5.38881,"is_reserved":false,"is_disabled":false,"rental_uris":{"android":"levelo://app?vid=2e23597d-e77d-486c-a95e-6cdb71b1bd53","ios":"levelo://app?vid=2e23597d-e77d-486c-a95e-6cdb71b1bd53"},"vehicle_type_id":"4","last_reported":1725984630,"current_range_meters":13600,"station_id":"ce4bhqp2rcd13ifvqhog","pricing_plan_id":"cebpf4jnsgd1na2vs0mg"},{"bike_id":"53874dbc-e8ec-42b3-a36f-3be0f8c71820","system_id":"levelo_inurba_marseille","lat":43.2827,"lon":5.3506,"is_reserved":false,"is_disabled":false,"rental_uris":{"android":"levelo://app?vid=53874dbc-e8ec-42b3-a36f-3be0f8c71820","ios":"levelo://app?vid=53874dbc-e8ec-42b3-a36f-3be0f8c71820"},"vehicle_type_id":"4","last_reported":1725984630,"current_range_meters":26800,"station_id":"ce4bhbp2rcd13ifvqerg","pricing_plan_id":"cebpf4jnsgd1na2vs0mg"},{"bike_id":"45ea4dbd-147b-42c3-98f8-a010d0a7413e","system_id":"levelo_inurba_marseille","lat":43.23183,"lon":5.39995,"is_reserved":false,"is_disabled":false,"rental_uris":{"android":"levelo://app?vid=45ea4dbd-147b-42c3-98f8-a010d0a7413e","ios":"levelo://app?vid=45ea4dbd-147b-42c3-98f8-a010d0a7413e"},"vehicle_type_id":"4","last_reported":1725984630,"current_range_meters":8000,"station_id":"ce4bhn12rcd13ifvqgqg","pricing_plan_id":"cebpf4jnsgd1na2vs0mg"},{"bike_id":"a0f777fd-2b64-4158-818c-6e3cb77d56a3","system_id":"levelo_inurba_marseille","lat":43.307962,"lon":5.435247,"is_reserved":false,"is_disabled":false,"rental_uris":{"android":"levelo://app?vid=a0f777fd-2b64-4158-818c-6e3cb77d56a3","ios":"levelo://app?vid=a0f777fd-2b64-4158-818c-6e3cb77d56a3"},"vehicle_type_id":"4","last_reported":1725984630,"current_range_meters":18000,"station_id":"ce4bhph2rcd13ifvqheg","pricing_plan_id":"cebpf4jnsgd1na2vs0mg"},{"bike_id":"00bfd3c7-85b9-4194-90f5-733437ba3389","system_id":"levelo_inurba_marseille","lat":43.299495,"lon":5.412868,"is_reserved":false,"is_disabled":false,"rental_uris":{"android":"levelo://app?vid=00bfd3c7-85b9-4194-90f5-733437ba3389","ios":"levelo://app?vid=00bfd3c7-85b9-4194-90f5-733437ba3389"},"vehicle_type_id":"4","last_reported":1725984630,"current_range_meters":38400,"station_id":"ce4bhop2rcd13ifvqh8g","pricing_plan_id":"cebpf4jnsgd1na2vs0mg"},{"bike_id":"6ac0385a-09c3-4112-8eb3-5351bb9c2a07","system_id":"levelo_inurba_marseille","lat":43.28462,"lon":5.3589,"is_reserved":false,"is_disabled":false,"rental_uris":{"android":"levelo://app?vid=6ac0385a-09c3-4112-8eb3-5351bb9c2a07","ios":"levelo://app?vid=6ac0385a-09c3-4112-8eb3-5351bb9c2a07"},"vehicle_type_id":"4","last_reported":1725984630,"current_range_meters":2800,"station_id":"ce4bhah2rcd13ifvqei0","pricing_plan_id":"cebpf4jnsgd1na2vs0mg"},{"bike_id":"b77681a4-4ed0-4be8-bbd7-2dc7c4cd333c","system_id":"levelo_inurba_marseille","lat":43.31764,"lon":5.39021,"is_reserved":false,"is_disabled":false,"rental_uris":{"android":"levelo://app?vid=b77681a4-4ed0-4be8-bbd7-2dc7c4cd333c","ios":"levelo://app?vid=b77681a4-4ed0-4be8-bbd7-2dc7c4cd333c"},"vehicle_type_id":"4","last_reported":1725984630,"current_range_meters":33200,"station_id":"ce4bhqp2rcd13ifvqhng","pricing_plan_id":"cebpf4jnsgd1na2vs0mg"},{"bike_id":"eb44b977-1582-4dfb-a426-9e21142e357d","system_id":"levelo_inurba_marseille","lat":43.27183,"lon":5.40992,"is_reserved":false,"is_disabled":false,"rental_uris":{"android":"levelo://app?vid=eb44b977-1582-4dfb-a426-9e21142e357d","ios":"levelo://app?vid=eb44b977-1582-4dfb-a426-9e21142e357d"},"vehicle_type_id":"4","last_reported":1725984630,"current_range_meters":28000,"station_id":"ce4bhl12rcd13ifvqgf0","pricing_plan_id":"cebpf4jnsgd1na2vs0mg"},{"bike_id":"1b6e2e72-57dd-4816-ad2d-56ee41ec111c","system_id":"levelo_inurba_marseille","lat":43.279418,"lon":5.410495,"is_reserved":false,"is_disabled":false,"rental_uris":{"android":"levelo://app?vid=1b6e2e72-57dd-4816-ad2d-56ee41ec111c","ios":"levelo://app?vid=1b6e2e72-57dd-4816-ad2d-56ee41ec111c"},"vehicle_type_id":"4","last_reported":1725984630,"current_range_meters":22800,"station_id":"ce4bhnp2rcd13ifvqh0g","pricing_plan_id":"cebpf4jnsgd1na2vs0mg"},{"bike_id":"cbe342fb-bfc1-4a9e-b1ef-d6f96bb0cde4","system_id":"levelo_inurba_marseille","lat":43.23186,"lon":5.39975,"is_reserved":false,"is_disabled":false,"rental_uris":{"android":"levelo://app?vid=cbe342fb-bfc1-4a9e-b1ef-d6f96bb0cde4","ios":"levelo://app?vid=cbe342fb-bfc1-4a9e-b1ef-d6f96bb0cde4"},"vehicle_type_id":"4","last_reported":1725984630,"current_range_meters":8400,"station_id":"ce4bhn12rcd13ifvqgqg","pricing_plan_id":"cebpf4jnsgd1na2vs0mg"},{"bike_id":"044c6c19-928b-49be-810d-1a1364296b66","system_id":"levelo_inurba_marseille","lat":43.27811,"lon":5.40711,"is_reserved":false,"is_disabled":false,"rental_uris":{"android":"levelo://app?vid=044c6c19-928b-49be-810d-1a1364296b66","ios":"levelo://app?vid=044c6c19-928b-49be-810d-1a1364296b66"},"vehicle_type_id":"4","last_reported":1725984630,"current_range_meters":24000,"station_id":"ce4bhnh2rcd13ifvqgtg","pricing_plan_id":"cebpf4jnsgd1na2vs0mg"},{"bike_id":"138b82a6-ade1-406b-bd82-e226c778753a","system_id":"levelo_inurba_marseille","lat":43.308979,"lon":5.380142,"is_reserved":false,"is_disabled":false,"rental_uris":{"android":"levelo://app?vid=138b82a6-ade1-406b-bd82-e226c778753a","ios":"levelo://app?vid=138b82a6-ade1-406b-bd82-e226c778753a"},"vehicle_type_id":"4","last_reported":1725984630,"current_range_meters":24400,"station_id":"ce4bgt12rcd13ifvqce0","pricing_plan_id":"cebpf4jnsgd1na2vs0mg"},{"bike_id":"dd33fe7c-abb9-4c50-adc0-a596731ca0dd","system_id":"levelo_inurba_marseille","lat":43.23158,"lon":5.43701,"is_reserved":false,"is_disabled":false,"rental_uris":{"android":"levelo://app?vid=dd33fe7c-abb9-4c50-adc0-a596731ca0dd","ios":"levelo://app?vid=dd33fe7c-abb9-4c50-adc0-a596731ca0dd"},"vehicle_type_id":"4","last_reported":1725984630,"current_range_meters":34800,"station_id":"ce4bhmp2rcd13ifvqgog","pricing_plan_id":"cebpf4jnsgd1na2vs0mg"},{"bike_id":"e05c8849-7da7-4b3d-9ec5-acf2037a832b","system_id":"levelo_inurba_marseille","lat":43.28269,"lon":5.35066,"is_reserved":false,"is_disabled":false,"rental_uris":{"android":"levelo://app?vid=e05c8849-7da7-4b3d-9ec5-acf2037a832b","ios":"levelo://app?vid=e05c8849-7da7-4b3d-9ec5-acf2037a832b"},"vehicle_type_id":"4","last_reported":1725984630,"current_range_meters":13600,"station_id":"ce4bhbp2rcd13ifvqerg","pricing_plan_id":"cebpf4jnsgd1na2vs0mg"},{"bike_id":"5d352641-3593-4267-b2f1-8ab039017e05","system_id":"levelo_inurba_marseille","lat":43.23196,"lon":5.35554,"is_reserved":false,"is_disabled":false,"rental_uris":{"android":"levelo://app?vid=5d352641-3593-4267-b2f1-8ab039017e05","ios":"levelo://app?vid=5d352641-3593-4267-b2f1-8ab039017e05"},"vehicle_type_id":"4","last_reported":1725984630,"current_range_meters":4000,"station_id":"ce4bhu92rcd13ifvqi70","pricing_plan_id":"cebpf4jnsgd1na2vs0mg"},{"bike_id":"47dd1fda-477a-43ea-9311-34ffe792faed","system_id":"levelo_inurba_marseille","lat":43.287177,"lon":5.360916,"is_reserved":false,"is_disabled":false,"rental_uris":{"android":"levelo://app?vid=47dd1fda-477a-43ea-9311-34ffe792faed","ios":"levelo://app?vid=47dd1fda-477a-43ea-9311-34ffe792faed"},"vehicle_type_id":"4","last_reported":1725984630,"current_range_meters":36400,"station_id":"cki0cbj6b192h4jlfktg","pricing_plan_id":"cebpf4jnsgd1na2vs0mg"},{"bike_id":"917f5979-8940-4fd8-a5f2-834f29795b7c","system_id":"levelo_inurba_marseille","lat":43.23159,"lon":5.43704,"is_reserved":false,"is_disabled":false,"rental_uris":{"android":"levelo://app?vid=917f5979-8940-4fd8-a5f2-834f29795b7c","ios":"levelo://app?vid=917f5979-8940-4fd8-a5f2-834f29795b7c"},"vehicle_type_id":"4","last_reported":1725984630,"current_range_meters":36400,"station_id":"ce4bhmp2rcd13ifvqgog","pricing_plan_id":"cebpf4jnsgd1na2vs0mg"},{"bike_id":"29f1cbac-77e4-4249-a0a2-be996311df9b","system_id":"levelo_inurba_marseille","lat":43.29831,"lon":5.3782,"is_reserved":false,"is_disabled":false,"rental_uris":{"android":"levelo://app?vid=29f1cbac-77e4-4249-a0a2-be996311df9b","ios":"levelo://app?vid=29f1cbac-77e4-4249-a0a2-be996311df9b"},"vehicle_type_id":"4","last_reported":1725984630,"current_range_meters":14400,"station_id":"","pricing_plan_id":"cebpf4jnsgd1na2vs0mg"},{"bike_id":"d00abafe-24d0-4c11-8b6f-bb74cd3e74e5","system_id":"levelo_inurba_marseille","lat":43.31331,"lon":5.39691,"is_reserved":false,"is_disabled":false,"rental_uris":{"android":"levelo://app?vid=d00abafe-24d0-4c11-8b6f-bb74cd3e74e5","ios":"levelo://app?vid=d00abafe-24d0-4c11-8b6f-bb74cd3e74e5"},"vehicle_type_id":"4","last_reported":1725984630,"current_range_meters":2000,"station_id":"ce4bgvp2rcd13ifvqcu0","pricing_plan_id":"cebpf4jnsgd1na2vs0mg"},{"bike_id":"36cb332b-115a-43ea-bc48-b96a0d33872a","system_id":"levelo_inurba_marseille","lat":43.23066,"lon":5.35492,"is_reserved":false,"is_disabled":false,"rental_uris":{"android":"levelo://app?vid=36cb332b-115a-43ea-bc48-b96a0d33872a","ios":"levelo://app?vid=36cb332b-115a-43ea-bc48-b96a0d33872a"},"vehicle_type_id":"4","last_reported":1725984630,"current_range_meters":2000,"station_id":"cpo3342slgdg3j2ifvpg","pricing_plan_id":"cebpf4jnsgd1na2vs0mg"},{"bike_id":"2aad4b02-945c-4d35-b3a5-85b3d17dc503","system_id":"levelo_inurba_marseille","lat":43.32296,"lon":5.38257,"is_reserved":false,"is_disabled":false,"rental_uris":{"android":"levelo://app?vid=2aad4b02-945c-4d35-b3a5-85b3d17dc503","ios":"levelo://app?vid=2aad4b02-945c-4d35-b3a5-85b3d17dc503"},"vehicle_type_id":"4","last_reported":1725984630,"current_range_meters":8400,"station_id":"ce4bhr12rcd13ifvqhqg","pricing_plan_id":"cebpf4jnsgd1na2vs0mg"},{"bike_id":"35abb529-91f2-4536-aace-ca0b581b18c1","system_id":"levelo_inurba_marseille","lat":43.2942,"lon":5.38622,"is_reserved":false,"is_disabled":false,"rental_uris":{"android":"levelo://app?vid=35abb529-91f2-4536-aace-ca0b581b18c1","ios":"levelo://app?vid=35abb529-91f2-4536-aace-ca0b581b18c1"},"vehicle_type_id":"4","last_reported":1725984630,"current_range_meters":17600,"station_id":"ce4bh2h2rcd13ifvqdh0","pricing_plan_id":"cebpf4jnsgd1na2vs0mg"},{"bike_id":"f8220f76-d048-4b96-a53f-d1aada19013e","system_id":"levelo_inurba_marseille","lat":43.25113,"lon":5.40323,"is_reserved":false,"is_disabled":false,"rental_uris":{"android":"levelo://app?vid=f8220f76-d048-4b96-a53f-d1aada19013e","ios":"levelo://app?vid=f8220f76-d048-4b96-a53f-d1aada19013e"},"vehicle_type_id":"4","last_reported":1725984630,"current_range_meters":7200,"station_id":"ce4bhlh2rcd13ifvqgig","pricing_plan_id":"cebpf4jnsgd1na2vs0mg"},{"bike_id":"88fe7cd3-4bdc-4997-b813-4714b44423fa","system_id":"levelo_inurba_marseille","lat":43.302987,"lon":5.392205,"is_reserved":false,"is_disabled":false,"rental_uris":{"android":"levelo://app?vid=88fe7cd3-4bdc-4997-b813-4714b44423fa","ios":"levelo://app?vid=88fe7cd3-4bdc-4997-b813-4714b44423fa"},"vehicle_type_id":"4","last_reported":1725984630,"current_range_meters":5600,"station_id":"ce4bgkh2rcd13ifvqbk0","pricing_plan_id":"cebpf4jnsgd1na2vs0mg"},{"bike_id":"1896010e-777f-4c15-aecf-d9bb81d47dfd","system_id":"levelo_inurba_marseille","lat":43.276823,"lon":5.388819,"is_reserved":false,"is_disabled":false,"rental_uris":{"android":"levelo://app?vid=1896010e-777f-4c15-aecf-d9bb81d47dfd","ios":"levelo://app?vid=1896010e-777f-4c15-aecf-d9bb81d47dfd"},"vehicle_type_id":"4","last_reported":1725984630,"current_range_meters":11200,"station_id":"ce4bhi12rcd13ifvqfo0","pricing_plan_id":"cebpf4jnsgd1na2vs0mg"},{"bike_id":"82e88502-fb46-43da-a924-6b2805195199","system_id":"levelo_inurba_marseille","lat":43.26682,"lon":5.38271,"is_reserved":false,"is_disabled":false,"rental_uris":{"android":"levelo://app?vid=82e88502-fb46-43da-a924-6b2805195199","ios":"levelo://app?vid=82e88502-fb46-43da-a924-6b2805195199"},"vehicle_type_id":"4","last_reported":1725984630,"current_range_meters":38000,"station_id":"ce4bhg92rcd13ifvqf90","pricing_plan_id":"cebpf4jnsgd1na2vs0mg"},{"bike_id":"f1009423-44b9-46e0-916f-a90ebc93de0a","system_id":"levelo_inurba_marseille","lat":43.31857,"lon":5.37382,"is_reserved":false,"is_disabled":false,"rental_uris":{"android":"levelo://app?vid=f1009423-44b9-46e0-916f-a90ebc93de0a","ios":"levelo://app?vid=f1009423-44b9-46e0-916f-a90ebc93de0a"},"vehicle_type_id":"4","last_reported":1725984630,"current_range_meters":15200,"station_id":"ce4bgup2rcd13ifvqco0","pricing_plan_id":"cebpf4jnsgd1na2vs0mg"},{"bike_id":"948d46b5-68c0-404c-8202-6b73aca0e933","system_id":"levelo_inurba_marseille","lat":43.33603,"lon":5.41032,"is_reserved":false,"is_disabled":false,"rental_uris":{"android":"levelo://app?vid=948d46b5-68c0-404c-8202-6b73aca0e933","ios":"levelo://app?vid=948d46b5-68c0-404c-8202-6b73aca0e933"},"vehicle_type_id":"4","last_reported":1725984630,"current_range_meters":12400,"station_id":"ce4bhqh2rcd13ifvqhmg","pricing_plan_id":"cebpf4jnsgd1na2vs0mg"},{"bike_id":"e9325df9-e72f-4573-a615-b79136d0be44","system_id":"levelo_inurba_marseille","lat":43.27818,"lon":5.40714,"is_reserved":false,"is_disabled":false,"rental_uris":{"android":"levelo://app?vid=e9325df9-e72f-4573-a615-b79136d0be44","ios":"levelo://app?vid=e9325df9-e72f-4573-a615-b79136d0be44"},"vehicle_type_id":"4","last_reported":1725984630,"current_range_meters":10000,"station_id":"ce4bhnh2rcd13ifvqgtg","pricing_plan_id":"cebpf4jnsgd1na2vs0mg"},{"bike_id":"c3284623-e512-4fc2-98bc-55285d26ecae","system_id":"levelo_inurba_marseille","lat":43.29419,"lon":5.38627,"is_reserved":false,"is_disabled":false,"rental_uris":{"android":"levelo://app?vid=c3284623-e512-4fc2-98bc-55285d26ecae","ios":"levelo://app?vid=c3284623-e512-4fc2-98bc-55285d26ecae"},"vehicle_type_id":"4","last_reported":1725984630,"current_range_meters":32000,"station_id":"ce4bh2h2rcd13ifvqdh0","pricing_plan_id":"cebpf4jnsgd1na2vs0mg"},{"bike_id":"e0bee0f0-c6fa-4493-8a05-b97a885ea804","system_id":"levelo_inurba_marseille","lat":43.29802,"lon":5.38107,"is_reserved":false,"is_disabled":false,"rental_uris":{"android":"levelo://app?vid=e0bee0f0-c6fa-4493-8a05-b97a885ea804","ios":"levelo://app?vid=e0bee0f0-c6fa-4493-8a05-b97a885ea804"},"vehicle_type_id":"4","last_reported":1725984630,"current_range_meters":2800,"station_id":"ce4bgip2rcd13ifvqbb0","pricing_plan_id":"cebpf4jnsgd1na2vs0mg"},{"bike_id":"f2774d55-f6fd-4a46-b88f-21eacc3cf897","system_id":"levelo_inurba_marseille","lat":43.284718,"lon":5.359062,"is_reserved":false,"is_disabled":false,"rental_uris":{"android":"levelo://app?vid=f2774d55-f6fd-4a46-b88f-21eacc3cf897","ios":"levelo://app?vid=f2774d55-f6fd-4a46-b88f-21eacc3cf897"},"vehicle_type_id":"4","last_reported":1725984630,"current_range_meters":29600,"station_id":"ce4bhah2rcd13ifvqei0","pricing_plan_id":"cebpf4jnsgd1na2vs0mg"},{"bike_id":"eca6f9df-fd70-4a18-84d2-e11717966cf0","system_id":"levelo_inurba_marseille","lat":43.28275,"lon":5.35052,"is_reserved":false,"is_disabled":false,"rental_uris":{"android":"levelo://app?vid=eca6f9df-fd70-4a18-84d2-e11717966cf0","ios":"levelo://app?vid=eca6f9df-fd70-4a18-84d2-e11717966cf0"},"vehicle_type_id":"4","last_reported":1725984630,"current_range_meters":3200,"station_id":"ce4bhbp2rcd13ifvqerg","pricing_plan_id":"cebpf4jnsgd1na2vs0mg"},{"bike_id":"4b740380-435b-4ce9-9b96-3da5fb37bac6","system_id":"levelo_inurba_marseille","lat":43.30969,"lon":5.40052,"is_reserved":false,"is_disabled":false,"rental_uris":{"android":"levelo://app?vid=4b740380-435b-4ce9-9b96-3da5fb37bac6","ios":"levelo://app?vid=4b740380-435b-4ce9-9b96-3da5fb37bac6"},"vehicle_type_id":"4","last_reported":1725984630,"current_range_meters":12000,"station_id":"ce4bhpp2rcd13ifvqhgg","pricing_plan_id":"cebpf4jnsgd1na2vs0mg"},{"bike_id":"7b2b6aa9-d9ad-475c-a16f-abdf3eec6d77","system_id":"levelo_inurba_marseille","lat":43.229276,"lon":5.353735,"is_reserved":false,"is_disabled":false,"rental_uris":{"android":"levelo://app?vid=7b2b6aa9-d9ad-475c-a16f-abdf3eec6d77","ios":"levelo://app?vid=7b2b6aa9-d9ad-475c-a16f-abdf3eec6d77"},"vehicle_type_id":"4","last_reported":1725984630,"current_range_meters":23200,"station_id":"","pricing_plan_id":"cebpf4jnsgd1na2vs0mg"},{"bike_id":"3c26bdb0-fd7b-4491-bef1-5eafc36bcddd","system_id":"levelo_inurba_marseille","lat":43.30307,"lon":5.39219,"is_reserved":false,"is_disabled":false,"rental_uris":{"android":"levelo://app?vid=3c26bdb0-fd7b-4491-bef1-5eafc36bcddd","ios":"levelo://app?vid=3c26bdb0-fd7b-4491-bef1-5eafc36bcddd"},"vehicle_type_id":"4","last_reported":1725984630,"current_range_meters":4000,"station_id":"ce4bgkh2rcd13ifvqbk0","pricing_plan_id":"cebpf4jnsgd1na2vs0mg"},{"bike_id":"020ab2c2-8dba-49f7-8b1f-88f08634fa8f","system_id":"levelo_inurba_marseille","lat":43.28427,"lon":5.34986,"is_reserved":false,"is_disabled":false,"rental_uris":{"android":"levelo://app?vid=020ab2c2-8dba-49f7-8b1f-88f08634fa8f","ios":"levelo://app?vid=020ab2c2-8dba-49f7-8b1f-88f08634fa8f"},"vehicle_type_id":"4","last_reported":1725984630,"current_range_meters":34800,"station_id":"ce4bhbh2rcd13ifvqepg","pricing_plan_id":"cebpf4jnsgd1na2vs0mg"},{"bike_id":"7f4ea667-56df-4b26-bd46-3e71bc3cc245","system_id":"levelo_inurba_marseille","lat":43.28333,"lon":5.350311,"is_reserved":false,"is_disabled":false,"rental_uris":{"android":"levelo://app?vid=7f4ea667-56df-4b26-bd46-3e71bc3cc245","ios":"levelo://app?vid=7f4ea667-56df-4b26-bd46-3e71bc3cc245"},"vehicle_type_id":"4","last_reported":1725984630,"current_range_meters":8000,"station_id":"","pricing_plan_id":"cebpf4jnsgd1na2vs0mg"},{"bike_id":"d5f844ab-21b8-4fc4-9155-50a1a502bfff","system_id":"levelo_inurba_marseille","lat":43.29247,"lon":5.40886,"is_reserved":false,"is_disabled":false,"rental_uris":{"android":"levelo://app?vid=d5f844ab-21b8-4fc4-9155-50a1a502bfff","ios":"levelo://app?vid=d5f844ab-21b8-4fc4-9155-50a1a502bfff"},"vehicle_type_id":"4","last_reported":1725984630,"current_range_meters":11200,"station_id":"ce4bh192rcd13ifvqdc0","pricing_plan_id":"cebpf4jnsgd1na2vs0mg"},{"bike_id":"d3c8ea6e-d01d-4d9e-9557-beffc1884ace","system_id":"levelo_inurba_marseille","lat":43.32292,"lon":5.38278,"is_reserved":false,"is_disabled":false,"rental_uris":{"android":"levelo://app?vid=d3c8ea6e-d01d-4d9e-9557-beffc1884ace","ios":"levelo://app?vid=d3c8ea6e-d01d-4d9e-9557-beffc1884ace"},"vehicle_type_id":"4","last_reported":1725984630,"current_range_meters":39200,"station_id":"ce4bhr12rcd13ifvqhqg","pricing_plan_id":"cebpf4jnsgd1na2vs0mg"},{"bike_id":"0aa3eea0-205e-411b-93f0-03a6d12ce70c","system_id":"levelo_inurba_marseille","lat":43.27813,"lon":5.40711,"is_reserved":false,"is_disabled":false,"rental_uris":{"android":"levelo://app?vid=0aa3eea0-205e-411b-93f0-03a6d12ce70c","ios":"levelo://app?vid=0aa3eea0-205e-411b-93f0-03a6d12ce70c"},"vehicle_type_id":"4","last_reported":1725984630,"current_range_meters":27600,"station_id":"ce4bhnh2rcd13ifvqgtg","pricing_plan_id":"cebpf4jnsgd1na2vs0mg"},{"bike_id":"29060bae-ed1b-4349-a9b3-204194c51939","system_id":"levelo_inurba_marseille","lat":43.28419,"lon":5.3499,"is_reserved":false,"is_disabled":false,"rental_uris":{"android":"levelo://app?vid=29060bae-ed1b-4349-a9b3-204194c51939","ios":"levelo://app?vid=29060bae-ed1b-4349-a9b3-204194c51939"},"vehicle_type_id":"4","last_reported":1725984630,"current_range_meters":17600,"station_id":"ce4bhbh2rcd13ifvqepg","pricing_plan_id":"cebpf4jnsgd1na2vs0mg"},{"bike_id":"507f99d3-0b82-4a35-89e2-98eb58769a71","system_id":"levelo_inurba_marseille","lat":43.23193,"lon":5.35562,"is_reserved":false,"is_disabled":false,"rental_uris":{"android":"levelo://app?vid=507f99d3-0b82-4a35-89e2-98eb58769a71","ios":"levelo://app?vid=507f99d3-0b82-4a35-89e2-98eb58769a71"},"vehicle_type_id":"4","last_reported":1725984630,"current_range_meters":16400,"station_id":"ce4bhu92rcd13ifvqi70","pricing_plan_id":"cebpf4jnsgd1na2vs0mg"},{"bike_id":"9c6712c0-04a5-4ffb-8b76-94bf2b2e05e0","system_id":"levelo_inurba_marseille","lat":43.286948,"lon":5.374619,"is_reserved":false,"is_disabled":false,"rental_uris":{"android":"levelo://app?vid=9c6712c0-04a5-4ffb-8b76-94bf2b2e05e0","ios":"levelo://app?vid=9c6712c0-04a5-4ffb-8b76-94bf2b2e05e0"},"vehicle_type_id":"4","last_reported":1725984630,"current_range_meters":14000,"station_id":"","pricing_plan_id":"cebpf4jnsgd1na2vs0mg"},{"bike_id":"0d85afe1-d0e4-4a11-b127-a8073f004d8a","system_id":"levelo_inurba_marseille","lat":43.26216,"lon":5.37445,"is_reserved":false,"is_disabled":false,"rental_uris":{"android":"levelo://app?vid=0d85afe1-d0e4-4a11-b127-a8073f004d8a","ios":"levelo://app?vid=0d85afe1-d0e4-4a11-b127-a8073f004d8a"},"vehicle_type_id":"4","last_reported":1725984630,"current_range_meters":32800,"station_id":"ce4bhgp2rcd13ifvqfc0","pricing_plan_id":"cebpf4jnsgd1na2vs0mg"},{"bike_id":"36e02e03-11f3-41ac-9b0f-93c4017adc48","system_id":"levelo_inurba_marseille","lat":43.2735,"lon":5.41596,"is_reserved":false,"is_disabled":false,"rental_uris":{"android":"levelo://app?vid=36e02e03-11f3-41ac-9b0f-93c4017adc48","ios":"levelo://app?vid=36e02e03-11f3-41ac-9b0f-93c4017adc48"},"vehicle_type_id":"4","last_reported":1725984630,"current_range_meters":6000,"station_id":"","pricing_plan_id":"cebpf4jnsgd1na2vs0mg"},{"bike_id":"fc1155b4-c230-4be8-a630-1fbbd7c3bd7a","system_id":"levelo_inurba_marseille","lat":43.31324,"lon":5.39686,"is_reserved":false,"is_disabled":false,"rental_uris":{"android":"levelo://app?vid=fc1155b4-c230-4be8-a630-1fbbd7c3bd7a","ios":"levelo://app?vid=fc1155b4-c230-4be8-a630-1fbbd7c3bd7a"},"vehicle_type_id":"4","last_reported":1725984630,"current_range_meters":10800,"station_id":"ce4bgvp2rcd13ifvqcu0","pricing_plan_id":"cebpf4jnsgd1na2vs0mg"},{"bike_id":"36973a74-dcb5-42a3-b6ab-222146836943","system_id":"levelo_inurba_marseille","lat":43.31755,"lon":5.3901,"is_reserved":false,"is_disabled":false,"rental_uris":{"android":"levelo://app?vid=36973a74-dcb5-42a3-b6ab-222146836943","ios":"levelo://app?vid=36973a74-dcb5-42a3-b6ab-222146836943"},"vehicle_type_id":"4","last_reported":1725984630,"current_range_meters":2800,"station_id":"ce4bhqp2rcd13ifvqhng","pricing_plan_id":"cebpf4jnsgd1na2vs0mg"},{"bike_id":"8455f46f-2223-44fa-9032-a099c0edacce","system_id":"levelo_inurba_marseille","lat":43.24179,"lon":5.39731,"is_reserved":false,"is_disabled":false,"rental_uris":{"android":"levelo://app?vid=8455f46f-2223-44fa-9032-a099c0edacce","ios":"levelo://app?vid=8455f46f-2223-44fa-9032-a099c0edacce"},"vehicle_type_id":"4","last_reported":1725984630,"current_range_meters":18800,"station_id":"ce4bhn12rcd13ifvqgpg","pricing_plan_id":"cebpf4jnsgd1na2vs0mg"},{"bike_id":"ed06f1d0-d464-4ea5-b071-268855183b2d","system_id":"levelo_inurba_marseille","lat":43.25582,"lon":5.38229,"is_reserved":false,"is_disabled":false,"rental_uris":{"android":"levelo://app?vid=ed06f1d0-d464-4ea5-b071-268855183b2d","ios":"levelo://app?vid=ed06f1d0-d464-4ea5-b071-268855183b2d"},"vehicle_type_id":"4","last_reported":1725984630,"current_range_meters":9200,"station_id":"ce4bhih2rcd13ifvqfs0","pricing_plan_id":"cebpf4jnsgd1na2vs0mg"},{"bike_id":"723b907f-3b8a-47e2-bf9e-15fb16f841a3","system_id":"levelo_inurba_marseille","lat":43.28465,"lon":5.35894,"is_reserved":false,"is_disabled":false,"rental_uris":{"android":"levelo://app?vid=723b907f-3b8a-47e2-bf9e-15fb16f841a3","ios":"levelo://app?vid=723b907f-3b8a-47e2-bf9e-15fb16f841a3"},"vehicle_type_id":"4","last_reported":1725984630,"current_range_meters":12800,"station_id":"ce4bhah2rcd13ifvqei0","pricing_plan_id":"cebpf4jnsgd1na2vs0mg"},{"bike_id":"4e5cc6a2-1434-4a34-a27a-69549460b833","system_id":"levelo_inurba_marseille","lat":43.31766,"lon":5.39016,"is_reserved":false,"is_disabled":false,"rental_uris":{"android":"levelo://app?vid=4e5cc6a2-1434-4a34-a27a-69549460b833","ios":"levelo://app?vid=4e5cc6a2-1434-4a34-a27a-69549460b833"},"vehicle_type_id":"4","last_reported":1725984630,"current_range_meters":8000,"station_id":"ce4bhqp2rcd13ifvqhng","pricing_plan_id":"cebpf4jnsgd1na2vs0mg"},{"bike_id":"b24bcaac-1ebb-42e7-886a-a6b3b2b9eba8","system_id":"levelo_inurba_marseille","lat":43.28457,"lon":5.35886,"is_reserved":false,"is_disabled":false,"rental_uris":{"android":"levelo://app?vid=b24bcaac-1ebb-42e7-886a-a6b3b2b9eba8","ios":"levelo://app?vid=b24bcaac-1ebb-42e7-886a-a6b3b2b9eba8"},"vehicle_type_id":"4","last_reported":1725984630,"current_range_meters":14400,"station_id":"ce4bhah2rcd13ifvqei0","pricing_plan_id":"cebpf4jnsgd1na2vs0mg"},{"bike_id":"83d91187-0e5d-4449-94c3-2adf02a5028b","system_id":"levelo_inurba_marseille","lat":43.27377,"lon":5.36258,"is_reserved":false,"is_disabled":false,"rental_uris":{"android":"levelo://app?vid=83d91187-0e5d-4449-94c3-2adf02a5028b","ios":"levelo://app?vid=83d91187-0e5d-4449-94c3-2adf02a5028b"},"vehicle_type_id":"4","last_reported":1725984630,"current_range_meters":35600,"station_id":"ce4bhbh2rcd13ifvqeo0","pricing_plan_id":"cebpf4jnsgd1na2vs0mg"},{"bike_id":"5876c5ef-9fac-478d-bd3c-ea1780c21005","system_id":"levelo_inurba_marseille","lat":43.33762,"lon":5.3745,"is_reserved":false,"is_disabled":false,"rental_uris":{"android":"levelo://app?vid=5876c5ef-9fac-478d-bd3c-ea1780c21005","ios":"levelo://app?vid=5876c5ef-9fac-478d-bd3c-ea1780c21005"},"vehicle_type_id":"4","last_reported":1725984630,"current_range_meters":36000,"station_id":"","pricing_plan_id":"cebpf4jnsgd1na2vs0mg"},{"bike_id":"73b61c17-77bd-4208-a092-0c35f7346d8e","system_id":"levelo_inurba_marseille","lat":43.28422,"lon":5.34978,"is_reserved":false,"is_disabled":false,"rental_uris":{"android":"levelo://app?vid=73b61c17-77bd-4208-a092-0c35f7346d8e","ios":"levelo://app?vid=73b61c17-77bd-4208-a092-0c35f7346d8e"},"vehicle_type_id":"4","last_reported":1725984630,"current_range_meters":8000,"station_id":"ce4bhbh2rcd13ifvqepg","pricing_plan_id":"cebpf4jnsgd1na2vs0mg"},{"bike_id":"10657391-6356-4815-b100-38af0bfab8fd","system_id":"levelo_inurba_marseille","lat":43.26214,"lon":5.37445,"is_reserved":false,"is_disabled":false,"rental_uris":{"android":"levelo://app?vid=10657391-6356-4815-b100-38af0bfab8fd","ios":"levelo://app?vid=10657391-6356-4815-b100-38af0bfab8fd"},"vehicle_type_id":"4","last_reported":1725984630,"current_range_meters":7200,"station_id":"ce4bhgp2rcd13ifvqfc0","pricing_plan_id":"cebpf4jnsgd1na2vs0mg"},{"bike_id":"014fa3c0-e90d-4bf8-b87f-32dc53399a1b","system_id":"levelo_inurba_marseille","lat":43.32334,"lon":5.40623,"is_reserved":false,"is_disabled":false,"rental_uris":{"android":"levelo://app?vid=014fa3c0-e90d-4bf8-b87f-32dc53399a1b","ios":"levelo://app?vid=014fa3c0-e90d-4bf8-b87f-32dc53399a1b"},"vehicle_type_id":"4","last_reported":1725984630,"current_range_meters":9600,"station_id":"ce4bhq92rcd13ifvqhjg","pricing_plan_id":"cebpf4jnsgd1na2vs0mg"},{"bike_id":"0df07e36-e0a0-4ebe-8f67-562ed5aeed0d","system_id":"levelo_inurba_marseille","lat":43.23184,"lon":5.39977,"is_reserved":false,"is_disabled":false,"rental_uris":{"android":"levelo://app?vid=0df07e36-e0a0-4ebe-8f67-562ed5aeed0d","ios":"levelo://app?vid=0df07e36-e0a0-4ebe-8f67-562ed5aeed0d"},"vehicle_type_id":"4","last_reported":1725984630,"current_range_meters":9600,"station_id":"ce4bhn12rcd13ifvqgqg","pricing_plan_id":"cebpf4jnsgd1na2vs0mg"},{"bike_id":"c887e4ae-5975-45db-9e51-039202bd71fe","system_id":"levelo_inurba_marseille","lat":43.26203,"lon":5.37929,"is_reserved":false,"is_disabled":false,"rental_uris":{"android":"levelo://app?vid=c887e4ae-5975-45db-9e51-039202bd71fe","ios":"levelo://app?vid=c887e4ae-5975-45db-9e51-039202bd71fe"},"vehicle_type_id":"4","last_reported":1725984630,"current_range_meters":36000,"station_id":"ce4bhjp2rcd13ifvqg90","pricing_plan_id":"cebpf4jnsgd1na2vs0mg"},{"bike_id":"02217918-1263-4407-b32c-9dc7e80d824d","system_id":"levelo_inurba_marseille","lat":43.30203,"lon":5.38945,"is_reserved":false,"is_disabled":false,"rental_uris":{"android":"levelo://app?vid=02217918-1263-4407-b32c-9dc7e80d824d","ios":"levelo://app?vid=02217918-1263-4407-b32c-9dc7e80d824d"},"vehicle_type_id":"4","last_reported":1725984630,"current_range_meters":11200,"station_id":"","pricing_plan_id":"cebpf4jnsgd1na2vs0mg"},{"bike_id":"03ad8a65-3757-4c98-8351-ce9457923d86","system_id":"levelo_inurba_marseille","lat":43.317632,"lon":5.390097,"is_reserved":false,"is_disabled":false,"rental_uris":{"android":"levelo://app?vid=03ad8a65-3757-4c98-8351-ce9457923d86","ios":"levelo://app?vid=03ad8a65-3757-4c98-8351-ce9457923d86"},"vehicle_type_id":"4","last_reported":1725984630,"current_range_meters":18800,"station_id":"ce4bhqp2rcd13ifvqhng","pricing_plan_id":"cebpf4jnsgd1na2vs0mg"},{"bike_id":"61361868-3419-4aa3-874c-98774517354c","system_id":"levelo_inurba_marseille","lat":43.32595,"lon":5.37646,"is_reserved":false,"is_disabled":false,"rental_uris":{"android":"levelo://app?vid=61361868-3419-4aa3-874c-98774517354c","ios":"levelo://app?vid=61361868-3419-4aa3-874c-98774517354c"},"vehicle_type_id":"4","last_reported":1725984630,"current_range_meters":2000,"station_id":"ce4bgt12rcd13ifvqcd0","pricing_plan_id":"cebpf4jnsgd1na2vs0mg"},{"bike_id":"0cd16402-b8f6-42ef-bfd3-c84d9846c8a3","system_id":"levelo_inurba_marseille","lat":43.269431,"lon":5.402488,"is_reserved":false,"is_disabled":false,"rental_uris":{"android":"levelo://app?vid=0cd16402-b8f6-42ef-bfd3-c84d9846c8a3","ios":"levelo://app?vid=0cd16402-b8f6-42ef-bfd3-c84d9846c8a3"},"vehicle_type_id":"4","last_reported":1725984630,"current_range_meters":36800,"station_id":"cjm6bp8fraef2m0cb0m0","pricing_plan_id":"cebpf4jnsgd1na2vs0mg"},{"bike_id":"fa1c2ad2-f7ce-46e7-8c21-f007ff4181dc","system_id":"levelo_inurba_marseille","lat":43.28405,"lon":5.37508,"is_reserved":false,"is_disabled":false,"rental_uris":{"android":"levelo://app?vid=fa1c2ad2-f7ce-46e7-8c21-f007ff4181dc","ios":"levelo://app?vid=fa1c2ad2-f7ce-46e7-8c21-f007ff4181dc"},"vehicle_type_id":"4","last_reported":1725984630,"current_range_meters":3200,"station_id":"ce4bh412rcd13ifvqds0","pricing_plan_id":"cebpf4jnsgd1na2vs0mg"},{"bike_id":"d0bb5e59-ed87-470a-ab34-15fb11f6e427","system_id":"levelo_inurba_marseille","lat":43.28941,"lon":5.36638,"is_reserved":false,"is_disabled":false,"rental_uris":{"android":"levelo://app?vid=d0bb5e59-ed87-470a-ab34-15fb11f6e427","ios":"levelo://app?vid=d0bb5e59-ed87-470a-ab34-15fb11f6e427"},"vehicle_type_id":"4","last_reported":1725984630,"current_range_meters":7200,"station_id":"ce4bhap2rcd13ifvqek0","pricing_plan_id":"cebpf4jnsgd1na2vs0mg"},{"bike_id":"6db15860-2705-4be7-9494-89d06b85b5fb","system_id":"levelo_inurba_marseille","lat":43.2962,"lon":5.3715,"is_reserved":false,"is_disabled":false,"rental_uris":{"android":"levelo://app?vid=6db15860-2705-4be7-9494-89d06b85b5fb","ios":"levelo://app?vid=6db15860-2705-4be7-9494-89d06b85b5fb"},"vehicle_type_id":"4","last_reported":1725984630,"current_range_meters":15200,"station_id":"ce4bgnh2rcd13ifvqc0g","pricing_plan_id":"cebpf4jnsgd1na2vs0mg"},{"bike_id":"16db4608-974a-4ae1-8fff-50830b6f6b67","system_id":"levelo_inurba_marseille","lat":43.28456,"lon":5.35883,"is_reserved":false,"is_disabled":false,"rental_uris":{"android":"levelo://app?vid=16db4608-974a-4ae1-8fff-50830b6f6b67","ios":"levelo://app?vid=16db4608-974a-4ae1-8fff-50830b6f6b67"},"vehicle_type_id":"4","last_reported":1725984630,"current_range_meters":16000,"station_id":"ce4bhah2rcd13ifvqei0","pricing_plan_id":"cebpf4jnsgd1na2vs0mg"},{"bike_id":"efb55d1c-5684-4796-b748-64b9af474881","system_id":"levelo_inurba_marseille","lat":43.23961,"lon":5.36629,"is_reserved":false,"is_disabled":false,"rental_uris":{"android":"levelo://app?vid=efb55d1c-5684-4796-b748-64b9af474881","ios":"levelo://app?vid=efb55d1c-5684-4796-b748-64b9af474881"},"vehicle_type_id":"4","last_reported":1725984630,"current_range_meters":3200,"station_id":"ce4bhi12rcd13ifvqfp0","pricing_plan_id":"cebpf4jnsgd1na2vs0mg"},{"bike_id":"1c90e55e-da92-4e81-9332-8d6d2c40126a","system_id":"levelo_inurba_marseille","lat":43.25491,"lon":5.37648,"is_reserved":false,"is_disabled":false,"rental_uris":{"android":"levelo://app?vid=1c90e55e-da92-4e81-9332-8d6d2c40126a","ios":"levelo://app?vid=1c90e55e-da92-4e81-9332-8d6d2c40126a"},"vehicle_type_id":"4","last_reported":1725984630,"current_range_meters":14800,"station_id":"ce4bhh12rcd13ifvqff0","pricing_plan_id":"cebpf4jnsgd1na2vs0mg"},{"bike_id":"0d617a53-761f-4521-b587-9bf2f0a19d32","system_id":"levelo_inurba_marseille","lat":43.27619,"lon":5.36111,"is_reserved":false,"is_disabled":false,"rental_uris":{"android":"levelo://app?vid=0d617a53-761f-4521-b587-9bf2f0a19d32","ios":"levelo://app?vid=0d617a53-761f-4521-b587-9bf2f0a19d32"},"vehicle_type_id":"4","last_reported":1725984630,"current_range_meters":9600,"station_id":"ce4bgj92rcd13ifvqbe0","pricing_plan_id":"cebpf4jnsgd1na2vs0mg"},{"bike_id":"1bc6d034-1c4e-4b81-95f7-9274b014bd03","system_id":"levelo_inurba_marseille","lat":43.28458,"lon":5.35889,"is_reserved":false,"is_disabled":false,"rental_uris":{"android":"levelo://app?vid=1bc6d034-1c4e-4b81-95f7-9274b014bd03","ios":"levelo://app?vid=1bc6d034-1c4e-4b81-95f7-9274b014bd03"},"vehicle_type_id":"4","last_reported":1725984630,"current_range_meters":34000,"station_id":"ce4bhah2rcd13ifvqei0","pricing_plan_id":"cebpf4jnsgd1na2vs0mg"},{"bike_id":"1feee69f-9edd-4481-b4b3-d80c34b05415","system_id":"levelo_inurba_marseille","lat":43.30427,"lon":5.38892,"is_reserved":false,"is_disabled":false,"rental_uris":{"android":"levelo://app?vid=1feee69f-9edd-4481-b4b3-d80c34b05415","ios":"levelo://app?vid=1feee69f-9edd-4481-b4b3-d80c34b05415"},"vehicle_type_id":"4","last_reported":1725984630,"current_range_meters":19200,"station_id":"ce4bgk12rcd13ifvqbi0","pricing_plan_id":"cebpf4jnsgd1na2vs0mg"},{"bike_id":"71dd3c30-0aa7-4595-8ebd-62bed7accea2","system_id":"levelo_inurba_marseille","lat":43.28859,"lon":5.35849,"is_reserved":false,"is_disabled":false,"rental_uris":{"android":"levelo://app?vid=71dd3c30-0aa7-4595-8ebd-62bed7accea2","ios":"levelo://app?vid=71dd3c30-0aa7-4595-8ebd-62bed7accea2"},"vehicle_type_id":"4","last_reported":1725984630,"current_range_meters":13600,"station_id":"ce4bhb12rcd13ifvqem0","pricing_plan_id":"cebpf4jnsgd1na2vs0mg"},{"bike_id":"e7edaead-c939-45c8-971d-3aa8bd3e5899","system_id":"levelo_inurba_marseille","lat":43.24665,"lon":5.38166,"is_reserved":false,"is_disabled":false,"rental_uris":{"android":"levelo://app?vid=e7edaead-c939-45c8-971d-3aa8bd3e5899","ios":"levelo://app?vid=e7edaead-c939-45c8-971d-3aa8bd3e5899"},"vehicle_type_id":"4","last_reported":1725984630,"current_range_meters":4800,"station_id":"ce4bhih2rcd13ifvqfr0","pricing_plan_id":"cebpf4jnsgd1na2vs0mg"},{"bike_id":"a00ea7d1-cf69-49e3-8c24-be0d60c3c943","system_id":"levelo_inurba_marseille","lat":43.28425,"lon":5.34984,"is_reserved":false,"is_disabled":false,"rental_uris":{"android":"levelo://app?vid=a00ea7d1-cf69-49e3-8c24-be0d60c3c943","ios":"levelo://app?vid=a00ea7d1-cf69-49e3-8c24-be0d60c3c943"},"vehicle_type_id":"4","last_reported":1725984630,"current_range_meters":26000,"station_id":"ce4bhbh2rcd13ifvqepg","pricing_plan_id":"cebpf4jnsgd1na2vs0mg"},{"bike_id":"c8e0fcb6-1d3f-4d83-b861-1f56e6b3ab2c","system_id":"levelo_inurba_marseille","lat":43.32285,"lon":5.38269,"is_reserved":false,"is_disabled":false,"rental_uris":{"android":"levelo://app?vid=c8e0fcb6-1d3f-4d83-b861-1f56e6b3ab2c","ios":"levelo://app?vid=c8e0fcb6-1d3f-4d83-b861-1f56e6b3ab2c"},"vehicle_type_id":"4","last_reported":1725984630,"current_range_meters":35600,"station_id":"ce4bhr12rcd13ifvqhqg","pricing_plan_id":"cebpf4jnsgd1na2vs0mg"},{"bike_id":"f7e84572-c4b4-4321-ba50-2d9a67e98e68","system_id":"levelo_inurba_marseille","lat":43.28427,"lon":5.34978,"is_reserved":false,"is_disabled":false,"rental_uris":{"android":"levelo://app?vid=f7e84572-c4b4-4321-ba50-2d9a67e98e68","ios":"levelo://app?vid=f7e84572-c4b4-4321-ba50-2d9a67e98e68"},"vehicle_type_id":"4","last_reported":1725984630,"current_range_meters":36800,"station_id":"ce4bhbh2rcd13ifvqepg","pricing_plan_id":"cebpf4jnsgd1na2vs0mg"},{"bike_id":"42302304-647e-43c3-9c52-8cb483aa8554","system_id":"levelo_inurba_marseille","lat":43.31761,"lon":5.39014,"is_reserved":false,"is_disabled":false,"rental_uris":{"android":"levelo://app?vid=42302304-647e-43c3-9c52-8cb483aa8554","ios":"levelo://app?vid=42302304-647e-43c3-9c52-8cb483aa8554"},"vehicle_type_id":"4","last_reported":1725984630,"current_range_meters":16400,"station_id":"ce4bhqp2rcd13ifvqhng","pricing_plan_id":"cebpf4jnsgd1na2vs0mg"},{"bike_id":"8ae233e3-3724-4801-a318-a811f7bf3766","system_id":"levelo_inurba_marseille","lat":43.325617,"lon":5.414036,"is_reserved":false,"is_disabled":false,"rental_uris":{"android":"levelo://app?vid=8ae233e3-3724-4801-a318-a811f7bf3766","ios":"levelo://app?vid=8ae233e3-3724-4801-a318-a811f7bf3766"},"vehicle_type_id":"4","last_reported":1725984630,"current_range_meters":19200,"station_id":"ce4bhq12rcd13ifvqhhg","pricing_plan_id":"cebpf4jnsgd1na2vs0mg"},{"bike_id":"d174ef96-bb53-4089-b656-ddce801ac03a","system_id":"levelo_inurba_marseille","lat":43.309304,"lon":5.401392,"is_reserved":false,"is_disabled":false,"rental_uris":{"android":"levelo://app?vid=d174ef96-bb53-4089-b656-ddce801ac03a","ios":"levelo://app?vid=d174ef96-bb53-4089-b656-ddce801ac03a"},"vehicle_type_id":"4","last_reported":1725984630,"current_range_meters":2800,"station_id":"ce4bgvp2rcd13ifvqct0","pricing_plan_id":"cebpf4jnsgd1na2vs0mg"},{"bike_id":"2d7dbd25-3f0c-4d35-bb61-e5419133369b","system_id":"levelo_inurba_marseille","lat":43.23189,"lon":5.39979,"is_reserved":false,"is_disabled":false,"rental_uris":{"android":"levelo://app?vid=2d7dbd25-3f0c-4d35-bb61-e5419133369b","ios":"levelo://app?vid=2d7dbd25-3f0c-4d35-bb61-e5419133369b"},"vehicle_type_id":"4","last_reported":1725984630,"current_range_meters":9600,"station_id":"ce4bhn12rcd13ifvqgqg","pricing_plan_id":"cebpf4jnsgd1na2vs0mg"},{"bike_id":"cbbb2278-59dc-4af4-9959-55856d034ce2","system_id":"levelo_inurba_marseille","lat":43.26059,"lon":5.39397,"is_reserved":false,"is_disabled":false,"rental_uris":{"android":"levelo://app?vid=cbbb2278-59dc-4af4-9959-55856d034ce2","ios":"levelo://app?vid=cbbb2278-59dc-4af4-9959-55856d034ce2"},"vehicle_type_id":"4","last_reported":1725984630,"current_range_meters":25200,"station_id":"ce4bhh92rcd13ifvqfj0","pricing_plan_id":"cebpf4jnsgd1na2vs0mg"},{"bike_id":"89da03dd-b11d-4d69-9bbb-007fe1be6c1f","system_id":"levelo_inurba_marseille","lat":43.26218,"lon":5.37441,"is_reserved":false,"is_disabled":false,"rental_uris":{"android":"levelo://app?vid=89da03dd-b11d-4d69-9bbb-007fe1be6c1f","ios":"levelo://app?vid=89da03dd-b11d-4d69-9bbb-007fe1be6c1f"},"vehicle_type_id":"4","last_reported":1725984630,"current_range_meters":14000,"station_id":"ce4bhgp2rcd13ifvqfc0","pricing_plan_id":"cebpf4jnsgd1na2vs0mg"},{"bike_id":"b2aae679-3e99-40e2-820f-725946de1e45","system_id":"levelo_inurba_marseille","lat":43.31718,"lon":5.43706,"is_reserved":false,"is_disabled":false,"rental_uris":{"android":"levelo://app?vid=b2aae679-3e99-40e2-820f-725946de1e45","ios":"levelo://app?vid=b2aae679-3e99-40e2-820f-725946de1e45"},"vehicle_type_id":"4","last_reported":1725984630,"current_range_meters":14800,"station_id":"ce4bhp92rcd13ifvqhcg","pricing_plan_id":"cebpf4jnsgd1na2vs0mg"},{"bike_id":"7b9bf967-5307-41f4-924f-1c15aeba9aff","system_id":"levelo_inurba_marseille","lat":43.30903,"lon":5.36831,"is_reserved":false,"is_disabled":false,"rental_uris":{"android":"levelo://app?vid=7b9bf967-5307-41f4-924f-1c15aeba9aff","ios":"levelo://app?vid=7b9bf967-5307-41f4-924f-1c15aeba9aff"},"vehicle_type_id":"4","last_reported":1725984630,"current_range_meters":19600,"station_id":"ce4bgn92rcd13ifvqbvg","pricing_plan_id":"cebpf4jnsgd1na2vs0mg"},{"bike_id":"ade6bc67-1be2-47f5-8234-53b52787293c","system_id":"levelo_inurba_marseille","lat":43.30928,"lon":5.40152,"is_reserved":false,"is_disabled":false,"rental_uris":{"android":"levelo://app?vid=ade6bc67-1be2-47f5-8234-53b52787293c","ios":"levelo://app?vid=ade6bc67-1be2-47f5-8234-53b52787293c"},"vehicle_type_id":"4","last_reported":1725984630,"current_range_meters":2000,"station_id":"ce4bh2h2rcd13ifvqdh0","pricing_plan_id":"cebpf4jnsgd1na2vs0mg"},{"bike_id":"fc6dc0e2-42aa-4baa-82f9-7acbdbba2aa0","system_id":"levelo_inurba_marseille","lat":43.31327,"lon":5.39697,"is_reserved":false,"is_disabled":false,"rental_uris":{"android":"levelo://app?vid=fc6dc0e2-42aa-4baa-82f9-7acbdbba2aa0","ios":"levelo://app?vid=fc6dc0e2-42aa-4baa-82f9-7acbdbba2aa0"},"vehicle_type_id":"4","last_reported":1725984630,"current_range_meters":31200,"station_id":"ce4bgvp2rcd13ifvqcu0","pricing_plan_id":"cebpf4jnsgd1na2vs0mg"},{"bike_id":"9f26bde2-d24e-479b-ae49-556620c33203","system_id":"levelo_inurba_marseille","lat":43.2846,"lon":5.35888,"is_reserved":false,"is_disabled":false,"rental_uris":{"android":"levelo://app?vid=9f26bde2-d24e-479b-ae49-556620c33203","ios":"levelo://app?vid=9f26bde2-d24e-479b-ae49-556620c33203"},"vehicle_type_id":"4","last_reported":1725984630,"current_range_meters":22000,"station_id":"ce4bhah2rcd13ifvqei0","pricing_plan_id":"cebpf4jnsgd1na2vs0mg"},{"bike_id":"55145fae-a8cb-41b8-a97f-efce85464954","system_id":"levelo_inurba_marseille","lat":43.33746,"lon":5.37445,"is_reserved":false,"is_disabled":false,"rental_uris":{"android":"levelo://app?vid=55145fae-a8cb-41b8-a97f-efce85464954","ios":"levelo://app?vid=55145fae-a8cb-41b8-a97f-efce85464954"},"vehicle_type_id":"4","last_reported":1725984630,"current_range_meters":33600,"station_id":"","pricing_plan_id":"cebpf4jnsgd1na2vs0mg"},{"bike_id":"f400d370-a20e-4ced-86f0-64f62510749c","system_id":"levelo_inurba_marseille","lat":43.3237,"lon":5.38926,"is_reserved":false,"is_disabled":false,"rental_uris":{"android":"levelo://app?vid=f400d370-a20e-4ced-86f0-64f62510749c","ios":"levelo://app?vid=f400d370-a20e-4ced-86f0-64f62510749c"},"vehicle_type_id":"4","last_reported":1725984630,"current_range_meters":17600,"station_id":"","pricing_plan_id":"cebpf4jnsgd1na2vs0mg"},{"bike_id":"46a8928d-001c-435b-b35b-7816520ad5b4","system_id":"levelo_inurba_marseille","lat":43.30601,"lon":5.39362,"is_reserved":false,"is_disabled":false,"rental_uris":{"android":"levelo://app?vid=46a8928d-001c-435b-b35b-7816520ad5b4","ios":"levelo://app?vid=46a8928d-001c-435b-b35b-7816520ad5b4"},"vehicle_type_id":"4","last_reported":1725984630,"current_range_meters":3200,"station_id":"ce4bh0p2rcd13ifvqd80","pricing_plan_id":"cebpf4jnsgd1na2vs0mg"},{"bike_id":"de9adc3a-6175-44d9-a04c-ecab6a12a3e1","system_id":"levelo_inurba_marseille","lat":43.26203,"lon":5.37933,"is_reserved":false,"is_disabled":false,"rental_uris":{"android":"levelo://app?vid=de9adc3a-6175-44d9-a04c-ecab6a12a3e1","ios":"levelo://app?vid=de9adc3a-6175-44d9-a04c-ecab6a12a3e1"},"vehicle_type_id":"4","last_reported":1725984630,"current_range_meters":14400,"station_id":"ce4bhjp2rcd13ifvqg90","pricing_plan_id":"cebpf4jnsgd1na2vs0mg"},{"bike_id":"8a937151-d147-49c1-8fb1-26985ec074a3","system_id":"levelo_inurba_marseille","lat":43.26944,"lon":5.40239,"is_reserved":false,"is_disabled":false,"rental_uris":{"android":"levelo://app?vid=8a937151-d147-49c1-8fb1-26985ec074a3","ios":"levelo://app?vid=8a937151-d147-49c1-8fb1-26985ec074a3"},"vehicle_type_id":"4","last_reported":1725984630,"current_range_meters":2000,"station_id":"cjm6bp8fraef2m0cb0m0","pricing_plan_id":"cebpf4jnsgd1na2vs0mg"},{"bike_id":"55dd1e4a-4fea-4794-b643-467d32a2d847","system_id":"levelo_inurba_marseille","lat":43.30883,"lon":5.39652,"is_reserved":false,"is_disabled":false,"rental_uris":{"android":"levelo://app?vid=55dd1e4a-4fea-4794-b643-467d32a2d847","ios":"levelo://app?vid=55dd1e4a-4fea-4794-b643-467d32a2d847"},"vehicle_type_id":"4","last_reported":1725984630,"current_range_meters":20800,"station_id":"ce4bh012rcd13ifvqcv0","pricing_plan_id":"cebpf4jnsgd1na2vs0mg"},{"bike_id":"f03f6359-2862-4c38-ade4-de2f32ba1374","system_id":"levelo_inurba_marseille","lat":43.23188,"lon":5.39975,"is_reserved":false,"is_disabled":false,"rental_uris":{"android":"levelo://app?vid=f03f6359-2862-4c38-ade4-de2f32ba1374","ios":"levelo://app?vid=f03f6359-2862-4c38-ade4-de2f32ba1374"},"vehicle_type_id":"4","last_reported":1725984630,"current_range_meters":27600,"station_id":"ce4bhn12rcd13ifvqgqg","pricing_plan_id":"cebpf4jnsgd1na2vs0mg"},{"bike_id":"4f98b9a6-3078-458b-b605-3b0ed6341dd8","system_id":"levelo_inurba_marseille","lat":43.287037,"lon":5.375093,"is_reserved":false,"is_disabled":false,"rental_uris":{"android":"levelo://app?vid=4f98b9a6-3078-458b-b605-3b0ed6341dd8","ios":"levelo://app?vid=4f98b9a6-3078-458b-b605-3b0ed6341dd8"},"vehicle_type_id":"4","last_reported":1725984630,"current_range_meters":32800,"station_id":"","pricing_plan_id":"cebpf4jnsgd1na2vs0mg"},{"bike_id":"5b1c6dd2-03ad-4507-95ba-724f803cb2c7","system_id":"levelo_inurba_marseille","lat":43.27812,"lon":5.40715,"is_reserved":false,"is_disabled":false,"rental_uris":{"android":"levelo://app?vid=5b1c6dd2-03ad-4507-95ba-724f803cb2c7","ios":"levelo://app?vid=5b1c6dd2-03ad-4507-95ba-724f803cb2c7"},"vehicle_type_id":"4","last_reported":1725984630,"current_range_meters":9200,"station_id":"ce4bhnh2rcd13ifvqgtg","pricing_plan_id":"cebpf4jnsgd1na2vs0mg"},{"bike_id":"8542bf91-30ba-4b78-a115-4736886b8fdc","system_id":"levelo_inurba_marseille","lat":43.32366,"lon":5.38875,"is_reserved":false,"is_disabled":false,"rental_uris":{"android":"levelo://app?vid=8542bf91-30ba-4b78-a115-4736886b8fdc","ios":"levelo://app?vid=8542bf91-30ba-4b78-a115-4736886b8fdc"},"vehicle_type_id":"4","last_reported":1725984630,"current_range_meters":9600,"station_id":"ce4bhqp2rcd13ifvqhog","pricing_plan_id":"cebpf4jnsgd1na2vs0mg"},{"bike_id":"a427f1ec-e087-4fbe-abbc-0e76231b73de","system_id":"levelo_inurba_marseille","lat":43.308926,"lon":5.396541,"is_reserved":false,"is_disabled":false,"rental_uris":{"android":"levelo://app?vid=a427f1ec-e087-4fbe-abbc-0e76231b73de","ios":"levelo://app?vid=a427f1ec-e087-4fbe-abbc-0e76231b73de"},"vehicle_type_id":"4","last_reported":1725984630,"current_range_meters":9200,"station_id":"ce4bh012rcd13ifvqcv0","pricing_plan_id":"cebpf4jnsgd1na2vs0mg"},{"bike_id":"21dcec27-645b-4877-b774-5201571a951e","system_id":"levelo_inurba_marseille","lat":43.28614,"lon":5.35098,"is_reserved":false,"is_disabled":false,"rental_uris":{"android":"levelo://app?vid=21dcec27-645b-4877-b774-5201571a951e","ios":"levelo://app?vid=21dcec27-645b-4877-b774-5201571a951e"},"vehicle_type_id":"4","last_reported":1725984630,"current_range_meters":26800,"station_id":"ce4bhch2rcd13ifvqeug","pricing_plan_id":"cebpf4jnsgd1na2vs0mg"},{"bike_id":"e3ff2ff2-1096-4b7a-a3a2-7928d38557b8","system_id":"levelo_inurba_marseille","lat":43.27819,"lon":5.40706,"is_reserved":false,"is_disabled":false,"rental_uris":{"android":"levelo://app?vid=e3ff2ff2-1096-4b7a-a3a2-7928d38557b8","ios":"levelo://app?vid=e3ff2ff2-1096-4b7a-a3a2-7928d38557b8"},"vehicle_type_id":"4","last_reported":1725984630,"current_range_meters":14400,"station_id":"ce4bhnh2rcd13ifvqgtg","pricing_plan_id":"cebpf4jnsgd1na2vs0mg"},{"bike_id":"fedd7536-5dc8-4f98-87a4-23c16bcee834","system_id":"levelo_inurba_marseille","lat":43.28969,"lon":5.39623,"is_reserved":false,"is_disabled":false,"rental_uris":{"android":"levelo://app?vid=fedd7536-5dc8-4f98-87a4-23c16bcee834","ios":"levelo://app?vid=fedd7536-5dc8-4f98-87a4-23c16bcee834"},"vehicle_type_id":"4","last_reported":1725984630,"current_range_meters":2000,"station_id":"ce4bh3h2rcd13ifvqdn0","pricing_plan_id":"cebpf4jnsgd1na2vs0mg"},{"bike_id":"42f12781-fdb3-42e0-a8f2-79ec1da5631d","system_id":"levelo_inurba_marseille","lat":43.28421,"lon":5.34986,"is_reserved":false,"is_disabled":false,"rental_uris":{"android":"levelo://app?vid=42f12781-fdb3-42e0-a8f2-79ec1da5631d","ios":"levelo://app?vid=42f12781-fdb3-42e0-a8f2-79ec1da5631d"},"vehicle_type_id":"4","last_reported":1725984630,"current_range_meters":20000,"station_id":"ce4bhbh2rcd13ifvqepg","pricing_plan_id":"cebpf4jnsgd1na2vs0mg"},{"bike_id":"c33da793-bbd9-4d19-b3a5-c543ddba70d5","system_id":"levelo_inurba_marseille","lat":43.27813,"lon":5.40706,"is_reserved":false,"is_disabled":false,"rental_uris":{"android":"levelo://app?vid=c33da793-bbd9-4d19-b3a5-c543ddba70d5","ios":"levelo://app?vid=c33da793-bbd9-4d19-b3a5-c543ddba70d5"},"vehicle_type_id":"4","last_reported":1725984630,"current_range_meters":38800,"station_id":"ce4bhnh2rcd13ifvqgtg","pricing_plan_id":"cebpf4jnsgd1na2vs0mg"},{"bike_id":"3ee7f970-ad7f-411d-80f5-47667def3b6c","system_id":"levelo_inurba_marseille","lat":43.279362,"lon":5.410482,"is_reserved":false,"is_disabled":false,"rental_uris":{"android":"levelo://app?vid=3ee7f970-ad7f-411d-80f5-47667def3b6c","ios":"levelo://app?vid=3ee7f970-ad7f-411d-80f5-47667def3b6c"},"vehicle_type_id":"4","last_reported":1725984630,"current_range_meters":20400,"station_id":"ce4bhnp2rcd13ifvqh0g","pricing_plan_id":"cebpf4jnsgd1na2vs0mg"},{"bike_id":"36f58328-8f54-4fcf-bcca-0a753cccddb2","system_id":"levelo_inurba_marseille","lat":43.23195,"lon":5.35558,"is_reserved":false,"is_disabled":false,"rental_uris":{"android":"levelo://app?vid=36f58328-8f54-4fcf-bcca-0a753cccddb2","ios":"levelo://app?vid=36f58328-8f54-4fcf-bcca-0a753cccddb2"},"vehicle_type_id":"4","last_reported":1725984630,"current_range_meters":20800,"station_id":"ce4bhu92rcd13ifvqi70","pricing_plan_id":"cebpf4jnsgd1na2vs0mg"},{"bike_id":"44f32411-a978-4e5c-8794-5490ed45ba7d","system_id":"levelo_inurba_marseille","lat":43.33772,"lon":5.3744,"is_reserved":false,"is_disabled":false,"rental_uris":{"android":"levelo://app?vid=44f32411-a978-4e5c-8794-5490ed45ba7d","ios":"levelo://app?vid=44f32411-a978-4e5c-8794-5490ed45ba7d"},"vehicle_type_id":"4","last_reported":1725984630,"current_range_meters":38800,"station_id":"","pricing_plan_id":"cebpf4jnsgd1na2vs0mg"},{"bike_id":"522cfc1d-f0c2-4252-b7b0-75fae66af817","system_id":"levelo_inurba_marseille","lat":43.267172,"lon":5.394254,"is_reserved":false,"is_disabled":false,"rental_uris":{"android":"levelo://app?vid=522cfc1d-f0c2-4252-b7b0-75fae66af817","ios":"levelo://app?vid=522cfc1d-f0c2-4252-b7b0-75fae66af817"},"vehicle_type_id":"4","last_reported":1725984630,"current_range_meters":11600,"station_id":"ce4bhh12rcd13ifvqfg0","pricing_plan_id":"cebpf4jnsgd1na2vs0mg"},{"bike_id":"1086a781-533a-414c-9484-c363a93ba242","system_id":"levelo_inurba_marseille","lat":43.29036,"lon":5.39963,"is_reserved":false,"is_disabled":false,"rental_uris":{"android":"levelo://app?vid=1086a781-533a-414c-9484-c363a93ba242","ios":"levelo://app?vid=1086a781-533a-414c-9484-c363a93ba242"},"vehicle_type_id":"4","last_reported":1725984630,"current_range_meters":7200,"station_id":"ce4bh0h2rcd13ifvqd40","pricing_plan_id":"cebpf4jnsgd1na2vs0mg"},{"bike_id":"9a637b69-f03b-46a7-bf0c-59d25e8d3b08","system_id":"levelo_inurba_marseille","lat":43.28417,"lon":5.37506,"is_reserved":false,"is_disabled":false,"rental_uris":{"android":"levelo://app?vid=9a637b69-f03b-46a7-bf0c-59d25e8d3b08","ios":"levelo://app?vid=9a637b69-f03b-46a7-bf0c-59d25e8d3b08"},"vehicle_type_id":"4","last_reported":1725984630,"current_range_meters":4000,"station_id":"ce4bh412rcd13ifvqds0","pricing_plan_id":"cebpf4jnsgd1na2vs0mg"},{"bike_id":"206cd987-75d4-4a99-88a5-28291b99464b","system_id":"levelo_inurba_marseille","lat":43.30299,"lon":5.39213,"is_reserved":false,"is_disabled":false,"rental_uris":{"android":"levelo://app?vid=206cd987-75d4-4a99-88a5-28291b99464b","ios":"levelo://app?vid=206cd987-75d4-4a99-88a5-28291b99464b"},"vehicle_type_id":"4","last_reported":1725984630,"current_range_meters":32000,"station_id":"ce4bgkh2rcd13ifvqbk0","pricing_plan_id":"cebpf4jnsgd1na2vs0mg"},{"bike_id":"7098a1fd-3b70-42c9-818f-58222053c740","system_id":"levelo_inurba_marseille","lat":43.294475,"lon":5.385806,"is_reserved":false,"is_disabled":false,"rental_uris":{"android":"levelo://app?vid=7098a1fd-3b70-42c9-818f-58222053c740","ios":"levelo://app?vid=7098a1fd-3b70-42c9-818f-58222053c740"},"vehicle_type_id":"4","last_reported":1725984630,"current_range_meters":19600,"station_id":"ce4bgih2rcd13ifvqba0","pricing_plan_id":"cebpf4jnsgd1na2vs0mg"},{"bike_id":"5fbfc6ac-48ef-4a51-9dc6-a8598ae6f3f6","system_id":"levelo_inurba_marseille","lat":43.24647,"lon":5.38885,"is_reserved":false,"is_disabled":false,"rental_uris":{"android":"levelo://app?vid=5fbfc6ac-48ef-4a51-9dc6-a8598ae6f3f6","ios":"levelo://app?vid=5fbfc6ac-48ef-4a51-9dc6-a8598ae6f3f6"},"vehicle_type_id":"4","last_reported":1725984630,"current_range_meters":14800,"station_id":"ce4bhg12rcd13ifvqf60","pricing_plan_id":"cebpf4jnsgd1na2vs0mg"},{"bike_id":"fd5c93c0-f920-479e-bc83-76154c662e14","system_id":"levelo_inurba_marseille","lat":43.28419,"lon":5.34985,"is_reserved":false,"is_disabled":false,"rental_uris":{"android":"levelo://app?vid=fd5c93c0-f920-479e-bc83-76154c662e14","ios":"levelo://app?vid=fd5c93c0-f920-479e-bc83-76154c662e14"},"vehicle_type_id":"4","last_reported":1725984630,"current_range_meters":24800,"station_id":"ce4bhbh2rcd13ifvqepg","pricing_plan_id":"cebpf4jnsgd1na2vs0mg"},{"bike_id":"8fb9a2de-2e39-4cee-9a2d-1ba3230acc6a","system_id":"levelo_inurba_marseille","lat":43.3176,"lon":5.39018,"is_reserved":false,"is_disabled":false,"rental_uris":{"android":"levelo://app?vid=8fb9a2de-2e39-4cee-9a2d-1ba3230acc6a","ios":"levelo://app?vid=8fb9a2de-2e39-4cee-9a2d-1ba3230acc6a"},"vehicle_type_id":"4","last_reported":1725984630,"current_range_meters":6400,"station_id":"ce4bhqp2rcd13ifvqhng","pricing_plan_id":"cebpf4jnsgd1na2vs0mg"},{"bike_id":"fc9072ad-27f6-40d4-a4a5-13a2ef0d21fd","system_id":"levelo_inurba_marseille","lat":43.256837,"lon":5.411113,"is_reserved":false,"is_disabled":false,"rental_uris":{"android":"levelo://app?vid=fc9072ad-27f6-40d4-a4a5-13a2ef0d21fd","ios":"levelo://app?vid=fc9072ad-27f6-40d4-a4a5-13a2ef0d21fd"},"vehicle_type_id":"4","last_reported":1725984630,"current_range_meters":36800,"station_id":"ce4bhkp2rcd13ifvqgd0","pricing_plan_id":"cebpf4jnsgd1na2vs0mg"},{"bike_id":"8a0ae242-e9d5-40d4-879f-5e70986cd7ba","system_id":"levelo_inurba_marseille","lat":43.312758,"lon":5.401739,"is_reserved":false,"is_disabled":false,"rental_uris":{"android":"levelo://app?vid=8a0ae242-e9d5-40d4-879f-5e70986cd7ba","ios":"levelo://app?vid=8a0ae242-e9d5-40d4-879f-5e70986cd7ba"},"vehicle_type_id":"4","last_reported":1725984630,"current_range_meters":18800,"station_id":"ce4bh092rcd13ifvqd30","pricing_plan_id":"cebpf4jnsgd1na2vs0mg"},{"bike_id":"4aa66128-84bf-4dd8-8981-9a1a7e7a75cc","system_id":"levelo_inurba_marseille","lat":43.29195,"lon":5.39324,"is_reserved":false,"is_disabled":false,"rental_uris":{"android":"levelo://app?vid=4aa66128-84bf-4dd8-8981-9a1a7e7a75cc","ios":"levelo://app?vid=4aa66128-84bf-4dd8-8981-9a1a7e7a75cc"},"vehicle_type_id":"4","last_reported":1725984630,"current_range_meters":26800,"station_id":"ce4bh192rcd13ifvqdd0","pricing_plan_id":"cebpf4jnsgd1na2vs0mg"},{"bike_id":"85262c98-6744-4e38-bff5-a73d61dee30b","system_id":"levelo_inurba_marseille","lat":43.286665,"lon":5.386635,"is_reserved":false,"is_disabled":false,"rental_uris":{"android":"levelo://app?vid=85262c98-6744-4e38-bff5-a73d61dee30b","ios":"levelo://app?vid=85262c98-6744-4e38-bff5-a73d61dee30b"},"vehicle_type_id":"4","last_reported":1725984630,"current_range_meters":18800,"station_id":"ce4bh492rcd13ifvqdug","pricing_plan_id":"cebpf4jnsgd1na2vs0mg"},{"bike_id":"0f3bad85-62b2-4e84-9de7-fae4f4f16d9e","system_id":"levelo_inurba_marseille","lat":43.288525,"lon":5.393074,"is_reserved":false,"is_disabled":false,"rental_uris":{"android":"levelo://app?vid=0f3bad85-62b2-4e84-9de7-fae4f4f16d9e","ios":"levelo://app?vid=0f3bad85-62b2-4e84-9de7-fae4f4f16d9e"},"vehicle_type_id":"4","last_reported":1725984630,"current_range_meters":18800,"station_id":"ce4bh2p2rcd13ifvqdi0","pricing_plan_id":"cebpf4jnsgd1na2vs0mg"},{"bike_id":"3bfff435-780c-430e-a884-b7e0a240cebc","system_id":"levelo_inurba_marseille","lat":43.28163,"lon":5.40442,"is_reserved":false,"is_disabled":false,"rental_uris":{"android":"levelo://app?vid=3bfff435-780c-430e-a884-b7e0a240cebc","ios":"levelo://app?vid=3bfff435-780c-430e-a884-b7e0a240cebc"},"vehicle_type_id":"4","last_reported":1725984630,"current_range_meters":26800,"station_id":"","pricing_plan_id":"cebpf4jnsgd1na2vs0mg"},{"bike_id":"a900bdf4-1d41-4d7c-9e83-f73771df36f1","system_id":"levelo_inurba_marseille","lat":43.29526,"lon":5.38534,"is_reserved":false,"is_disabled":false,"rental_uris":{"android":"levelo://app?vid=a900bdf4-1d41-4d7c-9e83-f73771df36f1","ios":"levelo://app?vid=a900bdf4-1d41-4d7c-9e83-f73771df36f1"},"vehicle_type_id":"4","last_reported":1725984630,"current_range_meters":26800,"station_id":"ce4bgih2rcd13ifvqba0","pricing_plan_id":"cebpf4jnsgd1na2vs0mg"},{"bike_id":"f12d439d-6390-43b1-932d-dc232dcae3bf","system_id":"levelo_inurba_marseille","lat":43.23059,"lon":5.35487,"is_reserved":false,"is_disabled":false,"rental_uris":{"android":"levelo://app?vid=f12d439d-6390-43b1-932d-dc232dcae3bf","ios":"levelo://app?vid=f12d439d-6390-43b1-932d-dc232dcae3bf"},"vehicle_type_id":"4","last_reported":1725984630,"current_range_meters":16400,"station_id":"cpo3342slgdg3j2ifvpg","pricing_plan_id":"cebpf4jnsgd1na2vs0mg"},{"bike_id":"35bc1d68-37a6-4ae2-bf6c-1b32caf096d0","system_id":"levelo_inurba_marseille","lat":43.29892,"lon":5.37271,"is_reserved":false,"is_disabled":false,"rental_uris":{"android":"levelo://app?vid=35bc1d68-37a6-4ae2-bf6c-1b32caf096d0","ios":"levelo://app?vid=35bc1d68-37a6-4ae2-bf6c-1b32caf096d0"},"vehicle_type_id":"4","last_reported":1725984630,"current_range_meters":20800,"station_id":"","pricing_plan_id":"cebpf4jnsgd1na2vs0mg"},{"bike_id":"cc5800f7-5890-433e-b13a-92fd67ecbcdd","system_id":"levelo_inurba_marseille","lat":43.28421,"lon":5.34986,"is_reserved":false,"is_disabled":false,"rental_uris":{"android":"levelo://app?vid=cc5800f7-5890-433e-b13a-92fd67ecbcdd","ios":"levelo://app?vid=cc5800f7-5890-433e-b13a-92fd67ecbcdd"},"vehicle_type_id":"4","last_reported":1725984630,"current_range_meters":31200,"station_id":"ce4bhbh2rcd13ifvqepg","pricing_plan_id":"cebpf4jnsgd1na2vs0mg"},{"bike_id":"40d9e13e-abbd-49fd-8129-3e3cb181dcce","system_id":"levelo_inurba_marseille","lat":43.24663,"lon":5.38166,"is_reserved":false,"is_disabled":false,"rental_uris":{"android":"levelo://app?vid=40d9e13e-abbd-49fd-8129-3e3cb181dcce","ios":"levelo://app?vid=40d9e13e-abbd-49fd-8129-3e3cb181dcce"},"vehicle_type_id":"4","last_reported":1725984630,"current_range_meters":22800,"station_id":"ce4bhih2rcd13ifvqfr0","pricing_plan_id":"cebpf4jnsgd1na2vs0mg"},{"bike_id":"df877005-9d30-42b5-9c48-82b63e639459","system_id":"levelo_inurba_marseille","lat":43.29029,"lon":5.386481,"is_reserved":false,"is_disabled":false,"rental_uris":{"android":"levelo://app?vid=df877005-9d30-42b5-9c48-82b63e639459","ios":"levelo://app?vid=df877005-9d30-42b5-9c48-82b63e639459"},"vehicle_type_id":"4","last_reported":1725984630,"current_range_meters":22800,"station_id":"ce4bh4p2rcd13ifvqe0g","pricing_plan_id":"cebpf4jnsgd1na2vs0mg"},{"bike_id":"44b2ec80-9b98-4d95-a100-0bc75245a5d5","system_id":"levelo_inurba_marseille","lat":43.31726,"lon":5.42401,"is_reserved":false,"is_disabled":false,"rental_uris":{"android":"levelo://app?vid=44b2ec80-9b98-4d95-a100-0bc75245a5d5","ios":"levelo://app?vid=44b2ec80-9b98-4d95-a100-0bc75245a5d5"},"vehicle_type_id":"4","last_reported":1725984630,"current_range_meters":22800,"station_id":"ce4bhp92rcd13ifvqhbg","pricing_plan_id":"cebpf4jnsgd1na2vs0mg"},{"bike_id":"6705d831-ea2a-4b8b-b16a-4b1b40f81b91","system_id":"levelo_inurba_marseille","lat":43.27374,"lon":5.3626,"is_reserved":false,"is_disabled":false,"rental_uris":{"android":"levelo://app?vid=6705d831-ea2a-4b8b-b16a-4b1b40f81b91","ios":"levelo://app?vid=6705d831-ea2a-4b8b-b16a-4b1b40f81b91"},"vehicle_type_id":"4","last_reported":1725984630,"current_range_meters":10000,"station_id":"ce4bhbh2rcd13ifvqeo0","pricing_plan_id":"cebpf4jnsgd1na2vs0mg"},{"bike_id":"1951982f-87d1-4ca7-8f09-ad184bb66a2f","system_id":"levelo_inurba_marseille","lat":43.3149,"lon":5.37308,"is_reserved":false,"is_disabled":false,"rental_uris":{"android":"levelo://app?vid=1951982f-87d1-4ca7-8f09-ad184bb66a2f","ios":"levelo://app?vid=1951982f-87d1-4ca7-8f09-ad184bb66a2f"},"vehicle_type_id":"4","last_reported":1725984630,"current_range_meters":12800,"station_id":"ce4bgt12rcd13ifvqcd0","pricing_plan_id":"cebpf4jnsgd1na2vs0mg"},{"bike_id":"20e99fee-7f5e-4fd9-8345-d42fb0592de3","system_id":"levelo_inurba_marseille","lat":43.33761,"lon":5.37446,"is_reserved":false,"is_disabled":false,"rental_uris":{"android":"levelo://app?vid=20e99fee-7f5e-4fd9-8345-d42fb0592de3","ios":"levelo://app?vid=20e99fee-7f5e-4fd9-8345-d42fb0592de3"},"vehicle_type_id":"4","last_reported":1725984630,"current_range_meters":19600,"station_id":"","pricing_plan_id":"cebpf4jnsgd1na2vs0mg"},{"bike_id":"b50d82f9-5037-41d5-975a-ed42c505f159","system_id":"levelo_inurba_marseille","lat":43.3372,"lon":5.39186,"is_reserved":false,"is_disabled":false,"rental_uris":{"android":"levelo://app?vid=b50d82f9-5037-41d5-975a-ed42c505f159","ios":"levelo://app?vid=b50d82f9-5037-41d5-975a-ed42c505f159"},"vehicle_type_id":"4","last_reported":1725984630,"current_range_meters":7200,"station_id":"ce4bhr92rcd13ifvqhsg","pricing_plan_id":"cebpf4jnsgd1na2vs0mg"},{"bike_id":"1aa5a031-dec9-43b9-83e9-157d9c78175e","system_id":"levelo_inurba_marseille","lat":43.22933,"lon":5.35377,"is_reserved":false,"is_disabled":false,"rental_uris":{"android":"levelo://app?vid=1aa5a031-dec9-43b9-83e9-157d9c78175e","ios":"levelo://app?vid=1aa5a031-dec9-43b9-83e9-157d9c78175e"},"vehicle_type_id":"4","last_reported":1725984630,"current_range_meters":20000,"station_id":"cpo3532slgdg3j2ikp40","pricing_plan_id":"cebpf4jnsgd1na2vs0mg"},{"bike_id":"b3e60a04-3381-44a0-a39e-68d1110c8d8a","system_id":"levelo_inurba_marseille","lat":43.28672,"lon":5.38669,"is_reserved":false,"is_disabled":false,"rental_uris":{"android":"levelo://app?vid=b3e60a04-3381-44a0-a39e-68d1110c8d8a","ios":"levelo://app?vid=b3e60a04-3381-44a0-a39e-68d1110c8d8a"},"vehicle_type_id":"4","last_reported":1725984630,"current_range_meters":3200,"station_id":"ce4bh492rcd13ifvqdug","pricing_plan_id":"cebpf4jnsgd1na2vs0mg"},{"bike_id":"cc2a9a5e-ad9e-4d60-af76-c7b2c1be3e56","system_id":"levelo_inurba_marseille","lat":43.27668,"lon":5.38879,"is_reserved":false,"is_disabled":false,"rental_uris":{"android":"levelo://app?vid=cc2a9a5e-ad9e-4d60-af76-c7b2c1be3e56","ios":"levelo://app?vid=cc2a9a5e-ad9e-4d60-af76-c7b2c1be3e56"},"vehicle_type_id":"4","last_reported":1725984630,"current_range_meters":26800,"station_id":"ce4bhi12rcd13ifvqfo0","pricing_plan_id":"cebpf4jnsgd1na2vs0mg"},{"bike_id":"be58d8d2-042f-4015-a7d7-d6dc9536fe77","system_id":"levelo_inurba_marseille","lat":43.279461,"lon":5.410446,"is_reserved":false,"is_disabled":false,"rental_uris":{"android":"levelo://app?vid=be58d8d2-042f-4015-a7d7-d6dc9536fe77","ios":"levelo://app?vid=be58d8d2-042f-4015-a7d7-d6dc9536fe77"},"vehicle_type_id":"4","last_reported":1725984630,"current_range_meters":19600,"station_id":"ce4bhnp2rcd13ifvqh0g","pricing_plan_id":"cebpf4jnsgd1na2vs0mg"},{"bike_id":"0e4154c4-f718-4f33-8df8-8d53d3a32555","system_id":"levelo_inurba_marseille","lat":43.27975,"lon":5.38753,"is_reserved":false,"is_disabled":false,"rental_uris":{"android":"levelo://app?vid=0e4154c4-f718-4f33-8df8-8d53d3a32555","ios":"levelo://app?vid=0e4154c4-f718-4f33-8df8-8d53d3a32555"},"vehicle_type_id":"4","last_reported":1725984630,"current_range_meters":1200,"station_id":"ce4bhg12rcd13ifvqf80","pricing_plan_id":"cebpf4jnsgd1na2vs0mg"},{"bike_id":"2b5b858a-b6dc-4817-bb4d-fc3289e7144f","system_id":"levelo_inurba_marseille","lat":43.23183,"lon":5.3999,"is_reserved":false,"is_disabled":false,"rental_uris":{"android":"levelo://app?vid=2b5b858a-b6dc-4817-bb4d-fc3289e7144f","ios":"levelo://app?vid=2b5b858a-b6dc-4817-bb4d-fc3289e7144f"},"vehicle_type_id":"4","last_reported":1725984630,"current_range_meters":27600,"station_id":"ce4bhn12rcd13ifvqgqg","pricing_plan_id":"cebpf4jnsgd1na2vs0mg"},{"bike_id":"9f050876-159a-47d9-9d0b-cb3a6694cef8","system_id":"levelo_inurba_marseille","lat":43.27939,"lon":5.41047,"is_reserved":false,"is_disabled":false,"rental_uris":{"android":"levelo://app?vid=9f050876-159a-47d9-9d0b-cb3a6694cef8","ios":"levelo://app?vid=9f050876-159a-47d9-9d0b-cb3a6694cef8"},"vehicle_type_id":"4","last_reported":1725984630,"current_range_meters":10800,"station_id":"ce4bhnp2rcd13ifvqh0g","pricing_plan_id":"cebpf4jnsgd1na2vs0mg"},{"bike_id":"dcfacbfe-bcbc-4076-962c-ef65756cfb95","system_id":"levelo_inurba_marseille","lat":43.28421,"lon":5.34987,"is_reserved":false,"is_disabled":false,"rental_uris":{"android":"levelo://app?vid=dcfacbfe-bcbc-4076-962c-ef65756cfb95","ios":"levelo://app?vid=dcfacbfe-bcbc-4076-962c-ef65756cfb95"},"vehicle_type_id":"4","last_reported":1725984630,"current_range_meters":14000,"station_id":"ce4bhbh2rcd13ifvqepg","pricing_plan_id":"cebpf4jnsgd1na2vs0mg"},{"bike_id":"1b74f375-2718-4fc4-b5e8-72162c2d2213","system_id":"levelo_inurba_marseille","lat":43.28619,"lon":5.35105,"is_reserved":false,"is_disabled":false,"rental_uris":{"android":"levelo://app?vid=1b74f375-2718-4fc4-b5e8-72162c2d2213","ios":"levelo://app?vid=1b74f375-2718-4fc4-b5e8-72162c2d2213"},"vehicle_type_id":"4","last_reported":1725984630,"current_range_meters":36800,"station_id":"ce4bhch2rcd13ifvqeug","pricing_plan_id":"cebpf4jnsgd1na2vs0mg"},{"bike_id":"6f4ccaa7-a6ad-4f21-b0c2-486a479f8cc6","system_id":"levelo_inurba_marseille","lat":43.3171,"lon":5.37721,"is_reserved":false,"is_disabled":false,"rental_uris":{"android":"levelo://app?vid=6f4ccaa7-a6ad-4f21-b0c2-486a479f8cc6","ios":"levelo://app?vid=6f4ccaa7-a6ad-4f21-b0c2-486a479f8cc6"},"vehicle_type_id":"4","last_reported":1725984630,"current_range_meters":12800,"station_id":"ce4bgth2rcd13ifvqch0","pricing_plan_id":"cebpf4jnsgd1na2vs0mg"},{"bike_id":"86d3d8e6-2c87-401c-a150-03d8aa5b06e7","system_id":"levelo_inurba_marseille","lat":43.28422,"lon":5.34986,"is_reserved":false,"is_disabled":false,"rental_uris":{"android":"levelo://app?vid=86d3d8e6-2c87-401c-a150-03d8aa5b06e7","ios":"levelo://app?vid=86d3d8e6-2c87-401c-a150-03d8aa5b06e7"},"vehicle_type_id":"4","last_reported":1725984630,"current_range_meters":26800,"station_id":"ce4bhbh2rcd13ifvqepg","pricing_plan_id":"cebpf4jnsgd1na2vs0mg"},{"bike_id":"59b743e1-c159-4662-9221-d84724089793","system_id":"levelo_inurba_marseille","lat":43.3122,"lon":5.36854,"is_reserved":false,"is_disabled":false,"rental_uris":{"android":"levelo://app?vid=59b743e1-c159-4662-9221-d84724089793","ios":"levelo://app?vid=59b743e1-c159-4662-9221-d84724089793"},"vehicle_type_id":"4","last_reported":1725984630,"current_range_meters":24800,"station_id":"ce4bgl92rcd13ifvqbq0","pricing_plan_id":"cebpf4jnsgd1na2vs0mg"},{"bike_id":"6083c8fd-673d-4152-81ee-1bcd378ef7c7","system_id":"levelo_inurba_marseille","lat":43.28462,"lon":5.35895,"is_reserved":false,"is_disabled":false,"rental_uris":{"android":"levelo://app?vid=6083c8fd-673d-4152-81ee-1bcd378ef7c7","ios":"levelo://app?vid=6083c8fd-673d-4152-81ee-1bcd378ef7c7"},"vehicle_type_id":"4","last_reported":1725984630,"current_range_meters":16000,"station_id":"ce4bhah2rcd13ifvqei0","pricing_plan_id":"cebpf4jnsgd1na2vs0mg"},{"bike_id":"9142d268-f973-434d-b629-5c94b9684444","system_id":"levelo_inurba_marseille","lat":43.302518,"lon":5.400752,"is_reserved":false,"is_disabled":false,"rental_uris":{"android":"levelo://app?vid=9142d268-f973-434d-b629-5c94b9684444","ios":"levelo://app?vid=9142d268-f973-434d-b629-5c94b9684444"},"vehicle_type_id":"4","last_reported":1725984630,"current_range_meters":7200,"station_id":"ce4bgvh2rcd13ifvqcs0","pricing_plan_id":"cebpf4jnsgd1na2vs0mg"},{"bike_id":"230e3a22-1a03-408c-b711-7f167a488065","system_id":"levelo_inurba_marseille","lat":43.30574,"lon":5.38149,"is_reserved":false,"is_disabled":false,"rental_uris":{"android":"levelo://app?vid=230e3a22-1a03-408c-b711-7f167a488065","ios":"levelo://app?vid=230e3a22-1a03-408c-b711-7f167a488065"},"vehicle_type_id":"4","last_reported":1725984630,"current_range_meters":13600,"station_id":"ce4bgup2rcd13ifvqcn0","pricing_plan_id":"cebpf4jnsgd1na2vs0mg"},{"bike_id":"03a47a94-2d23-4cef-8804-f5c4597e2336","system_id":"levelo_inurba_marseille","lat":43.32335,"lon":5.4062,"is_reserved":false,"is_disabled":false,"rental_uris":{"android":"levelo://app?vid=03a47a94-2d23-4cef-8804-f5c4597e2336","ios":"levelo://app?vid=03a47a94-2d23-4cef-8804-f5c4597e2336"},"vehicle_type_id":"4","last_reported":1725984630,"current_range_meters":24800,"station_id":"ce4bhq92rcd13ifvqhjg","pricing_plan_id":"cebpf4jnsgd1na2vs0mg"},{"bike_id":"b641569c-c61d-4364-989b-fa5ba6a9b94c","system_id":"levelo_inurba_marseille","lat":43.28353,"lon":5.38633,"is_reserved":false,"is_disabled":false,"rental_uris":{"android":"levelo://app?vid=b641569c-c61d-4364-989b-fa5ba6a9b94c","ios":"levelo://app?vid=b641569c-c61d-4364-989b-fa5ba6a9b94c"},"vehicle_type_id":"4","last_reported":1725984630,"current_range_meters":2000,"station_id":"ce4bh492rcd13ifvqdvg","pricing_plan_id":"cebpf4jnsgd1na2vs0mg"},{"bike_id":"4aabff98-14d2-4ae5-86f2-fd692ae18436","system_id":"levelo_inurba_marseille","lat":43.32475,"lon":5.36554,"is_reserved":false,"is_disabled":false,"rental_uris":{"android":"levelo://app?vid=4aabff98-14d2-4ae5-86f2-fd692ae18436","ios":"levelo://app?vid=4aabff98-14d2-4ae5-86f2-fd692ae18436"},"vehicle_type_id":"4","last_reported":1725984630,"current_range_meters":38800,"station_id":"ce4bhs12rcd13ifvqhvg","pricing_plan_id":"cebpf4jnsgd1na2vs0mg"},{"bike_id":"ae894e7d-e18c-4eee-8846-2758851b05b4","system_id":"levelo_inurba_marseille","lat":43.29961,"lon":5.41323,"is_reserved":false,"is_disabled":false,"rental_uris":{"android":"levelo://app?vid=ae894e7d-e18c-4eee-8846-2758851b05b4","ios":"levelo://app?vid=ae894e7d-e18c-4eee-8846-2758851b05b4"},"vehicle_type_id":"4","last_reported":1725984630,"current_range_meters":33200,"station_id":"ce4bhp12rcd13ifvqh9g","pricing_plan_id":"cebpf4jnsgd1na2vs0mg"},{"bike_id":"22f2fc40-ab05-43d7-a44e-23b773ee0fb9","system_id":"levelo_inurba_marseille","lat":43.285283,"lon":5.383752,"is_reserved":false,"is_disabled":false,"rental_uris":{"android":"levelo://app?vid=22f2fc40-ab05-43d7-a44e-23b773ee0fb9","ios":"levelo://app?vid=22f2fc40-ab05-43d7-a44e-23b773ee0fb9"},"vehicle_type_id":"4","last_reported":1725984630,"current_range_meters":4800,"station_id":"ce4bh2p2rcd13ifvqdi0","pricing_plan_id":"cebpf4jnsgd1na2vs0mg"},{"bike_id":"e6922552-489e-4c20-aa58-9c78a8094759","system_id":"levelo_inurba_marseille","lat":43.23186,"lon":5.39983,"is_reserved":false,"is_disabled":false,"rental_uris":{"android":"levelo://app?vid=e6922552-489e-4c20-aa58-9c78a8094759","ios":"levelo://app?vid=e6922552-489e-4c20-aa58-9c78a8094759"},"vehicle_type_id":"4","last_reported":1725984630,"current_range_meters":6800,"station_id":"ce4bhn12rcd13ifvqgqg","pricing_plan_id":"cebpf4jnsgd1na2vs0mg"},{"bike_id":"80719431-a79b-4a7a-8156-843df6b26d3d","system_id":"levelo_inurba_marseille","lat":43.28424,"lon":5.34982,"is_reserved":false,"is_disabled":false,"rental_uris":{"android":"levelo://app?vid=80719431-a79b-4a7a-8156-843df6b26d3d","ios":"levelo://app?vid=80719431-a79b-4a7a-8156-843df6b26d3d"},"vehicle_type_id":"4","last_reported":1725984630,"current_range_meters":12000,"station_id":"ce4bhbh2rcd13ifvqepg","pricing_plan_id":"cebpf4jnsgd1na2vs0mg"},{"bike_id":"ac6ae558-2b8d-40c5-8647-23140ba17ab8","system_id":"levelo_inurba_marseille","lat":43.31082,"lon":5.42427,"is_reserved":false,"is_disabled":false,"rental_uris":{"android":"levelo://app?vid=ac6ae558-2b8d-40c5-8647-23140ba17ab8","ios":"levelo://app?vid=ac6ae558-2b8d-40c5-8647-23140ba17ab8"},"vehicle_type_id":"4","last_reported":1725984630,"current_range_meters":26000,"station_id":"ce4bhp92rcd13ifvqhag","pricing_plan_id":"cebpf4jnsgd1na2vs0mg"},{"bike_id":"45f9beda-f953-4a26-8324-06ceb6e8a146","system_id":"levelo_inurba_marseille","lat":43.30533,"lon":5.36556,"is_reserved":false,"is_disabled":false,"rental_uris":{"android":"levelo://app?vid=45f9beda-f953-4a26-8324-06ceb6e8a146","ios":"levelo://app?vid=45f9beda-f953-4a26-8324-06ceb6e8a146"},"vehicle_type_id":"4","last_reported":1725984630,"current_range_meters":2800,"station_id":"ce4bgs12rcd13ifvqcag","pricing_plan_id":"cebpf4jnsgd1na2vs0mg"},{"bike_id":"39ebc3ba-648c-4f09-bd88-929bcc8816b9","system_id":"levelo_inurba_marseille","lat":43.298052,"lon":5.403872,"is_reserved":false,"is_disabled":false,"rental_uris":{"android":"levelo://app?vid=39ebc3ba-648c-4f09-bd88-929bcc8816b9","ios":"levelo://app?vid=39ebc3ba-648c-4f09-bd88-929bcc8816b9"},"vehicle_type_id":"4","last_reported":1725984630,"current_range_meters":19200,"station_id":"ce4bh112rcd13ifvqd90","pricing_plan_id":"cebpf4jnsgd1na2vs0mg"},{"bike_id":"343f485f-a727-4658-bd93-264f422ae6c1","system_id":"levelo_inurba_marseille","lat":43.29029,"lon":5.38131,"is_reserved":false,"is_disabled":false,"rental_uris":{"android":"levelo://app?vid=343f485f-a727-4658-bd93-264f422ae6c1","ios":"levelo://app?vid=343f485f-a727-4658-bd93-264f422ae6c1"},"vehicle_type_id":"4","last_reported":1725984630,"current_range_meters":1600,"station_id":"ce4bh4p2rcd13ifvqe1g","pricing_plan_id":"cebpf4jnsgd1na2vs0mg"},{"bike_id":"4e95d02e-577e-4334-9b1a-05bc0ede2ffd","system_id":"levelo_inurba_marseille","lat":43.279274,"lon":5.407534,"is_reserved":false,"is_disabled":false,"rental_uris":{"android":"levelo://app?vid=4e95d02e-577e-4334-9b1a-05bc0ede2ffd","ios":"levelo://app?vid=4e95d02e-577e-4334-9b1a-05bc0ede2ffd"},"vehicle_type_id":"4","last_reported":1725984630,"current_range_meters":17600,"station_id":"ce4bhnh2rcd13ifvqgtg","pricing_plan_id":"cebpf4jnsgd1na2vs0mg"},{"bike_id":"f4b4f936-0437-4ce8-b454-797ad7cc0227","system_id":"levelo_inurba_marseille","lat":43.27369,"lon":5.36259,"is_reserved":false,"is_disabled":false,"rental_uris":{"android":"levelo://app?vid=f4b4f936-0437-4ce8-b454-797ad7cc0227","ios":"levelo://app?vid=f4b4f936-0437-4ce8-b454-797ad7cc0227"},"vehicle_type_id":"4","last_reported":1725984630,"current_range_meters":4000,"station_id":"ce4bhbh2rcd13ifvqeo0","pricing_plan_id":"cebpf4jnsgd1na2vs0mg"},{"bike_id":"4e4f154e-bce2-4cbc-81a6-b885b39a09c8","system_id":"levelo_inurba_marseille","lat":43.28268,"lon":5.35065,"is_reserved":false,"is_disabled":false,"rental_uris":{"android":"levelo://app?vid=4e4f154e-bce2-4cbc-81a6-b885b39a09c8","ios":"levelo://app?vid=4e4f154e-bce2-4cbc-81a6-b885b39a09c8"},"vehicle_type_id":"4","last_reported":1725984630,"current_range_meters":24000,"station_id":"ce4bhbp2rcd13ifvqerg","pricing_plan_id":"cebpf4jnsgd1na2vs0mg"},{"bike_id":"a7ade7f7-0e3e-4fa5-bd32-e779d520993c","system_id":"levelo_inurba_marseille","lat":43.2418,"lon":5.3973,"is_reserved":false,"is_disabled":false,"rental_uris":{"android":"levelo://app?vid=a7ade7f7-0e3e-4fa5-bd32-e779d520993c","ios":"levelo://app?vid=a7ade7f7-0e3e-4fa5-bd32-e779d520993c"},"vehicle_type_id":"4","last_reported":1725984630,"current_range_meters":12400,"station_id":"ce4bhn12rcd13ifvqgpg","pricing_plan_id":"cebpf4jnsgd1na2vs0mg"},{"bike_id":"315d69d0-fb82-4e2d-b30d-f63ac997a70e","system_id":"levelo_inurba_marseille","lat":43.28408,"lon":5.34984,"is_reserved":false,"is_disabled":false,"rental_uris":{"android":"levelo://app?vid=315d69d0-fb82-4e2d-b30d-f63ac997a70e","ios":"levelo://app?vid=315d69d0-fb82-4e2d-b30d-f63ac997a70e"},"vehicle_type_id":"4","last_reported":1725984630,"current_range_meters":17200,"station_id":"ce4bhbh2rcd13ifvqepg","pricing_plan_id":"cebpf4jnsgd1na2vs0mg"},{"bike_id":"9163e461-a787-48dc-b885-99245462f827","system_id":"levelo_inurba_marseille","lat":43.31322,"lon":5.39692,"is_reserved":false,"is_disabled":false,"rental_uris":{"android":"levelo://app?vid=9163e461-a787-48dc-b885-99245462f827","ios":"levelo://app?vid=9163e461-a787-48dc-b885-99245462f827"},"vehicle_type_id":"4","last_reported":1725984630,"current_range_meters":27600,"station_id":"ce4bgvp2rcd13ifvqcu0","pricing_plan_id":"cebpf4jnsgd1na2vs0mg"},{"bike_id":"9aca3ad4-a0d4-47ba-8f85-ffca73d41c10","system_id":"levelo_inurba_marseille","lat":43.31538,"lon":5.38015,"is_reserved":false,"is_disabled":false,"rental_uris":{"android":"levelo://app?vid=9aca3ad4-a0d4-47ba-8f85-ffca73d41c10","ios":"levelo://app?vid=9aca3ad4-a0d4-47ba-8f85-ffca73d41c10"},"vehicle_type_id":"4","last_reported":1725984630,"current_range_meters":16800,"station_id":"ce4bhsp2rcd13ifvqi50","pricing_plan_id":"cebpf4jnsgd1na2vs0mg"},{"bike_id":"9ccc7fdf-d8d1-4a33-a1bb-5e5fb3a40681","system_id":"levelo_inurba_marseille","lat":43.290042,"lon":5.356203,"is_reserved":false,"is_disabled":false,"rental_uris":{"android":"levelo://app?vid=9ccc7fdf-d8d1-4a33-a1bb-5e5fb3a40681","ios":"levelo://app?vid=9ccc7fdf-d8d1-4a33-a1bb-5e5fb3a40681"},"vehicle_type_id":"4","last_reported":1725984630,"current_range_meters":3200,"station_id":"ce4bhap2rcd13ifvqek0","pricing_plan_id":"cebpf4jnsgd1na2vs0mg"},{"bike_id":"3a72c802-2153-47c3-94d5-ea446db13e88","system_id":"levelo_inurba_marseille","lat":43.30308,"lon":5.39204,"is_reserved":false,"is_disabled":false,"rental_uris":{"android":"levelo://app?vid=3a72c802-2153-47c3-94d5-ea446db13e88","ios":"levelo://app?vid=3a72c802-2153-47c3-94d5-ea446db13e88"},"vehicle_type_id":"4","last_reported":1725984630,"current_range_meters":7200,"station_id":"ce4bgkh2rcd13ifvqbk0","pricing_plan_id":"cebpf4jnsgd1na2vs0mg"},{"bike_id":"cb8a273d-7a7c-4d20-b4ed-8b33cf704f70","system_id":"levelo_inurba_marseille","lat":43.29531,"lon":5.38548,"is_reserved":false,"is_disabled":false,"rental_uris":{"android":"levelo://app?vid=cb8a273d-7a7c-4d20-b4ed-8b33cf704f70","ios":"levelo://app?vid=cb8a273d-7a7c-4d20-b4ed-8b33cf704f70"},"vehicle_type_id":"4","last_reported":1725984630,"current_range_meters":9600,"station_id":"ce4bgih2rcd13ifvqba0","pricing_plan_id":"cebpf4jnsgd1na2vs0mg"},{"bike_id":"b7de0091-660c-4e2d-bcb6-5d04f5ed5055","system_id":"levelo_inurba_marseille","lat":43.29896,"lon":5.43659,"is_reserved":false,"is_disabled":false,"rental_uris":{"android":"levelo://app?vid=b7de0091-660c-4e2d-bcb6-5d04f5ed5055","ios":"levelo://app?vid=b7de0091-660c-4e2d-bcb6-5d04f5ed5055"},"vehicle_type_id":"4","last_reported":1725984630,"current_range_meters":34800,"station_id":"ce4bhpp2rcd13ifvqhfg","pricing_plan_id":"cebpf4jnsgd1na2vs0mg"},{"bike_id":"14163ce9-95c4-459d-9d3d-22a01b61b85e","system_id":"levelo_inurba_marseille","lat":43.29369,"lon":5.37849,"is_reserved":false,"is_disabled":false,"rental_uris":{"android":"levelo://app?vid=14163ce9-95c4-459d-9d3d-22a01b61b85e","ios":"levelo://app?vid=14163ce9-95c4-459d-9d3d-22a01b61b85e"},"vehicle_type_id":"4","last_reported":1725984630,"current_range_meters":33200,"station_id":"ce4bgjh2rcd13ifvqbf0","pricing_plan_id":"cebpf4jnsgd1na2vs0mg"},{"bike_id":"15ad6f24-886d-41b7-9851-3c63fc0365ca","system_id":"levelo_inurba_marseille","lat":43.32479,"lon":5.36561,"is_reserved":false,"is_disabled":false,"rental_uris":{"android":"levelo://app?vid=15ad6f24-886d-41b7-9851-3c63fc0365ca","ios":"levelo://app?vid=15ad6f24-886d-41b7-9851-3c63fc0365ca"},"vehicle_type_id":"4","last_reported":1725984630,"current_range_meters":38800,"station_id":"ce4bhs12rcd13ifvqhvg","pricing_plan_id":"cebpf4jnsgd1na2vs0mg"},{"bike_id":"99a95265-7093-4033-ae35-fd9b444c56bd","system_id":"levelo_inurba_marseille","lat":43.23191,"lon":5.35547,"is_reserved":false,"is_disabled":false,"rental_uris":{"android":"levelo://app?vid=99a95265-7093-4033-ae35-fd9b444c56bd","ios":"levelo://app?vid=99a95265-7093-4033-ae35-fd9b444c56bd"},"vehicle_type_id":"4","last_reported":1725984630,"current_range_meters":4400,"station_id":"ce4bhu92rcd13ifvqi70","pricing_plan_id":"cebpf4jnsgd1na2vs0mg"},{"bike_id":"1e349806-889a-433a-8300-cd19190a233a","system_id":"levelo_inurba_marseille","lat":43.31757,"lon":5.39019,"is_reserved":false,"is_disabled":false,"rental_uris":{"android":"levelo://app?vid=1e349806-889a-433a-8300-cd19190a233a","ios":"levelo://app?vid=1e349806-889a-433a-8300-cd19190a233a"},"vehicle_type_id":"4","last_reported":1725984630,"current_range_meters":22400,"station_id":"ce4bhqp2rcd13ifvqhng","pricing_plan_id":"cebpf4jnsgd1na2vs0mg"},{"bike_id":"a4ec4816-f7c4-4828-a921-96f42ee5769a","system_id":"levelo_inurba_marseille","lat":43.281532,"lon":5.426989,"is_reserved":false,"is_disabled":false,"rental_uris":{"android":"levelo://app?vid=a4ec4816-f7c4-4828-a921-96f42ee5769a","ios":"levelo://app?vid=a4ec4816-f7c4-4828-a921-96f42ee5769a"},"vehicle_type_id":"4","last_reported":1725984630,"current_range_meters":4000,"station_id":"ce4bhnh2rcd13ifvqgug","pricing_plan_id":"cebpf4jnsgd1na2vs0mg"},{"bike_id":"ef4a8aff-88b5-4cb5-9439-3e6c0b424172","system_id":"levelo_inurba_marseille","lat":43.28459,"lon":5.35884,"is_reserved":false,"is_disabled":false,"rental_uris":{"android":"levelo://app?vid=ef4a8aff-88b5-4cb5-9439-3e6c0b424172","ios":"levelo://app?vid=ef4a8aff-88b5-4cb5-9439-3e6c0b424172"},"vehicle_type_id":"4","last_reported":1725984630,"current_range_meters":6800,"station_id":"ce4bhah2rcd13ifvqei0","pricing_plan_id":"cebpf4jnsgd1na2vs0mg"},{"bike_id":"57f21c13-ab3e-41c9-8041-102abe5a3216","system_id":"levelo_inurba_marseille","lat":43.28422,"lon":5.34986,"is_reserved":false,"is_disabled":false,"rental_uris":{"android":"levelo://app?vid=57f21c13-ab3e-41c9-8041-102abe5a3216","ios":"levelo://app?vid=57f21c13-ab3e-41c9-8041-102abe5a3216"},"vehicle_type_id":"4","last_reported":1725984630,"current_range_meters":22800,"station_id":"ce4bhbh2rcd13ifvqepg","pricing_plan_id":"cebpf4jnsgd1na2vs0mg"},{"bike_id":"a0083834-604a-4fac-9cc6-c71c2f5cc0a2","system_id":"levelo_inurba_marseille","lat":43.23192,"lon":5.39973,"is_reserved":false,"is_disabled":false,"rental_uris":{"android":"levelo://app?vid=a0083834-604a-4fac-9cc6-c71c2f5cc0a2","ios":"levelo://app?vid=a0083834-604a-4fac-9cc6-c71c2f5cc0a2"},"vehicle_type_id":"4","last_reported":1725984630,"current_range_meters":14000,"station_id":"ce4bhn12rcd13ifvqgqg","pricing_plan_id":"cebpf4jnsgd1na2vs0mg"},{"bike_id":"9640cf56-83da-44b0-823f-95a7ac34628f","system_id":"levelo_inurba_marseille","lat":43.32369,"lon":5.38895,"is_reserved":false,"is_disabled":false,"rental_uris":{"android":"levelo://app?vid=9640cf56-83da-44b0-823f-95a7ac34628f","ios":"levelo://app?vid=9640cf56-83da-44b0-823f-95a7ac34628f"},"vehicle_type_id":"4","last_reported":1725984630,"current_range_meters":31200,"station_id":"ce4bhqp2rcd13ifvqhog","pricing_plan_id":"cebpf4jnsgd1na2vs0mg"},{"bike_id":"f064b575-c737-4265-b66c-be5a7def3799","system_id":"levelo_inurba_marseille","lat":43.31709,"lon":5.43711,"is_reserved":false,"is_disabled":false,"rental_uris":{"android":"levelo://app?vid=f064b575-c737-4265-b66c-be5a7def3799","ios":"levelo://app?vid=f064b575-c737-4265-b66c-be5a7def3799"},"vehicle_type_id":"4","last_reported":1725984630,"current_range_meters":29600,"station_id":"ce4bhp92rcd13ifvqhcg","pricing_plan_id":"cebpf4jnsgd1na2vs0mg"},{"bike_id":"f4563425-78dd-4880-ac09-79a04397d17a","system_id":"levelo_inurba_marseille","lat":43.23179,"lon":5.39986,"is_reserved":false,"is_disabled":false,"rental_uris":{"android":"levelo://app?vid=f4563425-78dd-4880-ac09-79a04397d17a","ios":"levelo://app?vid=f4563425-78dd-4880-ac09-79a04397d17a"},"vehicle_type_id":"4","last_reported":1725984630,"current_range_meters":5600,"station_id":"ce4bhn12rcd13ifvqgqg","pricing_plan_id":"cebpf4jnsgd1na2vs0mg"},{"bike_id":"e286c355-c7bb-4ced-9b5b-3653278b2049","system_id":"levelo_inurba_marseille","lat":43.29258,"lon":5.40896,"is_reserved":false,"is_disabled":false,"rental_uris":{"android":"levelo://app?vid=e286c355-c7bb-4ced-9b5b-3653278b2049","ios":"levelo://app?vid=e286c355-c7bb-4ced-9b5b-3653278b2049"},"vehicle_type_id":"4","last_reported":1725984630,"current_range_meters":8400,"station_id":"ce4bh192rcd13ifvqdc0","pricing_plan_id":"cebpf4jnsgd1na2vs0mg"},{"bike_id":"4c547828-27e3-4434-bab2-949be5adcd01","system_id":"levelo_inurba_marseille","lat":43.2969,"lon":5.37309,"is_reserved":false,"is_disabled":false,"rental_uris":{"android":"levelo://app?vid=4c547828-27e3-4434-bab2-949be5adcd01","ios":"levelo://app?vid=4c547828-27e3-4434-bab2-949be5adcd01"},"vehicle_type_id":"4","last_reported":1725984630,"current_range_meters":22400,"station_id":"ce4bgk12rcd13ifvqbj0","pricing_plan_id":"cebpf4jnsgd1na2vs0mg"},{"bike_id":"8f313995-c99a-4b07-aeef-4e45476b4409","system_id":"levelo_inurba_marseille","lat":43.28464,"lon":5.35893,"is_reserved":false,"is_disabled":false,"rental_uris":{"android":"levelo://app?vid=8f313995-c99a-4b07-aeef-4e45476b4409","ios":"levelo://app?vid=8f313995-c99a-4b07-aeef-4e45476b4409"},"vehicle_type_id":"4","last_reported":1725984630,"current_range_meters":28000,"station_id":"ce4bhah2rcd13ifvqei0","pricing_plan_id":"cebpf4jnsgd1na2vs0mg"},{"bike_id":"e15ea862-a2de-432b-8250-82e23a4e3b80","system_id":"levelo_inurba_marseille","lat":43.23199,"lon":5.35553,"is_reserved":false,"is_disabled":false,"rental_uris":{"android":"levelo://app?vid=e15ea862-a2de-432b-8250-82e23a4e3b80","ios":"levelo://app?vid=e15ea862-a2de-432b-8250-82e23a4e3b80"},"vehicle_type_id":"4","last_reported":1725984630,"current_range_meters":34800,"station_id":"ce4bhu92rcd13ifvqi70","pricing_plan_id":"cebpf4jnsgd1na2vs0mg"},{"bike_id":"6baa4fdb-927f-48d1-a11b-6b126d7eef9f","system_id":"levelo_inurba_marseille","lat":43.23179,"lon":5.39981,"is_reserved":false,"is_disabled":false,"rental_uris":{"android":"levelo://app?vid=6baa4fdb-927f-48d1-a11b-6b126d7eef9f","ios":"levelo://app?vid=6baa4fdb-927f-48d1-a11b-6b126d7eef9f"},"vehicle_type_id":"4","last_reported":1725984630,"current_range_meters":38800,"station_id":"ce4bhn12rcd13ifvqgqg","pricing_plan_id":"cebpf4jnsgd1na2vs0mg"},