{"last_updated":1726744088,"ttl":30,"version":"2.2","data":{"bikes":[{"bike_id":"50acfc09-59e9-4625-a7f0-2ba6bc59480f","system_id":"levelo_inurba_marseille","lat":43.30461,"lon":5.37903,"is_reserved":false,"is_disabled":false,"rental_uris":{"android":"levelo://app?vid=50acfc09-59e9-4625-a7f0-2ba6bc59480f","ios":"levelo://app?vid=50acfc09-59e9-4625-a7f0-2ba6bc59480f"},"vehicle_type_id":"4","last_reported":1726744088,"current_range_meters":22800,"station_id":"ce4bgup2rcd13ifvqcn0","pricing_plan_id":"cebpf4jnsgd1na2vs0mg"},{"bike_id":"5a3917e3-a8f6-41e7-b577-af838342f8e9","system_id":"levelo_inurba_marseille","lat":43.29585,"lon":5.36735,"is_reserved":false,"is_disabled":false,"rental_uris":{"android":"levelo://app?vid=5a3917e3-a8f6-41e7-b577-af838342f8e9","ios":"levelo://app?vid=5a3917e3-a8f6-41e7-b577-af838342f8e9"},"vehicle_type_id":"4","last_reported":1726744088,"current_range_meters":6800,"station_id":"ce4bgph2rcd13ifvqc2g","pricing_plan_id":"cebpf4jnsgd1na2vs0mg"},{"bike_id":"104fb511-d6f2-4a01-88d3-3e2b7c5ab661","system_id":"levelo_inurba_marseille","lat":43.31688,"lon":5.40471,"is_reserved":false,"is_disabled":false,"rental_uris":{"android":"levelo://app?vid=104fb511-d6f2-4a01-88d3-3e2b7c5ab661","ios":"levelo://app?vid=104fb511-d6f2-4a01-88d3-3e2b7c5ab661"},"vehicle_type_id":"4","last_reported":1726744088,"current_range_meters":38800,"station_id":"ce4bh012rcd13ifvqd00","pricing_plan_id":"cebpf4jnsgd1na2vs0mg"},{"bike_id":"42519787-7685-4199-b78e-c15555fa0ddf","system_id":"levelo_inurba_marseille","lat":43.29423,"lon":5.3862,"is_reserved":false,"is_disabled":false,"rental_uris":{"android":"levelo://app?vid=42519787-7685-4199-b78e-c15555fa0ddf","ios":"levelo://app?vid=42519787-7685-4199-b78e-c15555fa0ddf"},"vehicle_type_id":"4","last_reported":1726744088,"current_range_meters":25600,"station_id":"ce4bh2h2rcd13ifvqdh0","pricing_plan_id":"cebpf4jnsgd1na2vs0mg"},{"bike_id":"a978b35a-39d2-417e-8095-f3be60dd0fbb","system_id":"levelo_inurba_marseille","lat":43.29554,"lon":5.4229,"is_reserved":false,"is_disabled":false,"rental_uris":{"android":"levelo://app?vid=a978b35a-39d2-417e-8095-f3be60dd0fbb","ios":"levelo://app?vid=a978b35a-39d2-417e-8095-f3be60dd0fbb"},"vehicle_type_id":"4","last_reported":1726744088,"current_range_meters":34800,"station_id":"ce4bhph2rcd13ifvqhdg","pricing_plan_id":"cebpf4jnsgd1na2vs0mg"},{"bike_id":"811185ca-cd6a-422c-b080-e3d3efd7cfd9","system_id":"levelo_inurba_marseille","lat":43.31755,"lon":5.39016,"is_reserved":false,"is_disabled":false,"rental_uris":{"android":"levelo://app?vid=811185ca-cd6a-422c-b080-e3d3efd7cfd9","ios":"levelo://app?vid=811185ca-cd6a-422c-b080-e3d3efd7cfd9"},"vehicle_type_id":"4","last_reported":1726744088,"current_range_meters":21600,"station_id":"ce4bhqp2rcd13ifvqhng","pricing_plan_id":"cebpf4jnsgd1na2vs0mg"},{"bike_id":"6dd05f25-008f-41e7-b2cd-9080284830c5","system_id":"levelo_inurba_marseille","lat":43.30593,"lon":5.39355,"is_reserved":false,"is_disabled":false,"rental_uris":{"android":"levelo://app?vid=6dd05f25-008f-41e7-b2cd-9080284830c5","ios":"levelo://app?vid=6dd05f25-008f-41e7-b2cd-9080284830c5"},"vehicle_type_id":"4","last_reported":1726744088,"current_range_meters":22000,"station_id":"ce4bh0p2rcd13ifvqd80","pricing_plan_id":"cebpf4jnsgd1na2vs0mg"},{"bike_id":"82ad930e-bb77-47a5-bde6-c213292f4a51","system_id":"levelo_inurba_marseille","lat":43.30593,"lon":5.39348,"is_reserved":false,"is_disabled":false,"rental_uris":{"android":"levelo://app?vid=82ad930e-bb77-47a5-bde6-c213292f4a51","ios":"levelo://app?vid=82ad930e-bb77-47a5-bde6-c213292f4a51"},"vehicle_type_id":"4","last_reported":1726744088,"current_range_meters":38800,"station_id":"ce4bh0p2rcd13ifvqd80","pricing_plan_id":"cebpf4jnsgd1na2vs0mg"},{"bike_id":"ea518a3b-2ba6-4aef-8e8b-1da3cf82019a","system_id":"levelo_inurba_marseille","lat":43.27496,"lon":5.42454,"is_reserved":false,"is_disabled":false,"rental_uris":{"android":"levelo://app?vid=ea518a3b-2ba6-4aef-8e8b-1da3cf82019a","ios":"levelo://app?vid=ea518a3b-2ba6-4aef-8e8b-1da3cf82019a"},"vehicle_type_id":"4","last_reported":1726744088,"current_range_meters":6400,"station_id":"ce4bhn92rcd13ifvqgrg","pricing_plan_id":"cebpf4jnsgd1na2vs0mg"},{"bike_id":"9a8caa05-259e-4b84-bd68-de2f9c9d3fc6","system_id":"levelo_inurba_marseille","lat":43.30455,"lon":5.37902,"is_reserved":false,"is_disabled":false,"rental_uris":{"android":"levelo://app?vid=9a8caa05-259e-4b84-bd68-de2f9c9d3fc6","ios":"levelo://app?vid=9a8caa05-259e-4b84-bd68-de2f9c9d3fc6"},"vehicle_type_id":"4","last_reported":1726744088,"current_range_meters":12800,"station_id":"ce4bgup2rcd13ifvqcn0","pricing_plan_id":"cebpf4jnsgd1na2vs0mg"},{"bike_id":"e532fd53-ad12-4848-82ea-70ac934c1c37","system_id":"levelo_inurba_marseille","lat":43.3375,"lon":5.37447,"is_reserved":false,"is_disabled":false,"rental_uris":{"android":"levelo://app?vid=e532fd53-ad12-4848-82ea-70ac934c1c37","ios":"levelo://app?vid=e532fd53-ad12-4848-82ea-70ac934c1c37"},"vehicle_type_id":"4","last_reported":1726744088,"current_range_meters":37600,"station_id":"","pricing_plan_id":"cebpf4jnsgd1na2vs0mg"},{"bike_id":"6ec4a49c-019d-4326-a7ea-18d0b0abdb3d","system_id":"levelo_inurba_marseille","lat":43.2933,"lon":5.41178,"is_reserved":false,"is_disabled":false,"rental_uris":{"android":"levelo://app?vid=6ec4a49c-019d-4326-a7ea-18d0b0abdb3d","ios":"levelo://app?vid=6ec4a49c-019d-4326-a7ea-18d0b0abdb3d"},"vehicle_type_id":"4","last_reported":1726744088,"current_range_meters":37600,"station_id":"","pricing_plan_id":"cebpf4jnsgd1na2vs0mg"},{"bike_id":"16aff90c-07c9-446e-b8cf-7b04ea13322c","system_id":"levelo_inurba_marseille","lat":43.28149,"lon":5.42637,"is_reserved":false,"is_disabled":false,"rental_uris":{"android":"levelo://app?vid=16aff90c-07c9-446e-b8cf-7b04ea13322c","ios":"levelo://app?vid=16aff90c-07c9-446e-b8cf-7b04ea13322c"},"vehicle_type_id":"4","last_reported":1726744088,"current_range_meters":35600,"station_id":"ce4bhnh2rcd13ifvqgug","pricing_plan_id":"cebpf4jnsgd1na2vs0mg"},{"bike_id":"9a7bef7e-aa27-4b3e-b3a0-16082888faf1","system_id":"levelo_inurba_marseille","lat":43.25926,"lon":5.40911,"is_reserved":false,"is_disabled":false,"rental_uris":{"android":"levelo://app?vid=9a7bef7e-aa27-4b3e-b3a0-16082888faf1","ios":"levelo://app?vid=9a7bef7e-aa27-4b3e-b3a0-16082888faf1"},"vehicle_type_id":"4","last_reported":1726744088,"current_range_meters":35200,"station_id":"ce4bhm92rcd13ifvqglg","pricing_plan_id":"cebpf4jnsgd1na2vs0mg"},{"bike_id":"1f2d4dd0-116c-4784-9668-9666c38931be","system_id":"levelo_inurba_marseille","lat":43.30335,"lon":5.40431,"is_reserved":false,"is_disabled":false,"rental_uris":{"android":"levelo://app?vid=1f2d4dd0-116c-4784-9668-9666c38931be","ios":"levelo://app?vid=1f2d4dd0-116c-4784-9668-9666c38931be"},"vehicle_type_id":"4","last_reported":1726744088,"current_range_meters":36800,"station_id":"ce4bh012rcd13ifvqd10","pricing_plan_id":"cebpf4jnsgd1na2vs0mg"},{"bike_id":"91ac54f7-7fff-4e99-8c59-5dabeb6480bf","system_id":"levelo_inurba_marseille","lat":43.30874,"lon":5.37213,"is_reserved":false,"is_disabled":false,"rental_uris":{"android":"levelo://app?vid=91ac54f7-7fff-4e99-8c59-5dabeb6480bf","ios":"levelo://app?vid=91ac54f7-7fff-4e99-8c59-5dabeb6480bf"},"vehicle_type_id":"4","last_reported":1726744088,"current_range_meters":26800,"station_id":"ce4bguh2rcd13ifvqckg","pricing_plan_id":"cebpf4jnsgd1na2vs0mg"},{"bike_id":"a48c0f10-3a7a-4fe8-8343-dded0834619f","system_id":"levelo_inurba_marseille","lat":43.2408,"lon":5.3775,"is_reserved":false,"is_disabled":false,"rental_uris":{"android":"levelo://app?vid=a48c0f10-3a7a-4fe8-8343-dded0834619f","ios":"levelo://app?vid=a48c0f10-3a7a-4fe8-8343-dded0834619f"},"vehicle_type_id":"4","last_reported":1726744088,"current_range_meters":14000,"station_id":"ce4bhnp2rcd13ifvqgvg","pricing_plan_id":"cebpf4jnsgd1na2vs0mg"},{"bike_id":"5820fe83-ad5f-4557-a1a9-e1814307abd9","system_id":"levelo_inurba_marseille","lat":43.318787,"lon":5.407426,"is_reserved":false,"is_disabled":false,"rental_uris":{"android":"levelo://app?vid=5820fe83-ad5f-4557-a1a9-e1814307abd9","ios":"levelo://app?vid=5820fe83-ad5f-4557-a1a9-e1814307abd9"},"vehicle_type_id":"4","last_reported":1726744088,"current_range_meters":16800,"station_id":"ce4bhq12rcd13ifvqhig","pricing_plan_id":"cebpf4jnsgd1na2vs0mg"},{"bike_id":"4af403ff-232e-437f-a15e-03f83dae4a86","system_id":"levelo_inurba_marseille","lat":43.30537,"lon":5.3655,"is_reserved":false,"is_disabled":false,"rental_uris":{"android":"levelo://app?vid=4af403ff-232e-437f-a15e-03f83dae4a86","ios":"levelo://app?vid=4af403ff-232e-437f-a15e-03f83dae4a86"},"vehicle_type_id":"4","last_reported":1726744088,"current_range_meters":24400,"station_id":"ce4bgs12rcd13ifvqcag","pricing_plan_id":"cebpf4jnsgd1na2vs0mg"},{"bike_id":"64b8db7b-e020-426b-bc67-cc08026eaa92","system_id":"levelo_inurba_marseille","lat":43.29849,"lon":5.36267,"is_reserved":false,"is_disabled":false,"rental_uris":{"android":"levelo://app?vid=64b8db7b-e020-426b-bc67-cc08026eaa92","ios":"levelo://app?vid=64b8db7b-e020-426b-bc67-cc08026eaa92"},"vehicle_type_id":"4","last_reported":1726744088,"current_range_meters":39200,"station_id":"ce4bgpp2rcd13ifvqc3g","pricing_plan_id":"cebpf4jnsgd1na2vs0mg"},{"bike_id":"422fb2d9-e531-4235-863b-a809f34dec48","system_id":"levelo_inurba_marseille","lat":43.29768,"lon":5.37114,"is_reserved":false,"is_disabled":false,"rental_uris":{"android":"levelo://app?vid=422fb2d9-e531-4235-863b-a809f34dec48","ios":"levelo://app?vid=422fb2d9-e531-4235-863b-a809f34dec48"},"vehicle_type_id":"4","last_reported":1726744088,"current_range_meters":27200,"station_id":"ce4bgop2rcd13ifvqc1g","pricing_plan_id":"cebpf4jnsgd1na2vs0mg"},{"bike_id":"dba89f67-eead-48de-a994-b079b492ae9b","system_id":"levelo_inurba_marseille","lat":43.29299,"lon":5.37486,"is_reserved":false,"is_disabled":false,"rental_uris":{"android":"levelo://app?vid=dba89f67-eead-48de-a994-b079b492ae9b","ios":"levelo://app?vid=dba89f67-eead-48de-a994-b079b492ae9b"},"vehicle_type_id":"4","last_reported":1726744088,"current_range_meters":4400,"station_id":"ce4bgi12rcd13ifvqb70","pricing_plan_id":"cebpf4jnsgd1na2vs0mg"},{"bike_id":"94457ce5-ab75-4dab-8447-fcf347e62d44","system_id":"levelo_inurba_marseille","lat":43.305614,"lon":5.365527,"is_reserved":false,"is_disabled":false,"rental_uris":{"android":"levelo://app?vid=94457ce5-ab75-4dab-8447-fcf347e62d44","ios":"levelo://app?vid=94457ce5-ab75-4dab-8447-fcf347e62d44"},"vehicle_type_id":"4","last_reported":1726744088,"current_range_meters":17600,"station_id":"ce4bgs12rcd13ifvqcag","pricing_plan_id":"cebpf4jnsgd1na2vs0mg"},{"bike_id":"320da2ed-eb3f-4612-8bfc-7d3050424de6","system_id":"levelo_inurba_marseille","lat":43.29724,"lon":5.37683,"is_reserved":false,"is_disabled":false,"rental_uris":{"android":"levelo://app?vid=320da2ed-eb3f-4612-8bfc-7d3050424de6","ios":"levelo://app?vid=320da2ed-eb3f-4612-8bfc-7d3050424de6"},"vehicle_type_id":"4","last_reported":1726744088,"current_range_meters":8400,"station_id":"ce4bgkh2rcd13ifvqbl0","pricing_plan_id":"cebpf4jnsgd1na2vs0mg"},{"bike_id":"8e57cea8-a115-4bdb-8bb4-614d225f5302","system_id":"levelo_inurba_marseille","lat":43.29361,"lon":5.392841,"is_reserved":false,"is_disabled":false,"rental_uris":{"android":"levelo://app?vid=8e57cea8-a115-4bdb-8bb4-614d225f5302","ios":"levelo://app?vid=8e57cea8-a115-4bdb-8bb4-614d225f5302"},"vehicle_type_id":"4","last_reported":1726744088,"current_range_meters":19200,"station_id":"ce4bh0p2rcd13ifvqd80","pricing_plan_id":"cebpf4jnsgd1na2vs0mg"},{"bike_id":"2bc21d36-e9c1-4ac7-aae9-a800945214f5","system_id":"levelo_inurba_marseille","lat":43.30141,"lon":5.37405,"is_reserved":false,"is_disabled":false,"rental_uris":{"android":"levelo://app?vid=2bc21d36-e9c1-4ac7-aae9-a800945214f5","ios":"levelo://app?vid=2bc21d36-e9c1-4ac7-aae9-a800945214f5"},"vehicle_type_id":"4","last_reported":1726744088,"current_range_meters":26000,"station_id":"ce4bgs92rcd13ifvqcc0","pricing_plan_id":"cebpf4jnsgd1na2vs0mg"},{"bike_id":"5e51a85f-7879-440a-9fb7-f98af5b9444a","system_id":"levelo_inurba_marseille","lat":43.27918,"lon":5.39574,"is_reserved":false,"is_disabled":false,"rental_uris":{"android":"levelo://app?vid=5e51a85f-7879-440a-9fb7-f98af5b9444a","ios":"levelo://app?vid=5e51a85f-7879-440a-9fb7-f98af5b9444a"},"vehicle_type_id":"4","last_reported":1726744088,"current_range_meters":7200,"station_id":"ce4bhf92rcd13ifvqf40","pricing_plan_id":"cebpf4jnsgd1na2vs0mg"},{"bike_id":"fb249ec1-188b-4a5a-87d4-108fe06ce0cd","system_id":"levelo_inurba_marseille","lat":43.30962,"lon":5.39023,"is_reserved":false,"is_disabled":false,"rental_uris":{"android":"levelo://app?vid=fb249ec1-188b-4a5a-87d4-108fe06ce0cd","ios":"levelo://app?vid=fb249ec1-188b-4a5a-87d4-108fe06ce0cd"},"vehicle_type_id":"4","last_reported":1726744088,"current_range_meters":33200,"station_id":"ce4bgup2rcd13ifvqco0","pricing_plan_id":"cebpf4jnsgd1na2vs0mg"},{"bike_id":"8985a7e5-d9b7-4ee6-9335-fd8939fcdf07","system_id":"levelo_inurba_marseille","lat":43.27499,"lon":5.42455,"is_reserved":false,"is_disabled":false,"rental_uris":{"android":"levelo://app?vid=8985a7e5-d9b7-4ee6-9335-fd8939fcdf07","ios":"levelo://app?vid=8985a7e5-d9b7-4ee6-9335-fd8939fcdf07"},"vehicle_type_id":"4","last_reported":1726744088,"current_range_meters":24400,"station_id":"ce4bhn92rcd13ifvqgrg","pricing_plan_id":"cebpf4jnsgd1na2vs0mg"},{"bike_id":"8ff30239-0055-42ab-b213-c121ce9cdd52","system_id":"levelo_inurba_marseille","lat":43.240753,"lon":5.37762,"is_reserved":false,"is_disabled":false,"rental_uris":{"android":"levelo://app?vid=8ff30239-0055-42ab-b213-c121ce9cdd52","ios":"levelo://app?vid=8ff30239-0055-42ab-b213-c121ce9cdd52"},"vehicle_type_id":"4","last_reported":1726744088,"current_range_meters":35200,"station_id":"ce4bhnp2rcd13ifvqgvg","pricing_plan_id":"cebpf4jnsgd1na2vs0mg"},{"bike_id":"94b792e3-4671-44d8-9241-f3fb87ab6fe9","system_id":"levelo_inurba_marseille","lat":43.23183,"lon":5.39982,"is_reserved":false,"is_disabled":false,"rental_uris":{"android":"levelo://app?vid=94b792e3-4671-44d8-9241-f3fb87ab6fe9","ios":"levelo://app?vid=94b792e3-4671-44d8-9241-f3fb87ab6fe9"},"vehicle_type_id":"4","last_reported":1726744088,"current_range_meters":38800,"station_id":"ce4bhn12rcd13ifvqgqg","pricing_plan_id":"cebpf4jnsgd1na2vs0mg"},{"bike_id":"5ee72852-9360-467f-8628-81c7887b89c6","system_id":"levelo_inurba_marseille","lat":43.24077,"lon":5.37758,"is_reserved":false,"is_disabled":false,"rental_uris":{"android":"levelo://app?vid=5ee72852-9360-467f-8628-81c7887b89c6","ios":"levelo://app?vid=5ee72852-9360-467f-8628-81c7887b89c6"},"vehicle_type_id":"4","last_reported":1726744088,"current_range_meters":16000,"station_id":"ce4bhnp2rcd13ifvqgvg","pricing_plan_id":"cebpf4jnsgd1na2vs0mg"},{"bike_id":"531d4ced-ab81-4620-90ca-4669d6878fd4","system_id":"levelo_inurba_marseille","lat":43.302203,"lon":5.394701,"is_reserved":false,"is_disabled":false,"rental_uris":{"android":"levelo://app?vid=531d4ced-ab81-4620-90ca-4669d6878fd4","ios":"levelo://app?vid=531d4ced-ab81-4620-90ca-4669d6878fd4"},"vehicle_type_id":"4","last_reported":1726744088,"current_range_meters":22400,"station_id":"ce4bhb92rcd13ifvqen0","pricing_plan_id":"cebpf4jnsgd1na2vs0mg"},{"bike_id":"590d46f1-62b9-4df3-ab2d-5a84009e8afc","system_id":"levelo_inurba_marseille","lat":43.29554,"lon":5.42286,"is_reserved":false,"is_disabled":false,"rental_uris":{"android":"levelo://app?vid=590d46f1-62b9-4df3-ab2d-5a84009e8afc","ios":"levelo://app?vid=590d46f1-62b9-4df3-ab2d-5a84009e8afc"},"vehicle_type_id":"4","last_reported":1726744088,"current_range_meters":24800,"station_id":"ce4bhph2rcd13ifvqhdg","pricing_plan_id":"cebpf4jnsgd1na2vs0mg"},{"bike_id":"bd53cec4-66c8-4a4e-a5c4-f895d00c4b35","system_id":"levelo_inurba_marseille","lat":43.304321,"lon":5.388983,"is_reserved":false,"is_disabled":false,"rental_uris":{"android":"levelo://app?vid=bd53cec4-66c8-4a4e-a5c4-f895d00c4b35","ios":"levelo://app?vid=bd53cec4-66c8-4a4e-a5c4-f895d00c4b35"},"vehicle_type_id":"4","last_reported":1726744088,"current_range_meters":38000,"station_id":"ce4bgup2rcd13ifvqcn0","pricing_plan_id":"cebpf4jnsgd1na2vs0mg"},{"bike_id":"036ab25f-0c34-4c45-8e88-1fc9200da6fd","system_id":"levelo_inurba_marseille","lat":43.27181,"lon":5.42687,"is_reserved":false,"is_disabled":false,"rental_uris":{"android":"levelo://app?vid=036ab25f-0c34-4c45-8e88-1fc9200da6fd","ios":"levelo://app?vid=036ab25f-0c34-4c45-8e88-1fc9200da6fd"},"vehicle_type_id":"4","last_reported":1726744088,"current_range_meters":30400,"station_id":"","pricing_plan_id":"cebpf4jnsgd1na2vs0mg"},{"bike_id":"c2272d1c-de85-40c3-8a06-70b6bf4106b7","system_id":"levelo_inurba_marseille","lat":43.30801,"lon":5.43523,"is_reserved":false,"is_disabled":false,"rental_uris":{"android":"levelo://app?vid=c2272d1c-de85-40c3-8a06-70b6bf4106b7","ios":"levelo://app?vid=c2272d1c-de85-40c3-8a06-70b6bf4106b7"},"vehicle_type_id":"4","last_reported":1726744088,"current_range_meters":37600,"station_id":"ce4bhph2rcd13ifvqheg","pricing_plan_id":"cebpf4jnsgd1na2vs0mg"},{"bike_id":"c1d8a9f0-cde4-474f-8d86-26987bae3190","system_id":"levelo_inurba_marseille","lat":43.33607,"lon":5.4103,"is_reserved":false,"is_disabled":false,"rental_uris":{"android":"levelo://app?vid=c1d8a9f0-cde4-474f-8d86-26987bae3190","ios":"levelo://app?vid=c1d8a9f0-cde4-474f-8d86-26987bae3190"},"vehicle_type_id":"4","last_reported":1726744088,"current_range_meters":23200,"station_id":"ce4bhqh2rcd13ifvqhmg","pricing_plan_id":"cebpf4jnsgd1na2vs0mg"},{"bike_id":"cdb1d6a4-9407-4af2-be6e-e95b4b0ff00d","system_id":"levelo_inurba_marseille","lat":43.30331,"lon":5.40446,"is_reserved":false,"is_disabled":false,"rental_uris":{"android":"levelo://app?vid=cdb1d6a4-9407-4af2-be6e-e95b4b0ff00d","ios":"levelo://app?vid=cdb1d6a4-9407-4af2-be6e-e95b4b0ff00d"},"vehicle_type_id":"4","last_reported":1726744088,"current_range_meters":17600,"station_id":"ce4bh012rcd13ifvqd10","pricing_plan_id":"cebpf4jnsgd1na2vs0mg"},{"bike_id":"aa4b1a9c-75a6-4f1c-b96d-303cd8b269bf","system_id":"levelo_inurba_marseille","lat":43.29579,"lon":5.39961,"is_reserved":false,"is_disabled":false,"rental_uris":{"android":"levelo://app?vid=aa4b1a9c-75a6-4f1c-b96d-303cd8b269bf","ios":"levelo://app?vid=aa4b1a9c-75a6-4f1c-b96d-303cd8b269bf"},"vehicle_type_id":"4","last_reported":1726744088,"current_range_meters":18000,"station_id":"ce4bh312rcd13ifvqdj0","pricing_plan_id":"cebpf4jnsgd1na2vs0mg"},{"bike_id":"54d0207e-cde5-4a7d-9aad-2214f25c1df5","system_id":"levelo_inurba_marseille","lat":43.2315,"lon":5.4372,"is_reserved":false,"is_disabled":false,"rental_uris":{"android":"levelo://app?vid=54d0207e-cde5-4a7d-9aad-2214f25c1df5","ios":"levelo://app?vid=54d0207e-cde5-4a7d-9aad-2214f25c1df5"},"vehicle_type_id":"4","last_reported":1726744088,"current_range_meters":38400,"station_id":"ce4bhmp2rcd13ifvqgog","pricing_plan_id":"cebpf4jnsgd1na2vs0mg"},{"bike_id":"77c14780-a2a0-45a3-9bf9-b507fb41d354","system_id":"levelo_inurba_marseille","lat":43.30141,"lon":5.38775,"is_reserved":false,"is_disabled":false,"rental_uris":{"android":"levelo://app?vid=77c14780-a2a0-45a3-9bf9-b507fb41d354","ios":"levelo://app?vid=77c14780-a2a0-45a3-9bf9-b507fb41d354"},"vehicle_type_id":"4","last_reported":1726744088,"current_range_meters":38800,"station_id":"ce4bghh2rcd13ifvqb60","pricing_plan_id":"cebpf4jnsgd1na2vs0mg"},{"bike_id":"5cc53505-f644-47f4-8faa-c9e23f5803f2","system_id":"levelo_inurba_marseille","lat":43.24544,"lon":5.39528,"is_reserved":false,"is_disabled":false,"rental_uris":{"android":"levelo://app?vid=5cc53505-f644-47f4-8faa-c9e23f5803f2","ios":"levelo://app?vid=5cc53505-f644-47f4-8faa-c9e23f5803f2"},"vehicle_type_id":"4","last_reported":1726744088,"current_range_meters":33200,"station_id":"ce4bhlp2rcd13ifvqgjg","pricing_plan_id":"cebpf4jnsgd1na2vs0mg"},{"bike_id":"20e17120-8154-4ada-ad34-f42b9d13e9fb","system_id":"levelo_inurba_marseille","lat":43.3058,"lon":5.37245,"is_reserved":false,"is_disabled":false,"rental_uris":{"android":"levelo://app?vid=20e17120-8154-4ada-ad34-f42b9d13e9fb","ios":"levelo://app?vid=20e17120-8154-4ada-ad34-f42b9d13e9fb"},"vehicle_type_id":"4","last_reported":1726744088,"current_range_meters":39200,"station_id":"ce4bgqh2rcd13ifvqc4g","pricing_plan_id":"cebpf4jnsgd1na2vs0mg"},{"bike_id":"26f288b7-89b9-409b-9ddf-e2b7a23a52f6","system_id":"levelo_inurba_marseille","lat":43.3377,"lon":5.37439,"is_reserved":false,"is_disabled":false,"rental_uris":{"android":"levelo://app?vid=26f288b7-89b9-409b-9ddf-e2b7a23a52f6","ios":"levelo://app?vid=26f288b7-89b9-409b-9ddf-e2b7a23a52f6"},"vehicle_type_id":"4","last_reported":1726744088,"current_range_meters":36000,"station_id":"","pricing_plan_id":"cebpf4jnsgd1na2vs0mg"},{"bike_id":"2ab68c25-c8ff-432e-bdc8-d9111aa92152","system_id":"levelo_inurba_marseille","lat":43.27813,"lon":5.40711,"is_reserved":false,"is_disabled":false,"rental_uris":{"android":"levelo://app?vid=2ab68c25-c8ff-432e-bdc8-d9111aa92152","ios":"levelo://app?vid=2ab68c25-c8ff-432e-bdc8-d9111aa92152"},"vehicle_type_id":"4","last_reported":1726744088,"current_range_meters":38800,"station_id":"ce4bhnh2rcd13ifvqgtg","pricing_plan_id":"cebpf4jnsgd1na2vs0mg"},{"bike_id":"f3ae04fa-4da7-4ab7-a2bd-eadbcc951f80","system_id":"levelo_inurba_marseille","lat":43.30461,"lon":5.37911,"is_reserved":false,"is_disabled":false,"rental_uris":{"android":"levelo://app?vid=f3ae04fa-4da7-4ab7-a2bd-eadbcc951f80","ios":"levelo://app?vid=f3ae04fa-4da7-4ab7-a2bd-eadbcc951f80"},"vehicle_type_id":"4","last_reported":1726744088,"current_range_meters":20800,"station_id":"ce4bgup2rcd13ifvqcn0","pricing_plan_id":"cebpf4jnsgd1na2vs0mg"},{"bike_id":"0093484c-5f00-453a-b05d-00c983816aa6","system_id":"levelo_inurba_marseille","lat":43.28415,"lon":5.3498,"is_reserved":false,"is_disabled":false,"rental_uris":{"android":"levelo://app?vid=0093484c-5f00-453a-b05d-00c983816aa6","ios":"levelo://app?vid=0093484c-5f00-453a-b05d-00c983816aa6"},"vehicle_type_id":"4","last_reported":1726744088,"current_range_meters":3600,"station_id":"ce4bhbh2rcd13ifvqepg","pricing_plan_id":"cebpf4jnsgd1na2vs0mg"},{"bike_id":"6fae4a94-2676-4493-86e9-afc542102a51","system_id":"levelo_inurba_marseille","lat":43.29634,"lon":5.406,"is_reserved":false,"is_disabled":false,"rental_uris":{"android":"levelo://app?vid=6fae4a94-2676-4493-86e9-afc542102a51","ios":"levelo://app?vid=6fae4a94-2676-4493-86e9-afc542102a51"},"vehicle_type_id":"4","last_reported":1726744088,"current_range_meters":38000,"station_id":"ce4bh0h2rcd13ifvqd60","pricing_plan_id":"cebpf4jnsgd1na2vs0mg"},{"bike_id":"666fb15f-c170-41a4-9275-39cbfcdab7f0","system_id":"levelo_inurba_marseille","lat":43.240753,"lon":5.377557,"is_reserved":false,"is_disabled":false,"rental_uris":{"android":"levelo://app?vid=666fb15f-c170-41a4-9275-39cbfcdab7f0","ios":"levelo://app?vid=666fb15f-c170-41a4-9275-39cbfcdab7f0"},"vehicle_type_id":"4","last_reported":1726744088,"current_range_meters":17200,"station_id":"ce4bhnp2rcd13ifvqgvg","pricing_plan_id":"cebpf4jnsgd1na2vs0mg"},{"bike_id":"7266335c-e53c-4c96-8a7f-2e2187878d63","system_id":"levelo_inurba_marseille","lat":43.29037,"lon":5.3593,"is_reserved":false,"is_disabled":false,"rental_uris":{"android":"levelo://app?vid=7266335c-e53c-4c96-8a7f-2e2187878d63","ios":"levelo://app?vid=7266335c-e53c-4c96-8a7f-2e2187878d63"},"vehicle_type_id":"4","last_reported":1726744088,"current_range_meters":36800,"station_id":"ce4bha92rcd13ifvqeg0","pricing_plan_id":"cebpf4jnsgd1na2vs0mg"},{"bike_id":"cc37381e-9335-4b4e-a554-8ca8c7c27f92","system_id":"levelo_inurba_marseille","lat":43.27496,"lon":5.42453,"is_reserved":false,"is_disabled":false,"rental_uris":{"android":"levelo://app?vid=cc37381e-9335-4b4e-a554-8ca8c7c27f92","ios":"levelo://app?vid=cc37381e-9335-4b4e-a554-8ca8c7c27f92"},"vehicle_type_id":"4","last_reported":1726744088,"current_range_meters":9200,"station_id":"ce4bhn92rcd13ifvqgrg","pricing_plan_id":"cebpf4jnsgd1na2vs0mg"},{"bike_id":"9d29d1a5-d29a-4228-98c4-51586df7001c","system_id":"levelo_inurba_marseille","lat":43.304605,"lon":5.379014,"is_reserved":false,"is_disabled":false,"rental_uris":{"android":"levelo://app?vid=9d29d1a5-d29a-4228-98c4-51586df7001c","ios":"levelo://app?vid=9d29d1a5-d29a-4228-98c4-51586df7001c"},"vehicle_type_id":"4","last_reported":1726744088,"current_range_meters":38800,"station_id":"ce4bgup2rcd13ifvqcn0","pricing_plan_id":"cebpf4jnsgd1na2vs0mg"},{"bike_id":"9b28863a-3e97-421d-97d5-ca24e7512c8a","system_id":"levelo_inurba_marseille","lat":43.30596,"lon":5.37224,"is_reserved":false,"is_disabled":false,"rental_uris":{"android":"levelo://app?vid=9b28863a-3e97-421d-97d5-ca24e7512c8a","ios":"levelo://app?vid=9b28863a-3e97-421d-97d5-ca24e7512c8a"},"vehicle_type_id":"4","last_reported":1726744088,"current_range_meters":38800,"station_id":"ce4bgqh2rcd13ifvqc4g","pricing_plan_id":"cebpf4jnsgd1na2vs0mg"},{"bike_id":"1a6cb07a-c246-4f44-8f96-1e2e29094b01","system_id":"levelo_inurba_marseille","lat":43.313538,"lon":5.3671,"is_reserved":false,"is_disabled":false,"rental_uris":{"android":"levelo://app?vid=1a6cb07a-c246-4f44-8f96-1e2e29094b01","ios":"levelo://app?vid=1a6cb07a-c246-4f44-8f96-1e2e29094b01"},"vehicle_type_id":"4","last_reported":1726744088,"current_range_meters":35600,"station_id":"ce4bgrh2rcd13ifvqc8g","pricing_plan_id":"cebpf4jnsgd1na2vs0mg"},{"bike_id":"959c90e6-ec36-4017-a7b3-70bfaedfb214","system_id":"levelo_inurba_marseille","lat":43.27822,"lon":5.39209,"is_reserved":false,"is_disabled":false,"rental_uris":{"android":"levelo://app?vid=959c90e6-ec36-4017-a7b3-70bfaedfb214","ios":"levelo://app?vid=959c90e6-ec36-4017-a7b3-70bfaedfb214"},"vehicle_type_id":"4","last_reported":1726744088,"current_range_meters":38800,"station_id":"ce4bhjp2rcd13ifvqga0","pricing_plan_id":"cebpf4jnsgd1na2vs0mg"},{"bike_id":"cea90d14-d4cd-44bb-a828-f022d2c2c276","system_id":"levelo_inurba_marseille","lat":43.2695,"lon":5.38639,"is_reserved":false,"is_disabled":false,"rental_uris":{"android":"levelo://app?vid=cea90d14-d4cd-44bb-a828-f022d2c2c276","ios":"levelo://app?vid=cea90d14-d4cd-44bb-a828-f022d2c2c276"},"vehicle_type_id":"4","last_reported":1726744088,"current_range_meters":37600,"station_id":"ce4bhh92rcd13ifvqfh0","pricing_plan_id":"cebpf4jnsgd1na2vs0mg"},{"bike_id":"5d4afdb8-0028-4c6b-a5d8-8520252fb486","system_id":"levelo_inurba_marseille","lat":43.26212,"lon":5.37439,"is_reserved":false,"is_disabled":false,"rental_uris":{"android":"levelo://app?vid=5d4afdb8-0028-4c6b-a5d8-8520252fb486","ios":"levelo://app?vid=5d4afdb8-0028-4c6b-a5d8-8520252fb486"},"vehicle_type_id":"4","last_reported":1726744088,"current_range_meters":24800,"station_id":"ce4bhgp2rcd13ifvqfc0","pricing_plan_id":"cebpf4jnsgd1na2vs0mg"},{"bike_id":"282d8c94-3959-466f-bf01-d3670e5313fa","system_id":"levelo_inurba_marseille","lat":43.304993,"lon":5.36571,"is_reserved":false,"is_disabled":false,"rental_uris":{"android":"levelo://app?vid=282d8c94-3959-466f-bf01-d3670e5313fa","ios":"levelo://app?vid=282d8c94-3959-466f-bf01-d3670e5313fa"},"vehicle_type_id":"4","last_reported":1726744088,"current_range_meters":25200,"station_id":"","pricing_plan_id":"cebpf4jnsgd1na2vs0mg"},{"bike_id":"3fdbd060-82e7-422c-8b72-f13be58e2d51","system_id":"levelo_inurba_marseille","lat":43.30886,"lon":5.37196,"is_reserved":false,"is_disabled":false,"rental_uris":{"android":"levelo://app?vid=3fdbd060-82e7-422c-8b72-f13be58e2d51","ios":"levelo://app?vid=3fdbd060-82e7-422c-8b72-f13be58e2d51"},"vehicle_type_id":"4","last_reported":1726744088,"current_range_meters":16800,"station_id":"ce4bguh2rcd13ifvqckg","pricing_plan_id":"cebpf4jnsgd1na2vs0mg"},{"bike_id":"a0ea4c20-eeae-4054-a4b5-699b69c4c176","system_id":"levelo_inurba_marseille","lat":43.29558,"lon":5.42287,"is_reserved":false,"is_disabled":false,"rental_uris":{"android":"levelo://app?vid=a0ea4c20-eeae-4054-a4b5-699b69c4c176","ios":"levelo://app?vid=a0ea4c20-eeae-4054-a4b5-699b69c4c176"},"vehicle_type_id":"4","last_reported":1726744088,"current_range_meters":14000,"station_id":"ce4bhph2rcd13ifvqhdg","pricing_plan_id":"cebpf4jnsgd1na2vs0mg"},{"bike_id":"3ec21100-0176-4396-a873-005606a7ba32","system_id":"levelo_inurba_marseille","lat":43.34142,"lon":5.40898,"is_reserved":false,"is_disabled":false,"rental_uris":{"android":"levelo://app?vid=3ec21100-0176-4396-a873-005606a7ba32","ios":"levelo://app?vid=3ec21100-0176-4396-a873-005606a7ba32"},"vehicle_type_id":"4","last_reported":1726744088,"current_range_meters":30400,"station_id":"ce4bhqh2rcd13ifvqhlg","pricing_plan_id":"cebpf4jnsgd1na2vs0mg"},{"bike_id":"9ca7b175-67f3-4185-84e5-51ed1ba86a02","system_id":"levelo_inurba_marseille","lat":43.29567,"lon":5.37529,"is_reserved":false,"is_disabled":false,"rental_uris":{"android":"levelo://app?vid=9ca7b175-67f3-4185-84e5-51ed1ba86a02","ios":"levelo://app?vid=9ca7b175-67f3-4185-84e5-51ed1ba86a02"},"vehicle_type_id":"4","last_reported":1726744088,"current_range_meters":35600,"station_id":"ce4bgh92rcd13ifvqb50","pricing_plan_id":"cebpf4jnsgd1na2vs0mg"},{"bike_id":"96fafe4e-4ece-4c31-9fd5-78b5522a3963","system_id":"levelo_inurba_marseille","lat":43.26785,"lon":5.39413,"is_reserved":false,"is_disabled":false,"rental_uris":{"android":"levelo://app?vid=96fafe4e-4ece-4c31-9fd5-78b5522a3963","ios":"levelo://app?vid=96fafe4e-4ece-4c31-9fd5-78b5522a3963"},"vehicle_type_id":"4","last_reported":1726744088,"current_range_meters":9600,"station_id":"ce4bhh12rcd13ifvqfg0","pricing_plan_id":"cebpf4jnsgd1na2vs0mg"},{"bike_id":"53622533-6e4e-4ce4-92a2-ac811bb62ec6","system_id":"levelo_inurba_marseille","lat":43.24648,"lon":5.38889,"is_reserved":false,"is_disabled":false,"rental_uris":{"android":"levelo://app?vid=53622533-6e4e-4ce4-92a2-ac811bb62ec6","ios":"levelo://app?vid=53622533-6e4e-4ce4-92a2-ac811bb62ec6"},"vehicle_type_id":"4","last_reported":1726744088,"current_range_meters":4800,"station_id":"ce4bhg12rcd13ifvqf60","pricing_plan_id":"cebpf4jnsgd1na2vs0mg"},{"bike_id":"28dd3454-5b52-4764-bd9a-6361225d904c","system_id":"levelo_inurba_marseille","lat":43.289342,"lon":5.36636,"is_reserved":false,"is_disabled":false,"rental_uris":{"android":"levelo://app?vid=28dd3454-5b52-4764-bd9a-6361225d904c","ios":"levelo://app?vid=28dd3454-5b52-4764-bd9a-6361225d904c"},"vehicle_type_id":"4","last_reported":1726744088,"current_range_meters":30400,"station_id":"ce4bhap2rcd13ifvqek0","pricing_plan_id":"cebpf4jnsgd1na2vs0mg"},{"bike_id":"af3d99a7-5ef8-4db4-89d9-d6e8e6072cd8","system_id":"levelo_inurba_marseille","lat":43.299124,"lon":5.381677,"is_reserved":false,"is_disabled":false,"rental_uris":{"android":"levelo://app?vid=af3d99a7-5ef8-4db4-89d9-d6e8e6072cd8","ios":"levelo://app?vid=af3d99a7-5ef8-4db4-89d9-d6e8e6072cd8"},"vehicle_type_id":"4","last_reported":1726744088,"current_range_meters":29600,"station_id":"ce4bgj12rcd13ifvqbc0","pricing_plan_id":"cebpf4jnsgd1na2vs0mg"},{"bike_id":"3478db76-45d7-45d3-b887-36ba03898ebd","system_id":"levelo_inurba_marseille","lat":43.23151,"lon":5.43709,"is_reserved":false,"is_disabled":false,"rental_uris":{"android":"levelo://app?vid=3478db76-45d7-45d3-b887-36ba03898ebd","ios":"levelo://app?vid=3478db76-45d7-45d3-b887-36ba03898ebd"},"vehicle_type_id":"4","last_reported":1726744088,"current_range_meters":39200,"station_id":"ce4bhmp2rcd13ifvqgog","pricing_plan_id":"cebpf4jnsgd1na2vs0mg"},{"bike_id":"309e1d83-dfdd-4727-8e23-3ad8e2d60153","system_id":"levelo_inurba_marseille","lat":43.23147,"lon":5.43709,"is_reserved":false,"is_disabled":false,"rental_uris":{"android":"levelo://app?vid=309e1d83-dfdd-4727-8e23-3ad8e2d60153","ios":"levelo://app?vid=309e1d83-dfdd-4727-8e23-3ad8e2d60153"},"vehicle_type_id":"4","last_reported":1726744088,"current_range_meters":16400,"station_id":"ce4bhmp2rcd13ifvqgog","pricing_plan_id":"cebpf4jnsgd1na2vs0mg"},{"bike_id":"99a7dc90-2d6f-44d5-8363-3b98e8384430","system_id":"levelo_inurba_marseille","lat":43.26559,"lon":5.37283,"is_reserved":false,"is_disabled":false,"rental_uris":{"android":"levelo://app?vid=99a7dc90-2d6f-44d5-8363-3b98e8384430","ios":"levelo://app?vid=99a7dc90-2d6f-44d5-8363-3b98e8384430"},"vehicle_type_id":"4","last_reported":1726744088,"current_range_meters":20800,"station_id":"ce4bhg12rcd13ifvqf70","pricing_plan_id":"cebpf4jnsgd1na2vs0mg"},{"bike_id":"c68065d0-098d-49a1-a6e6-6b7287bf251d","system_id":"levelo_inurba_marseille","lat":43.24178,"lon":5.39718,"is_reserved":false,"is_disabled":false,"rental_uris":{"android":"levelo://app?vid=c68065d0-098d-49a1-a6e6-6b7287bf251d","ios":"levelo://app?vid=c68065d0-098d-49a1-a6e6-6b7287bf251d"},"vehicle_type_id":"4","last_reported":1726744088,"current_range_meters":8000,"station_id":"ce4bhn12rcd13ifvqgpg","pricing_plan_id":"cebpf4jnsgd1na2vs0mg"},{"bike_id":"86d2fbbc-c469-4ea8-9619-326d1c533696","system_id":"levelo_inurba_marseille","lat":43.25488,"lon":5.37648,"is_reserved":false,"is_disabled":false,"rental_uris":{"android":"levelo://app?vid=86d2fbbc-c469-4ea8-9619-326d1c533696","ios":"levelo://app?vid=86d2fbbc-c469-4ea8-9619-326d1c533696"},"vehicle_type_id":"4","last_reported":1726744088,"current_range_meters":36400,"station_id":"ce4bhh12rcd13ifvqff0","pricing_plan_id":"cebpf4jnsgd1na2vs0mg"},{"bike_id":"2b934188-9f2b-4e81-86e8-4f889f0ecd24","system_id":"levelo_inurba_marseille","lat":43.33606,"lon":5.410365,"is_reserved":false,"is_disabled":false,"rental_uris":{"android":"levelo://app?vid=2b934188-9f2b-4e81-86e8-4f889f0ecd24","ios":"levelo://app?vid=2b934188-9f2b-4e81-86e8-4f889f0ecd24"},"vehicle_type_id":"4","last_reported":1726744088,"current_range_meters":11600,"station_id":"ce4bh0h2rcd13ifvqd60","pricing_plan_id":"cebpf4jnsgd1na2vs0mg"},{"bike_id":"70ea05b9-39fa-42a0-af64-186106f70ac1","system_id":"levelo_inurba_marseille","lat":43.27671,"lon":5.38891,"is_reserved":false,"is_disabled":false,"rental_uris":{"android":"levelo://app?vid=70ea05b9-39fa-42a0-af64-186106f70ac1","ios":"levelo://app?vid=70ea05b9-39fa-42a0-af64-186106f70ac1"},"vehicle_type_id":"4","last_reported":1726744088,"current_range_meters":35600,"station_id":"ce4bhi12rcd13ifvqfo0","pricing_plan_id":"cebpf4jnsgd1na2vs0mg"},{"bike_id":"c58a09e0-e27d-474f-b410-f612c6647346","system_id":"levelo_inurba_marseille","lat":43.30562,"lon":5.36709,"is_reserved":false,"is_disabled":false,"rental_uris":{"android":"levelo://app?vid=c58a09e0-e27d-474f-b410-f612c6647346","ios":"levelo://app?vid=c58a09e0-e27d-474f-b410-f612c6647346"},"vehicle_type_id":"4","last_reported":1726744088,"current_range_meters":27600,"station_id":"ce4bgrp2rcd13ifvqc9g","pricing_plan_id":"cebpf4jnsgd1na2vs0mg"},{"bike_id":"33bda483-fc36-40e6-9bed-31b1ae9d1fb8","system_id":"levelo_inurba_marseille","lat":43.29917,"lon":5.37458,"is_reserved":false,"is_disabled":false,"rental_uris":{"android":"levelo://app?vid=33bda483-fc36-40e6-9bed-31b1ae9d1fb8","ios":"levelo://app?vid=33bda483-fc36-40e6-9bed-31b1ae9d1fb8"},"vehicle_type_id":"4","last_reported":1726744088,"current_range_meters":33600,"station_id":"ce4bgjh2rcd13ifvqbg0","pricing_plan_id":"cebpf4jnsgd1na2vs0mg"},{"bike_id":"a78358d4-2e0d-4d1b-9800-f677344b73bb","system_id":"levelo_inurba_marseille","lat":43.26944,"lon":5.38642,"is_reserved":false,"is_disabled":false,"rental_uris":{"android":"levelo://app?vid=a78358d4-2e0d-4d1b-9800-f677344b73bb","ios":"levelo://app?vid=a78358d4-2e0d-4d1b-9800-f677344b73bb"},"vehicle_type_id":"4","last_reported":1726744088,"current_range_meters":36400,"station_id":"ce4bhh92rcd13ifvqfh0","pricing_plan_id":"cebpf4jnsgd1na2vs0mg"},{"bike_id":"a01a4a21-dbb1-4a02-b900-30af3a75c27a","system_id":"levelo_inurba_marseille","lat":43.24654,"lon":5.38892,"is_reserved":false,"is_disabled":false,"rental_uris":{"android":"levelo://app?vid=a01a4a21-dbb1-4a02-b900-30af3a75c27a","ios":"levelo://app?vid=a01a4a21-dbb1-4a02-b900-30af3a75c27a"},"vehicle_type_id":"4","last_reported":1726744088,"current_range_meters":9200,"station_id":"ce4bhg12rcd13ifvqf60","pricing_plan_id":"cebpf4jnsgd1na2vs0mg"},{"bike_id":"7296939a-e07b-445c-bd52-40cde8ccbba2","system_id":"levelo_inurba_marseille","lat":43.2602,"lon":5.37556,"is_reserved":false,"is_disabled":false,"rental_uris":{"android":"levelo://app?vid=7296939a-e07b-445c-bd52-40cde8ccbba2","ios":"levelo://app?vid=7296939a-e07b-445c-bd52-40cde8ccbba2"},"vehicle_type_id":"4","last_reported":1726744088,"current_range_meters":38000,"station_id":"ce4bhgh2rcd13ifvqfa0","pricing_plan_id":"cebpf4jnsgd1na2vs0mg"},{"bike_id":"4334382d-fb25-484b-81d0-c45383cb6c7c","system_id":"levelo_inurba_marseille","lat":43.30145,"lon":5.38778,"is_reserved":false,"is_disabled":false,"rental_uris":{"android":"levelo://app?vid=4334382d-fb25-484b-81d0-c45383cb6c7c","ios":"levelo://app?vid=4334382d-fb25-484b-81d0-c45383cb6c7c"},"vehicle_type_id":"4","last_reported":1726744088,"current_range_meters":20400,"station_id":"ce4bghh2rcd13ifvqb60","pricing_plan_id":"cebpf4jnsgd1na2vs0mg"},{"bike_id":"e669bd6c-abbe-4921-ba26-9fc661d40bbb","system_id":"levelo_inurba_marseille","lat":43.30548,"lon":5.36543,"is_reserved":false,"is_disabled":false,"rental_uris":{"android":"levelo://app?vid=e669bd6c-abbe-4921-ba26-9fc661d40bbb","ios":"levelo://app?vid=e669bd6c-abbe-4921-ba26-9fc661d40bbb"},"vehicle_type_id":"4","last_reported":1726744088,"current_range_meters":36000,"station_id":"ce4bgs12rcd13ifvqcag","pricing_plan_id":"cebpf4jnsgd1na2vs0mg"},{"bike_id":"d7f85668-c92f-4daa-b94a-64a6fe934c7b","system_id":"levelo_inurba_marseille","lat":43.29909,"lon":5.38159,"is_reserved":false,"is_disabled":false,"rental_uris":{"android":"levelo://app?vid=d7f85668-c92f-4daa-b94a-64a6fe934c7b","ios":"levelo://app?vid=d7f85668-c92f-4daa-b94a-64a6fe934c7b"},"vehicle_type_id":"4","last_reported":1726744088,"current_range_meters":34800,"station_id":"ce4bgj12rcd13ifvqbc0","pricing_plan_id":"cebpf4jnsgd1na2vs0mg"},{"bike_id":"8f93dbfa-fc37-413d-90ce-bb1596a7dbde","system_id":"levelo_inurba_marseille","lat":43.27493,"lon":5.42454,"is_reserved":false,"is_disabled":false,"rental_uris":{"android":"levelo://app?vid=8f93dbfa-fc37-413d-90ce-bb1596a7dbde","ios":"levelo://app?vid=8f93dbfa-fc37-413d-90ce-bb1596a7dbde"},"vehicle_type_id":"4","last_reported":1726744088,"current_range_meters":28800,"station_id":"ce4bhn92rcd13ifvqgrg","pricing_plan_id":"cebpf4jnsgd1na2vs0mg"},{"bike_id":"376e4ba1-7a4d-4c07-bc97-59fafac349c4","system_id":"levelo_inurba_marseille","lat":43.25002,"lon":5.38927,"is_reserved":false,"is_disabled":false,"rental_uris":{"android":"levelo://app?vid=376e4ba1-7a4d-4c07-bc97-59fafac349c4","ios":"levelo://app?vid=376e4ba1-7a4d-4c07-bc97-59fafac349c4"},"vehicle_type_id":"4","last_reported":1726744088,"current_range_meters":37600,"station_id":"ce4bhgp2rcd13ifvqfd0","pricing_plan_id":"cebpf4jnsgd1na2vs0mg"},{"bike_id":"1c285dfb-de09-4e9e-b3ee-0100c5daeaad","system_id":"levelo_inurba_marseille","lat":43.337444,"lon":5.374475,"is_reserved":false,"is_disabled":false,"rental_uris":{"android":"levelo://app?vid=1c285dfb-de09-4e9e-b3ee-0100c5daeaad","ios":"levelo://app?vid=1c285dfb-de09-4e9e-b3ee-0100c5daeaad"},"vehicle_type_id":"4","last_reported":1726744088,"current_range_meters":30400,"station_id":"ce4bgj92rcd13ifvqbd0","pricing_plan_id":"cebpf4jnsgd1na2vs0mg"},{"bike_id":"61576077-4d75-4e33-8a03-adc588618b9b","system_id":"levelo_inurba_marseille","lat":43.301347,"lon":5.387738,"is_reserved":false,"is_disabled":false,"rental_uris":{"android":"levelo://app?vid=61576077-4d75-4e33-8a03-adc588618b9b","ios":"levelo://app?vid=61576077-4d75-4e33-8a03-adc588618b9b"},"vehicle_type_id":"4","last_reported":1726744088,"current_range_meters":36000,"station_id":"ce4bghh2rcd13ifvqb60","pricing_plan_id":"cebpf4jnsgd1na2vs0mg"},{"bike_id":"13284a82-d46b-452e-9453-e0c32bdc4440","system_id":"levelo_inurba_marseille","lat":43.27616,"lon":5.36111,"is_reserved":false,"is_disabled":false,"rental_uris":{"android":"levelo://app?vid=13284a82-d46b-452e-9453-e0c32bdc4440","ios":"levelo://app?vid=13284a82-d46b-452e-9453-e0c32bdc4440"},"vehicle_type_id":"4","last_reported":1726744088,"current_range_meters":37600,"station_id":"ce4bgj92rcd13ifvqbe0","pricing_plan_id":"cebpf4jnsgd1na2vs0mg"},{"bike_id":"c32dc568-f10c-4010-ad55-d5f360cf461f","system_id":"levelo_inurba_marseille","lat":43.30543,"lon":5.36535,"is_reserved":false,"is_disabled":false,"rental_uris":{"android":"levelo://app?vid=c32dc568-f10c-4010-ad55-d5f360cf461f","ios":"levelo://app?vid=c32dc568-f10c-4010-ad55-d5f360cf461f"},"vehicle_type_id":"4","last_reported":1726744088,"current_range_meters":39200,"station_id":"ce4bgs12rcd13ifvqcag","pricing_plan_id":"cebpf4jnsgd1na2vs0mg"},{"bike_id":"aaeae615-2194-47c5-84e0-363507d6e824","system_id":"levelo_inurba_marseille","lat":43.32289,"lon":5.38267,"is_reserved":false,"is_disabled":false,"rental_uris":{"android":"levelo://app?vid=aaeae615-2194-47c5-84e0-363507d6e824","ios":"levelo://app?vid=aaeae615-2194-47c5-84e0-363507d6e824"},"vehicle_type_id":"4","last_reported":1726744088,"current_range_meters":24800,"station_id":"ce4bhr12rcd13ifvqhqg","pricing_plan_id":"cebpf4jnsgd1na2vs0mg"},{"bike_id":"8233d1d7-3645-4543-91b9-9fb8f9d82bdc","system_id":"levelo_inurba_marseille","lat":43.30577,"lon":5.39977,"is_reserved":false,"is_disabled":false,"rental_uris":{"android":"levelo://app?vid=8233d1d7-3645-4543-91b9-9fb8f9d82bdc","ios":"levelo://app?vid=8233d1d7-3645-4543-91b9-9fb8f9d82bdc"},"vehicle_type_id":"4","last_reported":1726744088,"current_range_meters":8800,"station_id":"ce4bh0p2rcd13ifvqd80","pricing_plan_id":"cebpf4jnsgd1na2vs0mg"},{"bike_id":"99bed155-c6e0-43d1-82d6-8d5d158fa8f8","system_id":"levelo_inurba_marseille","lat":43.29907,"lon":5.38153,"is_reserved":false,"is_disabled":false,"rental_uris":{"android":"levelo://app?vid=99bed155-c6e0-43d1-82d6-8d5d158fa8f8","ios":"levelo://app?vid=99bed155-c6e0-43d1-82d6-8d5d158fa8f8"},"vehicle_type_id":"4","last_reported":1726744088,"current_range_meters":23200,"station_id":"ce4bgj12rcd13ifvqbc0","pricing_plan_id":"cebpf4jnsgd1na2vs0mg"},{"bike_id":"52f21cf7-f894-4c4c-8b20-74d7f83cce10","system_id":"levelo_inurba_marseille","lat":43.30596,"lon":5.39361,"is_reserved":false,"is_disabled":false,"rental_uris":{"android":"levelo://app?vid=52f21cf7-f894-4c4c-8b20-74d7f83cce10","ios":"levelo://app?vid=52f21cf7-f894-4c4c-8b20-74d7f83cce10"},"vehicle_type_id":"4","last_reported":1726744088,"current_range_meters":28400,"station_id":"ce4bh0p2rcd13ifvqd80","pricing_plan_id":"cebpf4jnsgd1na2vs0mg"},{"bike_id":"20ba6ac8-5850-4316-90f7-6cef07e6413b","system_id":"levelo_inurba_marseille","lat":43.28423,"lon":5.34992,"is_reserved":false,"is_disabled":false,"rental_uris":{"android":"levelo://app?vid=20ba6ac8-5850-4316-90f7-6cef07e6413b","ios":"levelo://app?vid=20ba6ac8-5850-4316-90f7-6cef07e6413b"},"vehicle_type_id":"4","last_reported":1726744088,"current_range_meters":33200,"station_id":"ce4bhbh2rcd13ifvqepg","pricing_plan_id":"cebpf4jnsgd1na2vs0mg"},{"bike_id":"9be94feb-a495-4651-8693-da9a946157ae","system_id":"levelo_inurba_marseille","lat":43.25008,"lon":5.38919,"is_reserved":false,"is_disabled":false,"rental_uris":{"android":"levelo://app?vid=9be94feb-a495-4651-8693-da9a946157ae","ios":"levelo://app?vid=9be94feb-a495-4651-8693-da9a946157ae"},"vehicle_type_id":"4","last_reported":1726744088,"current_range_meters":16000,"station_id":"ce4bhgp2rcd13ifvqfd0","pricing_plan_id":"cebpf4jnsgd1na2vs0mg"},{"bike_id":"8652c46c-24e1-436e-8352-0897d342d22c","system_id":"levelo_inurba_marseille","lat":43.29575,"lon":5.37517,"is_reserved":false,"is_disabled":false,"rental_uris":{"android":"levelo://app?vid=8652c46c-24e1-436e-8352-0897d342d22c","ios":"levelo://app?vid=8652c46c-24e1-436e-8352-0897d342d22c"},"vehicle_type_id":"4","last_reported":1726744088,"current_range_meters":39200,"station_id":"ce4bgh92rcd13ifvqb50","pricing_plan_id":"cebpf4jnsgd1na2vs0mg"},{"bike_id":"a5cd8307-20cc-4eb9-b57d-a4f6fffd25c4","system_id":"levelo_inurba_marseille","lat":43.26945,"lon":5.38631,"is_reserved":false,"is_disabled":false,"rental_uris":{"android":"levelo://app?vid=a5cd8307-20cc-4eb9-b57d-a4f6fffd25c4","ios":"levelo://app?vid=a5cd8307-20cc-4eb9-b57d-a4f6fffd25c4"},"vehicle_type_id":"4","last_reported":1726744088,"current_range_meters":6800,"station_id":"ce4bhh92rcd13ifvqfh0","pricing_plan_id":"cebpf4jnsgd1na2vs0mg"},{"bike_id":"5853071a-a7de-43ad-87c8-982495d79fa0","system_id":"levelo_inurba_marseille","lat":43.25009,"lon":5.38916,"is_reserved":false,"is_disabled":false,"rental_uris":{"android":"levelo://app?vid=5853071a-a7de-43ad-87c8-982495d79fa0","ios":"levelo://app?vid=5853071a-a7de-43ad-87c8-982495d79fa0"},"vehicle_type_id":"4","last_reported":1726744088,"current_range_meters":35600,"station_id":"ce4bhgp2rcd13ifvqfd0","pricing_plan_id":"cebpf4jnsgd1na2vs0mg"},{"bike_id":"0ce4d70b-7725-4024-8137-991d74643076","system_id":"levelo_inurba_marseille","lat":43.30156,"lon":5.38101,"is_reserved":false,"is_disabled":false,"rental_uris":{"android":"levelo://app?vid=0ce4d70b-7725-4024-8137-991d74643076","ios":"levelo://app?vid=0ce4d70b-7725-4024-8137-991d74643076"},"vehicle_type_id":"4","last_reported":1726744088,"current_range_meters":38800,"station_id":"ce4bgjp2rcd13ifvqbh0","pricing_plan_id":"cebpf4jnsgd1na2vs0mg"},{"bike_id":"3723f4fa-86d6-438c-88d3-6c0152a8939a","system_id":"levelo_inurba_marseille","lat":43.30149,"lon":5.38093,"is_reserved":false,"is_disabled":false,"rental_uris":{"android":"levelo://app?vid=3723f4fa-86d6-438c-88d3-6c0152a8939a","ios":"levelo://app?vid=3723f4fa-86d6-438c-88d3-6c0152a8939a"},"vehicle_type_id":"4","last_reported":1726744088,"current_range_meters":36000,"station_id":"ce4bgjp2rcd13ifvqbh0","pricing_plan_id":"cebpf4jnsgd1na2vs0mg"},{"bike_id":"e631b8a2-d40b-44b6-9396-30b5b3ab5f0b","system_id":"levelo_inurba_marseille","lat":43.29583,"lon":5.36733,"is_reserved":false,"is_disabled":false,"rental_uris":{"android":"levelo://app?vid=e631b8a2-d40b-44b6-9396-30b5b3ab5f0b","ios":"levelo://app?vid=e631b8a2-d40b-44b6-9396-30b5b3ab5f0b"},"vehicle_type_id":"4","last_reported":1726744088,"current_range_meters":5600,"station_id":"ce4bgph2rcd13ifvqc2g","pricing_plan_id":"cebpf4jnsgd1na2vs0mg"},{"bike_id":"330666d8-e942-40f5-85c7-4619bd738ca1","system_id":"levelo_inurba_marseille","lat":43.280189,"lon":5.37016,"is_reserved":false,"is_disabled":false,"rental_uris":{"android":"levelo://app?vid=330666d8-e942-40f5-85c7-4619bd738ca1","ios":"levelo://app?vid=330666d8-e942-40f5-85c7-4619bd738ca1"},"vehicle_type_id":"4","last_reported":1726744088,"current_range_meters":13600,"station_id":"ce4bha12rcd13ifvqef0","pricing_plan_id":"cebpf4jnsgd1na2vs0mg"},{"bike_id":"4d806348-f221-474a-bb38-b1a8ff7b8f7c","system_id":"levelo_inurba_marseille","lat":43.30463,"lon":5.3791,"is_reserved":false,"is_disabled":false,"rental_uris":{"android":"levelo://app?vid=4d806348-f221-474a-bb38-b1a8ff7b8f7c","ios":"levelo://app?vid=4d806348-f221-474a-bb38-b1a8ff7b8f7c"},"vehicle_type_id":"4","last_reported":1726744088,"current_range_meters":16000,"station_id":"ce4bgup2rcd13ifvqcn0","pricing_plan_id":"cebpf4jnsgd1na2vs0mg"},{"bike_id":"49eef153-b36a-41bc-b788-e8b8d3abfa95","system_id":"levelo_inurba_marseille","lat":43.28422,"lon":5.34983,"is_reserved":false,"is_disabled":false,"rental_uris":{"android":"levelo://app?vid=49eef153-b36a-41bc-b788-e8b8d3abfa95","ios":"levelo://app?vid=49eef153-b36a-41bc-b788-e8b8d3abfa95"},"vehicle_type_id":"4","last_reported":1726744088,"current_range_meters":36800,"station_id":"ce4bhbh2rcd13ifvqepg","pricing_plan_id":"cebpf4jnsgd1na2vs0mg"},{"bike_id":"c457eda8-9801-49fd-985d-626cee862dbc","system_id":"levelo_inurba_marseille","lat":43.266785,"lon":5.382636,"is_reserved":false,"is_disabled":false,"rental_uris":{"android":"levelo://app?vid=c457eda8-9801-49fd-985d-626cee862dbc","ios":"levelo://app?vid=c457eda8-9801-49fd-985d-626cee862dbc"},"vehicle_type_id":"4","last_reported":1726744088,"current_range_meters":20000,"station_id":"ce4bhg92rcd13ifvqf90","pricing_plan_id":"cebpf4jnsgd1na2vs0mg"},{"bike_id":"55fed244-caf4-46e6-99fc-fcd916ddb5b7","system_id":"levelo_inurba_marseille","lat":43.23204,"lon":5.35548,"is_reserved":false,"is_disabled":false,"rental_uris":{"android":"levelo://app?vid=55fed244-caf4-46e6-99fc-fcd916ddb5b7","ios":"levelo://app?vid=55fed244-caf4-46e6-99fc-fcd916ddb5b7"},"vehicle_type_id":"4","last_reported":1726744088,"current_range_meters":19200,"station_id":"ce4bhu92rcd13ifvqi70","pricing_plan_id":"cebpf4jnsgd1na2vs0mg"},{"bike_id":"180adcd2-2c07-4d51-b7cb-0c8da7c9902f","system_id":"levelo_inurba_marseille","lat":43.26199,"lon":5.3792,"is_reserved":false,"is_disabled":false,"rental_uris":{"android":"levelo://app?vid=180adcd2-2c07-4d51-b7cb-0c8da7c9902f","ios":"levelo://app?vid=180adcd2-2c07-4d51-b7cb-0c8da7c9902f"},"vehicle_type_id":"4","last_reported":1726744088,"current_range_meters":34800,"station_id":"ce4bhjp2rcd13ifvqg90","pricing_plan_id":"cebpf4jnsgd1na2vs0mg"},{"bike_id":"6b4698aa-8c8e-42a9-a362-549f08d20012","system_id":"levelo_inurba_marseille","lat":43.25932,"lon":5.40907,"is_reserved":false,"is_disabled":false,"rental_uris":{"android":"levelo://app?vid=6b4698aa-8c8e-42a9-a362-549f08d20012","ios":"levelo://app?vid=6b4698aa-8c8e-42a9-a362-549f08d20012"},"vehicle_type_id":"4","last_reported":1726744088,"current_range_meters":30400,"station_id":"ce4bhm92rcd13ifvqglg","pricing_plan_id":"cebpf4jnsgd1na2vs0mg"},{"bike_id":"e707a116-bfe3-4dc1-a70c-bffadce3deb6","system_id":"levelo_inurba_marseille","lat":43.30545,"lon":5.36555,"is_reserved":false,"is_disabled":false,"rental_uris":{"android":"levelo://app?vid=e707a116-bfe3-4dc1-a70c-bffadce3deb6","ios":"levelo://app?vid=e707a116-bfe3-4dc1-a70c-bffadce3deb6"},"vehicle_type_id":"4","last_reported":1726744088,"current_range_meters":19200,"station_id":"ce4bgs12rcd13ifvqcag","pricing_plan_id":"cebpf4jnsgd1na2vs0mg"},{"bike_id":"b85443b3-7fc7-4bab-9b96-932c0452a3de","system_id":"levelo_inurba_marseille","lat":43.26214,"lon":5.3744,"is_reserved":false,"is_disabled":false,"rental_uris":{"android":"levelo://app?vid=b85443b3-7fc7-4bab-9b96-932c0452a3de","ios":"levelo://app?vid=b85443b3-7fc7-4bab-9b96-932c0452a3de"},"vehicle_type_id":"4","last_reported":1726744088,"current_range_meters":20800,"station_id":"ce4bhgp2rcd13ifvqfc0","pricing_plan_id":"cebpf4jnsgd1na2vs0mg"},{"bike_id":"3fd17459-fba8-4ccd-b8f4-4b1804c548cc","system_id":"levelo_inurba_marseille","lat":43.268087,"lon":5.402725,"is_reserved":false,"is_disabled":false,"rental_uris":{"android":"levelo://app?vid=3fd17459-fba8-4ccd-b8f4-4b1804c548cc","ios":"levelo://app?vid=3fd17459-fba8-4ccd-b8f4-4b1804c548cc"},"vehicle_type_id":"4","last_reported":1726744088,"current_range_meters":12000,"station_id":"ce501612rcd8frsf0b60","pricing_plan_id":"cebpf4jnsgd1na2vs0mg"},{"bike_id":"ee68800c-f319-4020-b038-a34d6349dff4","system_id":"levelo_inurba_marseille","lat":43.2315,"lon":5.43714,"is_reserved":false,"is_disabled":false,"rental_uris":{"android":"levelo://app?vid=ee68800c-f319-4020-b038-a34d6349dff4","ios":"levelo://app?vid=ee68800c-f319-4020-b038-a34d6349dff4"},"vehicle_type_id":"4","last_reported":1726744088,"current_range_meters":18000,"station_id":"ce4bhmp2rcd13ifvqgog","pricing_plan_id":"cebpf4jnsgd1na2vs0mg"},{"bike_id":"b14b5cd6-5407-4249-b6d8-aec0c8d680e1","system_id":"levelo_inurba_marseille","lat":43.33724,"lon":5.39186,"is_reserved":false,"is_disabled":false,"rental_uris":{"android":"levelo://app?vid=b14b5cd6-5407-4249-b6d8-aec0c8d680e1","ios":"levelo://app?vid=b14b5cd6-5407-4249-b6d8-aec0c8d680e1"},"vehicle_type_id":"4","last_reported":1726744088,"current_range_meters":8800,"station_id":"ce4bhr92rcd13ifvqhsg","pricing_plan_id":"cebpf4jnsgd1na2vs0mg"},{"bike_id":"bb84d119-edcd-41c0-91e8-a062977a7329","system_id":"levelo_inurba_marseille","lat":43.31721,"lon":5.42404,"is_reserved":false,"is_disabled":false,"rental_uris":{"android":"levelo://app?vid=bb84d119-edcd-41c0-91e8-a062977a7329","ios":"levelo://app?vid=bb84d119-edcd-41c0-91e8-a062977a7329"},"vehicle_type_id":"4","last_reported":1726744088,"current_range_meters":18800,"station_id":"ce4bhp92rcd13ifvqhbg","pricing_plan_id":"cebpf4jnsgd1na2vs0mg"},{"bike_id":"1f96d051-6dac-4f6e-904d-1450f990d1d1","system_id":"levelo_inurba_marseille","lat":43.257379,"lon":5.418602,"is_reserved":false,"is_disabled":false,"rental_uris":{"android":"levelo://app?vid=1f96d051-6dac-4f6e-904d-1450f990d1d1","ios":"levelo://app?vid=1f96d051-6dac-4f6e-904d-1450f990d1d1"},"vehicle_type_id":"4","last_reported":1726744088,"current_range_meters":2800,"station_id":"","pricing_plan_id":"cebpf4jnsgd1na2vs0mg"},{"bike_id":"cc3e73ad-e1c7-45e7-84e2-fec0fb7686a1","system_id":"levelo_inurba_marseille","lat":43.29578,"lon":5.367408,"is_reserved":false,"is_disabled":false,"rental_uris":{"android":"levelo://app?vid=cc3e73ad-e1c7-45e7-84e2-fec0fb7686a1","ios":"levelo://app?vid=cc3e73ad-e1c7-45e7-84e2-fec0fb7686a1"},"vehicle_type_id":"4","last_reported":1726744088,"current_range_meters":8000,"station_id":"ce4bgph2rcd13ifvqc2g","pricing_plan_id":"cebpf4jnsgd1na2vs0mg"},{"bike_id":"e9c12d1b-6da0-4cc3-83bb-95bd5eb4adbb","system_id":"levelo_inurba_marseille","lat":43.30135,"lon":5.37414,"is_reserved":false,"is_disabled":false,"rental_uris":{"android":"levelo://app?vid=e9c12d1b-6da0-4cc3-83bb-95bd5eb4adbb","ios":"levelo://app?vid=e9c12d1b-6da0-4cc3-83bb-95bd5eb4adbb"},"vehicle_type_id":"4","last_reported":1726744088,"current_range_meters":40000,"station_id":"ce4bgs92rcd13ifvqcc0","pricing_plan_id":"cebpf4jnsgd1na2vs0mg"},{"bike_id":"2cbb6dd5-2ec8-4ba5-808a-c5301f897d27","system_id":"levelo_inurba_marseille","lat":43.23964,"lon":5.36621,"is_reserved":false,"is_disabled":false,"rental_uris":{"android":"levelo://app?vid=2cbb6dd5-2ec8-4ba5-808a-c5301f897d27","ios":"levelo://app?vid=2cbb6dd5-2ec8-4ba5-808a-c5301f897d27"},"vehicle_type_id":"4","last_reported":1726744088,"current_range_meters":23200,"station_id":"ce4bhi12rcd13ifvqfp0","pricing_plan_id":"cebpf4jnsgd1na2vs0mg"},{"bike_id":"60a6f6c2-c23b-4cfd-a0cb-c3d4101e03a6","system_id":"levelo_inurba_marseille","lat":43.29839,"lon":5.36265,"is_reserved":false,"is_disabled":false,"rental_uris":{"android":"levelo://app?vid=60a6f6c2-c23b-4cfd-a0cb-c3d4101e03a6","ios":"levelo://app?vid=60a6f6c2-c23b-4cfd-a0cb-c3d4101e03a6"},"vehicle_type_id":"4","last_reported":1726744088,"current_range_meters":38800,"station_id":"ce4bgpp2rcd13ifvqc3g","pricing_plan_id":"cebpf4jnsgd1na2vs0mg"},{"bike_id":"5c0611b5-9d48-42d5-9718-f816a22a412e","system_id":"levelo_inurba_marseille","lat":43.24996,"lon":5.3893,"is_reserved":false,"is_disabled":false,"rental_uris":{"android":"levelo://app?vid=5c0611b5-9d48-42d5-9718-f816a22a412e","ios":"levelo://app?vid=5c0611b5-9d48-42d5-9718-f816a22a412e"},"vehicle_type_id":"4","last_reported":1726744088,"current_range_meters":32400,"station_id":"ce4bhgp2rcd13ifvqfd0","pricing_plan_id":"cebpf4jnsgd1na2vs0mg"},{"bike_id":"0f94c446-702d-4082-83a4-fa8d8d74a7cf","system_id":"levelo_inurba_marseille","lat":43.31333,"lon":5.39695,"is_reserved":false,"is_disabled":false,"rental_uris":{"android":"levelo://app?vid=0f94c446-702d-4082-83a4-fa8d8d74a7cf","ios":"levelo://app?vid=0f94c446-702d-4082-83a4-fa8d8d74a7cf"},"vehicle_type_id":"4","last_reported":1726744088,"current_range_meters":37600,"station_id":"ce4bgvp2rcd13ifvqcu0","pricing_plan_id":"cebpf4jnsgd1na2vs0mg"},{"bike_id":"67e20da9-6f26-4eed-b39c-1da0bdbd875d","system_id":"levelo_inurba_marseille","lat":43.29985,"lon":5.38489,"is_reserved":false,"is_disabled":false,"rental_uris":{"android":"levelo://app?vid=67e20da9-6f26-4eed-b39c-1da0bdbd875d","ios":"levelo://app?vid=67e20da9-6f26-4eed-b39c-1da0bdbd875d"},"vehicle_type_id":"4","last_reported":1726744088,"current_range_meters":38800,"station_id":"ce4bgj92rcd13ifvqbd0","pricing_plan_id":"cebpf4jnsgd1na2vs0mg"},{"bike_id":"52fffaf1-dd98-4e0a-a39d-48011512624f","system_id":"levelo_inurba_marseille","lat":43.25498,"lon":5.3765,"is_reserved":false,"is_disabled":false,"rental_uris":{"android":"levelo://app?vid=52fffaf1-dd98-4e0a-a39d-48011512624f","ios":"levelo://app?vid=52fffaf1-dd98-4e0a-a39d-48011512624f"},"vehicle_type_id":"4","last_reported":1726744088,"current_range_meters":29600,"station_id":"ce4bhh12rcd13ifvqff0","pricing_plan_id":"cebpf4jnsgd1na2vs0mg"},{"bike_id":"1216cd3b-4137-4b05-a5c1-4627cab6719f","system_id":"levelo_inurba_marseille","lat":43.29554,"lon":5.42295,"is_reserved":false,"is_disabled":false,"rental_uris":{"android":"levelo://app?vid=1216cd3b-4137-4b05-a5c1-4627cab6719f","ios":"levelo://app?vid=1216cd3b-4137-4b05-a5c1-4627cab6719f"},"vehicle_type_id":"4","last_reported":1726744088,"current_range_meters":3600,"station_id":"ce4bhph2rcd13ifvqhdg","pricing_plan_id":"cebpf4jnsgd1na2vs0mg"},{"bike_id":"ab957eff-0a72-4c5a-a176-6c0e2015c982","system_id":"levelo_inurba_marseille","lat":43.2985,"lon":5.36273,"is_reserved":false,"is_disabled":false,"rental_uris":{"android":"levelo://app?vid=ab957eff-0a72-4c5a-a176-6c0e2015c982","ios":"levelo://app?vid=ab957eff-0a72-4c5a-a176-6c0e2015c982"},"vehicle_type_id":"4","last_reported":1726744088,"current_range_meters":20400,"station_id":"ce4bgpp2rcd13ifvqc3g","pricing_plan_id":"cebpf4jnsgd1na2vs0mg"},{"bike_id":"8bd80e68-8812-472c-8449-6f9a01120914","system_id":"levelo_inurba_marseille","lat":43.27426,"lon":5.39411,"is_reserved":false,"is_disabled":false,"rental_uris":{"android":"levelo://app?vid=8bd80e68-8812-472c-8449-6f9a01120914","ios":"levelo://app?vid=8bd80e68-8812-472c-8449-6f9a01120914"},"vehicle_type_id":"4","last_reported":1726744088,"current_range_meters":25600,"station_id":"ce4bhdp2rcd13ifvqf20","pricing_plan_id":"cebpf4jnsgd1na2vs0mg"},{"bike_id":"1ea79cf6-2f6c-45ac-80b8-1f4ad5573d7a","system_id":"levelo_inurba_marseille","lat":43.24654,"lon":5.38172,"is_reserved":false,"is_disabled":false,"rental_uris":{"android":"levelo://app?vid=1ea79cf6-2f6c-45ac-80b8-1f4ad5573d7a","ios":"levelo://app?vid=1ea79cf6-2f6c-45ac-80b8-1f4ad5573d7a"},"vehicle_type_id":"4","last_reported":1726744088,"current_range_meters":24000,"station_id":"ce4bhih2rcd13ifvqfr0","pricing_plan_id":"cebpf4jnsgd1na2vs0mg"},{"bike_id":"4765a668-54c3-4499-b124-78f8c56423d5","system_id":"levelo_inurba_marseille","lat":43.29967,"lon":5.37183,"is_reserved":false,"is_disabled":false,"rental_uris":{"android":"levelo://app?vid=4765a668-54c3-4499-b124-78f8c56423d5","ios":"levelo://app?vid=4765a668-54c3-4499-b124-78f8c56423d5"},"vehicle_type_id":"4","last_reported":1726744088,"current_range_meters":36800,"station_id":"ce4bgr92rcd13ifvqc7g","pricing_plan_id":"cebpf4jnsgd1na2vs0mg"},{"bike_id":"3450e49a-3810-4469-8f17-4407126f60e1","system_id":"levelo_inurba_marseille","lat":43.276276,"lon":5.42647,"is_reserved":false,"is_disabled":false,"rental_uris":{"android":"levelo://app?vid=3450e49a-3810-4469-8f17-4407126f60e1","ios":"levelo://app?vid=3450e49a-3810-4469-8f17-4407126f60e1"},"vehicle_type_id":"4","last_reported":1726744088,"current_range_meters":5600,"station_id":"","pricing_plan_id":"cebpf4jnsgd1na2vs0mg"},{"bike_id":"7617fe43-8fec-4602-b5d5-e996c1eb6a44","system_id":"levelo_inurba_marseille","lat":43.23192,"lon":5.35546,"is_reserved":false,"is_disabled":false,"rental_uris":{"android":"levelo://app?vid=7617fe43-8fec-4602-b5d5-e996c1eb6a44","ios":"levelo://app?vid=7617fe43-8fec-4602-b5d5-e996c1eb6a44"},"vehicle_type_id":"4","last_reported":1726744088,"current_range_meters":38800,"station_id":"ce4bhu92rcd13ifvqi70","pricing_plan_id":"cebpf4jnsgd1na2vs0mg"},{"bike_id":"1b2a4541-3374-4ebe-90ec-f9d0eacd86d6","system_id":"levelo_inurba_marseille","lat":43.29619,"lon":5.37708,"is_reserved":false,"is_disabled":false,"rental_uris":{"android":"levelo://app?vid=1b2a4541-3374-4ebe-90ec-f9d0eacd86d6","ios":"levelo://app?vid=1b2a4541-3374-4ebe-90ec-f9d0eacd86d6"},"vehicle_type_id":"4","last_reported":1726744088,"current_range_meters":14400,"station_id":"ce4bgi92rcd13ifvqb90","pricing_plan_id":"cebpf4jnsgd1na2vs0mg"},{"bike_id":"396ba37e-88b0-4568-8a14-731de662ee27","system_id":"levelo_inurba_marseille","lat":43.31997,"lon":5.38154,"is_reserved":false,"is_disabled":false,"rental_uris":{"android":"levelo://app?vid=396ba37e-88b0-4568-8a14-731de662ee27","ios":"levelo://app?vid=396ba37e-88b0-4568-8a14-731de662ee27"},"vehicle_type_id":"4","last_reported":1726744088,"current_range_meters":32400,"station_id":"ce4bhr12rcd13ifvqhpg","pricing_plan_id":"cebpf4jnsgd1na2vs0mg"},{"bike_id":"036d5fc9-dba1-43da-9929-e313c8b59ba8","system_id":"levelo_inurba_marseille","lat":43.28379,"lon":5.38067,"is_reserved":false,"is_disabled":false,"rental_uris":{"android":"levelo://app?vid=036d5fc9-dba1-43da-9929-e313c8b59ba8","ios":"levelo://app?vid=036d5fc9-dba1-43da-9929-e313c8b59ba8"},"vehicle_type_id":"4","last_reported":1726744088,"current_range_meters":17200,"station_id":"ce4bh412rcd13ifvqdr0","pricing_plan_id":"cebpf4jnsgd1na2vs0mg"},{"bike_id":"9ecdf0fc-6643-4539-b1ca-f13870a44995","system_id":"levelo_inurba_marseille","lat":43.29587,"lon":5.36753,"is_reserved":false,"is_disabled":false,"rental_uris":{"android":"levelo://app?vid=9ecdf0fc-6643-4539-b1ca-f13870a44995","ios":"levelo://app?vid=9ecdf0fc-6643-4539-b1ca-f13870a44995"},"vehicle_type_id":"4","last_reported":1726744088,"current_range_meters":27600,"station_id":"ce4bgph2rcd13ifvqc2g","pricing_plan_id":"cebpf4jnsgd1na2vs0mg"},{"bike_id":"2b714e73-49f8-4f26-bb6d-7d72ce23aabc","system_id":"levelo_inurba_marseille","lat":43.23054,"lon":5.35493,"is_reserved":false,"is_disabled":false,"rental_uris":{"android":"levelo://app?vid=2b714e73-49f8-4f26-bb6d-7d72ce23aabc","ios":"levelo://app?vid=2b714e73-49f8-4f26-bb6d-7d72ce23aabc"},"vehicle_type_id":"4","last_reported":1726744088,"current_range_meters":2800,"station_id":"cpo3342slgdg3j2ifvpg","pricing_plan_id":"cebpf4jnsgd1na2vs0mg"},{"bike_id":"6abd6ed8-e9da-4163-9975-ae064d953b07","system_id":"levelo_inurba_marseille","lat":43.25937,"lon":5.40903,"is_reserved":false,"is_disabled":false,"rental_uris":{"android":"levelo://app?vid=6abd6ed8-e9da-4163-9975-ae064d953b07","ios":"levelo://app?vid=6abd6ed8-e9da-4163-9975-ae064d953b07"},"vehicle_type_id":"4","last_reported":1726744088,"current_range_meters":30800,"station_id":"ce4bhm92rcd13ifvqglg","pricing_plan_id":"cebpf4jnsgd1na2vs0mg"},{"bike_id":"87483675-10ba-4b90-9ed9-a62636228fd3","system_id":"levelo_inurba_marseille","lat":43.25938,"lon":5.40898,"is_reserved":false,"is_disabled":false,"rental_uris":{"android":"levelo://app?vid=87483675-10ba-4b90-9ed9-a62636228fd3","ios":"levelo://app?vid=87483675-10ba-4b90-9ed9-a62636228fd3"},"vehicle_type_id":"4","last_reported":1726744088,"current_range_meters":32800,"station_id":"ce4bhm92rcd13ifvqglg","pricing_plan_id":"cebpf4jnsgd1na2vs0mg"},{"bike_id":"12fd216c-4005-44e5-a188-d2b75f8e3663","system_id":"levelo_inurba_marseille","lat":43.29904,"lon":5.38133,"is_reserved":false,"is_disabled":false,"rental_uris":{"android":"levelo://app?vid=12fd216c-4005-44e5-a188-d2b75f8e3663","ios":"levelo://app?vid=12fd216c-4005-44e5-a188-d2b75f8e3663"},"vehicle_type_id":"4","last_reported":1726744088,"current_range_meters":36800,"station_id":"ce4bgj12rcd13ifvqbc0","pricing_plan_id":"cebpf4jnsgd1na2vs0mg"},{"bike_id":"fa0db3ec-c33f-4697-be37-31039aa03f65","system_id":"levelo_inurba_marseille","lat":43.24391,"lon":5.37048,"is_reserved":false,"is_disabled":false,"rental_uris":{"android":"levelo://app?vid=fa0db3ec-c33f-4697-be37-31039aa03f65","ios":"levelo://app?vid=fa0db3ec-c33f-4697-be37-31039aa03f65"},"vehicle_type_id":"4","last_reported":1726744088,"current_range_meters":36400,"station_id":"ce4bhhh2rcd13ifvqfk0","pricing_plan_id":"cebpf4jnsgd1na2vs0mg"},{"bike_id":"febfe90d-6add-47a2-91e5-fba6f7ebb377","system_id":"levelo_inurba_marseille","lat":43.30433,"lon":5.38897,"is_reserved":false,"is_disabled":false,"rental_uris":{"android":"levelo://app?vid=febfe90d-6add-47a2-91e5-fba6f7ebb377","ios":"levelo://app?vid=febfe90d-6add-47a2-91e5-fba6f7ebb377"},"vehicle_type_id":"4","last_reported":1726744088,"current_range_meters":4400,"station_id":"ce4bgk12rcd13ifvqbi0","pricing_plan_id":"cebpf4jnsgd1na2vs0mg"},{"bike_id":"be5df729-f5f3-4260-8f93-c174d533b9fa","system_id":"levelo_inurba_marseille","lat":43.24999,"lon":5.38927,"is_reserved":false,"is_disabled":false,"rental_uris":{"android":"levelo://app?vid=be5df729-f5f3-4260-8f93-c174d533b9fa","ios":"levelo://app?vid=be5df729-f5f3-4260-8f93-c174d533b9fa"},"vehicle_type_id":"4","last_reported":1726744088,"current_range_meters":28400,"station_id":"ce4bhgp2rcd13ifvqfd0","pricing_plan_id":"cebpf4jnsgd1na2vs0mg"},{"bike_id":"9fc9e31d-2521-4a5c-8f58-3f3643fb6e42","system_id":"levelo_inurba_marseille","lat":43.273722,"lon":5.362647,"is_reserved":false,"is_disabled":false,"rental_uris":{"android":"levelo://app?vid=9fc9e31d-2521-4a5c-8f58-3f3643fb6e42","ios":"levelo://app?vid=9fc9e31d-2521-4a5c-8f58-3f3643fb6e42"},"vehicle_type_id":"4","last_reported":1726744088,"current_range_meters":26800,"station_id":"ce4bhbh2rcd13ifvqeo0","pricing_plan_id":"cebpf4jnsgd1na2vs0mg"},{"bike_id":"5c4749b6-f564-4554-8438-537375b87c09","system_id":"levelo_inurba_marseille","lat":43.24079,"lon":5.37741,"is_reserved":false,"is_disabled":false,"rental_uris":{"android":"levelo://app?vid=5c4749b6-f564-4554-8438-537375b87c09","ios":"levelo://app?vid=5c4749b6-f564-4554-8438-537375b87c09"},"vehicle_type_id":"4","last_reported":1726744088,"current_range_meters":36000,"station_id":"ce4bhnp2rcd13ifvqgvg","pricing_plan_id":"cebpf4jnsgd1na2vs0mg"},{"bike_id":"b33f9936-8865-4e5f-97df-81a123127573","system_id":"levelo_inurba_marseille","lat":43.27071,"lon":5.42274,"is_reserved":false,"is_disabled":false,"rental_uris":{"android":"levelo://app?vid=b33f9936-8865-4e5f-97df-81a123127573","ios":"levelo://app?vid=b33f9936-8865-4e5f-97df-81a123127573"},"vehicle_type_id":"4","last_reported":1726744088,"current_range_meters":25200,"station_id":"ce4bhk92rcd13ifvqgb0","pricing_plan_id":"cebpf4jnsgd1na2vs0mg"},{"bike_id":"9ce7d275-ad59-499e-aa49-a0f0c662eec0","system_id":"levelo_inurba_marseille","lat":43.29791,"lon":5.371,"is_reserved":false,"is_disabled":false,"rental_uris":{"android":"levelo://app?vid=9ce7d275-ad59-499e-aa49-a0f0c662eec0","ios":"levelo://app?vid=9ce7d275-ad59-499e-aa49-a0f0c662eec0"},"vehicle_type_id":"4","last_reported":1726744088,"current_range_meters":24000,"station_id":"ce4bgop2rcd13ifvqc1g","pricing_plan_id":"cebpf4jnsgd1na2vs0mg"},{"bike_id":"f53c0ffa-216b-459d-b601-c4e6f45db024","system_id":"levelo_inurba_marseille","lat":43.24996,"lon":5.38931,"is_reserved":false,"is_disabled":false,"rental_uris":{"android":"levelo://app?vid=f53c0ffa-216b-459d-b601-c4e6f45db024","ios":"levelo://app?vid=f53c0ffa-216b-459d-b601-c4e6f45db024"},"vehicle_type_id":"4","last_reported":1726744088,"current_range_meters":12800,"station_id":"ce4bhgp2rcd13ifvqfd0","pricing_plan_id":"cebpf4jnsgd1na2vs0mg"},{"bike_id":"d4450028-e49d-4ac4-bd29-715be80b5fa8","system_id":"levelo_inurba_marseille","lat":43.28262,"lon":5.35066,"is_reserved":false,"is_disabled":false,"rental_uris":{"android":"levelo://app?vid=d4450028-e49d-4ac4-bd29-715be80b5fa8","ios":"levelo://app?vid=d4450028-e49d-4ac4-bd29-715be80b5fa8"},"vehicle_type_id":"4","last_reported":1726744088,"current_range_meters":38800,"station_id":"ce4bhbp2rcd13ifvqerg","pricing_plan_id":"cebpf4jnsgd1na2vs0mg"},{"bike_id":"b0154446-30b1-4374-bfef-f6974c90099e","system_id":"levelo_inurba_marseille","lat":43.30547,"lon":5.36716,"is_reserved":false,"is_disabled":false,"rental_uris":{"android":"levelo://app?vid=b0154446-30b1-4374-bfef-f6974c90099e","ios":"levelo://app?vid=b0154446-30b1-4374-bfef-f6974c90099e"},"vehicle_type_id":"4","last_reported":1726744088,"current_range_meters":38800,"station_id":"ce4bgrp2rcd13ifvqc9g","pricing_plan_id":"cebpf4jnsgd1na2vs0mg"},{"bike_id":"3054afe6-4c88-4656-9a5d-c31a1a4a065f","system_id":"levelo_inurba_marseille","lat":43.32464,"lon":5.36568,"is_reserved":false,"is_disabled":false,"rental_uris":{"android":"levelo://app?vid=3054afe6-4c88-4656-9a5d-c31a1a4a065f","ios":"levelo://app?vid=3054afe6-4c88-4656-9a5d-c31a1a4a065f"},"vehicle_type_id":"4","last_reported":1726744088,"current_range_meters":33600,"station_id":"ce4bhs12rcd13ifvqhvg","pricing_plan_id":"cebpf4jnsgd1na2vs0mg"},{"bike_id":"c2ba9c19-e23e-460d-aaf4-965254c9ea53","system_id":"levelo_inurba_marseille","lat":43.30931,"lon":5.40141,"is_reserved":false,"is_disabled":false,"rental_uris":{"android":"levelo://app?vid=c2ba9c19-e23e-460d-aaf4-965254c9ea53","ios":"levelo://app?vid=c2ba9c19-e23e-460d-aaf4-965254c9ea53"},"vehicle_type_id":"4","last_reported":1726744088,"current_range_meters":3200,"station_id":"ce4bgvp2rcd13ifvqct0","pricing_plan_id":"cebpf4jnsgd1na2vs0mg"},{"bike_id":"b718060d-21dc-4c2f-b3fb-09316cd97732","system_id":"levelo_inurba_marseille","lat":43.30921,"lon":5.40143,"is_reserved":false,"is_disabled":false,"rental_uris":{"android":"levelo://app?vid=b718060d-21dc-4c2f-b3fb-09316cd97732","ios":"levelo://app?vid=b718060d-21dc-4c2f-b3fb-09316cd97732"},"vehicle_type_id":"4","last_reported":1726744088,"current_range_meters":4800,"station_id":"ce4bgvp2rcd13ifvqct0","pricing_plan_id":"cebpf4jnsgd1na2vs0mg"},{"bike_id":"143a0480-4682-4787-be50-98e6007ce30b","system_id":"levelo_inurba_marseille","lat":43.3059,"lon":5.3935,"is_reserved":false,"is_disabled":false,"rental_uris":{"android":"levelo://app?vid=143a0480-4682-4787-be50-98e6007ce30b","ios":"levelo://app?vid=143a0480-4682-4787-be50-98e6007ce30b"},"vehicle_type_id":"4","last_reported":1726744088,"current_range_meters":19600,"station_id":"ce4bh0p2rcd13ifvqd80","pricing_plan_id":"cebpf4jnsgd1na2vs0mg"},{"bike_id":"6d5cbd2e-3ab7-491d-a944-8cfd37cbcb61","system_id":"levelo_inurba_marseille","lat":43.26212,"lon":5.37444,"is_reserved":false,"is_disabled":false,"rental_uris":{"android":"levelo://app?vid=6d5cbd2e-3ab7-491d-a944-8cfd37cbcb61","ios":"levelo://app?vid=6d5cbd2e-3ab7-491d-a944-8cfd37cbcb61"},"vehicle_type_id":"4","last_reported":1726744088,"current_range_meters":10000,"station_id":"ce4bhgp2rcd13ifvqfc0","pricing_plan_id":"cebpf4jnsgd1na2vs0mg"},{"bike_id":"d702706d-cdf6-4cf9-9f3f-96ababd7ca5e","system_id":"levelo_inurba_marseille","lat":43.31245,"lon":5.36869,"is_reserved":false,"is_disabled":false,"rental_uris":{"android":"levelo://app?vid=d702706d-cdf6-4cf9-9f3f-96ababd7ca5e","ios":"levelo://app?vid=d702706d-cdf6-4cf9-9f3f-96ababd7ca5e"},"vehicle_type_id":"4","last_reported":1726744088,"current_range_meters":36400,"station_id":"ce4bgl92rcd13ifvqbq0","pricing_plan_id":"cebpf4jnsgd1na2vs0mg"},{"bike_id":"902190e7-1fe9-4270-9546-498dac581307","system_id":"levelo_inurba_marseille","lat":43.28002,"lon":5.40594,"is_reserved":false,"is_disabled":false,"rental_uris":{"android":"levelo://app?vid=902190e7-1fe9-4270-9546-498dac581307","ios":"levelo://app?vid=902190e7-1fe9-4270-9546-498dac581307"},"vehicle_type_id":"4","last_reported":1726744088,"current_range_meters":36000,"station_id":"","pricing_plan_id":"cebpf4jnsgd1na2vs0mg"},{"bike_id":"8f177bb0-0e26-4233-9422-665915bc082a","system_id":"levelo_inurba_marseille","lat":43.30312,"lon":5.36898,"is_reserved":false,"is_disabled":false,"rental_uris":{"android":"levelo://app?vid=8f177bb0-0e26-4233-9422-665915bc082a","ios":"levelo://app?vid=8f177bb0-0e26-4233-9422-665915bc082a"},"vehicle_type_id":"4","last_reported":1726744088,"current_range_meters":9200,"station_id":"ce4bgqh2rcd13ifvqc5g","pricing_plan_id":"cebpf4jnsgd1na2vs0mg"},{"bike_id":"61475e3e-587b-43ec-89c1-ffae0a043ae6","system_id":"levelo_inurba_marseille","lat":43.28447,"lon":5.39185,"is_reserved":false,"is_disabled":false,"rental_uris":{"android":"levelo://app?vid=61475e3e-587b-43ec-89c1-ffae0a043ae6","ios":"levelo://app?vid=61475e3e-587b-43ec-89c1-ffae0a043ae6"},"vehicle_type_id":"4","last_reported":1726744088,"current_range_meters":29600,"station_id":"ce4bhoh2rcd13ifvqh5g","pricing_plan_id":"cebpf4jnsgd1na2vs0mg"},{"bike_id":"c098a256-374f-4a1b-8d95-3610eec62ffc","system_id":"levelo_inurba_marseille","lat":43.2656,"lon":5.3729,"is_reserved":false,"is_disabled":false,"rental_uris":{"android":"levelo://app?vid=c098a256-374f-4a1b-8d95-3610eec62ffc","ios":"levelo://app?vid=c098a256-374f-4a1b-8d95-3610eec62ffc"},"vehicle_type_id":"4","last_reported":1726744088,"current_range_meters":22000,"station_id":"ce4bhg12rcd13ifvqf70","pricing_plan_id":"cebpf4jnsgd1na2vs0mg"},{"bike_id":"29affaf3-d71e-45cb-aab6-43585a820bd5","system_id":"levelo_inurba_marseille","lat":43.29855,"lon":5.36275,"is_reserved":false,"is_disabled":false,"rental_uris":{"android":"levelo://app?vid=29affaf3-d71e-45cb-aab6-43585a820bd5","ios":"levelo://app?vid=29affaf3-d71e-45cb-aab6-43585a820bd5"},"vehicle_type_id":"4","last_reported":1726744088,"current_range_meters":38800,"station_id":"ce4bgpp2rcd13ifvqc3g","pricing_plan_id":"cebpf4jnsgd1na2vs0mg"},{"bike_id":"7ed6941b-afc4-460f-8af3-ab9c555ffb27","system_id":"levelo_inurba_marseille","lat":43.30537,"lon":5.36696,"is_reserved":false,"is_disabled":false,"rental_uris":{"android":"levelo://app?vid=7ed6941b-afc4-460f-8af3-ab9c555ffb27","ios":"levelo://app?vid=7ed6941b-afc4-460f-8af3-ab9c555ffb27"},"vehicle_type_id":"4","last_reported":1726744088,"current_range_meters":39200,"station_id":"ce4bgrp2rcd13ifvqc9g","pricing_plan_id":"cebpf4jnsgd1na2vs0mg"},{"bike_id":"66979b52-14f7-44b1-a286-4b115afc35a7","system_id":"levelo_inurba_marseille","lat":43.25001,"lon":5.38925,"is_reserved":false,"is_disabled":false,"rental_uris":{"android":"levelo://app?vid=66979b52-14f7-44b1-a286-4b115afc35a7","ios":"levelo://app?vid=66979b52-14f7-44b1-a286-4b115afc35a7"},"vehicle_type_id":"4","last_reported":1726744088,"current_range_meters":27600,"station_id":"ce4bhgp2rcd13ifvqfd0","pricing_plan_id":"cebpf4jnsgd1na2vs0mg"},{"bike_id":"db5bed51-afb9-4548-98e9-7b7ae226c501","system_id":"levelo_inurba_marseille","lat":43.33756,"lon":5.37453,"is_reserved":false,"is_disabled":false,"rental_uris":{"android":"levelo://app?vid=db5bed51-afb9-4548-98e9-7b7ae226c501","ios":"levelo://app?vid=db5bed51-afb9-4548-98e9-7b7ae226c501"},"vehicle_type_id":"4","last_reported":1726744088,"current_range_meters":25600,"station_id":"","pricing_plan_id":"cebpf4jnsgd1na2vs0mg"},{"bike_id":"d79373f5-c2da-49ae-b231-84974982fd84","system_id":"levelo_inurba_marseille","lat":43.3046,"lon":5.37907,"is_reserved":false,"is_disabled":false,"rental_uris":{"android":"levelo://app?vid=d79373f5-c2da-49ae-b231-84974982fd84","ios":"levelo://app?vid=d79373f5-c2da-49ae-b231-84974982fd84"},"vehicle_type_id":"4","last_reported":1726744088,"current_range_meters":29600,"station_id":"ce4bgup2rcd13ifvqcn0","pricing_plan_id":"cebpf4jnsgd1na2vs0mg"},{"bike_id":"6864a05c-76c0-4648-ae7c-db87fef70f83","system_id":"levelo_inurba_marseille","lat":43.275,"lon":5.42451,"is_reserved":false,"is_disabled":false,"rental_uris":{"android":"levelo://app?vid=6864a05c-76c0-4648-ae7c-db87fef70f83","ios":"levelo://app?vid=6864a05c-76c0-4648-ae7c-db87fef70f83"},"vehicle_type_id":"4","last_reported":1726744088,"current_range_meters":6400,"station_id":"ce4bhn92rcd13ifvqgrg","pricing_plan_id":"cebpf4jnsgd1na2vs0mg"},{"bike_id":"f1925469-9217-450d-9259-fc5ba656a5ff","system_id":"levelo_inurba_marseille","lat":43.25928,"lon":5.40914,"is_reserved":false,"is_disabled":false,"rental_uris":{"android":"levelo://app?vid=f1925469-9217-450d-9259-fc5ba656a5ff","ios":"levelo://app?vid=f1925469-9217-450d-9259-fc5ba656a5ff"},"vehicle_type_id":"4","last_reported":1726744088,"current_range_meters":38000,"station_id":"ce4bhm92rcd13ifvqglg","pricing_plan_id":"cebpf4jnsgd1na2vs0mg"},{"bike_id":"69399783-5eae-4af9-ae4b-1495b2d249b1","system_id":"levelo_inurba_marseille","lat":43.24164,"lon":5.36397,"is_reserved":false,"is_disabled":false,"rental_uris":{"android":"levelo://app?vid=69399783-5eae-4af9-ae4b-1495b2d249b1","ios":"levelo://app?vid=69399783-5eae-4af9-ae4b-1495b2d249b1"},"vehicle_type_id":"4","last_reported":1726744088,"current_range_meters":33600,"station_id":"cpo36qri1sfpv3e86is0","pricing_plan_id":"cebpf4jnsgd1na2vs0mg"},{"bike_id":"70017b85-2662-405a-8715-8e6763b55811","system_id":"levelo_inurba_marseille","lat":43.274232,"lon":5.394114,"is_reserved":false,"is_disabled":false,"rental_uris":{"android":"levelo://app?vid=70017b85-2662-405a-8715-8e6763b55811","ios":"levelo://app?vid=70017b85-2662-405a-8715-8e6763b55811"},"vehicle_type_id":"4","last_reported":1726744088,"current_range_meters":35200,"station_id":"ce4bh392rcd13ifvqdm0","pricing_plan_id":"cebpf4jnsgd1na2vs0mg"},{"bike_id":"968c510a-dce6-4db5-9849-32ea27c080d3","system_id":"levelo_inurba_marseille","lat":43.29554,"lon":5.4229,"is_reserved":false,"is_disabled":false,"rental_uris":{"android":"levelo://app?vid=968c510a-dce6-4db5-9849-32ea27c080d3","ios":"levelo://app?vid=968c510a-dce6-4db5-9849-32ea27c080d3"},"vehicle_type_id":"4","last_reported":1726744088,"current_range_meters":16400,"station_id":"ce4bhph2rcd13ifvqhdg","pricing_plan_id":"cebpf4jnsgd1na2vs0mg"},{"bike_id":"00515a2f-8664-4f22-ac9f-eba1657aef43","system_id":"levelo_inurba_marseille","lat":43.30892,"lon":5.36841,"is_reserved":false,"is_disabled":false,"rental_uris":{"android":"levelo://app?vid=00515a2f-8664-4f22-ac9f-eba1657aef43","ios":"levelo://app?vid=00515a2f-8664-4f22-ac9f-eba1657aef43"},"vehicle_type_id":"4","last_reported":1726744088,"current_range_meters":36000,"station_id":"ce4bh9p2rcd13ifvqec0","pricing_plan_id":"cebpf4jnsgd1na2vs0mg"},{"bike_id":"c07f4740-ebab-4d5c-b22e-deddf1ddd7da","system_id":"levelo_inurba_marseille","lat":43.2984,"lon":5.36265,"is_reserved":false,"is_disabled":false,"rental_uris":{"android":"levelo://app?vid=c07f4740-ebab-4d5c-b22e-deddf1ddd7da","ios":"levelo://app?vid=c07f4740-ebab-4d5c-b22e-deddf1ddd7da"},"vehicle_type_id":"4","last_reported":1726744088,"current_range_meters":38800,"station_id":"ce4bgpp2rcd13ifvqc3g","pricing_plan_id":"cebpf4jnsgd1na2vs0mg"},{"bike_id":"6bb15ca8-4421-4db0-a3b3-e8ac3deb8c53","system_id":"levelo_inurba_marseille","lat":43.270966,"lon":5.386219,"is_reserved":false,"is_disabled":false,"rental_uris":{"android":"levelo://app?vid=6bb15ca8-4421-4db0-a3b3-e8ac3deb8c53","ios":"levelo://app?vid=6bb15ca8-4421-4db0-a3b3-e8ac3deb8c53"},"vehicle_type_id":"4","last_reported":1726744088,"current_range_meters":16800,"station_id":"ce4bgjh2rcd13ifvqbf0","pricing_plan_id":"cebpf4jnsgd1na2vs0mg"},{"bike_id":"a811345e-c046-4ee5-87fd-576f86d7c458","system_id":"levelo_inurba_marseille","lat":43.25935,"lon":5.4092,"is_reserved":false,"is_disabled":false,"rental_uris":{"android":"levelo://app?vid=a811345e-c046-4ee5-87fd-576f86d7c458","ios":"levelo://app?vid=a811345e-c046-4ee5-87fd-576f86d7c458"},"vehicle_type_id":"4","last_reported":1726744088,"current_range_meters":37600,"station_id":"ce4bhm92rcd13ifvqglg","pricing_plan_id":"cebpf4jnsgd1na2vs0mg"},{"bike_id":"1fd89a8d-f64a-47f4-884f-f2892f85c821","system_id":"levelo_inurba_marseille","lat":43.25581,"lon":5.38233,"is_reserved":false,"is_disabled":false,"rental_uris":{"android":"levelo://app?vid=1fd89a8d-f64a-47f4-884f-f2892f85c821","ios":"levelo://app?vid=1fd89a8d-f64a-47f4-884f-f2892f85c821"},"vehicle_type_id":"4","last_reported":1726744088,"current_range_meters":16800,"station_id":"ce4bhih2rcd13ifvqfs0","pricing_plan_id":"cebpf4jnsgd1na2vs0mg"},{"bike_id":"884b4613-2a72-46e8-b1fd-814e1222921b","system_id":"levelo_inurba_marseille","lat":43.3055,"lon":5.36701,"is_reserved":false,"is_disabled":false,"rental_uris":{"android":"levelo://app?vid=884b4613-2a72-46e8-b1fd-814e1222921b","ios":"levelo://app?vid=884b4613-2a72-46e8-b1fd-814e1222921b"},"vehicle_type_id":"4","last_reported":1726744088,"current_range_meters":11200,"station_id":"ce4bgrp2rcd13ifvqc9g","pricing_plan_id":"cebpf4jnsgd1na2vs0mg"},{"bike_id":"96010521-6df8-4499-9193-686a24ef9ec2","system_id":"levelo_inurba_marseille","lat":43.30829,"lon":5.37116,"is_reserved":false,"is_disabled":false,"rental_uris":{"android":"levelo://app?vid=96010521-6df8-4499-9193-686a24ef9ec2","ios":"levelo://app?vid=96010521-6df8-4499-9193-686a24ef9ec2"},"vehicle_type_id":"4","last_reported":1726744088,"current_range_meters":38000,"station_id":"","pricing_plan_id":"cebpf4jnsgd1na2vs0mg"},{"bike_id":"58014cc6-4f39-4119-a8a0-cdc0e2507820","system_id":"levelo_inurba_marseille","lat":43.32287,"lon":5.38281,"is_reserved":false,"is_disabled":false,"rental_uris":{"android":"levelo://app?vid=58014cc6-4f39-4119-a8a0-cdc0e2507820","ios":"levelo://app?vid=58014cc6-4f39-4119-a8a0-cdc0e2507820"},"vehicle_type_id":"4","last_reported":1726744088,"current_range_meters":38800,"station_id":"ce4bhr12rcd13ifvqhqg","pricing_plan_id":"cebpf4jnsgd1na2vs0mg"},{"bike_id":"655e94ba-92eb-485d-9f53-279c68f7a8f3","system_id":"levelo_inurba_marseille","lat":43.23185,"lon":5.3998,"is_reserved":false,"is_disabled":false,"rental_uris":{"android":"levelo://app?vid=655e94ba-92eb-485d-9f53-279c68f7a8f3","ios":"levelo://app?vid=655e94ba-92eb-485d-9f53-279c68f7a8f3"},"vehicle_type_id":"4","last_reported":1726744088,"current_range_meters":38400,"station_id":"ce4bhn12rcd13ifvqgqg","pricing_plan_id":"cebpf4jnsgd1na2vs0mg"},{"bike_id":"58a0977a-4560-4644-908f-41ef1eb01cb6","system_id":"levelo_inurba_marseille","lat":43.26946,"lon":5.3864,"is_reserved":false,"is_disabled":false,"rental_uris":{"android":"levelo://app?vid=58a0977a-4560-4644-908f-41ef1eb01cb6","ios":"levelo://app?vid=58a0977a-4560-4644-908f-41ef1eb01cb6"},"vehicle_type_id":"4","last_reported":1726744088,"current_range_meters":31200,"station_id":"ce4bhh92rcd13ifvqfh0","pricing_plan_id":"cebpf4jnsgd1na2vs0mg"},{"bike_id":"9af0c345-e2cf-4dd1-83ef-5ff99965f904","system_id":"levelo_inurba_marseille","lat":43.31685,"lon":5.40472,"is_reserved":false,"is_disabled":false,"rental_uris":{"android":"levelo://app?vid=9af0c345-e2cf-4dd1-83ef-5ff99965f904","ios":"levelo://app?vid=9af0c345-e2cf-4dd1-83ef-5ff99965f904"},"vehicle_type_id":"4","last_reported":1726744088,"current_range_meters":30800,"station_id":"ce4bh012rcd13ifvqd00","pricing_plan_id":"cebpf4jnsgd1na2vs0mg"},{"bike_id":"9942a47b-d751-4701-8db6-fd3aae6ec433","system_id":"levelo_inurba_marseille","lat":43.27487,"lon":5.42459,"is_reserved":false,"is_disabled":false,"rental_uris":{"android":"levelo://app?vid=9942a47b-d751-4701-8db6-fd3aae6ec433","ios":"levelo://app?vid=9942a47b-d751-4701-8db6-fd3aae6ec433"},"vehicle_type_id":"4","last_reported":1726744088,"current_range_meters":30800,"station_id":"ce4bhn92rcd13ifvqgrg","pricing_plan_id":"cebpf4jnsgd1na2vs0mg"},{"bike_id":"e71d0d66-fb17-4f21-bad3-94b71466edd6","system_id":"levelo_inurba_marseille","lat":43.26035,"lon":5.37546,"is_reserved":false,"is_disabled":false,"rental_uris":{"android":"levelo://app?vid=e71d0d66-fb17-4f21-bad3-94b71466edd6","ios":"levelo://app?vid=e71d0d66-fb17-4f21-bad3-94b71466edd6"},"vehicle_type_id":"4","last_reported":1726744088,"current_range_meters":14800,"station_id":"ce4bhgh2rcd13ifvqfa0","pricing_plan_id":"cebpf4jnsgd1na2vs0mg"},{"bike_id":"3a643a13-d852-4164-b5f1-2086ca5ef5c3","system_id":"levelo_inurba_marseille","lat":43.30299,"lon":5.36965,"is_reserved":false,"is_disabled":false,"rental_uris":{"android":"levelo://app?vid=3a643a13-d852-4164-b5f1-2086ca5ef5c3","ios":"levelo://app?vid=3a643a13-d852-4164-b5f1-2086ca5ef5c3"},"vehicle_type_id":"4","last_reported":1726744088,"current_range_meters":14400,"station_id":"","pricing_plan_id":"cebpf4jnsgd1na2vs0mg"},{"bike_id":"9cab9964-c7cc-4edd-a9bf-50322e7acfb9","system_id":"levelo_inurba_marseille","lat":43.26685,"lon":5.38276,"is_reserved":false,"is_disabled":false,"rental_uris":{"android":"levelo://app?vid=9cab9964-c7cc-4edd-a9bf-50322e7acfb9","ios":"levelo://app?vid=9cab9964-c7cc-4edd-a9bf-50322e7acfb9"},"vehicle_type_id":"4","last_reported":1726744088,"current_range_meters":30400,"station_id":"ce4bhg92rcd13ifvqf90","pricing_plan_id":"cebpf4jnsgd1na2vs0mg"},{"bike_id":"2fde86ea-a911-41b2-abcc-185061bde900","system_id":"levelo_inurba_marseille","lat":43.31713,"lon":5.37747,"is_reserved":false,"is_disabled":false,"rental_uris":{"android":"levelo://app?vid=2fde86ea-a911-41b2-abcc-185061bde900","ios":"levelo://app?vid=2fde86ea-a911-41b2-abcc-185061bde900"},"vehicle_type_id":"4","last_reported":1726744088,"current_range_meters":24000,"station_id":"ce4bgth2rcd13ifvqch0","pricing_plan_id":"cebpf4jnsgd1na2vs0mg"},{"bike_id":"5ca8c1b2-faa5-4c39-a039-3fac2670d377","system_id":"levelo_inurba_marseille","lat":43.337444,"lon":5.374475,"is_reserved":false,"is_disabled":false,"rental_uris":{"android":"levelo://app?vid=5ca8c1b2-faa5-4c39-a039-3fac2670d377","ios":"levelo://app?vid=5ca8c1b2-faa5-4c39-a039-3fac2670d377"},"vehicle_type_id":"4","last_reported":1726744088,"current_range_meters":36400,"station_id":"ce4bgj92rcd13ifvqbd0","pricing_plan_id":"cebpf4jnsgd1na2vs0mg"},{"bike_id":"cf404fd7-ce83-477b-9c2b-1c2f8a0ebd8c","system_id":"levelo_inurba_marseille","lat":43.26029,"lon":5.37549,"is_reserved":false,"is_disabled":false,"rental_uris":{"android":"levelo://app?vid=cf404fd7-ce83-477b-9c2b-1c2f8a0ebd8c","ios":"levelo://app?vid=cf404fd7-ce83-477b-9c2b-1c2f8a0ebd8c"},"vehicle_type_id":"4","last_reported":1726744088,"current_range_meters":37600,"station_id":"ce4bhgh2rcd13ifvqfa0","pricing_plan_id":"cebpf4jnsgd1na2vs0mg"},{"bike_id":"b1f51ce9-8c30-4281-804b-4c3643a2a65b","system_id":"levelo_inurba_marseille","lat":43.30283,"lon":5.37697,"is_reserved":false,"is_disabled":false,"rental_uris":{"android":"levelo://app?vid=b1f51ce9-8c30-4281-804b-4c3643a2a65b","ios":"levelo://app?vid=b1f51ce9-8c30-4281-804b-4c3643a2a65b"},"vehicle_type_id":"4","last_reported":1726744088,"current_range_meters":39200,"station_id":"ce4bguh2rcd13ifvqcj0","pricing_plan_id":"cebpf4jnsgd1na2vs0mg"},{"bike_id":"a4bcef7f-d98d-416e-8231-0a3b7967fb2f","system_id":"levelo_inurba_marseille","lat":43.28352,"lon":5.41285,"is_reserved":false,"is_disabled":false,"rental_uris":{"android":"levelo://app?vid=a4bcef7f-d98d-416e-8231-0a3b7967fb2f","ios":"levelo://app?vid=a4bcef7f-d98d-416e-8231-0a3b7967fb2f"},"vehicle_type_id":"4","last_reported":1726744088,"current_range_meters":27200,"station_id":"","pricing_plan_id":"cebpf4jnsgd1na2vs0mg"},{"bike_id":"52f5a741-452f-4c9a-9f33-90011c0cb0ff","system_id":"levelo_inurba_marseille","lat":43.30138,"lon":5.38784,"is_reserved":false,"is_disabled":false,"rental_uris":{"android":"levelo://app?vid=52f5a741-452f-4c9a-9f33-90011c0cb0ff","ios":"levelo://app?vid=52f5a741-452f-4c9a-9f33-90011c0cb0ff"},"vehicle_type_id":"4","last_reported":1726744088,"current_range_meters":38800,"station_id":"ce4bghh2rcd13ifvqb60","pricing_plan_id":"cebpf4jnsgd1na2vs0mg"},{"bike_id":"a4b203bc-94d6-42c8-9f63-6e61e766dcaa","system_id":"levelo_inurba_marseille","lat":43.26191,"lon":5.37451,"is_reserved":false,"is_disabled":false,"rental_uris":{"android":"levelo://app?vid=a4b203bc-94d6-42c8-9f63-6e61e766dcaa","ios":"levelo://app?vid=a4b203bc-94d6-42c8-9f63-6e61e766dcaa"},"vehicle_type_id":"4","last_reported":1726744088,"current_range_meters":22400,"station_id":"ce4bhgp2rcd13ifvqfc0","pricing_plan_id":"cebpf4jnsgd1na2vs0mg"},{"bike_id":"a64550ec-ae35-46a0-9a9a-1bc3ed534448","system_id":"levelo_inurba_marseille","lat":43.30277,"lon":5.37709,"is_reserved":false,"is_disabled":false,"rental_uris":{"android":"levelo://app?vid=a64550ec-ae35-46a0-9a9a-1bc3ed534448","ios":"levelo://app?vid=a64550ec-ae35-46a0-9a9a-1bc3ed534448"},"vehicle_type_id":"4","last_reported":1726744088,"current_range_meters":32000,"station_id":"ce4bguh2rcd13ifvqcj0","pricing_plan_id":"cebpf4jnsgd1na2vs0mg"},{"bike_id":"daa51682-6cc5-446b-81cf-af7c282f827b","system_id":"levelo_inurba_marseille","lat":43.30273,"lon":5.37711,"is_reserved":false,"is_disabled":false,"rental_uris":{"android":"levelo://app?vid=daa51682-6cc5-446b-81cf-af7c282f827b","ios":"levelo://app?vid=daa51682-6cc5-446b-81cf-af7c282f827b"},"vehicle_type_id":"4","last_reported":1726744088,"current_range_meters":30000,"station_id":"ce4bguh2rcd13ifvqcj0","pricing_plan_id":"cebpf4jnsgd1na2vs0mg"},{"bike_id":"52d8f1b1-98b9-45fd-94a8-cbdea3111140","system_id":"levelo_inurba_marseille","lat":43.29974,"lon":5.37169,"is_reserved":false,"is_disabled":false,"rental_uris":{"android":"levelo://app?vid=52d8f1b1-98b9-45fd-94a8-cbdea3111140","ios":"levelo://app?vid=52d8f1b1-98b9-45fd-94a8-cbdea3111140"},"vehicle_type_id":"4","last_reported":1726744088,"current_range_meters":32800,"station_id":"ce4bgr92rcd13ifvqc7g","pricing_plan_id":"cebpf4jnsgd1na2vs0mg"},{"bike_id":"6b6c4fab-0bd1-4725-a1b7-466b87a727bc","system_id":"levelo_inurba_marseille","lat":43.3054,"lon":5.36545,"is_reserved":false,"is_disabled":false,"rental_uris":{"android":"levelo://app?vid=6b6c4fab-0bd1-4725-a1b7-466b87a727bc","ios":"levelo://app?vid=6b6c4fab-0bd1-4725-a1b7-466b87a727bc"},"vehicle_type_id":"4","last_reported":1726744088,"current_range_meters":25600,"station_id":"ce4bgs12rcd13ifvqcag","pricing_plan_id":"cebpf4jnsgd1na2vs0mg"},{"bike_id":"f5aef7be-d919-4420-8615-8bf43297f539","system_id":"levelo_inurba_marseille","lat":43.29003,"lon":5.35608,"is_reserved":false,"is_disabled":false,"rental_uris":{"android":"levelo://app?vid=f5aef7be-d919-4420-8615-8bf43297f539","ios":"levelo://app?vid=f5aef7be-d919-4420-8615-8bf43297f539"},"vehicle_type_id":"4","last_reported":1726744088,"current_range_meters":11200,"station_id":"ce4bhb92rcd13ifvqen0","pricing_plan_id":"cebpf4jnsgd1na2vs0mg"},{"bike_id":"4018871b-e691-4492-a5fe-496f0cda8b66","system_id":"levelo_inurba_marseille","lat":43.27492,"lon":5.42456,"is_reserved":false,"is_disabled":false,"rental_uris":{"android":"levelo://app?vid=4018871b-e691-4492-a5fe-496f0cda8b66","ios":"levelo://app?vid=4018871b-e691-4492-a5fe-496f0cda8b66"},"vehicle_type_id":"4","last_reported":1726744088,"current_range_meters":36000,"station_id":"ce4bhn92rcd13ifvqgrg","pricing_plan_id":"cebpf4jnsgd1na2vs0mg"},{"bike_id":"25af794e-3b92-4c46-a5ee-6f15a0e98673","system_id":"levelo_inurba_marseille","lat":43.28871,"lon":5.35396,"is_reserved":false,"is_disabled":false,"rental_uris":{"android":"levelo://app?vid=25af794e-3b92-4c46-a5ee-6f15a0e98673","ios":"levelo://app?vid=25af794e-3b92-4c46-a5ee-6f15a0e98673"},"vehicle_type_id":"4","last_reported":1726744088,"current_range_meters":22400,"station_id":"ce4bgih2rcd13ifvqba0","pricing_plan_id":"cebpf4jnsgd1na2vs0mg"},{"bike_id":"fa2e946d-01fe-4bb4-a2b0-55af60a0bcec","system_id":"levelo_inurba_marseille","lat":43.3372,"lon":5.39177,"is_reserved":false,"is_disabled":false,"rental_uris":{"android":"levelo://app?vid=fa2e946d-01fe-4bb4-a2b0-55af60a0bcec","ios":"levelo://app?vid=fa2e946d-01fe-4bb4-a2b0-55af60a0bcec"},"vehicle_type_id":"4","last_reported":1726744088,"current_range_meters":38400,"station_id":"ce4bhr92rcd13ifvqhsg","pricing_plan_id":"cebpf4jnsgd1na2vs0mg"},{"bike_id":"89544295-7e76-4dfd-b8aa-3be75a530eff","system_id":"levelo_inurba_marseille","lat":43.30143,"lon":5.39848,"is_reserved":false,"is_disabled":false,"rental_uris":{"android":"levelo://app?vid=89544295-7e76-4dfd-b8aa-3be75a530eff","ios":"levelo://app?vid=89544295-7e76-4dfd-b8aa-3be75a530eff"},"vehicle_type_id":"4","last_reported":1726744088,"current_range_meters":23200,"station_id":"ce4bh0h2rcd13ifvqd40","pricing_plan_id":"cebpf4jnsgd1na2vs0mg"},{"bike_id":"c56ac1a7-5e23-48da-a228-d21291be9cbc","system_id":"levelo_inurba_marseille","lat":43.27061,"lon":5.40257,"is_reserved":false,"is_disabled":false,"rental_uris":{"android":"levelo://app?vid=c56ac1a7-5e23-48da-a228-d21291be9cbc","ios":"levelo://app?vid=c56ac1a7-5e23-48da-a228-d21291be9cbc"},"vehicle_type_id":"4","last_reported":1726744088,"current_range_meters":36800,"station_id":"ce4bhk92rcd13ifvqgc0","pricing_plan_id":"cebpf4jnsgd1na2vs0mg"},{"bike_id":"ba4475d2-dc26-48c6-81d7-f2405336a72a","system_id":"levelo_inurba_marseille","lat":43.2695,"lon":5.38641,"is_reserved":false,"is_disabled":false,"rental_uris":{"android":"levelo://app?vid=ba4475d2-dc26-48c6-81d7-f2405336a72a","ios":"levelo://app?vid=ba4475d2-dc26-48c6-81d7-f2405336a72a"},"vehicle_type_id":"4","last_reported":1726744088,"current_range_meters":25600,"station_id":"ce4bhh92rcd13ifvqfh0","pricing_plan_id":"cebpf4jnsgd1na2vs0mg"},{"bike_id":"6f25435d-a9fe-4de6-8921-4f4064a1c012","system_id":"levelo_inurba_marseille","lat":43.25932,"lon":5.40913,"is_reserved":false,"is_disabled":false,"rental_uris":{"android":"levelo://app?vid=6f25435d-a9fe-4de6-8921-4f4064a1c012","ios":"levelo://app?vid=6f25435d-a9fe-4de6-8921-4f4064a1c012"},"vehicle_type_id":"4","last_reported":1726744088,"current_range_meters":23200,"station_id":"ce4bhm92rcd13ifvqglg","pricing_plan_id":"cebpf4jnsgd1na2vs0mg"},{"bike_id":"a8a54d34-1a50-45c0-9fc8-ef3e2e35eb08","system_id":"levelo_inurba_marseille","lat":43.30906,"lon":5.36852,"is_reserved":false,"is_disabled":false,"rental_uris":{"android":"levelo://app?vid=a8a54d34-1a50-45c0-9fc8-ef3e2e35eb08","ios":"levelo://app?vid=a8a54d34-1a50-45c0-9fc8-ef3e2e35eb08"},"vehicle_type_id":"4","last_reported":1726744088,"current_range_meters":14800,"station_id":"ce4bgn92rcd13ifvqbvg","pricing_plan_id":"cebpf4jnsgd1na2vs0mg"},{"bike_id":"2ec89fe4-38e2-4d21-9cce-40aa27d1901f","system_id":"levelo_inurba_marseille","lat":43.30306,"lon":5.39219,"is_reserved":false,"is_disabled":false,"rental_uris":{"android":"levelo://app?vid=2ec89fe4-38e2-4d21-9cce-40aa27d1901f","ios":"levelo://app?vid=2ec89fe4-38e2-4d21-9cce-40aa27d1901f"},"vehicle_type_id":"4","last_reported":1726744088,"current_range_meters":38000,"station_id":"ce4bgkh2rcd13ifvqbk0","pricing_plan_id":"cebpf4jnsgd1na2vs0mg"},{"bike_id":"328d45f9-980e-4811-97c0-47d761861509","system_id":"levelo_inurba_marseille","lat":43.29847,"lon":5.37836,"is_reserved":false,"is_disabled":false,"rental_uris":{"android":"levelo://app?vid=328d45f9-980e-4811-97c0-47d761861509","ios":"levelo://app?vid=328d45f9-980e-4811-97c0-47d761861509"},"vehicle_type_id":"4","last_reported":1726744088,"current_range_meters":6800,"station_id":"ce4bgkh2rcd13ifvqbl0","pricing_plan_id":"cebpf4jnsgd1na2vs0mg"},{"bike_id":"44f2d782-a4c7-48e1-91c9-7d25a440c7ce","system_id":"levelo_inurba_marseille","lat":43.25825,"lon":5.39436,"is_reserved":false,"is_disabled":false,"rental_uris":{"android":"levelo://app?vid=44f2d782-a4c7-48e1-91c9-7d25a440c7ce","ios":"levelo://app?vid=44f2d782-a4c7-48e1-91c9-7d25a440c7ce"},"vehicle_type_id":"4","last_reported":1726744088,"current_range_meters":35600,"station_id":"ce4bhip2rcd13ifvqft0","pricing_plan_id":"cebpf4jnsgd1na2vs0mg"},{"bike_id":"f7d6ebe9-9c58-4e75-93ea-44df4efa6a22","system_id":"levelo_inurba_marseille","lat":43.30544,"lon":5.36705,"is_reserved":false,"is_disabled":false,"rental_uris":{"android":"levelo://app?vid=f7d6ebe9-9c58-4e75-93ea-44df4efa6a22","ios":"levelo://app?vid=f7d6ebe9-9c58-4e75-93ea-44df4efa6a22"},"vehicle_type_id":"4","last_reported":1726744088,"current_range_meters":38400,"station_id":"ce4bgrp2rcd13ifvqc9g","pricing_plan_id":"cebpf4jnsgd1na2vs0mg"},{"bike_id":"01cd51da-b961-4bd0-adee-b192b3b29a9f","system_id":"levelo_inurba_marseille","lat":43.27492,"lon":5.42453,"is_reserved":false,"is_disabled":false,"rental_uris":{"android":"levelo://app?vid=01cd51da-b961-4bd0-adee-b192b3b29a9f","ios":"levelo://app?vid=01cd51da-b961-4bd0-adee-b192b3b29a9f"},"vehicle_type_id":"4","last_reported":1726744088,"current_range_meters":30800,"station_id":"ce4bhn92rcd13ifvqgrg","pricing_plan_id":"cebpf4jnsgd1na2vs0mg"},{"bike_id":"7f74fc9e-b0a4-43d0-8b3e-945d61ceba2b","system_id":"levelo_inurba_marseille","lat":43.33024,"lon":5.39035,"is_reserved":false,"is_disabled":false,"rental_uris":{"android":"levelo://app?vid=7f74fc9e-b0a4-43d0-8b3e-945d61ceba2b","ios":"levelo://app?vid=7f74fc9e-b0a4-43d0-8b3e-945d61ceba2b"},"vehicle_type_id":"4","last_reported":1726744088,"current_range_meters":30000,"station_id":"ce4bhr92rcd13ifvqhrg","pricing_plan_id":"cebpf4jnsgd1na2vs0mg"},{"bike_id":"49334463-27e3-4155-b0f7-52fbf71dd4f5","system_id":"levelo_inurba_marseille","lat":43.26681,"lon":5.38268,"is_reserved":false,"is_disabled":false,"rental_uris":{"android":"levelo://app?vid=49334463-27e3-4155-b0f7-52fbf71dd4f5","ios":"levelo://app?vid=49334463-27e3-4155-b0f7-52fbf71dd4f5"},"vehicle_type_id":"4","last_reported":1726744088,"current_range_meters":38400,"station_id":"ce4bhg92rcd13ifvqf90","pricing_plan_id":"cebpf4jnsgd1na2vs0mg"},{"bike_id":"8f101b87-80df-4c19-bdb1-6c85190743ce","system_id":"levelo_inurba_marseille","lat":43.30461,"lon":5.37909,"is_reserved":false,"is_disabled":false,"rental_uris":{"android":"levelo://app?vid=8f101b87-80df-4c19-bdb1-6c85190743ce","ios":"levelo://app?vid=8f101b87-80df-4c19-bdb1-6c85190743ce"},"vehicle_type_id":"4","last_reported":1726744088,"current_range_meters":38000,"station_id":"ce4bgup2rcd13ifvqcn0","pricing_plan_id":"cebpf4jnsgd1na2vs0mg"},{"bike_id":"fa690805-233a-4a70-a9f3-33f1b67cdb1f","system_id":"levelo_inurba_marseille","lat":43.3228,"lon":5.38265,"is_reserved":false,"is_disabled":false,"rental_uris":{"android":"levelo://app?vid=fa690805-233a-4a70-a9f3-33f1b67cdb1f","ios":"levelo://app?vid=fa690805-233a-4a70-a9f3-33f1b67cdb1f"},"vehicle_type_id":"4","last_reported":1726744088,"current_range_meters":24400,"station_id":"ce4bhr12rcd13ifvqhqg","pricing_plan_id":"cebpf4jnsgd1na2vs0mg"},{"bike_id":"71a86551-9fba-4951-ba93-626be45a6760","system_id":"levelo_inurba_marseille","lat":43.25934,"lon":5.40912,"is_reserved":false,"is_disabled":false,"rental_uris":{"android":"levelo://app?vid=71a86551-9fba-4951-ba93-626be45a6760","ios":"levelo://app?vid=71a86551-9fba-4951-ba93-626be45a6760"},"vehicle_type_id":"4","last_reported":1726744088,"current_range_meters":22000,"station_id":"ce4bhm92rcd13ifvqglg","pricing_plan_id":"cebpf4jnsgd1na2vs0mg"},{"bike_id":"87d9428c-24ce-424a-a997-cbbe984f2b43","system_id":"levelo_inurba_marseille","lat":43.30134,"lon":5.37425,"is_reserved":false,"is_disabled":false,"rental_uris":{"android":"levelo://app?vid=87d9428c-24ce-424a-a997-cbbe984f2b43","ios":"levelo://app?vid=87d9428c-24ce-424a-a997-cbbe984f2b43"},"vehicle_type_id":"4","last_reported":1726744088,"current_range_meters":38800,"station_id":"ce4bgs92rcd13ifvqcc0","pricing_plan_id":"cebpf4jnsgd1na2vs0mg"},{"bike_id":"215a84f1-8640-4c33-ac11-24ef8061fd8f","system_id":"levelo_inurba_marseille","lat":43.27485,"lon":5.42464,"is_reserved":false,"is_disabled":false,"rental_uris":{"android":"levelo://app?vid=215a84f1-8640-4c33-ac11-24ef8061fd8f","ios":"levelo://app?vid=215a84f1-8640-4c33-ac11-24ef8061fd8f"},"vehicle_type_id":"4","last_reported":1726744088,"current_range_meters":26000,"station_id":"ce4bhn92rcd13ifvqgrg","pricing_plan_id":"cebpf4jnsgd1na2vs0mg"},{"bike_id":"b2763354-ec6c-4733-8de6-6c4493759ae9","system_id":"levelo_inurba_marseille","lat":43.2907,"lon":5.40181,"is_reserved":false,"is_disabled":false,"rental_uris":{"android":"levelo://app?vid=b2763354-ec6c-4733-8de6-6c4493759ae9","ios":"levelo://app?vid=b2763354-ec6c-4733-8de6-6c4493759ae9"},"vehicle_type_id":"4","last_reported":1726744088,"current_range_meters":26800,"station_id":"","pricing_plan_id":"cebpf4jnsgd1na2vs0mg"},{"bike_id":"190afb13-fc25-42e3-ba7b-e4fb430dc103","system_id":"levelo_inurba_marseille","lat":43.27492,"lon":5.42448,"is_reserved":false,"is_disabled":false,"rental_uris":{"android":"levelo://app?vid=190afb13-fc25-42e3-ba7b-e4fb430dc103","ios":"levelo://app?vid=190afb13-fc25-42e3-ba7b-e4fb430dc103"},"vehicle_type_id":"4","last_reported":1726744088,"current_range_meters":19200,"station_id":"ce4bhn92rcd13ifvqgrg","pricing_plan_id":"cebpf4jnsgd1na2vs0mg"},{"bike_id":"46107b55-2116-45c0-b9c2-8e13dc03899b","system_id":"levelo_inurba_marseille","lat":43.23065,"lon":5.35491,"is_reserved":false,"is_disabled":false,"rental_uris":{"android":"levelo://app?vid=46107b55-2116-45c0-b9c2-8e13dc03899b","ios":"levelo://app?vid=46107b55-2116-45c0-b9c2-8e13dc03899b"},"vehicle_type_id":"4","last_reported":1726744088,"current_range_meters":25200,"station_id":"cpo3342slgdg3j2ifvpg","pricing_plan_id":"cebpf4jnsgd1na2vs0mg"},{"bike_id":"6b315238-eb0d-48d9-b227-de2819b1388f","system_id":"levelo_inurba_marseille","lat":43.26812,"lon":5.40265,"is_reserved":false,"is_disabled":false,"rental_uris":{"android":"levelo://app?vid=6b315238-eb0d-48d9-b227-de2819b1388f","ios":"levelo://app?vid=6b315238-eb0d-48d9-b227-de2819b1388f"},"vehicle_type_id":"4","last_reported":1726744088,"current_range_meters":38800,"station_id":"ce501612rcd8frsf0b60","pricing_plan_id":"cebpf4jnsgd1na2vs0mg"},{"bike_id":"63c00f5d-ce16-4c58-bed1-9c608bbc4d2a","system_id":"levelo_inurba_marseille","lat":43.30143,"lon":5.37403,"is_reserved":false,"is_disabled":false,"rental_uris":{"android":"levelo://app?vid=63c00f5d-ce16-4c58-bed1-9c608bbc4d2a","ios":"levelo://app?vid=63c00f5d-ce16-4c58-bed1-9c608bbc4d2a"},"vehicle_type_id":"4","last_reported":1726744088,"current_range_meters":33200,"station_id":"ce4bgs92rcd13ifvqcc0","pricing_plan_id":"cebpf4jnsgd1na2vs0mg"},