{"last_updated":1781169834,"ttl":60,"version":"2.2","data":{"bikes":[{"bike_id":"ec12d144-24c8-4071-abf6-197e520eae96","system_id":"levelo_inurba_marseille","lat":43.337444,"lon":5.374475,"is_reserved":false,"is_disabled":false,"rental_uris":{"android":"levelo://app?vid=ec12d144-24c8-4071-abf6-197e520eae96","ios":"levelo://app?vid=ec12d144-24c8-4071-abf6-197e520eae96"},"vehicle_type_id":"4","last_reported":1781169836,"current_range_meters":0,"station_id":"","pricing_plan_id":"cebpf4jnsgd1na2vs0mg"},{"bike_id":"e97ad386-58d9-46a5-b4fe-e47bdfacb483","system_id":"levelo_inurba_marseille","lat":43.27072,"lon":5.42265,"is_reserved":false,"is_disabled":false,"rental_uris":{"android":"levelo://app?vid=e97ad386-58d9-46a5-b4fe-e47bdfacb483","ios":"levelo://app?vid=e97ad386-58d9-46a5-b4fe-e47bdfacb483"},"vehicle_type_id":"4","last_reported":1781169836,"current_range_meters":2800,"station_id":"ce4bhk92rcd13ifvqgb0","pricing_plan_id":"cebpf4jnsgd1na2vs0mg"},{"bike_id":"1dc2eb10-0c51-4525-ba6b-2819a0b2f48f","system_id":"levelo_inurba_marseille","lat":43.32358,"lon":5.36748,"is_reserved":false,"is_disabled":false,"rental_uris":{"android":"levelo://app?vid=1dc2eb10-0c51-4525-ba6b-2819a0b2f48f","ios":"levelo://app?vid=1dc2eb10-0c51-4525-ba6b-2819a0b2f48f"},"vehicle_type_id":"4","last_reported":1781169836,"current_range_meters":2800,"station_id":"ce4bhsh2rcd13ifvqi2g","pricing_plan_id":"cebpf4jnsgd1na2vs0mg"},{"bike_id":"f22c603f-8391-4e00-992b-2b16740b6958","system_id":"levelo_inurba_marseille","lat":43.26569,"lon":5.39024,"is_reserved":false,"is_disabled":false,"rental_uris":{"android":"levelo://app?vid=f22c603f-8391-4e00-992b-2b16740b6958","ios":"levelo://app?vid=f22c603f-8391-4e00-992b-2b16740b6958"},"vehicle_type_id":"4","last_reported":1781169836,"current_range_meters":2800,"station_id":"ce4bhe12rcd13ifvqf30","pricing_plan_id":"cebpf4jnsgd1na2vs0mg"},{"bike_id":"2ea5e2f6-987d-40f7-878d-e553d501b666","system_id":"levelo_inurba_marseille","lat":43.30861,"lon":5.3827,"is_reserved":false,"is_disabled":false,"rental_uris":{"android":"levelo://app?vid=2ea5e2f6-987d-40f7-878d-e553d501b666","ios":"levelo://app?vid=2ea5e2f6-987d-40f7-878d-e553d501b666"},"vehicle_type_id":"4","last_reported":1781169836,"current_range_meters":2800,"station_id":"","pricing_plan_id":"cebpf4jnsgd1na2vs0mg"},{"bike_id":"be337c42-c63e-48a9-ac8a-e6d41d863eb7","system_id":"levelo_inurba_marseille","lat":43.30698,"lon":5.38392,"is_reserved":false,"is_disabled":false,"rental_uris":{"android":"levelo://app?vid=be337c42-c63e-48a9-ac8a-e6d41d863eb7","ios":"levelo://app?vid=be337c42-c63e-48a9-ac8a-e6d41d863eb7"},"vehicle_type_id":"4","last_reported":1781169836,"current_range_meters":2800,"station_id":"","pricing_plan_id":"cebpf4jnsgd1na2vs0mg"},{"bike_id":"ef7c0ad7-d410-4165-b98d-0dfc9a5aa0dd","system_id":"levelo_inurba_marseille","lat":43.32553,"lon":5.41161,"is_reserved":false,"is_disabled":false,"rental_uris":{"android":"levelo://app?vid=ef7c0ad7-d410-4165-b98d-0dfc9a5aa0dd","ios":"levelo://app?vid=ef7c0ad7-d410-4165-b98d-0dfc9a5aa0dd"},"vehicle_type_id":"4","last_reported":1781169836,"current_range_meters":2800,"station_id":"","pricing_plan_id":"cebpf4jnsgd1na2vs0mg"},{"bike_id":"f8a31b76-8e0f-415a-8bb2-7292db18e3c4","system_id":"levelo_inurba_marseille","lat":43.28471,"lon":5.39116,"is_reserved":false,"is_disabled":false,"rental_uris":{"android":"levelo://app?vid=f8a31b76-8e0f-415a-8bb2-7292db18e3c4","ios":"levelo://app?vid=f8a31b76-8e0f-415a-8bb2-7292db18e3c4"},"vehicle_type_id":"4","last_reported":1781169836,"current_range_meters":2800,"station_id":"","pricing_plan_id":"cebpf4jnsgd1na2vs0mg"},{"bike_id":"a1e31850-ef22-4bb8-933d-3a515b05116f","system_id":"levelo_inurba_marseille","lat":43.31143,"lon":5.37781,"is_reserved":false,"is_disabled":true,"rental_uris":{"android":"levelo://app?vid=a1e31850-ef22-4bb8-933d-3a515b05116f","ios":"levelo://app?vid=a1e31850-ef22-4bb8-933d-3a515b05116f"},"vehicle_type_id":"4","last_reported":1781169836,"current_range_meters":2800,"station_id":"ce4bgt92rcd13ifvqcg0","pricing_plan_id":"cebpf4jnsgd1na2vs0mg"},{"bike_id":"8889112d-9a30-4014-9764-5c0a53d7ca46","system_id":"levelo_inurba_marseille","lat":43.30625,"lon":5.43009,"is_reserved":false,"is_disabled":false,"rental_uris":{"android":"levelo://app?vid=8889112d-9a30-4014-9764-5c0a53d7ca46","ios":"levelo://app?vid=8889112d-9a30-4014-9764-5c0a53d7ca46"},"vehicle_type_id":"4","last_reported":1781169836,"current_range_meters":2800,"station_id":"","pricing_plan_id":"cebpf4jnsgd1na2vs0mg"},{"bike_id":"de9d9135-b13b-46f8-bef8-05aa0affef31","system_id":"levelo_inurba_marseille","lat":43.23162,"lon":5.4369,"is_reserved":false,"is_disabled":false,"rental_uris":{"android":"levelo://app?vid=de9d9135-b13b-46f8-bef8-05aa0affef31","ios":"levelo://app?vid=de9d9135-b13b-46f8-bef8-05aa0affef31"},"vehicle_type_id":"4","last_reported":1781169836,"current_range_meters":2800,"station_id":"ce4bhmp2rcd13ifvqgog","pricing_plan_id":"cebpf4jnsgd1na2vs0mg"},{"bike_id":"f84d8d24-ab91-4db9-93aa-6230dd0589f2","system_id":"levelo_inurba_marseille","lat":43.28612,"lon":5.35095,"is_reserved":false,"is_disabled":true,"rental_uris":{"android":"levelo://app?vid=f84d8d24-ab91-4db9-93aa-6230dd0589f2","ios":"levelo://app?vid=f84d8d24-ab91-4db9-93aa-6230dd0589f2"},"vehicle_type_id":"4","last_reported":1781169836,"current_range_meters":2800,"station_id":"ce4bhch2rcd13ifvqeug","pricing_plan_id":"cebpf4jnsgd1na2vs0mg"},{"bike_id":"1140d017-c3b9-43dd-ba73-6e5a45e2fcc8","system_id":"levelo_inurba_marseille","lat":43.31883,"lon":5.38205,"is_reserved":false,"is_disabled":false,"rental_uris":{"android":"levelo://app?vid=1140d017-c3b9-43dd-ba73-6e5a45e2fcc8","ios":"levelo://app?vid=1140d017-c3b9-43dd-ba73-6e5a45e2fcc8"},"vehicle_type_id":"4","last_reported":1781169836,"current_range_meters":2800,"station_id":"","pricing_plan_id":"cebpf4jnsgd1na2vs0mg"},{"bike_id":"732fedb5-5c33-4a5d-9e2c-0d072fb17891","system_id":"levelo_inurba_marseille","lat":43.28945,"lon":5.39616,"is_reserved":false,"is_disabled":false,"rental_uris":{"android":"levelo://app?vid=732fedb5-5c33-4a5d-9e2c-0d072fb17891","ios":"levelo://app?vid=732fedb5-5c33-4a5d-9e2c-0d072fb17891"},"vehicle_type_id":"4","last_reported":1781169836,"current_range_meters":2800,"station_id":"ce4bh3h2rcd13ifvqdn0","pricing_plan_id":"cebpf4jnsgd1na2vs0mg"},{"bike_id":"81a82297-bdd1-43ff-9c66-f58529d43fc0","system_id":"levelo_inurba_marseille","lat":43.29538,"lon":5.42277,"is_reserved":false,"is_disabled":false,"rental_uris":{"android":"levelo://app?vid=81a82297-bdd1-43ff-9c66-f58529d43fc0","ios":"levelo://app?vid=81a82297-bdd1-43ff-9c66-f58529d43fc0"},"vehicle_type_id":"4","last_reported":1781169836,"current_range_meters":2800,"station_id":"ce4bhph2rcd13ifvqhdg","pricing_plan_id":"cebpf4jnsgd1na2vs0mg"},{"bike_id":"61591932-3385-48e1-bb0c-5d468c627238","system_id":"levelo_inurba_marseille","lat":43.264943,"lon":5.395496,"is_reserved":false,"is_disabled":false,"rental_uris":{"android":"levelo://app?vid=61591932-3385-48e1-bb0c-5d468c627238","ios":"levelo://app?vid=61591932-3385-48e1-bb0c-5d468c627238"},"vehicle_type_id":"4","last_reported":1781169836,"current_range_meters":2800,"station_id":"ce4bhi12rcd13ifvqfq0","pricing_plan_id":"cebpf4jnsgd1na2vs0mg"},{"bike_id":"8bc3129f-5a06-4c33-9807-ad2d49260525","system_id":"levelo_inurba_marseille","lat":43.30538,"lon":5.36688,"is_reserved":false,"is_disabled":false,"rental_uris":{"android":"levelo://app?vid=8bc3129f-5a06-4c33-9807-ad2d49260525","ios":"levelo://app?vid=8bc3129f-5a06-4c33-9807-ad2d49260525"},"vehicle_type_id":"4","last_reported":1781169836,"current_range_meters":3200,"station_id":"ce4bgrp2rcd13ifvqc9g","pricing_plan_id":"cebpf4jnsgd1na2vs0mg"},{"bike_id":"3e8e5996-dbc6-4c7e-aa74-2e0c8a024313","system_id":"levelo_inurba_marseille","lat":43.33171,"lon":5.37679,"is_reserved":false,"is_disabled":false,"rental_uris":{"android":"levelo://app?vid=3e8e5996-dbc6-4c7e-aa74-2e0c8a024313","ios":"levelo://app?vid=3e8e5996-dbc6-4c7e-aa74-2e0c8a024313"},"vehicle_type_id":"4","last_reported":1781169836,"current_range_meters":3200,"station_id":"st_d46cu089ee8s73dldbu0","pricing_plan_id":"cebpf4jnsgd1na2vs0mg"},{"bike_id":"5f45f485-764a-4056-bec3-0e2b75f6d60f","system_id":"levelo_inurba_marseille","lat":43.30027,"lon":5.37686,"is_reserved":false,"is_disabled":false,"rental_uris":{"android":"levelo://app?vid=5f45f485-764a-4056-bec3-0e2b75f6d60f","ios":"levelo://app?vid=5f45f485-764a-4056-bec3-0e2b75f6d60f"},"vehicle_type_id":"4","last_reported":1781169836,"current_range_meters":3200,"station_id":"","pricing_plan_id":"cebpf4jnsgd1na2vs0mg"},{"bike_id":"2703b7fb-a199-40c4-973b-9bbda4ce16fc","system_id":"levelo_inurba_marseille","lat":43.28126,"lon":5.40117,"is_reserved":false,"is_disabled":false,"rental_uris":{"android":"levelo://app?vid=2703b7fb-a199-40c4-973b-9bbda4ce16fc","ios":"levelo://app?vid=2703b7fb-a199-40c4-973b-9bbda4ce16fc"},"vehicle_type_id":"4","last_reported":1781169836,"current_range_meters":3200,"station_id":"","pricing_plan_id":"cebpf4jnsgd1na2vs0mg"},{"bike_id":"33e92ba1-9e06-4ed6-a5bd-a5408ca2720c","system_id":"levelo_inurba_marseille","lat":43.25002,"lon":5.38925,"is_reserved":false,"is_disabled":false,"rental_uris":{"android":"levelo://app?vid=33e92ba1-9e06-4ed6-a5bd-a5408ca2720c","ios":"levelo://app?vid=33e92ba1-9e06-4ed6-a5bd-a5408ca2720c"},"vehicle_type_id":"4","last_reported":1781169836,"current_range_meters":3200,"station_id":"ce4bhgp2rcd13ifvqfd0","pricing_plan_id":"cebpf4jnsgd1na2vs0mg"},{"bike_id":"95419af6-d198-447e-9eb8-9fff749eb92a","system_id":"levelo_inurba_marseille","lat":43.32106,"lon":5.36773,"is_reserved":false,"is_disabled":false,"rental_uris":{"android":"levelo://app?vid=95419af6-d198-447e-9eb8-9fff749eb92a","ios":"levelo://app?vid=95419af6-d198-447e-9eb8-9fff749eb92a"},"vehicle_type_id":"4","last_reported":1781169836,"current_range_meters":3200,"station_id":"ce4bhrh2rcd13ifvqhug","pricing_plan_id":"cebpf4jnsgd1na2vs0mg"},{"bike_id":"76d09565-aa02-41fd-b414-550f4f29ecb5","system_id":"levelo_inurba_marseille","lat":43.28334,"lon":5.36497,"is_reserved":false,"is_disabled":false,"rental_uris":{"android":"levelo://app?vid=76d09565-aa02-41fd-b414-550f4f29ecb5","ios":"levelo://app?vid=76d09565-aa02-41fd-b414-550f4f29ecb5"},"vehicle_type_id":"4","last_reported":1781169836,"current_range_meters":3200,"station_id":"","pricing_plan_id":"cebpf4jnsgd1na2vs0mg"},{"bike_id":"45ce06fe-30a1-49bb-b8bf-eb3d1814617f","system_id":"levelo_inurba_marseille","lat":43.3301,"lon":5.39038,"is_reserved":false,"is_disabled":false,"rental_uris":{"android":"levelo://app?vid=45ce06fe-30a1-49bb-b8bf-eb3d1814617f","ios":"levelo://app?vid=45ce06fe-30a1-49bb-b8bf-eb3d1814617f"},"vehicle_type_id":"4","last_reported":1781169836,"current_range_meters":3200,"station_id":"ce4bhr92rcd13ifvqhrg","pricing_plan_id":"cebpf4jnsgd1na2vs0mg"},{"bike_id":"abb78f7f-a1f1-4efa-ae79-de495c6faf89","system_id":"levelo_inurba_marseille","lat":43.29717,"lon":5.38964,"is_reserved":false,"is_disabled":false,"rental_uris":{"android":"levelo://app?vid=abb78f7f-a1f1-4efa-ae79-de495c6faf89","ios":"levelo://app?vid=abb78f7f-a1f1-4efa-ae79-de495c6faf89"},"vehicle_type_id":"4","last_reported":1781169836,"current_range_meters":3200,"station_id":"","pricing_plan_id":"cebpf4jnsgd1na2vs0mg"},{"bike_id":"83783ea4-5f99-4109-9289-7f429cce3820","system_id":"levelo_inurba_marseille","lat":43.2848,"lon":5.48389,"is_reserved":false,"is_disabled":false,"rental_uris":{"android":"levelo://app?vid=83783ea4-5f99-4109-9289-7f429cce3820","ios":"levelo://app?vid=83783ea4-5f99-4109-9289-7f429cce3820"},"vehicle_type_id":"4","last_reported":1781169836,"current_range_meters":3200,"station_id":"st_d3svhcjqgbts73a3dn0g","pricing_plan_id":"cebpf4jnsgd1na2vs0mg"},{"bike_id":"e598b8ea-d46e-4936-8117-e87b9fbc734d","system_id":"levelo_inurba_marseille","lat":43.24466,"lon":5.42529,"is_reserved":false,"is_disabled":false,"rental_uris":{"android":"levelo://app?vid=e598b8ea-d46e-4936-8117-e87b9fbc734d","ios":"levelo://app?vid=e598b8ea-d46e-4936-8117-e87b9fbc734d"},"vehicle_type_id":"4","last_reported":1781169836,"current_range_meters":3200,"station_id":"st_d4a3vfp97mjs738cd8kg","pricing_plan_id":"cebpf4jnsgd1na2vs0mg"},{"bike_id":"e3f195c1-68de-441e-ba78-12bea24338a5","system_id":"levelo_inurba_marseille","lat":43.25644,"lon":5.41851,"is_reserved":false,"is_disabled":false,"rental_uris":{"android":"levelo://app?vid=e3f195c1-68de-441e-ba78-12bea24338a5","ios":"levelo://app?vid=e3f195c1-68de-441e-ba78-12bea24338a5"},"vehicle_type_id":"4","last_reported":1781169836,"current_range_meters":3200,"station_id":"","pricing_plan_id":"cebpf4jnsgd1na2vs0mg"},{"bike_id":"a8cff10f-925f-47d3-8d2a-4913d17e9425","system_id":"levelo_inurba_marseille","lat":43.30155,"lon":5.4005,"is_reserved":false,"is_disabled":true,"rental_uris":{"android":"levelo://app?vid=a8cff10f-925f-47d3-8d2a-4913d17e9425","ios":"levelo://app?vid=a8cff10f-925f-47d3-8d2a-4913d17e9425"},"vehicle_type_id":"4","last_reported":1781169836,"current_range_meters":3600,"station_id":"","pricing_plan_id":"cebpf4jnsgd1na2vs0mg"},{"bike_id":"32902832-9228-4afa-89fe-76729ec8218d","system_id":"levelo_inurba_marseille","lat":43.31453,"lon":5.37359,"is_reserved":false,"is_disabled":true,"rental_uris":{"android":"levelo://app?vid=32902832-9228-4afa-89fe-76729ec8218d","ios":"levelo://app?vid=32902832-9228-4afa-89fe-76729ec8218d"},"vehicle_type_id":"4","last_reported":1781169836,"current_range_meters":3600,"station_id":"","pricing_plan_id":"cebpf4jnsgd1na2vs0mg"},{"bike_id":"951ce970-b414-4ee7-9eae-b1a351dd20cf","system_id":"levelo_inurba_marseille","lat":43.28478,"lon":5.48401,"is_reserved":false,"is_disabled":false,"rental_uris":{"android":"levelo://app?vid=951ce970-b414-4ee7-9eae-b1a351dd20cf","ios":"levelo://app?vid=951ce970-b414-4ee7-9eae-b1a351dd20cf"},"vehicle_type_id":"4","last_reported":1781169836,"current_range_meters":3600,"station_id":"st_d3svhcjqgbts73a3dn0g","pricing_plan_id":"cebpf4jnsgd1na2vs0mg"},{"bike_id":"1ce92a12-47ec-401a-9340-bf1dc91c5036","system_id":"levelo_inurba_marseille","lat":43.27381,"lon":5.3623,"is_reserved":false,"is_disabled":false,"rental_uris":{"android":"levelo://app?vid=1ce92a12-47ec-401a-9340-bf1dc91c5036","ios":"levelo://app?vid=1ce92a12-47ec-401a-9340-bf1dc91c5036"},"vehicle_type_id":"4","last_reported":1781169836,"current_range_meters":3600,"station_id":"ce4bhbh2rcd13ifvqeo0","pricing_plan_id":"cebpf4jnsgd1na2vs0mg"},{"bike_id":"e1727bda-1e5d-48d1-bf61-2cffa26ec8c0","system_id":"levelo_inurba_marseille","lat":43.28468,"lon":5.35885,"is_reserved":false,"is_disabled":true,"rental_uris":{"android":"levelo://app?vid=e1727bda-1e5d-48d1-bf61-2cffa26ec8c0","ios":"levelo://app?vid=e1727bda-1e5d-48d1-bf61-2cffa26ec8c0"},"vehicle_type_id":"4","last_reported":1781169836,"current_range_meters":3600,"station_id":"ce4bhah2rcd13ifvqei0","pricing_plan_id":"cebpf4jnsgd1na2vs0mg"},{"bike_id":"c9b2220e-f3e4-4c7a-80f9-cc88d841a349","system_id":"levelo_inurba_marseille","lat":43.33155,"lon":5.35491,"is_reserved":false,"is_disabled":false,"rental_uris":{"android":"levelo://app?vid=c9b2220e-f3e4-4c7a-80f9-cc88d841a349","ios":"levelo://app?vid=c9b2220e-f3e4-4c7a-80f9-cc88d841a349"},"vehicle_type_id":"4","last_reported":1781169836,"current_range_meters":3600,"station_id":"","pricing_plan_id":"cebpf4jnsgd1na2vs0mg"},{"bike_id":"6d1fe721-eceb-4809-a5fc-55d60977f503","system_id":"levelo_inurba_marseille","lat":43.286164,"lon":5.351068,"is_reserved":false,"is_disabled":true,"rental_uris":{"android":"levelo://app?vid=6d1fe721-eceb-4809-a5fc-55d60977f503","ios":"levelo://app?vid=6d1fe721-eceb-4809-a5fc-55d60977f503"},"vehicle_type_id":"4","last_reported":1781169836,"current_range_meters":3600,"station_id":"ce4bhch2rcd13ifvqeug","pricing_plan_id":"cebpf4jnsgd1na2vs0mg"},{"bike_id":"6a762d45-5697-4f8d-9f98-ba17c2abbb10","system_id":"levelo_inurba_marseille","lat":43.24664,"lon":5.381777,"is_reserved":false,"is_disabled":false,"rental_uris":{"android":"levelo://app?vid=6a762d45-5697-4f8d-9f98-ba17c2abbb10","ios":"levelo://app?vid=6a762d45-5697-4f8d-9f98-ba17c2abbb10"},"vehicle_type_id":"4","last_reported":1781169836,"current_range_meters":3600,"station_id":"ce4bhih2rcd13ifvqfr0","pricing_plan_id":"cebpf4jnsgd1na2vs0mg"},{"bike_id":"ee90cbc8-cf86-44b0-badd-4016027f9333","system_id":"levelo_inurba_marseille","lat":43.33723,"lon":5.39206,"is_reserved":false,"is_disabled":false,"rental_uris":{"android":"levelo://app?vid=ee90cbc8-cf86-44b0-badd-4016027f9333","ios":"levelo://app?vid=ee90cbc8-cf86-44b0-badd-4016027f9333"},"vehicle_type_id":"4","last_reported":1781169836,"current_range_meters":3600,"station_id":"ce4bhr92rcd13ifvqhsg","pricing_plan_id":"cebpf4jnsgd1na2vs0mg"},{"bike_id":"4028e588-c2bc-496e-a911-ea895c92cb29","system_id":"levelo_inurba_marseille","lat":43.24468,"lon":5.42535,"is_reserved":false,"is_disabled":false,"rental_uris":{"android":"levelo://app?vid=4028e588-c2bc-496e-a911-ea895c92cb29","ios":"levelo://app?vid=4028e588-c2bc-496e-a911-ea895c92cb29"},"vehicle_type_id":"4","last_reported":1781169836,"current_range_meters":3600,"station_id":"st_d4a3vfp97mjs738cd8kg","pricing_plan_id":"cebpf4jnsgd1na2vs0mg"},{"bike_id":"df10c025-f144-4346-a678-3c2c70800370","system_id":"levelo_inurba_marseille","lat":43.27204,"lon":5.40968,"is_reserved":false,"is_disabled":false,"rental_uris":{"android":"levelo://app?vid=df10c025-f144-4346-a678-3c2c70800370","ios":"levelo://app?vid=df10c025-f144-4346-a678-3c2c70800370"},"vehicle_type_id":"4","last_reported":1781169836,"current_range_meters":4000,"station_id":"ce4bhl12rcd13ifvqgf0","pricing_plan_id":"cebpf4jnsgd1na2vs0mg"},{"bike_id":"2e07d43e-1d15-4f78-9c56-e234cec1a6e1","system_id":"levelo_inurba_marseille","lat":43.29605,"lon":5.38091,"is_reserved":false,"is_disabled":true,"rental_uris":{"android":"levelo://app?vid=2e07d43e-1d15-4f78-9c56-e234cec1a6e1","ios":"levelo://app?vid=2e07d43e-1d15-4f78-9c56-e234cec1a6e1"},"vehicle_type_id":"4","last_reported":1781169836,"current_range_meters":4000,"station_id":"ce4bgl12rcd13ifvqbo0","pricing_plan_id":"cebpf4jnsgd1na2vs0mg"},{"bike_id":"c46384f4-53c8-4f51-8b80-c45773b69697","system_id":"levelo_inurba_marseille","lat":43.30153,"lon":5.37675,"is_reserved":false,"is_disabled":false,"rental_uris":{"android":"levelo://app?vid=c46384f4-53c8-4f51-8b80-c45773b69697","ios":"levelo://app?vid=c46384f4-53c8-4f51-8b80-c45773b69697"},"vehicle_type_id":"4","last_reported":1781169836,"current_range_meters":4000,"station_id":"","pricing_plan_id":"cebpf4jnsgd1na2vs0mg"},{"bike_id":"2a8ee5a0-6852-44b0-a6e2-f4e4bf4a3fe5","system_id":"levelo_inurba_marseille","lat":43.25503,"lon":5.38917,"is_reserved":false,"is_disabled":true,"rental_uris":{"android":"levelo://app?vid=2a8ee5a0-6852-44b0-a6e2-f4e4bf4a3fe5","ios":"levelo://app?vid=2a8ee5a0-6852-44b0-a6e2-f4e4bf4a3fe5"},"vehicle_type_id":"4","last_reported":1781169836,"current_range_meters":4000,"station_id":"","pricing_plan_id":"cebpf4jnsgd1na2vs0mg"},{"bike_id":"8d4e535f-296f-4f44-9ac8-c605164f9f73","system_id":"levelo_inurba_marseille","lat":43.284125,"lon":5.349791,"is_reserved":false,"is_disabled":false,"rental_uris":{"android":"levelo://app?vid=8d4e535f-296f-4f44-9ac8-c605164f9f73","ios":"levelo://app?vid=8d4e535f-296f-4f44-9ac8-c605164f9f73"},"vehicle_type_id":"4","last_reported":1781169836,"current_range_meters":4000,"station_id":"ce4bhbh2rcd13ifvqepg","pricing_plan_id":"cebpf4jnsgd1na2vs0mg"},{"bike_id":"a17b4123-6c9a-4347-8911-3009c9c6c2bf","system_id":"levelo_inurba_marseille","lat":43.30902,"lon":5.36849,"is_reserved":false,"is_disabled":true,"rental_uris":{"android":"levelo://app?vid=a17b4123-6c9a-4347-8911-3009c9c6c2bf","ios":"levelo://app?vid=a17b4123-6c9a-4347-8911-3009c9c6c2bf"},"vehicle_type_id":"4","last_reported":1781169836,"current_range_meters":4000,"station_id":"ce4bgn92rcd13ifvqbvg","pricing_plan_id":"cebpf4jnsgd1na2vs0mg"},{"bike_id":"ed395267-d9fc-4dd7-ac4a-db71bc4d29c7","system_id":"levelo_inurba_marseille","lat":43.2256,"lon":5.3484,"is_reserved":false,"is_disabled":false,"rental_uris":{"android":"levelo://app?vid=ed395267-d9fc-4dd7-ac4a-db71bc4d29c7","ios":"levelo://app?vid=ed395267-d9fc-4dd7-ac4a-db71bc4d29c7"},"vehicle_type_id":"4","last_reported":1781169836,"current_range_meters":4000,"station_id":"st_cvj5dfep6f1abm77gieg","pricing_plan_id":"cebpf4jnsgd1na2vs0mg"},{"bike_id":"bfead3df-3898-46ff-8027-03c813a765b0","system_id":"levelo_inurba_marseille","lat":43.30107,"lon":5.43123,"is_reserved":false,"is_disabled":false,"rental_uris":{"android":"levelo://app?vid=bfead3df-3898-46ff-8027-03c813a765b0","ios":"levelo://app?vid=bfead3df-3898-46ff-8027-03c813a765b0"},"vehicle_type_id":"4","last_reported":1781169836,"current_range_meters":4000,"station_id":"st_d3js3co5814s73ftftug","pricing_plan_id":"cebpf4jnsgd1na2vs0mg"},{"bike_id":"1b0eac04-f591-4a98-a859-f6b12de18cd7","system_id":"levelo_inurba_marseille","lat":43.28696,"lon":5.46694,"is_reserved":false,"is_disabled":false,"rental_uris":{"android":"levelo://app?vid=1b0eac04-f591-4a98-a859-f6b12de18cd7","ios":"levelo://app?vid=1b0eac04-f591-4a98-a859-f6b12de18cd7"},"vehicle_type_id":"4","last_reported":1781169836,"current_range_meters":4000,"station_id":"st_d6tc3vkotcvc738tfjhg","pricing_plan_id":"cebpf4jnsgd1na2vs0mg"},{"bike_id":"483f5424-f91b-4594-b468-47eb905fa1ff","system_id":"levelo_inurba_marseille","lat":43.25574,"lon":5.38228,"is_reserved":false,"is_disabled":false,"rental_uris":{"android":"levelo://app?vid=483f5424-f91b-4594-b468-47eb905fa1ff","ios":"levelo://app?vid=483f5424-f91b-4594-b468-47eb905fa1ff"},"vehicle_type_id":"4","last_reported":1781169836,"current_range_meters":4000,"station_id":"ce4bhih2rcd13ifvqfs0","pricing_plan_id":"cebpf4jnsgd1na2vs0mg"},{"bike_id":"853b0d6f-b336-492c-8d19-63652c554c7e","system_id":"levelo_inurba_marseille","lat":43.25414,"lon":5.42539,"is_reserved":false,"is_disabled":false,"rental_uris":{"android":"levelo://app?vid=853b0d6f-b336-492c-8d19-63652c554c7e","ios":"levelo://app?vid=853b0d6f-b336-492c-8d19-63652c554c7e"},"vehicle_type_id":"4","last_reported":1781169836,"current_range_meters":4000,"station_id":"","pricing_plan_id":"cebpf4jnsgd1na2vs0mg"},{"bike_id":"64c9f91d-5075-4479-b683-d48593996d86","system_id":"levelo_inurba_marseille","lat":43.29872,"lon":5.36286,"is_reserved":false,"is_disabled":true,"rental_uris":{"android":"levelo://app?vid=64c9f91d-5075-4479-b683-d48593996d86","ios":"levelo://app?vid=64c9f91d-5075-4479-b683-d48593996d86"},"vehicle_type_id":"4","last_reported":1781169836,"current_range_meters":4000,"station_id":"ce4bgpp2rcd13ifvqc3g","pricing_plan_id":"cebpf4jnsgd1na2vs0mg"},{"bike_id":"4d735a9e-f2c8-4bb6-9521-dc1073864621","system_id":"levelo_inurba_marseille","lat":43.29274,"lon":5.42102,"is_reserved":false,"is_disabled":false,"rental_uris":{"android":"levelo://app?vid=4d735a9e-f2c8-4bb6-9521-dc1073864621","ios":"levelo://app?vid=4d735a9e-f2c8-4bb6-9521-dc1073864621"},"vehicle_type_id":"4","last_reported":1781169836,"current_range_meters":4000,"station_id":"","pricing_plan_id":"cebpf4jnsgd1na2vs0mg"},{"bike_id":"e2c0a208-0dcf-49b6-acbe-9bb56c554953","system_id":"levelo_inurba_marseille","lat":43.26954,"lon":5.42461,"is_reserved":false,"is_disabled":false,"rental_uris":{"android":"levelo://app?vid=e2c0a208-0dcf-49b6-acbe-9bb56c554953","ios":"levelo://app?vid=e2c0a208-0dcf-49b6-acbe-9bb56c554953"},"vehicle_type_id":"4","last_reported":1781169836,"current_range_meters":4000,"station_id":"","pricing_plan_id":"cebpf4jnsgd1na2vs0mg"},{"bike_id":"c50a9e43-666a-4ebb-bb15-fba6ac3b0d59","system_id":"levelo_inurba_marseille","lat":43.29306,"lon":5.36333,"is_reserved":false,"is_disabled":false,"rental_uris":{"android":"levelo://app?vid=c50a9e43-666a-4ebb-bb15-fba6ac3b0d59","ios":"levelo://app?vid=c50a9e43-666a-4ebb-bb15-fba6ac3b0d59"},"vehicle_type_id":"4","last_reported":1781169836,"current_range_meters":4000,"station_id":"","pricing_plan_id":"cebpf4jnsgd1na2vs0mg"},{"bike_id":"8ff9db96-b188-419a-9248-95988cbc1665","system_id":"levelo_inurba_marseille","lat":43.31466,"lon":5.37299,"is_reserved":false,"is_disabled":false,"rental_uris":{"android":"levelo://app?vid=8ff9db96-b188-419a-9248-95988cbc1665","ios":"levelo://app?vid=8ff9db96-b188-419a-9248-95988cbc1665"},"vehicle_type_id":"4","last_reported":1781169836,"current_range_meters":4400,"station_id":"ce4bgt12rcd13ifvqcd0","pricing_plan_id":"cebpf4jnsgd1na2vs0mg"},{"bike_id":"f1d7e700-4c4d-4540-aa72-3b923d33ccf5","system_id":"levelo_inurba_marseille","lat":43.298,"lon":5.40399,"is_reserved":false,"is_disabled":false,"rental_uris":{"android":"levelo://app?vid=f1d7e700-4c4d-4540-aa72-3b923d33ccf5","ios":"levelo://app?vid=f1d7e700-4c4d-4540-aa72-3b923d33ccf5"},"vehicle_type_id":"4","last_reported":1781169836,"current_range_meters":4400,"station_id":"ce4bh112rcd13ifvqd90","pricing_plan_id":"cebpf4jnsgd1na2vs0mg"},{"bike_id":"e80f8996-351c-4723-8d75-5faf96cf832b","system_id":"levelo_inurba_marseille","lat":43.28711,"lon":5.46673,"is_reserved":false,"is_disabled":false,"rental_uris":{"android":"levelo://app?vid=e80f8996-351c-4723-8d75-5faf96cf832b","ios":"levelo://app?vid=e80f8996-351c-4723-8d75-5faf96cf832b"},"vehicle_type_id":"4","last_reported":1781169836,"current_range_meters":4400,"station_id":"st_d6tc3vkotcvc738tfjhg","pricing_plan_id":"cebpf4jnsgd1na2vs0mg"},{"bike_id":"58e68832-71a2-4e89-bd3b-97fc222e156f","system_id":"levelo_inurba_marseille","lat":43.31228,"lon":5.36852,"is_reserved":false,"is_disabled":false,"rental_uris":{"android":"levelo://app?vid=58e68832-71a2-4e89-bd3b-97fc222e156f","ios":"levelo://app?vid=58e68832-71a2-4e89-bd3b-97fc222e156f"},"vehicle_type_id":"4","last_reported":1781169836,"current_range_meters":4400,"station_id":"ce4bgl92rcd13ifvqbq0","pricing_plan_id":"cebpf4jnsgd1na2vs0mg"},{"bike_id":"419d9b4c-e958-411a-8dae-27cf413417bf","system_id":"levelo_inurba_marseille","lat":43.30011,"lon":5.38499,"is_reserved":false,"is_disabled":true,"rental_uris":{"android":"levelo://app?vid=419d9b4c-e958-411a-8dae-27cf413417bf","ios":"levelo://app?vid=419d9b4c-e958-411a-8dae-27cf413417bf"},"vehicle_type_id":"4","last_reported":1781169836,"current_range_meters":4400,"station_id":"ce4bgj92rcd13ifvqbd0","pricing_plan_id":"cebpf4jnsgd1na2vs0mg"},{"bike_id":"db8f1d20-ccf6-4ab9-bdb8-32d995b7e02a","system_id":"levelo_inurba_marseille","lat":43.25722,"lon":5.41105,"is_reserved":false,"is_disabled":false,"rental_uris":{"android":"levelo://app?vid=db8f1d20-ccf6-4ab9-bdb8-32d995b7e02a","ios":"levelo://app?vid=db8f1d20-ccf6-4ab9-bdb8-32d995b7e02a"},"vehicle_type_id":"4","last_reported":1781169836,"current_range_meters":4400,"station_id":"ce4bhkp2rcd13ifvqgd0","pricing_plan_id":"cebpf4jnsgd1na2vs0mg"},{"bike_id":"a359d33f-688b-4843-bf0e-19ddaa6f86dc","system_id":"levelo_inurba_marseille","lat":43.31392,"lon":5.36719,"is_reserved":false,"is_disabled":false,"rental_uris":{"android":"levelo://app?vid=a359d33f-688b-4843-bf0e-19ddaa6f86dc","ios":"levelo://app?vid=a359d33f-688b-4843-bf0e-19ddaa6f86dc"},"vehicle_type_id":"4","last_reported":1781169836,"current_range_meters":4400,"station_id":"","pricing_plan_id":"cebpf4jnsgd1na2vs0mg"},{"bike_id":"6124b231-474a-4e03-93b8-c31be0f74f91","system_id":"levelo_inurba_marseille","lat":43.27824,"lon":5.36448,"is_reserved":false,"is_disabled":false,"rental_uris":{"android":"levelo://app?vid=6124b231-474a-4e03-93b8-c31be0f74f91","ios":"levelo://app?vid=6124b231-474a-4e03-93b8-c31be0f74f91"},"vehicle_type_id":"4","last_reported":1781169836,"current_range_meters":4400,"station_id":"","pricing_plan_id":"cebpf4jnsgd1na2vs0mg"},{"bike_id":"b0e170a1-f9e5-4e3b-80cf-3072fd2f6a74","system_id":"levelo_inurba_marseille","lat":43.23161,"lon":5.43712,"is_reserved":false,"is_disabled":false,"rental_uris":{"android":"levelo://app?vid=b0e170a1-f9e5-4e3b-80cf-3072fd2f6a74","ios":"levelo://app?vid=b0e170a1-f9e5-4e3b-80cf-3072fd2f6a74"},"vehicle_type_id":"4","last_reported":1781169836,"current_range_meters":4400,"station_id":"ce4bhmp2rcd13ifvqgog","pricing_plan_id":"cebpf4jnsgd1na2vs0mg"},{"bike_id":"89e0ab8b-6344-4103-87e9-567c0b71abef","system_id":"levelo_inurba_marseille","lat":43.23145,"lon":5.43699,"is_reserved":false,"is_disabled":false,"rental_uris":{"android":"levelo://app?vid=89e0ab8b-6344-4103-87e9-567c0b71abef","ios":"levelo://app?vid=89e0ab8b-6344-4103-87e9-567c0b71abef"},"vehicle_type_id":"4","last_reported":1781169836,"current_range_meters":4400,"station_id":"ce4bhmp2rcd13ifvqgog","pricing_plan_id":"cebpf4jnsgd1na2vs0mg"},{"bike_id":"ae1c0425-227d-4091-aecd-1a07883cdb65","system_id":"levelo_inurba_marseille","lat":43.29567,"lon":5.39979,"is_reserved":false,"is_disabled":false,"rental_uris":{"android":"levelo://app?vid=ae1c0425-227d-4091-aecd-1a07883cdb65","ios":"levelo://app?vid=ae1c0425-227d-4091-aecd-1a07883cdb65"},"vehicle_type_id":"4","last_reported":1781169836,"current_range_meters":4400,"station_id":"ce4bh312rcd13ifvqdj0","pricing_plan_id":"cebpf4jnsgd1na2vs0mg"},{"bike_id":"078e929f-297c-4108-8448-dfae7c2f5e32","system_id":"levelo_inurba_marseille","lat":43.30955,"lon":5.39023,"is_reserved":false,"is_disabled":false,"rental_uris":{"android":"levelo://app?vid=078e929f-297c-4108-8448-dfae7c2f5e32","ios":"levelo://app?vid=078e929f-297c-4108-8448-dfae7c2f5e32"},"vehicle_type_id":"4","last_reported":1781169836,"current_range_meters":4400,"station_id":"ce4bgup2rcd13ifvqco0","pricing_plan_id":"cebpf4jnsgd1na2vs0mg"},{"bike_id":"a0b53861-d04c-461f-8009-234356175c64","system_id":"levelo_inurba_marseille","lat":43.2869,"lon":5.46687,"is_reserved":false,"is_disabled":false,"rental_uris":{"android":"levelo://app?vid=a0b53861-d04c-461f-8009-234356175c64","ios":"levelo://app?vid=a0b53861-d04c-461f-8009-234356175c64"},"vehicle_type_id":"4","last_reported":1781169836,"current_range_meters":4400,"station_id":"st_d6tc3vkotcvc738tfjhg","pricing_plan_id":"cebpf4jnsgd1na2vs0mg"},{"bike_id":"ace190e8-61c7-4c5e-9cf8-6071cdfa1ff6","system_id":"levelo_inurba_marseille","lat":43.29032,"lon":5.399748,"is_reserved":false,"is_disabled":false,"rental_uris":{"android":"levelo://app?vid=ace190e8-61c7-4c5e-9cf8-6071cdfa1ff6","ios":"levelo://app?vid=ace190e8-61c7-4c5e-9cf8-6071cdfa1ff6"},"vehicle_type_id":"4","last_reported":1781169836,"current_range_meters":4400,"station_id":"ce4bh392rcd13ifvqdm0","pricing_plan_id":"cebpf4jnsgd1na2vs0mg"},{"bike_id":"e6ff52bc-5f7a-4d86-894d-24f42f5c3cd5","system_id":"levelo_inurba_marseille","lat":43.29245,"lon":5.3603,"is_reserved":false,"is_disabled":false,"rental_uris":{"android":"levelo://app?vid=e6ff52bc-5f7a-4d86-894d-24f42f5c3cd5","ios":"levelo://app?vid=e6ff52bc-5f7a-4d86-894d-24f42f5c3cd5"},"vehicle_type_id":"4","last_reported":1781169836,"current_range_meters":4400,"station_id":"ce4bhbh2rcd13ifvqeqg","pricing_plan_id":"cebpf4jnsgd1na2vs0mg"},{"bike_id":"f2a22988-e631-4daa-ad0a-0b5688d18701","system_id":"levelo_inurba_marseille","lat":43.33555,"lon":5.3747,"is_reserved":false,"is_disabled":false,"rental_uris":{"android":"levelo://app?vid=f2a22988-e631-4daa-ad0a-0b5688d18701","ios":"levelo://app?vid=f2a22988-e631-4daa-ad0a-0b5688d18701"},"vehicle_type_id":"4","last_reported":1781169836,"current_range_meters":4800,"station_id":"st_d46tts09ee8s73dlu43g","pricing_plan_id":"cebpf4jnsgd1na2vs0mg"},{"bike_id":"cc044a5d-6424-486c-a90d-3884464a6b29","system_id":"levelo_inurba_marseille","lat":43.3206,"lon":5.36296,"is_reserved":false,"is_disabled":false,"rental_uris":{"android":"levelo://app?vid=cc044a5d-6424-486c-a90d-3884464a6b29","ios":"levelo://app?vid=cc044a5d-6424-486c-a90d-3884464a6b29"},"vehicle_type_id":"4","last_reported":1781169836,"current_range_meters":4800,"station_id":"","pricing_plan_id":"cebpf4jnsgd1na2vs0mg"},{"bike_id":"a3978f28-dd67-496a-877d-f1e9f4a3fb81","system_id":"levelo_inurba_marseille","lat":43.29961,"lon":5.384982,"is_reserved":false,"is_disabled":false,"rental_uris":{"android":"levelo://app?vid=a3978f28-dd67-496a-877d-f1e9f4a3fb81","ios":"levelo://app?vid=a3978f28-dd67-496a-877d-f1e9f4a3fb81"},"vehicle_type_id":"4","last_reported":1781169836,"current_range_meters":4800,"station_id":"ce4bgj92rcd13ifvqbd0","pricing_plan_id":"cebpf4jnsgd1na2vs0mg"},{"bike_id":"581f325e-9ff5-4ff3-ac32-3a5e78abdd74","system_id":"levelo_inurba_marseille","lat":43.30544,"lon":5.36521,"is_reserved":false,"is_disabled":false,"rental_uris":{"android":"levelo://app?vid=581f325e-9ff5-4ff3-ac32-3a5e78abdd74","ios":"levelo://app?vid=581f325e-9ff5-4ff3-ac32-3a5e78abdd74"},"vehicle_type_id":"4","last_reported":1781169836,"current_range_meters":4800,"station_id":"ce4bgs12rcd13ifvqcag","pricing_plan_id":"cebpf4jnsgd1na2vs0mg"},{"bike_id":"d4a485ca-544f-4e15-a3d5-638351c050dc","system_id":"levelo_inurba_marseille","lat":43.28742,"lon":5.40382,"is_reserved":false,"is_disabled":false,"rental_uris":{"android":"levelo://app?vid=d4a485ca-544f-4e15-a3d5-638351c050dc","ios":"levelo://app?vid=d4a485ca-544f-4e15-a3d5-638351c050dc"},"vehicle_type_id":"4","last_reported":1781169836,"current_range_meters":4800,"station_id":"","pricing_plan_id":"cebpf4jnsgd1na2vs0mg"},{"bike_id":"f8671556-b7c4-4a04-86c9-422f70a6fa84","system_id":"levelo_inurba_marseille","lat":43.33511,"lon":5.42027,"is_reserved":false,"is_disabled":false,"rental_uris":{"android":"levelo://app?vid=f8671556-b7c4-4a04-86c9-422f70a6fa84","ios":"levelo://app?vid=f8671556-b7c4-4a04-86c9-422f70a6fa84"},"vehicle_type_id":"4","last_reported":1781169836,"current_range_meters":4800,"station_id":"","pricing_plan_id":"cebpf4jnsgd1na2vs0mg"},{"bike_id":"e4420f0b-e0a1-46e6-b2c9-46f258426670","system_id":"levelo_inurba_marseille","lat":43.22535,"lon":5.34817,"is_reserved":false,"is_disabled":false,"rental_uris":{"android":"levelo://app?vid=e4420f0b-e0a1-46e6-b2c9-46f258426670","ios":"levelo://app?vid=e4420f0b-e0a1-46e6-b2c9-46f258426670"},"vehicle_type_id":"4","last_reported":1781169836,"current_range_meters":4800,"station_id":"st_cvj5dfep6f1abm77gieg","pricing_plan_id":"cebpf4jnsgd1na2vs0mg"},{"bike_id":"a22bdfd4-f5ab-4ba0-bb7a-3e570045354b","system_id":"levelo_inurba_marseille","lat":43.30281,"lon":5.39083,"is_reserved":false,"is_disabled":false,"rental_uris":{"android":"levelo://app?vid=a22bdfd4-f5ab-4ba0-bb7a-3e570045354b","ios":"levelo://app?vid=a22bdfd4-f5ab-4ba0-bb7a-3e570045354b"},"vehicle_type_id":"4","last_reported":1781169836,"current_range_meters":4800,"station_id":"","pricing_plan_id":"cebpf4jnsgd1na2vs0mg"},{"bike_id":"3a0a3c1e-d128-4138-b2e1-df846eb876c4","system_id":"levelo_inurba_marseille","lat":43.28638,"lon":5.3942,"is_reserved":false,"is_disabled":false,"rental_uris":{"android":"levelo://app?vid=3a0a3c1e-d128-4138-b2e1-df846eb876c4","ios":"levelo://app?vid=3a0a3c1e-d128-4138-b2e1-df846eb876c4"},"vehicle_type_id":"4","last_reported":1781169836,"current_range_meters":5600,"station_id":"","pricing_plan_id":"cebpf4jnsgd1na2vs0mg"},{"bike_id":"12df29cc-abfa-41e4-9d8d-6005376fb963","system_id":"levelo_inurba_marseille","lat":43.266188,"lon":5.394222,"is_reserved":false,"is_disabled":false,"rental_uris":{"android":"levelo://app?vid=12df29cc-abfa-41e4-9d8d-6005376fb963","ios":"levelo://app?vid=12df29cc-abfa-41e4-9d8d-6005376fb963"},"vehicle_type_id":"4","last_reported":1781169836,"current_range_meters":5600,"station_id":"","pricing_plan_id":"cebpf4jnsgd1na2vs0mg"},{"bike_id":"2ff017c8-2cbc-493f-b435-f6a67427a94c","system_id":"levelo_inurba_marseille","lat":43.30122,"lon":5.43115,"is_reserved":false,"is_disabled":false,"rental_uris":{"android":"levelo://app?vid=2ff017c8-2cbc-493f-b435-f6a67427a94c","ios":"levelo://app?vid=2ff017c8-2cbc-493f-b435-f6a67427a94c"},"vehicle_type_id":"4","last_reported":1781169836,"current_range_meters":5600,"station_id":"st_d3js3co5814s73ftftug","pricing_plan_id":"cebpf4jnsgd1na2vs0mg"},{"bike_id":"582c6b7b-37e6-4a03-8f89-52fb5665e43d","system_id":"levelo_inurba_marseille","lat":43.29028,"lon":5.38629,"is_reserved":false,"is_disabled":true,"rental_uris":{"android":"levelo://app?vid=582c6b7b-37e6-4a03-8f89-52fb5665e43d","ios":"levelo://app?vid=582c6b7b-37e6-4a03-8f89-52fb5665e43d"},"vehicle_type_id":"4","last_reported":1781169836,"current_range_meters":5600,"station_id":"ce4bh4p2rcd13ifvqe0g","pricing_plan_id":"cebpf4jnsgd1na2vs0mg"},{"bike_id":"89e366c3-1a4f-4118-80b3-b10f3ed79b47","system_id":"levelo_inurba_marseille","lat":43.30311,"lon":5.369,"is_reserved":false,"is_disabled":false,"rental_uris":{"android":"levelo://app?vid=89e366c3-1a4f-4118-80b3-b10f3ed79b47","ios":"levelo://app?vid=89e366c3-1a4f-4118-80b3-b10f3ed79b47"},"vehicle_type_id":"4","last_reported":1781169836,"current_range_meters":5600,"station_id":"ce4bgqh2rcd13ifvqc5g","pricing_plan_id":"cebpf4jnsgd1na2vs0mg"},{"bike_id":"0b542d53-e4b2-4fd5-adf4-084e17c09620","system_id":"levelo_inurba_marseille","lat":43.30141,"lon":5.43117,"is_reserved":false,"is_disabled":false,"rental_uris":{"android":"levelo://app?vid=0b542d53-e4b2-4fd5-adf4-084e17c09620","ios":"levelo://app?vid=0b542d53-e4b2-4fd5-adf4-084e17c09620"},"vehicle_type_id":"4","last_reported":1781169836,"current_range_meters":5600,"station_id":"st_d3js3co5814s73ftftug","pricing_plan_id":"cebpf4jnsgd1na2vs0mg"},{"bike_id":"b98492e0-dc73-467e-95f2-31f63a303db0","system_id":"levelo_inurba_marseille","lat":43.30304,"lon":5.39208,"is_reserved":false,"is_disabled":false,"rental_uris":{"android":"levelo://app?vid=b98492e0-dc73-467e-95f2-31f63a303db0","ios":"levelo://app?vid=b98492e0-dc73-467e-95f2-31f63a303db0"},"vehicle_type_id":"4","last_reported":1781169836,"current_range_meters":5600,"station_id":"ce4bgkh2rcd13ifvqbk0","pricing_plan_id":"cebpf4jnsgd1na2vs0mg"},{"bike_id":"1b5b1e51-4dfd-4218-a109-67dd802bd8f2","system_id":"levelo_inurba_marseille","lat":43.29242,"lon":5.36021,"is_reserved":false,"is_disabled":false,"rental_uris":{"android":"levelo://app?vid=1b5b1e51-4dfd-4218-a109-67dd802bd8f2","ios":"levelo://app?vid=1b5b1e51-4dfd-4218-a109-67dd802bd8f2"},"vehicle_type_id":"4","last_reported":1781169836,"current_range_meters":5600,"station_id":"ce4bhbh2rcd13ifvqeqg","pricing_plan_id":"cebpf4jnsgd1na2vs0mg"},{"bike_id":"eb329a01-e691-4f8e-8655-7c24a9dc2218","system_id":"levelo_inurba_marseille","lat":43.28411,"lon":5.34964,"is_reserved":false,"is_disabled":false,"rental_uris":{"android":"levelo://app?vid=eb329a01-e691-4f8e-8655-7c24a9dc2218","ios":"levelo://app?vid=eb329a01-e691-4f8e-8655-7c24a9dc2218"},"vehicle_type_id":"4","last_reported":1781169836,"current_range_meters":5600,"station_id":"ce4bhbh2rcd13ifvqepg","pricing_plan_id":"cebpf4jnsgd1na2vs0mg"},{"bike_id":"e51fb165-aa99-47d5-ac9f-0b10ee2c3025","system_id":"levelo_inurba_marseille","lat":43.30444,"lon":5.38893,"is_reserved":false,"is_disabled":false,"rental_uris":{"android":"levelo://app?vid=e51fb165-aa99-47d5-ac9f-0b10ee2c3025","ios":"levelo://app?vid=e51fb165-aa99-47d5-ac9f-0b10ee2c3025"},"vehicle_type_id":"4","last_reported":1781169836,"current_range_meters":5600,"station_id":"ce4bgk12rcd13ifvqbi0","pricing_plan_id":"cebpf4jnsgd1na2vs0mg"},{"bike_id":"ef3bf5b6-5470-4a2d-97d8-91760504f6a9","system_id":"levelo_inurba_marseille","lat":43.28261,"lon":5.350754,"is_reserved":false,"is_disabled":false,"rental_uris":{"android":"levelo://app?vid=ef3bf5b6-5470-4a2d-97d8-91760504f6a9","ios":"levelo://app?vid=ef3bf5b6-5470-4a2d-97d8-91760504f6a9"},"vehicle_type_id":"4","last_reported":1781169836,"current_range_meters":5600,"station_id":"ce4bhbp2rcd13ifvqerg","pricing_plan_id":"cebpf4jnsgd1na2vs0mg"},{"bike_id":"9626ef2c-1942-4889-91e7-1405c722fcd5","system_id":"levelo_inurba_marseille","lat":43.30477,"lon":5.37909,"is_reserved":false,"is_disabled":false,"rental_uris":{"android":"levelo://app?vid=9626ef2c-1942-4889-91e7-1405c722fcd5","ios":"levelo://app?vid=9626ef2c-1942-4889-91e7-1405c722fcd5"},"vehicle_type_id":"4","last_reported":1781169836,"current_range_meters":5600,"station_id":"ce4bgup2rcd13ifvqcn0","pricing_plan_id":"cebpf4jnsgd1na2vs0mg"},{"bike_id":"4df93a2d-aa6a-4b31-93fb-7fa77fa8a80d","system_id":"levelo_inurba_marseille","lat":43.32178,"lon":5.44046,"is_reserved":false,"is_disabled":false,"rental_uris":{"android":"levelo://app?vid=4df93a2d-aa6a-4b31-93fb-7fa77fa8a80d","ios":"levelo://app?vid=4df93a2d-aa6a-4b31-93fb-7fa77fa8a80d"},"vehicle_type_id":"4","last_reported":1781169836,"current_range_meters":5600,"station_id":"","pricing_plan_id":"cebpf4jnsgd1na2vs0mg"},{"bike_id":"a6387bb5-cabc-4dc8-88dd-f63cdd69d04b","system_id":"levelo_inurba_marseille","lat":43.29257,"lon":5.40899,"is_reserved":false,"is_disabled":false,"rental_uris":{"android":"levelo://app?vid=a6387bb5-cabc-4dc8-88dd-f63cdd69d04b","ios":"levelo://app?vid=a6387bb5-cabc-4dc8-88dd-f63cdd69d04b"},"vehicle_type_id":"4","last_reported":1781169836,"current_range_meters":5600,"station_id":"ce4bh192rcd13ifvqdc0","pricing_plan_id":"cebpf4jnsgd1na2vs0mg"},{"bike_id":"d037ff87-e185-45ae-a2db-55b2836f60ae","system_id":"levelo_inurba_marseille","lat":43.2901,"lon":5.35614,"is_reserved":false,"is_disabled":false,"rental_uris":{"android":"levelo://app?vid=d037ff87-e185-45ae-a2db-55b2836f60ae","ios":"levelo://app?vid=d037ff87-e185-45ae-a2db-55b2836f60ae"},"vehicle_type_id":"4","last_reported":1781169836,"current_range_meters":5600,"station_id":"ce4bhb92rcd13ifvqen0","pricing_plan_id":"cebpf4jnsgd1na2vs0mg"},{"bike_id":"ea0132b2-a066-4377-b9f5-03e8f3a17900","system_id":"levelo_inurba_marseille","lat":43.23185,"lon":5.43665,"is_reserved":false,"is_disabled":false,"rental_uris":{"android":"levelo://app?vid=ea0132b2-a066-4377-b9f5-03e8f3a17900","ios":"levelo://app?vid=ea0132b2-a066-4377-b9f5-03e8f3a17900"},"vehicle_type_id":"4","last_reported":1781169836,"current_range_meters":6000,"station_id":"ce4bhmp2rcd13ifvqgog","pricing_plan_id":"cebpf4jnsgd1na2vs0mg"},{"bike_id":"c5909df9-fa47-434f-ad67-6f8975d9373a","system_id":"levelo_inurba_marseille","lat":43.30541,"lon":5.36709,"is_reserved":false,"is_disabled":false,"rental_uris":{"android":"levelo://app?vid=c5909df9-fa47-434f-ad67-6f8975d9373a","ios":"levelo://app?vid=c5909df9-fa47-434f-ad67-6f8975d9373a"},"vehicle_type_id":"4","last_reported":1781169836,"current_range_meters":6000,"station_id":"ce4bgrp2rcd13ifvqc9g","pricing_plan_id":"cebpf4jnsgd1na2vs0mg"},{"bike_id":"b5d713d6-fb2c-4f85-9496-147ac99b124c","system_id":"levelo_inurba_marseille","lat":43.22915,"lon":5.35377,"is_reserved":false,"is_disabled":false,"rental_uris":{"android":"levelo://app?vid=b5d713d6-fb2c-4f85-9496-147ac99b124c","ios":"levelo://app?vid=b5d713d6-fb2c-4f85-9496-147ac99b124c"},"vehicle_type_id":"4","last_reported":1781169836,"current_range_meters":6000,"station_id":"cpo3532slgdg3j2ikp40","pricing_plan_id":"cebpf4jnsgd1na2vs0mg"},{"bike_id":"4e44ca7b-8778-42ac-987b-6a0b6df84725","system_id":"levelo_inurba_marseille","lat":43.26683,"lon":5.38266,"is_reserved":false,"is_disabled":false,"rental_uris":{"android":"levelo://app?vid=4e44ca7b-8778-42ac-987b-6a0b6df84725","ios":"levelo://app?vid=4e44ca7b-8778-42ac-987b-6a0b6df84725"},"vehicle_type_id":"4","last_reported":1781169836,"current_range_meters":6000,"station_id":"ce4bhg92rcd13ifvqf90","pricing_plan_id":"cebpf4jnsgd1na2vs0mg"},{"bike_id":"6d61896a-6469-4a57-9390-cb68fdf73c25","system_id":"levelo_inurba_marseille","lat":43.28417,"lon":5.34994,"is_reserved":false,"is_disabled":false,"rental_uris":{"android":"levelo://app?vid=6d61896a-6469-4a57-9390-cb68fdf73c25","ios":"levelo://app?vid=6d61896a-6469-4a57-9390-cb68fdf73c25"},"vehicle_type_id":"4","last_reported":1781169836,"current_range_meters":6000,"station_id":"ce4bhbh2rcd13ifvqepg","pricing_plan_id":"cebpf4jnsgd1na2vs0mg"},{"bike_id":"479a476a-158f-4fed-bb39-6f43ac9d4715","system_id":"levelo_inurba_marseille","lat":43.32131,"lon":5.36772,"is_reserved":false,"is_disabled":false,"rental_uris":{"android":"levelo://app?vid=479a476a-158f-4fed-bb39-6f43ac9d4715","ios":"levelo://app?vid=479a476a-158f-4fed-bb39-6f43ac9d4715"},"vehicle_type_id":"4","last_reported":1781169836,"current_range_meters":6000,"station_id":"ce4bhrh2rcd13ifvqhug","pricing_plan_id":"cebpf4jnsgd1na2vs0mg"},{"bike_id":"d74bdaa9-dcb0-471c-adf5-8545b2f71589","system_id":"levelo_inurba_marseille","lat":43.30895,"lon":5.37183,"is_reserved":false,"is_disabled":false,"rental_uris":{"android":"levelo://app?vid=d74bdaa9-dcb0-471c-adf5-8545b2f71589","ios":"levelo://app?vid=d74bdaa9-dcb0-471c-adf5-8545b2f71589"},"vehicle_type_id":"4","last_reported":1781169836,"current_range_meters":6000,"station_id":"ce4bguh2rcd13ifvqckg","pricing_plan_id":"cebpf4jnsgd1na2vs0mg"},{"bike_id":"9b0d907c-8d88-4e9b-bbb5-aed51c275995","system_id":"levelo_inurba_marseille","lat":43.23147,"lon":5.43714,"is_reserved":false,"is_disabled":false,"rental_uris":{"android":"levelo://app?vid=9b0d907c-8d88-4e9b-bbb5-aed51c275995","ios":"levelo://app?vid=9b0d907c-8d88-4e9b-bbb5-aed51c275995"},"vehicle_type_id":"4","last_reported":1781169836,"current_range_meters":6000,"station_id":"ce4bhmp2rcd13ifvqgog","pricing_plan_id":"cebpf4jnsgd1na2vs0mg"},{"bike_id":"627383c3-1ca4-4292-a0f0-c21bf7584678","system_id":"levelo_inurba_marseille","lat":43.28715,"lon":5.42688,"is_reserved":false,"is_disabled":false,"rental_uris":{"android":"levelo://app?vid=627383c3-1ca4-4292-a0f0-c21bf7584678","ios":"levelo://app?vid=627383c3-1ca4-4292-a0f0-c21bf7584678"},"vehicle_type_id":"4","last_reported":1781169836,"current_range_meters":6000,"station_id":"","pricing_plan_id":"cebpf4jnsgd1na2vs0mg"},{"bike_id":"a384c101-de5e-4857-925c-516c7f23b3ab","system_id":"levelo_inurba_marseille","lat":43.28839,"lon":5.35549,"is_reserved":false,"is_disabled":false,"rental_uris":{"android":"levelo://app?vid=a384c101-de5e-4857-925c-516c7f23b3ab","ios":"levelo://app?vid=a384c101-de5e-4857-925c-516c7f23b3ab"},"vehicle_type_id":"4","last_reported":1781169836,"current_range_meters":6000,"station_id":"","pricing_plan_id":"cebpf4jnsgd1na2vs0mg"},{"bike_id":"b8b6daec-2f79-48d9-9eae-32764683aa9c","system_id":"levelo_inurba_marseille","lat":43.27199,"lon":5.3918,"is_reserved":false,"is_disabled":false,"rental_uris":{"android":"levelo://app?vid=b8b6daec-2f79-48d9-9eae-32764683aa9c","ios":"levelo://app?vid=b8b6daec-2f79-48d9-9eae-32764683aa9c"},"vehicle_type_id":"4","last_reported":1781169836,"current_range_meters":6000,"station_id":"ce4bhhp2rcd13ifvqfm0","pricing_plan_id":"cebpf4jnsgd1na2vs0mg"},{"bike_id":"9eb01028-1e42-4c8c-a426-05e2b4b0370e","system_id":"levelo_inurba_marseille","lat":43.26504,"lon":5.3954,"is_reserved":false,"is_disabled":true,"rental_uris":{"android":"levelo://app?vid=9eb01028-1e42-4c8c-a426-05e2b4b0370e","ios":"levelo://app?vid=9eb01028-1e42-4c8c-a426-05e2b4b0370e"},"vehicle_type_id":"4","last_reported":1781169836,"current_range_meters":6000,"station_id":"ce4bhi12rcd13ifvqfq0","pricing_plan_id":"cebpf4jnsgd1na2vs0mg"},{"bike_id":"fd2f0fe2-2447-45be-8c9a-456f406e59a8","system_id":"levelo_inurba_marseille","lat":43.30318,"lon":5.36902,"is_reserved":false,"is_disabled":false,"rental_uris":{"android":"levelo://app?vid=fd2f0fe2-2447-45be-8c9a-456f406e59a8","ios":"levelo://app?vid=fd2f0fe2-2447-45be-8c9a-456f406e59a8"},"vehicle_type_id":"4","last_reported":1781169836,"current_range_meters":6000,"station_id":"ce4bgqh2rcd13ifvqc5g","pricing_plan_id":"cebpf4jnsgd1na2vs0mg"},{"bike_id":"e7789c34-86b5-4a30-8e8f-b6558042dba7","system_id":"levelo_inurba_marseille","lat":43.28103,"lon":5.37836,"is_reserved":false,"is_disabled":false,"rental_uris":{"android":"levelo://app?vid=e7789c34-86b5-4a30-8e8f-b6558042dba7","ios":"levelo://app?vid=e7789c34-86b5-4a30-8e8f-b6558042dba7"},"vehicle_type_id":"4","last_reported":1781169836,"current_range_meters":6000,"station_id":"ce4bha12rcd13ifvqee0","pricing_plan_id":"cebpf4jnsgd1na2vs0mg"},{"bike_id":"0ae8f090-63a9-4eef-a930-2390bbadc60a","system_id":"levelo_inurba_marseille","lat":43.23382,"lon":5.41231,"is_reserved":false,"is_disabled":false,"rental_uris":{"android":"levelo://app?vid=0ae8f090-63a9-4eef-a930-2390bbadc60a","ios":"levelo://app?vid=0ae8f090-63a9-4eef-a930-2390bbadc60a"},"vehicle_type_id":"4","last_reported":1781169836,"current_range_meters":6000,"station_id":"st_d75pvndhf9lc73cqq3eg","pricing_plan_id":"cebpf4jnsgd1na2vs0mg"},{"bike_id":"d0b6f97d-392b-4355-9f32-cf4ba73fb823","system_id":"levelo_inurba_marseille","lat":43.21191,"lon":5.35062,"is_reserved":false,"is_disabled":false,"rental_uris":{"android":"levelo://app?vid=d0b6f97d-392b-4355-9f32-cf4ba73fb823","ios":"levelo://app?vid=d0b6f97d-392b-4355-9f32-cf4ba73fb823"},"vehicle_type_id":"4","last_reported":1781169836,"current_range_meters":6000,"station_id":"st_cvj6sg6p6f1abm77japg","pricing_plan_id":"cebpf4jnsgd1na2vs0mg"},{"bike_id":"2c9008ec-eff6-41b9-bff5-3d266d108cfb","system_id":"levelo_inurba_marseille","lat":43.30416,"lon":5.41491,"is_reserved":false,"is_disabled":false,"rental_uris":{"android":"levelo://app?vid=2c9008ec-eff6-41b9-bff5-3d266d108cfb","ios":"levelo://app?vid=2c9008ec-eff6-41b9-bff5-3d266d108cfb"},"vehicle_type_id":"4","last_reported":1781169836,"current_range_meters":6000,"station_id":"","pricing_plan_id":"cebpf4jnsgd1na2vs0mg"},{"bike_id":"432de91b-605e-4135-be24-bc7416bc4b04","system_id":"levelo_inurba_marseille","lat":43.30947,"lon":5.3903,"is_reserved":false,"is_disabled":false,"rental_uris":{"android":"levelo://app?vid=432de91b-605e-4135-be24-bc7416bc4b04","ios":"levelo://app?vid=432de91b-605e-4135-be24-bc7416bc4b04"},"vehicle_type_id":"4","last_reported":1781169836,"current_range_meters":6000,"station_id":"ce4bgup2rcd13ifvqco0","pricing_plan_id":"cebpf4jnsgd1na2vs0mg"},{"bike_id":"e30fdbee-ecd4-410c-9163-c5c5fe1fdb36","system_id":"levelo_inurba_marseille","lat":43.30216,"lon":5.3946,"is_reserved":false,"is_disabled":false,"rental_uris":{"android":"levelo://app?vid=e30fdbee-ecd4-410c-9163-c5c5fe1fdb36","ios":"levelo://app?vid=e30fdbee-ecd4-410c-9163-c5c5fe1fdb36"},"vehicle_type_id":"4","last_reported":1781169836,"current_range_meters":6000,"station_id":"ce4bh0p2rcd13ifvqd70","pricing_plan_id":"cebpf4jnsgd1na2vs0mg"},{"bike_id":"14b4b371-8f26-4cf1-95b4-880cc3bc4611","system_id":"levelo_inurba_marseille","lat":43.29291,"lon":5.37179,"is_reserved":false,"is_disabled":true,"rental_uris":{"android":"levelo://app?vid=14b4b371-8f26-4cf1-95b4-880cc3bc4611","ios":"levelo://app?vid=14b4b371-8f26-4cf1-95b4-880cc3bc4611"},"vehicle_type_id":"4","last_reported":1781169836,"current_range_meters":6000,"station_id":"ce4bgh92rcd13ifvqb40","pricing_plan_id":"cebpf4jnsgd1na2vs0mg"},{"bike_id":"95e4c85d-b6f8-43ad-884a-d6790070066b","system_id":"levelo_inurba_marseille","lat":43.31347,"lon":5.36715,"is_reserved":false,"is_disabled":false,"rental_uris":{"android":"levelo://app?vid=95e4c85d-b6f8-43ad-884a-d6790070066b","ios":"levelo://app?vid=95e4c85d-b6f8-43ad-884a-d6790070066b"},"vehicle_type_id":"4","last_reported":1781169836,"current_range_meters":6000,"station_id":"ce4bgr92rcd13ifvqc6g","pricing_plan_id":"cebpf4jnsgd1na2vs0mg"},{"bike_id":"e1e5da6d-a67b-4111-96bd-31967a6c6d87","system_id":"levelo_inurba_marseille","lat":43.30559,"lon":5.36517,"is_reserved":false,"is_disabled":false,"rental_uris":{"android":"levelo://app?vid=e1e5da6d-a67b-4111-96bd-31967a6c6d87","ios":"levelo://app?vid=e1e5da6d-a67b-4111-96bd-31967a6c6d87"},"vehicle_type_id":"4","last_reported":1781169836,"current_range_meters":6400,"station_id":"ce4bgs12rcd13ifvqcag","pricing_plan_id":"cebpf4jnsgd1na2vs0mg"},{"bike_id":"1049c3b3-be73-48e9-a7b0-0122e5865203","system_id":"levelo_inurba_marseille","lat":43.29788,"lon":5.38096,"is_reserved":false,"is_disabled":false,"rental_uris":{"android":"levelo://app?vid=1049c3b3-be73-48e9-a7b0-0122e5865203","ios":"levelo://app?vid=1049c3b3-be73-48e9-a7b0-0122e5865203"},"vehicle_type_id":"4","last_reported":1781169836,"current_range_meters":6400,"station_id":"ce4bgip2rcd13ifvqbb0","pricing_plan_id":"cebpf4jnsgd1na2vs0mg"},{"bike_id":"c1c2e1ed-021f-4ec2-ae7a-61bce9b24ab7","system_id":"levelo_inurba_marseille","lat":43.30939,"lon":5.3904,"is_reserved":false,"is_disabled":false,"rental_uris":{"android":"levelo://app?vid=c1c2e1ed-021f-4ec2-ae7a-61bce9b24ab7","ios":"levelo://app?vid=c1c2e1ed-021f-4ec2-ae7a-61bce9b24ab7"},"vehicle_type_id":"4","last_reported":1781169836,"current_range_meters":6400,"station_id":"ce4bgup2rcd13ifvqco0","pricing_plan_id":"cebpf4jnsgd1na2vs0mg"},{"bike_id":"7731bf13-86e9-4584-a771-13389a87886e","system_id":"levelo_inurba_marseille","lat":43.30787,"lon":5.3815,"is_reserved":false,"is_disabled":false,"rental_uris":{"android":"levelo://app?vid=7731bf13-86e9-4584-a771-13389a87886e","ios":"levelo://app?vid=7731bf13-86e9-4584-a771-13389a87886e"},"vehicle_type_id":"4","last_reported":1781169836,"current_range_meters":6400,"station_id":"ce4bgt12rcd13ifvqce0","pricing_plan_id":"cebpf4jnsgd1na2vs0mg"},{"bike_id":"a4b00031-ee09-4aec-8eb7-94d1603e3e96","system_id":"levelo_inurba_marseille","lat":43.321,"lon":5.3681,"is_reserved":false,"is_disabled":false,"rental_uris":{"android":"levelo://app?vid=a4b00031-ee09-4aec-8eb7-94d1603e3e96","ios":"levelo://app?vid=a4b00031-ee09-4aec-8eb7-94d1603e3e96"},"vehicle_type_id":"4","last_reported":1781169836,"current_range_meters":6400,"station_id":"ce4bhrh2rcd13ifvqhug","pricing_plan_id":"cebpf4jnsgd1na2vs0mg"},{"bike_id":"1d885001-881f-4c7a-ac86-1941adfead6e","system_id":"levelo_inurba_marseille","lat":43.25501,"lon":5.37702,"is_reserved":false,"is_disabled":false,"rental_uris":{"android":"levelo://app?vid=1d885001-881f-4c7a-ac86-1941adfead6e","ios":"levelo://app?vid=1d885001-881f-4c7a-ac86-1941adfead6e"},"vehicle_type_id":"4","last_reported":1781169836,"current_range_meters":6400,"station_id":"ce4bhh12rcd13ifvqff0","pricing_plan_id":"cebpf4jnsgd1na2vs0mg"},{"bike_id":"10735159-3397-4800-83f9-6dea2cbec6ca","system_id":"levelo_inurba_marseille","lat":43.33558,"lon":5.37429,"is_reserved":false,"is_disabled":false,"rental_uris":{"android":"levelo://app?vid=10735159-3397-4800-83f9-6dea2cbec6ca","ios":"levelo://app?vid=10735159-3397-4800-83f9-6dea2cbec6ca"},"vehicle_type_id":"4","last_reported":1781169836,"current_range_meters":6400,"station_id":"st_d46tts09ee8s73dlu43g","pricing_plan_id":"cebpf4jnsgd1na2vs0mg"},{"bike_id":"b01d1429-d775-4212-bddf-9c70789e9cdc","system_id":"levelo_inurba_marseille","lat":43.28609,"lon":5.39903,"is_reserved":false,"is_disabled":false,"rental_uris":{"android":"levelo://app?vid=b01d1429-d775-4212-bddf-9c70789e9cdc","ios":"levelo://app?vid=b01d1429-d775-4212-bddf-9c70789e9cdc"},"vehicle_type_id":"4","last_reported":1781169836,"current_range_meters":6400,"station_id":"st_d4a7ka997mjs738ck50g","pricing_plan_id":"cebpf4jnsgd1na2vs0mg"},{"bike_id":"810366c5-bb77-4ca7-981f-51c029a1c454","system_id":"levelo_inurba_marseille","lat":43.30657,"lon":5.3985,"is_reserved":false,"is_disabled":false,"rental_uris":{"android":"levelo://app?vid=810366c5-bb77-4ca7-981f-51c029a1c454","ios":"levelo://app?vid=810366c5-bb77-4ca7-981f-51c029a1c454"},"vehicle_type_id":"4","last_reported":1781169836,"current_range_meters":6400,"station_id":"","pricing_plan_id":"cebpf4jnsgd1na2vs0mg"},{"bike_id":"fadbe248-96f4-4da0-8a5e-bd3c6f824303","system_id":"levelo_inurba_marseille","lat":43.2122,"lon":5.35048,"is_reserved":false,"is_disabled":false,"rental_uris":{"android":"levelo://app?vid=fadbe248-96f4-4da0-8a5e-bd3c6f824303","ios":"levelo://app?vid=fadbe248-96f4-4da0-8a5e-bd3c6f824303"},"vehicle_type_id":"4","last_reported":1781169836,"current_range_meters":6800,"station_id":"","pricing_plan_id":"cebpf4jnsgd1na2vs0mg"},{"bike_id":"172575f4-60a1-49c0-aea1-545504653d27","system_id":"levelo_inurba_marseille","lat":43.31554,"lon":5.38844,"is_reserved":false,"is_disabled":false,"rental_uris":{"android":"levelo://app?vid=172575f4-60a1-49c0-aea1-545504653d27","ios":"levelo://app?vid=172575f4-60a1-49c0-aea1-545504653d27"},"vehicle_type_id":"4","last_reported":1781169836,"current_range_meters":6800,"station_id":"","pricing_plan_id":"cebpf4jnsgd1na2vs0mg"},{"bike_id":"664a5d25-7748-4981-b747-f5329c045f50","system_id":"levelo_inurba_marseille","lat":43.30489,"lon":5.37894,"is_reserved":false,"is_disabled":false,"rental_uris":{"android":"levelo://app?vid=664a5d25-7748-4981-b747-f5329c045f50","ios":"levelo://app?vid=664a5d25-7748-4981-b747-f5329c045f50"},"vehicle_type_id":"4","last_reported":1781169836,"current_range_meters":6800,"station_id":"ce4bgup2rcd13ifvqcn0","pricing_plan_id":"cebpf4jnsgd1na2vs0mg"},{"bike_id":"2da0a46b-088a-4cd4-9ccc-57096835460e","system_id":"levelo_inurba_marseille","lat":43.29032,"lon":5.39952,"is_reserved":false,"is_disabled":false,"rental_uris":{"android":"levelo://app?vid=2da0a46b-088a-4cd4-9ccc-57096835460e","ios":"levelo://app?vid=2da0a46b-088a-4cd4-9ccc-57096835460e"},"vehicle_type_id":"4","last_reported":1781169836,"current_range_meters":6800,"station_id":"ce4bh392rcd13ifvqdm0","pricing_plan_id":"cebpf4jnsgd1na2vs0mg"},{"bike_id":"ab450d47-d293-44a6-8426-9362fe0e8737","system_id":"levelo_inurba_marseille","lat":43.27567,"lon":5.43374,"is_reserved":false,"is_disabled":false,"rental_uris":{"android":"levelo://app?vid=ab450d47-d293-44a6-8426-9362fe0e8737","ios":"levelo://app?vid=ab450d47-d293-44a6-8426-9362fe0e8737"},"vehicle_type_id":"4","last_reported":1781169836,"current_range_meters":6800,"station_id":"","pricing_plan_id":"cebpf4jnsgd1na2vs0mg"},{"bike_id":"b90e56c3-76e7-49da-ae74-c7deaeca993c","system_id":"levelo_inurba_marseille","lat":43.30808,"lon":5.3795,"is_reserved":false,"is_disabled":false,"rental_uris":{"android":"levelo://app?vid=b90e56c3-76e7-49da-ae74-c7deaeca993c","ios":"levelo://app?vid=b90e56c3-76e7-49da-ae74-c7deaeca993c"},"vehicle_type_id":"4","last_reported":1781169836,"current_range_meters":6800,"station_id":"","pricing_plan_id":"cebpf4jnsgd1na2vs0mg"},{"bike_id":"a1c015e9-3e11-46f0-b642-1fa3036dfa73","system_id":"levelo_inurba_marseille","lat":43.33168,"lon":5.37677,"is_reserved":false,"is_disabled":false,"rental_uris":{"android":"levelo://app?vid=a1c015e9-3e11-46f0-b642-1fa3036dfa73","ios":"levelo://app?vid=a1c015e9-3e11-46f0-b642-1fa3036dfa73"},"vehicle_type_id":"4","last_reported":1781169836,"current_range_meters":6800,"station_id":"st_d46cu089ee8s73dldbu0","pricing_plan_id":"cebpf4jnsgd1na2vs0mg"},{"bike_id":"fed66c9c-ec10-4d1a-a119-be989dd2cf9f","system_id":"levelo_inurba_marseille","lat":43.2903,"lon":5.37548,"is_reserved":false,"is_disabled":false,"rental_uris":{"android":"levelo://app?vid=fed66c9c-ec10-4d1a-a119-be989dd2cf9f","ios":"levelo://app?vid=fed66c9c-ec10-4d1a-a119-be989dd2cf9f"},"vehicle_type_id":"4","last_reported":1781169836,"current_range_meters":6800,"station_id":"ce4bh692rcd13ifvqe90","pricing_plan_id":"cebpf4jnsgd1na2vs0mg"},{"bike_id":"becf7538-a49a-47b2-898c-da691a16b228","system_id":"levelo_inurba_marseille","lat":43.29022,"lon":5.35941,"is_reserved":false,"is_disabled":true,"rental_uris":{"android":"levelo://app?vid=becf7538-a49a-47b2-898c-da691a16b228","ios":"levelo://app?vid=becf7538-a49a-47b2-898c-da691a16b228"},"vehicle_type_id":"4","last_reported":1781169836,"current_range_meters":6800,"station_id":"ce4bha92rcd13ifvqeg0","pricing_plan_id":"cebpf4jnsgd1na2vs0mg"},{"bike_id":"5a4d95e1-0c14-4d0b-90c7-d8f78e3a377e","system_id":"levelo_inurba_marseille","lat":43.30933,"lon":5.36835,"is_reserved":false,"is_disabled":false,"rental_uris":{"android":"levelo://app?vid=5a4d95e1-0c14-4d0b-90c7-d8f78e3a377e","ios":"levelo://app?vid=5a4d95e1-0c14-4d0b-90c7-d8f78e3a377e"},"vehicle_type_id":"4","last_reported":1781169836,"current_range_meters":6800,"station_id":"ce4bgn92rcd13ifvqbvg","pricing_plan_id":"cebpf4jnsgd1na2vs0mg"},{"bike_id":"2f525597-5e27-4213-8a66-56e2b662bf94","system_id":"levelo_inurba_marseille","lat":43.33154,"lon":5.37677,"is_reserved":false,"is_disabled":false,"rental_uris":{"android":"levelo://app?vid=2f525597-5e27-4213-8a66-56e2b662bf94","ios":"levelo://app?vid=2f525597-5e27-4213-8a66-56e2b662bf94"},"vehicle_type_id":"4","last_reported":1781169836,"current_range_meters":6800,"station_id":"st_d46cu089ee8s73dldbu0","pricing_plan_id":"cebpf4jnsgd1na2vs0mg"},{"bike_id":"32ad2f54-0710-4c22-a081-176b08313344","system_id":"levelo_inurba_marseille","lat":43.29089,"lon":5.38151,"is_reserved":false,"is_disabled":false,"rental_uris":{"android":"levelo://app?vid=32ad2f54-0710-4c22-a081-176b08313344","ios":"levelo://app?vid=32ad2f54-0710-4c22-a081-176b08313344"},"vehicle_type_id":"4","last_reported":1781169836,"current_range_meters":6800,"station_id":"ce4bh512rcd13ifvqe2g","pricing_plan_id":"cebpf4jnsgd1na2vs0mg"},{"bike_id":"74d62127-e1b5-4940-a48e-e9ea7928adf0","system_id":"levelo_inurba_marseille","lat":43.30829,"lon":5.41249,"is_reserved":false,"is_disabled":false,"rental_uris":{"android":"levelo://app?vid=74d62127-e1b5-4940-a48e-e9ea7928adf0","ios":"levelo://app?vid=74d62127-e1b5-4940-a48e-e9ea7928adf0"},"vehicle_type_id":"4","last_reported":1781169836,"current_range_meters":6800,"station_id":"","pricing_plan_id":"cebpf4jnsgd1na2vs0mg"},{"bike_id":"234031d3-0384-41b3-83ca-b9f62101a532","system_id":"levelo_inurba_marseille","lat":43.31389,"lon":5.36705,"is_reserved":false,"is_disabled":false,"rental_uris":{"android":"levelo://app?vid=234031d3-0384-41b3-83ca-b9f62101a532","ios":"levelo://app?vid=234031d3-0384-41b3-83ca-b9f62101a532"},"vehicle_type_id":"4","last_reported":1781169836,"current_range_meters":6800,"station_id":"ce4bgr92rcd13ifvqc6g","pricing_plan_id":"cebpf4jnsgd1na2vs0mg"},{"bike_id":"2a25c068-8bed-4a95-be62-5f89bd4a2a2b","system_id":"levelo_inurba_marseille","lat":43.23157,"lon":5.4373,"is_reserved":false,"is_disabled":false,"rental_uris":{"android":"levelo://app?vid=2a25c068-8bed-4a95-be62-5f89bd4a2a2b","ios":"levelo://app?vid=2a25c068-8bed-4a95-be62-5f89bd4a2a2b"},"vehicle_type_id":"4","last_reported":1781169836,"current_range_meters":6800,"station_id":"ce4bhmp2rcd13ifvqgog","pricing_plan_id":"cebpf4jnsgd1na2vs0mg"},{"bike_id":"8369abbd-c3fb-412a-8d1a-49e51529efce","system_id":"levelo_inurba_marseille","lat":43.30151,"lon":5.37402,"is_reserved":false,"is_disabled":false,"rental_uris":{"android":"levelo://app?vid=8369abbd-c3fb-412a-8d1a-49e51529efce","ios":"levelo://app?vid=8369abbd-c3fb-412a-8d1a-49e51529efce"},"vehicle_type_id":"4","last_reported":1781169836,"current_range_meters":7200,"station_id":"ce4bgs92rcd13ifvqcc0","pricing_plan_id":"cebpf4jnsgd1na2vs0mg"},{"bike_id":"483e2183-ee67-4191-93a2-8a6ab6da8b68","system_id":"levelo_inurba_marseille","lat":43.30451,"lon":5.37921,"is_reserved":false,"is_disabled":false,"rental_uris":{"android":"levelo://app?vid=483e2183-ee67-4191-93a2-8a6ab6da8b68","ios":"levelo://app?vid=483e2183-ee67-4191-93a2-8a6ab6da8b68"},"vehicle_type_id":"4","last_reported":1781169836,"current_range_meters":7200,"station_id":"ce4bgup2rcd13ifvqcn0","pricing_plan_id":"cebpf4jnsgd1na2vs0mg"},{"bike_id":"ff3d0ed3-6ea2-48e4-b7e8-e28e8d0a023a","system_id":"levelo_inurba_marseille","lat":43.2959,"lon":5.37699,"is_reserved":false,"is_disabled":true,"rental_uris":{"android":"levelo://app?vid=ff3d0ed3-6ea2-48e4-b7e8-e28e8d0a023a","ios":"levelo://app?vid=ff3d0ed3-6ea2-48e4-b7e8-e28e8d0a023a"},"vehicle_type_id":"4","last_reported":1781169836,"current_range_meters":7200,"station_id":"ce4bgi92rcd13ifvqb90","pricing_plan_id":"cebpf4jnsgd1na2vs0mg"},{"bike_id":"27333929-ceaa-4e96-917c-5d4e9dba5448","system_id":"levelo_inurba_marseille","lat":43.32541,"lon":5.41436,"is_reserved":false,"is_disabled":false,"rental_uris":{"android":"levelo://app?vid=27333929-ceaa-4e96-917c-5d4e9dba5448","ios":"levelo://app?vid=27333929-ceaa-4e96-917c-5d4e9dba5448"},"vehicle_type_id":"4","last_reported":1781169836,"current_range_meters":7200,"station_id":"ce4bhq12rcd13ifvqhhg","pricing_plan_id":"cebpf4jnsgd1na2vs0mg"},{"bike_id":"9634c414-240c-4fff-a9df-d2619a6ec22c","system_id":"levelo_inurba_marseille","lat":43.27061,"lon":5.38284,"is_reserved":false,"is_disabled":false,"rental_uris":{"android":"levelo://app?vid=9634c414-240c-4fff-a9df-d2619a6ec22c","ios":"levelo://app?vid=9634c414-240c-4fff-a9df-d2619a6ec22c"},"vehicle_type_id":"4","last_reported":1781169836,"current_range_meters":7200,"station_id":"st_d3n2fo6cfp8s73cte1j0","pricing_plan_id":"cebpf4jnsgd1na2vs0mg"},{"bike_id":"439efd8f-a046-4aac-b3c3-6655ead4e680","system_id":"levelo_inurba_marseille","lat":43.28145,"lon":5.42638,"is_reserved":false,"is_disabled":false,"rental_uris":{"android":"levelo://app?vid=439efd8f-a046-4aac-b3c3-6655ead4e680","ios":"levelo://app?vid=439efd8f-a046-4aac-b3c3-6655ead4e680"},"vehicle_type_id":"4","last_reported":1781169836,"current_range_meters":7200,"station_id":"ce4bhnh2rcd13ifvqgug","pricing_plan_id":"cebpf4jnsgd1na2vs0mg"},{"bike_id":"7c131e63-4882-494d-814c-185065bffc7c","system_id":"levelo_inurba_marseille","lat":43.2848,"lon":5.48399,"is_reserved":false,"is_disabled":false,"rental_uris":{"android":"levelo://app?vid=7c131e63-4882-494d-814c-185065bffc7c","ios":"levelo://app?vid=7c131e63-4882-494d-814c-185065bffc7c"},"vehicle_type_id":"4","last_reported":1781169836,"current_range_meters":7200,"station_id":"st_d3svhcjqgbts73a3dn0g","pricing_plan_id":"cebpf4jnsgd1na2vs0mg"},{"bike_id":"72596ebd-ea6d-4b6d-968a-acb42e5b04cf","system_id":"levelo_inurba_marseille","lat":43.29619,"lon":5.37889,"is_reserved":false,"is_disabled":false,"rental_uris":{"android":"levelo://app?vid=72596ebd-ea6d-4b6d-968a-acb42e5b04cf","ios":"levelo://app?vid=72596ebd-ea6d-4b6d-968a-acb42e5b04cf"},"vehicle_type_id":"4","last_reported":1781169836,"current_range_meters":7200,"station_id":"","pricing_plan_id":"cebpf4jnsgd1na2vs0mg"},{"bike_id":"4343f291-38b8-47e7-a883-039a0fd0f77e","system_id":"levelo_inurba_marseille","lat":43.32115,"lon":5.36759,"is_reserved":false,"is_disabled":false,"rental_uris":{"android":"levelo://app?vid=4343f291-38b8-47e7-a883-039a0fd0f77e","ios":"levelo://app?vid=4343f291-38b8-47e7-a883-039a0fd0f77e"},"vehicle_type_id":"4","last_reported":1781169836,"current_range_meters":7200,"station_id":"ce4bhrh2rcd13ifvqhug","pricing_plan_id":"cebpf4jnsgd1na2vs0mg"},{"bike_id":"cf061b85-7a5f-4df9-9f01-b0768f07b7a0","system_id":"levelo_inurba_marseille","lat":43.30778,"lon":5.37641,"is_reserved":false,"is_disabled":false,"rental_uris":{"android":"levelo://app?vid=cf061b85-7a5f-4df9-9f01-b0768f07b7a0","ios":"levelo://app?vid=cf061b85-7a5f-4df9-9f01-b0768f07b7a0"},"vehicle_type_id":"4","last_reported":1781169836,"current_range_meters":7200,"station_id":"ce4bgv92rcd13ifvqcq0","pricing_plan_id":"cebpf4jnsgd1na2vs0mg"},{"bike_id":"ebdb7787-66f2-4501-97f6-44303a83a067","system_id":"levelo_inurba_marseille","lat":43.29305,"lon":5.37454,"is_reserved":false,"is_disabled":false,"rental_uris":{"android":"levelo://app?vid=ebdb7787-66f2-4501-97f6-44303a83a067","ios":"levelo://app?vid=ebdb7787-66f2-4501-97f6-44303a83a067"},"vehicle_type_id":"4","last_reported":1781169836,"current_range_meters":7200,"station_id":"ce4bgi12rcd13ifvqb70","pricing_plan_id":"cebpf4jnsgd1na2vs0mg"},{"bike_id":"0d1e873c-b33d-4059-bcba-f8d07ef97d13","system_id":"levelo_inurba_marseille","lat":43.32492,"lon":5.36579,"is_reserved":false,"is_disabled":false,"rental_uris":{"android":"levelo://app?vid=0d1e873c-b33d-4059-bcba-f8d07ef97d13","ios":"levelo://app?vid=0d1e873c-b33d-4059-bcba-f8d07ef97d13"},"vehicle_type_id":"4","last_reported":1781169836,"current_range_meters":7200,"station_id":"ce4bhs12rcd13ifvqhvg","pricing_plan_id":"cebpf4jnsgd1na2vs0mg"},{"bike_id":"55582244-d456-4b3b-bd53-fdfb81be3e50","system_id":"levelo_inurba_marseille","lat":43.22544,"lon":5.34827,"is_reserved":false,"is_disabled":false,"rental_uris":{"android":"levelo://app?vid=55582244-d456-4b3b-bd53-fdfb81be3e50","ios":"levelo://app?vid=55582244-d456-4b3b-bd53-fdfb81be3e50"},"vehicle_type_id":"4","last_reported":1781169836,"current_range_meters":7200,"station_id":"st_cvj5dfep6f1abm77gieg","pricing_plan_id":"cebpf4jnsgd1na2vs0mg"},{"bike_id":"4447eedc-956a-4b06-9e3d-6d7cc4b464d5","system_id":"levelo_inurba_marseille","lat":43.29298,"lon":5.36835,"is_reserved":false,"is_disabled":false,"rental_uris":{"android":"levelo://app?vid=4447eedc-956a-4b06-9e3d-6d7cc4b464d5","ios":"levelo://app?vid=4447eedc-956a-4b06-9e3d-6d7cc4b464d5"},"vehicle_type_id":"4","last_reported":1781169836,"current_range_meters":7200,"station_id":"ce4bhbp2rcd13ifvqesg","pricing_plan_id":"cebpf4jnsgd1na2vs0mg"},{"bike_id":"52571cc2-49cd-465e-824e-c38930dc7e28","system_id":"levelo_inurba_marseille","lat":43.24657,"lon":5.38153,"is_reserved":false,"is_disabled":false,"rental_uris":{"android":"levelo://app?vid=52571cc2-49cd-465e-824e-c38930dc7e28","ios":"levelo://app?vid=52571cc2-49cd-465e-824e-c38930dc7e28"},"vehicle_type_id":"4","last_reported":1781169836,"current_range_meters":7200,"station_id":"ce4bhih2rcd13ifvqfr0","pricing_plan_id":"cebpf4jnsgd1na2vs0mg"},{"bike_id":"b41976db-bf44-46db-bd91-c5b3de590a30","system_id":"levelo_inurba_marseille","lat":43.22532,"lon":5.34828,"is_reserved":false,"is_disabled":false,"rental_uris":{"android":"levelo://app?vid=b41976db-bf44-46db-bd91-c5b3de590a30","ios":"levelo://app?vid=b41976db-bf44-46db-bd91-c5b3de590a30"},"vehicle_type_id":"4","last_reported":1781169836,"current_range_meters":7200,"station_id":"st_cvj5dfep6f1abm77gieg","pricing_plan_id":"cebpf4jnsgd1na2vs0mg"},{"bike_id":"683a1a46-1c42-45e1-a20e-2321167fe1ab","system_id":"levelo_inurba_marseille","lat":43.296103,"lon":5.38097,"is_reserved":false,"is_disabled":false,"rental_uris":{"android":"levelo://app?vid=683a1a46-1c42-45e1-a20e-2321167fe1ab","ios":"levelo://app?vid=683a1a46-1c42-45e1-a20e-2321167fe1ab"},"vehicle_type_id":"4","last_reported":1781169836,"current_range_meters":8000,"station_id":"ce4bgl12rcd13ifvqbo0","pricing_plan_id":"cebpf4jnsgd1na2vs0mg"},{"bike_id":"03a7a031-8468-4601-8184-85ebd1c11bea","system_id":"levelo_inurba_marseille","lat":43.31624,"lon":5.38377,"is_reserved":false,"is_disabled":false,"rental_uris":{"android":"levelo://app?vid=03a7a031-8468-4601-8184-85ebd1c11bea","ios":"levelo://app?vid=03a7a031-8468-4601-8184-85ebd1c11bea"},"vehicle_type_id":"4","last_reported":1781169836,"current_range_meters":8000,"station_id":"","pricing_plan_id":"cebpf4jnsgd1na2vs0mg"},{"bike_id":"18c76cdd-8c55-4ae2-8cdd-582cfa98e23e","system_id":"levelo_inurba_marseille","lat":43.30517,"lon":5.36528,"is_reserved":false,"is_disabled":true,"rental_uris":{"android":"levelo://app?vid=18c76cdd-8c55-4ae2-8cdd-582cfa98e23e","ios":"levelo://app?vid=18c76cdd-8c55-4ae2-8cdd-582cfa98e23e"},"vehicle_type_id":"4","last_reported":1781169836,"current_range_meters":8000,"station_id":"","pricing_plan_id":"cebpf4jnsgd1na2vs0mg"},{"bike_id":"91f57b43-fef8-4751-ade7-b776093b8207","system_id":"levelo_inurba_marseille","lat":43.24401,"lon":5.37047,"is_reserved":false,"is_disabled":false,"rental_uris":{"android":"levelo://app?vid=91f57b43-fef8-4751-ade7-b776093b8207","ios":"levelo://app?vid=91f57b43-fef8-4751-ade7-b776093b8207"},"vehicle_type_id":"4","last_reported":1781169836,"current_range_meters":8000,"station_id":"ce4bhhh2rcd13ifvqfk0","pricing_plan_id":"cebpf4jnsgd1na2vs0mg"},{"bike_id":"6c4cdbe9-f36a-42db-bb97-467a45704dc2","system_id":"levelo_inurba_marseille","lat":43.26561,"lon":5.38994,"is_reserved":false,"is_disabled":false,"rental_uris":{"android":"levelo://app?vid=6c4cdbe9-f36a-42db-bb97-467a45704dc2","ios":"levelo://app?vid=6c4cdbe9-f36a-42db-bb97-467a45704dc2"},"vehicle_type_id":"4","last_reported":1781169836,"current_range_meters":8000,"station_id":"ce4bhe12rcd13ifvqf30","pricing_plan_id":"cebpf4jnsgd1na2vs0mg"},{"bike_id":"efd2eb6d-3212-4850-9146-53e46211f506","system_id":"levelo_inurba_marseille","lat":43.26031,"lon":5.37555,"is_reserved":false,"is_disabled":false,"rental_uris":{"android":"levelo://app?vid=efd2eb6d-3212-4850-9146-53e46211f506","ios":"levelo://app?vid=efd2eb6d-3212-4850-9146-53e46211f506"},"vehicle_type_id":"4","last_reported":1781169836,"current_range_meters":8000,"station_id":"ce4bhgh2rcd13ifvqfa0","pricing_plan_id":"cebpf4jnsgd1na2vs0mg"},{"bike_id":"0c1dc458-878c-4ebd-912e-32a6863822de","system_id":"levelo_inurba_marseille","lat":43.27073,"lon":5.42277,"is_reserved":false,"is_disabled":true,"rental_uris":{"android":"levelo://app?vid=0c1dc458-878c-4ebd-912e-32a6863822de","ios":"levelo://app?vid=0c1dc458-878c-4ebd-912e-32a6863822de"},"vehicle_type_id":"4","last_reported":1781169836,"current_range_meters":8000,"station_id":"ce4bhk92rcd13ifvqgb0","pricing_plan_id":"cebpf4jnsgd1na2vs0mg"},{"bike_id":"35b048a7-e18a-45e3-af10-0f69baf1889c","system_id":"levelo_inurba_marseille","lat":43.23192,"lon":5.35551,"is_reserved":false,"is_disabled":false,"rental_uris":{"android":"levelo://app?vid=35b048a7-e18a-45e3-af10-0f69baf1889c","ios":"levelo://app?vid=35b048a7-e18a-45e3-af10-0f69baf1889c"},"vehicle_type_id":"4","last_reported":1781169836,"current_range_meters":8000,"station_id":"ce4bhu92rcd13ifvqi70","pricing_plan_id":"cebpf4jnsgd1na2vs0mg"},{"bike_id":"e76b8826-608a-43d5-84ee-3eea9bc7666f","system_id":"levelo_inurba_marseille","lat":43.28437,"lon":5.39558,"is_reserved":false,"is_disabled":false,"rental_uris":{"android":"levelo://app?vid=e76b8826-608a-43d5-84ee-3eea9bc7666f","ios":"levelo://app?vid=e76b8826-608a-43d5-84ee-3eea9bc7666f"},"vehicle_type_id":"4","last_reported":1781169836,"current_range_meters":8000,"station_id":"","pricing_plan_id":"cebpf4jnsgd1na2vs0mg"},{"bike_id":"7a2582a1-9f4e-4b77-a662-c666529e13ef","system_id":"levelo_inurba_marseille","lat":43.28051,"lon":5.35005,"is_reserved":false,"is_disabled":false,"rental_uris":{"android":"levelo://app?vid=7a2582a1-9f4e-4b77-a662-c666529e13ef","ios":"levelo://app?vid=7a2582a1-9f4e-4b77-a662-c666529e13ef"},"vehicle_type_id":"4","last_reported":1781169836,"current_range_meters":8000,"station_id":"","pricing_plan_id":"cebpf4jnsgd1na2vs0mg"},{"bike_id":"44d7c9c5-2e3d-4e78-af2c-0af3b1e6b9c8","system_id":"levelo_inurba_marseille","lat":43.28941,"lon":5.36641,"is_reserved":false,"is_disabled":false,"rental_uris":{"android":"levelo://app?vid=44d7c9c5-2e3d-4e78-af2c-0af3b1e6b9c8","ios":"levelo://app?vid=44d7c9c5-2e3d-4e78-af2c-0af3b1e6b9c8"},"vehicle_type_id":"4","last_reported":1781169836,"current_range_meters":8000,"station_id":"ce4bhap2rcd13ifvqek0","pricing_plan_id":"cebpf4jnsgd1na2vs0mg"},{"bike_id":"f4604c3b-a56a-425f-8d90-3b8e1f77f859","system_id":"levelo_inurba_marseille","lat":43.31361,"lon":5.38505,"is_reserved":false,"is_disabled":false,"rental_uris":{"android":"levelo://app?vid=f4604c3b-a56a-425f-8d90-3b8e1f77f859","ios":"levelo://app?vid=f4604c3b-a56a-425f-8d90-3b8e1f77f859"},"vehicle_type_id":"4","last_reported":1781169836,"current_range_meters":8000,"station_id":"ce4bgt92rcd13ifvqcf0","pricing_plan_id":"cebpf4jnsgd1na2vs0mg"},{"bike_id":"cc474a1a-11ae-4d69-975a-b4b7c2ba9dbc","system_id":"levelo_inurba_marseille","lat":43.23143,"lon":5.43682,"is_reserved":false,"is_disabled":false,"rental_uris":{"android":"levelo://app?vid=cc474a1a-11ae-4d69-975a-b4b7c2ba9dbc","ios":"levelo://app?vid=cc474a1a-11ae-4d69-975a-b4b7c2ba9dbc"},"vehicle_type_id":"4","last_reported":1781169836,"current_range_meters":8000,"station_id":"ce4bhmp2rcd13ifvqgog","pricing_plan_id":"cebpf4jnsgd1na2vs0mg"},{"bike_id":"40de0209-043c-4ed6-84c3-7ac1da5cf58d","system_id":"levelo_inurba_marseille","lat":43.32105,"lon":5.36775,"is_reserved":false,"is_disabled":false,"rental_uris":{"android":"levelo://app?vid=40de0209-043c-4ed6-84c3-7ac1da5cf58d","ios":"levelo://app?vid=40de0209-043c-4ed6-84c3-7ac1da5cf58d"},"vehicle_type_id":"4","last_reported":1781169836,"current_range_meters":8000,"station_id":"ce4bhrh2rcd13ifvqhug","pricing_plan_id":"cebpf4jnsgd1na2vs0mg"},{"bike_id":"3b752045-6280-4a6d-a1a6-442f62fe3642","system_id":"levelo_inurba_marseille","lat":43.29038,"lon":5.37566,"is_reserved":false,"is_disabled":false,"rental_uris":{"android":"levelo://app?vid=3b752045-6280-4a6d-a1a6-442f62fe3642","ios":"levelo://app?vid=3b752045-6280-4a6d-a1a6-442f62fe3642"},"vehicle_type_id":"4","last_reported":1781169836,"current_range_meters":8000,"station_id":"ce4bh692rcd13ifvqe90","pricing_plan_id":"cebpf4jnsgd1na2vs0mg"},{"bike_id":"043e05a1-2a3a-475b-bdb0-08618687dc0a","system_id":"levelo_inurba_marseille","lat":43.26752,"lon":5.39437,"is_reserved":false,"is_disabled":false,"rental_uris":{"android":"levelo://app?vid=043e05a1-2a3a-475b-bdb0-08618687dc0a","ios":"levelo://app?vid=043e05a1-2a3a-475b-bdb0-08618687dc0a"},"vehicle_type_id":"4","last_reported":1781169836,"current_range_meters":8000,"station_id":"","pricing_plan_id":"cebpf4jnsgd1na2vs0mg"},{"bike_id":"0879deff-8fe1-47ae-94a9-b638dcbf5c01","system_id":"levelo_inurba_marseille","lat":43.31248,"lon":5.36831,"is_reserved":false,"is_disabled":false,"rental_uris":{"android":"levelo://app?vid=0879deff-8fe1-47ae-94a9-b638dcbf5c01","ios":"levelo://app?vid=0879deff-8fe1-47ae-94a9-b638dcbf5c01"},"vehicle_type_id":"4","last_reported":1781169836,"current_range_meters":8000,"station_id":"ce4bgl92rcd13ifvqbq0","pricing_plan_id":"cebpf4jnsgd1na2vs0mg"},{"bike_id":"2bb2f86e-584f-44f8-837c-e1ad0da13423","system_id":"levelo_inurba_marseille","lat":43.282697,"lon":5.350671,"is_reserved":false,"is_disabled":false,"rental_uris":{"android":"levelo://app?vid=2bb2f86e-584f-44f8-837c-e1ad0da13423","ios":"levelo://app?vid=2bb2f86e-584f-44f8-837c-e1ad0da13423"},"vehicle_type_id":"4","last_reported":1781169836,"current_range_meters":8000,"station_id":"ce4bhbp2rcd13ifvqerg","pricing_plan_id":"cebpf4jnsgd1na2vs0mg"},{"bike_id":"3c9222a1-4e9f-4e1e-85ac-7f5c27aef6de","system_id":"levelo_inurba_marseille","lat":43.30462,"lon":5.38891,"is_reserved":false,"is_disabled":true,"rental_uris":{"android":"levelo://app?vid=3c9222a1-4e9f-4e1e-85ac-7f5c27aef6de","ios":"levelo://app?vid=3c9222a1-4e9f-4e1e-85ac-7f5c27aef6de"},"vehicle_type_id":"4","last_reported":1781169836,"current_range_meters":8000,"station_id":"ce4bgk12rcd13ifvqbi0","pricing_plan_id":"cebpf4jnsgd1na2vs0mg"},{"bike_id":"032de8e6-0ec2-42ff-875f-57dfdb7e3c3e","system_id":"levelo_inurba_marseille","lat":43.31345,"lon":5.36721,"is_reserved":false,"is_disabled":false,"rental_uris":{"android":"levelo://app?vid=032de8e6-0ec2-42ff-875f-57dfdb7e3c3e","ios":"levelo://app?vid=032de8e6-0ec2-42ff-875f-57dfdb7e3c3e"},"vehicle_type_id":"4","last_reported":1781169836,"current_range_meters":8000,"station_id":"ce4bgr92rcd13ifvqc6g","pricing_plan_id":"cebpf4jnsgd1na2vs0mg"},{"bike_id":"f0a83dda-1edd-41cd-870a-04e8d8e83042","system_id":"levelo_inurba_marseille","lat":43.25219,"lon":5.41094,"is_reserved":false,"is_disabled":false,"rental_uris":{"android":"levelo://app?vid=f0a83dda-1edd-41cd-870a-04e8d8e83042","ios":"levelo://app?vid=f0a83dda-1edd-41cd-870a-04e8d8e83042"},"vehicle_type_id":"4","last_reported":1781169836,"current_range_meters":8000,"station_id":"","pricing_plan_id":"cebpf4jnsgd1na2vs0mg"},{"bike_id":"1c39282d-f72a-408a-adba-acceed4f1ee3","system_id":"levelo_inurba_marseille","lat":43.30931,"lon":5.36843,"is_reserved":false,"is_disabled":false,"rental_uris":{"android":"levelo://app?vid=1c39282d-f72a-408a-adba-acceed4f1ee3","ios":"levelo://app?vid=1c39282d-f72a-408a-adba-acceed4f1ee3"},"vehicle_type_id":"4","last_reported":1781169836,"current_range_meters":8000,"station_id":"ce4bgn92rcd13ifvqbvg","pricing_plan_id":"cebpf4jnsgd1na2vs0mg"},{"bike_id":"5ef8b45c-5a2e-4ef3-b317-791d97d054bf","system_id":"levelo_inurba_marseille","lat":43.27147,"lon":5.41407,"is_reserved":false,"is_disabled":false,"rental_uris":{"android":"levelo://app?vid=5ef8b45c-5a2e-4ef3-b317-791d97d054bf","ios":"levelo://app?vid=5ef8b45c-5a2e-4ef3-b317-791d97d054bf"},"vehicle_type_id":"4","last_reported":1781169836,"current_range_meters":8000,"station_id":"","pricing_plan_id":"cebpf4jnsgd1na2vs0mg"},{"bike_id":"0d9ec8c2-f4f8-46aa-9a87-53879647a3e7","system_id":"levelo_inurba_marseille","lat":43.30439,"lon":5.41551,"is_reserved":false,"is_disabled":false,"rental_uris":{"android":"levelo://app?vid=0d9ec8c2-f4f8-46aa-9a87-53879647a3e7","ios":"levelo://app?vid=0d9ec8c2-f4f8-46aa-9a87-53879647a3e7"},"vehicle_type_id":"4","last_reported":1781169836,"current_range_meters":8000,"station_id":"","pricing_plan_id":"cebpf4jnsgd1na2vs0mg"},{"bike_id":"8682f4e8-0798-4b4f-8fef-c4dc002ea1c8","system_id":"levelo_inurba_marseille","lat":43.29149,"lon":5.46117,"is_reserved":false,"is_disabled":false,"rental_uris":{"android":"levelo://app?vid=8682f4e8-0798-4b4f-8fef-c4dc002ea1c8","ios":"levelo://app?vid=8682f4e8-0798-4b4f-8fef-c4dc002ea1c8"},"vehicle_type_id":"4","last_reported":1781169836,"current_range_meters":8000,"station_id":"","pricing_plan_id":"cebpf4jnsgd1na2vs0mg"},{"bike_id":"643a5108-6712-460c-84ac-96a9e310c2a1","system_id":"levelo_inurba_marseille","lat":43.32334,"lon":5.36764,"is_reserved":false,"is_disabled":false,"rental_uris":{"android":"levelo://app?vid=643a5108-6712-460c-84ac-96a9e310c2a1","ios":"levelo://app?vid=643a5108-6712-460c-84ac-96a9e310c2a1"},"vehicle_type_id":"4","last_reported":1781169836,"current_range_meters":8400,"station_id":"ce4bhsh2rcd13ifvqi2g","pricing_plan_id":"cebpf4jnsgd1na2vs0mg"},{"bike_id":"05dbeb00-c94d-4fd8-88ff-0b9e5369bba0","system_id":"levelo_inurba_marseille","lat":43.24425,"lon":5.37017,"is_reserved":false,"is_disabled":false,"rental_uris":{"android":"levelo://app?vid=05dbeb00-c94d-4fd8-88ff-0b9e5369bba0","ios":"levelo://app?vid=05dbeb00-c94d-4fd8-88ff-0b9e5369bba0"},"vehicle_type_id":"4","last_reported":1781169836,"current_range_meters":8400,"station_id":"","pricing_plan_id":"cebpf4jnsgd1na2vs0mg"},{"bike_id":"63bed2f8-fb5f-432e-a032-c96a3b2c4e6f","system_id":"levelo_inurba_marseille","lat":43.28622,"lon":5.3869,"is_reserved":false,"is_disabled":false,"rental_uris":{"android":"levelo://app?vid=63bed2f8-fb5f-432e-a032-c96a3b2c4e6f","ios":"levelo://app?vid=63bed2f8-fb5f-432e-a032-c96a3b2c4e6f"},"vehicle_type_id":"4","last_reported":1781169836,"current_range_meters":8400,"station_id":"ce4bh492rcd13ifvqdug","pricing_plan_id":"cebpf4jnsgd1na2vs0mg"},{"bike_id":"a4519ab8-8a91-4627-a831-ddbbcc2b09e2","system_id":"levelo_inurba_marseille","lat":43.30422,"lon":5.39734,"is_reserved":false,"is_disabled":true,"rental_uris":{"android":"levelo://app?vid=a4519ab8-8a91-4627-a831-ddbbcc2b09e2","ios":"levelo://app?vid=a4519ab8-8a91-4627-a831-ddbbcc2b09e2"},"vehicle_type_id":"4","last_reported":1781169836,"current_range_meters":8400,"station_id":"ce4bh092rcd13ifvqd20","pricing_plan_id":"cebpf4jnsgd1na2vs0mg"},{"bike_id":"458184d5-3db4-4166-a3be-3b7f8f7c451a","system_id":"levelo_inurba_marseille","lat":43.278105,"lon":5.407174,"is_reserved":false,"is_disabled":false,"rental_uris":{"android":"levelo://app?vid=458184d5-3db4-4166-a3be-3b7f8f7c451a","ios":"levelo://app?vid=458184d5-3db4-4166-a3be-3b7f8f7c451a"},"vehicle_type_id":"4","last_reported":1781169836,"current_range_meters":8400,"station_id":"ce4bhnh2rcd13ifvqgtg","pricing_plan_id":"cebpf4jnsgd1na2vs0mg"},{"bike_id":"7228fead-11f4-4420-985a-f0fd937f1e1d","system_id":"levelo_inurba_marseille","lat":43.30902,"lon":5.36836,"is_reserved":false,"is_disabled":false,"rental_uris":{"android":"levelo://app?vid=7228fead-11f4-4420-985a-f0fd937f1e1d","ios":"levelo://app?vid=7228fead-11f4-4420-985a-f0fd937f1e1d"},"vehicle_type_id":"4","last_reported":1781169836,"current_range_meters":8400,"station_id":"ce4bgn92rcd13ifvqbvg","pricing_plan_id":"cebpf4jnsgd1na2vs0mg"},{"bike_id":"79279666-343b-4b19-86c9-622131a51a1f","system_id":"levelo_inurba_marseille","lat":43.29273,"lon":5.36841,"is_reserved":false,"is_disabled":false,"rental_uris":{"android":"levelo://app?vid=79279666-343b-4b19-86c9-622131a51a1f","ios":"levelo://app?vid=79279666-343b-4b19-86c9-622131a51a1f"},"vehicle_type_id":"4","last_reported":1781169836,"current_range_meters":8400,"station_id":"ce4bhbp2rcd13ifvqesg","pricing_plan_id":"cebpf4jnsgd1na2vs0mg"},{"bike_id":"17369bee-43fb-4510-ab11-4bc54a77a2f2","system_id":"levelo_inurba_marseille","lat":43.28609,"lon":5.35098,"is_reserved":false,"is_disabled":true,"rental_uris":{"android":"levelo://app?vid=17369bee-43fb-4510-ab11-4bc54a77a2f2","ios":"levelo://app?vid=17369bee-43fb-4510-ab11-4bc54a77a2f2"},"vehicle_type_id":"4","last_reported":1781169836,"current_range_meters":8400,"station_id":"ce4bhch2rcd13ifvqeug","pricing_plan_id":"cebpf4jnsgd1na2vs0mg"},{"bike_id":"860722fe-5c5a-4186-988e-8f94a0e241b3","system_id":"levelo_inurba_marseille","lat":43.32108,"lon":5.36765,"is_reserved":false,"is_disabled":false,"rental_uris":{"android":"levelo://app?vid=860722fe-5c5a-4186-988e-8f94a0e241b3","ios":"levelo://app?vid=860722fe-5c5a-4186-988e-8f94a0e241b3"},"vehicle_type_id":"4","last_reported":1781169836,"current_range_meters":8400,"station_id":"ce4bhrh2rcd13ifvqhug","pricing_plan_id":"cebpf4jnsgd1na2vs0mg"},{"bike_id":"8b7f23fc-1e65-43c2-998e-b3ee6ddf07c7","system_id":"levelo_inurba_marseille","lat":43.30135,"lon":5.37493,"is_reserved":false,"is_disabled":false,"rental_uris":{"android":"levelo://app?vid=8b7f23fc-1e65-43c2-998e-b3ee6ddf07c7","ios":"levelo://app?vid=8b7f23fc-1e65-43c2-998e-b3ee6ddf07c7"},"vehicle_type_id":"4","last_reported":1781169836,"current_range_meters":8400,"station_id":"","pricing_plan_id":"cebpf4jnsgd1na2vs0mg"},{"bike_id":"0a863416-481b-47ce-a3aa-6d981f931e44","system_id":"levelo_inurba_marseille","lat":43.30859,"lon":5.37326,"is_reserved":false,"is_disabled":false,"rental_uris":{"android":"levelo://app?vid=0a863416-481b-47ce-a3aa-6d981f931e44","ios":"levelo://app?vid=0a863416-481b-47ce-a3aa-6d981f931e44"},"vehicle_type_id":"4","last_reported":1781169836,"current_range_meters":8400,"station_id":"","pricing_plan_id":"cebpf4jnsgd1na2vs0mg"},{"bike_id":"44db3cc5-4513-4364-9997-6be5a1a3518c","system_id":"levelo_inurba_marseille","lat":43.30908,"lon":5.36846,"is_reserved":false,"is_disabled":true,"rental_uris":{"android":"levelo://app?vid=44db3cc5-4513-4364-9997-6be5a1a3518c","ios":"levelo://app?vid=44db3cc5-4513-4364-9997-6be5a1a3518c"},"vehicle_type_id":"4","last_reported":1781169836,"current_range_meters":8400,"station_id":"ce4bgn92rcd13ifvqbvg","pricing_plan_id":"cebpf4jnsgd1na2vs0mg"},{"bike_id":"8859d173-9f5d-4e39-86ed-34ec86a90175","system_id":"levelo_inurba_marseille","lat":43.29912,"lon":5.42786,"is_reserved":false,"is_disabled":false,"rental_uris":{"android":"levelo://app?vid=8859d173-9f5d-4e39-86ed-34ec86a90175","ios":"levelo://app?vid=8859d173-9f5d-4e39-86ed-34ec86a90175"},"vehicle_type_id":"4","last_reported":1781169836,"current_range_meters":8400,"station_id":"","pricing_plan_id":"cebpf4jnsgd1na2vs0mg"},{"bike_id":"551721cc-4abe-415c-b408-9f461dd4b762","system_id":"levelo_inurba_marseille","lat":43.24393,"lon":5.37054,"is_reserved":false,"is_disabled":false,"rental_uris":{"android":"levelo://app?vid=551721cc-4abe-415c-b408-9f461dd4b762","ios":"levelo://app?vid=551721cc-4abe-415c-b408-9f461dd4b762"},"vehicle_type_id":"4","last_reported":1781169836,"current_range_meters":8400,"station_id":"ce4bhhh2rcd13ifvqfk0","pricing_plan_id":"cebpf4jnsgd1na2vs0mg"},{"bike_id":"853be035-347e-40ad-8ff2-aa799e926a9d","system_id":"levelo_inurba_marseille","lat":43.26795,"lon":5.39406,"is_reserved":false,"is_disabled":false,"rental_uris":{"android":"levelo://app?vid=853be035-347e-40ad-8ff2-aa799e926a9d","ios":"levelo://app?vid=853be035-347e-40ad-8ff2-aa799e926a9d"},"vehicle_type_id":"4","last_reported":1781169836,"current_range_meters":8400,"station_id":"ce4bhh12rcd13ifvqfg0","pricing_plan_id":"cebpf4jnsgd1na2vs0mg"},{"bike_id":"24bfaaf0-8dab-45a5-93d3-921eca650bed","system_id":"levelo_inurba_marseille","lat":43.30304,"lon":5.39205,"is_reserved":false,"is_disabled":false,"rental_uris":{"android":"levelo://app?vid=24bfaaf0-8dab-45a5-93d3-921eca650bed","ios":"levelo://app?vid=24bfaaf0-8dab-45a5-93d3-921eca650bed"},"vehicle_type_id":"4","last_reported":1781169836,"current_range_meters":8400,"station_id":"ce4bgkh2rcd13ifvqbk0","pricing_plan_id":"cebpf4jnsgd1na2vs0mg"},{"bike_id":"e9ce25b8-b480-4907-8ce1-b8aecfbb3105","system_id":"levelo_inurba_marseille","lat":43.32334,"lon":5.3674,"is_reserved":false,"is_disabled":false,"rental_uris":{"android":"levelo://app?vid=e9ce25b8-b480-4907-8ce1-b8aecfbb3105","ios":"levelo://app?vid=e9ce25b8-b480-4907-8ce1-b8aecfbb3105"},"vehicle_type_id":"4","last_reported":1781169836,"current_range_meters":8400,"station_id":"ce4bhsh2rcd13ifvqi2g","pricing_plan_id":"cebpf4jnsgd1na2vs0mg"},{"bike_id":"b2f0cd6d-a04e-417e-bf4f-3815fe206c24","system_id":"levelo_inurba_marseille","lat":43.27616,"lon":5.36107,"is_reserved":false,"is_disabled":false,"rental_uris":{"android":"levelo://app?vid=b2f0cd6d-a04e-417e-bf4f-3815fe206c24","ios":"levelo://app?vid=b2f0cd6d-a04e-417e-bf4f-3815fe206c24"},"vehicle_type_id":"4","last_reported":1781169836,"current_range_meters":8400,"station_id":"ce4bgj92rcd13ifvqbe0","pricing_plan_id":"cebpf4jnsgd1na2vs0mg"},{"bike_id":"edd7f6cf-c00d-4334-ba4f-ddda86c6a12e","system_id":"levelo_inurba_marseille","lat":43.30316,"lon":5.37612,"is_reserved":false,"is_disabled":false,"rental_uris":{"android":"levelo://app?vid=edd7f6cf-c00d-4334-ba4f-ddda86c6a12e","ios":"levelo://app?vid=edd7f6cf-c00d-4334-ba4f-ddda86c6a12e"},"vehicle_type_id":"4","last_reported":1781169836,"current_range_meters":8400,"station_id":"","pricing_plan_id":"cebpf4jnsgd1na2vs0mg"},{"bike_id":"e8356f04-0033-414e-b32d-bba505a9cb7d","system_id":"levelo_inurba_marseille","lat":43.27567,"lon":5.38419,"is_reserved":false,"is_disabled":false,"rental_uris":{"android":"levelo://app?vid=e8356f04-0033-414e-b32d-bba505a9cb7d","ios":"levelo://app?vid=e8356f04-0033-414e-b32d-bba505a9cb7d"},"vehicle_type_id":"4","last_reported":1781169836,"current_range_meters":8400,"station_id":"ce4bhh92rcd13ifvqfi0","pricing_plan_id":"cebpf4jnsgd1na2vs0mg"},{"bike_id":"c8422fef-12dd-488e-9cf3-272ec40f64f6","system_id":"levelo_inurba_marseille","lat":43.31882,"lon":5.36812,"is_reserved":false,"is_disabled":false,"rental_uris":{"android":"levelo://app?vid=c8422fef-12dd-488e-9cf3-272ec40f64f6","ios":"levelo://app?vid=c8422fef-12dd-488e-9cf3-272ec40f64f6"},"vehicle_type_id":"4","last_reported":1781169836,"current_range_meters":8400,"station_id":"st_d6o2h0d0559c73evc1b0","pricing_plan_id":"cebpf4jnsgd1na2vs0mg"},{"bike_id":"0193df8e-e671-4439-b878-059ede893bd0","system_id":"levelo_inurba_marseille","lat":43.24647,"lon":5.38174,"is_reserved":false,"is_disabled":false,"rental_uris":{"android":"levelo://app?vid=0193df8e-e671-4439-b878-059ede893bd0","ios":"levelo://app?vid=0193df8e-e671-4439-b878-059ede893bd0"},"vehicle_type_id":"4","last_reported":1781169836,"current_range_meters":8400,"station_id":"ce4bhih2rcd13ifvqfr0","pricing_plan_id":"cebpf4jnsgd1na2vs0mg"},{"bike_id":"8b698430-0346-4585-9fa6-29ac948c79c8","system_id":"levelo_inurba_marseille","lat":43.27215,"lon":5.39181,"is_reserved":false,"is_disabled":false,"rental_uris":{"android":"levelo://app?vid=8b698430-0346-4585-9fa6-29ac948c79c8","ios":"levelo://app?vid=8b698430-0346-4585-9fa6-29ac948c79c8"},"vehicle_type_id":"4","last_reported":1781169836,"current_range_meters":8400,"station_id":"ce4bhhp2rcd13ifvqfm0","pricing_plan_id":"cebpf4jnsgd1na2vs0mg"},{"bike_id":"e5be4abe-41df-4111-820f-fdb434452c4e","system_id":"levelo_inurba_marseille","lat":43.30932,"lon":5.36834,"is_reserved":false,"is_disabled":false,"rental_uris":{"android":"levelo://app?vid=e5be4abe-41df-4111-820f-fdb434452c4e","ios":"levelo://app?vid=e5be4abe-41df-4111-820f-fdb434452c4e"},"vehicle_type_id":"4","last_reported":1781169836,"current_range_meters":8400,"station_id":"ce4bgn92rcd13ifvqbvg","pricing_plan_id":"cebpf4jnsgd1na2vs0mg"},{"bike_id":"75248494-6e46-4c4b-92d2-9db9ddbe9016","system_id":"levelo_inurba_marseille","lat":43.28472,"lon":5.48407,"is_reserved":false,"is_disabled":false,"rental_uris":{"android":"levelo://app?vid=75248494-6e46-4c4b-92d2-9db9ddbe9016","ios":"levelo://app?vid=75248494-6e46-4c4b-92d2-9db9ddbe9016"},"vehicle_type_id":"4","last_reported":1781169836,"current_range_meters":8400,"station_id":"st_d3svhcjqgbts73a3dn0g","pricing_plan_id":"cebpf4jnsgd1na2vs0mg"},{"bike_id":"327a3d5b-8941-4a46-9bd0-eabbebf8078d","system_id":"levelo_inurba_marseille","lat":43.23154,"lon":5.43714,"is_reserved":false,"is_disabled":false,"rental_uris":{"android":"levelo://app?vid=327a3d5b-8941-4a46-9bd0-eabbebf8078d","ios":"levelo://app?vid=327a3d5b-8941-4a46-9bd0-eabbebf8078d"},"vehicle_type_id":"4","last_reported":1781169836,"current_range_meters":8800,"station_id":"ce4bhmp2rcd13ifvqgog","pricing_plan_id":"cebpf4jnsgd1na2vs0mg"},{"bike_id":"4db29cef-f359-45b4-aa25-c9721ce8bdab","system_id":"levelo_inurba_marseille","lat":43.25937,"lon":5.40903,"is_reserved":false,"is_disabled":false,"rental_uris":{"android":"levelo://app?vid=4db29cef-f359-45b4-aa25-c9721ce8bdab","ios":"levelo://app?vid=4db29cef-f359-45b4-aa25-c9721ce8bdab"},"vehicle_type_id":"4","last_reported":1781169836,"current_range_meters":8800,"station_id":"ce4bhm92rcd13ifvqglg","pricing_plan_id":"cebpf4jnsgd1na2vs0mg"},{"bike_id":"2f478b7c-c291-4784-82e8-718780e1d080","system_id":"levelo_inurba_marseille","lat":43.28169,"lon":5.42609,"is_reserved":false,"is_disabled":false,"rental_uris":{"android":"levelo://app?vid=2f478b7c-c291-4784-82e8-718780e1d080","ios":"levelo://app?vid=2f478b7c-c291-4784-82e8-718780e1d080"},"vehicle_type_id":"4","last_reported":1781169836,"current_range_meters":8800,"station_id":"ce4bhnh2rcd13ifvqgug","pricing_plan_id":"cebpf4jnsgd1na2vs0mg"},{"bike_id":"b2ad6388-0d4f-4e9c-8ff3-f1ad38b97382","system_id":"levelo_inurba_marseille","lat":43.27676,"lon":5.42441,"is_reserved":false,"is_disabled":false,"rental_uris":{"android":"levelo://app?vid=b2ad6388-0d4f-4e9c-8ff3-f1ad38b97382","ios":"levelo://app?vid=b2ad6388-0d4f-4e9c-8ff3-f1ad38b97382"},"vehicle_type_id":"4","last_reported":1781169836,"current_range_meters":8800,"station_id":"","pricing_plan_id":"cebpf4jnsgd1na2vs0mg"},{"bike_id":"a374615f-bb7a-4772-a6f6-22dbd7b71939","system_id":"levelo_inurba_marseille","lat":43.30859,"lon":5.37178,"is_reserved":false,"is_disabled":true,"rental_uris":{"android":"levelo://app?vid=a374615f-bb7a-4772-a6f6-22dbd7b71939","ios":"levelo://app?vid=a374615f-bb7a-4772-a6f6-22dbd7b71939"},"vehicle_type_id":"4","last_reported":1781169836,"current_range_meters":8800,"station_id":"","pricing_plan_id":"cebpf4jnsgd1na2vs0mg"},{"bike_id":"4700ed76-ce75-475e-b8de-0bb4632f1a85","system_id":"levelo_inurba_marseille","lat":43.27324,"lon":5.39091,"is_reserved":false,"is_disabled":false,"rental_uris":{"android":"levelo://app?vid=4700ed76-ce75-475e-b8de-0bb4632f1a85","ios":"levelo://app?vid=4700ed76-ce75-475e-b8de-0bb4632f1a85"},"vehicle_type_id":"4","last_reported":1781169836,"current_range_meters":8800,"station_id":"ce4bhgp2rcd13ifvqfe0","pricing_plan_id":"cebpf4jnsgd1na2vs0mg"},{"bike_id":"88803a07-85de-49f3-aadf-f6937f1f2954","system_id":"levelo_inurba_marseille","lat":43.32664,"lon":5.40954,"is_reserved":false,"is_disabled":false,"rental_uris":{"android":"levelo://app?vid=88803a07-85de-49f3-aadf-f6937f1f2954","ios":"levelo://app?vid=88803a07-85de-49f3-aadf-f6937f1f2954"},"vehicle_type_id":"4","last_reported":1781169836,"current_range_meters":8800,"station_id":"ce4bhpp2rcd13ifvqhgg","pricing_plan_id":"cebpf4jnsgd1na2vs0mg"},{"bike_id":"c3330023-c997-4b90-8a68-a4726b0cc17b","system_id":"levelo_inurba_marseille","lat":43.31443,"lon":5.36956,"is_reserved":false,"is_disabled":false,"rental_uris":{"android":"levelo://app?vid=c3330023-c997-4b90-8a68-a4726b0cc17b","ios":"levelo://app?vid=c3330023-c997-4b90-8a68-a4726b0cc17b"},"vehicle_type_id":"4","last_reported":1781169836,"current_range_meters":8800,"station_id":"","pricing_plan_id":"cebpf4jnsgd1na2vs0mg"},{"bike_id":"c5f95858-9404-4189-9ca1-430777c86dc3","system_id":"levelo_inurba_marseille","lat":43.2257,"lon":5.41624,"is_reserved":false,"is_disabled":false,"rental_uris":{"android":"levelo://app?vid=c5f95858-9404-4189-9ca1-430777c86dc3","ios":"levelo://app?vid=c5f95858-9404-4189-9ca1-430777c86dc3"},"vehicle_type_id":"4","last_reported":1781169836,"current_range_meters":8800,"station_id":"st_d2o4gvlbi1j2169b742g","pricing_plan_id":"cebpf4jnsgd1na2vs0mg"},{"bike_id":"b6d507f5-c915-4915-8d1e-3c84726370da","system_id":"levelo_inurba_marseille","lat":43.32116,"lon":5.36777,"is_reserved":false,"is_disabled":false,"rental_uris":{"android":"levelo://app?vid=b6d507f5-c915-4915-8d1e-3c84726370da","ios":"levelo://app?vid=b6d507f5-c915-4915-8d1e-3c84726370da"},"vehicle_type_id":"4","last_reported":1781169836,"current_range_meters":8800,"station_id":"ce4bhrh2rcd13ifvqhug","pricing_plan_id":"cebpf4jnsgd1na2vs0mg"},{"bike_id":"d505d5a2-f230-4c62-8bb4-09c6f29fd74d","system_id":"levelo_inurba_marseille","lat":43.2828,"lon":5.35063,"is_reserved":false,"is_disabled":true,"rental_uris":{"android":"levelo://app?vid=d505d5a2-f230-4c62-8bb4-09c6f29fd74d","ios":"levelo://app?vid=d505d5a2-f230-4c62-8bb4-09c6f29fd74d"},"vehicle_type_id":"4","last_reported":1781169836,"current_range_meters":8800,"station_id":"ce4bhbp2rcd13ifvqerg","pricing_plan_id":"cebpf4jnsgd1na2vs0mg"},{"bike_id":"f63e0e69-6a54-4e19-8d8e-f67680de3ed1","system_id":"levelo_inurba_marseille","lat":43.24643,"lon":5.43148,"is_reserved":false,"is_disabled":false,"rental_uris":{"android":"levelo://app?vid=f63e0e69-6a54-4e19-8d8e-f67680de3ed1","ios":"levelo://app?vid=f63e0e69-6a54-4e19-8d8e-f67680de3ed1"},"vehicle_type_id":"4","last_reported":1781169836,"current_range_meters":8800,"station_id":"st_d2m6c4gdas8pm72e190g","pricing_plan_id":"cebpf4jnsgd1na2vs0mg"},{"bike_id":"552d24b2-ca2f-4944-9b71-82d87508bd66","system_id":"levelo_inurba_marseille","lat":43.28704,"lon":5.38318,"is_reserved":false,"is_disabled":false,"rental_uris":{"android":"levelo://app?vid=552d24b2-ca2f-4944-9b71-82d87508bd66","ios":"levelo://app?vid=552d24b2-ca2f-4944-9b71-82d87508bd66"},"vehicle_type_id":"4","last_reported":1781169836,"current_range_meters":8800,"station_id":"","pricing_plan_id":"cebpf4jnsgd1na2vs0mg"},{"bike_id":"90f8f679-21ba-45f4-87f3-79468aeeabc5","system_id":"levelo_inurba_marseille","lat":43.31897,"lon":5.36795,"is_reserved":false,"is_disabled":false,"rental_uris":{"android":"levelo://app?vid=90f8f679-21ba-45f4-87f3-79468aeeabc5","ios":"levelo://app?vid=90f8f679-21ba-45f4-87f3-79468aeeabc5"},"vehicle_type_id":"4","last_reported":1781169836,"current_range_meters":8800,"station_id":"st_d6o2h0d0559c73evc1b0","pricing_plan_id":"cebpf4jnsgd1na2vs0mg"},{"bike_id":"a6eb8619-ecdd-42bd-beb1-131b78ce7e1c","system_id":"levelo_inurba_marseille","lat":43.29631,"lon":5.40593,"is_reserved":false,"is_disabled":false,"rental_uris":{"android":"levelo://app?vid=a6eb8619-ecdd-42bd-beb1-131b78ce7e1c","ios":"levelo://app?vid=a6eb8619-ecdd-42bd-beb1-131b78ce7e1c"},"vehicle_type_id":"4","last_reported":1781169836,"current_range_meters":8800,"station_id":"ce4bh0h2rcd13ifvqd60","pricing_plan_id":"cebpf4jnsgd1na2vs0mg"},{"bike_id":"2b8c516b-f028-4270-861e-62a058dbfe75","system_id":"levelo_inurba_marseille","lat":43.30133,"lon":5.37408,"is_reserved":false,"is_disabled":false,"rental_uris":{"android":"levelo://app?vid=2b8c516b-f028-4270-861e-62a058dbfe75","ios":"levelo://app?vid=2b8c516b-f028-4270-861e-62a058dbfe75"},"vehicle_type_id":"4","last_reported":1781169836,"current_range_meters":8800,"station_id":"ce4bgs92rcd13ifvqcc0","pricing_plan_id":"cebpf4jnsgd1na2vs0mg"},{"bike_id":"70adc49c-37fa-421a-890f-a1c6f4732667","system_id":"levelo_inurba_marseille","lat":43.24766,"lon":5.38712,"is_reserved":false,"is_disabled":true,"rental_uris":{"android":"levelo://app?vid=70adc49c-37fa-421a-890f-a1c6f4732667","ios":"levelo://app?vid=70adc49c-37fa-421a-890f-a1c6f4732667"},"vehicle_type_id":"4","last_reported":1781169836,"current_range_meters":8800,"station_id":"","pricing_plan_id":"cebpf4jnsgd1na2vs0mg"},{"bike_id":"2507d607-3822-4c87-a669-ab9b0690fc01","system_id":"levelo_inurba_marseille","lat":43.28606,"lon":5.35102,"is_reserved":false,"is_disabled":false,"rental_uris":{"android":"levelo://app?vid=2507d607-3822-4c87-a669-ab9b0690fc01","ios":"levelo://app?vid=2507d607-3822-4c87-a669-ab9b0690fc01"},"vehicle_type_id":"4","last_reported":1781169836,"current_range_meters":8800,"station_id":"ce4bhch2rcd13ifvqeug","pricing_plan_id":"cebpf4jnsgd1na2vs0mg"},{"bike_id":"d7cdbefd-0fea-43c5-9229-35995da54aed","system_id":"levelo_inurba_marseille","lat":43.27066,"lon":5.38302,"is_reserved":false,"is_disabled":false,"rental_uris":{"android":"levelo://app?vid=d7cdbefd-0fea-43c5-9229-35995da54aed","ios":"levelo://app?vid=d7cdbefd-0fea-43c5-9229-35995da54aed"},"vehicle_type_id":"4","last_reported":1781169836,"current_range_meters":8800,"station_id":"st_d3n2fo6cfp8s73cte1j0","pricing_plan_id":"cebpf4jnsgd1na2vs0mg"},