{"last_updated":1746817661,"ttl":60,"version":"2.2","data":{"bikes":[{"bike_id":"e70a6cc7-17eb-4c4e-8e7c-f66b5cfc0fab","system_id":"levelo_inurba_marseille","lat":43.21197,"lon":5.35065,"is_reserved":false,"is_disabled":false,"rental_uris":{"android":"levelo://app?vid=e70a6cc7-17eb-4c4e-8e7c-f66b5cfc0fab","ios":"levelo://app?vid=e70a6cc7-17eb-4c4e-8e7c-f66b5cfc0fab"},"vehicle_type_id":"4","last_reported":1746817661,"current_range_meters":2800,"station_id":"st_cvj6sg6p6f1abm77japg","pricing_plan_id":"cebpf4jnsgd1na2vs0mg"},{"bike_id":"825322da-3e0b-45fd-9afd-6e7a6cad69d5","system_id":"levelo_inurba_marseille","lat":43.254974,"lon":5.37652,"is_reserved":false,"is_disabled":false,"rental_uris":{"android":"levelo://app?vid=825322da-3e0b-45fd-9afd-6e7a6cad69d5","ios":"levelo://app?vid=825322da-3e0b-45fd-9afd-6e7a6cad69d5"},"vehicle_type_id":"4","last_reported":1746817661,"current_range_meters":2800,"station_id":"ce4bhh12rcd13ifvqff0","pricing_plan_id":"cebpf4jnsgd1na2vs0mg"},{"bike_id":"52bdcc1c-abcb-4910-837c-90633a2d6c21","system_id":"levelo_inurba_marseille","lat":43.23181,"lon":5.39992,"is_reserved":false,"is_disabled":false,"rental_uris":{"android":"levelo://app?vid=52bdcc1c-abcb-4910-837c-90633a2d6c21","ios":"levelo://app?vid=52bdcc1c-abcb-4910-837c-90633a2d6c21"},"vehicle_type_id":"4","last_reported":1746817661,"current_range_meters":3200,"station_id":"ce4bhn12rcd13ifvqgqg","pricing_plan_id":"cebpf4jnsgd1na2vs0mg"},{"bike_id":"25a96692-2520-4afa-9aa1-9349c25bb692","system_id":"levelo_inurba_marseille","lat":43.3053,"lon":5.36527,"is_reserved":false,"is_disabled":true,"rental_uris":{"android":"levelo://app?vid=25a96692-2520-4afa-9aa1-9349c25bb692","ios":"levelo://app?vid=25a96692-2520-4afa-9aa1-9349c25bb692"},"vehicle_type_id":"4","last_reported":1746817661,"current_range_meters":4000,"station_id":"ce4bgs12rcd13ifvqcag","pricing_plan_id":"cebpf4jnsgd1na2vs0mg"},{"bike_id":"e84dfa59-6ee4-4036-a1e9-df345d86dadf","system_id":"levelo_inurba_marseille","lat":43.28151,"lon":5.42643,"is_reserved":false,"is_disabled":false,"rental_uris":{"android":"levelo://app?vid=e84dfa59-6ee4-4036-a1e9-df345d86dadf","ios":"levelo://app?vid=e84dfa59-6ee4-4036-a1e9-df345d86dadf"},"vehicle_type_id":"4","last_reported":1746817661,"current_range_meters":4400,"station_id":"ce4bhnh2rcd13ifvqgug","pricing_plan_id":"cebpf4jnsgd1na2vs0mg"},{"bike_id":"29d85ebb-d59e-4973-b101-18d9dec82fc9","system_id":"levelo_inurba_marseille","lat":43.22929,"lon":5.35375,"is_reserved":false,"is_disabled":false,"rental_uris":{"android":"levelo://app?vid=29d85ebb-d59e-4973-b101-18d9dec82fc9","ios":"levelo://app?vid=29d85ebb-d59e-4973-b101-18d9dec82fc9"},"vehicle_type_id":"4","last_reported":1746817661,"current_range_meters":4400,"station_id":"cpo3532slgdg3j2ikp40","pricing_plan_id":"cebpf4jnsgd1na2vs0mg"},{"bike_id":"07bff7f9-4b28-40f6-9f19-677eae3d40dc","system_id":"levelo_inurba_marseille","lat":43.299652,"lon":5.384939,"is_reserved":false,"is_disabled":false,"rental_uris":{"android":"levelo://app?vid=07bff7f9-4b28-40f6-9f19-677eae3d40dc","ios":"levelo://app?vid=07bff7f9-4b28-40f6-9f19-677eae3d40dc"},"vehicle_type_id":"4","last_reported":1746817661,"current_range_meters":4800,"station_id":"ce4bgj92rcd13ifvqbd0","pricing_plan_id":"cebpf4jnsgd1na2vs0mg"},{"bike_id":"af44b6b7-06af-4c19-8105-49b4080b5e1d","system_id":"levelo_inurba_marseille","lat":43.231887,"lon":5.399913,"is_reserved":false,"is_disabled":false,"rental_uris":{"android":"levelo://app?vid=af44b6b7-06af-4c19-8105-49b4080b5e1d","ios":"levelo://app?vid=af44b6b7-06af-4c19-8105-49b4080b5e1d"},"vehicle_type_id":"4","last_reported":1746817661,"current_range_meters":4800,"station_id":"ce4bhn12rcd13ifvqgqg","pricing_plan_id":"cebpf4jnsgd1na2vs0mg"},{"bike_id":"1f41fdc2-6f13-4cae-8ac3-3d1765a1d69a","system_id":"levelo_inurba_marseille","lat":43.29872,"lon":5.39733,"is_reserved":false,"is_disabled":false,"rental_uris":{"android":"levelo://app?vid=1f41fdc2-6f13-4cae-8ac3-3d1765a1d69a","ios":"levelo://app?vid=1f41fdc2-6f13-4cae-8ac3-3d1765a1d69a"},"vehicle_type_id":"4","last_reported":1746817661,"current_range_meters":4400,"station_id":"ce4bh0h2rcd13ifvqd50","pricing_plan_id":"cebpf4jnsgd1na2vs0mg"},{"bike_id":"df06b9c3-ad61-4168-b257-b97c25abf328","system_id":"levelo_inurba_marseille","lat":43.31178,"lon":5.38721,"is_reserved":false,"is_disabled":false,"rental_uris":{"android":"levelo://app?vid=df06b9c3-ad61-4168-b257-b97c25abf328","ios":"levelo://app?vid=df06b9c3-ad61-4168-b257-b97c25abf328"},"vehicle_type_id":"4","last_reported":1746817661,"current_range_meters":5600,"station_id":"ce4bgv12rcd13ifvqcp0","pricing_plan_id":"cebpf4jnsgd1na2vs0mg"},{"bike_id":"fb073c8f-b48f-4c0c-9ebf-e915f4e8e24d","system_id":"levelo_inurba_marseille","lat":43.307471,"lon":5.424623,"is_reserved":false,"is_disabled":false,"rental_uris":{"android":"levelo://app?vid=fb073c8f-b48f-4c0c-9ebf-e915f4e8e24d","ios":"levelo://app?vid=fb073c8f-b48f-4c0c-9ebf-e915f4e8e24d"},"vehicle_type_id":"4","last_reported":1746817661,"current_range_meters":5600,"station_id":"st_cvj6ca6bvosntc0bfgr0","pricing_plan_id":"cebpf4jnsgd1na2vs0mg"},{"bike_id":"917871c2-216c-4ad9-829c-006b8b8a3dce","system_id":"levelo_inurba_marseille","lat":43.292,"lon":5.35807,"is_reserved":false,"is_disabled":false,"rental_uris":{"android":"levelo://app?vid=917871c2-216c-4ad9-829c-006b8b8a3dce","ios":"levelo://app?vid=917871c2-216c-4ad9-829c-006b8b8a3dce"},"vehicle_type_id":"4","last_reported":1746817661,"current_range_meters":5600,"station_id":"ce4bhb12rcd13ifvqel0","pricing_plan_id":"cebpf4jnsgd1na2vs0mg"},{"bike_id":"3c6d0c37-471a-4ce7-b166-52edc6a87b8b","system_id":"levelo_inurba_marseille","lat":43.26229,"lon":5.40437,"is_reserved":false,"is_disabled":true,"rental_uris":{"android":"levelo://app?vid=3c6d0c37-471a-4ce7-b166-52edc6a87b8b","ios":"levelo://app?vid=3c6d0c37-471a-4ce7-b166-52edc6a87b8b"},"vehicle_type_id":"4","last_reported":1746817661,"current_range_meters":5600,"station_id":"ce4bhmh2rcd13ifvqgmg","pricing_plan_id":"cebpf4jnsgd1na2vs0mg"},{"bike_id":"d65e23ea-0b88-4960-8078-f68aab48ca0b","system_id":"levelo_inurba_marseille","lat":43.300704,"lon":5.389901,"is_reserved":false,"is_disabled":false,"rental_uris":{"android":"levelo://app?vid=d65e23ea-0b88-4960-8078-f68aab48ca0b","ios":"levelo://app?vid=d65e23ea-0b88-4960-8078-f68aab48ca0b"},"vehicle_type_id":"4","last_reported":1746817661,"current_range_meters":5600,"station_id":"ce4bh012rcd13ifvqd10","pricing_plan_id":"cebpf4jnsgd1na2vs0mg"},{"bike_id":"73c402f7-62b5-436b-a26c-991cd695a3fe","system_id":"levelo_inurba_marseille","lat":43.305401,"lon":5.36727,"is_reserved":false,"is_disabled":false,"rental_uris":{"android":"levelo://app?vid=73c402f7-62b5-436b-a26c-991cd695a3fe","ios":"levelo://app?vid=73c402f7-62b5-436b-a26c-991cd695a3fe"},"vehicle_type_id":"4","last_reported":1746817661,"current_range_meters":6000,"station_id":"ce4bgrp2rcd13ifvqc9g","pricing_plan_id":"cebpf4jnsgd1na2vs0mg"},{"bike_id":"85ce6719-4633-4ac5-af4a-457c71a84757","system_id":"levelo_inurba_marseille","lat":43.29587,"lon":5.38114,"is_reserved":false,"is_disabled":false,"rental_uris":{"android":"levelo://app?vid=85ce6719-4633-4ac5-af4a-457c71a84757","ios":"levelo://app?vid=85ce6719-4633-4ac5-af4a-457c71a84757"},"vehicle_type_id":"4","last_reported":1746817661,"current_range_meters":6000,"station_id":"ce4bgl12rcd13ifvqbo0","pricing_plan_id":"cebpf4jnsgd1na2vs0mg"},{"bike_id":"4dfaeac6-3007-4f5d-bc9d-26f9bcfa4129","system_id":"levelo_inurba_marseille","lat":43.30331,"lon":5.40452,"is_reserved":false,"is_disabled":false,"rental_uris":{"android":"levelo://app?vid=4dfaeac6-3007-4f5d-bc9d-26f9bcfa4129","ios":"levelo://app?vid=4dfaeac6-3007-4f5d-bc9d-26f9bcfa4129"},"vehicle_type_id":"4","last_reported":1746817661,"current_range_meters":6800,"station_id":"ce4bh012rcd13ifvqd10","pricing_plan_id":"cebpf4jnsgd1na2vs0mg"},{"bike_id":"ce891d78-268d-4657-895e-e7d14c9c13da","system_id":"levelo_inurba_marseille","lat":43.255811,"lon":5.382272,"is_reserved":false,"is_disabled":false,"rental_uris":{"android":"levelo://app?vid=ce891d78-268d-4657-895e-e7d14c9c13da","ios":"levelo://app?vid=ce891d78-268d-4657-895e-e7d14c9c13da"},"vehicle_type_id":"4","last_reported":1746817661,"current_range_meters":6800,"station_id":"ce4bhih2rcd13ifvqfs0","pricing_plan_id":"cebpf4jnsgd1na2vs0mg"},{"bike_id":"ce22ec69-a81d-4072-b05a-1b8f6e0f8b7a","system_id":"levelo_inurba_marseille","lat":43.24814,"lon":5.37449,"is_reserved":false,"is_disabled":false,"rental_uris":{"android":"levelo://app?vid=ce22ec69-a81d-4072-b05a-1b8f6e0f8b7a","ios":"levelo://app?vid=ce22ec69-a81d-4072-b05a-1b8f6e0f8b7a"},"vehicle_type_id":"4","last_reported":1746817661,"current_range_meters":6800,"station_id":"ce4bhgh2rcd13ifvqfb0","pricing_plan_id":"cebpf4jnsgd1na2vs0mg"},{"bike_id":"f76d0e06-a922-41bb-9df5-d0a5c7d3f9fc","system_id":"levelo_inurba_marseille","lat":43.28922,"lon":5.38391,"is_reserved":false,"is_disabled":true,"rental_uris":{"android":"levelo://app?vid=f76d0e06-a922-41bb-9df5-d0a5c7d3f9fc","ios":"levelo://app?vid=f76d0e06-a922-41bb-9df5-d0a5c7d3f9fc"},"vehicle_type_id":"4","last_reported":1746817661,"current_range_meters":5600,"station_id":"ce4bh612rcd13ifvqe6g","pricing_plan_id":"cebpf4jnsgd1na2vs0mg"},{"bike_id":"6633cee8-a03f-49fe-8fe1-3e9f544ce30b","system_id":"levelo_inurba_marseille","lat":43.311673,"lon":5.38717,"is_reserved":false,"is_disabled":false,"rental_uris":{"android":"levelo://app?vid=6633cee8-a03f-49fe-8fe1-3e9f544ce30b","ios":"levelo://app?vid=6633cee8-a03f-49fe-8fe1-3e9f544ce30b"},"vehicle_type_id":"4","last_reported":1746817661,"current_range_meters":6800,"station_id":"ce4bgv12rcd13ifvqcp0","pricing_plan_id":"cebpf4jnsgd1na2vs0mg"},{"bike_id":"f673a50d-776a-4d4f-8bc2-0f75017ffb52","system_id":"levelo_inurba_marseille","lat":43.284499,"lon":5.358347,"is_reserved":false,"is_disabled":false,"rental_uris":{"android":"levelo://app?vid=f673a50d-776a-4d4f-8bc2-0f75017ffb52","ios":"levelo://app?vid=f673a50d-776a-4d4f-8bc2-0f75017ffb52"},"vehicle_type_id":"4","last_reported":1746817661,"current_range_meters":7200,"station_id":"ce4bhah2rcd13ifvqei0","pricing_plan_id":"cebpf4jnsgd1na2vs0mg"},{"bike_id":"0e01b1b4-a2c4-4044-8420-c7d18a5a94eb","system_id":"levelo_inurba_marseille","lat":43.28154,"lon":5.42646,"is_reserved":false,"is_disabled":false,"rental_uris":{"android":"levelo://app?vid=0e01b1b4-a2c4-4044-8420-c7d18a5a94eb","ios":"levelo://app?vid=0e01b1b4-a2c4-4044-8420-c7d18a5a94eb"},"vehicle_type_id":"4","last_reported":1746817661,"current_range_meters":7200,"station_id":"ce4bhnh2rcd13ifvqgug","pricing_plan_id":"cebpf4jnsgd1na2vs0mg"},{"bike_id":"817558b1-d7a4-455c-90e0-fe7bc23c4f74","system_id":"levelo_inurba_marseille","lat":43.29275,"lon":5.3684,"is_reserved":false,"is_disabled":false,"rental_uris":{"android":"levelo://app?vid=817558b1-d7a4-455c-90e0-fe7bc23c4f74","ios":"levelo://app?vid=817558b1-d7a4-455c-90e0-fe7bc23c4f74"},"vehicle_type_id":"4","last_reported":1746817661,"current_range_meters":7200,"station_id":"ce4bhbp2rcd13ifvqesg","pricing_plan_id":"cebpf4jnsgd1na2vs0mg"},{"bike_id":"eabf6de9-ac45-4b34-b2cd-1041883d4522","system_id":"levelo_inurba_marseille","lat":43.28158,"lon":5.42645,"is_reserved":false,"is_disabled":false,"rental_uris":{"android":"levelo://app?vid=eabf6de9-ac45-4b34-b2cd-1041883d4522","ios":"levelo://app?vid=eabf6de9-ac45-4b34-b2cd-1041883d4522"},"vehicle_type_id":"4","last_reported":1746817661,"current_range_meters":7200,"station_id":"ce4bhnh2rcd13ifvqgug","pricing_plan_id":"cebpf4jnsgd1na2vs0mg"},{"bike_id":"f2f90bab-4d3b-4d94-a73d-de59ad8ab851","system_id":"levelo_inurba_marseille","lat":43.30955,"lon":5.39027,"is_reserved":false,"is_disabled":false,"rental_uris":{"android":"levelo://app?vid=f2f90bab-4d3b-4d94-a73d-de59ad8ab851","ios":"levelo://app?vid=f2f90bab-4d3b-4d94-a73d-de59ad8ab851"},"vehicle_type_id":"4","last_reported":1746817661,"current_range_meters":6800,"station_id":"ce4bgup2rcd13ifvqco0","pricing_plan_id":"cebpf4jnsgd1na2vs0mg"},{"bike_id":"ba32ee3a-6a49-437c-90fb-7756461a61f4","system_id":"levelo_inurba_marseille","lat":43.24189,"lon":5.36388,"is_reserved":false,"is_disabled":false,"rental_uris":{"android":"levelo://app?vid=ba32ee3a-6a49-437c-90fb-7756461a61f4","ios":"levelo://app?vid=ba32ee3a-6a49-437c-90fb-7756461a61f4"},"vehicle_type_id":"4","last_reported":1746817661,"current_range_meters":8000,"station_id":"cpo36qri1sfpv3e86is0","pricing_plan_id":"cebpf4jnsgd1na2vs0mg"},{"bike_id":"889a1d0b-7970-4fa4-9ab6-5695d56ce84a","system_id":"levelo_inurba_marseille","lat":43.31265,"lon":5.40173,"is_reserved":false,"is_disabled":false,"rental_uris":{"android":"levelo://app?vid=889a1d0b-7970-4fa4-9ab6-5695d56ce84a","ios":"levelo://app?vid=889a1d0b-7970-4fa4-9ab6-5695d56ce84a"},"vehicle_type_id":"4","last_reported":1746817661,"current_range_meters":8000,"station_id":"ce4bh092rcd13ifvqd30","pricing_plan_id":"cebpf4jnsgd1na2vs0mg"},{"bike_id":"283c096d-9775-40df-9ef5-3ff56b9146cb","system_id":"levelo_inurba_marseille","lat":43.22924,"lon":5.35397,"is_reserved":false,"is_disabled":true,"rental_uris":{"android":"levelo://app?vid=283c096d-9775-40df-9ef5-3ff56b9146cb","ios":"levelo://app?vid=283c096d-9775-40df-9ef5-3ff56b9146cb"},"vehicle_type_id":"4","last_reported":1746817661,"current_range_meters":8000,"station_id":"cpo3532slgdg3j2ikp40","pricing_plan_id":"cebpf4jnsgd1na2vs0mg"},{"bike_id":"b33e5ab9-da74-43f0-8440-38909e028f4f","system_id":"levelo_inurba_marseille","lat":43.29303,"lon":5.37151,"is_reserved":false,"is_disabled":false,"rental_uris":{"android":"levelo://app?vid=b33e5ab9-da74-43f0-8440-38909e028f4f","ios":"levelo://app?vid=b33e5ab9-da74-43f0-8440-38909e028f4f"},"vehicle_type_id":"4","last_reported":1746817661,"current_range_meters":8000,"station_id":"ce4bgh92rcd13ifvqb40","pricing_plan_id":"cebpf4jnsgd1na2vs0mg"},{"bike_id":"505d9890-e5ff-4079-a8a1-60709cb4979c","system_id":"levelo_inurba_marseille","lat":43.32548,"lon":5.43229,"is_reserved":false,"is_disabled":false,"rental_uris":{"android":"levelo://app?vid=505d9890-e5ff-4079-a8a1-60709cb4979c","ios":"levelo://app?vid=505d9890-e5ff-4079-a8a1-60709cb4979c"},"vehicle_type_id":"4","last_reported":1746817661,"current_range_meters":8000,"station_id":"","pricing_plan_id":"cebpf4jnsgd1na2vs0mg"},{"bike_id":"f1b07d7d-b31a-4788-aefb-994afd600837","system_id":"levelo_inurba_marseille","lat":43.29316,"lon":5.37108,"is_reserved":false,"is_disabled":false,"rental_uris":{"android":"levelo://app?vid=f1b07d7d-b31a-4788-aefb-994afd600837","ios":"levelo://app?vid=f1b07d7d-b31a-4788-aefb-994afd600837"},"vehicle_type_id":"4","last_reported":1746817661,"current_range_meters":8000,"station_id":"","pricing_plan_id":"cebpf4jnsgd1na2vs0mg"},{"bike_id":"0f5ca589-0ef7-428d-94ec-f0fc8b76ceb4","system_id":"levelo_inurba_marseille","lat":43.28181,"lon":5.42618,"is_reserved":false,"is_disabled":false,"rental_uris":{"android":"levelo://app?vid=0f5ca589-0ef7-428d-94ec-f0fc8b76ceb4","ios":"levelo://app?vid=0f5ca589-0ef7-428d-94ec-f0fc8b76ceb4"},"vehicle_type_id":"4","last_reported":1746817661,"current_range_meters":8400,"station_id":"ce4bhnh2rcd13ifvqgug","pricing_plan_id":"cebpf4jnsgd1na2vs0mg"},{"bike_id":"bdbd37f4-f179-4b6a-b0a9-b8a77906ff4c","system_id":"levelo_inurba_marseille","lat":43.29527,"lon":5.3854,"is_reserved":false,"is_disabled":false,"rental_uris":{"android":"levelo://app?vid=bdbd37f4-f179-4b6a-b0a9-b8a77906ff4c","ios":"levelo://app?vid=bdbd37f4-f179-4b6a-b0a9-b8a77906ff4c"},"vehicle_type_id":"4","last_reported":1746817661,"current_range_meters":8000,"station_id":"ce4bgih2rcd13ifvqba0","pricing_plan_id":"cebpf4jnsgd1na2vs0mg"},{"bike_id":"5d711998-c064-4baf-8663-549d334b52bd","system_id":"levelo_inurba_marseille","lat":43.29257,"lon":5.38433,"is_reserved":false,"is_disabled":false,"rental_uris":{"android":"levelo://app?vid=5d711998-c064-4baf-8663-549d334b52bd","ios":"levelo://app?vid=5d711998-c064-4baf-8663-549d334b52bd"},"vehicle_type_id":"4","last_reported":1746817661,"current_range_meters":8400,"station_id":"ce4bh692rcd13ifvqea0","pricing_plan_id":"cebpf4jnsgd1na2vs0mg"},{"bike_id":"26e2623b-4d07-4198-908c-2ca9e1220d94","system_id":"levelo_inurba_marseille","lat":43.24054,"lon":5.37748,"is_reserved":false,"is_disabled":false,"rental_uris":{"android":"levelo://app?vid=26e2623b-4d07-4198-908c-2ca9e1220d94","ios":"levelo://app?vid=26e2623b-4d07-4198-908c-2ca9e1220d94"},"vehicle_type_id":"4","last_reported":1746817661,"current_range_meters":8400,"station_id":"ce4bhnp2rcd13ifvqgvg","pricing_plan_id":"cebpf4jnsgd1na2vs0mg"},{"bike_id":"8d047b7a-b2db-4286-ad2d-1a9abacd4947","system_id":"levelo_inurba_marseille","lat":43.32363,"lon":5.36749,"is_reserved":false,"is_disabled":false,"rental_uris":{"android":"levelo://app?vid=8d047b7a-b2db-4286-ad2d-1a9abacd4947","ios":"levelo://app?vid=8d047b7a-b2db-4286-ad2d-1a9abacd4947"},"vehicle_type_id":"4","last_reported":1746817661,"current_range_meters":8400,"station_id":"ce4bhsh2rcd13ifvqi2g","pricing_plan_id":"cebpf4jnsgd1na2vs0mg"},{"bike_id":"caf9033d-5f00-49c3-b1ee-1328b62008dc","system_id":"levelo_inurba_marseille","lat":43.33594,"lon":5.42816,"is_reserved":false,"is_disabled":false,"rental_uris":{"android":"levelo://app?vid=caf9033d-5f00-49c3-b1ee-1328b62008dc","ios":"levelo://app?vid=caf9033d-5f00-49c3-b1ee-1328b62008dc"},"vehicle_type_id":"4","last_reported":1746817661,"current_range_meters":8400,"station_id":"","pricing_plan_id":"cebpf4jnsgd1na2vs0mg"},{"bike_id":"4bace5ff-568e-404d-aa7c-3736eeec243a","system_id":"levelo_inurba_marseille","lat":43.29026,"lon":5.38638,"is_reserved":false,"is_disabled":false,"rental_uris":{"android":"levelo://app?vid=4bace5ff-568e-404d-aa7c-3736eeec243a","ios":"levelo://app?vid=4bace5ff-568e-404d-aa7c-3736eeec243a"},"vehicle_type_id":"4","last_reported":1746817661,"current_range_meters":8000,"station_id":"ce4bh4p2rcd13ifvqe0g","pricing_plan_id":"cebpf4jnsgd1na2vs0mg"},{"bike_id":"812e31b7-42f9-4d63-b220-e99af5c192ed","system_id":"levelo_inurba_marseille","lat":43.31188,"lon":5.4161,"is_reserved":false,"is_disabled":false,"rental_uris":{"android":"levelo://app?vid=812e31b7-42f9-4d63-b220-e99af5c192ed","ios":"levelo://app?vid=812e31b7-42f9-4d63-b220-e99af5c192ed"},"vehicle_type_id":"4","last_reported":1746817661,"current_range_meters":8400,"station_id":"","pricing_plan_id":"cebpf4jnsgd1na2vs0mg"},{"bike_id":"86bc8c3e-b40f-4494-bcaf-2c13ca119bd5","system_id":"levelo_inurba_marseille","lat":43.28157,"lon":5.42644,"is_reserved":false,"is_disabled":false,"rental_uris":{"android":"levelo://app?vid=86bc8c3e-b40f-4494-bcaf-2c13ca119bd5","ios":"levelo://app?vid=86bc8c3e-b40f-4494-bcaf-2c13ca119bd5"},"vehicle_type_id":"4","last_reported":1746817661,"current_range_meters":8400,"station_id":"ce4bhnh2rcd13ifvqgug","pricing_plan_id":"cebpf4jnsgd1na2vs0mg"},{"bike_id":"c05367b9-e8e1-4086-b137-1aea8b8e50ef","system_id":"levelo_inurba_marseille","lat":43.29305,"lon":5.37165,"is_reserved":false,"is_disabled":false,"rental_uris":{"android":"levelo://app?vid=c05367b9-e8e1-4086-b137-1aea8b8e50ef","ios":"levelo://app?vid=c05367b9-e8e1-4086-b137-1aea8b8e50ef"},"vehicle_type_id":"4","last_reported":1746817661,"current_range_meters":8800,"station_id":"ce4bgh92rcd13ifvqb40","pricing_plan_id":"cebpf4jnsgd1na2vs0mg"},{"bike_id":"daa069f6-5dc1-4447-95f2-ddf28d410771","system_id":"levelo_inurba_marseille","lat":43.24651,"lon":5.38892,"is_reserved":false,"is_disabled":false,"rental_uris":{"android":"levelo://app?vid=daa069f6-5dc1-4447-95f2-ddf28d410771","ios":"levelo://app?vid=daa069f6-5dc1-4447-95f2-ddf28d410771"},"vehicle_type_id":"4","last_reported":1746817661,"current_range_meters":8800,"station_id":"ce4bhg12rcd13ifvqf60","pricing_plan_id":"cebpf4jnsgd1na2vs0mg"},{"bike_id":"1246df98-a824-4fae-bf2b-d2e837e6ac8e","system_id":"levelo_inurba_marseille","lat":43.32479,"lon":5.3657,"is_reserved":false,"is_disabled":false,"rental_uris":{"android":"levelo://app?vid=1246df98-a824-4fae-bf2b-d2e837e6ac8e","ios":"levelo://app?vid=1246df98-a824-4fae-bf2b-d2e837e6ac8e"},"vehicle_type_id":"4","last_reported":1746817661,"current_range_meters":8800,"station_id":"ce4bhs12rcd13ifvqhvg","pricing_plan_id":"cebpf4jnsgd1na2vs0mg"},{"bike_id":"2d9cf84f-80e6-4273-bdb7-a817d129565a","system_id":"levelo_inurba_marseille","lat":43.28075,"lon":5.39657,"is_reserved":false,"is_disabled":false,"rental_uris":{"android":"levelo://app?vid=2d9cf84f-80e6-4273-bdb7-a817d129565a","ios":"levelo://app?vid=2d9cf84f-80e6-4273-bdb7-a817d129565a"},"vehicle_type_id":"4","last_reported":1746817661,"current_range_meters":9200,"station_id":"ce4bho12rcd13ifvqh2g","pricing_plan_id":"cebpf4jnsgd1na2vs0mg"},{"bike_id":"a5035683-e922-4659-b77f-9b07031bc84e","system_id":"levelo_inurba_marseille","lat":43.2176,"lon":5.34594,"is_reserved":false,"is_disabled":true,"rental_uris":{"android":"levelo://app?vid=a5035683-e922-4659-b77f-9b07031bc84e","ios":"levelo://app?vid=a5035683-e922-4659-b77f-9b07031bc84e"},"vehicle_type_id":"4","last_reported":1746817661,"current_range_meters":9200,"station_id":"st_cvj6r9ubvosntc0bgbag","pricing_plan_id":"cebpf4jnsgd1na2vs0mg"},{"bike_id":"7bbddab9-ce58-49c5-8696-be4254399f31","system_id":"levelo_inurba_marseille","lat":43.29264,"lon":5.36851,"is_reserved":false,"is_disabled":true,"rental_uris":{"android":"levelo://app?vid=7bbddab9-ce58-49c5-8696-be4254399f31","ios":"levelo://app?vid=7bbddab9-ce58-49c5-8696-be4254399f31"},"vehicle_type_id":"4","last_reported":1746817661,"current_range_meters":9200,"station_id":"ce4bhbp2rcd13ifvqesg","pricing_plan_id":"cebpf4jnsgd1na2vs0mg"},{"bike_id":"8b8c21f5-5d42-4ba6-91ba-4cd4c987dc75","system_id":"levelo_inurba_marseille","lat":43.2439,"lon":5.37061,"is_reserved":false,"is_disabled":false,"rental_uris":{"android":"levelo://app?vid=8b8c21f5-5d42-4ba6-91ba-4cd4c987dc75","ios":"levelo://app?vid=8b8c21f5-5d42-4ba6-91ba-4cd4c987dc75"},"vehicle_type_id":"4","last_reported":1746817661,"current_range_meters":9200,"station_id":"ce4bhhh2rcd13ifvqfk0","pricing_plan_id":"cebpf4jnsgd1na2vs0mg"},{"bike_id":"320ec7c4-df5e-4954-a55a-dd33c6e35cb6","system_id":"levelo_inurba_marseille","lat":43.316457,"lon":5.373359,"is_reserved":false,"is_disabled":false,"rental_uris":{"android":"levelo://app?vid=320ec7c4-df5e-4954-a55a-dd33c6e35cb6","ios":"levelo://app?vid=320ec7c4-df5e-4954-a55a-dd33c6e35cb6"},"vehicle_type_id":"4","last_reported":1746817661,"current_range_meters":8800,"station_id":"ce4bgth2rcd13ifvqch0","pricing_plan_id":"cebpf4jnsgd1na2vs0mg"},{"bike_id":"1b1203d9-6691-4959-8800-b9a8f733d792","system_id":"levelo_inurba_marseille","lat":43.296188,"lon":5.372958,"is_reserved":false,"is_disabled":false,"rental_uris":{"android":"levelo://app?vid=1b1203d9-6691-4959-8800-b9a8f733d792","ios":"levelo://app?vid=1b1203d9-6691-4959-8800-b9a8f733d792"},"vehicle_type_id":"4","last_reported":1746817661,"current_range_meters":9200,"station_id":"ce4bgnh2rcd13ifvqc0g","pricing_plan_id":"cebpf4jnsgd1na2vs0mg"},{"bike_id":"f1c826a7-c6da-437d-8c91-8c0129481321","system_id":"levelo_inurba_marseille","lat":43.29513,"lon":5.39061,"is_reserved":false,"is_disabled":false,"rental_uris":{"android":"levelo://app?vid=f1c826a7-c6da-437d-8c91-8c0129481321","ios":"levelo://app?vid=f1c826a7-c6da-437d-8c91-8c0129481321"},"vehicle_type_id":"4","last_reported":1746817661,"current_range_meters":9200,"station_id":"ce4bh3p2rcd13ifvqdp0","pricing_plan_id":"cebpf4jnsgd1na2vs0mg"},{"bike_id":"524aed62-bfe2-4d87-bf98-2af6adbfa610","system_id":"levelo_inurba_marseille","lat":43.29316,"lon":5.37147,"is_reserved":false,"is_disabled":false,"rental_uris":{"android":"levelo://app?vid=524aed62-bfe2-4d87-bf98-2af6adbfa610","ios":"levelo://app?vid=524aed62-bfe2-4d87-bf98-2af6adbfa610"},"vehicle_type_id":"4","last_reported":1746817661,"current_range_meters":9600,"station_id":"ce4bgh92rcd13ifvqb40","pricing_plan_id":"cebpf4jnsgd1na2vs0mg"},{"bike_id":"dc999bc4-ab27-43c4-8d3d-8c3106876441","system_id":"levelo_inurba_marseille","lat":43.24751,"lon":5.40127,"is_reserved":false,"is_disabled":false,"rental_uris":{"android":"levelo://app?vid=dc999bc4-ab27-43c4-8d3d-8c3106876441","ios":"levelo://app?vid=dc999bc4-ab27-43c4-8d3d-8c3106876441"},"vehicle_type_id":"4","last_reported":1746817661,"current_range_meters":9600,"station_id":"ce4bgs92rcd13ifvqcc0","pricing_plan_id":"cebpf4jnsgd1na2vs0mg"},{"bike_id":"b0c54ead-2c9a-4d45-904a-5e1b9abf7338","system_id":"levelo_inurba_marseille","lat":43.27899,"lon":5.44075,"is_reserved":false,"is_disabled":false,"rental_uris":{"android":"levelo://app?vid=b0c54ead-2c9a-4d45-904a-5e1b9abf7338","ios":"levelo://app?vid=b0c54ead-2c9a-4d45-904a-5e1b9abf7338"},"vehicle_type_id":"4","last_reported":1746817661,"current_range_meters":9600,"station_id":"","pricing_plan_id":"cebpf4jnsgd1na2vs0mg"},{"bike_id":"b5abaa59-aabc-4b95-9b88-ab5d0418902d","system_id":"levelo_inurba_marseille","lat":43.33729,"lon":5.39188,"is_reserved":false,"is_disabled":false,"rental_uris":{"android":"levelo://app?vid=b5abaa59-aabc-4b95-9b88-ab5d0418902d","ios":"levelo://app?vid=b5abaa59-aabc-4b95-9b88-ab5d0418902d"},"vehicle_type_id":"4","last_reported":1746817661,"current_range_meters":10000,"station_id":"ce4bhr92rcd13ifvqhsg","pricing_plan_id":"cebpf4jnsgd1na2vs0mg"},{"bike_id":"51d0cb43-b907-4fea-a444-7b836beb81a6","system_id":"levelo_inurba_marseille","lat":43.28406,"lon":5.34988,"is_reserved":false,"is_disabled":false,"rental_uris":{"android":"levelo://app?vid=51d0cb43-b907-4fea-a444-7b836beb81a6","ios":"levelo://app?vid=51d0cb43-b907-4fea-a444-7b836beb81a6"},"vehicle_type_id":"4","last_reported":1746817661,"current_range_meters":10000,"station_id":"ce4bhbh2rcd13ifvqepg","pricing_plan_id":"cebpf4jnsgd1na2vs0mg"},{"bike_id":"3c7670ff-3628-42b4-8ea8-664d4fa357dd","system_id":"levelo_inurba_marseille","lat":43.279974,"lon":5.416646,"is_reserved":false,"is_disabled":false,"rental_uris":{"android":"levelo://app?vid=3c7670ff-3628-42b4-8ea8-664d4fa357dd","ios":"levelo://app?vid=3c7670ff-3628-42b4-8ea8-664d4fa357dd"},"vehicle_type_id":"4","last_reported":1746817661,"current_range_meters":10000,"station_id":"ce4bho12rcd13ifvqh1g","pricing_plan_id":"cebpf4jnsgd1na2vs0mg"},{"bike_id":"bcee04ab-f7c0-4c36-8d98-583e46082251","system_id":"levelo_inurba_marseille","lat":43.24806,"lon":5.37459,"is_reserved":false,"is_disabled":false,"rental_uris":{"android":"levelo://app?vid=bcee04ab-f7c0-4c36-8d98-583e46082251","ios":"levelo://app?vid=bcee04ab-f7c0-4c36-8d98-583e46082251"},"vehicle_type_id":"4","last_reported":1746817661,"current_range_meters":10800,"station_id":"ce4bhgh2rcd13ifvqfb0","pricing_plan_id":"cebpf4jnsgd1na2vs0mg"},{"bike_id":"2c8d7c02-8011-4fe8-989a-5e52221aa525","system_id":"levelo_inurba_marseille","lat":43.31363,"lon":5.38507,"is_reserved":false,"is_disabled":false,"rental_uris":{"android":"levelo://app?vid=2c8d7c02-8011-4fe8-989a-5e52221aa525","ios":"levelo://app?vid=2c8d7c02-8011-4fe8-989a-5e52221aa525"},"vehicle_type_id":"4","last_reported":1746817661,"current_range_meters":10800,"station_id":"ce4bgt92rcd13ifvqcf0","pricing_plan_id":"cebpf4jnsgd1na2vs0mg"},{"bike_id":"dc9ec157-dfe5-481b-9da3-639c44fd1e90","system_id":"levelo_inurba_marseille","lat":43.29213,"lon":5.36079,"is_reserved":false,"is_disabled":false,"rental_uris":{"android":"levelo://app?vid=dc9ec157-dfe5-481b-9da3-639c44fd1e90","ios":"levelo://app?vid=dc9ec157-dfe5-481b-9da3-639c44fd1e90"},"vehicle_type_id":"4","last_reported":1746817661,"current_range_meters":10800,"station_id":"ce4bhbh2rcd13ifvqeqg","pricing_plan_id":"cebpf4jnsgd1na2vs0mg"},{"bike_id":"044478cb-8194-4092-b984-4fc9c042ef68","system_id":"levelo_inurba_marseille","lat":43.28756,"lon":5.46505,"is_reserved":false,"is_disabled":false,"rental_uris":{"android":"levelo://app?vid=044478cb-8194-4092-b984-4fc9c042ef68","ios":"levelo://app?vid=044478cb-8194-4092-b984-4fc9c042ef68"},"vehicle_type_id":"4","last_reported":1746817661,"current_range_meters":10800,"station_id":"","pricing_plan_id":"cebpf4jnsgd1na2vs0mg"},{"bike_id":"ea7dd22b-f0cf-4f8f-a49f-73a60cc00e17","system_id":"levelo_inurba_marseille","lat":43.30338,"lon":5.41881,"is_reserved":false,"is_disabled":false,"rental_uris":{"android":"levelo://app?vid=ea7dd22b-f0cf-4f8f-a49f-73a60cc00e17","ios":"levelo://app?vid=ea7dd22b-f0cf-4f8f-a49f-73a60cc00e17"},"vehicle_type_id":"4","last_reported":1746817661,"current_range_meters":10800,"station_id":"ce4bhop2rcd13ifvqh7g","pricing_plan_id":"cebpf4jnsgd1na2vs0mg"},{"bike_id":"f8bd5ba1-0844-4c6d-9b78-f958f1313745","system_id":"levelo_inurba_marseille","lat":43.2935,"lon":5.42839,"is_reserved":false,"is_disabled":false,"rental_uris":{"android":"levelo://app?vid=f8bd5ba1-0844-4c6d-9b78-f958f1313745","ios":"levelo://app?vid=f8bd5ba1-0844-4c6d-9b78-f958f1313745"},"vehicle_type_id":"4","last_reported":1746817661,"current_range_meters":10800,"station_id":"","pricing_plan_id":"cebpf4jnsgd1na2vs0mg"},{"bike_id":"1490eb96-34bc-48c0-bfeb-19b8d4feb1ee","system_id":"levelo_inurba_marseille","lat":43.29225,"lon":5.36066,"is_reserved":false,"is_disabled":false,"rental_uris":{"android":"levelo://app?vid=1490eb96-34bc-48c0-bfeb-19b8d4feb1ee","ios":"levelo://app?vid=1490eb96-34bc-48c0-bfeb-19b8d4feb1ee"},"vehicle_type_id":"4","last_reported":1746817661,"current_range_meters":11200,"station_id":"ce4bhbh2rcd13ifvqeqg","pricing_plan_id":"cebpf4jnsgd1na2vs0mg"},{"bike_id":"a80ef7d4-5765-46c5-a8c8-f44a7ba472b4","system_id":"levelo_inurba_marseille","lat":43.29422,"lon":5.38652,"is_reserved":false,"is_disabled":false,"rental_uris":{"android":"levelo://app?vid=a80ef7d4-5765-46c5-a8c8-f44a7ba472b4","ios":"levelo://app?vid=a80ef7d4-5765-46c5-a8c8-f44a7ba472b4"},"vehicle_type_id":"4","last_reported":1746817661,"current_range_meters":10800,"station_id":"ce4bh2h2rcd13ifvqdh0","pricing_plan_id":"cebpf4jnsgd1na2vs0mg"},{"bike_id":"c2a33f68-1a61-4786-9af9-d925692d410f","system_id":"levelo_inurba_marseille","lat":43.24802,"lon":5.37457,"is_reserved":false,"is_disabled":false,"rental_uris":{"android":"levelo://app?vid=c2a33f68-1a61-4786-9af9-d925692d410f","ios":"levelo://app?vid=c2a33f68-1a61-4786-9af9-d925692d410f"},"vehicle_type_id":"4","last_reported":1746817661,"current_range_meters":10800,"station_id":"ce4bhgh2rcd13ifvqfb0","pricing_plan_id":"cebpf4jnsgd1na2vs0mg"},{"bike_id":"e00f68d1-1681-46a5-9392-f3eeb1cf3508","system_id":"levelo_inurba_marseille","lat":43.24816,"lon":5.37455,"is_reserved":false,"is_disabled":false,"rental_uris":{"android":"levelo://app?vid=e00f68d1-1681-46a5-9392-f3eeb1cf3508","ios":"levelo://app?vid=e00f68d1-1681-46a5-9392-f3eeb1cf3508"},"vehicle_type_id":"4","last_reported":1746817661,"current_range_meters":11200,"station_id":"ce4bhgh2rcd13ifvqfb0","pricing_plan_id":"cebpf4jnsgd1na2vs0mg"},{"bike_id":"8af08734-5df5-4cbb-917f-db23920c2925","system_id":"levelo_inurba_marseille","lat":43.29532,"lon":5.38543,"is_reserved":false,"is_disabled":false,"rental_uris":{"android":"levelo://app?vid=8af08734-5df5-4cbb-917f-db23920c2925","ios":"levelo://app?vid=8af08734-5df5-4cbb-917f-db23920c2925"},"vehicle_type_id":"4","last_reported":1746817661,"current_range_meters":11200,"station_id":"ce4bgih2rcd13ifvqba0","pricing_plan_id":"cebpf4jnsgd1na2vs0mg"},{"bike_id":"c5b982a2-05a1-4811-99bb-16ab5097a08f","system_id":"levelo_inurba_marseille","lat":43.29258,"lon":5.37614,"is_reserved":false,"is_disabled":false,"rental_uris":{"android":"levelo://app?vid=c5b982a2-05a1-4811-99bb-16ab5097a08f","ios":"levelo://app?vid=c5b982a2-05a1-4811-99bb-16ab5097a08f"},"vehicle_type_id":"4","last_reported":1746817661,"current_range_meters":11200,"station_id":"ce4bgi12rcd13ifvqb80","pricing_plan_id":"cebpf4jnsgd1na2vs0mg"},{"bike_id":"ece27808-caa3-4deb-96c7-04097c718c7c","system_id":"levelo_inurba_marseille","lat":43.28712,"lon":5.39976,"is_reserved":false,"is_disabled":true,"rental_uris":{"android":"levelo://app?vid=ece27808-caa3-4deb-96c7-04097c718c7c","ios":"levelo://app?vid=ece27808-caa3-4deb-96c7-04097c718c7c"},"vehicle_type_id":"4","last_reported":1746817661,"current_range_meters":11200,"station_id":"ce4bho92rcd13ifvqh3g","pricing_plan_id":"cebpf4jnsgd1na2vs0mg"},{"bike_id":"345ce1fb-b861-4aee-8c4c-ecef8dad57fb","system_id":"levelo_inurba_marseille","lat":43.24379,"lon":5.37065,"is_reserved":false,"is_disabled":false,"rental_uris":{"android":"levelo://app?vid=345ce1fb-b861-4aee-8c4c-ecef8dad57fb","ios":"levelo://app?vid=345ce1fb-b861-4aee-8c4c-ecef8dad57fb"},"vehicle_type_id":"4","last_reported":1746817661,"current_range_meters":11200,"station_id":"ce4bhhh2rcd13ifvqfk0","pricing_plan_id":"cebpf4jnsgd1na2vs0mg"},{"bike_id":"993eac90-e789-4bc0-b2b5-2b3ca6858d6e","system_id":"levelo_inurba_marseille","lat":43.29304,"lon":5.37176,"is_reserved":false,"is_disabled":false,"rental_uris":{"android":"levelo://app?vid=993eac90-e789-4bc0-b2b5-2b3ca6858d6e","ios":"levelo://app?vid=993eac90-e789-4bc0-b2b5-2b3ca6858d6e"},"vehicle_type_id":"4","last_reported":1746817661,"current_range_meters":11600,"station_id":"ce4bgh92rcd13ifvqb40","pricing_plan_id":"cebpf4jnsgd1na2vs0mg"},{"bike_id":"eb3816cd-9a96-4ce7-b2c1-618190f0dad5","system_id":"levelo_inurba_marseille","lat":43.29516,"lon":5.390398,"is_reserved":false,"is_disabled":false,"rental_uris":{"android":"levelo://app?vid=eb3816cd-9a96-4ce7-b2c1-618190f0dad5","ios":"levelo://app?vid=eb3816cd-9a96-4ce7-b2c1-618190f0dad5"},"vehicle_type_id":"4","last_reported":1746817661,"current_range_meters":11200,"station_id":"ce4bh3p2rcd13ifvqdp0","pricing_plan_id":"cebpf4jnsgd1na2vs0mg"},{"bike_id":"a421f9a5-af74-422f-94a8-b6dcd3606413","system_id":"levelo_inurba_marseille","lat":43.31702,"lon":5.37736,"is_reserved":false,"is_disabled":false,"rental_uris":{"android":"levelo://app?vid=a421f9a5-af74-422f-94a8-b6dcd3606413","ios":"levelo://app?vid=a421f9a5-af74-422f-94a8-b6dcd3606413"},"vehicle_type_id":"4","last_reported":1746817661,"current_range_meters":11200,"station_id":"ce4bgth2rcd13ifvqch0","pricing_plan_id":"cebpf4jnsgd1na2vs0mg"},{"bike_id":"66610157-ed2c-435d-a34c-21c81af44a7c","system_id":"levelo_inurba_marseille","lat":43.28842,"lon":5.393,"is_reserved":false,"is_disabled":false,"rental_uris":{"android":"levelo://app?vid=66610157-ed2c-435d-a34c-21c81af44a7c","ios":"levelo://app?vid=66610157-ed2c-435d-a34c-21c81af44a7c"},"vehicle_type_id":"4","last_reported":1746817661,"current_range_meters":11200,"station_id":"ce4bh2p2rcd13ifvqdi0","pricing_plan_id":"cebpf4jnsgd1na2vs0mg"},{"bike_id":"e9034283-4c7b-46b5-91a6-3649ff5864f7","system_id":"levelo_inurba_marseille","lat":43.25732,"lon":5.41111,"is_reserved":false,"is_disabled":false,"rental_uris":{"android":"levelo://app?vid=e9034283-4c7b-46b5-91a6-3649ff5864f7","ios":"levelo://app?vid=e9034283-4c7b-46b5-91a6-3649ff5864f7"},"vehicle_type_id":"4","last_reported":1746817661,"current_range_meters":11600,"station_id":"ce4bhkp2rcd13ifvqgd0","pricing_plan_id":"cebpf4jnsgd1na2vs0mg"},{"bike_id":"9cb56601-d547-4065-8776-c68a4c56cba5","system_id":"levelo_inurba_marseille","lat":43.29255,"lon":5.3845,"is_reserved":false,"is_disabled":false,"rental_uris":{"android":"levelo://app?vid=9cb56601-d547-4065-8776-c68a4c56cba5","ios":"levelo://app?vid=9cb56601-d547-4065-8776-c68a4c56cba5"},"vehicle_type_id":"4","last_reported":1746817661,"current_range_meters":11600,"station_id":"ce4bh692rcd13ifvqea0","pricing_plan_id":"cebpf4jnsgd1na2vs0mg"},{"bike_id":"f9e265c9-632c-4a18-8b4d-2318477eb200","system_id":"levelo_inurba_marseille","lat":43.28467,"lon":5.35877,"is_reserved":false,"is_disabled":false,"rental_uris":{"android":"levelo://app?vid=f9e265c9-632c-4a18-8b4d-2318477eb200","ios":"levelo://app?vid=f9e265c9-632c-4a18-8b4d-2318477eb200"},"vehicle_type_id":"4","last_reported":1746817661,"current_range_meters":11600,"station_id":"ce4bhah2rcd13ifvqei0","pricing_plan_id":"cebpf4jnsgd1na2vs0mg"},{"bike_id":"2fb5d4a1-6369-4d2b-9867-a418dd289773","system_id":"levelo_inurba_marseille","lat":43.28401,"lon":5.37518,"is_reserved":false,"is_disabled":false,"rental_uris":{"android":"levelo://app?vid=2fb5d4a1-6369-4d2b-9867-a418dd289773","ios":"levelo://app?vid=2fb5d4a1-6369-4d2b-9867-a418dd289773"},"vehicle_type_id":"4","last_reported":1746817661,"current_range_meters":11600,"station_id":"ce4bh412rcd13ifvqds0","pricing_plan_id":"cebpf4jnsgd1na2vs0mg"},{"bike_id":"9c906411-7d65-4956-904b-96fb71e3613a","system_id":"levelo_inurba_marseille","lat":43.254793,"lon":5.37674,"is_reserved":false,"is_disabled":false,"rental_uris":{"android":"levelo://app?vid=9c906411-7d65-4956-904b-96fb71e3613a","ios":"levelo://app?vid=9c906411-7d65-4956-904b-96fb71e3613a"},"vehicle_type_id":"4","last_reported":1746817661,"current_range_meters":12000,"station_id":"ce4bhh12rcd13ifvqff0","pricing_plan_id":"cebpf4jnsgd1na2vs0mg"},{"bike_id":"1af2779b-fd9b-428c-b1b6-ec92e63e68d5","system_id":"levelo_inurba_marseille","lat":43.31481,"lon":5.3731,"is_reserved":false,"is_disabled":false,"rental_uris":{"android":"levelo://app?vid=1af2779b-fd9b-428c-b1b6-ec92e63e68d5","ios":"levelo://app?vid=1af2779b-fd9b-428c-b1b6-ec92e63e68d5"},"vehicle_type_id":"4","last_reported":1746817661,"current_range_meters":12000,"station_id":"ce4bgt12rcd13ifvqcd0","pricing_plan_id":"cebpf4jnsgd1na2vs0mg"},{"bike_id":"2067ce14-69be-496e-93d1-3b9c3ab6caf4","system_id":"levelo_inurba_marseille","lat":43.24079,"lon":5.37752,"is_reserved":false,"is_disabled":false,"rental_uris":{"android":"levelo://app?vid=2067ce14-69be-496e-93d1-3b9c3ab6caf4","ios":"levelo://app?vid=2067ce14-69be-496e-93d1-3b9c3ab6caf4"},"vehicle_type_id":"4","last_reported":1746817661,"current_range_meters":11600,"station_id":"ce4bhnp2rcd13ifvqgvg","pricing_plan_id":"cebpf4jnsgd1na2vs0mg"},{"bike_id":"6c1c3a4e-dabe-4ab5-8e45-abc22b707505","system_id":"levelo_inurba_marseille","lat":43.28034,"lon":5.3695,"is_reserved":false,"is_disabled":false,"rental_uris":{"android":"levelo://app?vid=6c1c3a4e-dabe-4ab5-8e45-abc22b707505","ios":"levelo://app?vid=6c1c3a4e-dabe-4ab5-8e45-abc22b707505"},"vehicle_type_id":"4","last_reported":1746817661,"current_range_meters":12000,"station_id":"ce4bha12rcd13ifvqef0","pricing_plan_id":"cebpf4jnsgd1na2vs0mg"},{"bike_id":"ffac8bda-8c0c-49b4-82fb-8b1d962eb074","system_id":"levelo_inurba_marseille","lat":43.32051,"lon":5.41557,"is_reserved":false,"is_disabled":false,"rental_uris":{"android":"levelo://app?vid=ffac8bda-8c0c-49b4-82fb-8b1d962eb074","ios":"levelo://app?vid=ffac8bda-8c0c-49b4-82fb-8b1d962eb074"},"vehicle_type_id":"4","last_reported":1746817661,"current_range_meters":12000,"station_id":"ce4bhq92rcd13ifvqhkg","pricing_plan_id":"cebpf4jnsgd1na2vs0mg"},{"bike_id":"79c8d684-a425-4aab-8ca4-59e521e72013","system_id":"levelo_inurba_marseille","lat":43.24801,"lon":5.37463,"is_reserved":false,"is_disabled":false,"rental_uris":{"android":"levelo://app?vid=79c8d684-a425-4aab-8ca4-59e521e72013","ios":"levelo://app?vid=79c8d684-a425-4aab-8ca4-59e521e72013"},"vehicle_type_id":"4","last_reported":1746817661,"current_range_meters":12400,"station_id":"ce4bhgh2rcd13ifvqfb0","pricing_plan_id":"cebpf4jnsgd1na2vs0mg"},{"bike_id":"3da47846-b930-435b-ab57-a552a4b1eea7","system_id":"levelo_inurba_marseille","lat":43.22947,"lon":5.35435,"is_reserved":false,"is_disabled":false,"rental_uris":{"android":"levelo://app?vid=3da47846-b930-435b-ab57-a552a4b1eea7","ios":"levelo://app?vid=3da47846-b930-435b-ab57-a552a4b1eea7"},"vehicle_type_id":"4","last_reported":1746817661,"current_range_meters":12400,"station_id":"cpo3532slgdg3j2ikp40","pricing_plan_id":"cebpf4jnsgd1na2vs0mg"},{"bike_id":"70430d04-b8ee-4938-9fe0-5bc70772d67a","system_id":"levelo_inurba_marseille","lat":43.24843,"lon":5.3745,"is_reserved":false,"is_disabled":false,"rental_uris":{"android":"levelo://app?vid=70430d04-b8ee-4938-9fe0-5bc70772d67a","ios":"levelo://app?vid=70430d04-b8ee-4938-9fe0-5bc70772d67a"},"vehicle_type_id":"4","last_reported":1746817661,"current_range_meters":12400,"station_id":"","pricing_plan_id":"cebpf4jnsgd1na2vs0mg"},{"bike_id":"8d6aa9d4-02d3-4c1e-b2c2-62ff8ec56023","system_id":"levelo_inurba_marseille","lat":43.32364,"lon":5.36767,"is_reserved":false,"is_disabled":false,"rental_uris":{"android":"levelo://app?vid=8d6aa9d4-02d3-4c1e-b2c2-62ff8ec56023","ios":"levelo://app?vid=8d6aa9d4-02d3-4c1e-b2c2-62ff8ec56023"},"vehicle_type_id":"4","last_reported":1746817661,"current_range_meters":12400,"station_id":"ce4bhsh2rcd13ifvqi2g","pricing_plan_id":"cebpf4jnsgd1na2vs0mg"},{"bike_id":"e05b8bd6-8d6a-4f25-a0ab-9a84ee19ac88","system_id":"levelo_inurba_marseille","lat":43.28992,"lon":5.35606,"is_reserved":false,"is_disabled":false,"rental_uris":{"android":"levelo://app?vid=e05b8bd6-8d6a-4f25-a0ab-9a84ee19ac88","ios":"levelo://app?vid=e05b8bd6-8d6a-4f25-a0ab-9a84ee19ac88"},"vehicle_type_id":"4","last_reported":1746817661,"current_range_meters":12800,"station_id":"ce4bhb92rcd13ifvqen0","pricing_plan_id":"cebpf4jnsgd1na2vs0mg"},{"bike_id":"7d78fcd9-f626-4e0f-b490-4f052276eb04","system_id":"levelo_inurba_marseille","lat":43.30131,"lon":5.39845,"is_reserved":false,"is_disabled":false,"rental_uris":{"android":"levelo://app?vid=7d78fcd9-f626-4e0f-b490-4f052276eb04","ios":"levelo://app?vid=7d78fcd9-f626-4e0f-b490-4f052276eb04"},"vehicle_type_id":"4","last_reported":1746817661,"current_range_meters":12800,"station_id":"ce4bh0h2rcd13ifvqd40","pricing_plan_id":"cebpf4jnsgd1na2vs0mg"},{"bike_id":"86b478b2-1cf2-4e07-8a5c-76710e912a41","system_id":"levelo_inurba_marseille","lat":43.291217,"lon":5.366877,"is_reserved":false,"is_disabled":false,"rental_uris":{"android":"levelo://app?vid=86b478b2-1cf2-4e07-8a5c-76710e912a41","ios":"levelo://app?vid=86b478b2-1cf2-4e07-8a5c-76710e912a41"},"vehicle_type_id":"4","last_reported":1746817661,"current_range_meters":12800,"station_id":"","pricing_plan_id":"cebpf4jnsgd1na2vs0mg"},{"bike_id":"f5b9a7d7-bd41-4ae1-8c98-14881b49fd60","system_id":"levelo_inurba_marseille","lat":43.3229,"lon":5.38262,"is_reserved":false,"is_disabled":false,"rental_uris":{"android":"levelo://app?vid=f5b9a7d7-bd41-4ae1-8c98-14881b49fd60","ios":"levelo://app?vid=f5b9a7d7-bd41-4ae1-8c98-14881b49fd60"},"vehicle_type_id":"4","last_reported":1746817661,"current_range_meters":12800,"station_id":"ce4bhr12rcd13ifvqhqg","pricing_plan_id":"cebpf4jnsgd1na2vs0mg"},{"bike_id":"257486f5-03bd-4b74-b96f-72b61bd25309","system_id":"levelo_inurba_marseille","lat":43.28619,"lon":5.35099,"is_reserved":false,"is_disabled":false,"rental_uris":{"android":"levelo://app?vid=257486f5-03bd-4b74-b96f-72b61bd25309","ios":"levelo://app?vid=257486f5-03bd-4b74-b96f-72b61bd25309"},"vehicle_type_id":"4","last_reported":1746817661,"current_range_meters":12800,"station_id":"ce4bhch2rcd13ifvqeug","pricing_plan_id":"cebpf4jnsgd1na2vs0mg"},{"bike_id":"9ec01453-8e12-4a32-ba8a-b4be53eb13ff","system_id":"levelo_inurba_marseille","lat":43.29258,"lon":5.38448,"is_reserved":false,"is_disabled":false,"rental_uris":{"android":"levelo://app?vid=9ec01453-8e12-4a32-ba8a-b4be53eb13ff","ios":"levelo://app?vid=9ec01453-8e12-4a32-ba8a-b4be53eb13ff"},"vehicle_type_id":"4","last_reported":1746817661,"current_range_meters":12800,"station_id":"ce4bh692rcd13ifvqea0","pricing_plan_id":"cebpf4jnsgd1na2vs0mg"},{"bike_id":"4fd1637d-27bc-4e89-8024-3edb4a886e19","system_id":"levelo_inurba_marseille","lat":43.32364,"lon":5.36748,"is_reserved":false,"is_disabled":false,"rental_uris":{"android":"levelo://app?vid=4fd1637d-27bc-4e89-8024-3edb4a886e19","ios":"levelo://app?vid=4fd1637d-27bc-4e89-8024-3edb4a886e19"},"vehicle_type_id":"4","last_reported":1746817661,"current_range_meters":12800,"station_id":"ce4bhsh2rcd13ifvqi2g","pricing_plan_id":"cebpf4jnsgd1na2vs0mg"},{"bike_id":"d388abd5-c0e6-48dd-a7fc-1d6206199050","system_id":"levelo_inurba_marseille","lat":43.34131,"lon":5.36059,"is_reserved":false,"is_disabled":false,"rental_uris":{"android":"levelo://app?vid=d388abd5-c0e6-48dd-a7fc-1d6206199050","ios":"levelo://app?vid=d388abd5-c0e6-48dd-a7fc-1d6206199050"},"vehicle_type_id":"4","last_reported":1746817661,"current_range_meters":13600,"station_id":"","pricing_plan_id":"cebpf4jnsgd1na2vs0mg"},{"bike_id":"d50aea48-5c2f-47b6-a274-f616a31cc5f7","system_id":"levelo_inurba_marseille","lat":43.265547,"lon":5.37287,"is_reserved":false,"is_disabled":false,"rental_uris":{"android":"levelo://app?vid=d50aea48-5c2f-47b6-a274-f616a31cc5f7","ios":"levelo://app?vid=d50aea48-5c2f-47b6-a274-f616a31cc5f7"},"vehicle_type_id":"4","last_reported":1746817661,"current_range_meters":13600,"station_id":"ce4bhg12rcd13ifvqf70","pricing_plan_id":"cebpf4jnsgd1na2vs0mg"},{"bike_id":"c4522f6a-ca0f-4304-b51d-5e6c1ce0dc17","system_id":"levelo_inurba_marseille","lat":43.2803,"lon":5.369465,"is_reserved":false,"is_disabled":false,"rental_uris":{"android":"levelo://app?vid=c4522f6a-ca0f-4304-b51d-5e6c1ce0dc17","ios":"levelo://app?vid=c4522f6a-ca0f-4304-b51d-5e6c1ce0dc17"},"vehicle_type_id":"4","last_reported":1746817661,"current_range_meters":13600,"station_id":"ce4bha12rcd13ifvqef0","pricing_plan_id":"cebpf4jnsgd1na2vs0mg"},{"bike_id":"cc6f9c62-2924-4e7e-830b-b1eec505a08f","system_id":"levelo_inurba_marseille","lat":43.28278,"lon":5.35061,"is_reserved":false,"is_disabled":false,"rental_uris":{"android":"levelo://app?vid=cc6f9c62-2924-4e7e-830b-b1eec505a08f","ios":"levelo://app?vid=cc6f9c62-2924-4e7e-830b-b1eec505a08f"},"vehicle_type_id":"4","last_reported":1746817661,"current_range_meters":14000,"station_id":"ce4bhbp2rcd13ifvqerg","pricing_plan_id":"cebpf4jnsgd1na2vs0mg"},{"bike_id":"33692bd3-9ac6-41ce-aa6d-38ce6a17fa8a","system_id":"levelo_inurba_marseille","lat":43.24074,"lon":5.37762,"is_reserved":false,"is_disabled":false,"rental_uris":{"android":"levelo://app?vid=33692bd3-9ac6-41ce-aa6d-38ce6a17fa8a","ios":"levelo://app?vid=33692bd3-9ac6-41ce-aa6d-38ce6a17fa8a"},"vehicle_type_id":"4","last_reported":1746817661,"current_range_meters":14000,"station_id":"ce4bhnp2rcd13ifvqgvg","pricing_plan_id":"cebpf4jnsgd1na2vs0mg"},{"bike_id":"09e1dc14-26ac-446e-add0-27edb09cfb56","system_id":"levelo_inurba_marseille","lat":43.29277,"lon":5.36848,"is_reserved":false,"is_disabled":false,"rental_uris":{"android":"levelo://app?vid=09e1dc14-26ac-446e-add0-27edb09cfb56","ios":"levelo://app?vid=09e1dc14-26ac-446e-add0-27edb09cfb56"},"vehicle_type_id":"4","last_reported":1746817661,"current_range_meters":14000,"station_id":"","pricing_plan_id":"cebpf4jnsgd1na2vs0mg"},{"bike_id":"4a8e30fc-5789-42ab-8bde-f9c49f2dc59c","system_id":"levelo_inurba_marseille","lat":43.30512,"lon":5.36544,"is_reserved":false,"is_disabled":false,"rental_uris":{"android":"levelo://app?vid=4a8e30fc-5789-42ab-8bde-f9c49f2dc59c","ios":"levelo://app?vid=4a8e30fc-5789-42ab-8bde-f9c49f2dc59c"},"vehicle_type_id":"4","last_reported":1746817661,"current_range_meters":14000,"station_id":"","pricing_plan_id":"cebpf4jnsgd1na2vs0mg"},{"bike_id":"2bcd659a-611c-43e2-89ef-f7e699246180","system_id":"levelo_inurba_marseille","lat":43.302449,"lon":5.400473,"is_reserved":false,"is_disabled":true,"rental_uris":{"android":"levelo://app?vid=2bcd659a-611c-43e2-89ef-f7e699246180","ios":"levelo://app?vid=2bcd659a-611c-43e2-89ef-f7e699246180"},"vehicle_type_id":"4","last_reported":1746817661,"current_range_meters":14400,"station_id":"ce4bgvh2rcd13ifvqcs0","pricing_plan_id":"cebpf4jnsgd1na2vs0mg"},{"bike_id":"795c7110-bad6-4ff1-95cc-69c260f8a800","system_id":"levelo_inurba_marseille","lat":43.28076,"lon":5.39662,"is_reserved":false,"is_disabled":false,"rental_uris":{"android":"levelo://app?vid=795c7110-bad6-4ff1-95cc-69c260f8a800","ios":"levelo://app?vid=795c7110-bad6-4ff1-95cc-69c260f8a800"},"vehicle_type_id":"4","last_reported":1746817661,"current_range_meters":14400,"station_id":"ce4bho12rcd13ifvqh2g","pricing_plan_id":"cebpf4jnsgd1na2vs0mg"},{"bike_id":"31eb4060-6cf1-49fb-a95e-8beac65785dc","system_id":"levelo_inurba_marseille","lat":43.30929,"lon":5.40148,"is_reserved":false,"is_disabled":false,"rental_uris":{"android":"levelo://app?vid=31eb4060-6cf1-49fb-a95e-8beac65785dc","ios":"levelo://app?vid=31eb4060-6cf1-49fb-a95e-8beac65785dc"},"vehicle_type_id":"4","last_reported":1746817661,"current_range_meters":14400,"station_id":"ce4bgvp2rcd13ifvqct0","pricing_plan_id":"cebpf4jnsgd1na2vs0mg"},{"bike_id":"a5ba842e-7168-482f-bef1-1f952358aadf","system_id":"levelo_inurba_marseille","lat":43.3095,"lon":5.39059,"is_reserved":false,"is_disabled":false,"rental_uris":{"android":"levelo://app?vid=a5ba842e-7168-482f-bef1-1f952358aadf","ios":"levelo://app?vid=a5ba842e-7168-482f-bef1-1f952358aadf"},"vehicle_type_id":"4","last_reported":1746817661,"current_range_meters":14400,"station_id":"ce4bgup2rcd13ifvqco0","pricing_plan_id":"cebpf4jnsgd1na2vs0mg"},{"bike_id":"122ba4bc-8f22-4847-bd01-f0bc4a8ddddb","system_id":"levelo_inurba_marseille","lat":43.25814,"lon":5.39438,"is_reserved":false,"is_disabled":false,"rental_uris":{"android":"levelo://app?vid=122ba4bc-8f22-4847-bd01-f0bc4a8ddddb","ios":"levelo://app?vid=122ba4bc-8f22-4847-bd01-f0bc4a8ddddb"},"vehicle_type_id":"4","last_reported":1746817661,"current_range_meters":14400,"station_id":"ce4bhip2rcd13ifvqft0","pricing_plan_id":"cebpf4jnsgd1na2vs0mg"},{"bike_id":"1092e683-782e-4ddb-9d67-49b8122e90ea","system_id":"levelo_inurba_marseille","lat":43.32045,"lon":5.415458,"is_reserved":false,"is_disabled":false,"rental_uris":{"android":"levelo://app?vid=1092e683-782e-4ddb-9d67-49b8122e90ea","ios":"levelo://app?vid=1092e683-782e-4ddb-9d67-49b8122e90ea"},"vehicle_type_id":"4","last_reported":1746817661,"current_range_meters":14400,"station_id":"ce4bhq92rcd13ifvqhkg","pricing_plan_id":"cebpf4jnsgd1na2vs0mg"},{"bike_id":"9a3af101-c43c-4e85-ac56-023972f1786e","system_id":"levelo_inurba_marseille","lat":43.29877,"lon":5.39734,"is_reserved":false,"is_disabled":false,"rental_uris":{"android":"levelo://app?vid=9a3af101-c43c-4e85-ac56-023972f1786e","ios":"levelo://app?vid=9a3af101-c43c-4e85-ac56-023972f1786e"},"vehicle_type_id":"4","last_reported":1746817661,"current_range_meters":14400,"station_id":"ce4bh0h2rcd13ifvqd50","pricing_plan_id":"cebpf4jnsgd1na2vs0mg"},{"bike_id":"29b99ee3-82b0-4cb0-a9d6-8993ba8fcb2f","system_id":"levelo_inurba_marseille","lat":43.24651,"lon":5.38895,"is_reserved":false,"is_disabled":false,"rental_uris":{"android":"levelo://app?vid=29b99ee3-82b0-4cb0-a9d6-8993ba8fcb2f","ios":"levelo://app?vid=29b99ee3-82b0-4cb0-a9d6-8993ba8fcb2f"},"vehicle_type_id":"4","last_reported":1746817661,"current_range_meters":14800,"station_id":"ce4bhg12rcd13ifvqf60","pricing_plan_id":"cebpf4jnsgd1na2vs0mg"},{"bike_id":"e34a4341-c96c-4d74-8850-e5a27479ce93","system_id":"levelo_inurba_marseille","lat":43.273132,"lon":5.390798,"is_reserved":false,"is_disabled":false,"rental_uris":{"android":"levelo://app?vid=e34a4341-c96c-4d74-8850-e5a27479ce93","ios":"levelo://app?vid=e34a4341-c96c-4d74-8850-e5a27479ce93"},"vehicle_type_id":"4","last_reported":1746817661,"current_range_meters":14800,"station_id":"ce4bhgp2rcd13ifvqfe0","pricing_plan_id":"cebpf4jnsgd1na2vs0mg"},{"bike_id":"425a71c2-3497-48ea-abb4-541b2f2a7c98","system_id":"levelo_inurba_marseille","lat":43.24664,"lon":5.38142,"is_reserved":false,"is_disabled":false,"rental_uris":{"android":"levelo://app?vid=425a71c2-3497-48ea-abb4-541b2f2a7c98","ios":"levelo://app?vid=425a71c2-3497-48ea-abb4-541b2f2a7c98"},"vehicle_type_id":"4","last_reported":1746817661,"current_range_meters":14800,"station_id":"ce4bhih2rcd13ifvqfr0","pricing_plan_id":"cebpf4jnsgd1na2vs0mg"},{"bike_id":"ead2ec5c-12e4-432d-be08-f92fe4e4390a","system_id":"levelo_inurba_marseille","lat":43.29258,"lon":5.38448,"is_reserved":false,"is_disabled":false,"rental_uris":{"android":"levelo://app?vid=ead2ec5c-12e4-432d-be08-f92fe4e4390a","ios":"levelo://app?vid=ead2ec5c-12e4-432d-be08-f92fe4e4390a"},"vehicle_type_id":"4","last_reported":1746817661,"current_range_meters":15200,"station_id":"ce4bh692rcd13ifvqea0","pricing_plan_id":"cebpf4jnsgd1na2vs0mg"},{"bike_id":"6ca69db7-bdbf-4901-a061-91257760b749","system_id":"levelo_inurba_marseille","lat":43.25715,"lon":5.41102,"is_reserved":false,"is_disabled":false,"rental_uris":{"android":"levelo://app?vid=6ca69db7-bdbf-4901-a061-91257760b749","ios":"levelo://app?vid=6ca69db7-bdbf-4901-a061-91257760b749"},"vehicle_type_id":"4","last_reported":1746817661,"current_range_meters":16000,"station_id":"ce4bhkp2rcd13ifvqgd0","pricing_plan_id":"cebpf4jnsgd1na2vs0mg"},{"bike_id":"ad7a4623-3803-4937-866f-da05a5a8e4f0","system_id":"levelo_inurba_marseille","lat":43.24661,"lon":5.38165,"is_reserved":false,"is_disabled":false,"rental_uris":{"android":"levelo://app?vid=ad7a4623-3803-4937-866f-da05a5a8e4f0","ios":"levelo://app?vid=ad7a4623-3803-4937-866f-da05a5a8e4f0"},"vehicle_type_id":"4","last_reported":1746817661,"current_range_meters":16000,"station_id":"ce4bhih2rcd13ifvqfr0","pricing_plan_id":"cebpf4jnsgd1na2vs0mg"},{"bike_id":"08c04ff9-e615-4d87-ba3e-6b0e2342cce5","system_id":"levelo_inurba_marseille","lat":43.29598,"lon":5.36741,"is_reserved":false,"is_disabled":true,"rental_uris":{"android":"levelo://app?vid=08c04ff9-e615-4d87-ba3e-6b0e2342cce5","ios":"levelo://app?vid=08c04ff9-e615-4d87-ba3e-6b0e2342cce5"},"vehicle_type_id":"4","last_reported":1746817661,"current_range_meters":16000,"station_id":"ce4bgph2rcd13ifvqc2g","pricing_plan_id":"cebpf4jnsgd1na2vs0mg"},{"bike_id":"6e24abe9-ff49-40a5-bfac-cd5aacf6ebea","system_id":"levelo_inurba_marseille","lat":43.22929,"lon":5.35435,"is_reserved":false,"is_disabled":false,"rental_uris":{"android":"levelo://app?vid=6e24abe9-ff49-40a5-bfac-cd5aacf6ebea","ios":"levelo://app?vid=6e24abe9-ff49-40a5-bfac-cd5aacf6ebea"},"vehicle_type_id":"4","last_reported":1746817661,"current_range_meters":16400,"station_id":"cpo3532slgdg3j2ikp40","pricing_plan_id":"cebpf4jnsgd1na2vs0mg"},{"bike_id":"cf6bc856-5840-4cc7-87f8-ebcb25a380e4","system_id":"levelo_inurba_marseille","lat":43.255705,"lon":5.382438,"is_reserved":false,"is_disabled":false,"rental_uris":{"android":"levelo://app?vid=cf6bc856-5840-4cc7-87f8-ebcb25a380e4","ios":"levelo://app?vid=cf6bc856-5840-4cc7-87f8-ebcb25a380e4"},"vehicle_type_id":"4","last_reported":1746817661,"current_range_meters":16400,"station_id":"ce4bhih2rcd13ifvqfs0","pricing_plan_id":"cebpf4jnsgd1na2vs0mg"},{"bike_id":"9a919805-a5a4-497f-a929-c9e08814771d","system_id":"levelo_inurba_marseille","lat":43.27976,"lon":5.41667,"is_reserved":false,"is_disabled":true,"rental_uris":{"android":"levelo://app?vid=9a919805-a5a4-497f-a929-c9e08814771d","ios":"levelo://app?vid=9a919805-a5a4-497f-a929-c9e08814771d"},"vehicle_type_id":"4","last_reported":1746817661,"current_range_meters":16400,"station_id":"ce4bho12rcd13ifvqh1g","pricing_plan_id":"cebpf4jnsgd1na2vs0mg"},{"bike_id":"a13cc085-09c6-4704-90c4-f18826a8a37c","system_id":"levelo_inurba_marseille","lat":43.26955,"lon":5.38625,"is_reserved":false,"is_disabled":false,"rental_uris":{"android":"levelo://app?vid=a13cc085-09c6-4704-90c4-f18826a8a37c","ios":"levelo://app?vid=a13cc085-09c6-4704-90c4-f18826a8a37c"},"vehicle_type_id":"4","last_reported":1746817661,"current_range_meters":16000,"station_id":"ce4bhh92rcd13ifvqfh0","pricing_plan_id":"cebpf4jnsgd1na2vs0mg"},{"bike_id":"168f826e-1c62-47a9-a8b5-8c2228dbddb8","system_id":"levelo_inurba_marseille","lat":43.3028,"lon":5.38974,"is_reserved":false,"is_disabled":true,"rental_uris":{"android":"levelo://app?vid=168f826e-1c62-47a9-a8b5-8c2228dbddb8","ios":"levelo://app?vid=168f826e-1c62-47a9-a8b5-8c2228dbddb8"},"vehicle_type_id":"4","last_reported":1746817661,"current_range_meters":16400,"station_id":"","pricing_plan_id":"cebpf4jnsgd1na2vs0mg"},{"bike_id":"4394d8dc-144c-4ff9-9bac-443ce52989f7","system_id":"levelo_inurba_marseille","lat":43.24783,"lon":5.37458,"is_reserved":false,"is_disabled":false,"rental_uris":{"android":"levelo://app?vid=4394d8dc-144c-4ff9-9bac-443ce52989f7","ios":"levelo://app?vid=4394d8dc-144c-4ff9-9bac-443ce52989f7"},"vehicle_type_id":"4","last_reported":1746817661,"current_range_meters":16400,"station_id":"ce4bhgh2rcd13ifvqfb0","pricing_plan_id":"cebpf4jnsgd1na2vs0mg"},{"bike_id":"bb9dd4d9-ef7c-411c-9ce2-6f0d8890189a","system_id":"levelo_inurba_marseille","lat":43.24172,"lon":5.36389,"is_reserved":false,"is_disabled":false,"rental_uris":{"android":"levelo://app?vid=bb9dd4d9-ef7c-411c-9ce2-6f0d8890189a","ios":"levelo://app?vid=bb9dd4d9-ef7c-411c-9ce2-6f0d8890189a"},"vehicle_type_id":"4","last_reported":1746817661,"current_range_meters":16800,"station_id":"cpo36qri1sfpv3e86is0","pricing_plan_id":"cebpf4jnsgd1na2vs0mg"},{"bike_id":"d02d1804-b9ba-4fc2-8e74-5957f375c0e6","system_id":"levelo_inurba_marseille","lat":43.248037,"lon":5.37455,"is_reserved":false,"is_disabled":false,"rental_uris":{"android":"levelo://app?vid=d02d1804-b9ba-4fc2-8e74-5957f375c0e6","ios":"levelo://app?vid=d02d1804-b9ba-4fc2-8e74-5957f375c0e6"},"vehicle_type_id":"4","last_reported":1746817661,"current_range_meters":16800,"station_id":"ce4bhgh2rcd13ifvqfb0","pricing_plan_id":"cebpf4jnsgd1na2vs0mg"},{"bike_id":"1dd0edb1-67ec-4a9e-bdc5-ae9ab8e452f6","system_id":"levelo_inurba_marseille","lat":43.25001,"lon":5.38927,"is_reserved":false,"is_disabled":false,"rental_uris":{"android":"levelo://app?vid=1dd0edb1-67ec-4a9e-bdc5-ae9ab8e452f6","ios":"levelo://app?vid=1dd0edb1-67ec-4a9e-bdc5-ae9ab8e452f6"},"vehicle_type_id":"4","last_reported":1746817661,"current_range_meters":16400,"station_id":"ce4bhgp2rcd13ifvqfd0","pricing_plan_id":"cebpf4jnsgd1na2vs0mg"},{"bike_id":"d58e2bca-9cc6-4497-82e6-997f2f8b2940","system_id":"levelo_inurba_marseille","lat":43.24665,"lon":5.3816,"is_reserved":false,"is_disabled":false,"rental_uris":{"android":"levelo://app?vid=d58e2bca-9cc6-4497-82e6-997f2f8b2940","ios":"levelo://app?vid=d58e2bca-9cc6-4497-82e6-997f2f8b2940"},"vehicle_type_id":"4","last_reported":1746817661,"current_range_meters":16800,"station_id":"ce4bhih2rcd13ifvqfr0","pricing_plan_id":"cebpf4jnsgd1na2vs0mg"},{"bike_id":"336ce01c-9295-4699-af38-b6ec4f52b90a","system_id":"levelo_inurba_marseille","lat":43.24793,"lon":5.37456,"is_reserved":false,"is_disabled":false,"rental_uris":{"android":"levelo://app?vid=336ce01c-9295-4699-af38-b6ec4f52b90a","ios":"levelo://app?vid=336ce01c-9295-4699-af38-b6ec4f52b90a"},"vehicle_type_id":"4","last_reported":1746817661,"current_range_meters":16800,"station_id":"ce4bhgh2rcd13ifvqfb0","pricing_plan_id":"cebpf4jnsgd1na2vs0mg"},{"bike_id":"1208665b-a689-4e32-8f85-40c17fb8f568","system_id":"levelo_inurba_marseille","lat":43.28148,"lon":5.42654,"is_reserved":false,"is_disabled":false,"rental_uris":{"android":"levelo://app?vid=1208665b-a689-4e32-8f85-40c17fb8f568","ios":"levelo://app?vid=1208665b-a689-4e32-8f85-40c17fb8f568"},"vehicle_type_id":"4","last_reported":1746817661,"current_range_meters":16800,"station_id":"ce4bhnh2rcd13ifvqgug","pricing_plan_id":"cebpf4jnsgd1na2vs0mg"},{"bike_id":"026562e9-a955-4972-801e-556e6e1438c2","system_id":"levelo_inurba_marseille","lat":43.28145,"lon":5.4265,"is_reserved":false,"is_disabled":false,"rental_uris":{"android":"levelo://app?vid=026562e9-a955-4972-801e-556e6e1438c2","ios":"levelo://app?vid=026562e9-a955-4972-801e-556e6e1438c2"},"vehicle_type_id":"4","last_reported":1746817661,"current_range_meters":16800,"station_id":"ce4bhnh2rcd13ifvqgug","pricing_plan_id":"cebpf4jnsgd1na2vs0mg"},{"bike_id":"42df4f1f-589d-4e39-9c62-1f6eb5b1af65","system_id":"levelo_inurba_marseille","lat":43.29417,"lon":5.38625,"is_reserved":false,"is_disabled":false,"rental_uris":{"android":"levelo://app?vid=42df4f1f-589d-4e39-9c62-1f6eb5b1af65","ios":"levelo://app?vid=42df4f1f-589d-4e39-9c62-1f6eb5b1af65"},"vehicle_type_id":"4","last_reported":1746817661,"current_range_meters":16800,"station_id":"ce4bh2h2rcd13ifvqdh0","pricing_plan_id":"cebpf4jnsgd1na2vs0mg"},{"bike_id":"1e31eb2c-902b-4181-bbf6-1cbe698fb8e5","system_id":"levelo_inurba_marseille","lat":43.27899,"lon":5.38011,"is_reserved":false,"is_disabled":false,"rental_uris":{"android":"levelo://app?vid=1e31eb2c-902b-4181-bbf6-1cbe698fb8e5","ios":"levelo://app?vid=1e31eb2c-902b-4181-bbf6-1cbe698fb8e5"},"vehicle_type_id":"4","last_reported":1746817661,"current_range_meters":16800,"station_id":"ce4bhf92rcd13ifvqf50","pricing_plan_id":"cebpf4jnsgd1na2vs0mg"},{"bike_id":"5611a0ef-f22c-4dbe-bcf2-42bddc72de3e","system_id":"levelo_inurba_marseille","lat":43.27672,"lon":5.38874,"is_reserved":false,"is_disabled":false,"rental_uris":{"android":"levelo://app?vid=5611a0ef-f22c-4dbe-bcf2-42bddc72de3e","ios":"levelo://app?vid=5611a0ef-f22c-4dbe-bcf2-42bddc72de3e"},"vehicle_type_id":"4","last_reported":1746817661,"current_range_meters":16800,"station_id":"ce4bhi12rcd13ifvqfo0","pricing_plan_id":"cebpf4jnsgd1na2vs0mg"},{"bike_id":"9818e4fc-a77a-41a2-b557-b9c5eb277d4a","system_id":"levelo_inurba_marseille","lat":43.29564,"lon":5.37525,"is_reserved":false,"is_disabled":false,"rental_uris":{"android":"levelo://app?vid=9818e4fc-a77a-41a2-b557-b9c5eb277d4a","ios":"levelo://app?vid=9818e4fc-a77a-41a2-b557-b9c5eb277d4a"},"vehicle_type_id":"4","last_reported":1746817661,"current_range_meters":17200,"station_id":"ce4bgh92rcd13ifvqb50","pricing_plan_id":"cebpf4jnsgd1na2vs0mg"},{"bike_id":"5af9304f-7c5c-4e4a-94b4-e9ad19d14660","system_id":"levelo_inurba_marseille","lat":43.29249,"lon":5.38442,"is_reserved":false,"is_disabled":false,"rental_uris":{"android":"levelo://app?vid=5af9304f-7c5c-4e4a-94b4-e9ad19d14660","ios":"levelo://app?vid=5af9304f-7c5c-4e4a-94b4-e9ad19d14660"},"vehicle_type_id":"4","last_reported":1746817661,"current_range_meters":17200,"station_id":"ce4bh692rcd13ifvqea0","pricing_plan_id":"cebpf4jnsgd1na2vs0mg"},{"bike_id":"bc692fbb-d930-4128-909f-792f6d48c8ab","system_id":"levelo_inurba_marseille","lat":43.27921,"lon":5.39574,"is_reserved":false,"is_disabled":true,"rental_uris":{"android":"levelo://app?vid=bc692fbb-d930-4128-909f-792f6d48c8ab","ios":"levelo://app?vid=bc692fbb-d930-4128-909f-792f6d48c8ab"},"vehicle_type_id":"4","last_reported":1746817661,"current_range_meters":17200,"station_id":"ce4bhf92rcd13ifvqf40","pricing_plan_id":"cebpf4jnsgd1na2vs0mg"},{"bike_id":"bb495b1d-188b-49e3-8195-6b30e0477e72","system_id":"levelo_inurba_marseille","lat":43.2503,"lon":5.38914,"is_reserved":false,"is_disabled":false,"rental_uris":{"android":"levelo://app?vid=bb495b1d-188b-49e3-8195-6b30e0477e72","ios":"levelo://app?vid=bb495b1d-188b-49e3-8195-6b30e0477e72"},"vehicle_type_id":"4","last_reported":1746817661,"current_range_meters":17200,"station_id":"ce4bhgp2rcd13ifvqfd0","pricing_plan_id":"cebpf4jnsgd1na2vs0mg"},{"bike_id":"881c14db-73d5-4b1e-bb5c-97650d4212fe","system_id":"levelo_inurba_marseille","lat":43.29257,"lon":5.38434,"is_reserved":false,"is_disabled":false,"rental_uris":{"android":"levelo://app?vid=881c14db-73d5-4b1e-bb5c-97650d4212fe","ios":"levelo://app?vid=881c14db-73d5-4b1e-bb5c-97650d4212fe"},"vehicle_type_id":"4","last_reported":1746817661,"current_range_meters":17200,"station_id":"ce4bh692rcd13ifvqea0","pricing_plan_id":"cebpf4jnsgd1na2vs0mg"},{"bike_id":"9969384c-4377-4303-81df-a6766224e27c","system_id":"levelo_inurba_marseille","lat":43.25113,"lon":5.40317,"is_reserved":false,"is_disabled":false,"rental_uris":{"android":"levelo://app?vid=9969384c-4377-4303-81df-a6766224e27c","ios":"levelo://app?vid=9969384c-4377-4303-81df-a6766224e27c"},"vehicle_type_id":"4","last_reported":1746817661,"current_range_meters":17200,"station_id":"ce4bhlh2rcd13ifvqgig","pricing_plan_id":"cebpf4jnsgd1na2vs0mg"},{"bike_id":"808c4ffc-5b5e-404d-b9dd-c3e1afaadac8","system_id":"levelo_inurba_marseille","lat":43.24662,"lon":5.38167,"is_reserved":false,"is_disabled":false,"rental_uris":{"android":"levelo://app?vid=808c4ffc-5b5e-404d-b9dd-c3e1afaadac8","ios":"levelo://app?vid=808c4ffc-5b5e-404d-b9dd-c3e1afaadac8"},"vehicle_type_id":"4","last_reported":1746817661,"current_range_meters":17200,"station_id":"ce4bhih2rcd13ifvqfr0","pricing_plan_id":"cebpf4jnsgd1na2vs0mg"},{"bike_id":"a10dcb46-9742-479c-b053-81cf428e23c0","system_id":"levelo_inurba_marseille","lat":43.29422,"lon":5.38622,"is_reserved":false,"is_disabled":false,"rental_uris":{"android":"levelo://app?vid=a10dcb46-9742-479c-b053-81cf428e23c0","ios":"levelo://app?vid=a10dcb46-9742-479c-b053-81cf428e23c0"},"vehicle_type_id":"4","last_reported":1746817661,"current_range_meters":17600,"station_id":"ce4bh2h2rcd13ifvqdh0","pricing_plan_id":"cebpf4jnsgd1na2vs0mg"},{"bike_id":"5bee1775-528f-49e6-9c3e-19f7744c053e","system_id":"levelo_inurba_marseille","lat":43.27966,"lon":5.41668,"is_reserved":false,"is_disabled":false,"rental_uris":{"android":"levelo://app?vid=5bee1775-528f-49e6-9c3e-19f7744c053e","ios":"levelo://app?vid=5bee1775-528f-49e6-9c3e-19f7744c053e"},"vehicle_type_id":"4","last_reported":1746817661,"current_range_meters":17600,"station_id":"ce4bho12rcd13ifvqh1g","pricing_plan_id":"cebpf4jnsgd1na2vs0mg"},{"bike_id":"cf8aa6fe-8371-472a-8baf-b4bedb4735d3","system_id":"levelo_inurba_marseille","lat":43.25,"lon":5.389278,"is_reserved":false,"is_disabled":false,"rental_uris":{"android":"levelo://app?vid=cf8aa6fe-8371-472a-8baf-b4bedb4735d3","ios":"levelo://app?vid=cf8aa6fe-8371-472a-8baf-b4bedb4735d3"},"vehicle_type_id":"4","last_reported":1746817661,"current_range_meters":17600,"station_id":"ce4bhgp2rcd13ifvqfd0","pricing_plan_id":"cebpf4jnsgd1na2vs0mg"},{"bike_id":"545e5687-b7df-4883-81be-75a8925d5f91","system_id":"levelo_inurba_marseille","lat":43.337444,"lon":5.374475,"is_reserved":false,"is_disabled":false,"rental_uris":{"android":"levelo://app?vid=545e5687-b7df-4883-81be-75a8925d5f91","ios":"levelo://app?vid=545e5687-b7df-4883-81be-75a8925d5f91"},"vehicle_type_id":"4","last_reported":1746817661,"current_range_meters":17600,"station_id":"","pricing_plan_id":"cebpf4jnsgd1na2vs0mg"},{"bike_id":"1199ae63-e256-4d19-a452-4844d01abe89","system_id":"levelo_inurba_marseille","lat":43.28943,"lon":5.36634,"is_reserved":false,"is_disabled":false,"rental_uris":{"android":"levelo://app?vid=1199ae63-e256-4d19-a452-4844d01abe89","ios":"levelo://app?vid=1199ae63-e256-4d19-a452-4844d01abe89"},"vehicle_type_id":"4","last_reported":1746817661,"current_range_meters":17600,"station_id":"ce4bhap2rcd13ifvqek0","pricing_plan_id":"cebpf4jnsgd1na2vs0mg"},{"bike_id":"94cd8564-a06e-4cc5-88d9-996fbf8639fe","system_id":"levelo_inurba_marseille","lat":43.2174,"lon":5.34615,"is_reserved":false,"is_disabled":true,"rental_uris":{"android":"levelo://app?vid=94cd8564-a06e-4cc5-88d9-996fbf8639fe","ios":"levelo://app?vid=94cd8564-a06e-4cc5-88d9-996fbf8639fe"},"vehicle_type_id":"4","last_reported":1746817661,"current_range_meters":18000,"station_id":"st_cvj6r9ubvosntc0bgbag","pricing_plan_id":"cebpf4jnsgd1na2vs0mg"},{"bike_id":"dfbd22f6-47d3-43e1-a7a0-ba033c2ab978","system_id":"levelo_inurba_marseille","lat":43.28611,"lon":5.35101,"is_reserved":false,"is_disabled":false,"rental_uris":{"android":"levelo://app?vid=dfbd22f6-47d3-43e1-a7a0-ba033c2ab978","ios":"levelo://app?vid=dfbd22f6-47d3-43e1-a7a0-ba033c2ab978"},"vehicle_type_id":"4","last_reported":1746817661,"current_range_meters":18000,"station_id":"ce4bhch2rcd13ifvqeug","pricing_plan_id":"cebpf4jnsgd1na2vs0mg"},{"bike_id":"fc2577e7-1497-425b-9d4f-ab8d7dc843c6","system_id":"levelo_inurba_marseille","lat":43.33771,"lon":5.37485,"is_reserved":false,"is_disabled":false,"rental_uris":{"android":"levelo://app?vid=fc2577e7-1497-425b-9d4f-ab8d7dc843c6","ios":"levelo://app?vid=fc2577e7-1497-425b-9d4f-ab8d7dc843c6"},"vehicle_type_id":"4","last_reported":1746817661,"current_range_meters":18000,"station_id":"","pricing_plan_id":"cebpf4jnsgd1na2vs0mg"},{"bike_id":"53bf5589-c893-4e8b-83d5-0a582fd324e6","system_id":"levelo_inurba_marseille","lat":43.313598,"lon":5.384924,"is_reserved":false,"is_disabled":false,"rental_uris":{"android":"levelo://app?vid=53bf5589-c893-4e8b-83d5-0a582fd324e6","ios":"levelo://app?vid=53bf5589-c893-4e8b-83d5-0a582fd324e6"},"vehicle_type_id":"4","last_reported":1746817661,"current_range_meters":18000,"station_id":"ce4bgt92rcd13ifvqcf0","pricing_plan_id":"cebpf4jnsgd1na2vs0mg"},{"bike_id":"ef9a0e45-9fdf-4799-abb5-6014f47cff97","system_id":"levelo_inurba_marseille","lat":43.29008,"lon":5.35612,"is_reserved":false,"is_disabled":false,"rental_uris":{"android":"levelo://app?vid=ef9a0e45-9fdf-4799-abb5-6014f47cff97","ios":"levelo://app?vid=ef9a0e45-9fdf-4799-abb5-6014f47cff97"},"vehicle_type_id":"4","last_reported":1746817661,"current_range_meters":18000,"station_id":"ce4bhb92rcd13ifvqen0","pricing_plan_id":"cebpf4jnsgd1na2vs0mg"},{"bike_id":"de2b3678-a366-46af-9ab2-9506fc7d15a6","system_id":"levelo_inurba_marseille","lat":43.3107,"lon":5.38364,"is_reserved":false,"is_disabled":false,"rental_uris":{"android":"levelo://app?vid=de2b3678-a366-46af-9ab2-9506fc7d15a6","ios":"levelo://app?vid=de2b3678-a366-46af-9ab2-9506fc7d15a6"},"vehicle_type_id":"4","last_reported":1746817661,"current_range_meters":18000,"station_id":"ce4bgv92rcd13ifvqcr0","pricing_plan_id":"cebpf4jnsgd1na2vs0mg"},{"bike_id":"7f5d124e-0208-4e32-98a3-46ddb765b36b","system_id":"levelo_inurba_marseille","lat":43.229339,"lon":5.353767,"is_reserved":false,"is_disabled":false,"rental_uris":{"android":"levelo://app?vid=7f5d124e-0208-4e32-98a3-46ddb765b36b","ios":"levelo://app?vid=7f5d124e-0208-4e32-98a3-46ddb765b36b"},"vehicle_type_id":"4","last_reported":1746817661,"current_range_meters":18800,"station_id":"cpo3532slgdg3j2ikp40","pricing_plan_id":"cebpf4jnsgd1na2vs0mg"},{"bike_id":"3afc3b33-5ae4-4ccb-beb6-0ecf13700467","system_id":"levelo_inurba_marseille","lat":43.28441,"lon":5.34973,"is_reserved":false,"is_disabled":false,"rental_uris":{"android":"levelo://app?vid=3afc3b33-5ae4-4ccb-beb6-0ecf13700467","ios":"levelo://app?vid=3afc3b33-5ae4-4ccb-beb6-0ecf13700467"},"vehicle_type_id":"4","last_reported":1746817661,"current_range_meters":18800,"station_id":"ce4bhbh2rcd13ifvqepg","pricing_plan_id":"cebpf4jnsgd1na2vs0mg"},{"bike_id":"a68740cd-f23f-4ec5-8e13-d74b1a0711c1","system_id":"levelo_inurba_marseille","lat":43.28608,"lon":5.35108,"is_reserved":false,"is_disabled":false,"rental_uris":{"android":"levelo://app?vid=a68740cd-f23f-4ec5-8e13-d74b1a0711c1","ios":"levelo://app?vid=a68740cd-f23f-4ec5-8e13-d74b1a0711c1"},"vehicle_type_id":"4","last_reported":1746817661,"current_range_meters":18800,"station_id":"ce4bhch2rcd13ifvqeug","pricing_plan_id":"cebpf4jnsgd1na2vs0mg"},{"bike_id":"8b922ca6-4c4c-4cce-b120-dfd10f864eda","system_id":"levelo_inurba_marseille","lat":43.296132,"lon":5.381054,"is_reserved":false,"is_disabled":true,"rental_uris":{"android":"levelo://app?vid=8b922ca6-4c4c-4cce-b120-dfd10f864eda","ios":"levelo://app?vid=8b922ca6-4c4c-4cce-b120-dfd10f864eda"},"vehicle_type_id":"4","last_reported":1746817661,"current_range_meters":18800,"station_id":"ce4bgl12rcd13ifvqbo0","pricing_plan_id":"cebpf4jnsgd1na2vs0mg"},{"bike_id":"e33dab5a-794c-4a14-844d-3ba9289d89ae","system_id":"levelo_inurba_marseille","lat":43.29425,"lon":5.3862,"is_reserved":false,"is_disabled":false,"rental_uris":{"android":"levelo://app?vid=e33dab5a-794c-4a14-844d-3ba9289d89ae","ios":"levelo://app?vid=e33dab5a-794c-4a14-844d-3ba9289d89ae"},"vehicle_type_id":"4","last_reported":1746817661,"current_range_meters":18800,"station_id":"ce4bh2h2rcd13ifvqdh0","pricing_plan_id":"cebpf4jnsgd1na2vs0mg"},{"bike_id":"afc1972f-2221-4d18-a2f7-faa8e44b7e97","system_id":"levelo_inurba_marseille","lat":43.29622,"lon":5.37162,"is_reserved":false,"is_disabled":false,"rental_uris":{"android":"levelo://app?vid=afc1972f-2221-4d18-a2f7-faa8e44b7e97","ios":"levelo://app?vid=afc1972f-2221-4d18-a2f7-faa8e44b7e97"},"vehicle_type_id":"4","last_reported":1746817661,"current_range_meters":18000,"station_id":"ce4bgnh2rcd13ifvqc0g","pricing_plan_id":"cebpf4jnsgd1na2vs0mg"},{"bike_id":"66d39f5f-1aac-423b-9ea7-bf9c1b0e5079","system_id":"levelo_inurba_marseille","lat":43.27512,"lon":5.41132,"is_reserved":false,"is_disabled":false,"rental_uris":{"android":"levelo://app?vid=66d39f5f-1aac-423b-9ea7-bf9c1b0e5079","ios":"levelo://app?vid=66d39f5f-1aac-423b-9ea7-bf9c1b0e5079"},"vehicle_type_id":"4","last_reported":1746817661,"current_range_meters":18800,"station_id":"","pricing_plan_id":"cebpf4jnsgd1na2vs0mg"},{"bike_id":"8457f252-f319-49eb-bf5c-a7cbb69dcf31","system_id":"levelo_inurba_marseille","lat":43.28416,"lon":5.34997,"is_reserved":false,"is_disabled":false,"rental_uris":{"android":"levelo://app?vid=8457f252-f319-49eb-bf5c-a7cbb69dcf31","ios":"levelo://app?vid=8457f252-f319-49eb-bf5c-a7cbb69dcf31"},"vehicle_type_id":"4","last_reported":1746817661,"current_range_meters":19200,"station_id":"ce4bhbh2rcd13ifvqepg","pricing_plan_id":"cebpf4jnsgd1na2vs0mg"},{"bike_id":"85efb776-2f92-4a18-8a35-805ae99f1e87","system_id":"levelo_inurba_marseille","lat":43.27613,"lon":5.36112,"is_reserved":false,"is_disabled":false,"rental_uris":{"android":"levelo://app?vid=85efb776-2f92-4a18-8a35-805ae99f1e87","ios":"levelo://app?vid=85efb776-2f92-4a18-8a35-805ae99f1e87"},"vehicle_type_id":"4","last_reported":1746817661,"current_range_meters":19200,"station_id":"ce4bgj92rcd13ifvqbe0","pricing_plan_id":"cebpf4jnsgd1na2vs0mg"},{"bike_id":"f2e1e100-f0d0-4ca2-bacd-ae2bb61fccd7","system_id":"levelo_inurba_marseille","lat":43.28719,"lon":5.36095,"is_reserved":false,"is_disabled":false,"rental_uris":{"android":"levelo://app?vid=f2e1e100-f0d0-4ca2-bacd-ae2bb61fccd7","ios":"levelo://app?vid=f2e1e100-f0d0-4ca2-bacd-ae2bb61fccd7"},"vehicle_type_id":"4","last_reported":1746817661,"current_range_meters":19200,"station_id":"cki0cbj6b192h4jlfktg","pricing_plan_id":"cebpf4jnsgd1na2vs0mg"},{"bike_id":"796ef36e-55a7-4cb9-844d-596a7e2f3fa6","system_id":"levelo_inurba_marseille","lat":43.28383,"lon":5.36459,"is_reserved":false,"is_disabled":false,"rental_uris":{"android":"levelo://app?vid=796ef36e-55a7-4cb9-844d-596a7e2f3fa6","ios":"levelo://app?vid=796ef36e-55a7-4cb9-844d-596a7e2f3fa6"},"vehicle_type_id":"4","last_reported":1746817661,"current_range_meters":19200,"station_id":"","pricing_plan_id":"cebpf4jnsgd1na2vs0mg"},{"bike_id":"de45bf6f-74a4-4602-9cd8-464fd274ae0e","system_id":"levelo_inurba_marseille","lat":43.31753,"lon":5.39013,"is_reserved":false,"is_disabled":false,"rental_uris":{"android":"levelo://app?vid=de45bf6f-74a4-4602-9cd8-464fd274ae0e","ios":"levelo://app?vid=de45bf6f-74a4-4602-9cd8-464fd274ae0e"},"vehicle_type_id":"4","last_reported":1746817661,"current_range_meters":19200,"station_id":"ce4bhqp2rcd13ifvqhng","pricing_plan_id":"cebpf4jnsgd1na2vs0mg"},{"bike_id":"57e28094-b64d-4e98-a0ac-a2f894f143e0","system_id":"levelo_inurba_marseille","lat":43.29524,"lon":5.38542,"is_reserved":false,"is_disabled":false,"rental_uris":{"android":"levelo://app?vid=57e28094-b64d-4e98-a0ac-a2f894f143e0","ios":"levelo://app?vid=57e28094-b64d-4e98-a0ac-a2f894f143e0"},"vehicle_type_id":"4","last_reported":1746817661,"current_range_meters":19200,"station_id":"ce4bgih2rcd13ifvqba0","pricing_plan_id":"cebpf4jnsgd1na2vs0mg"},{"bike_id":"729b91d1-db6c-47aa-b22c-ff3a797c88ec","system_id":"levelo_inurba_marseille","lat":43.31174,"lon":5.38714,"is_reserved":false,"is_disabled":false,"rental_uris":{"android":"levelo://app?vid=729b91d1-db6c-47aa-b22c-ff3a797c88ec","ios":"levelo://app?vid=729b91d1-db6c-47aa-b22c-ff3a797c88ec"},"vehicle_type_id":"4","last_reported":1746817661,"current_range_meters":19600,"station_id":"ce4bgv12rcd13ifvqcp0","pricing_plan_id":"cebpf4jnsgd1na2vs0mg"},{"bike_id":"0b2254b8-bd96-4c68-a147-30e4c0de343d","system_id":"levelo_inurba_marseille","lat":43.27622,"lon":5.36108,"is_reserved":false,"is_disabled":false,"rental_uris":{"android":"levelo://app?vid=0b2254b8-bd96-4c68-a147-30e4c0de343d","ios":"levelo://app?vid=0b2254b8-bd96-4c68-a147-30e4c0de343d"},"vehicle_type_id":"4","last_reported":1746817661,"current_range_meters":19200,"station_id":"ce4bgj92rcd13ifvqbe0","pricing_plan_id":"cebpf4jnsgd1na2vs0mg"},{"bike_id":"50f5e02d-7e3d-4bd6-8a5e-360e84f51370","system_id":"levelo_inurba_marseille","lat":43.25124,"lon":5.40326,"is_reserved":false,"is_disabled":false,"rental_uris":{"android":"levelo://app?vid=50f5e02d-7e3d-4bd6-8a5e-360e84f51370","ios":"levelo://app?vid=50f5e02d-7e3d-4bd6-8a5e-360e84f51370"},"vehicle_type_id":"4","last_reported":1746817661,"current_range_meters":19600,"station_id":"ce4bhlh2rcd13ifvqgig","pricing_plan_id":"cebpf4jnsgd1na2vs0mg"},{"bike_id":"0e38af1a-3780-4230-ab86-2c5d036a7a44","system_id":"levelo_inurba_marseille","lat":43.23147,"lon":5.43725,"is_reserved":false,"is_disabled":false,"rental_uris":{"android":"levelo://app?vid=0e38af1a-3780-4230-ab86-2c5d036a7a44","ios":"levelo://app?vid=0e38af1a-3780-4230-ab86-2c5d036a7a44"},"vehicle_type_id":"4","last_reported":1746817661,"current_range_meters":19600,"station_id":"ce4bhmp2rcd13ifvqgog","pricing_plan_id":"cebpf4jnsgd1na2vs0mg"},{"bike_id":"da3ec372-c434-4150-8b8f-a943bf4cc231","system_id":"levelo_inurba_marseille","lat":43.29306,"lon":5.37162,"is_reserved":false,"is_disabled":false,"rental_uris":{"android":"levelo://app?vid=da3ec372-c434-4150-8b8f-a943bf4cc231","ios":"levelo://app?vid=da3ec372-c434-4150-8b8f-a943bf4cc231"},"vehicle_type_id":"4","last_reported":1746817661,"current_range_meters":19600,"station_id":"ce4bgh92rcd13ifvqb40","pricing_plan_id":"cebpf4jnsgd1na2vs0mg"},{"bike_id":"7f9b6e43-6d92-417a-af20-9eb5196db103","system_id":"levelo_inurba_marseille","lat":43.28286,"lon":5.35072,"is_reserved":false,"is_disabled":false,"rental_uris":{"android":"levelo://app?vid=7f9b6e43-6d92-417a-af20-9eb5196db103","ios":"levelo://app?vid=7f9b6e43-6d92-417a-af20-9eb5196db103"},"vehicle_type_id":"4","last_reported":1746817661,"current_range_meters":21600,"station_id":"ce4bhbp2rcd13ifvqerg","pricing_plan_id":"cebpf4jnsgd1na2vs0mg"},{"bike_id":"a1121b36-b5cd-4dda-96ef-13a3dfaa55e1","system_id":"levelo_inurba_marseille","lat":43.301401,"lon":5.387791,"is_reserved":false,"is_disabled":false,"rental_uris":{"android":"levelo://app?vid=a1121b36-b5cd-4dda-96ef-13a3dfaa55e1","ios":"levelo://app?vid=a1121b36-b5cd-4dda-96ef-13a3dfaa55e1"},"vehicle_type_id":"4","last_reported":1746817661,"current_range_meters":20000,"station_id":"","pricing_plan_id":"cebpf4jnsgd1na2vs0mg"},{"bike_id":"462336e2-a4e8-4882-be35-4ed6969a7cd6","system_id":"levelo_inurba_marseille","lat":43.2994,"lon":5.38636,"is_reserved":false,"is_disabled":false,"rental_uris":{"android":"levelo://app?vid=462336e2-a4e8-4882-be35-4ed6969a7cd6","ios":"levelo://app?vid=462336e2-a4e8-4882-be35-4ed6969a7cd6"},"vehicle_type_id":"4","last_reported":1746817661,"current_range_meters":20000,"station_id":"","pricing_plan_id":"cebpf4jnsgd1na2vs0mg"},{"bike_id":"a7361149-b5ce-4eed-bd82-6dbb773c238e","system_id":"levelo_inurba_marseille","lat":43.29782,"lon":5.37098,"is_reserved":false,"is_disabled":false,"rental_uris":{"android":"levelo://app?vid=a7361149-b5ce-4eed-bd82-6dbb773c238e","ios":"levelo://app?vid=a7361149-b5ce-4eed-bd82-6dbb773c238e"},"vehicle_type_id":"4","last_reported":1746817661,"current_range_meters":19600,"station_id":"ce4bgop2rcd13ifvqc1g","pricing_plan_id":"cebpf4jnsgd1na2vs0mg"},{"bike_id":"611984cb-882a-46b7-8fab-e6350303c611","system_id":"levelo_inurba_marseille","lat":43.24167,"lon":5.36393,"is_reserved":false,"is_disabled":false,"rental_uris":{"android":"levelo://app?vid=611984cb-882a-46b7-8fab-e6350303c611","ios":"levelo://app?vid=611984cb-882a-46b7-8fab-e6350303c611"},"vehicle_type_id":"4","last_reported":1746817661,"current_range_meters":20000,"station_id":"cpo36qri1sfpv3e86is0","pricing_plan_id":"cebpf4jnsgd1na2vs0mg"},{"bike_id":"22e1a02d-387b-4bc4-96c2-b2cdee31887a","system_id":"levelo_inurba_marseille","lat":43.23967,"lon":5.36618,"is_reserved":false,"is_disabled":false,"rental_uris":{"android":"levelo://app?vid=22e1a02d-387b-4bc4-96c2-b2cdee31887a","ios":"levelo://app?vid=22e1a02d-387b-4bc4-96c2-b2cdee31887a"},"vehicle_type_id":"4","last_reported":1746817661,"current_range_meters":20000,"station_id":"ce4bhi12rcd13ifvqfp0","pricing_plan_id":"cebpf4jnsgd1na2vs0mg"},{"bike_id":"8e32e7e5-2d4a-4658-9e73-931996a176a0","system_id":"levelo_inurba_marseille","lat":43.28617,"lon":5.35096,"is_reserved":false,"is_disabled":false,"rental_uris":{"android":"levelo://app?vid=8e32e7e5-2d4a-4658-9e73-931996a176a0","ios":"levelo://app?vid=8e32e7e5-2d4a-4658-9e73-931996a176a0"},"vehicle_type_id":"4","last_reported":1746817661,"current_range_meters":20000,"station_id":"ce4bhch2rcd13ifvqeug","pricing_plan_id":"cebpf4jnsgd1na2vs0mg"},{"bike_id":"eef67c5c-18d2-4751-8446-091d6493225c","system_id":"levelo_inurba_marseille","lat":43.29426,"lon":5.38608,"is_reserved":false,"is_disabled":false,"rental_uris":{"android":"levelo://app?vid=eef67c5c-18d2-4751-8446-091d6493225c","ios":"levelo://app?vid=eef67c5c-18d2-4751-8446-091d6493225c"},"vehicle_type_id":"4","last_reported":1746817661,"current_range_meters":20000,"station_id":"ce4bh2h2rcd13ifvqdh0","pricing_plan_id":"cebpf4jnsgd1na2vs0mg"},{"bike_id":"de819f27-6e1a-4942-9e5b-4feb7f1475bd","system_id":"levelo_inurba_marseille","lat":43.29253,"lon":5.38452,"is_reserved":false,"is_disabled":false,"rental_uris":{"android":"levelo://app?vid=de819f27-6e1a-4942-9e5b-4feb7f1475bd","ios":"levelo://app?vid=de819f27-6e1a-4942-9e5b-4feb7f1475bd"},"vehicle_type_id":"4","last_reported":1746817661,"current_range_meters":20000,"station_id":"ce4bh692rcd13ifvqea0","pricing_plan_id":"cebpf4jnsgd1na2vs0mg"},{"bike_id":"f34a79fb-9a2a-4d46-9bae-b3621d640434","system_id":"levelo_inurba_marseille","lat":43.31083,"lon":5.42428,"is_reserved":false,"is_disabled":true,"rental_uris":{"android":"levelo://app?vid=f34a79fb-9a2a-4d46-9bae-b3621d640434","ios":"levelo://app?vid=f34a79fb-9a2a-4d46-9bae-b3621d640434"},"vehicle_type_id":"4","last_reported":1746817661,"current_range_meters":20000,"station_id":"ce4bhp92rcd13ifvqhag","pricing_plan_id":"cebpf4jnsgd1na2vs0mg"},{"bike_id":"1e465f1f-c432-4500-b722-39315fa8c35c","system_id":"levelo_inurba_marseille","lat":43.30949,"lon":5.39032,"is_reserved":false,"is_disabled":false,"rental_uris":{"android":"levelo://app?vid=1e465f1f-c432-4500-b722-39315fa8c35c","ios":"levelo://app?vid=1e465f1f-c432-4500-b722-39315fa8c35c"},"vehicle_type_id":"4","last_reported":1746817661,"current_range_meters":20000,"station_id":"ce4bgup2rcd13ifvqco0","pricing_plan_id":"cebpf4jnsgd1na2vs0mg"},{"bike_id":"3b1a505e-eede-4e0c-9974-f0b842b6f06e","system_id":"levelo_inurba_marseille","lat":43.26563,"lon":5.39007,"is_reserved":false,"is_disabled":false,"rental_uris":{"android":"levelo://app?vid=3b1a505e-eede-4e0c-9974-f0b842b6f06e","ios":"levelo://app?vid=3b1a505e-eede-4e0c-9974-f0b842b6f06e"},"vehicle_type_id":"4","last_reported":1746817661,"current_range_meters":20000,"station_id":"ce4bhe12rcd13ifvqf30","pricing_plan_id":"cebpf4jnsgd1na2vs0mg"},{"bike_id":"f7042be8-eb5f-4b94-bcb1-9ae3388253fa","system_id":"levelo_inurba_marseille","lat":43.29434,"lon":5.38626,"is_reserved":false,"is_disabled":false,"rental_uris":{"android":"levelo://app?vid=f7042be8-eb5f-4b94-bcb1-9ae3388253fa","ios":"levelo://app?vid=f7042be8-eb5f-4b94-bcb1-9ae3388253fa"},"vehicle_type_id":"4","last_reported":1746817661,"current_range_meters":20000,"station_id":"ce4bh2h2rcd13ifvqdh0","pricing_plan_id":"cebpf4jnsgd1na2vs0mg"},{"bike_id":"a6d770db-92b2-4e57-9d0a-36a95baa12fd","system_id":"levelo_inurba_marseille","lat":43.3015,"lon":5.37411,"is_reserved":false,"is_disabled":false,"rental_uris":{"android":"levelo://app?vid=a6d770db-92b2-4e57-9d0a-36a95baa12fd","ios":"levelo://app?vid=a6d770db-92b2-4e57-9d0a-36a95baa12fd"},"vehicle_type_id":"4","last_reported":1746817661,"current_range_meters":20000,"station_id":"ce4bgs92rcd13ifvqcc0","pricing_plan_id":"cebpf4jnsgd1na2vs0mg"},{"bike_id":"12a0b799-b475-4298-886d-6c91f9c99402","system_id":"levelo_inurba_marseille","lat":43.25116,"lon":5.40338,"is_reserved":false,"is_disabled":false,"rental_uris":{"android":"levelo://app?vid=12a0b799-b475-4298-886d-6c91f9c99402","ios":"levelo://app?vid=12a0b799-b475-4298-886d-6c91f9c99402"},"vehicle_type_id":"4","last_reported":1746817661,"current_range_meters":20400,"station_id":"ce4bhlh2rcd13ifvqgig","pricing_plan_id":"cebpf4jnsgd1na2vs0mg"},{"bike_id":"95339b12-2018-4e02-94e7-1156801b27ce","system_id":"levelo_inurba_marseille","lat":43.28292,"lon":5.35071,"is_reserved":false,"is_disabled":false,"rental_uris":{"android":"levelo://app?vid=95339b12-2018-4e02-94e7-1156801b27ce","ios":"levelo://app?vid=95339b12-2018-4e02-94e7-1156801b27ce"},"vehicle_type_id":"4","last_reported":1746817661,"current_range_meters":20400,"station_id":"ce4bhbp2rcd13ifvqerg","pricing_plan_id":"cebpf4jnsgd1na2vs0mg"},{"bike_id":"5880fd76-938c-4026-8129-3552bad0c85c","system_id":"levelo_inurba_marseille","lat":43.30785,"lon":5.38159,"is_reserved":false,"is_disabled":false,"rental_uris":{"android":"levelo://app?vid=5880fd76-938c-4026-8129-3552bad0c85c","ios":"levelo://app?vid=5880fd76-938c-4026-8129-3552bad0c85c"},"vehicle_type_id":"4","last_reported":1746817661,"current_range_meters":20400,"station_id":"ce4bgt12rcd13ifvqce0","pricing_plan_id":"cebpf4jnsgd1na2vs0mg"},{"bike_id":"b36cb683-ad29-415e-9e01-33e17d955da6","system_id":"levelo_inurba_marseille","lat":43.296025,"lon":5.381001,"is_reserved":false,"is_disabled":false,"rental_uris":{"android":"levelo://app?vid=b36cb683-ad29-415e-9e01-33e17d955da6","ios":"levelo://app?vid=b36cb683-ad29-415e-9e01-33e17d955da6"},"vehicle_type_id":"4","last_reported":1746817661,"current_range_meters":20400,"station_id":"","pricing_plan_id":"cebpf4jnsgd1na2vs0mg"},{"bike_id":"2f8e5466-ccac-44a6-abd0-242edcbcf85f","system_id":"levelo_inurba_marseille","lat":43.29044,"lon":5.35919,"is_reserved":false,"is_disabled":false,"rental_uris":{"android":"levelo://app?vid=2f8e5466-ccac-44a6-abd0-242edcbcf85f","ios":"levelo://app?vid=2f8e5466-ccac-44a6-abd0-242edcbcf85f"},"vehicle_type_id":"4","last_reported":1746817661,"current_range_meters":20400,"station_id":"ce4bha92rcd13ifvqeg0","pricing_plan_id":"cebpf4jnsgd1na2vs0mg"},{"bike_id":"69a3ccd5-bd05-40e9-acc9-3262834d4df4","system_id":"levelo_inurba_marseille","lat":43.29569,"lon":5.42301,"is_reserved":false,"is_disabled":false,"rental_uris":{"android":"levelo://app?vid=69a3ccd5-bd05-40e9-acc9-3262834d4df4","ios":"levelo://app?vid=69a3ccd5-bd05-40e9-acc9-3262834d4df4"},"vehicle_type_id":"4","last_reported":1746817661,"current_range_meters":20000,"station_id":"ce4bhph2rcd13ifvqhdg","pricing_plan_id":"cebpf4jnsgd1na2vs0mg"},{"bike_id":"3d5a7f02-568e-4ffa-aac5-67f79cb7676a","system_id":"levelo_inurba_marseille","lat":43.29558,"lon":5.4229,"is_reserved":false,"is_disabled":false,"rental_uris":{"android":"levelo://app?vid=3d5a7f02-568e-4ffa-aac5-67f79cb7676a","ios":"levelo://app?vid=3d5a7f02-568e-4ffa-aac5-67f79cb7676a"},"vehicle_type_id":"4","last_reported":1746817661,"current_range_meters":20400,"station_id":"ce4bhph2rcd13ifvqhdg","pricing_plan_id":"cebpf4jnsgd1na2vs0mg"},{"bike_id":"fc2c7fff-e742-431e-aa2b-173b2b764ae1","system_id":"levelo_inurba_marseille","lat":43.29417,"lon":5.38623,"is_reserved":false,"is_disabled":false,"rental_uris":{"android":"levelo://app?vid=fc2c7fff-e742-431e-aa2b-173b2b764ae1","ios":"levelo://app?vid=fc2c7fff-e742-431e-aa2b-173b2b764ae1"},"vehicle_type_id":"4","last_reported":1746817661,"current_range_meters":20400,"station_id":"ce4bh2h2rcd13ifvqdh0","pricing_plan_id":"cebpf4jnsgd1na2vs0mg"},{"bike_id":"a57f132e-695d-4eec-9ca3-0284f390cf53","system_id":"levelo_inurba_marseille","lat":43.30878,"lon":5.39653,"is_reserved":false,"is_disabled":false,"rental_uris":{"android":"levelo://app?vid=a57f132e-695d-4eec-9ca3-0284f390cf53","ios":"levelo://app?vid=a57f132e-695d-4eec-9ca3-0284f390cf53"},"vehicle_type_id":"4","last_reported":1746817661,"current_range_meters":20000,"station_id":"ce4bh012rcd13ifvqcv0","pricing_plan_id":"cebpf4jnsgd1na2vs0mg"},{"bike_id":"583e6993-84a4-4496-be35-9dd54fb27236","system_id":"levelo_inurba_marseille","lat":43.29254,"lon":5.38436,"is_reserved":false,"is_disabled":false,"rental_uris":{"android":"levelo://app?vid=583e6993-84a4-4496-be35-9dd54fb27236","ios":"levelo://app?vid=583e6993-84a4-4496-be35-9dd54fb27236"},"vehicle_type_id":"4","last_reported":1746817661,"current_range_meters":20400,"station_id":"ce4bh692rcd13ifvqea0","pricing_plan_id":"cebpf4jnsgd1na2vs0mg"},{"bike_id":"11bac9a6-0e04-4c68-9615-f13539342864","system_id":"levelo_inurba_marseille","lat":43.21195,"lon":5.35102,"is_reserved":false,"is_disabled":false,"rental_uris":{"android":"levelo://app?vid=11bac9a6-0e04-4c68-9615-f13539342864","ios":"levelo://app?vid=11bac9a6-0e04-4c68-9615-f13539342864"},"vehicle_type_id":"4","last_reported":1746817661,"current_range_meters":20800,"station_id":"st_cvj6sg6p6f1abm77japg","pricing_plan_id":"cebpf4jnsgd1na2vs0mg"},{"bike_id":"0fb6b147-e9a8-4345-a220-93d47a47a517","system_id":"levelo_inurba_marseille","lat":43.22951,"lon":5.35376,"is_reserved":false,"is_disabled":false,"rental_uris":{"android":"levelo://app?vid=0fb6b147-e9a8-4345-a220-93d47a47a517","ios":"levelo://app?vid=0fb6b147-e9a8-4345-a220-93d47a47a517"},"vehicle_type_id":"4","last_reported":1746817661,"current_range_meters":20800,"station_id":"cpo3532slgdg3j2ikp40","pricing_plan_id":"cebpf4jnsgd1na2vs0mg"},{"bike_id":"791eff09-716f-4935-8f4f-1bd411aea0cd","system_id":"levelo_inurba_marseille","lat":43.29306,"lon":5.37172,"is_reserved":false,"is_disabled":false,"rental_uris":{"android":"levelo://app?vid=791eff09-716f-4935-8f4f-1bd411aea0cd","ios":"levelo://app?vid=791eff09-716f-4935-8f4f-1bd411aea0cd"},"vehicle_type_id":"4","last_reported":1746817661,"current_range_meters":20800,"station_id":"ce4bgh92rcd13ifvqb40","pricing_plan_id":"cebpf4jnsgd1na2vs0mg"},{"bike_id":"a816810c-03a7-403f-b4e5-92f0e8415dfd","system_id":"levelo_inurba_marseille","lat":43.31358,"lon":5.38559,"is_reserved":false,"is_disabled":false,"rental_uris":{"android":"levelo://app?vid=a816810c-03a7-403f-b4e5-92f0e8415dfd","ios":"levelo://app?vid=a816810c-03a7-403f-b4e5-92f0e8415dfd"},"vehicle_type_id":"4","last_reported":1746817661,"current_range_meters":20400,"station_id":"ce4bgt92rcd13ifvqcf0","pricing_plan_id":"cebpf4jnsgd1na2vs0mg"},{"bike_id":"deb86ef1-64d7-4827-ad43-e579c7a8ebad","system_id":"levelo_inurba_marseille","lat":43.293881,"lon":5.39575,"is_reserved":false,"is_disabled":false,"rental_uris":{"android":"levelo://app?vid=deb86ef1-64d7-4827-ad43-e579c7a8ebad","ios":"levelo://app?vid=deb86ef1-64d7-4827-ad43-e579c7a8ebad"},"vehicle_type_id":"4","last_reported":1746817661,"current_range_meters":20800,"station_id":"ce4bh692rcd13ifvqea0","pricing_plan_id":"cebpf4jnsgd1na2vs0mg"},{"bike_id":"d415e7e2-f909-4c4f-94d7-56d33e682e41","system_id":"levelo_inurba_marseille","lat":43.24392,"lon":5.370652,"is_reserved":false,"is_disabled":true,"rental_uris":{"android":"levelo://app?vid=d415e7e2-f909-4c4f-94d7-56d33e682e41","ios":"levelo://app?vid=d415e7e2-f909-4c4f-94d7-56d33e682e41"},"vehicle_type_id":"4","last_reported":1746817661,"current_range_meters":20800,"station_id":"ce4bhhh2rcd13ifvqfk0","pricing_plan_id":"cebpf4jnsgd1na2vs0mg"},{"bike_id":"628c9361-3d68-4678-b48b-1aeec419f7df","system_id":"levelo_inurba_marseille","lat":43.31367,"lon":5.38489,"is_reserved":false,"is_disabled":false,"rental_uris":{"android":"levelo://app?vid=628c9361-3d68-4678-b48b-1aeec419f7df","ios":"levelo://app?vid=628c9361-3d68-4678-b48b-1aeec419f7df"},"vehicle_type_id":"4","last_reported":1746817661,"current_range_meters":23200,"station_id":"ce4bgt92rcd13ifvqcf0","pricing_plan_id":"cebpf4jnsgd1na2vs0mg"},{"bike_id":"35acdf18-4688-4fbc-9b69-407331d78b5a","system_id":"levelo_inurba_marseille","lat":43.29262,"lon":5.38435,"is_reserved":false,"is_disabled":false,"rental_uris":{"android":"levelo://app?vid=35acdf18-4688-4fbc-9b69-407331d78b5a","ios":"levelo://app?vid=35acdf18-4688-4fbc-9b69-407331d78b5a"},"vehicle_type_id":"4","last_reported":1746817661,"current_range_meters":21600,"station_id":"ce4bh692rcd13ifvqea0","pricing_plan_id":"cebpf4jnsgd1na2vs0mg"},{"bike_id":"109107e7-9379-4f85-b977-031dfb7d7515","system_id":"levelo_inurba_marseille","lat":43.30187,"lon":5.38994,"is_reserved":false,"is_disabled":false,"rental_uris":{"android":"levelo://app?vid=109107e7-9379-4f85-b977-031dfb7d7515","ios":"levelo://app?vid=109107e7-9379-4f85-b977-031dfb7d7515"},"vehicle_type_id":"4","last_reported":1746817661,"current_range_meters":21600,"station_id":"","pricing_plan_id":"cebpf4jnsgd1na2vs0mg"},{"bike_id":"bd7f3ef1-f247-4ed8-91d6-c991688d6377","system_id":"levelo_inurba_marseille","lat":43.27833,"lon":5.39212,"is_reserved":false,"is_disabled":false,"rental_uris":{"android":"levelo://app?vid=bd7f3ef1-f247-4ed8-91d6-c991688d6377","ios":"levelo://app?vid=bd7f3ef1-f247-4ed8-91d6-c991688d6377"},"vehicle_type_id":"4","last_reported":1746817661,"current_range_meters":21600,"station_id":"ce4bhjp2rcd13ifvqga0","pricing_plan_id":"cebpf4jnsgd1na2vs0mg"},{"bike_id":"0d883dbe-ebed-433e-a6e7-785c73619693","system_id":"levelo_inurba_marseille","lat":43.31362,"lon":5.38491,"is_reserved":false,"is_disabled":false,"rental_uris":{"android":"levelo://app?vid=0d883dbe-ebed-433e-a6e7-785c73619693","ios":"levelo://app?vid=0d883dbe-ebed-433e-a6e7-785c73619693"},"vehicle_type_id":"4","last_reported":1746817661,"current_range_meters":21600,"station_id":"ce4bgt92rcd13ifvqcf0","pricing_plan_id":"cebpf4jnsgd1na2vs0mg"},{"bike_id":"664bfa68-076f-4d7d-ab7e-ce831e7ffd3f","system_id":"levelo_inurba_marseille","lat":43.28938,"lon":5.36639,"is_reserved":false,"is_disabled":false,"rental_uris":{"android":"levelo://app?vid=664bfa68-076f-4d7d-ab7e-ce831e7ffd3f","ios":"levelo://app?vid=664bfa68-076f-4d7d-ab7e-ce831e7ffd3f"},"vehicle_type_id":"4","last_reported":1746817661,"current_range_meters":21600,"station_id":"ce4bhap2rcd13ifvqek0","pricing_plan_id":"cebpf4jnsgd1na2vs0mg"},{"bike_id":"a72cd276-f803-4594-8dd0-8ab741ad50e7","system_id":"levelo_inurba_marseille","lat":43.27993,"lon":5.40002,"is_reserved":false,"is_disabled":false,"rental_uris":{"android":"levelo://app?vid=a72cd276-f803-4594-8dd0-8ab741ad50e7","ios":"levelo://app?vid=a72cd276-f803-4594-8dd0-8ab741ad50e7"},"vehicle_type_id":"4","last_reported":1746817661,"current_range_meters":21600,"station_id":"ce4bho92rcd13ifvqh4g","pricing_plan_id":"cebpf4jnsgd1na2vs0mg"},{"bike_id":"4e5dd8bd-188d-4723-a4ec-684f72290ada","system_id":"levelo_inurba_marseille","lat":43.29531,"lon":5.38547,"is_reserved":false,"is_disabled":false,"rental_uris":{"android":"levelo://app?vid=4e5dd8bd-188d-4723-a4ec-684f72290ada","ios":"levelo://app?vid=4e5dd8bd-188d-4723-a4ec-684f72290ada"},"vehicle_type_id":"4","last_reported":1746817661,"current_range_meters":21600,"station_id":"ce4bgih2rcd13ifvqba0","pricing_plan_id":"cebpf4jnsgd1na2vs0mg"},{"bike_id":"0afd176b-293f-4037-add2-8a9935b392f7","system_id":"levelo_inurba_marseille","lat":43.24807,"lon":5.37457,"is_reserved":false,"is_disabled":false,"rental_uris":{"android":"levelo://app?vid=0afd176b-293f-4037-add2-8a9935b392f7","ios":"levelo://app?vid=0afd176b-293f-4037-add2-8a9935b392f7"},"vehicle_type_id":"4","last_reported":1746817661,"current_range_meters":21600,"station_id":"ce4bhgh2rcd13ifvqfb0","pricing_plan_id":"cebpf4jnsgd1na2vs0mg"},{"bike_id":"dfcc74a0-c6c6-4b14-a15c-227c98367d6c","system_id":"levelo_inurba_marseille","lat":43.28154,"lon":5.42649,"is_reserved":false,"is_disabled":false,"rental_uris":{"android":"levelo://app?vid=dfcc74a0-c6c6-4b14-a15c-227c98367d6c","ios":"levelo://app?vid=dfcc74a0-c6c6-4b14-a15c-227c98367d6c"},"vehicle_type_id":"4","last_reported":1746817661,"current_range_meters":22000,"station_id":"ce4bhnh2rcd13ifvqgug","pricing_plan_id":"cebpf4jnsgd1na2vs0mg"},{"bike_id":"47135bc1-7584-4847-9554-d0a9af39104e","system_id":"levelo_inurba_marseille","lat":43.30594,"lon":5.39348,"is_reserved":false,"is_disabled":false,"rental_uris":{"android":"levelo://app?vid=47135bc1-7584-4847-9554-d0a9af39104e","ios":"levelo://app?vid=47135bc1-7584-4847-9554-d0a9af39104e"},"vehicle_type_id":"4","last_reported":1746817661,"current_range_meters":22000,"station_id":"ce4bh0p2rcd13ifvqd80","pricing_plan_id":"cebpf4jnsgd1na2vs0mg"},{"bike_id":"87f2bf91-3516-4150-a65a-8e509fd0de5a","system_id":"levelo_inurba_marseille","lat":43.26922,"lon":5.3892,"is_reserved":false,"is_disabled":false,"rental_uris":{"android":"levelo://app?vid=87f2bf91-3516-4150-a65a-8e509fd0de5a","ios":"levelo://app?vid=87f2bf91-3516-4150-a65a-8e509fd0de5a"},"vehicle_type_id":"4","last_reported":1746817661,"current_range_meters":22000,"station_id":"ce4bhhh2rcd13ifvqfl0","pricing_plan_id":"cebpf4jnsgd1na2vs0mg"},{"bike_id":"47534577-d443-4ca0-980c-be8c907520e1","system_id":"levelo_inurba_marseille","lat":43.30932,"lon":5.40139,"is_reserved":false,"is_disabled":false,"rental_uris":{"android":"levelo://app?vid=47534577-d443-4ca0-980c-be8c907520e1","ios":"levelo://app?vid=47534577-d443-4ca0-980c-be8c907520e1"},"vehicle_type_id":"4","last_reported":1746817661,"current_range_meters":22000,"station_id":"ce4bgvp2rcd13ifvqct0","pricing_plan_id":"cebpf4jnsgd1na2vs0mg"},{"bike_id":"089388f9-578b-4ef2-a850-caec8891008b","system_id":"levelo_inurba_marseille","lat":43.29417,"lon":5.38631,"is_reserved":false,"is_disabled":false,"rental_uris":{"android":"levelo://app?vid=089388f9-578b-4ef2-a850-caec8891008b","ios":"levelo://app?vid=089388f9-578b-4ef2-a850-caec8891008b"},"vehicle_type_id":"4","last_reported":1746817661,"current_range_meters":22400,"station_id":"ce4bh2h2rcd13ifvqdh0","pricing_plan_id":"cebpf4jnsgd1na2vs0mg"},{"bike_id":"4ba8fd86-686a-4a4b-9dc2-1899f0e1dec4","system_id":"levelo_inurba_marseille","lat":43.27813,"lon":5.39221,"is_reserved":false,"is_disabled":false,"rental_uris":{"android":"levelo://app?vid=4ba8fd86-686a-4a4b-9dc2-1899f0e1dec4","ios":"levelo://app?vid=4ba8fd86-686a-4a4b-9dc2-1899f0e1dec4"},"vehicle_type_id":"4","last_reported":1746817661,"current_range_meters":22000,"station_id":"ce4bhjp2rcd13ifvqga0","pricing_plan_id":"cebpf4jnsgd1na2vs0mg"},{"bike_id":"5080bc04-311b-4c10-8e17-8181d63a03bb","system_id":"levelo_inurba_marseille","lat":43.29221,"lon":5.36052,"is_reserved":false,"is_disabled":false,"rental_uris":{"android":"levelo://app?vid=5080bc04-311b-4c10-8e17-8181d63a03bb","ios":"levelo://app?vid=5080bc04-311b-4c10-8e17-8181d63a03bb"},"vehicle_type_id":"4","last_reported":1746817661,"current_range_meters":22400,"station_id":"ce4bhbh2rcd13ifvqeqg","pricing_plan_id":"cebpf4jnsgd1na2vs0mg"},{"bike_id":"7929c725-4333-4740-b3f5-8506704a9f8c","system_id":"levelo_inurba_marseille","lat":43.295237,"lon":5.390517,"is_reserved":false,"is_disabled":false,"rental_uris":{"android":"levelo://app?vid=7929c725-4333-4740-b3f5-8506704a9f8c","ios":"levelo://app?vid=7929c725-4333-4740-b3f5-8506704a9f8c"},"vehicle_type_id":"4","last_reported":1746817661,"current_range_meters":22400,"station_id":"ce4bh3p2rcd13ifvqdp0","pricing_plan_id":"cebpf4jnsgd1na2vs0mg"},{"bike_id":"b8644699-c61a-435c-a9ca-ed527eb8cddf","system_id":"levelo_inurba_marseille","lat":43.25116,"lon":5.403218,"is_reserved":false,"is_disabled":false,"rental_uris":{"android":"levelo://app?vid=b8644699-c61a-435c-a9ca-ed527eb8cddf","ios":"levelo://app?vid=b8644699-c61a-435c-a9ca-ed527eb8cddf"},"vehicle_type_id":"4","last_reported":1746817661,"current_range_meters":22400,"station_id":"ce4bhlh2rcd13ifvqgig","pricing_plan_id":"cebpf4jnsgd1na2vs0mg"},{"bike_id":"a783564d-79c3-402c-a475-e8418e91c3a2","system_id":"levelo_inurba_marseille","lat":43.29319,"lon":5.371073,"is_reserved":false,"is_disabled":false,"rental_uris":{"android":"levelo://app?vid=a783564d-79c3-402c-a475-e8418e91c3a2","ios":"levelo://app?vid=a783564d-79c3-402c-a475-e8418e91c3a2"},"vehicle_type_id":"4","last_reported":1746817661,"current_range_meters":22400,"station_id":"","pricing_plan_id":"cebpf4jnsgd1na2vs0mg"},{"bike_id":"5c6797b8-2ad8-435d-8ae8-3bf65b9d336c","system_id":"levelo_inurba_marseille","lat":43.29258,"lon":5.38444,"is_reserved":false,"is_disabled":false,"rental_uris":{"android":"levelo://app?vid=5c6797b8-2ad8-435d-8ae8-3bf65b9d336c","ios":"levelo://app?vid=5c6797b8-2ad8-435d-8ae8-3bf65b9d336c"},"vehicle_type_id":"4","last_reported":1746817661,"current_range_meters":22800,"station_id":"ce4bh692rcd13ifvqea0","pricing_plan_id":"cebpf4jnsgd1na2vs0mg"},{"bike_id":"8a9d34e0-9354-4c74-9b06-3e8b331beb69","system_id":"levelo_inurba_marseille","lat":43.27564,"lon":5.38425,"is_reserved":false,"is_disabled":false,"rental_uris":{"android":"levelo://app?vid=8a9d34e0-9354-4c74-9b06-3e8b331beb69","ios":"levelo://app?vid=8a9d34e0-9354-4c74-9b06-3e8b331beb69"},"vehicle_type_id":"4","last_reported":1746817661,"current_range_meters":22800,"station_id":"ce4bhh92rcd13ifvqfi0","pricing_plan_id":"cebpf4jnsgd1na2vs0mg"},{"bike_id":"6edd215d-ab0a-4d76-b73d-67fab9477a54","system_id":"levelo_inurba_marseille","lat":43.3249,"lon":5.42445,"is_reserved":false,"is_disabled":false,"rental_uris":{"android":"levelo://app?vid=6edd215d-ab0a-4d76-b73d-67fab9477a54","ios":"levelo://app?vid=6edd215d-ab0a-4d76-b73d-67fab9477a54"},