{"last_updated":1752073912,"ttl":60,"version":"2.2","data":{"bikes":[{"bike_id":"cd20cfea-2f2f-444d-a882-a49b6cf370eb","system_id":"levelo_inurba_marseille","lat":43.337444,"lon":5.374475,"is_reserved":false,"is_disabled":true,"rental_uris":{"android":"levelo://app?vid=cd20cfea-2f2f-444d-a882-a49b6cf370eb","ios":"levelo://app?vid=cd20cfea-2f2f-444d-a882-a49b6cf370eb"},"vehicle_type_id":"4","last_reported":1752073912,"current_range_meters":0,"station_id":"","pricing_plan_id":"cebpf4jnsgd1na2vs0mg"},{"bike_id":"3da29fb8-fc97-44c6-b9ac-31dd456b2fd4","system_id":"levelo_inurba_marseille","lat":43.33771,"lon":5.37424,"is_reserved":false,"is_disabled":true,"rental_uris":{"android":"levelo://app?vid=3da29fb8-fc97-44c6-b9ac-31dd456b2fd4","ios":"levelo://app?vid=3da29fb8-fc97-44c6-b9ac-31dd456b2fd4"},"vehicle_type_id":"4","last_reported":1752073912,"current_range_meters":0,"station_id":"","pricing_plan_id":"cebpf4jnsgd1na2vs0mg"},{"bike_id":"01861ad8-a8d7-4be6-816e-651927c87584","system_id":"levelo_inurba_marseille","lat":43.33751,"lon":5.37456,"is_reserved":false,"is_disabled":true,"rental_uris":{"android":"levelo://app?vid=01861ad8-a8d7-4be6-816e-651927c87584","ios":"levelo://app?vid=01861ad8-a8d7-4be6-816e-651927c87584"},"vehicle_type_id":"4","last_reported":1752073912,"current_range_meters":0,"station_id":"","pricing_plan_id":"cebpf4jnsgd1na2vs0mg"},{"bike_id":"53b1a31e-8ada-40c0-8d64-113a81233c84","system_id":"levelo_inurba_marseille","lat":43.36421,"lon":5.319291,"is_reserved":false,"is_disabled":true,"rental_uris":{"android":"levelo://app?vid=53b1a31e-8ada-40c0-8d64-113a81233c84","ios":"levelo://app?vid=53b1a31e-8ada-40c0-8d64-113a81233c84"},"vehicle_type_id":"4","last_reported":1752073912,"current_range_meters":0,"station_id":"","pricing_plan_id":"cebpf4jnsgd1na2vs0mg"},{"bike_id":"6661cbd2-6ba2-4b46-b15e-1188df0f29d7","system_id":"levelo_inurba_marseille","lat":43.21231,"lon":5.35083,"is_reserved":false,"is_disabled":true,"rental_uris":{"android":"levelo://app?vid=6661cbd2-6ba2-4b46-b15e-1188df0f29d7","ios":"levelo://app?vid=6661cbd2-6ba2-4b46-b15e-1188df0f29d7"},"vehicle_type_id":"4","last_reported":1752073912,"current_range_meters":0,"station_id":"","pricing_plan_id":"cebpf4jnsgd1na2vs0mg"},{"bike_id":"25b530b8-6d13-4904-9402-4f578d98ca35","system_id":"levelo_inurba_marseille","lat":43.29303,"lon":5.374654,"is_reserved":false,"is_disabled":true,"rental_uris":{"android":"levelo://app?vid=25b530b8-6d13-4904-9402-4f578d98ca35","ios":"levelo://app?vid=25b530b8-6d13-4904-9402-4f578d98ca35"},"vehicle_type_id":"4","last_reported":1752073912,"current_range_meters":0,"station_id":"ce4bgi12rcd13ifvqb70","pricing_plan_id":"cebpf4jnsgd1na2vs0mg"},{"bike_id":"ec1013aa-ddca-457a-b566-11966c83c404","system_id":"levelo_inurba_marseille","lat":43.29247,"lon":5.37628,"is_reserved":false,"is_disabled":true,"rental_uris":{"android":"levelo://app?vid=ec1013aa-ddca-457a-b566-11966c83c404","ios":"levelo://app?vid=ec1013aa-ddca-457a-b566-11966c83c404"},"vehicle_type_id":"4","last_reported":1752073912,"current_range_meters":0,"station_id":"ce4bgi12rcd13ifvqb80","pricing_plan_id":"cebpf4jnsgd1na2vs0mg"},{"bike_id":"a28e5d75-2105-47ee-a0c4-6d3a2889df38","system_id":"levelo_inurba_marseille","lat":43.29586,"lon":5.36726,"is_reserved":false,"is_disabled":true,"rental_uris":{"android":"levelo://app?vid=a28e5d75-2105-47ee-a0c4-6d3a2889df38","ios":"levelo://app?vid=a28e5d75-2105-47ee-a0c4-6d3a2889df38"},"vehicle_type_id":"4","last_reported":1752073912,"current_range_meters":0,"station_id":"ce4bgph2rcd13ifvqc2g","pricing_plan_id":"cebpf4jnsgd1na2vs0mg"},{"bike_id":"8260f277-493f-4be7-b679-2e3faceecd03","system_id":"levelo_inurba_marseille","lat":43.30326,"lon":5.40433,"is_reserved":false,"is_disabled":true,"rental_uris":{"android":"levelo://app?vid=8260f277-493f-4be7-b679-2e3faceecd03","ios":"levelo://app?vid=8260f277-493f-4be7-b679-2e3faceecd03"},"vehicle_type_id":"4","last_reported":1752073912,"current_range_meters":0,"station_id":"ce4bh012rcd13ifvqd10","pricing_plan_id":"cebpf4jnsgd1na2vs0mg"},{"bike_id":"f02207d2-a2ff-4d98-9893-95fd170ca36e","system_id":"levelo_inurba_marseille","lat":43.305939,"lon":5.393517,"is_reserved":false,"is_disabled":true,"rental_uris":{"android":"levelo://app?vid=f02207d2-a2ff-4d98-9893-95fd170ca36e","ios":"levelo://app?vid=f02207d2-a2ff-4d98-9893-95fd170ca36e"},"vehicle_type_id":"4","last_reported":1752073912,"current_range_meters":0,"station_id":"ce4bh0p2rcd13ifvqd80","pricing_plan_id":"cebpf4jnsgd1na2vs0mg"},{"bike_id":"a6a6072b-c640-4d7b-a35a-a0068589669d","system_id":"levelo_inurba_marseille","lat":43.27201,"lon":5.39172,"is_reserved":false,"is_disabled":true,"rental_uris":{"android":"levelo://app?vid=a6a6072b-c640-4d7b-a35a-a0068589669d","ios":"levelo://app?vid=a6a6072b-c640-4d7b-a35a-a0068589669d"},"vehicle_type_id":"4","last_reported":1752073912,"current_range_meters":0,"station_id":"ce4bhhp2rcd13ifvqfm0","pricing_plan_id":"cebpf4jnsgd1na2vs0mg"},{"bike_id":"4eaa4f46-e787-462b-ab61-5147ba127d17","system_id":"levelo_inurba_marseille","lat":43.275,"lon":5.4246,"is_reserved":false,"is_disabled":true,"rental_uris":{"android":"levelo://app?vid=4eaa4f46-e787-462b-ab61-5147ba127d17","ios":"levelo://app?vid=4eaa4f46-e787-462b-ab61-5147ba127d17"},"vehicle_type_id":"4","last_reported":1752073912,"current_range_meters":0,"station_id":"ce4bhn92rcd13ifvqgrg","pricing_plan_id":"cebpf4jnsgd1na2vs0mg"},{"bike_id":"0459630a-7d5f-4251-9649-04358e87dda3","system_id":"levelo_inurba_marseille","lat":43.24074,"lon":5.37748,"is_reserved":false,"is_disabled":true,"rental_uris":{"android":"levelo://app?vid=0459630a-7d5f-4251-9649-04358e87dda3","ios":"levelo://app?vid=0459630a-7d5f-4251-9649-04358e87dda3"},"vehicle_type_id":"4","last_reported":1752073912,"current_range_meters":0,"station_id":"ce4bhnp2rcd13ifvqgvg","pricing_plan_id":"cebpf4jnsgd1na2vs0mg"},{"bike_id":"c94d02e3-f1b9-4adf-898f-6f3cf4285185","system_id":"levelo_inurba_marseille","lat":43.31889,"lon":5.40737,"is_reserved":false,"is_disabled":true,"rental_uris":{"android":"levelo://app?vid=c94d02e3-f1b9-4adf-898f-6f3cf4285185","ios":"levelo://app?vid=c94d02e3-f1b9-4adf-898f-6f3cf4285185"},"vehicle_type_id":"4","last_reported":1752073912,"current_range_meters":0,"station_id":"ce4bhq12rcd13ifvqhig","pricing_plan_id":"cebpf4jnsgd1na2vs0mg"},{"bike_id":"e562ad4e-a577-4b7b-a74e-7e00b9c0f52f","system_id":"levelo_inurba_marseille","lat":43.225027,"lon":5.347812,"is_reserved":false,"is_disabled":true,"rental_uris":{"android":"levelo://app?vid=e562ad4e-a577-4b7b-a74e-7e00b9c0f52f","ios":"levelo://app?vid=e562ad4e-a577-4b7b-a74e-7e00b9c0f52f"},"vehicle_type_id":"4","last_reported":1752073912,"current_range_meters":0,"station_id":"st_cvj5dfep6f1abm77gieg","pricing_plan_id":"cebpf4jnsgd1na2vs0mg"},{"bike_id":"c1b17728-19cf-4c50-901f-578a3df81d0d","system_id":"levelo_inurba_marseille","lat":43.29029,"lon":5.38647,"is_reserved":false,"is_disabled":true,"rental_uris":{"android":"levelo://app?vid=c1b17728-19cf-4c50-901f-578a3df81d0d","ios":"levelo://app?vid=c1b17728-19cf-4c50-901f-578a3df81d0d"},"vehicle_type_id":"4","last_reported":1752073912,"current_range_meters":800,"station_id":"ce4bh4p2rcd13ifvqe0g","pricing_plan_id":"cebpf4jnsgd1na2vs0mg"},{"bike_id":"336eaf6b-6955-4ef9-8dfa-abf06b057d2c","system_id":"levelo_inurba_marseille","lat":43.21188,"lon":5.35069,"is_reserved":false,"is_disabled":true,"rental_uris":{"android":"levelo://app?vid=336eaf6b-6955-4ef9-8dfa-abf06b057d2c","ios":"levelo://app?vid=336eaf6b-6955-4ef9-8dfa-abf06b057d2c"},"vehicle_type_id":"4","last_reported":1752073912,"current_range_meters":800,"station_id":"st_cvj6sg6p6f1abm77japg","pricing_plan_id":"cebpf4jnsgd1na2vs0mg"},{"bike_id":"0650d222-8a61-4821-88f3-8eb8a5502644","system_id":"levelo_inurba_marseille","lat":43.29099,"lon":5.37988,"is_reserved":false,"is_disabled":true,"rental_uris":{"android":"levelo://app?vid=0650d222-8a61-4821-88f3-8eb8a5502644","ios":"levelo://app?vid=0650d222-8a61-4821-88f3-8eb8a5502644"},"vehicle_type_id":"4","last_reported":1752073912,"current_range_meters":1200,"station_id":"","pricing_plan_id":"cebpf4jnsgd1na2vs0mg"},{"bike_id":"5a3ca780-d267-49ae-8637-3ff96a8d7e0c","system_id":"levelo_inurba_marseille","lat":43.29042,"lon":5.35909,"is_reserved":false,"is_disabled":true,"rental_uris":{"android":"levelo://app?vid=5a3ca780-d267-49ae-8637-3ff96a8d7e0c","ios":"levelo://app?vid=5a3ca780-d267-49ae-8637-3ff96a8d7e0c"},"vehicle_type_id":"4","last_reported":1752073912,"current_range_meters":1200,"station_id":"ce4bha92rcd13ifvqeg0","pricing_plan_id":"cebpf4jnsgd1na2vs0mg"},{"bike_id":"0a993afa-a211-4b10-9163-1eb607e4c2a5","system_id":"levelo_inurba_marseille","lat":43.28,"lon":5.38696,"is_reserved":false,"is_disabled":true,"rental_uris":{"android":"levelo://app?vid=0a993afa-a211-4b10-9163-1eb607e4c2a5","ios":"levelo://app?vid=0a993afa-a211-4b10-9163-1eb607e4c2a5"},"vehicle_type_id":"4","last_reported":1752073912,"current_range_meters":1200,"station_id":"ce4bhg12rcd13ifvqf80","pricing_plan_id":"cebpf4jnsgd1na2vs0mg"},{"bike_id":"9dbe87cc-21c9-4b6c-952c-c09e35887f80","system_id":"levelo_inurba_marseille","lat":43.21764,"lon":5.34602,"is_reserved":false,"is_disabled":true,"rental_uris":{"android":"levelo://app?vid=9dbe87cc-21c9-4b6c-952c-c09e35887f80","ios":"levelo://app?vid=9dbe87cc-21c9-4b6c-952c-c09e35887f80"},"vehicle_type_id":"4","last_reported":1752073912,"current_range_meters":1200,"station_id":"st_cvj6r9ubvosntc0bgbag","pricing_plan_id":"cebpf4jnsgd1na2vs0mg"},{"bike_id":"2581b7c5-1b42-4417-a9e6-cbdbedb7a2dd","system_id":"levelo_inurba_marseille","lat":43.21754,"lon":5.3461,"is_reserved":false,"is_disabled":true,"rental_uris":{"android":"levelo://app?vid=2581b7c5-1b42-4417-a9e6-cbdbedb7a2dd","ios":"levelo://app?vid=2581b7c5-1b42-4417-a9e6-cbdbedb7a2dd"},"vehicle_type_id":"4","last_reported":1752073912,"current_range_meters":1600,"station_id":"st_cvj6r9ubvosntc0bgbag","pricing_plan_id":"cebpf4jnsgd1na2vs0mg"},{"bike_id":"c98d0307-3157-4a39-9409-864e8e505802","system_id":"levelo_inurba_marseille","lat":43.24165,"lon":5.39374,"is_reserved":false,"is_disabled":true,"rental_uris":{"android":"levelo://app?vid=c98d0307-3157-4a39-9409-864e8e505802","ios":"levelo://app?vid=c98d0307-3157-4a39-9409-864e8e505802"},"vehicle_type_id":"4","last_reported":1752073912,"current_range_meters":2000,"station_id":"","pricing_plan_id":"cebpf4jnsgd1na2vs0mg"},{"bike_id":"3b22f952-d0bc-4c00-8fd3-7e27b88aea23","system_id":"levelo_inurba_marseille","lat":43.29659,"lon":5.36245,"is_reserved":false,"is_disabled":true,"rental_uris":{"android":"levelo://app?vid=3b22f952-d0bc-4c00-8fd3-7e27b88aea23","ios":"levelo://app?vid=3b22f952-d0bc-4c00-8fd3-7e27b88aea23"},"vehicle_type_id":"4","last_reported":1752073912,"current_range_meters":2000,"station_id":"","pricing_plan_id":"cebpf4jnsgd1na2vs0mg"},{"bike_id":"37f2becd-23f9-4f13-a711-38b8024eeec7","system_id":"levelo_inurba_marseille","lat":43.33768,"lon":5.37516,"is_reserved":false,"is_disabled":false,"rental_uris":{"android":"levelo://app?vid=37f2becd-23f9-4f13-a711-38b8024eeec7","ios":"levelo://app?vid=37f2becd-23f9-4f13-a711-38b8024eeec7"},"vehicle_type_id":"4","last_reported":1752073912,"current_range_meters":3200,"station_id":"","pricing_plan_id":"cebpf4jnsgd1na2vs0mg"},{"bike_id":"c566bfbc-07d8-41ee-980a-8805cf17cabb","system_id":"levelo_inurba_marseille","lat":43.28466,"lon":5.38416,"is_reserved":false,"is_disabled":false,"rental_uris":{"android":"levelo://app?vid=c566bfbc-07d8-41ee-980a-8805cf17cabb","ios":"levelo://app?vid=c566bfbc-07d8-41ee-980a-8805cf17cabb"},"vehicle_type_id":"4","last_reported":1752073912,"current_range_meters":3200,"station_id":"ce4bh512rcd13ifvqe3g","pricing_plan_id":"cebpf4jnsgd1na2vs0mg"},{"bike_id":"2c423baa-ecca-420a-87d7-ad0b7e0b9ebb","system_id":"levelo_inurba_marseille","lat":43.280434,"lon":5.353614,"is_reserved":false,"is_disabled":false,"rental_uris":{"android":"levelo://app?vid=2c423baa-ecca-420a-87d7-ad0b7e0b9ebb","ios":"levelo://app?vid=2c423baa-ecca-420a-87d7-ad0b7e0b9ebb"},"vehicle_type_id":"4","last_reported":1752073912,"current_range_meters":3600,"station_id":"","pricing_plan_id":"cebpf4jnsgd1na2vs0mg"},{"bike_id":"303615e2-b645-47aa-b8dc-d69233e50c42","system_id":"levelo_inurba_marseille","lat":43.29894,"lon":5.43658,"is_reserved":false,"is_disabled":false,"rental_uris":{"android":"levelo://app?vid=303615e2-b645-47aa-b8dc-d69233e50c42","ios":"levelo://app?vid=303615e2-b645-47aa-b8dc-d69233e50c42"},"vehicle_type_id":"4","last_reported":1752073912,"current_range_meters":3600,"station_id":"ce4bhpp2rcd13ifvqhfg","pricing_plan_id":"cebpf4jnsgd1na2vs0mg"},{"bike_id":"219986a5-7268-4e17-8914-5aec33a3c1c8","system_id":"levelo_inurba_marseille","lat":43.26785,"lon":5.39415,"is_reserved":false,"is_disabled":false,"rental_uris":{"android":"levelo://app?vid=219986a5-7268-4e17-8914-5aec33a3c1c8","ios":"levelo://app?vid=219986a5-7268-4e17-8914-5aec33a3c1c8"},"vehicle_type_id":"4","last_reported":1752073912,"current_range_meters":4000,"station_id":"ce4bhh12rcd13ifvqfg0","pricing_plan_id":"cebpf4jnsgd1na2vs0mg"},{"bike_id":"b6298908-c110-4734-bd54-5126c1515414","system_id":"levelo_inurba_marseille","lat":43.21188,"lon":5.35084,"is_reserved":false,"is_disabled":false,"rental_uris":{"android":"levelo://app?vid=b6298908-c110-4734-bd54-5126c1515414","ios":"levelo://app?vid=b6298908-c110-4734-bd54-5126c1515414"},"vehicle_type_id":"4","last_reported":1752073912,"current_range_meters":4400,"station_id":"st_cvj6sg6p6f1abm77japg","pricing_plan_id":"cebpf4jnsgd1na2vs0mg"},{"bike_id":"0c8f92f0-34dd-4528-ac9a-218976babbcb","system_id":"levelo_inurba_marseille","lat":43.297057,"lon":5.376893,"is_reserved":false,"is_disabled":false,"rental_uris":{"android":"levelo://app?vid=0c8f92f0-34dd-4528-ac9a-218976babbcb","ios":"levelo://app?vid=0c8f92f0-34dd-4528-ac9a-218976babbcb"},"vehicle_type_id":"4","last_reported":1752073912,"current_range_meters":5600,"station_id":"ce4bgkh2rcd13ifvqbl0","pricing_plan_id":"cebpf4jnsgd1na2vs0mg"},{"bike_id":"226176e2-3b82-4381-9ecb-33d8e5ae61a2","system_id":"levelo_inurba_marseille","lat":43.26206,"lon":5.37442,"is_reserved":false,"is_disabled":false,"rental_uris":{"android":"levelo://app?vid=226176e2-3b82-4381-9ecb-33d8e5ae61a2","ios":"levelo://app?vid=226176e2-3b82-4381-9ecb-33d8e5ae61a2"},"vehicle_type_id":"4","last_reported":1752073912,"current_range_meters":5600,"station_id":"ce4bhgp2rcd13ifvqfc0","pricing_plan_id":"cebpf4jnsgd1na2vs0mg"},{"bike_id":"8f2ff7a7-653c-4b2d-9275-b1c799e276c7","system_id":"levelo_inurba_marseille","lat":43.28443,"lon":5.39203,"is_reserved":false,"is_disabled":false,"rental_uris":{"android":"levelo://app?vid=8f2ff7a7-653c-4b2d-9275-b1c799e276c7","ios":"levelo://app?vid=8f2ff7a7-653c-4b2d-9275-b1c799e276c7"},"vehicle_type_id":"4","last_reported":1752073912,"current_range_meters":5600,"station_id":"ce4bhoh2rcd13ifvqh5g","pricing_plan_id":"cebpf4jnsgd1na2vs0mg"},{"bike_id":"fee33eb4-a287-47ce-84af-44a41f968e38","system_id":"levelo_inurba_marseille","lat":43.31716,"lon":5.42412,"is_reserved":false,"is_disabled":false,"rental_uris":{"android":"levelo://app?vid=fee33eb4-a287-47ce-84af-44a41f968e38","ios":"levelo://app?vid=fee33eb4-a287-47ce-84af-44a41f968e38"},"vehicle_type_id":"4","last_reported":1752073912,"current_range_meters":5600,"station_id":"ce4bhp92rcd13ifvqhbg","pricing_plan_id":"cebpf4jnsgd1na2vs0mg"},{"bike_id":"c293dfea-6724-4e70-9db8-ca3048fba494","system_id":"levelo_inurba_marseille","lat":43.21746,"lon":5.34598,"is_reserved":false,"is_disabled":false,"rental_uris":{"android":"levelo://app?vid=c293dfea-6724-4e70-9db8-ca3048fba494","ios":"levelo://app?vid=c293dfea-6724-4e70-9db8-ca3048fba494"},"vehicle_type_id":"4","last_reported":1752073912,"current_range_meters":5600,"station_id":"st_cvj6r9ubvosntc0bgbag","pricing_plan_id":"cebpf4jnsgd1na2vs0mg"},{"bike_id":"ec32f97a-2097-45b1-82dd-b8022dd620b1","system_id":"levelo_inurba_marseille","lat":43.28663,"lon":5.38677,"is_reserved":false,"is_disabled":false,"rental_uris":{"android":"levelo://app?vid=ec32f97a-2097-45b1-82dd-b8022dd620b1","ios":"levelo://app?vid=ec32f97a-2097-45b1-82dd-b8022dd620b1"},"vehicle_type_id":"4","last_reported":1752073912,"current_range_meters":6800,"station_id":"ce4bh492rcd13ifvqdug","pricing_plan_id":"cebpf4jnsgd1na2vs0mg"},{"bike_id":"bd3ad11e-39ab-427c-94d7-3724376e193e","system_id":"levelo_inurba_marseille","lat":43.24805,"lon":5.37456,"is_reserved":false,"is_disabled":false,"rental_uris":{"android":"levelo://app?vid=bd3ad11e-39ab-427c-94d7-3724376e193e","ios":"levelo://app?vid=bd3ad11e-39ab-427c-94d7-3724376e193e"},"vehicle_type_id":"4","last_reported":1752073912,"current_range_meters":6800,"station_id":"ce4bhgh2rcd13ifvqfb0","pricing_plan_id":"cebpf4jnsgd1na2vs0mg"},{"bike_id":"f0cfef6f-5723-4676-bb4e-934c08719b65","system_id":"levelo_inurba_marseille","lat":43.28078,"lon":5.3966,"is_reserved":false,"is_disabled":false,"rental_uris":{"android":"levelo://app?vid=f0cfef6f-5723-4676-bb4e-934c08719b65","ios":"levelo://app?vid=f0cfef6f-5723-4676-bb4e-934c08719b65"},"vehicle_type_id":"4","last_reported":1752073912,"current_range_meters":6800,"station_id":"ce4bho12rcd13ifvqh2g","pricing_plan_id":"cebpf4jnsgd1na2vs0mg"},{"bike_id":"888522e3-39b6-4ff3-ad74-ff6c6f771157","system_id":"levelo_inurba_marseille","lat":43.29498,"lon":5.40278,"is_reserved":false,"is_disabled":false,"rental_uris":{"android":"levelo://app?vid=888522e3-39b6-4ff3-ad74-ff6c6f771157","ios":"levelo://app?vid=888522e3-39b6-4ff3-ad74-ff6c6f771157"},"vehicle_type_id":"4","last_reported":1752073912,"current_range_meters":7200,"station_id":"","pricing_plan_id":"cebpf4jnsgd1na2vs0mg"},{"bike_id":"6253f2e4-56ad-4f5c-97ee-c80196ad2037","system_id":"levelo_inurba_marseille","lat":43.29315,"lon":5.37426,"is_reserved":false,"is_disabled":false,"rental_uris":{"android":"levelo://app?vid=6253f2e4-56ad-4f5c-97ee-c80196ad2037","ios":"levelo://app?vid=6253f2e4-56ad-4f5c-97ee-c80196ad2037"},"vehicle_type_id":"4","last_reported":1752073912,"current_range_meters":7200,"station_id":"ce4bgi12rcd13ifvqb70","pricing_plan_id":"cebpf4jnsgd1na2vs0mg"},{"bike_id":"d0b5d8c6-65f5-43e3-9993-e0a03826421c","system_id":"levelo_inurba_marseille","lat":43.31257,"lon":5.36839,"is_reserved":false,"is_disabled":false,"rental_uris":{"android":"levelo://app?vid=d0b5d8c6-65f5-43e3-9993-e0a03826421c","ios":"levelo://app?vid=d0b5d8c6-65f5-43e3-9993-e0a03826421c"},"vehicle_type_id":"4","last_reported":1752073912,"current_range_meters":7200,"station_id":"ce4bgl92rcd13ifvqbq0","pricing_plan_id":"cebpf4jnsgd1na2vs0mg"},{"bike_id":"5f0ab2d2-dffc-4c9b-ac6f-631cabcf9ebe","system_id":"levelo_inurba_marseille","lat":43.24066,"lon":5.37755,"is_reserved":false,"is_disabled":false,"rental_uris":{"android":"levelo://app?vid=5f0ab2d2-dffc-4c9b-ac6f-631cabcf9ebe","ios":"levelo://app?vid=5f0ab2d2-dffc-4c9b-ac6f-631cabcf9ebe"},"vehicle_type_id":"4","last_reported":1752073912,"current_range_meters":7200,"station_id":"ce4bhnp2rcd13ifvqgvg","pricing_plan_id":"cebpf4jnsgd1na2vs0mg"},{"bike_id":"6c7d723f-87cf-4a31-b25c-728f3a12bb2d","system_id":"levelo_inurba_marseille","lat":43.28268,"lon":5.35061,"is_reserved":false,"is_disabled":false,"rental_uris":{"android":"levelo://app?vid=6c7d723f-87cf-4a31-b25c-728f3a12bb2d","ios":"levelo://app?vid=6c7d723f-87cf-4a31-b25c-728f3a12bb2d"},"vehicle_type_id":"4","last_reported":1752073912,"current_range_meters":8000,"station_id":"ce4bhbp2rcd13ifvqerg","pricing_plan_id":"cebpf4jnsgd1na2vs0mg"},{"bike_id":"f9f51984-7f80-4ada-8239-2bba368335e9","system_id":"levelo_inurba_marseille","lat":43.24805,"lon":5.37456,"is_reserved":false,"is_disabled":false,"rental_uris":{"android":"levelo://app?vid=f9f51984-7f80-4ada-8239-2bba368335e9","ios":"levelo://app?vid=f9f51984-7f80-4ada-8239-2bba368335e9"},"vehicle_type_id":"4","last_reported":1752073912,"current_range_meters":8000,"station_id":"ce4bhgh2rcd13ifvqfb0","pricing_plan_id":"cebpf4jnsgd1na2vs0mg"},{"bike_id":"1d7941f8-b27a-41b6-be7f-3e6dd63a4ead","system_id":"levelo_inurba_marseille","lat":43.31998,"lon":5.38161,"is_reserved":false,"is_disabled":false,"rental_uris":{"android":"levelo://app?vid=1d7941f8-b27a-41b6-be7f-3e6dd63a4ead","ios":"levelo://app?vid=1d7941f8-b27a-41b6-be7f-3e6dd63a4ead"},"vehicle_type_id":"4","last_reported":1752073912,"current_range_meters":8000,"station_id":"ce4bhr12rcd13ifvqhpg","pricing_plan_id":"cebpf4jnsgd1na2vs0mg"},{"bike_id":"069759f3-8488-4973-b337-5e447fc27e24","system_id":"levelo_inurba_marseille","lat":43.211952,"lon":5.350731,"is_reserved":false,"is_disabled":false,"rental_uris":{"android":"levelo://app?vid=069759f3-8488-4973-b337-5e447fc27e24","ios":"levelo://app?vid=069759f3-8488-4973-b337-5e447fc27e24"},"vehicle_type_id":"4","last_reported":1752073912,"current_range_meters":8400,"station_id":"st_cvj6sg6p6f1abm77japg","pricing_plan_id":"cebpf4jnsgd1na2vs0mg"},{"bike_id":"52b78249-6849-4da5-b525-d72ba3a89eeb","system_id":"levelo_inurba_marseille","lat":43.28613,"lon":5.351,"is_reserved":false,"is_disabled":false,"rental_uris":{"android":"levelo://app?vid=52b78249-6849-4da5-b525-d72ba3a89eeb","ios":"levelo://app?vid=52b78249-6849-4da5-b525-d72ba3a89eeb"},"vehicle_type_id":"4","last_reported":1752073912,"current_range_meters":8800,"station_id":"ce4bhch2rcd13ifvqeug","pricing_plan_id":"cebpf4jnsgd1na2vs0mg"},{"bike_id":"42b4527d-954b-4246-a65f-e5418afeaf15","system_id":"levelo_inurba_marseille","lat":43.26062,"lon":5.39399,"is_reserved":false,"is_disabled":false,"rental_uris":{"android":"levelo://app?vid=42b4527d-954b-4246-a65f-e5418afeaf15","ios":"levelo://app?vid=42b4527d-954b-4246-a65f-e5418afeaf15"},"vehicle_type_id":"4","last_reported":1752073912,"current_range_meters":8800,"station_id":"ce4bhh92rcd13ifvqfj0","pricing_plan_id":"cebpf4jnsgd1na2vs0mg"},{"bike_id":"281c5e73-1a0c-45c2-896d-abe80674e88c","system_id":"levelo_inurba_marseille","lat":43.2623,"lon":5.40453,"is_reserved":false,"is_disabled":false,"rental_uris":{"android":"levelo://app?vid=281c5e73-1a0c-45c2-896d-abe80674e88c","ios":"levelo://app?vid=281c5e73-1a0c-45c2-896d-abe80674e88c"},"vehicle_type_id":"4","last_reported":1752073912,"current_range_meters":8800,"station_id":"ce4bhmh2rcd13ifvqgmg","pricing_plan_id":"cebpf4jnsgd1na2vs0mg"},{"bike_id":"dc6900e3-7fc5-43c6-a0ee-6c9685b1fe6f","system_id":"levelo_inurba_marseille","lat":43.31881,"lon":5.40738,"is_reserved":false,"is_disabled":false,"rental_uris":{"android":"levelo://app?vid=dc6900e3-7fc5-43c6-a0ee-6c9685b1fe6f","ios":"levelo://app?vid=dc6900e3-7fc5-43c6-a0ee-6c9685b1fe6f"},"vehicle_type_id":"4","last_reported":1752073912,"current_range_meters":8800,"station_id":"ce4bhq12rcd13ifvqhig","pricing_plan_id":"cebpf4jnsgd1na2vs0mg"},{"bike_id":"3030cb07-c041-4d87-a253-8c849c24aa85","system_id":"levelo_inurba_marseille","lat":43.32645,"lon":5.36227,"is_reserved":false,"is_disabled":false,"rental_uris":{"android":"levelo://app?vid=3030cb07-c041-4d87-a253-8c849c24aa85","ios":"levelo://app?vid=3030cb07-c041-4d87-a253-8c849c24aa85"},"vehicle_type_id":"4","last_reported":1752073912,"current_range_meters":9600,"station_id":"","pricing_plan_id":"cebpf4jnsgd1na2vs0mg"},{"bike_id":"424fd8d5-b890-4af3-a856-0e4624d18a3b","system_id":"levelo_inurba_marseille","lat":43.2826,"lon":5.35068,"is_reserved":false,"is_disabled":false,"rental_uris":{"android":"levelo://app?vid=424fd8d5-b890-4af3-a856-0e4624d18a3b","ios":"levelo://app?vid=424fd8d5-b890-4af3-a856-0e4624d18a3b"},"vehicle_type_id":"4","last_reported":1752073912,"current_range_meters":9600,"station_id":"","pricing_plan_id":"cebpf4jnsgd1na2vs0mg"},{"bike_id":"4e9e717f-937a-4ba3-9ca2-b127bdf8a63f","system_id":"levelo_inurba_marseille","lat":43.26557,"lon":5.37283,"is_reserved":false,"is_disabled":false,"rental_uris":{"android":"levelo://app?vid=4e9e717f-937a-4ba3-9ca2-b127bdf8a63f","ios":"levelo://app?vid=4e9e717f-937a-4ba3-9ca2-b127bdf8a63f"},"vehicle_type_id":"4","last_reported":1752073912,"current_range_meters":9600,"station_id":"ce4bhg12rcd13ifvqf70","pricing_plan_id":"cebpf4jnsgd1na2vs0mg"},{"bike_id":"2fa231de-f74d-4e49-b569-19825602707e","system_id":"levelo_inurba_marseille","lat":43.23963,"lon":5.36637,"is_reserved":false,"is_disabled":false,"rental_uris":{"android":"levelo://app?vid=2fa231de-f74d-4e49-b569-19825602707e","ios":"levelo://app?vid=2fa231de-f74d-4e49-b569-19825602707e"},"vehicle_type_id":"4","last_reported":1752073912,"current_range_meters":9600,"station_id":"ce4bhi12rcd13ifvqfp0","pricing_plan_id":"cebpf4jnsgd1na2vs0mg"},{"bike_id":"9ef8fdc9-f364-4fd7-8af1-b2626c961c6d","system_id":"levelo_inurba_marseille","lat":43.25569,"lon":5.38247,"is_reserved":false,"is_disabled":false,"rental_uris":{"android":"levelo://app?vid=9ef8fdc9-f364-4fd7-8af1-b2626c961c6d","ios":"levelo://app?vid=9ef8fdc9-f364-4fd7-8af1-b2626c961c6d"},"vehicle_type_id":"4","last_reported":1752073912,"current_range_meters":9600,"station_id":"ce4bhih2rcd13ifvqfs0","pricing_plan_id":"cebpf4jnsgd1na2vs0mg"},{"bike_id":"3bd8b8a3-512e-4c45-8839-c2f9349ff4ec","system_id":"levelo_inurba_marseille","lat":43.217524,"lon":5.346041,"is_reserved":false,"is_disabled":false,"rental_uris":{"android":"levelo://app?vid=3bd8b8a3-512e-4c45-8839-c2f9349ff4ec","ios":"levelo://app?vid=3bd8b8a3-512e-4c45-8839-c2f9349ff4ec"},"vehicle_type_id":"4","last_reported":1752073912,"current_range_meters":10000,"station_id":"","pricing_plan_id":"cebpf4jnsgd1na2vs0mg"},{"bike_id":"87c2d236-4978-4760-be77-27d7f5a212e4","system_id":"levelo_inurba_marseille","lat":43.29644,"lon":5.36205,"is_reserved":false,"is_disabled":false,"rental_uris":{"android":"levelo://app?vid=87c2d236-4978-4760-be77-27d7f5a212e4","ios":"levelo://app?vid=87c2d236-4978-4760-be77-27d7f5a212e4"},"vehicle_type_id":"4","last_reported":1752073912,"current_range_meters":10000,"station_id":"","pricing_plan_id":"cebpf4jnsgd1na2vs0mg"},{"bike_id":"4a71261d-4362-43ba-aa20-5e15d95b3914","system_id":"levelo_inurba_marseille","lat":43.301563,"lon":5.387628,"is_reserved":false,"is_disabled":false,"rental_uris":{"android":"levelo://app?vid=4a71261d-4362-43ba-aa20-5e15d95b3914","ios":"levelo://app?vid=4a71261d-4362-43ba-aa20-5e15d95b3914"},"vehicle_type_id":"4","last_reported":1752073912,"current_range_meters":10800,"station_id":"ce4bgk12rcd13ifvqbi0","pricing_plan_id":"cebpf4jnsgd1na2vs0mg"},{"bike_id":"109759bc-eeed-422e-8d28-0097c2f6286a","system_id":"levelo_inurba_marseille","lat":43.28411,"lon":5.35014,"is_reserved":false,"is_disabled":false,"rental_uris":{"android":"levelo://app?vid=109759bc-eeed-422e-8d28-0097c2f6286a","ios":"levelo://app?vid=109759bc-eeed-422e-8d28-0097c2f6286a"},"vehicle_type_id":"4","last_reported":1752073912,"current_range_meters":10800,"station_id":"ce4bhbh2rcd13ifvqepg","pricing_plan_id":"cebpf4jnsgd1na2vs0mg"},{"bike_id":"91860c92-3b0a-4342-840f-1da575db5e26","system_id":"levelo_inurba_marseille","lat":43.28616,"lon":5.35106,"is_reserved":false,"is_disabled":false,"rental_uris":{"android":"levelo://app?vid=91860c92-3b0a-4342-840f-1da575db5e26","ios":"levelo://app?vid=91860c92-3b0a-4342-840f-1da575db5e26"},"vehicle_type_id":"4","last_reported":1752073912,"current_range_meters":10800,"station_id":"ce4bhch2rcd13ifvqeug","pricing_plan_id":"cebpf4jnsgd1na2vs0mg"},{"bike_id":"8aa56a6a-b6ff-4a94-9380-680f03852d53","system_id":"levelo_inurba_marseille","lat":43.337699,"lon":5.374282,"is_reserved":false,"is_disabled":false,"rental_uris":{"android":"levelo://app?vid=8aa56a6a-b6ff-4a94-9380-680f03852d53","ios":"levelo://app?vid=8aa56a6a-b6ff-4a94-9380-680f03852d53"},"vehicle_type_id":"4","last_reported":1752073912,"current_range_meters":11200,"station_id":"","pricing_plan_id":"cebpf4jnsgd1na2vs0mg"},{"bike_id":"cf0adafd-8a49-455f-8591-74ac6947229a","system_id":"levelo_inurba_marseille","lat":43.317075,"lon":5.37735,"is_reserved":false,"is_disabled":false,"rental_uris":{"android":"levelo://app?vid=cf0adafd-8a49-455f-8591-74ac6947229a","ios":"levelo://app?vid=cf0adafd-8a49-455f-8591-74ac6947229a"},"vehicle_type_id":"4","last_reported":1752073912,"current_range_meters":11200,"station_id":"ce4bgth2rcd13ifvqch0","pricing_plan_id":"cebpf4jnsgd1na2vs0mg"},{"bike_id":"21409a0d-cbbb-425b-9ea5-b0f8e4d3c9fb","system_id":"levelo_inurba_marseille","lat":43.26198,"lon":5.37939,"is_reserved":false,"is_disabled":false,"rental_uris":{"android":"levelo://app?vid=21409a0d-cbbb-425b-9ea5-b0f8e4d3c9fb","ios":"levelo://app?vid=21409a0d-cbbb-425b-9ea5-b0f8e4d3c9fb"},"vehicle_type_id":"4","last_reported":1752073912,"current_range_meters":11200,"station_id":"ce4bhjp2rcd13ifvqg90","pricing_plan_id":"cebpf4jnsgd1na2vs0mg"},{"bike_id":"78bb8720-8139-4cbe-bba1-fbd6a3ac84af","system_id":"levelo_inurba_marseille","lat":43.296997,"lon":5.366122,"is_reserved":false,"is_disabled":false,"rental_uris":{"android":"levelo://app?vid=78bb8720-8139-4cbe-bba1-fbd6a3ac84af","ios":"levelo://app?vid=78bb8720-8139-4cbe-bba1-fbd6a3ac84af"},"vehicle_type_id":"4","last_reported":1752073912,"current_range_meters":11600,"station_id":"ce4bgn12rcd13ifvqbt0","pricing_plan_id":"cebpf4jnsgd1na2vs0mg"},{"bike_id":"e0656896-2ee7-44af-802c-6cfab6ed0feb","system_id":"levelo_inurba_marseille","lat":43.29518,"lon":5.39044,"is_reserved":false,"is_disabled":false,"rental_uris":{"android":"levelo://app?vid=e0656896-2ee7-44af-802c-6cfab6ed0feb","ios":"levelo://app?vid=e0656896-2ee7-44af-802c-6cfab6ed0feb"},"vehicle_type_id":"4","last_reported":1752073912,"current_range_meters":11600,"station_id":"ce4bh3p2rcd13ifvqdp0","pricing_plan_id":"cebpf4jnsgd1na2vs0mg"},{"bike_id":"5143652f-0b58-45c5-bc71-b9facd25e0d3","system_id":"levelo_inurba_marseille","lat":43.26208,"lon":5.37926,"is_reserved":false,"is_disabled":false,"rental_uris":{"android":"levelo://app?vid=5143652f-0b58-45c5-bc71-b9facd25e0d3","ios":"levelo://app?vid=5143652f-0b58-45c5-bc71-b9facd25e0d3"},"vehicle_type_id":"4","last_reported":1752073912,"current_range_meters":11600,"station_id":"ce4bhjp2rcd13ifvqg90","pricing_plan_id":"cebpf4jnsgd1na2vs0mg"},{"bike_id":"430186c4-1e6a-40bc-9a4a-6c6b320c5b26","system_id":"levelo_inurba_marseille","lat":43.23151,"lon":5.43713,"is_reserved":false,"is_disabled":false,"rental_uris":{"android":"levelo://app?vid=430186c4-1e6a-40bc-9a4a-6c6b320c5b26","ios":"levelo://app?vid=430186c4-1e6a-40bc-9a4a-6c6b320c5b26"},"vehicle_type_id":"4","last_reported":1752073912,"current_range_meters":11600,"station_id":"ce4bhmp2rcd13ifvqgog","pricing_plan_id":"cebpf4jnsgd1na2vs0mg"},{"bike_id":"c000bb53-4e1b-4643-89f9-76858a3a57a3","system_id":"levelo_inurba_marseille","lat":43.22929,"lon":5.35375,"is_reserved":false,"is_disabled":false,"rental_uris":{"android":"levelo://app?vid=c000bb53-4e1b-4643-89f9-76858a3a57a3","ios":"levelo://app?vid=c000bb53-4e1b-4643-89f9-76858a3a57a3"},"vehicle_type_id":"4","last_reported":1752073912,"current_range_meters":11600,"station_id":"cpo3532slgdg3j2ikp40","pricing_plan_id":"cebpf4jnsgd1na2vs0mg"},{"bike_id":"5db44857-9ed0-4850-a05a-f2fc6bd5fa46","system_id":"levelo_inurba_marseille","lat":43.27968,"lon":5.3849,"is_reserved":false,"is_disabled":false,"rental_uris":{"android":"levelo://app?vid=5db44857-9ed0-4850-a05a-f2fc6bd5fa46","ios":"levelo://app?vid=5db44857-9ed0-4850-a05a-f2fc6bd5fa46"},"vehicle_type_id":"4","last_reported":1752073912,"current_range_meters":12000,"station_id":"","pricing_plan_id":"cebpf4jnsgd1na2vs0mg"},{"bike_id":"21391512-ea0a-40c6-b2ae-437c725c4f8e","system_id":"levelo_inurba_marseille","lat":43.24805,"lon":5.37456,"is_reserved":false,"is_disabled":false,"rental_uris":{"android":"levelo://app?vid=21391512-ea0a-40c6-b2ae-437c725c4f8e","ios":"levelo://app?vid=21391512-ea0a-40c6-b2ae-437c725c4f8e"},"vehicle_type_id":"4","last_reported":1752073912,"current_range_meters":12000,"station_id":"ce4bhgh2rcd13ifvqfb0","pricing_plan_id":"cebpf4jnsgd1na2vs0mg"},{"bike_id":"84e7e709-4e4f-4764-818c-af719435bfca","system_id":"levelo_inurba_marseille","lat":43.31899,"lon":5.37393,"is_reserved":false,"is_disabled":false,"rental_uris":{"android":"levelo://app?vid=84e7e709-4e4f-4764-818c-af719435bfca","ios":"levelo://app?vid=84e7e709-4e4f-4764-818c-af719435bfca"},"vehicle_type_id":"4","last_reported":1752073912,"current_range_meters":12400,"station_id":"","pricing_plan_id":"cebpf4jnsgd1na2vs0mg"},{"bike_id":"7ae03ea8-8b7d-409b-b27f-e4962cf69098","system_id":"levelo_inurba_marseille","lat":43.2871,"lon":5.37382,"is_reserved":false,"is_disabled":false,"rental_uris":{"android":"levelo://app?vid=7ae03ea8-8b7d-409b-b27f-e4962cf69098","ios":"levelo://app?vid=7ae03ea8-8b7d-409b-b27f-e4962cf69098"},"vehicle_type_id":"4","last_reported":1752073912,"current_range_meters":12400,"station_id":"ce4bh3p2rcd13ifvqdq0","pricing_plan_id":"cebpf4jnsgd1na2vs0mg"},{"bike_id":"85339cdc-4037-4417-9054-e722f7e495c5","system_id":"levelo_inurba_marseille","lat":43.2738,"lon":5.3626,"is_reserved":false,"is_disabled":false,"rental_uris":{"android":"levelo://app?vid=85339cdc-4037-4417-9054-e722f7e495c5","ios":"levelo://app?vid=85339cdc-4037-4417-9054-e722f7e495c5"},"vehicle_type_id":"4","last_reported":1752073912,"current_range_meters":12400,"station_id":"ce4bhbh2rcd13ifvqeo0","pricing_plan_id":"cebpf4jnsgd1na2vs0mg"},{"bike_id":"a5a1db4c-4dcc-46e5-a84f-c0fb8283b97a","system_id":"levelo_inurba_marseille","lat":43.24082,"lon":5.37742,"is_reserved":false,"is_disabled":false,"rental_uris":{"android":"levelo://app?vid=a5a1db4c-4dcc-46e5-a84f-c0fb8283b97a","ios":"levelo://app?vid=a5a1db4c-4dcc-46e5-a84f-c0fb8283b97a"},"vehicle_type_id":"4","last_reported":1752073912,"current_range_meters":12400,"station_id":"ce4bhnp2rcd13ifvqgvg","pricing_plan_id":"cebpf4jnsgd1na2vs0mg"},{"bike_id":"931c32e3-5b1d-42dc-bf2a-c368181698f3","system_id":"levelo_inurba_marseille","lat":43.28412,"lon":5.34978,"is_reserved":false,"is_disabled":false,"rental_uris":{"android":"levelo://app?vid=931c32e3-5b1d-42dc-bf2a-c368181698f3","ios":"levelo://app?vid=931c32e3-5b1d-42dc-bf2a-c368181698f3"},"vehicle_type_id":"4","last_reported":1752073912,"current_range_meters":12800,"station_id":"ce4bhbh2rcd13ifvqepg","pricing_plan_id":"cebpf4jnsgd1na2vs0mg"},{"bike_id":"ac39d365-5643-4610-bf4b-0e5167a77f88","system_id":"levelo_inurba_marseille","lat":43.33726,"lon":5.39179,"is_reserved":false,"is_disabled":false,"rental_uris":{"android":"levelo://app?vid=ac39d365-5643-4610-bf4b-0e5167a77f88","ios":"levelo://app?vid=ac39d365-5643-4610-bf4b-0e5167a77f88"},"vehicle_type_id":"4","last_reported":1752073912,"current_range_meters":12800,"station_id":"ce4bhr92rcd13ifvqhsg","pricing_plan_id":"cebpf4jnsgd1na2vs0mg"},{"bike_id":"f573a8fb-f1f8-47c4-901e-ddf2739a5cca","system_id":"levelo_inurba_marseille","lat":43.36001,"lon":5.32481,"is_reserved":false,"is_disabled":false,"rental_uris":{"android":"levelo://app?vid=f573a8fb-f1f8-47c4-901e-ddf2739a5cca","ios":"levelo://app?vid=f573a8fb-f1f8-47c4-901e-ddf2739a5cca"},"vehicle_type_id":"4","last_reported":1752073912,"current_range_meters":13600,"station_id":"","pricing_plan_id":"cebpf4jnsgd1na2vs0mg"},{"bike_id":"c2b72fe0-bae6-4c7b-ad48-9e771b203dc8","system_id":"levelo_inurba_marseille","lat":43.313532,"lon":5.384669,"is_reserved":false,"is_disabled":false,"rental_uris":{"android":"levelo://app?vid=c2b72fe0-bae6-4c7b-ad48-9e771b203dc8","ios":"levelo://app?vid=c2b72fe0-bae6-4c7b-ad48-9e771b203dc8"},"vehicle_type_id":"4","last_reported":1752073912,"current_range_meters":13600,"station_id":"ce4bgt92rcd13ifvqcf0","pricing_plan_id":"cebpf4jnsgd1na2vs0mg"},{"bike_id":"d5a6b840-f293-4f7e-94f2-1825a40996d7","system_id":"levelo_inurba_marseille","lat":43.26206,"lon":5.37445,"is_reserved":false,"is_disabled":false,"rental_uris":{"android":"levelo://app?vid=d5a6b840-f293-4f7e-94f2-1825a40996d7","ios":"levelo://app?vid=d5a6b840-f293-4f7e-94f2-1825a40996d7"},"vehicle_type_id":"4","last_reported":1752073912,"current_range_meters":13600,"station_id":"ce4bhgp2rcd13ifvqfc0","pricing_plan_id":"cebpf4jnsgd1na2vs0mg"},{"bike_id":"644de9ba-9fde-4bed-a981-dd76b3cb6b40","system_id":"levelo_inurba_marseille","lat":43.239572,"lon":5.366596,"is_reserved":false,"is_disabled":false,"rental_uris":{"android":"levelo://app?vid=644de9ba-9fde-4bed-a981-dd76b3cb6b40","ios":"levelo://app?vid=644de9ba-9fde-4bed-a981-dd76b3cb6b40"},"vehicle_type_id":"4","last_reported":1752073912,"current_range_meters":13600,"station_id":"ce4bhi12rcd13ifvqfp0","pricing_plan_id":"cebpf4jnsgd1na2vs0mg"},{"bike_id":"c514ad25-b83c-4d10-a595-57ae5a32aef4","system_id":"levelo_inurba_marseille","lat":43.22943,"lon":5.35398,"is_reserved":false,"is_disabled":false,"rental_uris":{"android":"levelo://app?vid=c514ad25-b83c-4d10-a595-57ae5a32aef4","ios":"levelo://app?vid=c514ad25-b83c-4d10-a595-57ae5a32aef4"},"vehicle_type_id":"4","last_reported":1752073912,"current_range_meters":13600,"station_id":"cpo3532slgdg3j2ikp40","pricing_plan_id":"cebpf4jnsgd1na2vs0mg"},{"bike_id":"4975b22d-8c48-452f-bd19-7a9d3ed7c378","system_id":"levelo_inurba_marseille","lat":43.29676,"lon":5.37424,"is_reserved":false,"is_disabled":false,"rental_uris":{"android":"levelo://app?vid=4975b22d-8c48-452f-bd19-7a9d3ed7c378","ios":"levelo://app?vid=4975b22d-8c48-452f-bd19-7a9d3ed7c378"},"vehicle_type_id":"4","last_reported":1752073912,"current_range_meters":14000,"station_id":"","pricing_plan_id":"cebpf4jnsgd1na2vs0mg"},{"bike_id":"6a57f39f-3f2f-4d3e-b9e1-7bde1ca9b465","system_id":"levelo_inurba_marseille","lat":43.25481,"lon":5.37646,"is_reserved":false,"is_disabled":false,"rental_uris":{"android":"levelo://app?vid=6a57f39f-3f2f-4d3e-b9e1-7bde1ca9b465","ios":"levelo://app?vid=6a57f39f-3f2f-4d3e-b9e1-7bde1ca9b465"},"vehicle_type_id":"4","last_reported":1752073912,"current_range_meters":14000,"station_id":"ce4bhh12rcd13ifvqff0","pricing_plan_id":"cebpf4jnsgd1na2vs0mg"},{"bike_id":"2e3eadaf-dec2-40e2-8929-c40983861b6a","system_id":"levelo_inurba_marseille","lat":43.25725,"lon":5.4111,"is_reserved":false,"is_disabled":false,"rental_uris":{"android":"levelo://app?vid=2e3eadaf-dec2-40e2-8929-c40983861b6a","ios":"levelo://app?vid=2e3eadaf-dec2-40e2-8929-c40983861b6a"},"vehicle_type_id":"4","last_reported":1752073912,"current_range_meters":14000,"station_id":"ce4bhkp2rcd13ifvqgd0","pricing_plan_id":"cebpf4jnsgd1na2vs0mg"},{"bike_id":"c814d399-4fde-494c-9fb6-7e7d5f0b2235","system_id":"levelo_inurba_marseille","lat":43.30144,"lon":5.37424,"is_reserved":false,"is_disabled":false,"rental_uris":{"android":"levelo://app?vid=c814d399-4fde-494c-9fb6-7e7d5f0b2235","ios":"levelo://app?vid=c814d399-4fde-494c-9fb6-7e7d5f0b2235"},"vehicle_type_id":"4","last_reported":1752073912,"current_range_meters":14400,"station_id":"ce4bgs92rcd13ifvqcc0","pricing_plan_id":"cebpf4jnsgd1na2vs0mg"},{"bike_id":"878331b6-4dbd-4828-a6d5-4c5b511244d4","system_id":"levelo_inurba_marseille","lat":43.21741,"lon":5.34605,"is_reserved":false,"is_disabled":false,"rental_uris":{"android":"levelo://app?vid=878331b6-4dbd-4828-a6d5-4c5b511244d4","ios":"levelo://app?vid=878331b6-4dbd-4828-a6d5-4c5b511244d4"},"vehicle_type_id":"4","last_reported":1752073912,"current_range_meters":14400,"station_id":"st_cvj6r9ubvosntc0bgbag","pricing_plan_id":"cebpf4jnsgd1na2vs0mg"},{"bike_id":"b2caa530-bb19-4cc6-a6bd-61e3e1d7432e","system_id":"levelo_inurba_marseille","lat":43.33763,"lon":5.37461,"is_reserved":false,"is_disabled":false,"rental_uris":{"android":"levelo://app?vid=b2caa530-bb19-4cc6-a6bd-61e3e1d7432e","ios":"levelo://app?vid=b2caa530-bb19-4cc6-a6bd-61e3e1d7432e"},"vehicle_type_id":"4","last_reported":1752073912,"current_range_meters":14800,"station_id":"","pricing_plan_id":"cebpf4jnsgd1na2vs0mg"},{"bike_id":"8b52e051-4e83-4103-a98d-28f12690ba46","system_id":"levelo_inurba_marseille","lat":43.30493,"lon":5.39485,"is_reserved":false,"is_disabled":false,"rental_uris":{"android":"levelo://app?vid=8b52e051-4e83-4103-a98d-28f12690ba46","ios":"levelo://app?vid=8b52e051-4e83-4103-a98d-28f12690ba46"},"vehicle_type_id":"4","last_reported":1752073912,"current_range_meters":14800,"station_id":"","pricing_plan_id":"cebpf4jnsgd1na2vs0mg"},{"bike_id":"608628af-ed31-426b-92a8-e2cf8c2a4541","system_id":"levelo_inurba_marseille","lat":43.30795,"lon":5.3815,"is_reserved":false,"is_disabled":false,"rental_uris":{"android":"levelo://app?vid=608628af-ed31-426b-92a8-e2cf8c2a4541","ios":"levelo://app?vid=608628af-ed31-426b-92a8-e2cf8c2a4541"},"vehicle_type_id":"4","last_reported":1752073912,"current_range_meters":14800,"station_id":"ce4bgt12rcd13ifvqce0","pricing_plan_id":"cebpf4jnsgd1na2vs0mg"},{"bike_id":"7dc48cb7-b742-4446-8d3e-f56bc6d6cf97","system_id":"levelo_inurba_marseille","lat":43.26221,"lon":5.37446,"is_reserved":false,"is_disabled":false,"rental_uris":{"android":"levelo://app?vid=7dc48cb7-b742-4446-8d3e-f56bc6d6cf97","ios":"levelo://app?vid=7dc48cb7-b742-4446-8d3e-f56bc6d6cf97"},"vehicle_type_id":"4","last_reported":1752073912,"current_range_meters":14800,"station_id":"ce4bhgp2rcd13ifvqfc0","pricing_plan_id":"cebpf4jnsgd1na2vs0mg"},{"bike_id":"d46a0d7a-f8a5-4353-8153-a329a158bb10","system_id":"levelo_inurba_marseille","lat":43.32367,"lon":5.38885,"is_reserved":false,"is_disabled":false,"rental_uris":{"android":"levelo://app?vid=d46a0d7a-f8a5-4353-8153-a329a158bb10","ios":"levelo://app?vid=d46a0d7a-f8a5-4353-8153-a329a158bb10"},"vehicle_type_id":"4","last_reported":1752073912,"current_range_meters":14800,"station_id":"ce4bhqp2rcd13ifvqhog","pricing_plan_id":"cebpf4jnsgd1na2vs0mg"},{"bike_id":"b6d9b946-f66a-4c6f-96e5-5d23e176360c","system_id":"levelo_inurba_marseille","lat":43.31315,"lon":5.38172,"is_reserved":false,"is_disabled":false,"rental_uris":{"android":"levelo://app?vid=b6d9b946-f66a-4c6f-96e5-5d23e176360c","ios":"levelo://app?vid=b6d9b946-f66a-4c6f-96e5-5d23e176360c"},"vehicle_type_id":"4","last_reported":1752073912,"current_range_meters":15200,"station_id":"","pricing_plan_id":"cebpf4jnsgd1na2vs0mg"},{"bike_id":"8569dcec-32c4-44ce-bb23-7efe7e3ccaf4","system_id":"levelo_inurba_marseille","lat":43.28455,"lon":5.35894,"is_reserved":false,"is_disabled":false,"rental_uris":{"android":"levelo://app?vid=8569dcec-32c4-44ce-bb23-7efe7e3ccaf4","ios":"levelo://app?vid=8569dcec-32c4-44ce-bb23-7efe7e3ccaf4"},"vehicle_type_id":"4","last_reported":1752073912,"current_range_meters":15200,"station_id":"ce4bhah2rcd13ifvqei0","pricing_plan_id":"cebpf4jnsgd1na2vs0mg"},{"bike_id":"bed2ec3b-82d0-44a1-a67e-38d32c5464a7","system_id":"levelo_inurba_marseille","lat":43.296487,"lon":5.405766,"is_reserved":false,"is_disabled":false,"rental_uris":{"android":"levelo://app?vid=bed2ec3b-82d0-44a1-a67e-38d32c5464a7","ios":"levelo://app?vid=bed2ec3b-82d0-44a1-a67e-38d32c5464a7"},"vehicle_type_id":"4","last_reported":1752073912,"current_range_meters":16000,"station_id":"","pricing_plan_id":"cebpf4jnsgd1na2vs0mg"},{"bike_id":"b757ffbb-2b71-4330-9f60-5f8a9d46d16e","system_id":"levelo_inurba_marseille","lat":43.29716,"lon":5.37171,"is_reserved":false,"is_disabled":false,"rental_uris":{"android":"levelo://app?vid=b757ffbb-2b71-4330-9f60-5f8a9d46d16e","ios":"levelo://app?vid=b757ffbb-2b71-4330-9f60-5f8a9d46d16e"},"vehicle_type_id":"4","last_reported":1752073912,"current_range_meters":16000,"station_id":"","pricing_plan_id":"cebpf4jnsgd1na2vs0mg"},{"bike_id":"93d6be08-2471-48d7-9948-c35dc9626201","system_id":"levelo_inurba_marseille","lat":43.31714,"lon":5.37647,"is_reserved":false,"is_disabled":false,"rental_uris":{"android":"levelo://app?vid=93d6be08-2471-48d7-9948-c35dc9626201","ios":"levelo://app?vid=93d6be08-2471-48d7-9948-c35dc9626201"},"vehicle_type_id":"4","last_reported":1752073912,"current_range_meters":16000,"station_id":"","pricing_plan_id":"cebpf4jnsgd1na2vs0mg"},{"bike_id":"f5c16f07-bc6f-4121-91a7-5ad90eec4f34","system_id":"levelo_inurba_marseille","lat":43.31216,"lon":5.3731,"is_reserved":false,"is_disabled":false,"rental_uris":{"android":"levelo://app?vid=f5c16f07-bc6f-4121-91a7-5ad90eec4f34","ios":"levelo://app?vid=f5c16f07-bc6f-4121-91a7-5ad90eec4f34"},"vehicle_type_id":"4","last_reported":1752073912,"current_range_meters":16000,"station_id":"","pricing_plan_id":"cebpf4jnsgd1na2vs0mg"},{"bike_id":"1bc63c58-183e-4688-9173-e004e373962b","system_id":"levelo_inurba_marseille","lat":43.22977,"lon":5.35433,"is_reserved":false,"is_disabled":false,"rental_uris":{"android":"levelo://app?vid=1bc63c58-183e-4688-9173-e004e373962b","ios":"levelo://app?vid=1bc63c58-183e-4688-9173-e004e373962b"},"vehicle_type_id":"4","last_reported":1752073912,"current_range_meters":16000,"station_id":"","pricing_plan_id":"cebpf4jnsgd1na2vs0mg"},{"bike_id":"baf30b8c-ee23-432e-a136-ad07ae77374d","system_id":"levelo_inurba_marseille","lat":43.28268,"lon":5.35067,"is_reserved":false,"is_disabled":false,"rental_uris":{"android":"levelo://app?vid=baf30b8c-ee23-432e-a136-ad07ae77374d","ios":"levelo://app?vid=baf30b8c-ee23-432e-a136-ad07ae77374d"},"vehicle_type_id":"4","last_reported":1752073912,"current_range_meters":16000,"station_id":"ce4bhbp2rcd13ifvqerg","pricing_plan_id":"cebpf4jnsgd1na2vs0mg"},{"bike_id":"449ed129-2f06-47da-936f-6e63a3609258","system_id":"levelo_inurba_marseille","lat":43.23205,"lon":5.3555,"is_reserved":false,"is_disabled":false,"rental_uris":{"android":"levelo://app?vid=449ed129-2f06-47da-936f-6e63a3609258","ios":"levelo://app?vid=449ed129-2f06-47da-936f-6e63a3609258"},"vehicle_type_id":"4","last_reported":1752073912,"current_range_meters":16000,"station_id":"ce4bhu92rcd13ifvqi70","pricing_plan_id":"cebpf4jnsgd1na2vs0mg"},{"bike_id":"6e5c2657-ccb8-4153-8b94-2143bc427a03","system_id":"levelo_inurba_marseille","lat":43.22498,"lon":5.3477,"is_reserved":false,"is_disabled":false,"rental_uris":{"android":"levelo://app?vid=6e5c2657-ccb8-4153-8b94-2143bc427a03","ios":"levelo://app?vid=6e5c2657-ccb8-4153-8b94-2143bc427a03"},"vehicle_type_id":"4","last_reported":1752073912,"current_range_meters":16000,"station_id":"st_cvj5dfep6f1abm77gieg","pricing_plan_id":"cebpf4jnsgd1na2vs0mg"},{"bike_id":"b28aa0a0-791c-4a08-9a16-c7bf6ea0ed5a","system_id":"levelo_inurba_marseille","lat":43.22506,"lon":5.34797,"is_reserved":false,"is_disabled":false,"rental_uris":{"android":"levelo://app?vid=b28aa0a0-791c-4a08-9a16-c7bf6ea0ed5a","ios":"levelo://app?vid=b28aa0a0-791c-4a08-9a16-c7bf6ea0ed5a"},"vehicle_type_id":"4","last_reported":1752073912,"current_range_meters":16000,"station_id":"st_cvj5dfep6f1abm77gieg","pricing_plan_id":"cebpf4jnsgd1na2vs0mg"},{"bike_id":"a8660a80-c79d-41ff-82e9-66d9425f12d6","system_id":"levelo_inurba_marseille","lat":43.30275,"lon":5.37825,"is_reserved":false,"is_disabled":false,"rental_uris":{"android":"levelo://app?vid=a8660a80-c79d-41ff-82e9-66d9425f12d6","ios":"levelo://app?vid=a8660a80-c79d-41ff-82e9-66d9425f12d6"},"vehicle_type_id":"4","last_reported":1752073912,"current_range_meters":16400,"station_id":"ce4bgs92rcd13ifvqcc0","pricing_plan_id":"cebpf4jnsgd1na2vs0mg"},{"bike_id":"2297beef-6cc9-4d71-852c-a3839b25bcf3","system_id":"levelo_inurba_marseille","lat":43.30798,"lon":5.381523,"is_reserved":false,"is_disabled":false,"rental_uris":{"android":"levelo://app?vid=2297beef-6cc9-4d71-852c-a3839b25bcf3","ios":"levelo://app?vid=2297beef-6cc9-4d71-852c-a3839b25bcf3"},"vehicle_type_id":"4","last_reported":1752073912,"current_range_meters":16400,"station_id":"ce4bgt12rcd13ifvqce0","pricing_plan_id":"cebpf4jnsgd1na2vs0mg"},{"bike_id":"1be39311-cfa5-4cbb-b93d-fb0870d6e611","system_id":"levelo_inurba_marseille","lat":43.21195,"lon":5.35074,"is_reserved":false,"is_disabled":false,"rental_uris":{"android":"levelo://app?vid=1be39311-cfa5-4cbb-b93d-fb0870d6e611","ios":"levelo://app?vid=1be39311-cfa5-4cbb-b93d-fb0870d6e611"},"vehicle_type_id":"4","last_reported":1752073912,"current_range_meters":16400,"station_id":"st_cvj6sg6p6f1abm77japg","pricing_plan_id":"cebpf4jnsgd1na2vs0mg"},{"bike_id":"999f2a33-af15-4ca0-853a-d2550f2d6574","system_id":"levelo_inurba_marseille","lat":43.23454,"lon":5.35919,"is_reserved":false,"is_disabled":false,"rental_uris":{"android":"levelo://app?vid=999f2a33-af15-4ca0-853a-d2550f2d6574","ios":"levelo://app?vid=999f2a33-af15-4ca0-853a-d2550f2d6574"},"vehicle_type_id":"4","last_reported":1752073912,"current_range_meters":16800,"station_id":"","pricing_plan_id":"cebpf4jnsgd1na2vs0mg"},{"bike_id":"320f2a33-deaa-4e0a-a3d5-c39ce8ad680a","system_id":"levelo_inurba_marseille","lat":43.31557,"lon":5.37434,"is_reserved":false,"is_disabled":false,"rental_uris":{"android":"levelo://app?vid=320f2a33-deaa-4e0a-a3d5-c39ce8ad680a","ios":"levelo://app?vid=320f2a33-deaa-4e0a-a3d5-c39ce8ad680a"},"vehicle_type_id":"4","last_reported":1752073912,"current_range_meters":16800,"station_id":"","pricing_plan_id":"cebpf4jnsgd1na2vs0mg"},{"bike_id":"cd1196aa-2423-4797-ac17-6f5a7a5c0564","system_id":"levelo_inurba_marseille","lat":43.312149,"lon":5.368626,"is_reserved":false,"is_disabled":false,"rental_uris":{"android":"levelo://app?vid=cd1196aa-2423-4797-ac17-6f5a7a5c0564","ios":"levelo://app?vid=cd1196aa-2423-4797-ac17-6f5a7a5c0564"},"vehicle_type_id":"4","last_reported":1752073912,"current_range_meters":16800,"station_id":"ce4bgl92rcd13ifvqbq0","pricing_plan_id":"cebpf4jnsgd1na2vs0mg"},{"bike_id":"a443e824-b364-4874-850c-3d51c9448eb3","system_id":"levelo_inurba_marseille","lat":43.30923,"lon":5.36841,"is_reserved":false,"is_disabled":false,"rental_uris":{"android":"levelo://app?vid=a443e824-b364-4874-850c-3d51c9448eb3","ios":"levelo://app?vid=a443e824-b364-4874-850c-3d51c9448eb3"},"vehicle_type_id":"4","last_reported":1752073912,"current_range_meters":16800,"station_id":"ce4bgn92rcd13ifvqbvg","pricing_plan_id":"cebpf4jnsgd1na2vs0mg"},{"bike_id":"e1bf5d26-1e44-4447-82fc-7e624f3f00cb","system_id":"levelo_inurba_marseille","lat":43.313543,"lon":5.366835,"is_reserved":false,"is_disabled":false,"rental_uris":{"android":"levelo://app?vid=e1bf5d26-1e44-4447-82fc-7e624f3f00cb","ios":"levelo://app?vid=e1bf5d26-1e44-4447-82fc-7e624f3f00cb"},"vehicle_type_id":"4","last_reported":1752073912,"current_range_meters":16800,"station_id":"ce4bgr92rcd13ifvqc6g","pricing_plan_id":"cebpf4jnsgd1na2vs0mg"},{"bike_id":"b9aad953-9bed-4824-834b-f3f50fd8c58d","system_id":"levelo_inurba_marseille","lat":43.28429,"lon":5.34999,"is_reserved":false,"is_disabled":false,"rental_uris":{"android":"levelo://app?vid=b9aad953-9bed-4824-834b-f3f50fd8c58d","ios":"levelo://app?vid=b9aad953-9bed-4824-834b-f3f50fd8c58d"},"vehicle_type_id":"4","last_reported":1752073912,"current_range_meters":16800,"station_id":"ce4bhbh2rcd13ifvqepg","pricing_plan_id":"cebpf4jnsgd1na2vs0mg"},{"bike_id":"2dc1f5c8-26fe-4e87-bcea-d5f6d3c1c40c","system_id":"levelo_inurba_marseille","lat":43.31716,"lon":5.42406,"is_reserved":false,"is_disabled":false,"rental_uris":{"android":"levelo://app?vid=2dc1f5c8-26fe-4e87-bcea-d5f6d3c1c40c","ios":"levelo://app?vid=2dc1f5c8-26fe-4e87-bcea-d5f6d3c1c40c"},"vehicle_type_id":"4","last_reported":1752073912,"current_range_meters":16800,"station_id":"ce4bhp92rcd13ifvqhbg","pricing_plan_id":"cebpf4jnsgd1na2vs0mg"},{"bike_id":"7dd4258d-8fe1-466b-bba8-036a896c4262","system_id":"levelo_inurba_marseille","lat":43.23204,"lon":5.35554,"is_reserved":false,"is_disabled":false,"rental_uris":{"android":"levelo://app?vid=7dd4258d-8fe1-466b-bba8-036a896c4262","ios":"levelo://app?vid=7dd4258d-8fe1-466b-bba8-036a896c4262"},"vehicle_type_id":"4","last_reported":1752073912,"current_range_meters":16800,"station_id":"ce4bhu92rcd13ifvqi70","pricing_plan_id":"cebpf4jnsgd1na2vs0mg"},{"bike_id":"3f674e21-387f-42dc-83a5-434606be9c99","system_id":"levelo_inurba_marseille","lat":43.217499,"lon":5.34601,"is_reserved":false,"is_disabled":false,"rental_uris":{"android":"levelo://app?vid=3f674e21-387f-42dc-83a5-434606be9c99","ios":"levelo://app?vid=3f674e21-387f-42dc-83a5-434606be9c99"},"vehicle_type_id":"4","last_reported":1752073912,"current_range_meters":16800,"station_id":"st_cvj6r9ubvosntc0bgbag","pricing_plan_id":"cebpf4jnsgd1na2vs0mg"},{"bike_id":"0f3ef2fd-bbff-4977-9fc7-c6dd716540cc","system_id":"levelo_inurba_marseille","lat":43.29978,"lon":5.38525,"is_reserved":false,"is_disabled":false,"rental_uris":{"android":"levelo://app?vid=0f3ef2fd-bbff-4977-9fc7-c6dd716540cc","ios":"levelo://app?vid=0f3ef2fd-bbff-4977-9fc7-c6dd716540cc"},"vehicle_type_id":"4","last_reported":1752073912,"current_range_meters":17200,"station_id":"ce4bgj92rcd13ifvqbd0","pricing_plan_id":"cebpf4jnsgd1na2vs0mg"},{"bike_id":"2ea49d28-337c-40b4-b247-d2ffd1d441d5","system_id":"levelo_inurba_marseille","lat":43.2846,"lon":5.35895,"is_reserved":false,"is_disabled":false,"rental_uris":{"android":"levelo://app?vid=2ea49d28-337c-40b4-b247-d2ffd1d441d5","ios":"levelo://app?vid=2ea49d28-337c-40b4-b247-d2ffd1d441d5"},"vehicle_type_id":"4","last_reported":1752073912,"current_range_meters":17200,"station_id":"ce4bhah2rcd13ifvqei0","pricing_plan_id":"cebpf4jnsgd1na2vs0mg"},{"bike_id":"191da7b9-bed7-4843-89f5-6df19e076b49","system_id":"levelo_inurba_marseille","lat":43.28629,"lon":5.35107,"is_reserved":false,"is_disabled":false,"rental_uris":{"android":"levelo://app?vid=191da7b9-bed7-4843-89f5-6df19e076b49","ios":"levelo://app?vid=191da7b9-bed7-4843-89f5-6df19e076b49"},"vehicle_type_id":"4","last_reported":1752073912,"current_range_meters":17200,"station_id":"ce4bhch2rcd13ifvqeug","pricing_plan_id":"cebpf4jnsgd1na2vs0mg"},{"bike_id":"78453c15-f7fb-4085-b8d9-2aee4240f403","system_id":"levelo_inurba_marseille","lat":43.2572,"lon":5.41116,"is_reserved":false,"is_disabled":false,"rental_uris":{"android":"levelo://app?vid=78453c15-f7fb-4085-b8d9-2aee4240f403","ios":"levelo://app?vid=78453c15-f7fb-4085-b8d9-2aee4240f403"},"vehicle_type_id":"4","last_reported":1752073912,"current_range_meters":17200,"station_id":"ce4bhkp2rcd13ifvqgd0","pricing_plan_id":"cebpf4jnsgd1na2vs0mg"},{"bike_id":"4e00f7d9-3b89-4075-a01c-5b3a0a8f6224","system_id":"levelo_inurba_marseille","lat":43.3095,"lon":5.3904,"is_reserved":false,"is_disabled":false,"rental_uris":{"android":"levelo://app?vid=4e00f7d9-3b89-4075-a01c-5b3a0a8f6224","ios":"levelo://app?vid=4e00f7d9-3b89-4075-a01c-5b3a0a8f6224"},"vehicle_type_id":"4","last_reported":1752073912,"current_range_meters":17600,"station_id":"ce4bgup2rcd13ifvqco0","pricing_plan_id":"cebpf4jnsgd1na2vs0mg"},{"bike_id":"9d2e056a-5a76-483e-bd70-1ba4cc8582d9","system_id":"levelo_inurba_marseille","lat":43.2829,"lon":5.35063,"is_reserved":false,"is_disabled":false,"rental_uris":{"android":"levelo://app?vid=9d2e056a-5a76-483e-bd70-1ba4cc8582d9","ios":"levelo://app?vid=9d2e056a-5a76-483e-bd70-1ba4cc8582d9"},"vehicle_type_id":"4","last_reported":1752073912,"current_range_meters":17600,"station_id":"ce4bhbp2rcd13ifvqerg","pricing_plan_id":"cebpf4jnsgd1na2vs0mg"},{"bike_id":"749370c6-54e1-4cc8-942a-7921a4b8fb09","system_id":"levelo_inurba_marseille","lat":43.28283,"lon":5.35072,"is_reserved":false,"is_disabled":false,"rental_uris":{"android":"levelo://app?vid=749370c6-54e1-4cc8-942a-7921a4b8fb09","ios":"levelo://app?vid=749370c6-54e1-4cc8-942a-7921a4b8fb09"},"vehicle_type_id":"4","last_reported":1752073912,"current_range_meters":17600,"station_id":"ce4bhbp2rcd13ifvqerg","pricing_plan_id":"cebpf4jnsgd1na2vs0mg"},{"bike_id":"291b20d5-78c7-4792-baa8-d25586c58704","system_id":"levelo_inurba_marseille","lat":43.24802,"lon":5.37458,"is_reserved":false,"is_disabled":false,"rental_uris":{"android":"levelo://app?vid=291b20d5-78c7-4792-baa8-d25586c58704","ios":"levelo://app?vid=291b20d5-78c7-4792-baa8-d25586c58704"},"vehicle_type_id":"4","last_reported":1752073912,"current_range_meters":17600,"station_id":"ce4bhgh2rcd13ifvqfb0","pricing_plan_id":"cebpf4jnsgd1na2vs0mg"},{"bike_id":"0dde599a-9e49-4424-bf17-46b64f156432","system_id":"levelo_inurba_marseille","lat":43.24076,"lon":5.37767,"is_reserved":false,"is_disabled":false,"rental_uris":{"android":"levelo://app?vid=0dde599a-9e49-4424-bf17-46b64f156432","ios":"levelo://app?vid=0dde599a-9e49-4424-bf17-46b64f156432"},"vehicle_type_id":"4","last_reported":1752073912,"current_range_meters":17600,"station_id":"ce4bhnp2rcd13ifvqgvg","pricing_plan_id":"cebpf4jnsgd1na2vs0mg"},{"bike_id":"c1a2ec00-2c06-4db2-86ef-f26a46c605a6","system_id":"levelo_inurba_marseille","lat":43.24168,"lon":5.36392,"is_reserved":false,"is_disabled":false,"rental_uris":{"android":"levelo://app?vid=c1a2ec00-2c06-4db2-86ef-f26a46c605a6","ios":"levelo://app?vid=c1a2ec00-2c06-4db2-86ef-f26a46c605a6"},"vehicle_type_id":"4","last_reported":1752073912,"current_range_meters":17600,"station_id":"cpo36qri1sfpv3e86is0","pricing_plan_id":"cebpf4jnsgd1na2vs0mg"},{"bike_id":"f2962ad6-e210-4b31-95a3-4eebd34a77e9","system_id":"levelo_inurba_marseille","lat":43.26998,"lon":5.39889,"is_reserved":false,"is_disabled":false,"rental_uris":{"android":"levelo://app?vid=f2962ad6-e210-4b31-95a3-4eebd34a77e9","ios":"levelo://app?vid=f2962ad6-e210-4b31-95a3-4eebd34a77e9"},"vehicle_type_id":"4","last_reported":1752073912,"current_range_meters":18000,"station_id":"","pricing_plan_id":"cebpf4jnsgd1na2vs0mg"},{"bike_id":"bc79cf22-9600-43f9-855f-d2516f160b65","system_id":"levelo_inurba_marseille","lat":43.314097,"lon":5.37491,"is_reserved":false,"is_disabled":false,"rental_uris":{"android":"levelo://app?vid=bc79cf22-9600-43f9-855f-d2516f160b65","ios":"levelo://app?vid=bc79cf22-9600-43f9-855f-d2516f160b65"},"vehicle_type_id":"4","last_reported":1752073912,"current_range_meters":18000,"station_id":"","pricing_plan_id":"cebpf4jnsgd1na2vs0mg"},{"bike_id":"feaa7e3a-cbe4-4489-be11-8a12d7eec173","system_id":"levelo_inurba_marseille","lat":43.25187,"lon":5.42613,"is_reserved":false,"is_disabled":false,"rental_uris":{"android":"levelo://app?vid=feaa7e3a-cbe4-4489-be11-8a12d7eec173","ios":"levelo://app?vid=feaa7e3a-cbe4-4489-be11-8a12d7eec173"},"vehicle_type_id":"4","last_reported":1752073912,"current_range_meters":18000,"station_id":"","pricing_plan_id":"cebpf4jnsgd1na2vs0mg"},{"bike_id":"36c387ea-be50-4028-8ecc-21605fe3e879","system_id":"levelo_inurba_marseille","lat":43.29365,"lon":5.42826,"is_reserved":false,"is_disabled":false,"rental_uris":{"android":"levelo://app?vid=36c387ea-be50-4028-8ecc-21605fe3e879","ios":"levelo://app?vid=36c387ea-be50-4028-8ecc-21605fe3e879"},"vehicle_type_id":"4","last_reported":1752073912,"current_range_meters":18800,"station_id":"","pricing_plan_id":"cebpf4jnsgd1na2vs0mg"},{"bike_id":"87d13c3c-9453-4492-8a8f-f2b4c8e828c6","system_id":"levelo_inurba_marseille","lat":43.26177,"lon":5.37049,"is_reserved":false,"is_disabled":false,"rental_uris":{"android":"levelo://app?vid=87d13c3c-9453-4492-8a8f-f2b4c8e828c6","ios":"levelo://app?vid=87d13c3c-9453-4492-8a8f-f2b4c8e828c6"},"vehicle_type_id":"4","last_reported":1752073912,"current_range_meters":18800,"station_id":"","pricing_plan_id":"cebpf4jnsgd1na2vs0mg"},{"bike_id":"178620b3-e80f-4c11-90fe-b0c778968faa","system_id":"levelo_inurba_marseille","lat":43.276053,"lon":5.361293,"is_reserved":false,"is_disabled":false,"rental_uris":{"android":"levelo://app?vid=178620b3-e80f-4c11-90fe-b0c778968faa","ios":"levelo://app?vid=178620b3-e80f-4c11-90fe-b0c778968faa"},"vehicle_type_id":"4","last_reported":1752073912,"current_range_meters":18800,"station_id":"ce4bgj92rcd13ifvqbe0","pricing_plan_id":"cebpf4jnsgd1na2vs0mg"},{"bike_id":"eadebbef-8d22-41cf-bf50-b1dd7b9222a7","system_id":"levelo_inurba_marseille","lat":43.29205,"lon":5.39315,"is_reserved":false,"is_disabled":false,"rental_uris":{"android":"levelo://app?vid=eadebbef-8d22-41cf-bf50-b1dd7b9222a7","ios":"levelo://app?vid=eadebbef-8d22-41cf-bf50-b1dd7b9222a7"},"vehicle_type_id":"4","last_reported":1752073912,"current_range_meters":18800,"station_id":"ce4bh192rcd13ifvqdd0","pricing_plan_id":"cebpf4jnsgd1na2vs0mg"},{"bike_id":"67a4e5ab-738a-46ee-92e4-9e7af78d20ef","system_id":"levelo_inurba_marseille","lat":43.28415,"lon":5.34994,"is_reserved":false,"is_disabled":false,"rental_uris":{"android":"levelo://app?vid=67a4e5ab-738a-46ee-92e4-9e7af78d20ef","ios":"levelo://app?vid=67a4e5ab-738a-46ee-92e4-9e7af78d20ef"},"vehicle_type_id":"4","last_reported":1752073912,"current_range_meters":18800,"station_id":"ce4bhbh2rcd13ifvqepg","pricing_plan_id":"cebpf4jnsgd1na2vs0mg"},{"bike_id":"3c2be974-f10a-47a0-ae30-b9e120db49ce","system_id":"levelo_inurba_marseille","lat":43.25502,"lon":5.37648,"is_reserved":false,"is_disabled":false,"rental_uris":{"android":"levelo://app?vid=3c2be974-f10a-47a0-ae30-b9e120db49ce","ios":"levelo://app?vid=3c2be974-f10a-47a0-ae30-b9e120db49ce"},"vehicle_type_id":"4","last_reported":1752073912,"current_range_meters":18800,"station_id":"ce4bhh12rcd13ifvqff0","pricing_plan_id":"cebpf4jnsgd1na2vs0mg"},{"bike_id":"ef6311b9-c394-4e85-b3f2-bf62d7fa6877","system_id":"levelo_inurba_marseille","lat":43.245477,"lon":5.395235,"is_reserved":false,"is_disabled":false,"rental_uris":{"android":"levelo://app?vid=ef6311b9-c394-4e85-b3f2-bf62d7fa6877","ios":"levelo://app?vid=ef6311b9-c394-4e85-b3f2-bf62d7fa6877"},"vehicle_type_id":"4","last_reported":1752073912,"current_range_meters":18800,"station_id":"ce4bhlp2rcd13ifvqgjg","pricing_plan_id":"cebpf4jnsgd1na2vs0mg"},{"bike_id":"f8fdffab-8be9-400e-9679-e4ecb404c34d","system_id":"levelo_inurba_marseille","lat":43.28082,"lon":5.39664,"is_reserved":false,"is_disabled":false,"rental_uris":{"android":"levelo://app?vid=f8fdffab-8be9-400e-9679-e4ecb404c34d","ios":"levelo://app?vid=f8fdffab-8be9-400e-9679-e4ecb404c34d"},"vehicle_type_id":"4","last_reported":1752073912,"current_range_meters":18800,"station_id":"ce4bho12rcd13ifvqh2g","pricing_plan_id":"cebpf4jnsgd1na2vs0mg"},{"bike_id":"7093c8a8-a62d-40e6-abb3-545e32414ffe","system_id":"levelo_inurba_marseille","lat":43.33716,"lon":5.3919,"is_reserved":false,"is_disabled":false,"rental_uris":{"android":"levelo://app?vid=7093c8a8-a62d-40e6-abb3-545e32414ffe","ios":"levelo://app?vid=7093c8a8-a62d-40e6-abb3-545e32414ffe"},"vehicle_type_id":"4","last_reported":1752073912,"current_range_meters":18800,"station_id":"ce4bhr92rcd13ifvqhsg","pricing_plan_id":"cebpf4jnsgd1na2vs0mg"},{"bike_id":"e0973b47-aa25-4308-a3d7-9c79b6a106be","system_id":"levelo_inurba_marseille","lat":43.32106,"lon":5.36779,"is_reserved":false,"is_disabled":false,"rental_uris":{"android":"levelo://app?vid=e0973b47-aa25-4308-a3d7-9c79b6a106be","ios":"levelo://app?vid=e0973b47-aa25-4308-a3d7-9c79b6a106be"},"vehicle_type_id":"4","last_reported":1752073912,"current_range_meters":18800,"station_id":"ce4bhrh2rcd13ifvqhug","pricing_plan_id":"cebpf4jnsgd1na2vs0mg"},{"bike_id":"85e3320e-8cee-43de-83f2-e982ac59c075","system_id":"levelo_inurba_marseille","lat":43.22502,"lon":5.34801,"is_reserved":false,"is_disabled":false,"rental_uris":{"android":"levelo://app?vid=85e3320e-8cee-43de-83f2-e982ac59c075","ios":"levelo://app?vid=85e3320e-8cee-43de-83f2-e982ac59c075"},"vehicle_type_id":"4","last_reported":1752073912,"current_range_meters":18800,"station_id":"st_cvj5dfep6f1abm77gieg","pricing_plan_id":"cebpf4jnsgd1na2vs0mg"},{"bike_id":"42ddf1de-52a6-47b1-8606-f9f2c373dc80","system_id":"levelo_inurba_marseille","lat":43.21744,"lon":5.34598,"is_reserved":false,"is_disabled":false,"rental_uris":{"android":"levelo://app?vid=42ddf1de-52a6-47b1-8606-f9f2c373dc80","ios":"levelo://app?vid=42ddf1de-52a6-47b1-8606-f9f2c373dc80"},"vehicle_type_id":"4","last_reported":1752073912,"current_range_meters":18800,"station_id":"st_cvj6r9ubvosntc0bgbag","pricing_plan_id":"cebpf4jnsgd1na2vs0mg"},{"bike_id":"9f5e74ce-2459-4c6f-a171-f6d1e8a1ed83","system_id":"levelo_inurba_marseille","lat":43.31848,"lon":5.37563,"is_reserved":false,"is_disabled":false,"rental_uris":{"android":"levelo://app?vid=9f5e74ce-2459-4c6f-a171-f6d1e8a1ed83","ios":"levelo://app?vid=9f5e74ce-2459-4c6f-a171-f6d1e8a1ed83"},"vehicle_type_id":"4","last_reported":1752073912,"current_range_meters":19200,"station_id":"","pricing_plan_id":"cebpf4jnsgd1na2vs0mg"},{"bike_id":"6293cfa4-1104-4730-8f10-0e95dd2df462","system_id":"levelo_inurba_marseille","lat":43.28426,"lon":5.37513,"is_reserved":false,"is_disabled":false,"rental_uris":{"android":"levelo://app?vid=6293cfa4-1104-4730-8f10-0e95dd2df462","ios":"levelo://app?vid=6293cfa4-1104-4730-8f10-0e95dd2df462"},"vehicle_type_id":"4","last_reported":1752073912,"current_range_meters":19200,"station_id":"ce4bh412rcd13ifvqds0","pricing_plan_id":"cebpf4jnsgd1na2vs0mg"},{"bike_id":"32a45745-158f-4e9b-8347-39544e4e467d","system_id":"levelo_inurba_marseille","lat":43.2841,"lon":5.35006,"is_reserved":false,"is_disabled":false,"rental_uris":{"android":"levelo://app?vid=32a45745-158f-4e9b-8347-39544e4e467d","ios":"levelo://app?vid=32a45745-158f-4e9b-8347-39544e4e467d"},"vehicle_type_id":"4","last_reported":1752073912,"current_range_meters":19200,"station_id":"ce4bhbh2rcd13ifvqepg","pricing_plan_id":"cebpf4jnsgd1na2vs0mg"},{"bike_id":"fe393e70-3017-4f74-9643-ce2ab31a2adc","system_id":"levelo_inurba_marseille","lat":43.28627,"lon":5.35099,"is_reserved":false,"is_disabled":false,"rental_uris":{"android":"levelo://app?vid=fe393e70-3017-4f74-9643-ce2ab31a2adc","ios":"levelo://app?vid=fe393e70-3017-4f74-9643-ce2ab31a2adc"},"vehicle_type_id":"4","last_reported":1752073912,"current_range_meters":19200,"station_id":"ce4bhch2rcd13ifvqeug","pricing_plan_id":"cebpf4jnsgd1na2vs0mg"},{"bike_id":"2448778b-ee46-49fe-bbff-35d04fc373fb","system_id":"levelo_inurba_marseille","lat":43.248054,"lon":5.374558,"is_reserved":false,"is_disabled":false,"rental_uris":{"android":"levelo://app?vid=2448778b-ee46-49fe-bbff-35d04fc373fb","ios":"levelo://app?vid=2448778b-ee46-49fe-bbff-35d04fc373fb"},"vehicle_type_id":"4","last_reported":1752073912,"current_range_meters":19200,"station_id":"ce4bhgh2rcd13ifvqfb0","pricing_plan_id":"cebpf4jnsgd1na2vs0mg"},{"bike_id":"f7db4f76-f9b4-4c58-81f0-17769d8a997d","system_id":"levelo_inurba_marseille","lat":43.25585,"lon":5.38236,"is_reserved":false,"is_disabled":false,"rental_uris":{"android":"levelo://app?vid=f7db4f76-f9b4-4c58-81f0-17769d8a997d","ios":"levelo://app?vid=f7db4f76-f9b4-4c58-81f0-17769d8a997d"},"vehicle_type_id":"4","last_reported":1752073912,"current_range_meters":19200,"station_id":"ce4bhih2rcd13ifvqfs0","pricing_plan_id":"cebpf4jnsgd1na2vs0mg"},{"bike_id":"7725683b-3883-4cb7-b23c-591c9a76b7b2","system_id":"levelo_inurba_marseille","lat":43.25588,"lon":5.38245,"is_reserved":false,"is_disabled":false,"rental_uris":{"android":"levelo://app?vid=7725683b-3883-4cb7-b23c-591c9a76b7b2","ios":"levelo://app?vid=7725683b-3883-4cb7-b23c-591c9a76b7b2"},"vehicle_type_id":"4","last_reported":1752073912,"current_range_meters":19200,"station_id":"ce4bhih2rcd13ifvqfs0","pricing_plan_id":"cebpf4jnsgd1na2vs0mg"},{"bike_id":"51d79711-fd55-46d0-999d-7df329fd6150","system_id":"levelo_inurba_marseille","lat":43.21758,"lon":5.34617,"is_reserved":false,"is_disabled":false,"rental_uris":{"android":"levelo://app?vid=51d79711-fd55-46d0-999d-7df329fd6150","ios":"levelo://app?vid=51d79711-fd55-46d0-999d-7df329fd6150"},"vehicle_type_id":"4","last_reported":1752073912,"current_range_meters":19200,"station_id":"st_cvj6r9ubvosntc0bgbag","pricing_plan_id":"cebpf4jnsgd1na2vs0mg"},{"bike_id":"cade331f-a6e3-4d01-8bc4-dd218718d65a","system_id":"levelo_inurba_marseille","lat":43.21433,"lon":5.34883,"is_reserved":false,"is_disabled":false,"rental_uris":{"android":"levelo://app?vid=cade331f-a6e3-4d01-8bc4-dd218718d65a","ios":"levelo://app?vid=cade331f-a6e3-4d01-8bc4-dd218718d65a"},"vehicle_type_id":"4","last_reported":1752073912,"current_range_meters":19600,"station_id":"","pricing_plan_id":"cebpf4jnsgd1na2vs0mg"},{"bike_id":"fde530d0-eeed-4692-bb9c-2c65ba0cdd9f","system_id":"levelo_inurba_marseille","lat":43.30867,"lon":5.42562,"is_reserved":false,"is_disabled":false,"rental_uris":{"android":"levelo://app?vid=fde530d0-eeed-4692-bb9c-2c65ba0cdd9f","ios":"levelo://app?vid=fde530d0-eeed-4692-bb9c-2c65ba0cdd9f"},"vehicle_type_id":"4","last_reported":1752073912,"current_range_meters":19600,"station_id":"","pricing_plan_id":"cebpf4jnsgd1na2vs0mg"},{"bike_id":"3cbcc0cf-77c0-4578-8d23-d3e75c0e6a48","system_id":"levelo_inurba_marseille","lat":43.30928,"lon":5.40145,"is_reserved":false,"is_disabled":false,"rental_uris":{"android":"levelo://app?vid=3cbcc0cf-77c0-4578-8d23-d3e75c0e6a48","ios":"levelo://app?vid=3cbcc0cf-77c0-4578-8d23-d3e75c0e6a48"},"vehicle_type_id":"4","last_reported":1752073912,"current_range_meters":19600,"station_id":"ce4bgvp2rcd13ifvqct0","pricing_plan_id":"cebpf4jnsgd1na2vs0mg"},{"bike_id":"bd5228ab-002e-4f81-bbd3-2baf5452f591","system_id":"levelo_inurba_marseille","lat":43.27828,"lon":5.41446,"is_reserved":false,"is_disabled":false,"rental_uris":{"android":"levelo://app?vid=bd5228ab-002e-4f81-bbd3-2baf5452f591","ios":"levelo://app?vid=bd5228ab-002e-4f81-bbd3-2baf5452f591"},"vehicle_type_id":"4","last_reported":1752073912,"current_range_meters":20000,"station_id":"","pricing_plan_id":"cebpf4jnsgd1na2vs0mg"},{"bike_id":"fa87fcb5-aacb-41a1-a789-0296bbd02085","system_id":"levelo_inurba_marseille","lat":43.24583,"lon":5.37383,"is_reserved":false,"is_disabled":false,"rental_uris":{"android":"levelo://app?vid=fa87fcb5-aacb-41a1-a789-0296bbd02085","ios":"levelo://app?vid=fa87fcb5-aacb-41a1-a789-0296bbd02085"},"vehicle_type_id":"4","last_reported":1752073912,"current_range_meters":20000,"station_id":"","pricing_plan_id":"cebpf4jnsgd1na2vs0mg"},{"bike_id":"26c2e966-1629-4796-81f9-9d21c5f5be62","system_id":"levelo_inurba_marseille","lat":43.28274,"lon":5.350585,"is_reserved":false,"is_disabled":false,"rental_uris":{"android":"levelo://app?vid=26c2e966-1629-4796-81f9-9d21c5f5be62","ios":"levelo://app?vid=26c2e966-1629-4796-81f9-9d21c5f5be62"},"vehicle_type_id":"4","last_reported":1752073912,"current_range_meters":20000,"station_id":"ce4bhbp2rcd13ifvqerg","pricing_plan_id":"cebpf4jnsgd1na2vs0mg"},{"bike_id":"ff353ee9-7149-4719-b3de-463ff3b4f014","system_id":"levelo_inurba_marseille","lat":43.27839,"lon":5.39219,"is_reserved":false,"is_disabled":false,"rental_uris":{"android":"levelo://app?vid=ff353ee9-7149-4719-b3de-463ff3b4f014","ios":"levelo://app?vid=ff353ee9-7149-4719-b3de-463ff3b4f014"},"vehicle_type_id":"4","last_reported":1752073912,"current_range_meters":20000,"station_id":"ce4bhjp2rcd13ifvqga0","pricing_plan_id":"cebpf4jnsgd1na2vs0mg"},{"bike_id":"89c88601-23fc-46eb-8f34-723cccb1bf9d","system_id":"levelo_inurba_marseille","lat":43.27491,"lon":5.42459,"is_reserved":false,"is_disabled":false,"rental_uris":{"android":"levelo://app?vid=89c88601-23fc-46eb-8f34-723cccb1bf9d","ios":"levelo://app?vid=89c88601-23fc-46eb-8f34-723cccb1bf9d"},"vehicle_type_id":"4","last_reported":1752073912,"current_range_meters":20000,"station_id":"ce4bhn92rcd13ifvqgrg","pricing_plan_id":"cebpf4jnsgd1na2vs0mg"},{"bike_id":"038cc9f7-3db3-4a14-a3dd-a9f6e9d54aa7","system_id":"levelo_inurba_marseille","lat":43.23067,"lon":5.35501,"is_reserved":false,"is_disabled":false,"rental_uris":{"android":"levelo://app?vid=038cc9f7-3db3-4a14-a3dd-a9f6e9d54aa7","ios":"levelo://app?vid=038cc9f7-3db3-4a14-a3dd-a9f6e9d54aa7"},"vehicle_type_id":"4","last_reported":1752073912,"current_range_meters":20000,"station_id":"cpo3342slgdg3j2ifvpg","pricing_plan_id":"cebpf4jnsgd1na2vs0mg"},{"bike_id":"9565d3ce-9739-43cd-9faf-f6b015eca3ae","system_id":"levelo_inurba_marseille","lat":43.22938,"lon":5.35369,"is_reserved":false,"is_disabled":false,"rental_uris":{"android":"levelo://app?vid=9565d3ce-9739-43cd-9faf-f6b015eca3ae","ios":"levelo://app?vid=9565d3ce-9739-43cd-9faf-f6b015eca3ae"},"vehicle_type_id":"4","last_reported":1752073912,"current_range_meters":20000,"station_id":"cpo3532slgdg3j2ikp40","pricing_plan_id":"cebpf4jnsgd1na2vs0mg"},{"bike_id":"d6ccf0b1-3fcc-4a6a-883f-25257c08898d","system_id":"levelo_inurba_marseille","lat":43.224976,"lon":5.348346,"is_reserved":false,"is_disabled":false,"rental_uris":{"android":"levelo://app?vid=d6ccf0b1-3fcc-4a6a-883f-25257c08898d","ios":"levelo://app?vid=d6ccf0b1-3fcc-4a6a-883f-25257c08898d"},"vehicle_type_id":"4","last_reported":1752073912,"current_range_meters":20400,"station_id":"","pricing_plan_id":"cebpf4jnsgd1na2vs0mg"},{"bike_id":"4e209b0c-855f-4b51-8120-2faef8673853","system_id":"levelo_inurba_marseille","lat":43.30603,"lon":5.36921,"is_reserved":false,"is_disabled":false,"rental_uris":{"android":"levelo://app?vid=4e209b0c-855f-4b51-8120-2faef8673853","ios":"levelo://app?vid=4e209b0c-855f-4b51-8120-2faef8673853"},"vehicle_type_id":"4","last_reported":1752073912,"current_range_meters":20400,"station_id":"","pricing_plan_id":"cebpf4jnsgd1na2vs0mg"},{"bike_id":"e2bb7ee9-ac0d-44b3-bb61-6afabc57f457","system_id":"levelo_inurba_marseille","lat":43.27371,"lon":5.36231,"is_reserved":false,"is_disabled":false,"rental_uris":{"android":"levelo://app?vid=e2bb7ee9-ac0d-44b3-bb61-6afabc57f457","ios":"levelo://app?vid=e2bb7ee9-ac0d-44b3-bb61-6afabc57f457"},"vehicle_type_id":"4","last_reported":1752073912,"current_range_meters":20400,"station_id":"ce4bhbh2rcd13ifvqeo0","pricing_plan_id":"cebpf4jnsgd1na2vs0mg"},{"bike_id":"9239d50f-454f-4cfe-bb52-525aa9c261e6","system_id":"levelo_inurba_marseille","lat":43.28615,"lon":5.35105,"is_reserved":false,"is_disabled":false,"rental_uris":{"android":"levelo://app?vid=9239d50f-454f-4cfe-bb52-525aa9c261e6","ios":"levelo://app?vid=9239d50f-454f-4cfe-bb52-525aa9c261e6"},"vehicle_type_id":"4","last_reported":1752073912,"current_range_meters":20400,"station_id":"ce4bhch2rcd13ifvqeug","pricing_plan_id":"cebpf4jnsgd1na2vs0mg"},{"bike_id":"74caf144-2d38-48c0-8fc1-541f33fbbb25","system_id":"levelo_inurba_marseille","lat":43.25573,"lon":5.38267,"is_reserved":false,"is_disabled":false,"rental_uris":{"android":"levelo://app?vid=74caf144-2d38-48c0-8fc1-541f33fbbb25","ios":"levelo://app?vid=74caf144-2d38-48c0-8fc1-541f33fbbb25"},"vehicle_type_id":"4","last_reported":1752073912,"current_range_meters":20400,"station_id":"ce4bhih2rcd13ifvqfs0","pricing_plan_id":"cebpf4jnsgd1na2vs0mg"},{"bike_id":"d6183b14-14ca-44c7-b355-9bc124d67e93","system_id":"levelo_inurba_marseille","lat":43.31505,"lon":5.38018,"is_reserved":false,"is_disabled":false,"rental_uris":{"android":"levelo://app?vid=d6183b14-14ca-44c7-b355-9bc124d67e93","ios":"levelo://app?vid=d6183b14-14ca-44c7-b355-9bc124d67e93"},"vehicle_type_id":"4","last_reported":1752073912,"current_range_meters":20400,"station_id":"ce4bhsp2rcd13ifvqi50","pricing_plan_id":"cebpf4jnsgd1na2vs0mg"},{"bike_id":"10c59449-1e22-41d8-be57-73de9f1e8e96","system_id":"levelo_inurba_marseille","lat":43.28389,"lon":5.3492,"is_reserved":false,"is_disabled":false,"rental_uris":{"android":"levelo://app?vid=10c59449-1e22-41d8-be57-73de9f1e8e96","ios":"levelo://app?vid=10c59449-1e22-41d8-be57-73de9f1e8e96"},"vehicle_type_id":"4","last_reported":1752073912,"current_range_meters":20800,"station_id":"","pricing_plan_id":"cebpf4jnsgd1na2vs0mg"},{"bike_id":"fa0dcdf3-6c67-470e-aad7-4505fe5e06d4","system_id":"levelo_inurba_marseille","lat":43.30783,"lon":5.37649,"is_reserved":false,"is_disabled":false,"rental_uris":{"android":"levelo://app?vid=fa0dcdf3-6c67-470e-aad7-4505fe5e06d4","ios":"levelo://app?vid=fa0dcdf3-6c67-470e-aad7-4505fe5e06d4"},"vehicle_type_id":"4","last_reported":1752073912,"current_range_meters":20800,"station_id":"ce4bgv92rcd13ifvqcq0","pricing_plan_id":"cebpf4jnsgd1na2vs0mg"},{"bike_id":"55eb3ee3-207d-45c9-a356-7e275a6ee08e","system_id":"levelo_inurba_marseille","lat":43.322208,"lon":5.407363,"is_reserved":false,"is_disabled":false,"rental_uris":{"android":"levelo://app?vid=55eb3ee3-207d-45c9-a356-7e275a6ee08e","ios":"levelo://app?vid=55eb3ee3-207d-45c9-a356-7e275a6ee08e"},"vehicle_type_id":"4","last_reported":1752073912,"current_range_meters":20800,"station_id":"ce4bh092rcd13ifvqd30","pricing_plan_id":"cebpf4jnsgd1na2vs0mg"},{"bike_id":"33ca56ee-489a-4240-9d4c-667abf911c67","system_id":"levelo_inurba_marseille","lat":43.27386,"lon":5.3625,"is_reserved":false,"is_disabled":false,"rental_uris":{"android":"levelo://app?vid=33ca56ee-489a-4240-9d4c-667abf911c67","ios":"levelo://app?vid=33ca56ee-489a-4240-9d4c-667abf911c67"},"vehicle_type_id":"4","last_reported":1752073912,"current_range_meters":20800,"station_id":"ce4bhbh2rcd13ifvqeo0","pricing_plan_id":"cebpf4jnsgd1na2vs0mg"},{"bike_id":"b086a275-937a-42df-90d1-c8164627358d","system_id":"levelo_inurba_marseille","lat":43.273711,"lon":5.362495,"is_reserved":false,"is_disabled":false,"rental_uris":{"android":"levelo://app?vid=b086a275-937a-42df-90d1-c8164627358d","ios":"levelo://app?vid=b086a275-937a-42df-90d1-c8164627358d"},"vehicle_type_id":"4","last_reported":1752073912,"current_range_meters":20800,"station_id":"ce4bhbh2rcd13ifvqeo0","pricing_plan_id":"cebpf4jnsgd1na2vs0mg"},{"bike_id":"43ef28e7-4568-480b-b2fe-84a6b7c911e4","system_id":"levelo_inurba_marseille","lat":43.291922,"lon":5.360488,"is_reserved":false,"is_disabled":false,"rental_uris":{"android":"levelo://app?vid=43ef28e7-4568-480b-b2fe-84a6b7c911e4","ios":"levelo://app?vid=43ef28e7-4568-480b-b2fe-84a6b7c911e4"},"vehicle_type_id":"4","last_reported":1752073912,"current_range_meters":20800,"station_id":"ce4bhbh2rcd13ifvqeqg","pricing_plan_id":"cebpf4jnsgd1na2vs0mg"},{"bike_id":"a9160d3a-a221-48dd-ae94-2eb6458e7e5f","system_id":"levelo_inurba_marseille","lat":43.27205,"lon":5.39178,"is_reserved":false,"is_disabled":false,"rental_uris":{"android":"levelo://app?vid=a9160d3a-a221-48dd-ae94-2eb6458e7e5f","ios":"levelo://app?vid=a9160d3a-a221-48dd-ae94-2eb6458e7e5f"},"vehicle_type_id":"4","last_reported":1752073912,"current_range_meters":20800,"station_id":"ce4bhhp2rcd13ifvqfm0","pricing_plan_id":"cebpf4jnsgd1na2vs0mg"},{"bike_id":"bef0c710-7370-4e58-b0ee-a90ec1efeb1a","system_id":"levelo_inurba_marseille","lat":43.23183,"lon":5.39986,"is_reserved":false,"is_disabled":false,"rental_uris":{"android":"levelo://app?vid=bef0c710-7370-4e58-b0ee-a90ec1efeb1a","ios":"levelo://app?vid=bef0c710-7370-4e58-b0ee-a90ec1efeb1a"},"vehicle_type_id":"4","last_reported":1752073912,"current_range_meters":20800,"station_id":"ce4bhn12rcd13ifvqgqg","pricing_plan_id":"cebpf4jnsgd1na2vs0mg"},{"bike_id":"ee1ac907-8623-4d00-ac01-d41dd90be9fe","system_id":"levelo_inurba_marseille","lat":43.21189,"lon":5.35071,"is_reserved":false,"is_disabled":false,"rental_uris":{"android":"levelo://app?vid=ee1ac907-8623-4d00-ac01-d41dd90be9fe","ios":"levelo://app?vid=ee1ac907-8623-4d00-ac01-d41dd90be9fe"},"vehicle_type_id":"4","last_reported":1752073912,"current_range_meters":20800,"station_id":"st_cvj6sg6p6f1abm77japg","pricing_plan_id":"cebpf4jnsgd1na2vs0mg"},{"bike_id":"24b17f7b-dff1-4936-b27a-7c2c6813a894","system_id":"levelo_inurba_marseille","lat":43.24578,"lon":5.3738,"is_reserved":false,"is_disabled":false,"rental_uris":{"android":"levelo://app?vid=24b17f7b-dff1-4936-b27a-7c2c6813a894","ios":"levelo://app?vid=24b17f7b-dff1-4936-b27a-7c2c6813a894"},"vehicle_type_id":"4","last_reported":1752073912,"current_range_meters":21600,"station_id":"","pricing_plan_id":"cebpf4jnsgd1na2vs0mg"},{"bike_id":"8b2c018a-9dee-4b52-b4e4-f1f6b4c11e6e","system_id":"levelo_inurba_marseille","lat":43.28618,"lon":5.35111,"is_reserved":false,"is_disabled":false,"rental_uris":{"android":"levelo://app?vid=8b2c018a-9dee-4b52-b4e4-f1f6b4c11e6e","ios":"levelo://app?vid=8b2c018a-9dee-4b52-b4e4-f1f6b4c11e6e"},"vehicle_type_id":"4","last_reported":1752073912,"current_range_meters":21600,"station_id":"ce4bhch2rcd13ifvqeug","pricing_plan_id":"cebpf4jnsgd1na2vs0mg"},{"bike_id":"a639b820-7e59-4035-96cb-cf4c8016504d","system_id":"levelo_inurba_marseille","lat":43.26567,"lon":5.3729,"is_reserved":false,"is_disabled":false,"rental_uris":{"android":"levelo://app?vid=a639b820-7e59-4035-96cb-cf4c8016504d","ios":"levelo://app?vid=a639b820-7e59-4035-96cb-cf4c8016504d"},"vehicle_type_id":"4","last_reported":1752073912,"current_range_meters":21600,"station_id":"ce4bhg12rcd13ifvqf70","pricing_plan_id":"cebpf4jnsgd1na2vs0mg"},{"bike_id":"cc8dac58-e10f-4660-9a4a-aeb193ea7375","system_id":"levelo_inurba_marseille","lat":43.25485,"lon":5.37663,"is_reserved":false,"is_disabled":false,"rental_uris":{"android":"levelo://app?vid=cc8dac58-e10f-4660-9a4a-aeb193ea7375","ios":"levelo://app?vid=cc8dac58-e10f-4660-9a4a-aeb193ea7375"},"vehicle_type_id":"4","last_reported":1752073912,"current_range_meters":21600,"station_id":"ce4bhh12rcd13ifvqff0","pricing_plan_id":"cebpf4jnsgd1na2vs0mg"},{"bike_id":"12671aaf-df30-48df-969a-0e8ba311c0d9","system_id":"levelo_inurba_marseille","lat":43.299257,"lon":5.374755,"is_reserved":false,"is_disabled":false,"rental_uris":{"android":"levelo://app?vid=12671aaf-df30-48df-969a-0e8ba311c0d9","ios":"levelo://app?vid=12671aaf-df30-48df-969a-0e8ba311c0d9"},"vehicle_type_id":"4","last_reported":1752073912,"current_range_meters":22000,"station_id":"","pricing_plan_id":"cebpf4jnsgd1na2vs0mg"},{"bike_id":"3d5b666f-eacc-4455-93a9-2eede2b5b464","system_id":"levelo_inurba_marseille","lat":43.28673,"lon":5.38657,"is_reserved":false,"is_disabled":false,"rental_uris":{"android":"levelo://app?vid=3d5b666f-eacc-4455-93a9-2eede2b5b464","ios":"levelo://app?vid=3d5b666f-eacc-4455-93a9-2eede2b5b464"},"vehicle_type_id":"4","last_reported":1752073912,"current_range_meters":22000,"station_id":"ce4bh492rcd13ifvqdug","pricing_plan_id":"cebpf4jnsgd1na2vs0mg"},{"bike_id":"15bafc9c-72e2-46de-b123-b855d38062b6","system_id":"levelo_inurba_marseille","lat":43.28414,"lon":5.34985,"is_reserved":false,"is_disabled":false,"rental_uris":{"android":"levelo://app?vid=15bafc9c-72e2-46de-b123-b855d38062b6","ios":"levelo://app?vid=15bafc9c-72e2-46de-b123-b855d38062b6"},"vehicle_type_id":"4","last_reported":1752073912,"current_range_meters":22000,"station_id":"ce4bhbh2rcd13ifvqepg","pricing_plan_id":"cebpf4jnsgd1na2vs0mg"},{"bike_id":"6006a9aa-40e9-4dd0-9916-778076e2eaee","system_id":"levelo_inurba_marseille","lat":43.284277,"lon":5.349875,"is_reserved":false,"is_disabled":false,"rental_uris":{"android":"levelo://app?vid=6006a9aa-40e9-4dd0-9916-778076e2eaee","ios":"levelo://app?vid=6006a9aa-40e9-4dd0-9916-778076e2eaee"},"vehicle_type_id":"4","last_reported":1752073912,"current_range_meters":22000,"station_id":"ce4bhbh2rcd13ifvqepg","pricing_plan_id":"cebpf4jnsgd1na2vs0mg"},{"bike_id":"dd669704-9ee0-422b-84c1-1e0f2725fe2e","system_id":"levelo_inurba_marseille","lat":43.2622,"lon":5.37913,"is_reserved":false,"is_disabled":false,"rental_uris":{"android":"levelo://app?vid=dd669704-9ee0-422b-84c1-1e0f2725fe2e","ios":"levelo://app?vid=dd669704-9ee0-422b-84c1-1e0f2725fe2e"},"vehicle_type_id":"4","last_reported":1752073912,"current_range_meters":22000,"station_id":"ce4bhjp2rcd13ifvqg90","pricing_plan_id":"cebpf4jnsgd1na2vs0mg"},{"bike_id":"3b935dfc-179a-4512-b00d-bb8fa978bd14","system_id":"levelo_inurba_marseille","lat":43.29907,"lon":5.43665,"is_reserved":false,"is_disabled":false,"rental_uris":{"android":"levelo://app?vid=3b935dfc-179a-4512-b00d-bb8fa978bd14","ios":"levelo://app?vid=3b935dfc-179a-4512-b00d-bb8fa978bd14"},"vehicle_type_id":"4","last_reported":1752073912,"current_range_meters":22000,"station_id":"ce4bhpp2rcd13ifvqhfg","pricing_plan_id":"cebpf4jnsgd1na2vs0mg"},{"bike_id":"8f89e4f3-495a-4317-bd6d-37a19186d65b","system_id":"levelo_inurba_marseille","lat":43.33727,"lon":5.391896,"is_reserved":false,"is_disabled":false,"rental_uris":{"android":"levelo://app?vid=8f89e4f3-495a-4317-bd6d-37a19186d65b","ios":"levelo://app?vid=8f89e4f3-495a-4317-bd6d-37a19186d65b"},"vehicle_type_id":"4","last_reported":1752073912,"current_range_meters":22000,"station_id":"ce4bhr92rcd13ifvqhsg","pricing_plan_id":"cebpf4jnsgd1na2vs0mg"},{"bike_id":"62bfad8f-6dc3-4317-9f05-2cc8b8db49d7","system_id":"levelo_inurba_marseille","lat":43.23057,"lon":5.35483,"is_reserved":false,"is_disabled":false,"rental_uris":{"android":"levelo://app?vid=62bfad8f-6dc3-4317-9f05-2cc8b8db49d7","ios":"levelo://app?vid=62bfad8f-6dc3-4317-9f05-2cc8b8db49d7"},"vehicle_type_id":"4","last_reported":1752073912,"current_range_meters":22000,"station_id":"cpo3342slgdg3j2ifvpg","pricing_plan_id":"cebpf4jnsgd1na2vs0mg"},{"bike_id":"7405c651-a868-4f97-b0fd-445de387662c","system_id":"levelo_inurba_marseille","lat":43.21739,"lon":5.34615,"is_reserved":false,"is_disabled":false,"rental_uris":{"android":"levelo://app?vid=7405c651-a868-4f97-b0fd-445de387662c","ios":"levelo://app?vid=7405c651-a868-4f97-b0fd-445de387662c"},"vehicle_type_id":"4","last_reported":1752073912,"current_range_meters":22000,"station_id":"st_cvj6r9ubvosntc0bgbag","pricing_plan_id":"cebpf4jnsgd1na2vs0mg"},{"bike_id":"03737d35-d00c-4973-93d9-25157de0f0f0","system_id":"levelo_inurba_marseille","lat":43.29972,"lon":5.38489,"is_reserved":false,"is_disabled":false,"rental_uris":{"android":"levelo://app?vid=03737d35-d00c-4973-93d9-25157de0f0f0","ios":"levelo://app?vid=03737d35-d00c-4973-93d9-25157de0f0f0"},"vehicle_type_id":"4","last_reported":1752073912,"current_range_meters":22400,"station_id":"ce4bgj92rcd13ifvqbd0","pricing_plan_id":"cebpf4jnsgd1na2vs0mg"},{"bike_id":"0ba69483-77f9-4ac5-8a7a-2d24eb1e422b","system_id":"levelo_inurba_marseille","lat":43.28107,"lon":5.37848,"is_reserved":false,"is_disabled":false,"rental_uris":{"android":"levelo://app?vid=0ba69483-77f9-4ac5-8a7a-2d24eb1e422b","ios":"levelo://app?vid=0ba69483-77f9-4ac5-8a7a-2d24eb1e422b"},"vehicle_type_id":"4","last_reported":1752073912,"current_range_meters":22400,"station_id":"ce4bha12rcd13ifvqee0","pricing_plan_id":"cebpf4jnsgd1na2vs0mg"},{"bike_id":"919288ba-3ba6-4558-8fe3-96ccfbd3d0f2","system_id":"levelo_inurba_marseille","lat":43.28641,"lon":5.35121,"is_reserved":false,"is_disabled":false,"rental_uris":{"android":"levelo://app?vid=919288ba-3ba6-4558-8fe3-96ccfbd3d0f2","ios":"levelo://app?vid=919288ba-3ba6-4558-8fe3-96ccfbd3d0f2"},"vehicle_type_id":"4","last_reported":1752073912,"current_range_meters":22400,"station_id":"ce4bhch2rcd13ifvqeug","pricing_plan_id":"cebpf4jnsgd1na2vs0mg"},{"bike_id":"998d64dc-a7cb-42ee-9e03-95614bbe5896","system_id":"levelo_inurba_marseille","lat":43.31883,"lon":5.40743,"is_reserved":false,"is_disabled":false,"rental_uris":{"android":"levelo://app?vid=998d64dc-a7cb-42ee-9e03-95614bbe5896","ios":"levelo://app?vid=998d64dc-a7cb-42ee-9e03-95614bbe5896"},"vehicle_type_id":"4","last_reported":1752073912,"current_range_meters":22400,"station_id":"ce4bhq12rcd13ifvqhig","pricing_plan_id":"cebpf4jnsgd1na2vs0mg"},{"bike_id":"ae0daaf3-a487-4904-b6dd-8dbcc3b7cb3e","system_id":"levelo_inurba_marseille","lat":43.32284,"lon":5.38283,"is_reserved":false,"is_disabled":false,"rental_uris":{"android":"levelo://app?vid=ae0daaf3-a487-4904-b6dd-8dbcc3b7cb3e","ios":"levelo://app?vid=ae0daaf3-a487-4904-b6dd-8dbcc3b7cb3e"},"vehicle_type_id":"4","last_reported":1752073912,"current_range_meters":22400,"station_id":"ce4bhr12rcd13ifvqhqg","pricing_plan_id":"cebpf4jnsgd1na2vs0mg"},{"bike_id":"d08500b9-de3a-48ff-91b8-a1d08ec3b455","system_id":"levelo_inurba_marseille","lat":43.30127,"lon":5.36432,"is_reserved":false,"is_disabled":false,"rental_uris":{"android":"levelo://app?vid=d08500b9-de3a-48ff-91b8-a1d08ec3b455","ios":"levelo://app?vid=d08500b9-de3a-48ff-91b8-a1d08ec3b455"},"vehicle_type_id":"4","last_reported":1752073912,"current_range_meters":22800,"station_id":"","pricing_plan_id":"cebpf4jnsgd1na2vs0mg"},{"bike_id":"f64ea80f-2d40-46f6-af68-55052b037017","system_id":"levelo_inurba_marseille","lat":43.31932,"lon":5.37306,"is_reserved":false,"is_disabled":false,"rental_uris":{"android":"levelo://app?vid=f64ea80f-2d40-46f6-af68-55052b037017","ios":"levelo://app?vid=f64ea80f-2d40-46f6-af68-55052b037017"},"vehicle_type_id":"4","last_reported":1752073912,"current_range_meters":22800,"station_id":"","pricing_plan_id":"cebpf4jnsgd1na2vs0mg"},{"bike_id":"03300d87-497c-4e85-8bf2-8891fc52f05a","system_id":"levelo_inurba_marseille","lat":43.26223,"lon":5.37423,"is_reserved":false,"is_disabled":false,"rental_uris":{"android":"levelo://app?vid=03300d87-497c-4e85-8bf2-8891fc52f05a","ios":"levelo://app?vid=03300d87-497c-4e85-8bf2-8891fc52f05a"},"vehicle_type_id":"4","last_reported":1752073912,"current_range_meters":22800,"station_id":"","pricing_plan_id":"cebpf4jnsgd1na2vs0mg"},{"bike_id":"0d797aec-cb68-4012-9370-e291f0d35bf6","system_id":"levelo_inurba_marseille","lat":43.31484,"lon":5.37271,"is_reserved":false,"is_disabled":false,"rental_uris":{"android":"levelo://app?vid=0d797aec-cb68-4012-9370-e291f0d35bf6","ios":"levelo://app?vid=0d797aec-cb68-4012-9370-e291f0d35bf6"},"vehicle_type_id":"4","last_reported":1752073912,"current_range_meters":22800,"station_id":"ce4bgt12rcd13ifvqcd0","pricing_plan_id":"cebpf4jnsgd1na2vs0mg"},{"bike_id":"e510ade2-3bf1-4e76-bfa8-7ebe6d4288a2","system_id":"levelo_inurba_marseille","lat":43.28428,"lon":5.34996,"is_reserved":false,"is_disabled":false,"rental_uris":{"android":"levelo://app?vid=e510ade2-3bf1-4e76-bfa8-7ebe6d4288a2","ios":"levelo://app?vid=e510ade2-3bf1-4e76-bfa8-7ebe6d4288a2"},"vehicle_type_id":"4","last_reported":1752073912,"current_range_meters":22800,"station_id":"ce4bhbh2rcd13ifvqepg","pricing_plan_id":"cebpf4jnsgd1na2vs0mg"},{"bike_id":"a37c81c5-d096-4e6d-b1b3-5bbb8251fbd0","system_id":"levelo_inurba_marseille","lat":43.24398,"lon":5.37072,"is_reserved":false,"is_disabled":false,"rental_uris":{"android":"levelo://app?vid=a37c81c5-d096-4e6d-b1b3-5bbb8251fbd0","ios":"levelo://app?vid=a37c81c5-d096-4e6d-b1b3-5bbb8251fbd0"},"vehicle_type_id":"4","last_reported":1752073912,"current_range_meters":22800,"station_id":"ce4bhhh2rcd13ifvqfk0","pricing_plan_id":"cebpf4jnsgd1na2vs0mg"},{"bike_id":"83c2718d-c1c9-477d-a352-451723625094","system_id":"levelo_inurba_marseille","lat":43.25868,"lon":5.39894,"is_reserved":false,"is_disabled":false,"rental_uris":{"android":"levelo://app?vid=83c2718d-c1c9-477d-a352-451723625094","ios":"levelo://app?vid=83c2718d-c1c9-477d-a352-451723625094"},"vehicle_type_id":"4","last_reported":1752073912,"current_range_meters":22800,"station_id":"ce4bhl92rcd13ifvqghg","pricing_plan_id":"cebpf4jnsgd1na2vs0mg"},{"bike_id":"6a3704ac-19c4-46e3-8c3c-550faad28cd0","system_id":"levelo_inurba_marseille","lat":43.279892,"lon":5.400111,"is_reserved":false,"is_disabled":false,"rental_uris":{"android":"levelo://app?vid=6a3704ac-19c4-46e3-8c3c-550faad28cd0","ios":"levelo://app?vid=6a3704ac-19c4-46e3-8c3c-550faad28cd0"},"vehicle_type_id":"4","last_reported":1752073912,"current_range_meters":22800,"station_id":"ce4bho92rcd13ifvqh4g","pricing_plan_id":"cebpf4jnsgd1na2vs0mg"},{"bike_id":"a5a6c2c1-2d48-4581-8647-6eab6c0bbb54","system_id":"levelo_inurba_marseille","lat":43.26908,"lon":5.36922,"is_reserved":false,"is_disabled":false,"rental_uris":{"android":"levelo://app?vid=a5a6c2c1-2d48-4581-8647-6eab6c0bbb54","ios":"levelo://app?vid=a5a6c2c1-2d48-4581-8647-6eab6c0bbb54"},"vehicle_type_id":"4","last_reported":1752073912,"current_range_meters":23200,"station_id":"","pricing_plan_id":"cebpf4jnsgd1na2vs0mg"},{"bike_id":"1c14c87f-2787-4208-aebf-242bead7b64e","system_id":"levelo_inurba_marseille","lat":43.21786,"lon":5.34601,"is_reserved":false,"is_disabled":false,"rental_uris":{"android":"levelo://app?vid=1c14c87f-2787-4208-aebf-242bead7b64e","ios":"levelo://app?vid=1c14c87f-2787-4208-aebf-242bead7b64e"},"vehicle_type_id":"4","last_reported":1752073912,"current_range_meters":23200,"station_id":"","pricing_plan_id":"cebpf4jnsgd1na2vs0mg"},{"bike_id":"ca82af78-77e6-4092-9d8e-80a6b4175624","system_id":"levelo_inurba_marseille","lat":43.29752,"lon":5.45998,"is_reserved":false,"is_disabled":false,"rental_uris":{"android":"levelo://app?vid=ca82af78-77e6-4092-9d8e-80a6b4175624","ios":"levelo://app?vid=ca82af78-77e6-4092-9d8e-80a6b4175624"},"vehicle_type_id":"4","last_reported":1752073912,"current_range_meters":23200,"station_id":"","pricing_plan_id":"cebpf4jnsgd1na2vs0mg"},{"bike_id":"aceb0a17-f950-4c1e-9a2b-25980f271683","system_id":"levelo_inurba_marseille","lat":43.30309,"lon":5.36859,"is_reserved":false,"is_disabled":false,"rental_uris":{"android":"levelo://app?vid=aceb0a17-f950-4c1e-9a2b-25980f271683","ios":"levelo://app?vid=aceb0a17-f950-4c1e-9a2b-25980f271683"},"vehicle_type_id":"4","last_reported":1752073912,"current_range_meters":23200,"station_id":"ce4bgqh2rcd13ifvqc5g","pricing_plan_id":"cebpf4jnsgd1na2vs0mg"},{"bike_id":"ecf3dbd8-ebd4-439f-a4b9-b62a07833bb5","system_id":"levelo_inurba_marseille","lat":43.26214,"lon":5.37452,"is_reserved":false,"is_disabled":false,"rental_uris":{"android":"levelo://app?vid=ecf3dbd8-ebd4-439f-a4b9-b62a07833bb5","ios":"levelo://app?vid=ecf3dbd8-ebd4-439f-a4b9-b62a07833bb5"},"vehicle_type_id":"4","last_reported":1752073912,"current_range_meters":23200,"station_id":"ce4bhgp2rcd13ifvqfc0","pricing_plan_id":"cebpf4jnsgd1na2vs0mg"},{"bike_id":"d529ec2c-1e77-46ec-a7c4-fba360d0a391","system_id":"levelo_inurba_marseille","lat":43.299008,"lon":5.436629,"is_reserved":false,"is_disabled":false,"rental_uris":{"android":"levelo://app?vid=d529ec2c-1e77-46ec-a7c4-fba360d0a391","ios":"levelo://app?vid=d529ec2c-1e77-46ec-a7c4-fba360d0a391"},"vehicle_type_id":"4","last_reported":1752073912,"current_range_meters":23200,"station_id":"ce4bhpp2rcd13ifvqhfg","pricing_plan_id":"cebpf4jnsgd1na2vs0mg"},{"bike_id":"e3a75ee9-c614-467b-8cc2-f813bcef2ab1","system_id":"levelo_inurba_marseille","lat":43.33743,"lon":5.3919,"is_reserved":false,"is_disabled":false,"rental_uris":{"android":"levelo://app?vid=e3a75ee9-c614-467b-8cc2-f813bcef2ab1","ios":"levelo://app?vid=e3a75ee9-c614-467b-8cc2-f813bcef2ab1"},"vehicle_type_id":"4","last_reported":1752073912,"current_range_meters":23200,"station_id":"ce4bhr92rcd13ifvqhsg","pricing_plan_id":"cebpf4jnsgd1na2vs0mg"},{"bike_id":"2a459f96-6b53-43f7-b70c-1135b0d88aea","system_id":"levelo_inurba_marseille","lat":43.23191,"lon":5.35558,"is_reserved":false,"is_disabled":false,"rental_uris":{"android":"levelo://app?vid=2a459f96-6b53-43f7-b70c-1135b0d88aea","ios":"levelo://app?vid=2a459f96-6b53-43f7-b70c-1135b0d88aea"},"vehicle_type_id":"4","last_reported":1752073912,"current_range_meters":23200,"station_id":"ce4bhu92rcd13ifvqi70","pricing_plan_id":"cebpf4jnsgd1na2vs0mg"},{"bike_id":"8f5bfac4-1436-4c28-bb03-00228598e00f","system_id":"levelo_inurba_marseille","lat":43.2414,"lon":5.36419,"is_reserved":false,"is_disabled":false,"rental_uris":{"android":"levelo://app?vid=8f5bfac4-1436-4c28-bb03-00228598e00f","ios":"levelo://app?vid=8f5bfac4-1436-4c28-bb03-00228598e00f"},"vehicle_type_id":"4","last_reported":1752073912,"current_range_meters":23200,"station_id":"cpo36qri1sfpv3e86is0","pricing_plan_id":"cebpf4jnsgd1na2vs0mg"},{"bike_id":"4d8942c7-0e64-4b67-b6b6-d1a5c3d08cfb","system_id":"levelo_inurba_marseille","lat":43.22523,"lon":5.3477,"is_reserved":false,"is_disabled":false,"rental_uris":{"android":"levelo://app?vid=4d8942c7-0e64-4b67-b6b6-d1a5c3d08cfb","ios":"levelo://app?vid=4d8942c7-0e64-4b67-b6b6-d1a5c3d08cfb"},"vehicle_type_id":"4","last_reported":1752073912,"current_range_meters":23200,"station_id":"st_cvj5dfep6f1abm77gieg","pricing_plan_id":"cebpf4jnsgd1na2vs0mg"},{"bike_id":"29a0a180-d29f-4a4e-a71b-d1d9d42cb217","system_id":"levelo_inurba_marseille","lat":43.211885,"lon":5.35067,"is_reserved":false,"is_disabled":false,"rental_uris":{"android":"levelo://app?vid=29a0a180-d29f-4a4e-a71b-d1d9d42cb217","ios":"levelo://app?vid=29a0a180-d29f-4a4e-a71b-d1d9d42cb217"},"vehicle_type_id":"4","last_reported":1752073912,"current_range_meters":23200,"station_id":"st_cvj6sg6p6f1abm77japg","pricing_plan_id":"cebpf4jnsgd1na2vs0mg"},{"bike_id":"7074539f-ce39-4e75-b998-34b92226326d","system_id":"levelo_inurba_marseille","lat":43.26225,"lon":5.37443,"is_reserved":false,"is_disabled":false,"rental_uris":{"android":"levelo://app?vid=7074539f-ce39-4e75-b998-34b92226326d","ios":"levelo://app?vid=7074539f-ce39-4e75-b998-34b92226326d"},"vehicle_type_id":"4","last_reported":1752073912,"current_range_meters":24000,"station_id":"","pricing_plan_id":"cebpf4jnsgd1na2vs0mg"},{"bike_id":"50318759-7a5e-46a9-88ff-4229422dcb09","system_id":"levelo_inurba_marseille","lat":43.29156,"lon":5.35823,"is_reserved":false,"is_disabled":false,"rental_uris":{"android":"levelo://app?vid=50318759-7a5e-46a9-88ff-4229422dcb09","ios":"levelo://app?vid=50318759-7a5e-46a9-88ff-4229422dcb09"},"vehicle_type_id":"4","last_reported":1752073912,"current_range_meters":24000,"station_id":"","pricing_plan_id":"cebpf4jnsgd1na2vs0mg"},{"bike_id":"f8f0ef22-f47c-458f-9a52-a16cab526bb4","system_id":"levelo_inurba_marseille","lat":43.31488,"lon":5.37305,"is_reserved":false,"is_disabled":false,"rental_uris":{"android":"levelo://app?vid=f8f0ef22-f47c-458f-9a52-a16cab526bb4","ios":"levelo://app?vid=f8f0ef22-f47c-458f-9a52-a16cab526bb4"},"vehicle_type_id":"4","last_reported":1752073912,"current_range_meters":24000,"station_id":"ce4bgt12rcd13ifvqcd0","pricing_plan_id":"cebpf4jnsgd1na2vs0mg"},{"bike_id":"3e017a38-9a20-4013-9bac-ee785f5060be","system_id":"levelo_inurba_marseille","lat":43.28429,"lon":5.34994,"is_reserved":false,"is_disabled":false,"rental_uris":{"android":"levelo://app?vid=3e017a38-9a20-4013-9bac-ee785f5060be","ios":"levelo://app?vid=3e017a38-9a20-4013-9bac-ee785f5060be"},"vehicle_type_id":"4","last_reported":1752073912,"current_range_meters":24000,"station_id":"ce4bhbh2rcd13ifvqepg","pricing_plan_id":"cebpf4jnsgd1na2vs0mg"},{"bike_id":"7dd4e999-9183-42ea-b8ed-fdae3fc61072","system_id":"levelo_inurba_marseille","lat":43.26206,"lon":5.37457,"is_reserved":false,"is_disabled":false,"rental_uris":{"android":"levelo://app?vid=7dd4e999-9183-42ea-b8ed-fdae3fc61072","ios":"levelo://app?vid=7dd4e999-9183-42ea-b8ed-fdae3fc61072"},"vehicle_type_id":"4","last_reported":1752073912,"current_range_meters":24000,"station_id":"ce4bhgp2rcd13ifvqfc0","pricing_plan_id":"cebpf4jnsgd1na2vs0mg"},{"bike_id":"eb22f00e-358c-4188-aa1f-1f3f6fcedcd2","system_id":"levelo_inurba_marseille","lat":43.31104,"lon":5.42406,"is_reserved":false,"is_disabled":false,"rental_uris":{"android":"levelo://app?vid=eb22f00e-358c-4188-aa1f-1f3f6fcedcd2","ios":"levelo://app?vid=eb22f00e-358c-4188-aa1f-1f3f6fcedcd2"},"vehicle_type_id":"4","last_reported":1752073912,"current_range_meters":24000,"station_id":"ce4bhp92rcd13ifvqhag","pricing_plan_id":"cebpf4jnsgd1na2vs0mg"},{"bike_id":"155d01e7-2de1-436e-9faa-bb8076018244","system_id":"levelo_inurba_marseille","lat":43.21188,"lon":5.35061,"is_reserved":false,"is_disabled":false,"rental_uris":{"android":"levelo://app?vid=155d01e7-2de1-436e-9faa-bb8076018244","ios":"levelo://app?vid=155d01e7-2de1-436e-9faa-bb8076018244"},"vehicle_type_id":"4","last_reported":1752073912,"current_range_meters":24000,"station_id":"st_cvj6sg6p6f1abm77japg","pricing_plan_id":"cebpf4jnsgd1na2vs0mg"},{"bike_id":"28aa341b-d775-4bdf-a8b4-820e8ea6e66f","system_id":"levelo_inurba_marseille","lat":43.31262,"lon":5.37387,"is_reserved":false,"is_disabled":false,"rental_uris":{"android":"levelo://app?vid=28aa341b-d775-4bdf-a8b4-820e8ea6e66f","ios":"levelo://app?vid=28aa341b-d775-4bdf-a8b4-820e8ea6e66f"},"vehicle_type_id":"4","last_reported":1752073912,"current_range_meters":24400,"station_id":"","pricing_plan_id":"cebpf4jnsgd1na2vs0mg"},{"bike_id":"10508c0b-0f5c-4a9e-b3ed-a2dbbdbb03b7","system_id":"levelo_inurba_marseille","lat":43.29378,"lon":5.37837,"is_reserved":false,"is_disabled":false,"rental_uris":{"android":"levelo://app?vid=10508c0b-0f5c-4a9e-b3ed-a2dbbdbb03b7","ios":"levelo://app?vid=10508c0b-0f5c-4a9e-b3ed-a2dbbdbb03b7"},"vehicle_type_id":"4","last_reported":1752073912,"current_range_meters":24400,"station_id":"ce4bgjh2rcd13ifvqbf0","pricing_plan_id":"cebpf4jnsgd1na2vs0mg"},{"bike_id":"cd0389d5-c26e-4f64-be65-f0b9891e2d90","system_id":"levelo_inurba_marseille","lat":43.30143,"lon":5.37421,"is_reserved":false,"is_disabled":false,"rental_uris":{"android":"levelo://app?vid=cd0389d5-c26e-4f64-be65-f0b9891e2d90","ios":"levelo://app?vid=cd0389d5-c26e-4f64-be65-f0b9891e2d90"},"vehicle_type_id":"4","last_reported":1752073912,"current_range_meters":24400,"station_id":"ce4bgs92rcd13ifvqcc0","pricing_plan_id":"cebpf4jnsgd1na2vs0mg"},{"bike_id":"300c08a8-d27e-4295-8bed-b52bc319c96d","system_id":"levelo_inurba_marseille","lat":43.30142,"lon":5.37423,"is_reserved":false,"is_disabled":false,"rental_uris":{"android":"levelo://app?vid=300c08a8-d27e-4295-8bed-b52bc319c96d","ios":"levelo://app?vid=300c08a8-d27e-4295-8bed-b52bc319c96d"},"vehicle_type_id":"4","last_reported":1752073912,"current_range_meters":24400,"station_id":"ce4bgs92rcd13ifvqcc0","pricing_plan_id":"cebpf4jnsgd1na2vs0mg"},{"bike_id":"a53fb2ec-28c0-422f-8182-761e408da4f1","system_id":"levelo_inurba_marseille","lat":43.28123,"lon":5.37845,"is_reserved":false,"is_disabled":false,"rental_uris":{"android":"levelo://app?vid=a53fb2ec-28c0-422f-8182-761e408da4f1","ios":"levelo://app?vid=a53fb2ec-28c0-422f-8182-761e408da4f1"},"vehicle_type_id":"4","last_reported":1752073912,"current_range_meters":24400,"station_id":"ce4bha12rcd13ifvqee0","pricing_plan_id":"cebpf4jnsgd1na2vs0mg"},