{"last_updated":1745829281,"ttl":60,"version":"2.2","data":{"bikes":[{"bike_id":"0f0e29cf-fcca-4f13-b14a-fc33a7882a63","system_id":"levelo_inurba_marseille","lat":43.32548,"lon":5.4144,"is_reserved":false,"is_disabled":false,"rental_uris":{"android":"levelo://app?vid=0f0e29cf-fcca-4f13-b14a-fc33a7882a63","ios":"levelo://app?vid=0f0e29cf-fcca-4f13-b14a-fc33a7882a63"},"vehicle_type_id":"4","last_reported":1745829282,"current_range_meters":2800,"station_id":"ce4bhq12rcd13ifvqhhg","pricing_plan_id":"cebpf4jnsgd1na2vs0mg"},{"bike_id":"308ce0d7-54d5-4aec-879f-da2149307f93","system_id":"levelo_inurba_marseille","lat":43.22509,"lon":5.3477,"is_reserved":false,"is_disabled":true,"rental_uris":{"android":"levelo://app?vid=308ce0d7-54d5-4aec-879f-da2149307f93","ios":"levelo://app?vid=308ce0d7-54d5-4aec-879f-da2149307f93"},"vehicle_type_id":"4","last_reported":1745829282,"current_range_meters":3200,"station_id":"st_cvj5dfep6f1abm77gieg","pricing_plan_id":"cebpf4jnsgd1na2vs0mg"},{"bike_id":"042a36cf-a68c-4f02-8fbe-a3d4f36fa492","system_id":"levelo_inurba_marseille","lat":43.21191,"lon":5.35048,"is_reserved":false,"is_disabled":false,"rental_uris":{"android":"levelo://app?vid=042a36cf-a68c-4f02-8fbe-a3d4f36fa492","ios":"levelo://app?vid=042a36cf-a68c-4f02-8fbe-a3d4f36fa492"},"vehicle_type_id":"4","last_reported":1745829282,"current_range_meters":3200,"station_id":"st_cvj6sg6p6f1abm77japg","pricing_plan_id":"cebpf4jnsgd1na2vs0mg"},{"bike_id":"5407264e-919e-4e78-b767-d2eed28be932","system_id":"levelo_inurba_marseille","lat":43.313447,"lon":5.384715,"is_reserved":false,"is_disabled":false,"rental_uris":{"android":"levelo://app?vid=5407264e-919e-4e78-b767-d2eed28be932","ios":"levelo://app?vid=5407264e-919e-4e78-b767-d2eed28be932"},"vehicle_type_id":"4","last_reported":1745829282,"current_range_meters":3200,"station_id":"ce4bgt92rcd13ifvqcf0","pricing_plan_id":"cebpf4jnsgd1na2vs0mg"},{"bike_id":"045e76f6-9f4d-4e57-a640-e189cfafe013","system_id":"levelo_inurba_marseille","lat":43.31349,"lon":5.36714,"is_reserved":false,"is_disabled":false,"rental_uris":{"android":"levelo://app?vid=045e76f6-9f4d-4e57-a640-e189cfafe013","ios":"levelo://app?vid=045e76f6-9f4d-4e57-a640-e189cfafe013"},"vehicle_type_id":"4","last_reported":1745829282,"current_range_meters":3600,"station_id":"ce4bgr92rcd13ifvqc6g","pricing_plan_id":"cebpf4jnsgd1na2vs0mg"},{"bike_id":"2d4820d4-569a-4ec0-b000-e82a960dd30b","system_id":"levelo_inurba_marseille","lat":43.23126,"lon":5.35515,"is_reserved":false,"is_disabled":true,"rental_uris":{"android":"levelo://app?vid=2d4820d4-569a-4ec0-b000-e82a960dd30b","ios":"levelo://app?vid=2d4820d4-569a-4ec0-b000-e82a960dd30b"},"vehicle_type_id":"4","last_reported":1745829282,"current_range_meters":4000,"station_id":"","pricing_plan_id":"cebpf4jnsgd1na2vs0mg"},{"bike_id":"b203106f-15ad-4224-a9bb-aef6d708468c","system_id":"levelo_inurba_marseille","lat":43.27506,"lon":5.42429,"is_reserved":false,"is_disabled":false,"rental_uris":{"android":"levelo://app?vid=b203106f-15ad-4224-a9bb-aef6d708468c","ios":"levelo://app?vid=b203106f-15ad-4224-a9bb-aef6d708468c"},"vehicle_type_id":"4","last_reported":1745829282,"current_range_meters":4000,"station_id":"ce4bhn92rcd13ifvqgrg","pricing_plan_id":"cebpf4jnsgd1na2vs0mg"},{"bike_id":"c1b1b433-bcb9-4a7d-8963-3218bcdcba1e","system_id":"levelo_inurba_marseille","lat":43.23364,"lon":5.3604,"is_reserved":false,"is_disabled":false,"rental_uris":{"android":"levelo://app?vid=c1b1b433-bcb9-4a7d-8963-3218bcdcba1e","ios":"levelo://app?vid=c1b1b433-bcb9-4a7d-8963-3218bcdcba1e"},"vehicle_type_id":"4","last_reported":1745829282,"current_range_meters":4000,"station_id":"","pricing_plan_id":"cebpf4jnsgd1na2vs0mg"},{"bike_id":"d70a4933-6280-4865-9a40-b6fe528c92b0","system_id":"levelo_inurba_marseille","lat":43.30533,"lon":5.36724,"is_reserved":false,"is_disabled":false,"rental_uris":{"android":"levelo://app?vid=d70a4933-6280-4865-9a40-b6fe528c92b0","ios":"levelo://app?vid=d70a4933-6280-4865-9a40-b6fe528c92b0"},"vehicle_type_id":"4","last_reported":1745829282,"current_range_meters":4400,"station_id":"ce4bgrp2rcd13ifvqc9g","pricing_plan_id":"cebpf4jnsgd1na2vs0mg"},{"bike_id":"75235323-c9b5-4869-b5fd-4a5dace95cf9","system_id":"levelo_inurba_marseille","lat":43.287018,"lon":5.373656,"is_reserved":false,"is_disabled":false,"rental_uris":{"android":"levelo://app?vid=75235323-c9b5-4869-b5fd-4a5dace95cf9","ios":"levelo://app?vid=75235323-c9b5-4869-b5fd-4a5dace95cf9"},"vehicle_type_id":"4","last_reported":1745829282,"current_range_meters":4400,"station_id":"ce4bh3p2rcd13ifvqdq0","pricing_plan_id":"cebpf4jnsgd1na2vs0mg"},{"bike_id":"82016555-1022-467f-b7e9-084b6d838aac","system_id":"levelo_inurba_marseille","lat":43.255315,"lon":5.376205,"is_reserved":false,"is_disabled":false,"rental_uris":{"android":"levelo://app?vid=82016555-1022-467f-b7e9-084b6d838aac","ios":"levelo://app?vid=82016555-1022-467f-b7e9-084b6d838aac"},"vehicle_type_id":"4","last_reported":1745829282,"current_range_meters":4400,"station_id":"ce4bhh12rcd13ifvqff0","pricing_plan_id":"cebpf4jnsgd1na2vs0mg"},{"bike_id":"bd2c1650-6042-4730-b212-cf6ba4fc525a","system_id":"levelo_inurba_marseille","lat":43.30973,"lon":5.3904,"is_reserved":false,"is_disabled":true,"rental_uris":{"android":"levelo://app?vid=bd2c1650-6042-4730-b212-cf6ba4fc525a","ios":"levelo://app?vid=bd2c1650-6042-4730-b212-cf6ba4fc525a"},"vehicle_type_id":"4","last_reported":1745829282,"current_range_meters":4400,"station_id":"ce4bgup2rcd13ifvqco0","pricing_plan_id":"cebpf4jnsgd1na2vs0mg"},{"bike_id":"68c652a4-9b10-4a58-adc8-736591583b61","system_id":"levelo_inurba_marseille","lat":43.27964,"lon":5.39952,"is_reserved":false,"is_disabled":false,"rental_uris":{"android":"levelo://app?vid=68c652a4-9b10-4a58-adc8-736591583b61","ios":"levelo://app?vid=68c652a4-9b10-4a58-adc8-736591583b61"},"vehicle_type_id":"4","last_reported":1745829282,"current_range_meters":4800,"station_id":"","pricing_plan_id":"cebpf4jnsgd1na2vs0mg"},{"bike_id":"4a5edcf1-6727-4c60-8f88-19c6d2a1f8fa","system_id":"levelo_inurba_marseille","lat":43.22936,"lon":5.35391,"is_reserved":false,"is_disabled":false,"rental_uris":{"android":"levelo://app?vid=4a5edcf1-6727-4c60-8f88-19c6d2a1f8fa","ios":"levelo://app?vid=4a5edcf1-6727-4c60-8f88-19c6d2a1f8fa"},"vehicle_type_id":"4","last_reported":1745829282,"current_range_meters":4400,"station_id":"cpo3532slgdg3j2ikp40","pricing_plan_id":"cebpf4jnsgd1na2vs0mg"},{"bike_id":"b8d23658-af3a-4621-ab66-7febf8cf99dc","system_id":"levelo_inurba_marseille","lat":43.225003,"lon":5.347794,"is_reserved":false,"is_disabled":true,"rental_uris":{"android":"levelo://app?vid=b8d23658-af3a-4621-ab66-7febf8cf99dc","ios":"levelo://app?vid=b8d23658-af3a-4621-ab66-7febf8cf99dc"},"vehicle_type_id":"4","last_reported":1745829282,"current_range_meters":4800,"station_id":"","pricing_plan_id":"cebpf4jnsgd1na2vs0mg"},{"bike_id":"ae84bbcd-da60-4a9a-a124-324138a2952c","system_id":"levelo_inurba_marseille","lat":43.2781,"lon":5.40705,"is_reserved":false,"is_disabled":false,"rental_uris":{"android":"levelo://app?vid=ae84bbcd-da60-4a9a-a124-324138a2952c","ios":"levelo://app?vid=ae84bbcd-da60-4a9a-a124-324138a2952c"},"vehicle_type_id":"4","last_reported":1745829282,"current_range_meters":4800,"station_id":"ce4bhnh2rcd13ifvqgtg","pricing_plan_id":"cebpf4jnsgd1na2vs0mg"},{"bike_id":"b3472cd0-4a87-49aa-9693-7e6cadd78d7d","system_id":"levelo_inurba_marseille","lat":43.30542,"lon":5.36728,"is_reserved":false,"is_disabled":false,"rental_uris":{"android":"levelo://app?vid=b3472cd0-4a87-49aa-9693-7e6cadd78d7d","ios":"levelo://app?vid=b3472cd0-4a87-49aa-9693-7e6cadd78d7d"},"vehicle_type_id":"4","last_reported":1745829282,"current_range_meters":4800,"station_id":"ce4bgrp2rcd13ifvqc9g","pricing_plan_id":"cebpf4jnsgd1na2vs0mg"},{"bike_id":"c15df8fc-8cb9-4944-9a49-2df32e045cae","system_id":"levelo_inurba_marseille","lat":43.313252,"lon":5.36731,"is_reserved":false,"is_disabled":false,"rental_uris":{"android":"levelo://app?vid=c15df8fc-8cb9-4944-9a49-2df32e045cae","ios":"levelo://app?vid=c15df8fc-8cb9-4944-9a49-2df32e045cae"},"vehicle_type_id":"4","last_reported":1745829282,"current_range_meters":4800,"station_id":"ce4bgr92rcd13ifvqc6g","pricing_plan_id":"cebpf4jnsgd1na2vs0mg"},{"bike_id":"12543c70-f974-4b95-b965-59bef128edcc","system_id":"levelo_inurba_marseille","lat":43.286957,"lon":5.373813,"is_reserved":false,"is_disabled":true,"rental_uris":{"android":"levelo://app?vid=12543c70-f974-4b95-b965-59bef128edcc","ios":"levelo://app?vid=12543c70-f974-4b95-b965-59bef128edcc"},"vehicle_type_id":"4","last_reported":1745829282,"current_range_meters":5600,"station_id":"ce4bh3p2rcd13ifvqdq0","pricing_plan_id":"cebpf4jnsgd1na2vs0mg"},{"bike_id":"aa7ab5ca-10da-407c-b960-b8ae49e91642","system_id":"levelo_inurba_marseille","lat":43.2757,"lon":5.38422,"is_reserved":false,"is_disabled":false,"rental_uris":{"android":"levelo://app?vid=aa7ab5ca-10da-407c-b960-b8ae49e91642","ios":"levelo://app?vid=aa7ab5ca-10da-407c-b960-b8ae49e91642"},"vehicle_type_id":"4","last_reported":1745829282,"current_range_meters":5600,"station_id":"ce4bhh92rcd13ifvqfi0","pricing_plan_id":"cebpf4jnsgd1na2vs0mg"},{"bike_id":"cf6ec47c-bcb7-43da-a2f5-7144fabd8db5","system_id":"levelo_inurba_marseille","lat":43.23134,"lon":5.43717,"is_reserved":false,"is_disabled":false,"rental_uris":{"android":"levelo://app?vid=cf6ec47c-bcb7-43da-a2f5-7144fabd8db5","ios":"levelo://app?vid=cf6ec47c-bcb7-43da-a2f5-7144fabd8db5"},"vehicle_type_id":"4","last_reported":1745829282,"current_range_meters":6000,"station_id":"ce4bhmp2rcd13ifvqgog","pricing_plan_id":"cebpf4jnsgd1na2vs0mg"},{"bike_id":"5403265e-fa43-4d5f-b3d2-1ae7eb37f144","system_id":"levelo_inurba_marseille","lat":43.28726,"lon":5.37934,"is_reserved":false,"is_disabled":false,"rental_uris":{"android":"levelo://app?vid=5403265e-fa43-4d5f-b3d2-1ae7eb37f144","ios":"levelo://app?vid=5403265e-fa43-4d5f-b3d2-1ae7eb37f144"},"vehicle_type_id":"4","last_reported":1745829282,"current_range_meters":6000,"station_id":"ce4bh9p2rcd13ifvqec0","pricing_plan_id":"cebpf4jnsgd1na2vs0mg"},{"bike_id":"5ddba1f1-1747-4179-b91f-b8778028cd60","system_id":"levelo_inurba_marseille","lat":43.25615,"lon":5.41184,"is_reserved":false,"is_disabled":false,"rental_uris":{"android":"levelo://app?vid=5ddba1f1-1747-4179-b91f-b8778028cd60","ios":"levelo://app?vid=5ddba1f1-1747-4179-b91f-b8778028cd60"},"vehicle_type_id":"4","last_reported":1745829282,"current_range_meters":6000,"station_id":"","pricing_plan_id":"cebpf4jnsgd1na2vs0mg"},{"bike_id":"cd5002bd-e571-41f2-8ef4-b16c27da09d1","system_id":"levelo_inurba_marseille","lat":43.26135,"lon":5.38724,"is_reserved":false,"is_disabled":false,"rental_uris":{"android":"levelo://app?vid=cd5002bd-e571-41f2-8ef4-b16c27da09d1","ios":"levelo://app?vid=cd5002bd-e571-41f2-8ef4-b16c27da09d1"},"vehicle_type_id":"4","last_reported":1745829282,"current_range_meters":6000,"station_id":"","pricing_plan_id":"cebpf4jnsgd1na2vs0mg"},{"bike_id":"647eceb0-396c-4b66-9b6a-15942a39bd89","system_id":"levelo_inurba_marseille","lat":43.2416,"lon":5.36406,"is_reserved":false,"is_disabled":false,"rental_uris":{"android":"levelo://app?vid=647eceb0-396c-4b66-9b6a-15942a39bd89","ios":"levelo://app?vid=647eceb0-396c-4b66-9b6a-15942a39bd89"},"vehicle_type_id":"4","last_reported":1745829282,"current_range_meters":6400,"station_id":"cpo36qri1sfpv3e86is0","pricing_plan_id":"cebpf4jnsgd1na2vs0mg"},{"bike_id":"e05d2e8c-786f-4e99-b334-fad117c34dcb","system_id":"levelo_inurba_marseille","lat":43.32361,"lon":5.36757,"is_reserved":false,"is_disabled":false,"rental_uris":{"android":"levelo://app?vid=e05d2e8c-786f-4e99-b334-fad117c34dcb","ios":"levelo://app?vid=e05d2e8c-786f-4e99-b334-fad117c34dcb"},"vehicle_type_id":"4","last_reported":1745829282,"current_range_meters":6400,"station_id":"ce4bhsh2rcd13ifvqi2g","pricing_plan_id":"cebpf4jnsgd1na2vs0mg"},{"bike_id":"ee4b8cc4-1bda-40d1-a6f9-1454781afd38","system_id":"levelo_inurba_marseille","lat":43.2865,"lon":5.36354,"is_reserved":false,"is_disabled":true,"rental_uris":{"android":"levelo://app?vid=ee4b8cc4-1bda-40d1-a6f9-1454781afd38","ios":"levelo://app?vid=ee4b8cc4-1bda-40d1-a6f9-1454781afd38"},"vehicle_type_id":"4","last_reported":1745829282,"current_range_meters":6400,"station_id":"ce4bhah2rcd13ifvqej0","pricing_plan_id":"cebpf4jnsgd1na2vs0mg"},{"bike_id":"003c765c-efec-40d8-84bb-aa4ca1100b0f","system_id":"levelo_inurba_marseille","lat":43.27945,"lon":5.41048,"is_reserved":false,"is_disabled":false,"rental_uris":{"android":"levelo://app?vid=003c765c-efec-40d8-84bb-aa4ca1100b0f","ios":"levelo://app?vid=003c765c-efec-40d8-84bb-aa4ca1100b0f"},"vehicle_type_id":"4","last_reported":1745829282,"current_range_meters":6400,"station_id":"ce4bhnp2rcd13ifvqh0g","pricing_plan_id":"cebpf4jnsgd1na2vs0mg"},{"bike_id":"64d4c2a4-c8f7-4762-af83-98c376c7623f","system_id":"levelo_inurba_marseille","lat":43.21745,"lon":5.34591,"is_reserved":false,"is_disabled":false,"rental_uris":{"android":"levelo://app?vid=64d4c2a4-c8f7-4762-af83-98c376c7623f","ios":"levelo://app?vid=64d4c2a4-c8f7-4762-af83-98c376c7623f"},"vehicle_type_id":"4","last_reported":1745829282,"current_range_meters":6400,"station_id":"st_cvj6r9ubvosntc0bgbag","pricing_plan_id":"cebpf4jnsgd1na2vs0mg"},{"bike_id":"28519469-55a8-45cb-8f5f-dbe6da9b0aff","system_id":"levelo_inurba_marseille","lat":43.25932,"lon":5.40904,"is_reserved":false,"is_disabled":false,"rental_uris":{"android":"levelo://app?vid=28519469-55a8-45cb-8f5f-dbe6da9b0aff","ios":"levelo://app?vid=28519469-55a8-45cb-8f5f-dbe6da9b0aff"},"vehicle_type_id":"4","last_reported":1745829282,"current_range_meters":6400,"station_id":"ce4bhm92rcd13ifvqglg","pricing_plan_id":"cebpf4jnsgd1na2vs0mg"},{"bike_id":"721ac694-ddc1-45a4-93fe-2aef08d4b564","system_id":"levelo_inurba_marseille","lat":43.24174,"lon":5.36387,"is_reserved":false,"is_disabled":false,"rental_uris":{"android":"levelo://app?vid=721ac694-ddc1-45a4-93fe-2aef08d4b564","ios":"levelo://app?vid=721ac694-ddc1-45a4-93fe-2aef08d4b564"},"vehicle_type_id":"4","last_reported":1745829282,"current_range_meters":6800,"station_id":"cpo36qri1sfpv3e86is0","pricing_plan_id":"cebpf4jnsgd1na2vs0mg"},{"bike_id":"dfafb523-9094-4b1d-8aa3-15dd89c87312","system_id":"levelo_inurba_marseille","lat":43.27497,"lon":5.42445,"is_reserved":false,"is_disabled":false,"rental_uris":{"android":"levelo://app?vid=dfafb523-9094-4b1d-8aa3-15dd89c87312","ios":"levelo://app?vid=dfafb523-9094-4b1d-8aa3-15dd89c87312"},"vehicle_type_id":"4","last_reported":1745829282,"current_range_meters":6800,"station_id":"ce4bhn92rcd13ifvqgrg","pricing_plan_id":"cebpf4jnsgd1na2vs0mg"},{"bike_id":"73601f8e-f719-416c-8749-96265cb38c2e","system_id":"levelo_inurba_marseille","lat":43.30428,"lon":5.39744,"is_reserved":false,"is_disabled":false,"rental_uris":{"android":"levelo://app?vid=73601f8e-f719-416c-8749-96265cb38c2e","ios":"levelo://app?vid=73601f8e-f719-416c-8749-96265cb38c2e"},"vehicle_type_id":"4","last_reported":1745829282,"current_range_meters":7200,"station_id":"ce4bh092rcd13ifvqd20","pricing_plan_id":"cebpf4jnsgd1na2vs0mg"},{"bike_id":"a6051c0f-2d64-4371-b801-c4a9da08ef56","system_id":"levelo_inurba_marseille","lat":43.25915,"lon":5.40887,"is_reserved":false,"is_disabled":false,"rental_uris":{"android":"levelo://app?vid=a6051c0f-2d64-4371-b801-c4a9da08ef56","ios":"levelo://app?vid=a6051c0f-2d64-4371-b801-c4a9da08ef56"},"vehicle_type_id":"4","last_reported":1745829282,"current_range_meters":7200,"station_id":"ce4bhm92rcd13ifvqglg","pricing_plan_id":"cebpf4jnsgd1na2vs0mg"},{"bike_id":"766b999f-eeb5-4599-b9ae-21fc15a94980","system_id":"levelo_inurba_marseille","lat":43.27969,"lon":5.38734,"is_reserved":false,"is_disabled":false,"rental_uris":{"android":"levelo://app?vid=766b999f-eeb5-4599-b9ae-21fc15a94980","ios":"levelo://app?vid=766b999f-eeb5-4599-b9ae-21fc15a94980"},"vehicle_type_id":"4","last_reported":1745829282,"current_range_meters":7200,"station_id":"ce4bhg12rcd13ifvqf80","pricing_plan_id":"cebpf4jnsgd1na2vs0mg"},{"bike_id":"c7cbea77-c9a5-49ef-a4f7-08ee9f8596bd","system_id":"levelo_inurba_marseille","lat":43.29789,"lon":5.38096,"is_reserved":false,"is_disabled":false,"rental_uris":{"android":"levelo://app?vid=c7cbea77-c9a5-49ef-a4f7-08ee9f8596bd","ios":"levelo://app?vid=c7cbea77-c9a5-49ef-a4f7-08ee9f8596bd"},"vehicle_type_id":"4","last_reported":1745829282,"current_range_meters":7200,"station_id":"ce4bgip2rcd13ifvqbb0","pricing_plan_id":"cebpf4jnsgd1na2vs0mg"},{"bike_id":"c8c5df0b-c14f-4d1c-a192-11c80c0d6c69","system_id":"levelo_inurba_marseille","lat":43.3015,"lon":5.37317,"is_reserved":false,"is_disabled":false,"rental_uris":{"android":"levelo://app?vid=c8c5df0b-c14f-4d1c-a192-11c80c0d6c69","ios":"levelo://app?vid=c8c5df0b-c14f-4d1c-a192-11c80c0d6c69"},"vehicle_type_id":"4","last_reported":1745829282,"current_range_meters":7200,"station_id":"","pricing_plan_id":"cebpf4jnsgd1na2vs0mg"},{"bike_id":"574c21c3-5de9-4bfa-a3aa-ac4e3698f0a7","system_id":"levelo_inurba_marseille","lat":43.272044,"lon":5.392064,"is_reserved":false,"is_disabled":true,"rental_uris":{"android":"levelo://app?vid=574c21c3-5de9-4bfa-a3aa-ac4e3698f0a7","ios":"levelo://app?vid=574c21c3-5de9-4bfa-a3aa-ac4e3698f0a7"},"vehicle_type_id":"4","last_reported":1745829282,"current_range_meters":8000,"station_id":"ce4bhhp2rcd13ifvqfm0","pricing_plan_id":"cebpf4jnsgd1na2vs0mg"},{"bike_id":"662cf583-3543-4ddc-8241-76061295b8a3","system_id":"levelo_inurba_marseille","lat":43.23152,"lon":5.4372,"is_reserved":false,"is_disabled":false,"rental_uris":{"android":"levelo://app?vid=662cf583-3543-4ddc-8241-76061295b8a3","ios":"levelo://app?vid=662cf583-3543-4ddc-8241-76061295b8a3"},"vehicle_type_id":"4","last_reported":1745829282,"current_range_meters":8000,"station_id":"ce4bhmp2rcd13ifvqgog","pricing_plan_id":"cebpf4jnsgd1na2vs0mg"},{"bike_id":"fb5a9ee0-736c-44b3-bee0-ba9331402815","system_id":"levelo_inurba_marseille","lat":43.31723,"lon":5.42405,"is_reserved":false,"is_disabled":false,"rental_uris":{"android":"levelo://app?vid=fb5a9ee0-736c-44b3-bee0-ba9331402815","ios":"levelo://app?vid=fb5a9ee0-736c-44b3-bee0-ba9331402815"},"vehicle_type_id":"4","last_reported":1745829282,"current_range_meters":8000,"station_id":"ce4bhp92rcd13ifvqhbg","pricing_plan_id":"cebpf4jnsgd1na2vs0mg"},{"bike_id":"252b5b3d-d9a5-4d89-ac93-6ad18a791e2a","system_id":"levelo_inurba_marseille","lat":43.24166,"lon":5.36391,"is_reserved":false,"is_disabled":false,"rental_uris":{"android":"levelo://app?vid=252b5b3d-d9a5-4d89-ac93-6ad18a791e2a","ios":"levelo://app?vid=252b5b3d-d9a5-4d89-ac93-6ad18a791e2a"},"vehicle_type_id":"4","last_reported":1745829282,"current_range_meters":8000,"station_id":"cpo36qri1sfpv3e86is0","pricing_plan_id":"cebpf4jnsgd1na2vs0mg"},{"bike_id":"303603e0-f18e-4f14-b55e-1e428e48ee4e","system_id":"levelo_inurba_marseille","lat":43.28721,"lon":5.3793,"is_reserved":false,"is_disabled":false,"rental_uris":{"android":"levelo://app?vid=303603e0-f18e-4f14-b55e-1e428e48ee4e","ios":"levelo://app?vid=303603e0-f18e-4f14-b55e-1e428e48ee4e"},"vehicle_type_id":"4","last_reported":1745829282,"current_range_meters":8000,"station_id":"ce4bh9p2rcd13ifvqec0","pricing_plan_id":"cebpf4jnsgd1na2vs0mg"},{"bike_id":"554c7222-d609-4841-a832-33adb157bebb","system_id":"levelo_inurba_marseille","lat":43.21186,"lon":5.35069,"is_reserved":false,"is_disabled":false,"rental_uris":{"android":"levelo://app?vid=554c7222-d609-4841-a832-33adb157bebb","ios":"levelo://app?vid=554c7222-d609-4841-a832-33adb157bebb"},"vehicle_type_id":"4","last_reported":1745829282,"current_range_meters":8000,"station_id":"st_cvj6sg6p6f1abm77japg","pricing_plan_id":"cebpf4jnsgd1na2vs0mg"},{"bike_id":"91474842-32bf-45c2-856a-80fd91d22aa5","system_id":"levelo_inurba_marseille","lat":43.21189,"lon":5.35075,"is_reserved":false,"is_disabled":false,"rental_uris":{"android":"levelo://app?vid=91474842-32bf-45c2-856a-80fd91d22aa5","ios":"levelo://app?vid=91474842-32bf-45c2-856a-80fd91d22aa5"},"vehicle_type_id":"4","last_reported":1745829282,"current_range_meters":8000,"station_id":"st_cvj6sg6p6f1abm77japg","pricing_plan_id":"cebpf4jnsgd1na2vs0mg"},{"bike_id":"aae164b7-1114-49aa-b004-978d7030ee91","system_id":"levelo_inurba_marseille","lat":43.250134,"lon":5.389316,"is_reserved":false,"is_disabled":false,"rental_uris":{"android":"levelo://app?vid=aae164b7-1114-49aa-b004-978d7030ee91","ios":"levelo://app?vid=aae164b7-1114-49aa-b004-978d7030ee91"},"vehicle_type_id":"4","last_reported":1745829282,"current_range_meters":8000,"station_id":"ce4bhgp2rcd13ifvqfd0","pricing_plan_id":"cebpf4jnsgd1na2vs0mg"},{"bike_id":"04d3d983-4cb6-407a-a5a5-a2f7fee6f557","system_id":"levelo_inurba_marseille","lat":43.28152,"lon":5.4264,"is_reserved":false,"is_disabled":false,"rental_uris":{"android":"levelo://app?vid=04d3d983-4cb6-407a-a5a5-a2f7fee6f557","ios":"levelo://app?vid=04d3d983-4cb6-407a-a5a5-a2f7fee6f557"},"vehicle_type_id":"4","last_reported":1745829282,"current_range_meters":8400,"station_id":"ce4bhnh2rcd13ifvqgug","pricing_plan_id":"cebpf4jnsgd1na2vs0mg"},{"bike_id":"323cebf9-7f50-4660-9cd6-d6bfdcc811cf","system_id":"levelo_inurba_marseille","lat":43.28464,"lon":5.35884,"is_reserved":false,"is_disabled":false,"rental_uris":{"android":"levelo://app?vid=323cebf9-7f50-4660-9cd6-d6bfdcc811cf","ios":"levelo://app?vid=323cebf9-7f50-4660-9cd6-d6bfdcc811cf"},"vehicle_type_id":"4","last_reported":1745829282,"current_range_meters":8400,"station_id":"ce4bhah2rcd13ifvqei0","pricing_plan_id":"cebpf4jnsgd1na2vs0mg"},{"bike_id":"0053b840-de47-4900-98aa-cc8575176b05","system_id":"levelo_inurba_marseille","lat":43.24162,"lon":5.36406,"is_reserved":false,"is_disabled":true,"rental_uris":{"android":"levelo://app?vid=0053b840-de47-4900-98aa-cc8575176b05","ios":"levelo://app?vid=0053b840-de47-4900-98aa-cc8575176b05"},"vehicle_type_id":"4","last_reported":1745829282,"current_range_meters":8400,"station_id":"cpo36qri1sfpv3e86is0","pricing_plan_id":"cebpf4jnsgd1na2vs0mg"},{"bike_id":"643991b3-96e1-47c8-acb4-2ceb4ec24140","system_id":"levelo_inurba_marseille","lat":43.2558,"lon":5.3822,"is_reserved":false,"is_disabled":false,"rental_uris":{"android":"levelo://app?vid=643991b3-96e1-47c8-acb4-2ceb4ec24140","ios":"levelo://app?vid=643991b3-96e1-47c8-acb4-2ceb4ec24140"},"vehicle_type_id":"4","last_reported":1745829282,"current_range_meters":8400,"station_id":"ce4bhih2rcd13ifvqfs0","pricing_plan_id":"cebpf4jnsgd1na2vs0mg"},{"bike_id":"209c6466-c0b1-4e0d-b4f4-59055eae5912","system_id":"levelo_inurba_marseille","lat":43.251286,"lon":5.403729,"is_reserved":false,"is_disabled":true,"rental_uris":{"android":"levelo://app?vid=209c6466-c0b1-4e0d-b4f4-59055eae5912","ios":"levelo://app?vid=209c6466-c0b1-4e0d-b4f4-59055eae5912"},"vehicle_type_id":"4","last_reported":1745829282,"current_range_meters":8400,"station_id":"ce4bhlh2rcd13ifvqgig","pricing_plan_id":"cebpf4jnsgd1na2vs0mg"},{"bike_id":"2f33ff74-5d9c-4134-93b1-f5a0f2d68199","system_id":"levelo_inurba_marseille","lat":43.29523,"lon":5.3905,"is_reserved":false,"is_disabled":false,"rental_uris":{"android":"levelo://app?vid=2f33ff74-5d9c-4134-93b1-f5a0f2d68199","ios":"levelo://app?vid=2f33ff74-5d9c-4134-93b1-f5a0f2d68199"},"vehicle_type_id":"4","last_reported":1745829282,"current_range_meters":8800,"station_id":"ce4bh3p2rcd13ifvqdp0","pricing_plan_id":"cebpf4jnsgd1na2vs0mg"},{"bike_id":"717cabec-6d1e-4fbd-94f4-9e9366fab599","system_id":"levelo_inurba_marseille","lat":43.22493,"lon":5.34776,"is_reserved":false,"is_disabled":true,"rental_uris":{"android":"levelo://app?vid=717cabec-6d1e-4fbd-94f4-9e9366fab599","ios":"levelo://app?vid=717cabec-6d1e-4fbd-94f4-9e9366fab599"},"vehicle_type_id":"4","last_reported":1745829282,"current_range_meters":8800,"station_id":"st_cvj5dfep6f1abm77gieg","pricing_plan_id":"cebpf4jnsgd1na2vs0mg"},{"bike_id":"5d830342-dbd1-44aa-bd2b-f1f4117876cd","system_id":"levelo_inurba_marseille","lat":43.31499,"lon":5.37291,"is_reserved":false,"is_disabled":false,"rental_uris":{"android":"levelo://app?vid=5d830342-dbd1-44aa-bd2b-f1f4117876cd","ios":"levelo://app?vid=5d830342-dbd1-44aa-bd2b-f1f4117876cd"},"vehicle_type_id":"4","last_reported":1745829282,"current_range_meters":8800,"station_id":"ce4bgt12rcd13ifvqcd0","pricing_plan_id":"cebpf4jnsgd1na2vs0mg"},{"bike_id":"ab38f7a4-b856-419e-baf2-53a47a586a51","system_id":"levelo_inurba_marseille","lat":43.335693,"lon":5.410147,"is_reserved":false,"is_disabled":false,"rental_uris":{"android":"levelo://app?vid=ab38f7a4-b856-419e-baf2-53a47a586a51","ios":"levelo://app?vid=ab38f7a4-b856-419e-baf2-53a47a586a51"},"vehicle_type_id":"4","last_reported":1745829282,"current_range_meters":8800,"station_id":"ce4bhq12rcd13ifvqhhg","pricing_plan_id":"cebpf4jnsgd1na2vs0mg"},{"bike_id":"44530a1d-b48a-47f5-a929-63b20a3c24dc","system_id":"levelo_inurba_marseille","lat":43.241708,"lon":5.363983,"is_reserved":false,"is_disabled":false,"rental_uris":{"android":"levelo://app?vid=44530a1d-b48a-47f5-a929-63b20a3c24dc","ios":"levelo://app?vid=44530a1d-b48a-47f5-a929-63b20a3c24dc"},"vehicle_type_id":"4","last_reported":1745829282,"current_range_meters":8800,"station_id":"cpo36qri1sfpv3e86is0","pricing_plan_id":"cebpf4jnsgd1na2vs0mg"},{"bike_id":"c83d437e-fa12-426a-9972-bcbfc02bfdb4","system_id":"levelo_inurba_marseille","lat":43.284601,"lon":5.358811,"is_reserved":false,"is_disabled":false,"rental_uris":{"android":"levelo://app?vid=c83d437e-fa12-426a-9972-bcbfc02bfdb4","ios":"levelo://app?vid=c83d437e-fa12-426a-9972-bcbfc02bfdb4"},"vehicle_type_id":"4","last_reported":1745829282,"current_range_meters":8800,"station_id":"ce4bhah2rcd13ifvqei0","pricing_plan_id":"cebpf4jnsgd1na2vs0mg"},{"bike_id":"21a5b78b-6652-49fa-a8ee-70531791ccf1","system_id":"levelo_inurba_marseille","lat":43.24889,"lon":5.42508,"is_reserved":false,"is_disabled":false,"rental_uris":{"android":"levelo://app?vid=21a5b78b-6652-49fa-a8ee-70531791ccf1","ios":"levelo://app?vid=21a5b78b-6652-49fa-a8ee-70531791ccf1"},"vehicle_type_id":"4","last_reported":1745829282,"current_range_meters":8800,"station_id":"","pricing_plan_id":"cebpf4jnsgd1na2vs0mg"},{"bike_id":"8840b7d1-badd-45b4-91db-50feaeb6b7ed","system_id":"levelo_inurba_marseille","lat":43.31055,"lon":5.36706,"is_reserved":false,"is_disabled":false,"rental_uris":{"android":"levelo://app?vid=8840b7d1-badd-45b4-91db-50feaeb6b7ed","ios":"levelo://app?vid=8840b7d1-badd-45b4-91db-50feaeb6b7ed"},"vehicle_type_id":"4","last_reported":1745829282,"current_range_meters":8800,"station_id":"","pricing_plan_id":"cebpf4jnsgd1na2vs0mg"},{"bike_id":"32c14b53-363d-4908-a995-479e48b776b8","system_id":"levelo_inurba_marseille","lat":43.3149,"lon":5.37299,"is_reserved":false,"is_disabled":false,"rental_uris":{"android":"levelo://app?vid=32c14b53-363d-4908-a995-479e48b776b8","ios":"levelo://app?vid=32c14b53-363d-4908-a995-479e48b776b8"},"vehicle_type_id":"4","last_reported":1745829282,"current_range_meters":9200,"station_id":"ce4bgt12rcd13ifvqcd0","pricing_plan_id":"cebpf4jnsgd1na2vs0mg"},{"bike_id":"a2821e4b-6f3f-4af9-b90c-282961cf9824","system_id":"levelo_inurba_marseille","lat":43.23142,"lon":5.43717,"is_reserved":false,"is_disabled":false,"rental_uris":{"android":"levelo://app?vid=a2821e4b-6f3f-4af9-b90c-282961cf9824","ios":"levelo://app?vid=a2821e4b-6f3f-4af9-b90c-282961cf9824"},"vehicle_type_id":"4","last_reported":1745829282,"current_range_meters":9200,"station_id":"ce4bhmp2rcd13ifvqgog","pricing_plan_id":"cebpf4jnsgd1na2vs0mg"},{"bike_id":"8235d872-096e-497c-a719-c2fcbf16281e","system_id":"levelo_inurba_marseille","lat":43.24649,"lon":5.38905,"is_reserved":false,"is_disabled":false,"rental_uris":{"android":"levelo://app?vid=8235d872-096e-497c-a719-c2fcbf16281e","ios":"levelo://app?vid=8235d872-096e-497c-a719-c2fcbf16281e"},"vehicle_type_id":"4","last_reported":1745829282,"current_range_meters":9200,"station_id":"ce4bhg12rcd13ifvqf60","pricing_plan_id":"cebpf4jnsgd1na2vs0mg"},{"bike_id":"5532f965-c6d3-4b05-86f5-39e95c151ce7","system_id":"levelo_inurba_marseille","lat":43.27497,"lon":5.42444,"is_reserved":false,"is_disabled":false,"rental_uris":{"android":"levelo://app?vid=5532f965-c6d3-4b05-86f5-39e95c151ce7","ios":"levelo://app?vid=5532f965-c6d3-4b05-86f5-39e95c151ce7"},"vehicle_type_id":"4","last_reported":1745829282,"current_range_meters":9200,"station_id":"ce4bhn92rcd13ifvqgrg","pricing_plan_id":"cebpf4jnsgd1na2vs0mg"},{"bike_id":"bd5883a4-34de-4768-82e5-6e8a298f1212","system_id":"levelo_inurba_marseille","lat":43.25933,"lon":5.40884,"is_reserved":false,"is_disabled":false,"rental_uris":{"android":"levelo://app?vid=bd5883a4-34de-4768-82e5-6e8a298f1212","ios":"levelo://app?vid=bd5883a4-34de-4768-82e5-6e8a298f1212"},"vehicle_type_id":"4","last_reported":1745829282,"current_range_meters":9200,"station_id":"ce4bhm92rcd13ifvqglg","pricing_plan_id":"cebpf4jnsgd1na2vs0mg"},{"bike_id":"a2e988ca-4cad-46d4-8096-1d1b1de4b0e4","system_id":"levelo_inurba_marseille","lat":43.32353,"lon":5.36736,"is_reserved":false,"is_disabled":false,"rental_uris":{"android":"levelo://app?vid=a2e988ca-4cad-46d4-8096-1d1b1de4b0e4","ios":"levelo://app?vid=a2e988ca-4cad-46d4-8096-1d1b1de4b0e4"},"vehicle_type_id":"4","last_reported":1745829282,"current_range_meters":9600,"station_id":"ce4bhsh2rcd13ifvqi2g","pricing_plan_id":"cebpf4jnsgd1na2vs0mg"},{"bike_id":"7626ed72-c0f8-4eb9-adb3-f027b3fcb3d9","system_id":"levelo_inurba_marseille","lat":43.24668,"lon":5.38157,"is_reserved":false,"is_disabled":false,"rental_uris":{"android":"levelo://app?vid=7626ed72-c0f8-4eb9-adb3-f027b3fcb3d9","ios":"levelo://app?vid=7626ed72-c0f8-4eb9-adb3-f027b3fcb3d9"},"vehicle_type_id":"4","last_reported":1745829282,"current_range_meters":9600,"station_id":"ce4bhih2rcd13ifvqfr0","pricing_plan_id":"cebpf4jnsgd1na2vs0mg"},{"bike_id":"560f12bb-1614-4d7c-b78e-ccf5bdec9ea6","system_id":"levelo_inurba_marseille","lat":43.284863,"lon":5.35892,"is_reserved":false,"is_disabled":true,"rental_uris":{"android":"levelo://app?vid=560f12bb-1614-4d7c-b78e-ccf5bdec9ea6","ios":"levelo://app?vid=560f12bb-1614-4d7c-b78e-ccf5bdec9ea6"},"vehicle_type_id":"4","last_reported":1745829282,"current_range_meters":9600,"station_id":"ce4bhah2rcd13ifvqei0","pricing_plan_id":"cebpf4jnsgd1na2vs0mg"},{"bike_id":"43eb2700-b652-4362-b8fa-20bdcd141525","system_id":"levelo_inurba_marseille","lat":43.29917,"lon":5.37475,"is_reserved":false,"is_disabled":false,"rental_uris":{"android":"levelo://app?vid=43eb2700-b652-4362-b8fa-20bdcd141525","ios":"levelo://app?vid=43eb2700-b652-4362-b8fa-20bdcd141525"},"vehicle_type_id":"4","last_reported":1745829282,"current_range_meters":9600,"station_id":"ce4bgjh2rcd13ifvqbg0","pricing_plan_id":"cebpf4jnsgd1na2vs0mg"},{"bike_id":"6303aeb8-901b-4f8f-8588-7c345791c8ea","system_id":"levelo_inurba_marseille","lat":43.24719,"lon":5.41158,"is_reserved":false,"is_disabled":false,"rental_uris":{"android":"levelo://app?vid=6303aeb8-901b-4f8f-8588-7c345791c8ea","ios":"levelo://app?vid=6303aeb8-901b-4f8f-8588-7c345791c8ea"},"vehicle_type_id":"4","last_reported":1745829282,"current_range_meters":10000,"station_id":"","pricing_plan_id":"cebpf4jnsgd1na2vs0mg"},{"bike_id":"9150f107-827a-42d1-9f2d-866908e41f8e","system_id":"levelo_inurba_marseille","lat":43.25574,"lon":5.38251,"is_reserved":false,"is_disabled":false,"rental_uris":{"android":"levelo://app?vid=9150f107-827a-42d1-9f2d-866908e41f8e","ios":"levelo://app?vid=9150f107-827a-42d1-9f2d-866908e41f8e"},"vehicle_type_id":"4","last_reported":1745829282,"current_range_meters":10000,"station_id":"ce4bhih2rcd13ifvqfs0","pricing_plan_id":"cebpf4jnsgd1na2vs0mg"},{"bike_id":"6d593226-0a2e-46d4-8de3-9c8bd9d3e674","system_id":"levelo_inurba_marseille","lat":43.29616,"lon":5.37696,"is_reserved":false,"is_disabled":true,"rental_uris":{"android":"levelo://app?vid=6d593226-0a2e-46d4-8de3-9c8bd9d3e674","ios":"levelo://app?vid=6d593226-0a2e-46d4-8de3-9c8bd9d3e674"},"vehicle_type_id":"4","last_reported":1745829282,"current_range_meters":10000,"station_id":"ce4bgi92rcd13ifvqb90","pricing_plan_id":"cebpf4jnsgd1na2vs0mg"},{"bike_id":"fe7cf037-1a33-48b5-9cbb-f6edeb7148d2","system_id":"levelo_inurba_marseille","lat":43.27817,"lon":5.40692,"is_reserved":false,"is_disabled":false,"rental_uris":{"android":"levelo://app?vid=fe7cf037-1a33-48b5-9cbb-f6edeb7148d2","ios":"levelo://app?vid=fe7cf037-1a33-48b5-9cbb-f6edeb7148d2"},"vehicle_type_id":"4","last_reported":1745829282,"current_range_meters":10000,"station_id":"ce4bhnh2rcd13ifvqgtg","pricing_plan_id":"cebpf4jnsgd1na2vs0mg"},{"bike_id":"b330c3b4-8203-49c9-a4bf-5485d09a1d2d","system_id":"levelo_inurba_marseille","lat":43.30218,"lon":5.39444,"is_reserved":false,"is_disabled":true,"rental_uris":{"android":"levelo://app?vid=b330c3b4-8203-49c9-a4bf-5485d09a1d2d","ios":"levelo://app?vid=b330c3b4-8203-49c9-a4bf-5485d09a1d2d"},"vehicle_type_id":"4","last_reported":1745829282,"current_range_meters":10000,"station_id":"ce4bh0p2rcd13ifvqd70","pricing_plan_id":"cebpf4jnsgd1na2vs0mg"},{"bike_id":"120612f1-1aac-4f5d-a2b0-db2d4bb2fde3","system_id":"levelo_inurba_marseille","lat":43.313513,"lon":5.366847,"is_reserved":false,"is_disabled":false,"rental_uris":{"android":"levelo://app?vid=120612f1-1aac-4f5d-a2b0-db2d4bb2fde3","ios":"levelo://app?vid=120612f1-1aac-4f5d-a2b0-db2d4bb2fde3"},"vehicle_type_id":"4","last_reported":1745829282,"current_range_meters":10000,"station_id":"ce4bgr92rcd13ifvqc6g","pricing_plan_id":"cebpf4jnsgd1na2vs0mg"},{"bike_id":"03bd42f6-231b-41f0-967c-979162658d23","system_id":"levelo_inurba_marseille","lat":43.24666,"lon":5.38173,"is_reserved":false,"is_disabled":false,"rental_uris":{"android":"levelo://app?vid=03bd42f6-231b-41f0-967c-979162658d23","ios":"levelo://app?vid=03bd42f6-231b-41f0-967c-979162658d23"},"vehicle_type_id":"4","last_reported":1745829282,"current_range_meters":10800,"station_id":"ce4bhih2rcd13ifvqfr0","pricing_plan_id":"cebpf4jnsgd1na2vs0mg"},{"bike_id":"4983d1fc-c38c-474a-bc73-984d23ef1f33","system_id":"levelo_inurba_marseille","lat":43.30587,"lon":5.39356,"is_reserved":false,"is_disabled":false,"rental_uris":{"android":"levelo://app?vid=4983d1fc-c38c-474a-bc73-984d23ef1f33","ios":"levelo://app?vid=4983d1fc-c38c-474a-bc73-984d23ef1f33"},"vehicle_type_id":"4","last_reported":1745829282,"current_range_meters":10800,"station_id":"ce4bh0p2rcd13ifvqd80","pricing_plan_id":"cebpf4jnsgd1na2vs0mg"},{"bike_id":"a5903229-b31f-421f-9c07-ee7e22bcdbb0","system_id":"levelo_inurba_marseille","lat":43.21187,"lon":5.35076,"is_reserved":false,"is_disabled":false,"rental_uris":{"android":"levelo://app?vid=a5903229-b31f-421f-9c07-ee7e22bcdbb0","ios":"levelo://app?vid=a5903229-b31f-421f-9c07-ee7e22bcdbb0"},"vehicle_type_id":"4","last_reported":1745829282,"current_range_meters":10800,"station_id":"","pricing_plan_id":"cebpf4jnsgd1na2vs0mg"},{"bike_id":"3d934169-6946-46cc-87a4-ce5d03b77075","system_id":"levelo_inurba_marseille","lat":43.217516,"lon":5.346046,"is_reserved":false,"is_disabled":false,"rental_uris":{"android":"levelo://app?vid=3d934169-6946-46cc-87a4-ce5d03b77075","ios":"levelo://app?vid=3d934169-6946-46cc-87a4-ce5d03b77075"},"vehicle_type_id":"4","last_reported":1745829282,"current_range_meters":10800,"station_id":"st_cvj6r9ubvosntc0bgbag","pricing_plan_id":"cebpf4jnsgd1na2vs0mg"},{"bike_id":"b34aafc0-4c6a-4c24-91d2-549a5cf6defc","system_id":"levelo_inurba_marseille","lat":43.32493,"lon":5.36557,"is_reserved":false,"is_disabled":false,"rental_uris":{"android":"levelo://app?vid=b34aafc0-4c6a-4c24-91d2-549a5cf6defc","ios":"levelo://app?vid=b34aafc0-4c6a-4c24-91d2-549a5cf6defc"},"vehicle_type_id":"4","last_reported":1745829282,"current_range_meters":10800,"station_id":"ce4bhs12rcd13ifvqhvg","pricing_plan_id":"cebpf4jnsgd1na2vs0mg"},{"bike_id":"0d777af5-4166-475a-a6b9-6a0197032592","system_id":"levelo_inurba_marseille","lat":43.23256,"lon":5.35229,"is_reserved":false,"is_disabled":false,"rental_uris":{"android":"levelo://app?vid=0d777af5-4166-475a-a6b9-6a0197032592","ios":"levelo://app?vid=0d777af5-4166-475a-a6b9-6a0197032592"},"vehicle_type_id":"4","last_reported":1745829282,"current_range_meters":11200,"station_id":"","pricing_plan_id":"cebpf4jnsgd1na2vs0mg"},{"bike_id":"8ab11fb1-417b-4628-9fe1-50e71615038c","system_id":"levelo_inurba_marseille","lat":43.28138,"lon":5.4263,"is_reserved":false,"is_disabled":false,"rental_uris":{"android":"levelo://app?vid=8ab11fb1-417b-4628-9fe1-50e71615038c","ios":"levelo://app?vid=8ab11fb1-417b-4628-9fe1-50e71615038c"},"vehicle_type_id":"4","last_reported":1745829282,"current_range_meters":10800,"station_id":"ce4bhnh2rcd13ifvqgug","pricing_plan_id":"cebpf4jnsgd1na2vs0mg"},{"bike_id":"f008fc00-e021-4e1c-932e-3dc98be03ecd","system_id":"levelo_inurba_marseille","lat":43.28003,"lon":5.40009,"is_reserved":false,"is_disabled":false,"rental_uris":{"android":"levelo://app?vid=f008fc00-e021-4e1c-932e-3dc98be03ecd","ios":"levelo://app?vid=f008fc00-e021-4e1c-932e-3dc98be03ecd"},"vehicle_type_id":"4","last_reported":1745829282,"current_range_meters":11200,"station_id":"ce4bho92rcd13ifvqh4g","pricing_plan_id":"cebpf4jnsgd1na2vs0mg"},{"bike_id":"0aca75c7-0552-4900-81d3-fa28c6ee7d8f","system_id":"levelo_inurba_marseille","lat":43.30901,"lon":5.36842,"is_reserved":false,"is_disabled":false,"rental_uris":{"android":"levelo://app?vid=0aca75c7-0552-4900-81d3-fa28c6ee7d8f","ios":"levelo://app?vid=0aca75c7-0552-4900-81d3-fa28c6ee7d8f"},"vehicle_type_id":"4","last_reported":1745829282,"current_range_meters":11600,"station_id":"ce4bgn92rcd13ifvqbvg","pricing_plan_id":"cebpf4jnsgd1na2vs0mg"},{"bike_id":"f360aaad-e350-49e9-8191-58ce4616eb13","system_id":"levelo_inurba_marseille","lat":43.21184,"lon":5.35052,"is_reserved":false,"is_disabled":true,"rental_uris":{"android":"levelo://app?vid=f360aaad-e350-49e9-8191-58ce4616eb13","ios":"levelo://app?vid=f360aaad-e350-49e9-8191-58ce4616eb13"},"vehicle_type_id":"4","last_reported":1745829282,"current_range_meters":11600,"station_id":"st_cvj6sg6p6f1abm77japg","pricing_plan_id":"cebpf4jnsgd1na2vs0mg"},{"bike_id":"fceab05f-e070-40b4-8929-40da4ef30179","system_id":"levelo_inurba_marseille","lat":43.27496,"lon":5.42453,"is_reserved":false,"is_disabled":false,"rental_uris":{"android":"levelo://app?vid=fceab05f-e070-40b4-8929-40da4ef30179","ios":"levelo://app?vid=fceab05f-e070-40b4-8929-40da4ef30179"},"vehicle_type_id":"4","last_reported":1745829282,"current_range_meters":11600,"station_id":"ce4bhn92rcd13ifvqgrg","pricing_plan_id":"cebpf4jnsgd1na2vs0mg"},{"bike_id":"2c416dc3-fec8-46a3-9df3-21d9c1f46466","system_id":"levelo_inurba_marseille","lat":43.2872,"lon":5.37946,"is_reserved":false,"is_disabled":false,"rental_uris":{"android":"levelo://app?vid=2c416dc3-fec8-46a3-9df3-21d9c1f46466","ios":"levelo://app?vid=2c416dc3-fec8-46a3-9df3-21d9c1f46466"},"vehicle_type_id":"4","last_reported":1745829282,"current_range_meters":12000,"station_id":"ce4bh9p2rcd13ifvqec0","pricing_plan_id":"cebpf4jnsgd1na2vs0mg"},{"bike_id":"c8ab5ac1-98ea-4cd5-95b5-4a8c3c36463d","system_id":"levelo_inurba_marseille","lat":43.25572,"lon":5.38232,"is_reserved":false,"is_disabled":false,"rental_uris":{"android":"levelo://app?vid=c8ab5ac1-98ea-4cd5-95b5-4a8c3c36463d","ios":"levelo://app?vid=c8ab5ac1-98ea-4cd5-95b5-4a8c3c36463d"},"vehicle_type_id":"4","last_reported":1745829282,"current_range_meters":12000,"station_id":"ce4bhih2rcd13ifvqfs0","pricing_plan_id":"cebpf4jnsgd1na2vs0mg"},{"bike_id":"7d9d71eb-8ba7-4605-b116-8faf9c5372e2","system_id":"levelo_inurba_marseille","lat":43.31344,"lon":5.36699,"is_reserved":false,"is_disabled":false,"rental_uris":{"android":"levelo://app?vid=7d9d71eb-8ba7-4605-b116-8faf9c5372e2","ios":"levelo://app?vid=7d9d71eb-8ba7-4605-b116-8faf9c5372e2"},"vehicle_type_id":"4","last_reported":1745829282,"current_range_meters":12000,"station_id":"ce4bgr92rcd13ifvqc6g","pricing_plan_id":"cebpf4jnsgd1na2vs0mg"},{"bike_id":"45d09500-4580-4832-b2a0-d173ab8318b9","system_id":"levelo_inurba_marseille","lat":43.32473,"lon":5.36588,"is_reserved":false,"is_disabled":false,"rental_uris":{"android":"levelo://app?vid=45d09500-4580-4832-b2a0-d173ab8318b9","ios":"levelo://app?vid=45d09500-4580-4832-b2a0-d173ab8318b9"},"vehicle_type_id":"4","last_reported":1745829282,"current_range_meters":12000,"station_id":"ce4bhs12rcd13ifvqhvg","pricing_plan_id":"cebpf4jnsgd1na2vs0mg"},{"bike_id":"3f5f2c9a-9e49-4b78-9b1b-0708da9fec39","system_id":"levelo_inurba_marseille","lat":43.22504,"lon":5.34786,"is_reserved":false,"is_disabled":true,"rental_uris":{"android":"levelo://app?vid=3f5f2c9a-9e49-4b78-9b1b-0708da9fec39","ios":"levelo://app?vid=3f5f2c9a-9e49-4b78-9b1b-0708da9fec39"},"vehicle_type_id":"4","last_reported":1745829282,"current_range_meters":12800,"station_id":"st_cvj5dfep6f1abm77gieg","pricing_plan_id":"cebpf4jnsgd1na2vs0mg"},{"bike_id":"0b3930c6-6eda-4cd6-855b-813516fabdb4","system_id":"levelo_inurba_marseille","lat":43.27494,"lon":5.42464,"is_reserved":false,"is_disabled":false,"rental_uris":{"android":"levelo://app?vid=0b3930c6-6eda-4cd6-855b-813516fabdb4","ios":"levelo://app?vid=0b3930c6-6eda-4cd6-855b-813516fabdb4"},"vehicle_type_id":"4","last_reported":1745829282,"current_range_meters":12400,"station_id":"ce4bhn92rcd13ifvqgrg","pricing_plan_id":"cebpf4jnsgd1na2vs0mg"},{"bike_id":"8aabf225-868d-4073-a238-cf7324314202","system_id":"levelo_inurba_marseille","lat":43.31355,"lon":5.36696,"is_reserved":false,"is_disabled":false,"rental_uris":{"android":"levelo://app?vid=8aabf225-868d-4073-a238-cf7324314202","ios":"levelo://app?vid=8aabf225-868d-4073-a238-cf7324314202"},"vehicle_type_id":"4","last_reported":1745829282,"current_range_meters":12400,"station_id":"ce4bgr92rcd13ifvqc6g","pricing_plan_id":"cebpf4jnsgd1na2vs0mg"},{"bike_id":"e17d5e02-5e14-489d-b153-6c94385200e4","system_id":"levelo_inurba_marseille","lat":43.25114,"lon":5.40323,"is_reserved":false,"is_disabled":false,"rental_uris":{"android":"levelo://app?vid=e17d5e02-5e14-489d-b153-6c94385200e4","ios":"levelo://app?vid=e17d5e02-5e14-489d-b153-6c94385200e4"},"vehicle_type_id":"4","last_reported":1745829282,"current_range_meters":12000,"station_id":"ce4bhlh2rcd13ifvqgig","pricing_plan_id":"cebpf4jnsgd1na2vs0mg"},{"bike_id":"bdba2434-6c26-4555-ad7c-0c9f407e93f3","system_id":"levelo_inurba_marseille","lat":43.3265,"lon":5.40978,"is_reserved":false,"is_disabled":false,"rental_uris":{"android":"levelo://app?vid=bdba2434-6c26-4555-ad7c-0c9f407e93f3","ios":"levelo://app?vid=bdba2434-6c26-4555-ad7c-0c9f407e93f3"},"vehicle_type_id":"4","last_reported":1745829282,"current_range_meters":12400,"station_id":"ce4bhpp2rcd13ifvqhgg","pricing_plan_id":"cebpf4jnsgd1na2vs0mg"},{"bike_id":"a1300fa1-43f7-47bc-be68-1621591c429e","system_id":"levelo_inurba_marseille","lat":43.25009,"lon":5.38916,"is_reserved":false,"is_disabled":true,"rental_uris":{"android":"levelo://app?vid=a1300fa1-43f7-47bc-be68-1621591c429e","ios":"levelo://app?vid=a1300fa1-43f7-47bc-be68-1621591c429e"},"vehicle_type_id":"4","last_reported":1745829282,"current_range_meters":12400,"station_id":"ce4bhgp2rcd13ifvqfd0","pricing_plan_id":"cebpf4jnsgd1na2vs0mg"},{"bike_id":"4046a82f-66e8-4b55-bd0a-356edea772d8","system_id":"levelo_inurba_marseille","lat":43.30604,"lon":5.38176,"is_reserved":false,"is_disabled":true,"rental_uris":{"android":"levelo://app?vid=4046a82f-66e8-4b55-bd0a-356edea772d8","ios":"levelo://app?vid=4046a82f-66e8-4b55-bd0a-356edea772d8"},"vehicle_type_id":"4","last_reported":1745829282,"current_range_meters":12800,"station_id":"","pricing_plan_id":"cebpf4jnsgd1na2vs0mg"},{"bike_id":"75a1aa92-40f9-4c86-99b2-3a1f8c2cc720","system_id":"levelo_inurba_marseille","lat":43.28694,"lon":5.37406,"is_reserved":false,"is_disabled":false,"rental_uris":{"android":"levelo://app?vid=75a1aa92-40f9-4c86-99b2-3a1f8c2cc720","ios":"levelo://app?vid=75a1aa92-40f9-4c86-99b2-3a1f8c2cc720"},"vehicle_type_id":"4","last_reported":1745829282,"current_range_meters":12800,"station_id":"ce4bh3p2rcd13ifvqdq0","pricing_plan_id":"cebpf4jnsgd1na2vs0mg"},{"bike_id":"d8e186e0-8d9f-4c16-bb12-3c50f63fd666","system_id":"levelo_inurba_marseille","lat":43.27502,"lon":5.42448,"is_reserved":false,"is_disabled":false,"rental_uris":{"android":"levelo://app?vid=d8e186e0-8d9f-4c16-bb12-3c50f63fd666","ios":"levelo://app?vid=d8e186e0-8d9f-4c16-bb12-3c50f63fd666"},"vehicle_type_id":"4","last_reported":1745829282,"current_range_meters":12800,"station_id":"ce4bhn92rcd13ifvqgrg","pricing_plan_id":"cebpf4jnsgd1na2vs0mg"},{"bike_id":"647355cc-822f-41e4-b0fe-856d5a69a337","system_id":"levelo_inurba_marseille","lat":43.21196,"lon":5.35056,"is_reserved":false,"is_disabled":false,"rental_uris":{"android":"levelo://app?vid=647355cc-822f-41e4-b0fe-856d5a69a337","ios":"levelo://app?vid=647355cc-822f-41e4-b0fe-856d5a69a337"},"vehicle_type_id":"4","last_reported":1745829282,"current_range_meters":13600,"station_id":"st_cvj6sg6p6f1abm77japg","pricing_plan_id":"cebpf4jnsgd1na2vs0mg"},{"bike_id":"d1627ee4-2700-4707-80b1-826519498471","system_id":"levelo_inurba_marseille","lat":43.31221,"lon":5.36851,"is_reserved":false,"is_disabled":false,"rental_uris":{"android":"levelo://app?vid=d1627ee4-2700-4707-80b1-826519498471","ios":"levelo://app?vid=d1627ee4-2700-4707-80b1-826519498471"},"vehicle_type_id":"4","last_reported":1745829282,"current_range_meters":13600,"station_id":"ce4bgl92rcd13ifvqbq0","pricing_plan_id":"cebpf4jnsgd1na2vs0mg"},{"bike_id":"55d85d15-2e7f-4581-8029-f1a8547a972e","system_id":"levelo_inurba_marseille","lat":43.27501,"lon":5.42445,"is_reserved":false,"is_disabled":false,"rental_uris":{"android":"levelo://app?vid=55d85d15-2e7f-4581-8029-f1a8547a972e","ios":"levelo://app?vid=55d85d15-2e7f-4581-8029-f1a8547a972e"},"vehicle_type_id":"4","last_reported":1745829282,"current_range_meters":13600,"station_id":"ce4bhn92rcd13ifvqgrg","pricing_plan_id":"cebpf4jnsgd1na2vs0mg"},{"bike_id":"97fd7a4c-36e8-401d-b12d-1b4015a01ebe","system_id":"levelo_inurba_marseille","lat":43.26551,"lon":5.42203,"is_reserved":false,"is_disabled":false,"rental_uris":{"android":"levelo://app?vid=97fd7a4c-36e8-401d-b12d-1b4015a01ebe","ios":"levelo://app?vid=97fd7a4c-36e8-401d-b12d-1b4015a01ebe"},"vehicle_type_id":"4","last_reported":1745829282,"current_range_meters":13600,"station_id":"","pricing_plan_id":"cebpf4jnsgd1na2vs0mg"},{"bike_id":"9e1d6cdd-0374-448e-8ff8-e8677bd4e3d1","system_id":"levelo_inurba_marseille","lat":43.29271,"lon":5.36842,"is_reserved":false,"is_disabled":false,"rental_uris":{"android":"levelo://app?vid=9e1d6cdd-0374-448e-8ff8-e8677bd4e3d1","ios":"levelo://app?vid=9e1d6cdd-0374-448e-8ff8-e8677bd4e3d1"},"vehicle_type_id":"4","last_reported":1745829282,"current_range_meters":13600,"station_id":"ce4bhbp2rcd13ifvqesg","pricing_plan_id":"cebpf4jnsgd1na2vs0mg"},{"bike_id":"1acedf12-292b-4588-b258-0df8ce6ec883","system_id":"levelo_inurba_marseille","lat":43.31359,"lon":5.36689,"is_reserved":false,"is_disabled":false,"rental_uris":{"android":"levelo://app?vid=1acedf12-292b-4588-b258-0df8ce6ec883","ios":"levelo://app?vid=1acedf12-292b-4588-b258-0df8ce6ec883"},"vehicle_type_id":"4","last_reported":1745829282,"current_range_meters":13600,"station_id":"ce4bgr92rcd13ifvqc6g","pricing_plan_id":"cebpf4jnsgd1na2vs0mg"},{"bike_id":"2e85c5b8-4062-4caf-8487-7b14b1c1b4ac","system_id":"levelo_inurba_marseille","lat":43.2985,"lon":5.3629,"is_reserved":false,"is_disabled":false,"rental_uris":{"android":"levelo://app?vid=2e85c5b8-4062-4caf-8487-7b14b1c1b4ac","ios":"levelo://app?vid=2e85c5b8-4062-4caf-8487-7b14b1c1b4ac"},"vehicle_type_id":"4","last_reported":1745829282,"current_range_meters":13600,"station_id":"ce4bgpp2rcd13ifvqc3g","pricing_plan_id":"cebpf4jnsgd1na2vs0mg"},{"bike_id":"e63470cb-2da1-4d74-be7f-61316f219b7e","system_id":"levelo_inurba_marseille","lat":43.25578,"lon":5.38237,"is_reserved":false,"is_disabled":true,"rental_uris":{"android":"levelo://app?vid=e63470cb-2da1-4d74-be7f-61316f219b7e","ios":"levelo://app?vid=e63470cb-2da1-4d74-be7f-61316f219b7e"},"vehicle_type_id":"4","last_reported":1745829282,"current_range_meters":14000,"station_id":"ce4bhih2rcd13ifvqfs0","pricing_plan_id":"cebpf4jnsgd1na2vs0mg"},{"bike_id":"766d928e-850b-4883-bc81-023c382cdd41","system_id":"levelo_inurba_marseille","lat":43.25105,"lon":5.40338,"is_reserved":false,"is_disabled":false,"rental_uris":{"android":"levelo://app?vid=766d928e-850b-4883-bc81-023c382cdd41","ios":"levelo://app?vid=766d928e-850b-4883-bc81-023c382cdd41"},"vehicle_type_id":"4","last_reported":1745829282,"current_range_meters":14000,"station_id":"ce4bhlh2rcd13ifvqgig","pricing_plan_id":"cebpf4jnsgd1na2vs0mg"},{"bike_id":"42fe65ea-2ec1-4768-a4bc-9ef5786cacb4","system_id":"levelo_inurba_marseille","lat":43.29366,"lon":5.37845,"is_reserved":false,"is_disabled":false,"rental_uris":{"android":"levelo://app?vid=42fe65ea-2ec1-4768-a4bc-9ef5786cacb4","ios":"levelo://app?vid=42fe65ea-2ec1-4768-a4bc-9ef5786cacb4"},"vehicle_type_id":"4","last_reported":1745829282,"current_range_meters":14000,"station_id":"ce4bgjh2rcd13ifvqbf0","pricing_plan_id":"cebpf4jnsgd1na2vs0mg"},{"bike_id":"1fa5d4b5-753c-4c37-987a-c4d4da64e8ed","system_id":"levelo_inurba_marseille","lat":43.30911,"lon":5.37197,"is_reserved":false,"is_disabled":false,"rental_uris":{"android":"levelo://app?vid=1fa5d4b5-753c-4c37-987a-c4d4da64e8ed","ios":"levelo://app?vid=1fa5d4b5-753c-4c37-987a-c4d4da64e8ed"},"vehicle_type_id":"4","last_reported":1745829282,"current_range_meters":14000,"station_id":"ce4bguh2rcd13ifvqckg","pricing_plan_id":"cebpf4jnsgd1na2vs0mg"},{"bike_id":"d89a6a80-1dab-4bf3-bd35-932d6c948eb6","system_id":"levelo_inurba_marseille","lat":43.23151,"lon":5.43704,"is_reserved":false,"is_disabled":false,"rental_uris":{"android":"levelo://app?vid=d89a6a80-1dab-4bf3-bd35-932d6c948eb6","ios":"levelo://app?vid=d89a6a80-1dab-4bf3-bd35-932d6c948eb6"},"vehicle_type_id":"4","last_reported":1745829282,"current_range_meters":14000,"station_id":"ce4bhmp2rcd13ifvqgog","pricing_plan_id":"cebpf4jnsgd1na2vs0mg"},{"bike_id":"683b45fe-d6d7-4560-ae22-95bdbf4d269a","system_id":"levelo_inurba_marseille","lat":43.21744,"lon":5.34605,"is_reserved":false,"is_disabled":true,"rental_uris":{"android":"levelo://app?vid=683b45fe-d6d7-4560-ae22-95bdbf4d269a","ios":"levelo://app?vid=683b45fe-d6d7-4560-ae22-95bdbf4d269a"},"vehicle_type_id":"4","last_reported":1745829282,"current_range_meters":14000,"station_id":"st_cvj6r9ubvosntc0bgbag","pricing_plan_id":"cebpf4jnsgd1na2vs0mg"},{"bike_id":"7d4859bb-6fe0-424f-a942-9c856aafc025","system_id":"levelo_inurba_marseille","lat":43.31506,"lon":5.3728,"is_reserved":false,"is_disabled":false,"rental_uris":{"android":"levelo://app?vid=7d4859bb-6fe0-424f-a942-9c856aafc025","ios":"levelo://app?vid=7d4859bb-6fe0-424f-a942-9c856aafc025"},"vehicle_type_id":"4","last_reported":1745829282,"current_range_meters":14000,"station_id":"ce4bgt12rcd13ifvqcd0","pricing_plan_id":"cebpf4jnsgd1na2vs0mg"},{"bike_id":"2d8ee308-03ed-4761-9d96-95839d6c6deb","system_id":"levelo_inurba_marseille","lat":43.28611,"lon":5.37064,"is_reserved":false,"is_disabled":false,"rental_uris":{"android":"levelo://app?vid=2d8ee308-03ed-4761-9d96-95839d6c6deb","ios":"levelo://app?vid=2d8ee308-03ed-4761-9d96-95839d6c6deb"},"vehicle_type_id":"4","last_reported":1745829282,"current_range_meters":14000,"station_id":"ce4bht12rcd13ifvqi60","pricing_plan_id":"cebpf4jnsgd1na2vs0mg"},{"bike_id":"7cb17432-a062-465f-85a4-b60c350ddacd","system_id":"levelo_inurba_marseille","lat":43.29568,"lon":5.37511,"is_reserved":false,"is_disabled":true,"rental_uris":{"android":"levelo://app?vid=7cb17432-a062-465f-85a4-b60c350ddacd","ios":"levelo://app?vid=7cb17432-a062-465f-85a4-b60c350ddacd"},"vehicle_type_id":"4","last_reported":1745829282,"current_range_meters":14000,"station_id":"ce4bgh92rcd13ifvqb50","pricing_plan_id":"cebpf4jnsgd1na2vs0mg"},{"bike_id":"2e7ac15a-983b-44da-a8d0-533b1e803195","system_id":"levelo_inurba_marseille","lat":43.25575,"lon":5.38209,"is_reserved":false,"is_disabled":false,"rental_uris":{"android":"levelo://app?vid=2e7ac15a-983b-44da-a8d0-533b1e803195","ios":"levelo://app?vid=2e7ac15a-983b-44da-a8d0-533b1e803195"},"vehicle_type_id":"4","last_reported":1745829282,"current_range_meters":14400,"station_id":"ce4bhih2rcd13ifvqfs0","pricing_plan_id":"cebpf4jnsgd1na2vs0mg"},{"bike_id":"cdefb1fb-f28b-4051-a0f5-a9451436b4ed","system_id":"levelo_inurba_marseille","lat":43.25792,"lon":5.38606,"is_reserved":false,"is_disabled":false,"rental_uris":{"android":"levelo://app?vid=cdefb1fb-f28b-4051-a0f5-a9451436b4ed","ios":"levelo://app?vid=cdefb1fb-f28b-4051-a0f5-a9451436b4ed"},"vehicle_type_id":"4","last_reported":1745829282,"current_range_meters":14400,"station_id":"","pricing_plan_id":"cebpf4jnsgd1na2vs0mg"},{"bike_id":"5a983abf-1f6f-4a2d-880b-bac58e63b800","system_id":"levelo_inurba_marseille","lat":43.27826,"lon":5.40719,"is_reserved":false,"is_disabled":true,"rental_uris":{"android":"levelo://app?vid=5a983abf-1f6f-4a2d-880b-bac58e63b800","ios":"levelo://app?vid=5a983abf-1f6f-4a2d-880b-bac58e63b800"},"vehicle_type_id":"4","last_reported":1745829282,"current_range_meters":14400,"station_id":"ce4bhnh2rcd13ifvqgtg","pricing_plan_id":"cebpf4jnsgd1na2vs0mg"},{"bike_id":"181ed326-b471-49b5-9f00-acd48cb5b299","system_id":"levelo_inurba_marseille","lat":43.28278,"lon":5.35045,"is_reserved":false,"is_disabled":true,"rental_uris":{"android":"levelo://app?vid=181ed326-b471-49b5-9f00-acd48cb5b299","ios":"levelo://app?vid=181ed326-b471-49b5-9f00-acd48cb5b299"},"vehicle_type_id":"4","last_reported":1745829282,"current_range_meters":14400,"station_id":"ce4bhbp2rcd13ifvqerg","pricing_plan_id":"cebpf4jnsgd1na2vs0mg"},{"bike_id":"c2b73ca7-2177-4884-92fb-50d9dc5f5bf4","system_id":"levelo_inurba_marseille","lat":43.31355,"lon":5.36694,"is_reserved":false,"is_disabled":false,"rental_uris":{"android":"levelo://app?vid=c2b73ca7-2177-4884-92fb-50d9dc5f5bf4","ios":"levelo://app?vid=c2b73ca7-2177-4884-92fb-50d9dc5f5bf4"},"vehicle_type_id":"4","last_reported":1745829282,"current_range_meters":14400,"station_id":"ce4bgr92rcd13ifvqc6g","pricing_plan_id":"cebpf4jnsgd1na2vs0mg"},{"bike_id":"ccbc05ba-b0ef-4db0-808d-f2883ccf3635","system_id":"levelo_inurba_marseille","lat":43.30931,"lon":5.36851,"is_reserved":false,"is_disabled":false,"rental_uris":{"android":"levelo://app?vid=ccbc05ba-b0ef-4db0-808d-f2883ccf3635","ios":"levelo://app?vid=ccbc05ba-b0ef-4db0-808d-f2883ccf3635"},"vehicle_type_id":"4","last_reported":1745829282,"current_range_meters":14800,"station_id":"ce4bgn92rcd13ifvqbvg","pricing_plan_id":"cebpf4jnsgd1na2vs0mg"},{"bike_id":"3312f35b-5552-474a-bc8d-a3b1e08d641d","system_id":"levelo_inurba_marseille","lat":43.25914,"lon":5.40879,"is_reserved":false,"is_disabled":false,"rental_uris":{"android":"levelo://app?vid=3312f35b-5552-474a-bc8d-a3b1e08d641d","ios":"levelo://app?vid=3312f35b-5552-474a-bc8d-a3b1e08d641d"},"vehicle_type_id":"4","last_reported":1745829282,"current_range_meters":14800,"station_id":"ce4bhm92rcd13ifvqglg","pricing_plan_id":"cebpf4jnsgd1na2vs0mg"},{"bike_id":"5a6ac1ef-2dc1-443e-9eb7-7c540b3b79a7","system_id":"levelo_inurba_marseille","lat":43.3148,"lon":5.37304,"is_reserved":false,"is_disabled":false,"rental_uris":{"android":"levelo://app?vid=5a6ac1ef-2dc1-443e-9eb7-7c540b3b79a7","ios":"levelo://app?vid=5a6ac1ef-2dc1-443e-9eb7-7c540b3b79a7"},"vehicle_type_id":"4","last_reported":1745829282,"current_range_meters":14800,"station_id":"ce4bgt12rcd13ifvqcd0","pricing_plan_id":"cebpf4jnsgd1na2vs0mg"},{"bike_id":"6a3ad0ca-897c-414f-a69a-aae8b2ea7b61","system_id":"levelo_inurba_marseille","lat":43.21745,"lon":5.34592,"is_reserved":false,"is_disabled":false,"rental_uris":{"android":"levelo://app?vid=6a3ad0ca-897c-414f-a69a-aae8b2ea7b61","ios":"levelo://app?vid=6a3ad0ca-897c-414f-a69a-aae8b2ea7b61"},"vehicle_type_id":"4","last_reported":1745829282,"current_range_meters":14800,"station_id":"st_cvj6r9ubvosntc0bgbag","pricing_plan_id":"cebpf4jnsgd1na2vs0mg"},{"bike_id":"fca075f8-1ab7-414b-b365-b32b7916d9be","system_id":"levelo_inurba_marseille","lat":43.27321,"lon":5.39069,"is_reserved":false,"is_disabled":false,"rental_uris":{"android":"levelo://app?vid=fca075f8-1ab7-414b-b365-b32b7916d9be","ios":"levelo://app?vid=fca075f8-1ab7-414b-b365-b32b7916d9be"},"vehicle_type_id":"4","last_reported":1745829282,"current_range_meters":14800,"station_id":"ce4bhgp2rcd13ifvqfe0","pricing_plan_id":"cebpf4jnsgd1na2vs0mg"},{"bike_id":"ebbbb21b-1052-4001-8d20-af97fa2ae56c","system_id":"levelo_inurba_marseille","lat":43.29301,"lon":5.37448,"is_reserved":false,"is_disabled":false,"rental_uris":{"android":"levelo://app?vid=ebbbb21b-1052-4001-8d20-af97fa2ae56c","ios":"levelo://app?vid=ebbbb21b-1052-4001-8d20-af97fa2ae56c"},"vehicle_type_id":"4","last_reported":1745829282,"current_range_meters":14800,"station_id":"ce4bgi12rcd13ifvqb70","pricing_plan_id":"cebpf4jnsgd1na2vs0mg"},{"bike_id":"df363c04-c897-45e2-b1be-12b35e1c1443","system_id":"levelo_inurba_marseille","lat":43.33729,"lon":5.39174,"is_reserved":false,"is_disabled":false,"rental_uris":{"android":"levelo://app?vid=df363c04-c897-45e2-b1be-12b35e1c1443","ios":"levelo://app?vid=df363c04-c897-45e2-b1be-12b35e1c1443"},"vehicle_type_id":"4","last_reported":1745829282,"current_range_meters":15200,"station_id":"ce4bhr92rcd13ifvqhsg","pricing_plan_id":"cebpf4jnsgd1na2vs0mg"},{"bike_id":"db9128d4-fa4b-4b3d-b5d8-0462404fa361","system_id":"levelo_inurba_marseille","lat":43.32099,"lon":5.36756,"is_reserved":false,"is_disabled":false,"rental_uris":{"android":"levelo://app?vid=db9128d4-fa4b-4b3d-b5d8-0462404fa361","ios":"levelo://app?vid=db9128d4-fa4b-4b3d-b5d8-0462404fa361"},"vehicle_type_id":"4","last_reported":1745829282,"current_range_meters":15200,"station_id":"ce4bhrh2rcd13ifvqhug","pricing_plan_id":"cebpf4jnsgd1na2vs0mg"},{"bike_id":"3196a838-f978-485b-8efc-2b882b1509ef","system_id":"levelo_inurba_marseille","lat":43.29575,"lon":5.3674,"is_reserved":false,"is_disabled":false,"rental_uris":{"android":"levelo://app?vid=3196a838-f978-485b-8efc-2b882b1509ef","ios":"levelo://app?vid=3196a838-f978-485b-8efc-2b882b1509ef"},"vehicle_type_id":"4","last_reported":1745829282,"current_range_meters":15200,"station_id":"ce4bgph2rcd13ifvqc2g","pricing_plan_id":"cebpf4jnsgd1na2vs0mg"},{"bike_id":"b7e23e3a-d6af-470a-9882-d51f014b0a88","system_id":"levelo_inurba_marseille","lat":43.24057,"lon":5.37763,"is_reserved":false,"is_disabled":false,"rental_uris":{"android":"levelo://app?vid=b7e23e3a-d6af-470a-9882-d51f014b0a88","ios":"levelo://app?vid=b7e23e3a-d6af-470a-9882-d51f014b0a88"},"vehicle_type_id":"4","last_reported":1745829282,"current_range_meters":15200,"station_id":"ce4bhnp2rcd13ifvqgvg","pricing_plan_id":"cebpf4jnsgd1na2vs0mg"},{"bike_id":"53d726c1-e51b-4fc0-bc5a-6dc1a595fa1a","system_id":"levelo_inurba_marseille","lat":43.24047,"lon":5.37755,"is_reserved":false,"is_disabled":false,"rental_uris":{"android":"levelo://app?vid=53d726c1-e51b-4fc0-bc5a-6dc1a595fa1a","ios":"levelo://app?vid=53d726c1-e51b-4fc0-bc5a-6dc1a595fa1a"},"vehicle_type_id":"4","last_reported":1745829282,"current_range_meters":16000,"station_id":"ce4bhnp2rcd13ifvqgvg","pricing_plan_id":"cebpf4jnsgd1na2vs0mg"},{"bike_id":"e39fa082-271c-4612-8335-5047220a30d0","system_id":"levelo_inurba_marseille","lat":43.30782,"lon":5.42701,"is_reserved":false,"is_disabled":false,"rental_uris":{"android":"levelo://app?vid=e39fa082-271c-4612-8335-5047220a30d0","ios":"levelo://app?vid=e39fa082-271c-4612-8335-5047220a30d0"},"vehicle_type_id":"4","last_reported":1745829282,"current_range_meters":16000,"station_id":"ce4bhph2rcd13ifvqheg","pricing_plan_id":"cebpf4jnsgd1na2vs0mg"},{"bike_id":"1ed37c97-aa7f-4318-8fcb-201929e4d410","system_id":"levelo_inurba_marseille","lat":43.30884,"lon":5.36796,"is_reserved":false,"is_disabled":false,"rental_uris":{"android":"levelo://app?vid=1ed37c97-aa7f-4318-8fcb-201929e4d410","ios":"levelo://app?vid=1ed37c97-aa7f-4318-8fcb-201929e4d410"},"vehicle_type_id":"4","last_reported":1745829282,"current_range_meters":16000,"station_id":"ce4bgn92rcd13ifvqbvg","pricing_plan_id":"cebpf4jnsgd1na2vs0mg"},{"bike_id":"66c568d9-e810-46d6-9083-90c057b49842","system_id":"levelo_inurba_marseille","lat":43.30908,"lon":5.36865,"is_reserved":false,"is_disabled":false,"rental_uris":{"android":"levelo://app?vid=66c568d9-e810-46d6-9083-90c057b49842","ios":"levelo://app?vid=66c568d9-e810-46d6-9083-90c057b49842"},"vehicle_type_id":"4","last_reported":1745829282,"current_range_meters":16000,"station_id":"ce4bgn92rcd13ifvqbvg","pricing_plan_id":"cebpf4jnsgd1na2vs0mg"},{"bike_id":"9be74817-799c-4116-9b3e-35355b061a51","system_id":"levelo_inurba_marseille","lat":43.26682,"lon":5.38272,"is_reserved":false,"is_disabled":false,"rental_uris":{"android":"levelo://app?vid=9be74817-799c-4116-9b3e-35355b061a51","ios":"levelo://app?vid=9be74817-799c-4116-9b3e-35355b061a51"},"vehicle_type_id":"4","last_reported":1745829282,"current_range_meters":16000,"station_id":"ce4bhg92rcd13ifvqf90","pricing_plan_id":"cebpf4jnsgd1na2vs0mg"},{"bike_id":"3ec82088-1f02-4acb-ba5f-c328003f0498","system_id":"levelo_inurba_marseille","lat":43.33431,"lon":5.40059,"is_reserved":false,"is_disabled":false,"rental_uris":{"android":"levelo://app?vid=3ec82088-1f02-4acb-ba5f-c328003f0498","ios":"levelo://app?vid=3ec82088-1f02-4acb-ba5f-c328003f0498"},"vehicle_type_id":"4","last_reported":1745829282,"current_range_meters":16400,"station_id":"","pricing_plan_id":"cebpf4jnsgd1na2vs0mg"},{"bike_id":"136a0e33-9d6f-489d-b0ca-8df01e71f4b0","system_id":"levelo_inurba_marseille","lat":43.29259,"lon":5.37606,"is_reserved":false,"is_disabled":false,"rental_uris":{"android":"levelo://app?vid=136a0e33-9d6f-489d-b0ca-8df01e71f4b0","ios":"levelo://app?vid=136a0e33-9d6f-489d-b0ca-8df01e71f4b0"},"vehicle_type_id":"4","last_reported":1745829282,"current_range_meters":16400,"station_id":"ce4bgi12rcd13ifvqb80","pricing_plan_id":"cebpf4jnsgd1na2vs0mg"},{"bike_id":"5f363fb2-65d6-4f54-a7e8-9f0969c18dcf","system_id":"levelo_inurba_marseille","lat":43.30541,"lon":5.36533,"is_reserved":false,"is_disabled":true,"rental_uris":{"android":"levelo://app?vid=5f363fb2-65d6-4f54-a7e8-9f0969c18dcf","ios":"levelo://app?vid=5f363fb2-65d6-4f54-a7e8-9f0969c18dcf"},"vehicle_type_id":"4","last_reported":1745829282,"current_range_meters":16400,"station_id":"ce4bgs12rcd13ifvqcag","pricing_plan_id":"cebpf4jnsgd1na2vs0mg"},{"bike_id":"5d80cec4-cf0d-4b75-87cc-4649871dd5da","system_id":"levelo_inurba_marseille","lat":43.274947,"lon":5.424653,"is_reserved":false,"is_disabled":false,"rental_uris":{"android":"levelo://app?vid=5d80cec4-cf0d-4b75-87cc-4649871dd5da","ios":"levelo://app?vid=5d80cec4-cf0d-4b75-87cc-4649871dd5da"},"vehicle_type_id":"4","last_reported":1745829282,"current_range_meters":16400,"station_id":"ce4bhn92rcd13ifvqgrg","pricing_plan_id":"cebpf4jnsgd1na2vs0mg"},{"bike_id":"b45721df-1911-4bd0-96bb-0c84adb69cfd","system_id":"levelo_inurba_marseille","lat":43.23966,"lon":5.36632,"is_reserved":false,"is_disabled":false,"rental_uris":{"android":"levelo://app?vid=b45721df-1911-4bd0-96bb-0c84adb69cfd","ios":"levelo://app?vid=b45721df-1911-4bd0-96bb-0c84adb69cfd"},"vehicle_type_id":"4","last_reported":1745829282,"current_range_meters":16400,"station_id":"ce4bhi12rcd13ifvqfp0","pricing_plan_id":"cebpf4jnsgd1na2vs0mg"},{"bike_id":"bc68eecc-a012-4907-87f6-e1a0e39427b6","system_id":"levelo_inurba_marseille","lat":43.284637,"lon":5.358839,"is_reserved":false,"is_disabled":false,"rental_uris":{"android":"levelo://app?vid=bc68eecc-a012-4907-87f6-e1a0e39427b6","ios":"levelo://app?vid=bc68eecc-a012-4907-87f6-e1a0e39427b6"},"vehicle_type_id":"4","last_reported":1745829282,"current_range_meters":16400,"station_id":"ce4bhah2rcd13ifvqei0","pricing_plan_id":"cebpf4jnsgd1na2vs0mg"},{"bike_id":"fdd9d905-ea67-4e0c-a688-07fad60f3dec","system_id":"levelo_inurba_marseille","lat":43.3189,"lon":5.40735,"is_reserved":false,"is_disabled":false,"rental_uris":{"android":"levelo://app?vid=fdd9d905-ea67-4e0c-a688-07fad60f3dec","ios":"levelo://app?vid=fdd9d905-ea67-4e0c-a688-07fad60f3dec"},"vehicle_type_id":"4","last_reported":1745829282,"current_range_meters":16400,"station_id":"ce4bhq12rcd13ifvqhig","pricing_plan_id":"cebpf4jnsgd1na2vs0mg"},{"bike_id":"93761894-a058-4bbf-a960-56cc718843fb","system_id":"levelo_inurba_marseille","lat":43.26227,"lon":5.40449,"is_reserved":false,"is_disabled":false,"rental_uris":{"android":"levelo://app?vid=93761894-a058-4bbf-a960-56cc718843fb","ios":"levelo://app?vid=93761894-a058-4bbf-a960-56cc718843fb"},"vehicle_type_id":"4","last_reported":1745829282,"current_range_meters":16400,"station_id":"ce4bhmh2rcd13ifvqgmg","pricing_plan_id":"cebpf4jnsgd1na2vs0mg"},{"bike_id":"d3549153-4ad9-424c-93a1-f9ad9749b225","system_id":"levelo_inurba_marseille","lat":43.29736,"lon":5.3769,"is_reserved":false,"is_disabled":false,"rental_uris":{"android":"levelo://app?vid=d3549153-4ad9-424c-93a1-f9ad9749b225","ios":"levelo://app?vid=d3549153-4ad9-424c-93a1-f9ad9749b225"},"vehicle_type_id":"4","last_reported":1745829282,"current_range_meters":16400,"station_id":"ce4bgkh2rcd13ifvqbl0","pricing_plan_id":"cebpf4jnsgd1na2vs0mg"},{"bike_id":"daa5fb12-4e0b-4bce-a6b1-6719a5e359ca","system_id":"levelo_inurba_marseille","lat":43.23146,"lon":5.43711,"is_reserved":false,"is_disabled":false,"rental_uris":{"android":"levelo://app?vid=daa5fb12-4e0b-4bce-a6b1-6719a5e359ca","ios":"levelo://app?vid=daa5fb12-4e0b-4bce-a6b1-6719a5e359ca"},"vehicle_type_id":"4","last_reported":1745829282,"current_range_meters":16400,"station_id":"ce4bhmp2rcd13ifvqgog","pricing_plan_id":"cebpf4jnsgd1na2vs0mg"},{"bike_id":"a9b58b7e-8ff4-43c1-9da7-472ac5cc0410","system_id":"levelo_inurba_marseille","lat":43.28039,"lon":5.36954,"is_reserved":false,"is_disabled":false,"rental_uris":{"android":"levelo://app?vid=a9b58b7e-8ff4-43c1-9da7-472ac5cc0410","ios":"levelo://app?vid=a9b58b7e-8ff4-43c1-9da7-472ac5cc0410"},"vehicle_type_id":"4","last_reported":1745829282,"current_range_meters":16400,"station_id":"ce4bha12rcd13ifvqef0","pricing_plan_id":"cebpf4jnsgd1na2vs0mg"},{"bike_id":"216e95be-0893-41e4-bf73-4804664c9843","system_id":"levelo_inurba_marseille","lat":43.31495,"lon":5.37306,"is_reserved":false,"is_disabled":false,"rental_uris":{"android":"levelo://app?vid=216e95be-0893-41e4-bf73-4804664c9843","ios":"levelo://app?vid=216e95be-0893-41e4-bf73-4804664c9843"},"vehicle_type_id":"4","last_reported":1745829282,"current_range_meters":16400,"station_id":"ce4bgt12rcd13ifvqcd0","pricing_plan_id":"cebpf4jnsgd1na2vs0mg"},{"bike_id":"b7590a08-55a9-4d9c-837a-9e2e01b06df9","system_id":"levelo_inurba_marseille","lat":43.320467,"lon":5.415363,"is_reserved":false,"is_disabled":false,"rental_uris":{"android":"levelo://app?vid=b7590a08-55a9-4d9c-837a-9e2e01b06df9","ios":"levelo://app?vid=b7590a08-55a9-4d9c-837a-9e2e01b06df9"},"vehicle_type_id":"4","last_reported":1745829282,"current_range_meters":16400,"station_id":"ce4bhq92rcd13ifvqhkg","pricing_plan_id":"cebpf4jnsgd1na2vs0mg"},{"bike_id":"79c2006f-b948-445c-b446-dc563f9e2348","system_id":"levelo_inurba_marseille","lat":43.29197,"lon":5.39298,"is_reserved":false,"is_disabled":true,"rental_uris":{"android":"levelo://app?vid=79c2006f-b948-445c-b446-dc563f9e2348","ios":"levelo://app?vid=79c2006f-b948-445c-b446-dc563f9e2348"},"vehicle_type_id":"4","last_reported":1745829282,"current_range_meters":16800,"station_id":"ce4bh192rcd13ifvqdd0","pricing_plan_id":"cebpf4jnsgd1na2vs0mg"},{"bike_id":"854b6f67-ca9a-45bb-a87f-9accf64bf40e","system_id":"levelo_inurba_marseille","lat":43.27553,"lon":5.38397,"is_reserved":false,"is_disabled":true,"rental_uris":{"android":"levelo://app?vid=854b6f67-ca9a-45bb-a87f-9accf64bf40e","ios":"levelo://app?vid=854b6f67-ca9a-45bb-a87f-9accf64bf40e"},"vehicle_type_id":"4","last_reported":1745829282,"current_range_meters":16800,"station_id":"ce4bhh92rcd13ifvqfi0","pricing_plan_id":"cebpf4jnsgd1na2vs0mg"},{"bike_id":"aefcea9a-3058-4372-ae31-a28be9c5a48f","system_id":"levelo_inurba_marseille","lat":43.23155,"lon":5.43705,"is_reserved":false,"is_disabled":false,"rental_uris":{"android":"levelo://app?vid=aefcea9a-3058-4372-ae31-a28be9c5a48f","ios":"levelo://app?vid=aefcea9a-3058-4372-ae31-a28be9c5a48f"},"vehicle_type_id":"4","last_reported":1745829282,"current_range_meters":16800,"station_id":"ce4bhmp2rcd13ifvqgog","pricing_plan_id":"cebpf4jnsgd1na2vs0mg"},{"bike_id":"9275afeb-620b-4a3c-83d1-31bc14709d93","system_id":"levelo_inurba_marseille","lat":43.28842,"lon":5.35862,"is_reserved":false,"is_disabled":true,"rental_uris":{"android":"levelo://app?vid=9275afeb-620b-4a3c-83d1-31bc14709d93","ios":"levelo://app?vid=9275afeb-620b-4a3c-83d1-31bc14709d93"},"vehicle_type_id":"4","last_reported":1745829282,"current_range_meters":16800,"station_id":"ce4bhb12rcd13ifvqem0","pricing_plan_id":"cebpf4jnsgd1na2vs0mg"},{"bike_id":"b510b91a-9f74-4d8c-a1f0-97f261cf0db7","system_id":"levelo_inurba_marseille","lat":43.2862,"lon":5.35109,"is_reserved":false,"is_disabled":false,"rental_uris":{"android":"levelo://app?vid=b510b91a-9f74-4d8c-a1f0-97f261cf0db7","ios":"levelo://app?vid=b510b91a-9f74-4d8c-a1f0-97f261cf0db7"},"vehicle_type_id":"4","last_reported":1745829282,"current_range_meters":16800,"station_id":"ce4bhch2rcd13ifvqeug","pricing_plan_id":"cebpf4jnsgd1na2vs0mg"},{"bike_id":"2be395ac-0c3d-4e66-be21-924838ea3220","system_id":"levelo_inurba_marseille","lat":43.2871,"lon":5.39997,"is_reserved":false,"is_disabled":false,"rental_uris":{"android":"levelo://app?vid=2be395ac-0c3d-4e66-be21-924838ea3220","ios":"levelo://app?vid=2be395ac-0c3d-4e66-be21-924838ea3220"},"vehicle_type_id":"4","last_reported":1745829282,"current_range_meters":16800,"station_id":"ce4bho92rcd13ifvqh3g","pricing_plan_id":"cebpf4jnsgd1na2vs0mg"},{"bike_id":"93b5fb75-0714-49b9-ba10-c5d4bd11d5dd","system_id":"levelo_inurba_marseille","lat":43.31214,"lon":5.36878,"is_reserved":false,"is_disabled":false,"rental_uris":{"android":"levelo://app?vid=93b5fb75-0714-49b9-ba10-c5d4bd11d5dd","ios":"levelo://app?vid=93b5fb75-0714-49b9-ba10-c5d4bd11d5dd"},"vehicle_type_id":"4","last_reported":1745829282,"current_range_meters":17200,"station_id":"ce4bgl92rcd13ifvqbq0","pricing_plan_id":"cebpf4jnsgd1na2vs0mg"},{"bike_id":"1ee07aab-6dfc-418c-b78d-0e2eb7042865","system_id":"levelo_inurba_marseille","lat":43.31354,"lon":5.36693,"is_reserved":false,"is_disabled":false,"rental_uris":{"android":"levelo://app?vid=1ee07aab-6dfc-418c-b78d-0e2eb7042865","ios":"levelo://app?vid=1ee07aab-6dfc-418c-b78d-0e2eb7042865"},"vehicle_type_id":"4","last_reported":1745829282,"current_range_meters":17200,"station_id":"ce4bgr92rcd13ifvqc6g","pricing_plan_id":"cebpf4jnsgd1na2vs0mg"},{"bike_id":"0292d40d-390a-445d-aff2-ec0181a3ae3a","system_id":"levelo_inurba_marseille","lat":43.240762,"lon":5.377417,"is_reserved":false,"is_disabled":false,"rental_uris":{"android":"levelo://app?vid=0292d40d-390a-445d-aff2-ec0181a3ae3a","ios":"levelo://app?vid=0292d40d-390a-445d-aff2-ec0181a3ae3a"},"vehicle_type_id":"4","last_reported":1745829282,"current_range_meters":17200,"station_id":"ce4bhnp2rcd13ifvqgvg","pricing_plan_id":"cebpf4jnsgd1na2vs0mg"},{"bike_id":"b11f2ff7-39bb-4454-9748-fbf0b3feda8d","system_id":"levelo_inurba_marseille","lat":43.29258,"lon":5.37613,"is_reserved":false,"is_disabled":false,"rental_uris":{"android":"levelo://app?vid=b11f2ff7-39bb-4454-9748-fbf0b3feda8d","ios":"levelo://app?vid=b11f2ff7-39bb-4454-9748-fbf0b3feda8d"},"vehicle_type_id":"4","last_reported":1745829282,"current_range_meters":17200,"station_id":"ce4bgi12rcd13ifvqb80","pricing_plan_id":"cebpf4jnsgd1na2vs0mg"},{"bike_id":"e9b62f1f-ea0a-4199-83d0-e954fc1ce514","system_id":"levelo_inurba_marseille","lat":43.29721,"lon":5.3795,"is_reserved":false,"is_disabled":false,"rental_uris":{"android":"levelo://app?vid=e9b62f1f-ea0a-4199-83d0-e954fc1ce514","ios":"levelo://app?vid=e9b62f1f-ea0a-4199-83d0-e954fc1ce514"},"vehicle_type_id":"4","last_reported":1745829282,"current_range_meters":17200,"station_id":"","pricing_plan_id":"cebpf4jnsgd1na2vs0mg"},{"bike_id":"2420ad39-a5b7-4ea3-b775-69cf92e1a47f","system_id":"levelo_inurba_marseille","lat":43.25918,"lon":5.40876,"is_reserved":false,"is_disabled":false,"rental_uris":{"android":"levelo://app?vid=2420ad39-a5b7-4ea3-b775-69cf92e1a47f","ios":"levelo://app?vid=2420ad39-a5b7-4ea3-b775-69cf92e1a47f"},"vehicle_type_id":"4","last_reported":1745829282,"current_range_meters":17200,"station_id":"ce4bhm92rcd13ifvqglg","pricing_plan_id":"cebpf4jnsgd1na2vs0mg"},{"bike_id":"8ed43a6e-a317-49b1-9eb4-5625f8c6c959","system_id":"levelo_inurba_marseille","lat":43.24076,"lon":5.37708,"is_reserved":false,"is_disabled":false,"rental_uris":{"android":"levelo://app?vid=8ed43a6e-a317-49b1-9eb4-5625f8c6c959","ios":"levelo://app?vid=8ed43a6e-a317-49b1-9eb4-5625f8c6c959"},"vehicle_type_id":"4","last_reported":1745829282,"current_range_meters":17200,"station_id":"ce4bhnp2rcd13ifvqgvg","pricing_plan_id":"cebpf4jnsgd1na2vs0mg"},{"bike_id":"d0084b40-0977-469b-a971-471d5dd9a078","system_id":"levelo_inurba_marseille","lat":43.25901,"lon":5.40899,"is_reserved":false,"is_disabled":false,"rental_uris":{"android":"levelo://app?vid=d0084b40-0977-469b-a971-471d5dd9a078","ios":"levelo://app?vid=d0084b40-0977-469b-a971-471d5dd9a078"},"vehicle_type_id":"4","last_reported":1745829282,"current_range_meters":17600,"station_id":"ce4bhm92rcd13ifvqglg","pricing_plan_id":"cebpf4jnsgd1na2vs0mg"},{"bike_id":"5878cc40-616d-495d-81e7-c7d92b216f7a","system_id":"levelo_inurba_marseille","lat":43.32539,"lon":5.41449,"is_reserved":false,"is_disabled":false,"rental_uris":{"android":"levelo://app?vid=5878cc40-616d-495d-81e7-c7d92b216f7a","ios":"levelo://app?vid=5878cc40-616d-495d-81e7-c7d92b216f7a"},"vehicle_type_id":"4","last_reported":1745829282,"current_range_meters":17600,"station_id":"ce4bhq12rcd13ifvqhhg","pricing_plan_id":"cebpf4jnsgd1na2vs0mg"},{"bike_id":"82df4364-549a-4a10-a721-c76faddd90e5","system_id":"levelo_inurba_marseille","lat":43.27964,"lon":5.38749,"is_reserved":false,"is_disabled":false,"rental_uris":{"android":"levelo://app?vid=82df4364-549a-4a10-a721-c76faddd90e5","ios":"levelo://app?vid=82df4364-549a-4a10-a721-c76faddd90e5"},"vehicle_type_id":"4","last_reported":1745829282,"current_range_meters":17600,"station_id":"ce4bhg12rcd13ifvqf80","pricing_plan_id":"cebpf4jnsgd1na2vs0mg"},{"bike_id":"4bf08038-f5c2-4f98-a256-2270055407f1","system_id":"levelo_inurba_marseille","lat":43.27504,"lon":5.42435,"is_reserved":false,"is_disabled":false,"rental_uris":{"android":"levelo://app?vid=4bf08038-f5c2-4f98-a256-2270055407f1","ios":"levelo://app?vid=4bf08038-f5c2-4f98-a256-2270055407f1"},"vehicle_type_id":"4","last_reported":1745829282,"current_range_meters":17600,"station_id":"ce4bhn92rcd13ifvqgrg","pricing_plan_id":"cebpf4jnsgd1na2vs0mg"},{"bike_id":"18b22a52-8a89-4304-b51a-c4a441f93c6a","system_id":"levelo_inurba_marseille","lat":43.31314,"lon":5.3674,"is_reserved":false,"is_disabled":false,"rental_uris":{"android":"levelo://app?vid=18b22a52-8a89-4304-b51a-c4a441f93c6a","ios":"levelo://app?vid=18b22a52-8a89-4304-b51a-c4a441f93c6a"},"vehicle_type_id":"4","last_reported":1745829282,"current_range_meters":18000,"station_id":"ce4bgr92rcd13ifvqc6g","pricing_plan_id":"cebpf4jnsgd1na2vs0mg"},{"bike_id":"e2db68dd-f47f-4e15-8fe0-c97738bddb69","system_id":"levelo_inurba_marseille","lat":43.2926,"lon":5.36845,"is_reserved":false,"is_disabled":true,"rental_uris":{"android":"levelo://app?vid=e2db68dd-f47f-4e15-8fe0-c97738bddb69","ios":"levelo://app?vid=e2db68dd-f47f-4e15-8fe0-c97738bddb69"},"vehicle_type_id":"4","last_reported":1745829282,"current_range_meters":18000,"station_id":"ce4bhbp2rcd13ifvqesg","pricing_plan_id":"cebpf4jnsgd1na2vs0mg"},{"bike_id":"425564c4-f883-4f68-876f-947748498d1f","system_id":"levelo_inurba_marseille","lat":43.269326,"lon":5.402699,"is_reserved":false,"is_disabled":true,"rental_uris":{"android":"levelo://app?vid=425564c4-f883-4f68-876f-947748498d1f","ios":"levelo://app?vid=425564c4-f883-4f68-876f-947748498d1f"},"vehicle_type_id":"4","last_reported":1745829282,"current_range_meters":18000,"station_id":"cjm6bp8fraef2m0cb0m0","pricing_plan_id":"cebpf4jnsgd1na2vs0mg"},{"bike_id":"5a044894-5020-4a75-8360-b097818511e7","system_id":"levelo_inurba_marseille","lat":43.32548,"lon":5.414368,"is_reserved":false,"is_disabled":false,"rental_uris":{"android":"levelo://app?vid=5a044894-5020-4a75-8360-b097818511e7","ios":"levelo://app?vid=5a044894-5020-4a75-8360-b097818511e7"},"vehicle_type_id":"4","last_reported":1745829282,"current_range_meters":18000,"station_id":"ce4bhq12rcd13ifvqhhg","pricing_plan_id":"cebpf4jnsgd1na2vs0mg"},{"bike_id":"8cfb1f40-6528-471c-9166-5e70757b73be","system_id":"levelo_inurba_marseille","lat":43.26933,"lon":5.38615,"is_reserved":false,"is_disabled":false,"rental_uris":{"android":"levelo://app?vid=8cfb1f40-6528-471c-9166-5e70757b73be","ios":"levelo://app?vid=8cfb1f40-6528-471c-9166-5e70757b73be"},"vehicle_type_id":"4","last_reported":1745829282,"current_range_meters":18000,"station_id":"ce4bhh92rcd13ifvqfh0","pricing_plan_id":"cebpf4jnsgd1na2vs0mg"},{"bike_id":"4627362f-be5d-4331-b0fa-72585165c931","system_id":"levelo_inurba_marseille","lat":43.24076,"lon":5.37754,"is_reserved":false,"is_disabled":false,"rental_uris":{"android":"levelo://app?vid=4627362f-be5d-4331-b0fa-72585165c931","ios":"levelo://app?vid=4627362f-be5d-4331-b0fa-72585165c931"},"vehicle_type_id":"4","last_reported":1745829282,"current_range_meters":18000,"station_id":"ce4bhl92rcd13ifvqghg","pricing_plan_id":"cebpf4jnsgd1na2vs0mg"},{"bike_id":"9cbcc298-7276-4faa-a3f3-5f54c8726ff4","system_id":"levelo_inurba_marseille","lat":43.24524,"lon":5.41209,"is_reserved":false,"is_disabled":false,"rental_uris":{"android":"levelo://app?vid=9cbcc298-7276-4faa-a3f3-5f54c8726ff4","ios":"levelo://app?vid=9cbcc298-7276-4faa-a3f3-5f54c8726ff4"},"vehicle_type_id":"4","last_reported":1745829282,"current_range_meters":18800,"station_id":"","pricing_plan_id":"cebpf4jnsgd1na2vs0mg"},{"bike_id":"2e95688e-dce1-46fb-aafa-e90ee8fb43ec","system_id":"levelo_inurba_marseille","lat":43.23143,"lon":5.43732,"is_reserved":false,"is_disabled":false,"rental_uris":{"android":"levelo://app?vid=2e95688e-dce1-46fb-aafa-e90ee8fb43ec","ios":"levelo://app?vid=2e95688e-dce1-46fb-aafa-e90ee8fb43ec"},"vehicle_type_id":"4","last_reported":1745829282,"current_range_meters":18800,"station_id":"ce4bhmp2rcd13ifvqgog","pricing_plan_id":"cebpf4jnsgd1na2vs0mg"},{"bike_id":"9d88c5b4-4ead-4d6c-941e-ef004dd87938","system_id":"levelo_inurba_marseille","lat":43.27495,"lon":5.4246,"is_reserved":false,"is_disabled":false,"rental_uris":{"android":"levelo://app?vid=9d88c5b4-4ead-4d6c-941e-ef004dd87938","ios":"levelo://app?vid=9d88c5b4-4ead-4d6c-941e-ef004dd87938"},"vehicle_type_id":"4","last_reported":1745829282,"current_range_meters":18800,"station_id":"ce4bhn92rcd13ifvqgrg","pricing_plan_id":"cebpf4jnsgd1na2vs0mg"},{"bike_id":"a851153d-83fb-47fe-bfb1-14c86161322f","system_id":"levelo_inurba_marseille","lat":43.25936,"lon":5.40896,"is_reserved":false,"is_disabled":false,"rental_uris":{"android":"levelo://app?vid=a851153d-83fb-47fe-bfb1-14c86161322f","ios":"levelo://app?vid=a851153d-83fb-47fe-bfb1-14c86161322f"},"vehicle_type_id":"4","last_reported":1745829282,"current_range_meters":18800,"station_id":"ce4bhm92rcd13ifvqglg","pricing_plan_id":"cebpf4jnsgd1na2vs0mg"},{"bike_id":"406d7795-4188-429e-aaff-5816755cbb94","system_id":"levelo_inurba_marseille","lat":43.29357,"lon":5.37911,"is_reserved":false,"is_disabled":true,"rental_uris":{"android":"levelo://app?vid=406d7795-4188-429e-aaff-5816755cbb94","ios":"levelo://app?vid=406d7795-4188-429e-aaff-5816755cbb94"},"vehicle_type_id":"4","last_reported":1745829282,"current_range_meters":18800,"station_id":"","pricing_plan_id":"cebpf4jnsgd1na2vs0mg"},{"bike_id":"d8b9b350-6636-4922-af94-8fbc6798af45","system_id":"levelo_inurba_marseille","lat":43.23947,"lon":5.36657,"is_reserved":false,"is_disabled":false,"rental_uris":{"android":"levelo://app?vid=d8b9b350-6636-4922-af94-8fbc6798af45","ios":"levelo://app?vid=d8b9b350-6636-4922-af94-8fbc6798af45"},"vehicle_type_id":"4","last_reported":1745829282,"current_range_meters":18800,"station_id":"ce4bhi12rcd13ifvqfp0","pricing_plan_id":"cebpf4jnsgd1na2vs0mg"},{"bike_id":"f3ba4d51-aab7-42f8-97f0-298fa1958d55","system_id":"levelo_inurba_marseille","lat":43.24061,"lon":5.37756,"is_reserved":false,"is_disabled":false,"rental_uris":{"android":"levelo://app?vid=f3ba4d51-aab7-42f8-97f0-298fa1958d55","ios":"levelo://app?vid=f3ba4d51-aab7-42f8-97f0-298fa1958d55"},"vehicle_type_id":"4","last_reported":1745829282,"current_range_meters":18800,"station_id":"ce4bhnp2rcd13ifvqgvg","pricing_plan_id":"cebpf4jnsgd1na2vs0mg"},{"bike_id":"a3ff14dc-bef9-4552-9cfb-972dac4dd064","system_id":"levelo_inurba_marseille","lat":43.336,"lon":5.41018,"is_reserved":false,"is_disabled":false,"rental_uris":{"android":"levelo://app?vid=a3ff14dc-bef9-4552-9cfb-972dac4dd064","ios":"levelo://app?vid=a3ff14dc-bef9-4552-9cfb-972dac4dd064"},"vehicle_type_id":"4","last_reported":1745829282,"current_range_meters":19200,"station_id":"ce4bhqh2rcd13ifvqhmg","pricing_plan_id":"cebpf4jnsgd1na2vs0mg"},{"bike_id":"f977d8fc-a486-45df-8727-671d07539b11","system_id":"levelo_inurba_marseille","lat":43.26215,"lon":5.37911,"is_reserved":false,"is_disabled":false,"rental_uris":{"android":"levelo://app?vid=f977d8fc-a486-45df-8727-671d07539b11","ios":"levelo://app?vid=f977d8fc-a486-45df-8727-671d07539b11"},"vehicle_type_id":"4","last_reported":1745829282,"current_range_meters":19200,"station_id":"ce4bhjp2rcd13ifvqg90","pricing_plan_id":"cebpf4jnsgd1na2vs0mg"},{"bike_id":"dde3adb5-49db-409f-8f91-eb853ce9f70c","system_id":"levelo_inurba_marseille","lat":43.24176,"lon":5.36399,"is_reserved":false,"is_disabled":false,"rental_uris":{"android":"levelo://app?vid=dde3adb5-49db-409f-8f91-eb853ce9f70c","ios":"levelo://app?vid=dde3adb5-49db-409f-8f91-eb853ce9f70c"},"vehicle_type_id":"4","last_reported":1745829282,"current_range_meters":19200,"station_id":"cpo36qri1sfpv3e86is0","pricing_plan_id":"cebpf4jnsgd1na2vs0mg"},{"bike_id":"be96cf12-1bfe-4b12-b9a9-b4a285b05aae","system_id":"levelo_inurba_marseille","lat":43.27498,"lon":5.42432,"is_reserved":false,"is_disabled":true,"rental_uris":{"android":"levelo://app?vid=be96cf12-1bfe-4b12-b9a9-b4a285b05aae","ios":"levelo://app?vid=be96cf12-1bfe-4b12-b9a9-b4a285b05aae"},"vehicle_type_id":"4","last_reported":1745829282,"current_range_meters":19200,"station_id":"ce4bhn92rcd13ifvqgrg","pricing_plan_id":"cebpf4jnsgd1na2vs0mg"},{"bike_id":"504af8b5-2522-4176-8201-9c37815f0fa0","system_id":"levelo_inurba_marseille","lat":43.23983,"lon":5.36607,"is_reserved":false,"is_disabled":false,"rental_uris":{"android":"levelo://app?vid=504af8b5-2522-4176-8201-9c37815f0fa0","ios":"levelo://app?vid=504af8b5-2522-4176-8201-9c37815f0fa0"},"vehicle_type_id":"4","last_reported":1745829282,"current_range_meters":19600,"station_id":"ce4bhi12rcd13ifvqfp0","pricing_plan_id":"cebpf4jnsgd1na2vs0mg"},{"bike_id":"4cddd592-ee16-43af-8079-1715941b3eb9","system_id":"levelo_inurba_marseille","lat":43.28266,"lon":5.35057,"is_reserved":false,"is_disabled":false,"rental_uris":{"android":"levelo://app?vid=4cddd592-ee16-43af-8079-1715941b3eb9","ios":"levelo://app?vid=4cddd592-ee16-43af-8079-1715941b3eb9"},"vehicle_type_id":"4","last_reported":1745829282,"current_range_meters":19600,"station_id":"ce4bhbp2rcd13ifvqerg","pricing_plan_id":"cebpf4jnsgd1na2vs0mg"},{"bike_id":"6af1f324-dbb6-4dfa-90f3-39eac205b0a5","system_id":"levelo_inurba_marseille","lat":43.305467,"lon":5.365601,"is_reserved":false,"is_disabled":false,"rental_uris":{"android":"levelo://app?vid=6af1f324-dbb6-4dfa-90f3-39eac205b0a5","ios":"levelo://app?vid=6af1f324-dbb6-4dfa-90f3-39eac205b0a5"},"vehicle_type_id":"4","last_reported":1745829282,"current_range_meters":19600,"station_id":"ce4bgs12rcd13ifvqcag","pricing_plan_id":"cebpf4jnsgd1na2vs0mg"},{"bike_id":"327bb468-f0c1-43fa-a1ab-a22556483537","system_id":"levelo_inurba_marseille","lat":43.24072,"lon":5.37758,"is_reserved":false,"is_disabled":false,"rental_uris":{"android":"levelo://app?vid=327bb468-f0c1-43fa-a1ab-a22556483537","ios":"levelo://app?vid=327bb468-f0c1-43fa-a1ab-a22556483537"},"vehicle_type_id":"4","last_reported":1745829282,"current_range_meters":19600,"station_id":"ce4bhnp2rcd13ifvqgvg","pricing_plan_id":"cebpf4jnsgd1na2vs0mg"},{"bike_id":"e3638847-3a88-42f7-8abf-02858230aef5","system_id":"levelo_inurba_marseille","lat":43.3138,"lon":5.36711,"is_reserved":false,"is_disabled":false,"rental_uris":{"android":"levelo://app?vid=e3638847-3a88-42f7-8abf-02858230aef5","ios":"levelo://app?vid=e3638847-3a88-42f7-8abf-02858230aef5"},"vehicle_type_id":"4","last_reported":1745829282,"current_range_meters":19600,"station_id":"ce4bgr92rcd13ifvqc6g","pricing_plan_id":"cebpf4jnsgd1na2vs0mg"},{"bike_id":"2d7b50c2-e414-4e82-82a2-7035113690ad","system_id":"levelo_inurba_marseille","lat":43.3149,"lon":5.37263,"is_reserved":false,"is_disabled":false,"rental_uris":{"android":"levelo://app?vid=2d7b50c2-e414-4e82-82a2-7035113690ad","ios":"levelo://app?vid=2d7b50c2-e414-4e82-82a2-7035113690ad"},"vehicle_type_id":"4","last_reported":1745829282,"current_range_meters":19600,"station_id":"ce4bgt12rcd13ifvqcd0","pricing_plan_id":"cebpf4jnsgd1na2vs0mg"},{"bike_id":"ece40b34-8a42-4f6a-a9b9-326683d5ced3","system_id":"levelo_inurba_marseille","lat":43.265403,"lon":5.390482,"is_reserved":false,"is_disabled":false,"rental_uris":{"android":"levelo://app?vid=ece40b34-8a42-4f6a-a9b9-326683d5ced3","ios":"levelo://app?vid=ece40b34-8a42-4f6a-a9b9-326683d5ced3"},"vehicle_type_id":"4","last_reported":1745829282,"current_range_meters":19600,"station_id":"ce4bhe12rcd13ifvqf30","pricing_plan_id":"cebpf4jnsgd1na2vs0mg"},{"bike_id":"5d495411-3ee7-4391-8330-345e04f42bd5","system_id":"levelo_inurba_marseille","lat":43.29291,"lon":5.36773,"is_reserved":false,"is_disabled":true,"rental_uris":{"android":"levelo://app?vid=5d495411-3ee7-4391-8330-345e04f42bd5","ios":"levelo://app?vid=5d495411-3ee7-4391-8330-345e04f42bd5"},"vehicle_type_id":"4","last_reported":1745829282,"current_range_meters":19600,"station_id":"ce4bhbp2rcd13ifvqesg","pricing_plan_id":"cebpf4jnsgd1na2vs0mg"},{"bike_id":"619d1882-449a-485e-b665-e6a0afc19c69","system_id":"levelo_inurba_marseille","lat":43.28615,"lon":5.351,"is_reserved":false,"is_disabled":false,"rental_uris":{"android":"levelo://app?vid=619d1882-449a-485e-b665-e6a0afc19c69","ios":"levelo://app?vid=619d1882-449a-485e-b665-e6a0afc19c69"},"vehicle_type_id":"4","last_reported":1745829282,"current_range_meters":20000,"station_id":"ce4bhch2rcd13ifvqeug","pricing_plan_id":"cebpf4jnsgd1na2vs0mg"},{"bike_id":"9cd01b6d-8af5-4b1e-aefa-806516dc0014","system_id":"levelo_inurba_marseille","lat":43.31236,"lon":5.3686,"is_reserved":false,"is_disabled":false,"rental_uris":{"android":"levelo://app?vid=9cd01b6d-8af5-4b1e-aefa-806516dc0014","ios":"levelo://app?vid=9cd01b6d-8af5-4b1e-aefa-806516dc0014"},"vehicle_type_id":"4","last_reported":1745829282,"current_range_meters":20000,"station_id":"ce4bgl92rcd13ifvqbq0","pricing_plan_id":"cebpf4jnsgd1na2vs0mg"},{"bike_id":"0bfd9959-4026-41ce-a909-1b8c868a4238","system_id":"levelo_inurba_marseille","lat":43.33605,"lon":5.41032,"is_reserved":false,"is_disabled":false,"rental_uris":{"android":"levelo://app?vid=0bfd9959-4026-41ce-a909-1b8c868a4238","ios":"levelo://app?vid=0bfd9959-4026-41ce-a909-1b8c868a4238"},"vehicle_type_id":"4","last_reported":1745829282,"current_range_meters":20000,"station_id":"ce4bhqh2rcd13ifvqhmg","pricing_plan_id":"cebpf4jnsgd1na2vs0mg"},{"bike_id":"128ac9a8-8215-4975-996b-8ce4ff2f43b9","system_id":"levelo_inurba_marseille","lat":43.298987,"lon":5.436573,"is_reserved":false,"is_disabled":false,"rental_uris":{"android":"levelo://app?vid=128ac9a8-8215-4975-996b-8ce4ff2f43b9","ios":"levelo://app?vid=128ac9a8-8215-4975-996b-8ce4ff2f43b9"},"vehicle_type_id":"4","last_reported":1745829282,"current_range_meters":20000,"station_id":"ce4bhpp2rcd13ifvqhfg","pricing_plan_id":"cebpf4jnsgd1na2vs0mg"},{"bike_id":"918850ac-84ea-4b60-841c-42b24e32b76e","system_id":"levelo_inurba_marseille","lat":43.33023,"lon":5.39037,"is_reserved":false,"is_disabled":false,"rental_uris":{"android":"levelo://app?vid=918850ac-84ea-4b60-841c-42b24e32b76e","ios":"levelo://app?vid=918850ac-84ea-4b60-841c-42b24e32b76e"},"vehicle_type_id":"4","last_reported":1745829282,"current_range_meters":20000,"station_id":"ce4bhr92rcd13ifvqhrg","pricing_plan_id":"cebpf4jnsgd1na2vs0mg"},{"bike_id":"a7a5c59b-8fdc-4ceb-a16c-2fd89466328d","system_id":"levelo_inurba_marseille","lat":43.321065,"lon":5.367834,"is_reserved":false,"is_disabled":false,"rental_uris":{"android":"levelo://app?vid=a7a5c59b-8fdc-4ceb-a16c-2fd89466328d","ios":"levelo://app?vid=a7a5c59b-8fdc-4ceb-a16c-2fd89466328d"},"vehicle_type_id":"4","last_reported":1745829282,"current_range_meters":20000,"station_id":"ce4bhrh2rcd13ifvqhug","pricing_plan_id":"cebpf4jnsgd1na2vs0mg"},{"bike_id":"ba76d557-fa2e-4b87-8b01-15290e7fcd7b","system_id":"levelo_inurba_marseille","lat":43.33602,"lon":5.41032,"is_reserved":false,"is_disabled":false,"rental_uris":{"android":"levelo://app?vid=ba76d557-fa2e-4b87-8b01-15290e7fcd7b","ios":"levelo://app?vid=ba76d557-fa2e-4b87-8b01-15290e7fcd7b"},"vehicle_type_id":"4","last_reported":1745829282,"current_range_meters":20000,"station_id":"ce4bhqh2rcd13ifvqhmg","pricing_plan_id":"cebpf4jnsgd1na2vs0mg"},{"bike_id":"0ad8ad1b-aba1-416e-b852-bde54b01f61f","system_id":"levelo_inurba_marseille","lat":43.29571,"lon":5.39966,"is_reserved":false,"is_disabled":false,"rental_uris":{"android":"levelo://app?vid=0ad8ad1b-aba1-416e-b852-bde54b01f61f","ios":"levelo://app?vid=0ad8ad1b-aba1-416e-b852-bde54b01f61f"},"vehicle_type_id":"4","last_reported":1745829282,"current_range_meters":20400,"station_id":"ce4bh312rcd13ifvqdj0","pricing_plan_id":"cebpf4jnsgd1na2vs0mg"},{"bike_id":"68666489-e1df-4e5c-a796-6c912255d073","system_id":"levelo_inurba_marseille","lat":43.30547,"lon":5.3672,"is_reserved":false,"is_disabled":false,"rental_uris":{"android":"levelo://app?vid=68666489-e1df-4e5c-a796-6c912255d073","ios":"levelo://app?vid=68666489-e1df-4e5c-a796-6c912255d073"},"vehicle_type_id":"4","last_reported":1745829282,"current_range_meters":20400,"station_id":"ce4bgrp2rcd13ifvqc9g","pricing_plan_id":"cebpf4jnsgd1na2vs0mg"},{"bike_id":"9e724425-100b-414d-82c8-b62ced2f8a95","system_id":"levelo_inurba_marseille","lat":43.27626,"lon":5.42217,"is_reserved":false,"is_disabled":false,"rental_uris":{"android":"levelo://app?vid=9e724425-100b-414d-82c8-b62ced2f8a95","ios":"levelo://app?vid=9e724425-100b-414d-82c8-b62ced2f8a95"},"vehicle_type_id":"4","last_reported":1745829282,"current_range_meters":20400,"station_id":"","pricing_plan_id":"cebpf4jnsgd1na2vs0mg"},{"bike_id":"96b10e7f-7f2a-4dc7-93ad-eab869d5b4da","system_id":"levelo_inurba_marseille","lat":43.27315,"lon":5.39069,"is_reserved":false,"is_disabled":false,"rental_uris":{"android":"levelo://app?vid=96b10e7f-7f2a-4dc7-93ad-eab869d5b4da","ios":"levelo://app?vid=96b10e7f-7f2a-4dc7-93ad-eab869d5b4da"},"vehicle_type_id":"4","last_reported":1745829282,"current_range_meters":20400,"station_id":"ce4bhgp2rcd13ifvqfe0","pricing_plan_id":"cebpf4jnsgd1na2vs0mg"},{"bike_id":"b5482998-a5d9-47b1-9027-9150138fc049","system_id":"levelo_inurba_marseille","lat":43.29258,"lon":5.36028,"is_reserved":false,"is_disabled":true,"rental_uris":{"android":"levelo://app?vid=b5482998-a5d9-47b1-9027-9150138fc049","ios":"levelo://app?vid=b5482998-a5d9-47b1-9027-9150138fc049"},"vehicle_type_id":"4","last_reported":1745829282,"current_range_meters":20400,"station_id":"ce4bhbh2rcd13ifvqeqg","pricing_plan_id":"cebpf4jnsgd1na2vs0mg"},{"bike_id":"0986d9ea-bdbc-42e6-8091-d489543d461a","system_id":"levelo_inurba_marseille","lat":43.30906,"lon":5.36854,"is_reserved":false,"is_disabled":false,"rental_uris":{"android":"levelo://app?vid=0986d9ea-bdbc-42e6-8091-d489543d461a","ios":"levelo://app?vid=0986d9ea-bdbc-42e6-8091-d489543d461a"},"vehicle_type_id":"4","last_reported":1745829282,"current_range_meters":20800,"station_id":"ce4bgn92rcd13ifvqbvg","pricing_plan_id":"cebpf4jnsgd1na2vs0mg"},{"bike_id":"8e7df8c6-6dfb-43cc-9fa5-8132878ade6d","system_id":"levelo_inurba_marseille","lat":43.33603,"lon":5.40993,"is_reserved":false,"is_disabled":false,"rental_uris":{"android":"levelo://app?vid=8e7df8c6-6dfb-43cc-9fa5-8132878ade6d","ios":"levelo://app?vid=8e7df8c6-6dfb-43cc-9fa5-8132878ade6d"},"vehicle_type_id":"4","last_reported":1745829282,"current_range_meters":20800,"station_id":"ce4bhqh2rcd13ifvqhmg","pricing_plan_id":"cebpf4jnsgd1na2vs0mg"},{"bike_id":"c28539a9-a367-46e1-8226-70538eea51ef","system_id":"levelo_inurba_marseille","lat":43.29274,"lon":5.4011,"is_reserved":false,"is_disabled":false,"rental_uris":{"android":"levelo://app?vid=c28539a9-a367-46e1-8226-70538eea51ef","ios":"levelo://app?vid=c28539a9-a367-46e1-8226-70538eea51ef"},"vehicle_type_id":"4","last_reported":1745829282,"current_range_meters":20800,"station_id":"ce4bh312rcd13ifvqdk0","pricing_plan_id":"cebpf4jnsgd1na2vs0mg"},{"bike_id":"161eaa0f-2b10-4edd-9e78-08e77ccb31bd","system_id":"levelo_inurba_marseille","lat":43.30156,"lon":5.374214,"is_reserved":false,"is_disabled":true,"rental_uris":{"android":"levelo://app?vid=161eaa0f-2b10-4edd-9e78-08e77ccb31bd","ios":"levelo://app?vid=161eaa0f-2b10-4edd-9e78-08e77ccb31bd"},"vehicle_type_id":"4","last_reported":1745829282,"current_range_meters":20800,"station_id":"","pricing_plan_id":"cebpf4jnsgd1na2vs0mg"},{"bike_id":"2b077e0b-945a-4b8e-9e51-8b16fd0ed4dc","system_id":"levelo_inurba_marseille","lat":43.28943,"lon":5.36628,"is_reserved":false,"is_disabled":true,"rental_uris":{"android":"levelo://app?vid=2b077e0b-945a-4b8e-9e51-8b16fd0ed4dc","ios":"levelo://app?vid=2b077e0b-945a-4b8e-9e51-8b16fd0ed4dc"},"vehicle_type_id":"4","last_reported":1745829282,"current_range_meters":20800,"station_id":"ce4bhap2rcd13ifvqek0","pricing_plan_id":"cebpf4jnsgd1na2vs0mg"},{"bike_id":"2c65f29e-75aa-4c24-8b9b-cabfbeaf732a","system_id":"levelo_inurba_marseille","lat":43.25084,"lon":5.39527,"is_reserved":false,"is_disabled":false,"rental_uris":{"android":"levelo://app?vid=2c65f29e-75aa-4c24-8b9b-cabfbeaf732a","ios":"levelo://app?vid=2c65f29e-75aa-4c24-8b9b-cabfbeaf732a"},"vehicle_type_id":"4","last_reported":1745829282,"current_range_meters":20800,"station_id":"ce4bhm12rcd13ifvqgkg","pricing_plan_id":"cebpf4jnsgd1na2vs0mg"},{"bike_id":"d9c320fc-98ba-4cb5-addb-4dc235e098c8","system_id":"levelo_inurba_marseille","lat":43.31335,"lon":5.36757,"is_reserved":false,"is_disabled":false,"rental_uris":{"android":"levelo://app?vid=d9c320fc-98ba-4cb5-addb-4dc235e098c8","ios":"levelo://app?vid=d9c320fc-98ba-4cb5-addb-4dc235e098c8"},"vehicle_type_id":"4","last_reported":1745829282,"current_range_meters":20800,"station_id":"ce4bgr92rcd13ifvqc6g","pricing_plan_id":"cebpf4jnsgd1na2vs0mg"},{"bike_id":"61178ae9-cf0e-43c5-9289-dbfa4caa5f27","system_id":"levelo_inurba_marseille","lat":43.30895,"lon":5.36834,"is_reserved":false,"is_disabled":false,"rental_uris":{"android":"levelo://app?vid=61178ae9-cf0e-43c5-9289-dbfa4caa5f27","ios":"levelo://app?vid=61178ae9-cf0e-43c5-9289-dbfa4caa5f27"},"vehicle_type_id":"4","last_reported":1745829282,"current_range_meters":21600,"station_id":"ce4bgn92rcd13ifvqbvg","pricing_plan_id":"cebpf4jnsgd1na2vs0mg"},{"bike_id":"74f4d409-5b45-4862-8a89-a13c9f158aa6","system_id":"levelo_inurba_marseille","lat":43.2315,"lon":5.43709,"is_reserved":false,"is_disabled":false,"rental_uris":{"android":"levelo://app?vid=74f4d409-5b45-4862-8a89-a13c9f158aa6","ios":"levelo://app?vid=74f4d409-5b45-4862-8a89-a13c9f158aa6"},"vehicle_type_id":"4","last_reported":1745829282,"current_range_meters":21600,"station_id":"ce4bhmp2rcd13ifvqgog","pricing_plan_id":"cebpf4jnsgd1na2vs0mg"},{"bike_id":"e294aed1-7fe2-4538-902f-8b4870c02e86","system_id":"levelo_inurba_marseille","lat":43.266027,"lon":5.381061,"is_reserved":false,"is_disabled":false,"rental_uris":{"android":"levelo://app?vid=e294aed1-7fe2-4538-902f-8b4870c02e86","ios":"levelo://app?vid=e294aed1-7fe2-4538-902f-8b4870c02e86"},"vehicle_type_id":"4","last_reported":1745829282,"current_range_meters":21600,"station_id":"ce4bhh92rcd13ifvqfh0","pricing_plan_id":"cebpf4jnsgd1na2vs0mg"},{"bike_id":"4ab89677-3a17-4bd7-9010-0f0772d76247","system_id":"levelo_inurba_marseille","lat":43.30896,"lon":5.36853,"is_reserved":false,"is_disabled":false,"rental_uris":{"android":"levelo://app?vid=4ab89677-3a17-4bd7-9010-0f0772d76247","ios":"levelo://app?vid=4ab89677-3a17-4bd7-9010-0f0772d76247"},"vehicle_type_id":"4","last_reported":1745829282,"current_range_meters":21600,"station_id":"ce4bgn92rcd13ifvqbvg","pricing_plan_id":"cebpf4jnsgd1na2vs0mg"},{"bike_id":"bbc1e6ba-0149-4cc5-9b05-0a83fb9f161f","system_id":"levelo_inurba_marseille","lat":43.24177,"lon":5.39716,"is_reserved":false,"is_disabled":false,"rental_uris":{"android":"levelo://app?vid=bbc1e6ba-0149-4cc5-9b05-0a83fb9f161f","ios":"levelo://app?vid=bbc1e6ba-0149-4cc5-9b05-0a83fb9f161f"},"vehicle_type_id":"4","last_reported":1745829282,"current_range_meters":21600,"station_id":"ce4bhn12rcd13ifvqgpg","pricing_plan_id":"cebpf4jnsgd1na2vs0mg"},{"bike_id":"d3881236-172c-42f8-a3e0-7e01c42f9e73","system_id":"levelo_inurba_marseille","lat":43.30076,"lon":5.38604,"is_reserved":false,"is_disabled":true,"rental_uris":{"android":"levelo://app?vid=d3881236-172c-42f8-a3e0-7e01c42f9e73","ios":"levelo://app?vid=d3881236-172c-42f8-a3e0-7e01c42f9e73"},"vehicle_type_id":"4","last_reported":1745829282,"current_range_meters":21600,"station_id":"","pricing_plan_id":"cebpf4jnsgd1na2vs0mg"},{"bike_id":"e63d8cc9-5fe2-481a-87a4-6791e0727fcd","system_id":"levelo_inurba_marseille","lat":43.25097,"lon":5.40357,"is_reserved":false,"is_disabled":true,"rental_uris":{"android":"levelo://app?vid=e63d8cc9-5fe2-481a-87a4-6791e0727fcd","ios":"levelo://app?vid=e63d8cc9-5fe2-481a-87a4-6791e0727fcd"},"vehicle_type_id":"4","last_reported":1745829282,"current_range_meters":21600,"station_id":"ce4bhlh2rcd13ifvqgig","pricing_plan_id":"cebpf4jnsgd1na2vs0mg"},{"bike_id":"a5ce5ce4-e548-4749-81f2-a5e5071cc725","system_id":"levelo_inurba_marseille","lat":43.24173,"lon":5.39719,"is_reserved":false,"is_disabled":false,"rental_uris":{"android":"levelo://app?vid=a5ce5ce4-e548-4749-81f2-a5e5071cc725","ios":"levelo://app?vid=a5ce5ce4-e548-4749-81f2-a5e5071cc725"},"vehicle_type_id":"4","last_reported":1745829282,"current_range_meters":21600,"station_id":"ce4bhn12rcd13ifvqgpg","pricing_plan_id":"cebpf4jnsgd1na2vs0mg"},{"bike_id":"3553dd39-9e49-40ea-a15f-994e08b46ea9","system_id":"levelo_inurba_marseille","lat":43.30137,"lon":5.37415,"is_reserved":false,"is_disabled":false,"rental_uris":{"android":"levelo://app?vid=3553dd39-9e49-40ea-a15f-994e08b46ea9","ios":"levelo://app?vid=3553dd39-9e49-40ea-a15f-994e08b46ea9"},"vehicle_type_id":"4","last_reported":1745829282,"current_range_meters":21600,"station_id":"ce4bgs92rcd13ifvqcc0","pricing_plan_id":"cebpf4jnsgd1na2vs0mg"},{"bike_id":"34157533-8f4a-46dc-ab48-c61bb2ef61c0","system_id":"levelo_inurba_marseille","lat":43.30466,"lon":5.37909,"is_reserved":false,"is_disabled":false,"rental_uris":{"android":"levelo://app?vid=34157533-8f4a-46dc-ab48-c61bb2ef61c0","ios":"levelo://app?vid=34157533-8f4a-46dc-ab48-c61bb2ef61c0"},"vehicle_type_id":"4","last_reported":1745829282,"current_range_meters":22000,"station_id":"ce4bgup2rcd13ifvqcn0","pricing_plan_id":"cebpf4jnsgd1na2vs0mg"},{"bike_id":"f2e8cd8b-e4ad-4909-9164-bb6a45f34867","system_id":"levelo_inurba_marseille","lat":43.30902,"lon":5.36838,"is_reserved":false,"is_disabled":false,"rental_uris":{"android":"levelo://app?vid=f2e8cd8b-e4ad-4909-9164-bb6a45f34867","ios":"levelo://app?vid=f2e8cd8b-e4ad-4909-9164-bb6a45f34867"},"vehicle_type_id":"4","last_reported":1745829282,"current_range_meters":22000,"station_id":"ce4bgn92rcd13ifvqbvg","pricing_plan_id":"cebpf4jnsgd1na2vs0mg"},{"bike_id":"88ed7235-a33b-4fe3-acb1-4bb820839ee7","system_id":"levelo_inurba_marseille","lat":43.30946,"lon":5.39026,"is_reserved":false,"is_disabled":false,"rental_uris":{"android":"levelo://app?vid=88ed7235-a33b-4fe3-acb1-4bb820839ee7","ios":"levelo://app?vid=88ed7235-a33b-4fe3-acb1-4bb820839ee7"},"vehicle_type_id":"4","last_reported":1745829282,"current_range_meters":22000,"station_id":"ce4bgup2rcd13ifvqco0","pricing_plan_id":"cebpf4jnsgd1na2vs0mg"},{"bike_id":"2ba28c19-5a8a-425d-850b-bda72fa2aeee","system_id":"levelo_inurba_marseille","lat":43.30199,"lon":5.36611,"is_reserved":false,"is_disabled":false,"rental_uris":{"android":"levelo://app?vid=2ba28c19-5a8a-425d-850b-bda72fa2aeee","ios":"levelo://app?vid=2ba28c19-5a8a-425d-850b-bda72fa2aeee"},