{"last_updated":1700377576,"ttl":30,"version":"2.2","data":{"bikes":[{"bike_id":"65bc01c5-c85f-413f-92b6-dbca1f37f6cd","system_id":"levelo_inurba_marseille","lat":43.31483,"lon":5.37295,"is_reserved":false,"is_disabled":false,"rental_uris":{"android":"levelo://app?vid=65bc01c5-c85f-413f-92b6-dbca1f37f6cd","ios":"levelo://app?vid=65bc01c5-c85f-413f-92b6-dbca1f37f6cd"},"vehicle_type_id":"4","last_reported":1700377576,"current_range_meters":31200,"station_id":"ce4bgt12rcd13ifvqcd0","pricing_plan_id":"free"},{"bike_id":"17c197ee-6cc9-4459-9186-3d2ec077a00e","system_id":"levelo_inurba_marseille","lat":43.309039,"lon":5.371797,"is_reserved":false,"is_disabled":false,"rental_uris":{"android":"levelo://app?vid=17c197ee-6cc9-4459-9186-3d2ec077a00e","ios":"levelo://app?vid=17c197ee-6cc9-4459-9186-3d2ec077a00e"},"vehicle_type_id":"4","last_reported":1700377576,"current_range_meters":14800,"station_id":"ce4bguh2rcd13ifvqckg","pricing_plan_id":"free"},{"bike_id":"9f180590-7e4c-4c78-8dd9-008b2abd3b81","system_id":"levelo_inurba_marseille","lat":43.309039,"lon":5.371797,"is_reserved":false,"is_disabled":false,"rental_uris":{"android":"levelo://app?vid=9f180590-7e4c-4c78-8dd9-008b2abd3b81","ios":"levelo://app?vid=9f180590-7e4c-4c78-8dd9-008b2abd3b81"},"vehicle_type_id":"4","last_reported":1700377576,"current_range_meters":28000,"station_id":"ce4bguh2rcd13ifvqckg","pricing_plan_id":"free"},{"bike_id":"a7f6df4c-102b-4fa2-ab34-732971f6d3d3","system_id":"levelo_inurba_marseille","lat":43.309039,"lon":5.371797,"is_reserved":false,"is_disabled":false,"rental_uris":{"android":"levelo://app?vid=a7f6df4c-102b-4fa2-ab34-732971f6d3d3","ios":"levelo://app?vid=a7f6df4c-102b-4fa2-ab34-732971f6d3d3"},"vehicle_type_id":"4","last_reported":1700377576,"current_range_meters":23600,"station_id":"ce4bguh2rcd13ifvqckg","pricing_plan_id":"free"},{"bike_id":"3475d204-43b6-43d9-b615-ca1d0d58200e","system_id":"levelo_inurba_marseille","lat":43.30679,"lon":5.3679,"is_reserved":false,"is_disabled":false,"rental_uris":{"android":"levelo://app?vid=3475d204-43b6-43d9-b615-ca1d0d58200e","ios":"levelo://app?vid=3475d204-43b6-43d9-b615-ca1d0d58200e"},"vehicle_type_id":"4","last_reported":1700377576,"current_range_meters":11600,"station_id":"","pricing_plan_id":"free"},{"bike_id":"607819cf-a4fa-4b55-885d-29b97af7d346","system_id":"levelo_inurba_marseille","lat":43.30556,"lon":5.36709,"is_reserved":false,"is_disabled":false,"rental_uris":{"android":"levelo://app?vid=607819cf-a4fa-4b55-885d-29b97af7d346","ios":"levelo://app?vid=607819cf-a4fa-4b55-885d-29b97af7d346"},"vehicle_type_id":"4","last_reported":1700377576,"current_range_meters":0,"station_id":"ce4bgrp2rcd13ifvqc9g","pricing_plan_id":"free"},{"bike_id":"59e54b89-bdfc-4764-955d-35696999d873","system_id":"levelo_inurba_marseille","lat":43.305505,"lon":5.36546,"is_reserved":false,"is_disabled":false,"rental_uris":{"android":"levelo://app?vid=59e54b89-bdfc-4764-955d-35696999d873","ios":"levelo://app?vid=59e54b89-bdfc-4764-955d-35696999d873"},"vehicle_type_id":"4","last_reported":1700377576,"current_range_meters":11600,"station_id":"ce4bgs12rcd13ifvqcag","pricing_plan_id":"free"},{"bike_id":"09ccbac6-0f01-4cfb-8bb8-da5484277d5c","system_id":"levelo_inurba_marseille","lat":43.31952,"lon":5.371,"is_reserved":false,"is_disabled":false,"rental_uris":{"android":"levelo://app?vid=09ccbac6-0f01-4cfb-8bb8-da5484277d5c","ios":"levelo://app?vid=09ccbac6-0f01-4cfb-8bb8-da5484277d5c"},"vehicle_type_id":"4","last_reported":1700377576,"current_range_meters":1600,"station_id":"","pricing_plan_id":"free"},{"bike_id":"14cbc7f4-48b9-447b-916a-617e037a97d3","system_id":"levelo_inurba_marseille","lat":43.305989,"lon":5.37225,"is_reserved":false,"is_disabled":false,"rental_uris":{"android":"levelo://app?vid=14cbc7f4-48b9-447b-916a-617e037a97d3","ios":"levelo://app?vid=14cbc7f4-48b9-447b-916a-617e037a97d3"},"vehicle_type_id":"4","last_reported":1700377576,"current_range_meters":16000,"station_id":"ce4bgqh2rcd13ifvqc4g","pricing_plan_id":"free"},{"bike_id":"dbdd7d7b-0cc5-4c4c-90d5-b97db4cf57a4","system_id":"levelo_inurba_marseille","lat":43.305989,"lon":5.37225,"is_reserved":false,"is_disabled":false,"rental_uris":{"android":"levelo://app?vid=dbdd7d7b-0cc5-4c4c-90d5-b97db4cf57a4","ios":"levelo://app?vid=dbdd7d7b-0cc5-4c4c-90d5-b97db4cf57a4"},"vehicle_type_id":"4","last_reported":1700377576,"current_range_meters":0,"station_id":"ce4bgqh2rcd13ifvqc4g","pricing_plan_id":"free"},{"bike_id":"bb470fd6-a73a-4ec9-bacf-ed403c683c67","system_id":"levelo_inurba_marseille","lat":43.305989,"lon":5.37225,"is_reserved":false,"is_disabled":false,"rental_uris":{"android":"levelo://app?vid=bb470fd6-a73a-4ec9-bacf-ed403c683c67","ios":"levelo://app?vid=bb470fd6-a73a-4ec9-bacf-ed403c683c67"},"vehicle_type_id":"4","last_reported":1700377576,"current_range_meters":2400,"station_id":"ce4bgqh2rcd13ifvqc4g","pricing_plan_id":"free"},{"bike_id":"3eb74c67-99eb-4ab3-bef1-4f9fbde77b5a","system_id":"levelo_inurba_marseille","lat":43.305989,"lon":5.37225,"is_reserved":false,"is_disabled":false,"rental_uris":{"android":"levelo://app?vid=3eb74c67-99eb-4ab3-bef1-4f9fbde77b5a","ios":"levelo://app?vid=3eb74c67-99eb-4ab3-bef1-4f9fbde77b5a"},"vehicle_type_id":"4","last_reported":1700377576,"current_range_meters":29600,"station_id":"ce4bgqh2rcd13ifvqc4g","pricing_plan_id":"free"},{"bike_id":"e62165d1-fc38-4629-817f-31b6020c0eed","system_id":"levelo_inurba_marseille","lat":43.306005,"lon":5.372218,"is_reserved":false,"is_disabled":false,"rental_uris":{"android":"levelo://app?vid=e62165d1-fc38-4629-817f-31b6020c0eed","ios":"levelo://app?vid=e62165d1-fc38-4629-817f-31b6020c0eed"},"vehicle_type_id":"4","last_reported":1700377576,"current_range_meters":31200,"station_id":"ce4bgqh2rcd13ifvqc4g","pricing_plan_id":"free"},{"bike_id":"dcbf9c93-0758-41cf-8699-4ede01d69428","system_id":"levelo_inurba_marseille","lat":43.308165,"lon":5.376469,"is_reserved":false,"is_disabled":false,"rental_uris":{"android":"levelo://app?vid=dcbf9c93-0758-41cf-8699-4ede01d69428","ios":"levelo://app?vid=dcbf9c93-0758-41cf-8699-4ede01d69428"},"vehicle_type_id":"4","last_reported":1700377576,"current_range_meters":12400,"station_id":"ce4bgv92rcd13ifvqcq0","pricing_plan_id":"free"},{"bike_id":"184737ea-30ec-475d-964a-e94f53249e42","system_id":"levelo_inurba_marseille","lat":43.307945,"lon":5.376487,"is_reserved":false,"is_disabled":false,"rental_uris":{"android":"levelo://app?vid=184737ea-30ec-475d-964a-e94f53249e42","ios":"levelo://app?vid=184737ea-30ec-475d-964a-e94f53249e42"},"vehicle_type_id":"4","last_reported":1700377576,"current_range_meters":28800,"station_id":"ce4bgv92rcd13ifvqcq0","pricing_plan_id":"free"},{"bike_id":"1e04415b-3b52-4cfa-88c9-3795153e0d28","system_id":"levelo_inurba_marseille","lat":43.307945,"lon":5.376487,"is_reserved":false,"is_disabled":false,"rental_uris":{"android":"levelo://app?vid=1e04415b-3b52-4cfa-88c9-3795153e0d28","ios":"levelo://app?vid=1e04415b-3b52-4cfa-88c9-3795153e0d28"},"vehicle_type_id":"4","last_reported":1700377576,"current_range_meters":27200,"station_id":"ce4bgv92rcd13ifvqcq0","pricing_plan_id":"free"},{"bike_id":"44ffd2fe-8c40-4a32-9fbb-21ba366c522b","system_id":"levelo_inurba_marseille","lat":43.307945,"lon":5.376487,"is_reserved":false,"is_disabled":false,"rental_uris":{"android":"levelo://app?vid=44ffd2fe-8c40-4a32-9fbb-21ba366c522b","ios":"levelo://app?vid=44ffd2fe-8c40-4a32-9fbb-21ba366c522b"},"vehicle_type_id":"4","last_reported":1700377576,"current_range_meters":22400,"station_id":"ce4bgv92rcd13ifvqcq0","pricing_plan_id":"free"},{"bike_id":"68149713-0167-4f17-95ab-db14393f9d1a","system_id":"levelo_inurba_marseille","lat":43.307945,"lon":5.376487,"is_reserved":false,"is_disabled":false,"rental_uris":{"android":"levelo://app?vid=68149713-0167-4f17-95ab-db14393f9d1a","ios":"levelo://app?vid=68149713-0167-4f17-95ab-db14393f9d1a"},"vehicle_type_id":"4","last_reported":1700377576,"current_range_meters":30800,"station_id":"ce4bgv92rcd13ifvqcq0","pricing_plan_id":"free"},{"bike_id":"54b29839-14db-4da8-80cb-74ee93185d65","system_id":"levelo_inurba_marseille","lat":43.307945,"lon":5.376487,"is_reserved":false,"is_disabled":false,"rental_uris":{"android":"levelo://app?vid=54b29839-14db-4da8-80cb-74ee93185d65","ios":"levelo://app?vid=54b29839-14db-4da8-80cb-74ee93185d65"},"vehicle_type_id":"4","last_reported":1700377576,"current_range_meters":31600,"station_id":"ce4bgv92rcd13ifvqcq0","pricing_plan_id":"free"},{"bike_id":"621c6813-1569-4a9e-8f10-4a24632f0f5f","system_id":"levelo_inurba_marseille","lat":43.30782,"lon":5.37645,"is_reserved":false,"is_disabled":false,"rental_uris":{"android":"levelo://app?vid=621c6813-1569-4a9e-8f10-4a24632f0f5f","ios":"levelo://app?vid=621c6813-1569-4a9e-8f10-4a24632f0f5f"},"vehicle_type_id":"4","last_reported":1700377576,"current_range_meters":29600,"station_id":"ce4bgv92rcd13ifvqcq0","pricing_plan_id":"free"},{"bike_id":"dfd8689c-38ea-4d64-aede-1f2ca434c891","system_id":"levelo_inurba_marseille","lat":43.307945,"lon":5.376487,"is_reserved":false,"is_disabled":false,"rental_uris":{"android":"levelo://app?vid=dfd8689c-38ea-4d64-aede-1f2ca434c891","ios":"levelo://app?vid=dfd8689c-38ea-4d64-aede-1f2ca434c891"},"vehicle_type_id":"4","last_reported":1700377576,"current_range_meters":18400,"station_id":"ce4bgv92rcd13ifvqcq0","pricing_plan_id":"free"},{"bike_id":"30ca23a9-6fa7-4b6e-95f6-5a2f7f6c9f05","system_id":"levelo_inurba_marseille","lat":43.307945,"lon":5.376487,"is_reserved":false,"is_disabled":false,"rental_uris":{"android":"levelo://app?vid=30ca23a9-6fa7-4b6e-95f6-5a2f7f6c9f05","ios":"levelo://app?vid=30ca23a9-6fa7-4b6e-95f6-5a2f7f6c9f05"},"vehicle_type_id":"4","last_reported":1700377576,"current_range_meters":26800,"station_id":"ce4bgv92rcd13ifvqcq0","pricing_plan_id":"free"},{"bike_id":"d6cccfa3-d2c2-4ba9-830b-fe64f36e0212","system_id":"levelo_inurba_marseille","lat":43.317075,"lon":5.377367,"is_reserved":false,"is_disabled":false,"rental_uris":{"android":"levelo://app?vid=d6cccfa3-d2c2-4ba9-830b-fe64f36e0212","ios":"levelo://app?vid=d6cccfa3-d2c2-4ba9-830b-fe64f36e0212"},"vehicle_type_id":"4","last_reported":1700377576,"current_range_meters":31200,"station_id":"ce4bgth2rcd13ifvqch0","pricing_plan_id":"free"},{"bike_id":"6b879805-5dbc-4714-807a-450e616bceb2","system_id":"levelo_inurba_marseille","lat":43.317075,"lon":5.377367,"is_reserved":false,"is_disabled":false,"rental_uris":{"android":"levelo://app?vid=6b879805-5dbc-4714-807a-450e616bceb2","ios":"levelo://app?vid=6b879805-5dbc-4714-807a-450e616bceb2"},"vehicle_type_id":"4","last_reported":1700377576,"current_range_meters":7200,"station_id":"ce4bgth2rcd13ifvqch0","pricing_plan_id":"free"},{"bike_id":"53d739ab-20e3-4b7c-9409-d8b179a11b94","system_id":"levelo_inurba_marseille","lat":43.315384,"lon":5.380382,"is_reserved":false,"is_disabled":false,"rental_uris":{"android":"levelo://app?vid=53d739ab-20e3-4b7c-9409-d8b179a11b94","ios":"levelo://app?vid=53d739ab-20e3-4b7c-9409-d8b179a11b94"},"vehicle_type_id":"4","last_reported":1700377576,"current_range_meters":29600,"station_id":"ce4bhsp2rcd13ifvqi50","pricing_plan_id":"free"},{"bike_id":"629cf9a7-b3f9-411d-9efa-907f446e7d59","system_id":"levelo_inurba_marseille","lat":43.30802,"lon":5.38147,"is_reserved":false,"is_disabled":false,"rental_uris":{"android":"levelo://app?vid=629cf9a7-b3f9-411d-9efa-907f446e7d59","ios":"levelo://app?vid=629cf9a7-b3f9-411d-9efa-907f446e7d59"},"vehicle_type_id":"4","last_reported":1700377576,"current_range_meters":26000,"station_id":"ce4bgt12rcd13ifvqce0","pricing_plan_id":"free"},{"bike_id":"6944dc4c-e258-4e23-a90b-0e9e29fbda73","system_id":"levelo_inurba_marseille","lat":43.30794,"lon":5.381643,"is_reserved":false,"is_disabled":false,"rental_uris":{"android":"levelo://app?vid=6944dc4c-e258-4e23-a90b-0e9e29fbda73","ios":"levelo://app?vid=6944dc4c-e258-4e23-a90b-0e9e29fbda73"},"vehicle_type_id":"4","last_reported":1700377576,"current_range_meters":0,"station_id":"ce4bgt12rcd13ifvqce0","pricing_plan_id":"free"},{"bike_id":"e4aaf8cd-7065-4f66-8d7a-90ea4770189e","system_id":"levelo_inurba_marseille","lat":43.304815,"lon":5.379023,"is_reserved":false,"is_disabled":false,"rental_uris":{"android":"levelo://app?vid=e4aaf8cd-7065-4f66-8d7a-90ea4770189e","ios":"levelo://app?vid=e4aaf8cd-7065-4f66-8d7a-90ea4770189e"},"vehicle_type_id":"4","last_reported":1700377576,"current_range_meters":30000,"station_id":"ce4bgup2rcd13ifvqcn0","pricing_plan_id":"free"},{"bike_id":"330e873e-779f-4127-b4c4-68691c2ce1dd","system_id":"levelo_inurba_marseille","lat":43.304606,"lon":5.379026,"is_reserved":false,"is_disabled":false,"rental_uris":{"android":"levelo://app?vid=330e873e-779f-4127-b4c4-68691c2ce1dd","ios":"levelo://app?vid=330e873e-779f-4127-b4c4-68691c2ce1dd"},"vehicle_type_id":"4","last_reported":1700377576,"current_range_meters":9200,"station_id":"ce4bgup2rcd13ifvqcn0","pricing_plan_id":"free"},{"bike_id":"77c597bb-5d1d-4ea2-851a-1fefefef1707","system_id":"levelo_inurba_marseille","lat":43.304798,"lon":5.379053,"is_reserved":false,"is_disabled":false,"rental_uris":{"android":"levelo://app?vid=77c597bb-5d1d-4ea2-851a-1fefefef1707","ios":"levelo://app?vid=77c597bb-5d1d-4ea2-851a-1fefefef1707"},"vehicle_type_id":"4","last_reported":1700377576,"current_range_meters":29600,"station_id":"ce4bgup2rcd13ifvqcn0","pricing_plan_id":"free"},{"bike_id":"0e1e11a1-bf62-446a-b589-b347992da176","system_id":"levelo_inurba_marseille","lat":43.304606,"lon":5.379026,"is_reserved":false,"is_disabled":false,"rental_uris":{"android":"levelo://app?vid=0e1e11a1-bf62-446a-b589-b347992da176","ios":"levelo://app?vid=0e1e11a1-bf62-446a-b589-b347992da176"},"vehicle_type_id":"4","last_reported":1700377576,"current_range_meters":28000,"station_id":"ce4bgup2rcd13ifvqcn0","pricing_plan_id":"free"},{"bike_id":"0feb477c-9ab0-4138-b193-e8ebd1c8aa73","system_id":"levelo_inurba_marseille","lat":43.304746,"lon":5.379019,"is_reserved":false,"is_disabled":false,"rental_uris":{"android":"levelo://app?vid=0feb477c-9ab0-4138-b193-e8ebd1c8aa73","ios":"levelo://app?vid=0feb477c-9ab0-4138-b193-e8ebd1c8aa73"},"vehicle_type_id":"4","last_reported":1700377576,"current_range_meters":30400,"station_id":"ce4bgup2rcd13ifvqcn0","pricing_plan_id":"free"},{"bike_id":"a378361e-91ae-4591-aeb4-2aa9e10695b9","system_id":"levelo_inurba_marseille","lat":43.30474,"lon":5.37902,"is_reserved":false,"is_disabled":false,"rental_uris":{"android":"levelo://app?vid=a378361e-91ae-4591-aeb4-2aa9e10695b9","ios":"levelo://app?vid=a378361e-91ae-4591-aeb4-2aa9e10695b9"},"vehicle_type_id":"4","last_reported":1700377576,"current_range_meters":26800,"station_id":"ce4bgup2rcd13ifvqcn0","pricing_plan_id":"free"},{"bike_id":"22f30ccb-1773-4b68-9d34-5f3b0feb1aa8","system_id":"levelo_inurba_marseille","lat":43.304606,"lon":5.379026,"is_reserved":false,"is_disabled":false,"rental_uris":{"android":"levelo://app?vid=22f30ccb-1773-4b68-9d34-5f3b0feb1aa8","ios":"levelo://app?vid=22f30ccb-1773-4b68-9d34-5f3b0feb1aa8"},"vehicle_type_id":"4","last_reported":1700377576,"current_range_meters":29200,"station_id":"ce4bgup2rcd13ifvqcn0","pricing_plan_id":"free"},{"bike_id":"3fca04da-f4bc-4a31-afef-de29bdaf525b","system_id":"levelo_inurba_marseille","lat":43.30476,"lon":5.379047,"is_reserved":false,"is_disabled":false,"rental_uris":{"android":"levelo://app?vid=3fca04da-f4bc-4a31-afef-de29bdaf525b","ios":"levelo://app?vid=3fca04da-f4bc-4a31-afef-de29bdaf525b"},"vehicle_type_id":"4","last_reported":1700377576,"current_range_meters":28000,"station_id":"ce4bgup2rcd13ifvqcn0","pricing_plan_id":"free"},{"bike_id":"4b958746-7ba6-433f-8dc0-44ca2244cf0d","system_id":"levelo_inurba_marseille","lat":43.30468,"lon":5.37896,"is_reserved":false,"is_disabled":false,"rental_uris":{"android":"levelo://app?vid=4b958746-7ba6-433f-8dc0-44ca2244cf0d","ios":"levelo://app?vid=4b958746-7ba6-433f-8dc0-44ca2244cf0d"},"vehicle_type_id":"4","last_reported":1700377576,"current_range_meters":25200,"station_id":"ce4bgup2rcd13ifvqcn0","pricing_plan_id":"free"},{"bike_id":"2c4c28a3-9b65-4307-afaa-316795d2dc86","system_id":"levelo_inurba_marseille","lat":43.304672,"lon":5.378952,"is_reserved":false,"is_disabled":false,"rental_uris":{"android":"levelo://app?vid=2c4c28a3-9b65-4307-afaa-316795d2dc86","ios":"levelo://app?vid=2c4c28a3-9b65-4307-afaa-316795d2dc86"},"vehicle_type_id":"4","last_reported":1700377576,"current_range_meters":24800,"station_id":"ce4bgup2rcd13ifvqcn0","pricing_plan_id":"free"},{"bike_id":"1602a82f-895f-4107-a118-dccfb9aab958","system_id":"levelo_inurba_marseille","lat":43.304672,"lon":5.378994,"is_reserved":false,"is_disabled":false,"rental_uris":{"android":"levelo://app?vid=1602a82f-895f-4107-a118-dccfb9aab958","ios":"levelo://app?vid=1602a82f-895f-4107-a118-dccfb9aab958"},"vehicle_type_id":"4","last_reported":1700377576,"current_range_meters":20000,"station_id":"ce4bgup2rcd13ifvqcn0","pricing_plan_id":"free"},{"bike_id":"c89d295a-85f6-4918-bcca-c3e343b8514b","system_id":"levelo_inurba_marseille","lat":43.304606,"lon":5.379026,"is_reserved":false,"is_disabled":false,"rental_uris":{"android":"levelo://app?vid=c89d295a-85f6-4918-bcca-c3e343b8514b","ios":"levelo://app?vid=c89d295a-85f6-4918-bcca-c3e343b8514b"},"vehicle_type_id":"4","last_reported":1700377576,"current_range_meters":28400,"station_id":"ce4bgup2rcd13ifvqcn0","pricing_plan_id":"free"},{"bike_id":"9aaa69a6-5c78-4738-906f-c643d77e4a17","system_id":"levelo_inurba_marseille","lat":43.304606,"lon":5.379026,"is_reserved":false,"is_disabled":false,"rental_uris":{"android":"levelo://app?vid=9aaa69a6-5c78-4738-906f-c643d77e4a17","ios":"levelo://app?vid=9aaa69a6-5c78-4738-906f-c643d77e4a17"},"vehicle_type_id":"4","last_reported":1700377576,"current_range_meters":31200,"station_id":"ce4bgup2rcd13ifvqcn0","pricing_plan_id":"free"},{"bike_id":"4dc95d59-02af-4a20-b141-d642fd86d642","system_id":"levelo_inurba_marseille","lat":43.304606,"lon":5.379026,"is_reserved":false,"is_disabled":false,"rental_uris":{"android":"levelo://app?vid=4dc95d59-02af-4a20-b141-d642fd86d642","ios":"levelo://app?vid=4dc95d59-02af-4a20-b141-d642fd86d642"},"vehicle_type_id":"4","last_reported":1700377576,"current_range_meters":27200,"station_id":"ce4bgup2rcd13ifvqcn0","pricing_plan_id":"free"},{"bike_id":"cc038ebd-e421-4aec-9968-1b924053831b","system_id":"levelo_inurba_marseille","lat":43.30458,"lon":5.37899,"is_reserved":false,"is_disabled":false,"rental_uris":{"android":"levelo://app?vid=cc038ebd-e421-4aec-9968-1b924053831b","ios":"levelo://app?vid=cc038ebd-e421-4aec-9968-1b924053831b"},"vehicle_type_id":"4","last_reported":1700377576,"current_range_meters":26400,"station_id":"ce4bgup2rcd13ifvqcn0","pricing_plan_id":"free"},{"bike_id":"e21c2867-58fe-412d-804f-e18a1cea66e7","system_id":"levelo_inurba_marseille","lat":43.304606,"lon":5.379026,"is_reserved":false,"is_disabled":false,"rental_uris":{"android":"levelo://app?vid=e21c2867-58fe-412d-804f-e18a1cea66e7","ios":"levelo://app?vid=e21c2867-58fe-412d-804f-e18a1cea66e7"},"vehicle_type_id":"4","last_reported":1700377576,"current_range_meters":24000,"station_id":"ce4bgup2rcd13ifvqcn0","pricing_plan_id":"free"},{"bike_id":"72d726cb-e978-4811-afcb-5a53c65765ed","system_id":"levelo_inurba_marseille","lat":43.30459,"lon":5.37908,"is_reserved":false,"is_disabled":false,"rental_uris":{"android":"levelo://app?vid=72d726cb-e978-4811-afcb-5a53c65765ed","ios":"levelo://app?vid=72d726cb-e978-4811-afcb-5a53c65765ed"},"vehicle_type_id":"4","last_reported":1700377576,"current_range_meters":24800,"station_id":"ce4bgup2rcd13ifvqcn0","pricing_plan_id":"free"},{"bike_id":"ced210ce-d921-414a-a93d-04da427dc608","system_id":"levelo_inurba_marseille","lat":43.30458,"lon":5.37907,"is_reserved":false,"is_disabled":false,"rental_uris":{"android":"levelo://app?vid=ced210ce-d921-414a-a93d-04da427dc608","ios":"levelo://app?vid=ced210ce-d921-414a-a93d-04da427dc608"},"vehicle_type_id":"4","last_reported":1700377576,"current_range_meters":24800,"station_id":"ce4bgup2rcd13ifvqcn0","pricing_plan_id":"free"},{"bike_id":"d1ef4304-d529-490c-a34d-17bad09a4dc6","system_id":"levelo_inurba_marseille","lat":43.30458,"lon":5.37912,"is_reserved":false,"is_disabled":false,"rental_uris":{"android":"levelo://app?vid=d1ef4304-d529-490c-a34d-17bad09a4dc6","ios":"levelo://app?vid=d1ef4304-d529-490c-a34d-17bad09a4dc6"},"vehicle_type_id":"4","last_reported":1700377576,"current_range_meters":24400,"station_id":"ce4bgup2rcd13ifvqcn0","pricing_plan_id":"free"},{"bike_id":"793bd78b-5063-4793-9678-c60d77847e13","system_id":"levelo_inurba_marseille","lat":43.302784,"lon":5.377158,"is_reserved":false,"is_disabled":false,"rental_uris":{"android":"levelo://app?vid=793bd78b-5063-4793-9678-c60d77847e13","ios":"levelo://app?vid=793bd78b-5063-4793-9678-c60d77847e13"},"vehicle_type_id":"4","last_reported":1700377576,"current_range_meters":25200,"station_id":"ce4bguh2rcd13ifvqcj0","pricing_plan_id":"free"},{"bike_id":"abb5a752-dcd4-4467-a360-e886684f7426","system_id":"levelo_inurba_marseille","lat":43.31996,"lon":5.38148,"is_reserved":false,"is_disabled":false,"rental_uris":{"android":"levelo://app?vid=abb5a752-dcd4-4467-a360-e886684f7426","ios":"levelo://app?vid=abb5a752-dcd4-4467-a360-e886684f7426"},"vehicle_type_id":"4","last_reported":1700377576,"current_range_meters":26400,"station_id":"ce4bhr12rcd13ifvqhpg","pricing_plan_id":"free"},{"bike_id":"d39152dc-fb7a-4c2f-bc48-1d91712f2978","system_id":"levelo_inurba_marseille","lat":43.29979,"lon":5.371758,"is_reserved":false,"is_disabled":false,"rental_uris":{"android":"levelo://app?vid=d39152dc-fb7a-4c2f-bc48-1d91712f2978","ios":"levelo://app?vid=d39152dc-fb7a-4c2f-bc48-1d91712f2978"},"vehicle_type_id":"4","last_reported":1700377576,"current_range_meters":0,"station_id":"ce4bgr92rcd13ifvqc7g","pricing_plan_id":"free"},{"bike_id":"5da9dea2-bd9f-4746-b637-56e44ea9e587","system_id":"levelo_inurba_marseille","lat":43.298489,"lon":5.362942,"is_reserved":false,"is_disabled":false,"rental_uris":{"android":"levelo://app?vid=5da9dea2-bd9f-4746-b637-56e44ea9e587","ios":"levelo://app?vid=5da9dea2-bd9f-4746-b637-56e44ea9e587"},"vehicle_type_id":"4","last_reported":1700377576,"current_range_meters":0,"station_id":"","pricing_plan_id":"free"},{"bike_id":"5e6e75b6-7e48-465e-9a25-74236abaa939","system_id":"levelo_inurba_marseille","lat":43.298433,"lon":5.362774,"is_reserved":false,"is_disabled":false,"rental_uris":{"android":"levelo://app?vid=5e6e75b6-7e48-465e-9a25-74236abaa939","ios":"levelo://app?vid=5e6e75b6-7e48-465e-9a25-74236abaa939"},"vehicle_type_id":"4","last_reported":1700377576,"current_range_meters":26000,"station_id":"ce4bgpp2rcd13ifvqc3g","pricing_plan_id":"free"},{"bike_id":"72eeee1a-12b8-48e5-8464-bf2f5acd66c5","system_id":"levelo_inurba_marseille","lat":43.297837,"lon":5.371071,"is_reserved":false,"is_disabled":false,"rental_uris":{"android":"levelo://app?vid=72eeee1a-12b8-48e5-8464-bf2f5acd66c5","ios":"levelo://app?vid=72eeee1a-12b8-48e5-8464-bf2f5acd66c5"},"vehicle_type_id":"4","last_reported":1700377576,"current_range_meters":29600,"station_id":"ce4bgop2rcd13ifvqc1g","pricing_plan_id":"free"},{"bike_id":"bc4e266d-88f3-4d4c-b888-cf2c658d94c6","system_id":"levelo_inurba_marseille","lat":43.32826,"lon":5.36681,"is_reserved":false,"is_disabled":false,"rental_uris":{"android":"levelo://app?vid=bc4e266d-88f3-4d4c-b888-cf2c658d94c6","ios":"levelo://app?vid=bc4e266d-88f3-4d4c-b888-cf2c658d94c6"},"vehicle_type_id":"4","last_reported":1700377576,"current_range_meters":28400,"station_id":"ce4bhs92rcd13ifvqi0g","pricing_plan_id":"free"},{"bike_id":"e64c21ef-86f8-4f0a-a8d2-787579e4b5f7","system_id":"levelo_inurba_marseille","lat":43.2968,"lon":5.37291,"is_reserved":false,"is_disabled":false,"rental_uris":{"android":"levelo://app?vid=e64c21ef-86f8-4f0a-a8d2-787579e4b5f7","ios":"levelo://app?vid=e64c21ef-86f8-4f0a-a8d2-787579e4b5f7"},"vehicle_type_id":"4","last_reported":1700377576,"current_range_meters":30400,"station_id":"ce4bgk12rcd13ifvqbj0","pricing_plan_id":"free"},{"bike_id":"8a9cf4c5-6f16-4a1f-9ef7-a89e0f4573e3","system_id":"levelo_inurba_marseille","lat":43.2968,"lon":5.37291,"is_reserved":false,"is_disabled":false,"rental_uris":{"android":"levelo://app?vid=8a9cf4c5-6f16-4a1f-9ef7-a89e0f4573e3","ios":"levelo://app?vid=8a9cf4c5-6f16-4a1f-9ef7-a89e0f4573e3"},"vehicle_type_id":"4","last_reported":1700377576,"current_range_meters":27200,"station_id":"ce4bgk12rcd13ifvqbj0","pricing_plan_id":"free"},{"bike_id":"60a7f6f9-6212-4e51-9320-5917a061ab53","system_id":"levelo_inurba_marseille","lat":43.29673,"lon":5.37287,"is_reserved":false,"is_disabled":false,"rental_uris":{"android":"levelo://app?vid=60a7f6f9-6212-4e51-9320-5917a061ab53","ios":"levelo://app?vid=60a7f6f9-6212-4e51-9320-5917a061ab53"},"vehicle_type_id":"4","last_reported":1700377576,"current_range_meters":3600,"station_id":"ce4bgk12rcd13ifvqbj0","pricing_plan_id":"free"},{"bike_id":"99b6aab7-be3e-41b8-b806-8cf381908e49","system_id":"levelo_inurba_marseille","lat":43.296131,"lon":5.370791,"is_reserved":false,"is_disabled":false,"rental_uris":{"android":"levelo://app?vid=99b6aab7-be3e-41b8-b806-8cf381908e49","ios":"levelo://app?vid=99b6aab7-be3e-41b8-b806-8cf381908e49"},"vehicle_type_id":"4","last_reported":1700377576,"current_range_meters":26400,"station_id":"ce4bgnh2rcd13ifvqc0g","pricing_plan_id":"free"},{"bike_id":"9237878f-a20e-4c82-a4d3-2a448011b820","system_id":"levelo_inurba_marseille","lat":43.296935,"lon":5.376544,"is_reserved":false,"is_disabled":false,"rental_uris":{"android":"levelo://app?vid=9237878f-a20e-4c82-a4d3-2a448011b820","ios":"levelo://app?vid=9237878f-a20e-4c82-a4d3-2a448011b820"},"vehicle_type_id":"4","last_reported":1700377576,"current_range_meters":30000,"station_id":"ce4bgkh2rcd13ifvqbl0","pricing_plan_id":"free"},{"bike_id":"a0bec04b-021f-436d-b881-2c075cb314ca","system_id":"levelo_inurba_marseille","lat":43.296935,"lon":5.376544,"is_reserved":false,"is_disabled":false,"rental_uris":{"android":"levelo://app?vid=a0bec04b-021f-436d-b881-2c075cb314ca","ios":"levelo://app?vid=a0bec04b-021f-436d-b881-2c075cb314ca"},"vehicle_type_id":"4","last_reported":1700377576,"current_range_meters":29200,"station_id":"ce4bgkh2rcd13ifvqbl0","pricing_plan_id":"free"},{"bike_id":"b8d19ce1-ccac-403a-aad8-682f4a86e250","system_id":"levelo_inurba_marseille","lat":43.296935,"lon":5.376544,"is_reserved":false,"is_disabled":false,"rental_uris":{"android":"levelo://app?vid=b8d19ce1-ccac-403a-aad8-682f4a86e250","ios":"levelo://app?vid=b8d19ce1-ccac-403a-aad8-682f4a86e250"},"vehicle_type_id":"4","last_reported":1700377576,"current_range_meters":27600,"station_id":"ce4bgkh2rcd13ifvqbl0","pricing_plan_id":"free"},{"bike_id":"8d6161f6-cab5-42d2-9070-a4bd5cd8b81d","system_id":"levelo_inurba_marseille","lat":43.299028,"lon":5.381509,"is_reserved":false,"is_disabled":false,"rental_uris":{"android":"levelo://app?vid=8d6161f6-cab5-42d2-9070-a4bd5cd8b81d","ios":"levelo://app?vid=8d6161f6-cab5-42d2-9070-a4bd5cd8b81d"},"vehicle_type_id":"4","last_reported":1700377576,"current_range_meters":30000,"station_id":"ce4bgj12rcd13ifvqbc0","pricing_plan_id":"free"},{"bike_id":"d17407cd-35f3-449d-b7f9-90ef4a027011","system_id":"levelo_inurba_marseille","lat":43.299028,"lon":5.381509,"is_reserved":false,"is_disabled":false,"rental_uris":{"android":"levelo://app?vid=d17407cd-35f3-449d-b7f9-90ef4a027011","ios":"levelo://app?vid=d17407cd-35f3-449d-b7f9-90ef4a027011"},"vehicle_type_id":"4","last_reported":1700377576,"current_range_meters":29600,"station_id":"ce4bgj12rcd13ifvqbc0","pricing_plan_id":"free"},{"bike_id":"f8722a23-4246-4a86-bfc3-19588a3dc8ba","system_id":"levelo_inurba_marseille","lat":43.295755,"lon":5.37505,"is_reserved":false,"is_disabled":false,"rental_uris":{"android":"levelo://app?vid=f8722a23-4246-4a86-bfc3-19588a3dc8ba","ios":"levelo://app?vid=f8722a23-4246-4a86-bfc3-19588a3dc8ba"},"vehicle_type_id":"4","last_reported":1700377576,"current_range_meters":27200,"station_id":"ce4bgh92rcd13ifvqb50","pricing_plan_id":"free"},{"bike_id":"189525e1-6d57-46b0-b41b-80d13d3fae28","system_id":"levelo_inurba_marseille","lat":43.304274,"lon":5.388873,"is_reserved":false,"is_disabled":false,"rental_uris":{"android":"levelo://app?vid=189525e1-6d57-46b0-b41b-80d13d3fae28","ios":"levelo://app?vid=189525e1-6d57-46b0-b41b-80d13d3fae28"},"vehicle_type_id":"4","last_reported":1700377576,"current_range_meters":28000,"station_id":"ce4bgk12rcd13ifvqbi0","pricing_plan_id":"free"},{"bike_id":"1df93170-0a0b-426c-afd6-35a05703eddd","system_id":"levelo_inurba_marseille","lat":43.304274,"lon":5.388873,"is_reserved":false,"is_disabled":false,"rental_uris":{"android":"levelo://app?vid=1df93170-0a0b-426c-afd6-35a05703eddd","ios":"levelo://app?vid=1df93170-0a0b-426c-afd6-35a05703eddd"},"vehicle_type_id":"4","last_reported":1700377576,"current_range_meters":20800,"station_id":"ce4bgk12rcd13ifvqbi0","pricing_plan_id":"free"},{"bike_id":"67ffd28a-0325-489b-a10f-d90500122751","system_id":"levelo_inurba_marseille","lat":43.295748,"lon":5.37522,"is_reserved":false,"is_disabled":false,"rental_uris":{"android":"levelo://app?vid=67ffd28a-0325-489b-a10f-d90500122751","ios":"levelo://app?vid=67ffd28a-0325-489b-a10f-d90500122751"},"vehicle_type_id":"4","last_reported":1700377576,"current_range_meters":30400,"station_id":"ce4bgh92rcd13ifvqb50","pricing_plan_id":"free"},{"bike_id":"3e3e92fe-39b7-4933-99ff-3747b28b5d69","system_id":"levelo_inurba_marseille","lat":43.328154,"lon":5.380034,"is_reserved":false,"is_disabled":false,"rental_uris":{"android":"levelo://app?vid=3e3e92fe-39b7-4933-99ff-3747b28b5d69","ios":"levelo://app?vid=3e3e92fe-39b7-4933-99ff-3747b28b5d69"},"vehicle_type_id":"4","last_reported":1700377576,"current_range_meters":6800,"station_id":"","pricing_plan_id":"free"},{"bike_id":"219e3465-5ce6-4812-b066-d6749ee6a914","system_id":"levelo_inurba_marseille","lat":43.29604,"lon":5.37706,"is_reserved":false,"is_disabled":false,"rental_uris":{"android":"levelo://app?vid=219e3465-5ce6-4812-b066-d6749ee6a914","ios":"levelo://app?vid=219e3465-5ce6-4812-b066-d6749ee6a914"},"vehicle_type_id":"4","last_reported":1700377576,"current_range_meters":28000,"station_id":"ce4bgi92rcd13ifvqb90","pricing_plan_id":"free"},{"bike_id":"b5040dee-1e96-4bf7-b417-f6f0be499157","system_id":"levelo_inurba_marseille","lat":43.29598,"lon":5.37715,"is_reserved":false,"is_disabled":false,"rental_uris":{"android":"levelo://app?vid=b5040dee-1e96-4bf7-b417-f6f0be499157","ios":"levelo://app?vid=b5040dee-1e96-4bf7-b417-f6f0be499157"},"vehicle_type_id":"4","last_reported":1700377576,"current_range_meters":28800,"station_id":"ce4bgi92rcd13ifvqb90","pricing_plan_id":"free"},{"bike_id":"55ced206-3dd8-4767-bd2a-0d9ab879e673","system_id":"levelo_inurba_marseille","lat":43.29597,"lon":5.37714,"is_reserved":false,"is_disabled":false,"rental_uris":{"android":"levelo://app?vid=55ced206-3dd8-4767-bd2a-0d9ab879e673","ios":"levelo://app?vid=55ced206-3dd8-4767-bd2a-0d9ab879e673"},"vehicle_type_id":"4","last_reported":1700377576,"current_range_meters":26800,"station_id":"ce4bgi92rcd13ifvqb90","pricing_plan_id":"free"},{"bike_id":"17b7c9d6-fa08-47b0-8033-5fdcc8a9907e","system_id":"levelo_inurba_marseille","lat":43.299717,"lon":5.384845,"is_reserved":false,"is_disabled":false,"rental_uris":{"android":"levelo://app?vid=17b7c9d6-fa08-47b0-8033-5fdcc8a9907e","ios":"levelo://app?vid=17b7c9d6-fa08-47b0-8033-5fdcc8a9907e"},"vehicle_type_id":"4","last_reported":1700377576,"current_range_meters":26400,"station_id":"ce4bgj92rcd13ifvqbd0","pricing_plan_id":"free"},{"bike_id":"d1e994d7-839e-4073-a43e-a1cdd7f7637e","system_id":"levelo_inurba_marseille","lat":43.295279,"lon":5.375048,"is_reserved":false,"is_disabled":false,"rental_uris":{"android":"levelo://app?vid=d1e994d7-839e-4073-a43e-a1cdd7f7637e","ios":"levelo://app?vid=d1e994d7-839e-4073-a43e-a1cdd7f7637e"},"vehicle_type_id":"4","last_reported":1700377576,"current_range_meters":26000,"station_id":"ce4bgkp2rcd13ifvqbmg","pricing_plan_id":"free"},{"bike_id":"ec0336ce-2d28-49a6-b7ec-963ef314875e","system_id":"levelo_inurba_marseille","lat":43.295195,"lon":5.374985,"is_reserved":false,"is_disabled":false,"rental_uris":{"android":"levelo://app?vid=ec0336ce-2d28-49a6-b7ec-963ef314875e","ios":"levelo://app?vid=ec0336ce-2d28-49a6-b7ec-963ef314875e"},"vehicle_type_id":"4","last_reported":1700377576,"current_range_meters":28800,"station_id":"ce4bgkp2rcd13ifvqbmg","pricing_plan_id":"free"},{"bike_id":"7bdb09f4-a630-44aa-9014-7791ec54fa1b","system_id":"levelo_inurba_marseille","lat":43.299707,"lon":5.384859,"is_reserved":false,"is_disabled":false,"rental_uris":{"android":"levelo://app?vid=7bdb09f4-a630-44aa-9014-7791ec54fa1b","ios":"levelo://app?vid=7bdb09f4-a630-44aa-9014-7791ec54fa1b"},"vehicle_type_id":"4","last_reported":1700377576,"current_range_meters":8000,"station_id":"ce4bgj92rcd13ifvqbd0","pricing_plan_id":"free"},{"bike_id":"1ba325a2-7bc5-40fa-88fa-20b6beff4e7c","system_id":"levelo_inurba_marseille","lat":43.29969,"lon":5.38499,"is_reserved":false,"is_disabled":false,"rental_uris":{"android":"levelo://app?vid=1ba325a2-7bc5-40fa-88fa-20b6beff4e7c","ios":"levelo://app?vid=1ba325a2-7bc5-40fa-88fa-20b6beff4e7c"},"vehicle_type_id":"4","last_reported":1700377576,"current_range_meters":28800,"station_id":"ce4bgj92rcd13ifvqbd0","pricing_plan_id":"free"},{"bike_id":"d778b0b1-b6ed-4e66-9910-d5aca457a8bf","system_id":"levelo_inurba_marseille","lat":43.29963,"lon":5.38494,"is_reserved":false,"is_disabled":false,"rental_uris":{"android":"levelo://app?vid=d778b0b1-b6ed-4e66-9910-d5aca457a8bf","ios":"levelo://app?vid=d778b0b1-b6ed-4e66-9910-d5aca457a8bf"},"vehicle_type_id":"4","last_reported":1700377576,"current_range_meters":28800,"station_id":"ce4bgj92rcd13ifvqbd0","pricing_plan_id":"free"},{"bike_id":"e145a3f7-00ac-4f8f-bfe5-435bc38ccaf7","system_id":"levelo_inurba_marseille","lat":43.293801,"lon":5.363066,"is_reserved":false,"is_disabled":false,"rental_uris":{"android":"levelo://app?vid=e145a3f7-00ac-4f8f-bfe5-435bc38ccaf7","ios":"levelo://app?vid=e145a3f7-00ac-4f8f-bfe5-435bc38ccaf7"},"vehicle_type_id":"4","last_reported":1700377576,"current_range_meters":24800,"station_id":"","pricing_plan_id":"free"},{"bike_id":"39f0109b-e5d4-42a2-9d62-dc7fa8dc6c34","system_id":"levelo_inurba_marseille","lat":43.30745,"lon":5.39232,"is_reserved":false,"is_disabled":false,"rental_uris":{"android":"levelo://app?vid=39f0109b-e5d4-42a2-9d62-dc7fa8dc6c34","ios":"levelo://app?vid=39f0109b-e5d4-42a2-9d62-dc7fa8dc6c34"},"vehicle_type_id":"4","last_reported":1700377576,"current_range_meters":24800,"station_id":"ce4bh4p2rcd13ifvqe0g","pricing_plan_id":"free"},{"bike_id":"4eef38cc-64cf-4f4d-8d5b-99bd9d3b1b37","system_id":"levelo_inurba_marseille","lat":43.293213,"lon":5.371105,"is_reserved":false,"is_disabled":false,"rental_uris":{"android":"levelo://app?vid=4eef38cc-64cf-4f4d-8d5b-99bd9d3b1b37","ios":"levelo://app?vid=4eef38cc-64cf-4f4d-8d5b-99bd9d3b1b37"},"vehicle_type_id":"4","last_reported":1700377576,"current_range_meters":25600,"station_id":"","pricing_plan_id":"free"},{"bike_id":"56be962e-e98f-4d47-83bc-1182b3e9b93c","system_id":"levelo_inurba_marseille","lat":43.293065,"lon":5.371768,"is_reserved":false,"is_disabled":false,"rental_uris":{"android":"levelo://app?vid=56be962e-e98f-4d47-83bc-1182b3e9b93c","ios":"levelo://app?vid=56be962e-e98f-4d47-83bc-1182b3e9b93c"},"vehicle_type_id":"4","last_reported":1700377576,"current_range_meters":25200,"station_id":"ce4bgh92rcd13ifvqb40","pricing_plan_id":"free"},{"bike_id":"b4328628-a93a-4fa7-a3df-bfadd02d72b2","system_id":"levelo_inurba_marseille","lat":43.305994,"lon":5.393687,"is_reserved":false,"is_disabled":false,"rental_uris":{"android":"levelo://app?vid=b4328628-a93a-4fa7-a3df-bfadd02d72b2","ios":"levelo://app?vid=b4328628-a93a-4fa7-a3df-bfadd02d72b2"},"vehicle_type_id":"4","last_reported":1700377576,"current_range_meters":19200,"station_id":"ce4bh0p2rcd13ifvqd80","pricing_plan_id":"free"},{"bike_id":"99a97e73-96d1-497d-b8a3-1eafd61b790b","system_id":"levelo_inurba_marseille","lat":43.303055,"lon":5.39205,"is_reserved":false,"is_disabled":false,"rental_uris":{"android":"levelo://app?vid=99a97e73-96d1-497d-b8a3-1eafd61b790b","ios":"levelo://app?vid=99a97e73-96d1-497d-b8a3-1eafd61b790b"},"vehicle_type_id":"4","last_reported":1700377576,"current_range_meters":20800,"station_id":"ce4bgkh2rcd13ifvqbk0","pricing_plan_id":"free"},{"bike_id":"b2980a81-06e5-4199-8080-06b39bf58536","system_id":"levelo_inurba_marseille","lat":43.303,"lon":5.39206,"is_reserved":false,"is_disabled":false,"rental_uris":{"android":"levelo://app?vid=b2980a81-06e5-4199-8080-06b39bf58536","ios":"levelo://app?vid=b2980a81-06e5-4199-8080-06b39bf58536"},"vehicle_type_id":"4","last_reported":1700377576,"current_range_meters":0,"station_id":"ce4bgkh2rcd13ifvqbk0","pricing_plan_id":"free"},{"bike_id":"1de2b2dc-1173-4a14-9c40-0d8462f58bf8","system_id":"levelo_inurba_marseille","lat":43.2937,"lon":5.37865,"is_reserved":false,"is_disabled":false,"rental_uris":{"android":"levelo://app?vid=1de2b2dc-1173-4a14-9c40-0d8462f58bf8","ios":"levelo://app?vid=1de2b2dc-1173-4a14-9c40-0d8462f58bf8"},"vehicle_type_id":"4","last_reported":1700377576,"current_range_meters":20400,"station_id":"ce4bgjh2rcd13ifvqbf0","pricing_plan_id":"free"},{"bike_id":"41d9144c-c2d7-4fa2-88e1-3baa9b8a1641","system_id":"levelo_inurba_marseille","lat":43.292311,"lon":5.360731,"is_reserved":false,"is_disabled":false,"rental_uris":{"android":"levelo://app?vid=41d9144c-c2d7-4fa2-88e1-3baa9b8a1641","ios":"levelo://app?vid=41d9144c-c2d7-4fa2-88e1-3baa9b8a1641"},"vehicle_type_id":"4","last_reported":1700377576,"current_range_meters":24000,"station_id":"ce4bhbh2rcd13ifvqeqg","pricing_plan_id":"free"},{"bike_id":"c11c4604-0e0c-4a74-a5f6-51ab2cf65604","system_id":"levelo_inurba_marseille","lat":43.292311,"lon":5.360731,"is_reserved":false,"is_disabled":false,"rental_uris":{"android":"levelo://app?vid=c11c4604-0e0c-4a74-a5f6-51ab2cf65604","ios":"levelo://app?vid=c11c4604-0e0c-4a74-a5f6-51ab2cf65604"},"vehicle_type_id":"4","last_reported":1700377576,"current_range_meters":25200,"station_id":"ce4bhbh2rcd13ifvqeqg","pricing_plan_id":"free"},{"bike_id":"a3000145-35d1-412e-907f-c89f131f1145","system_id":"levelo_inurba_marseille","lat":43.292311,"lon":5.360731,"is_reserved":false,"is_disabled":false,"rental_uris":{"android":"levelo://app?vid=a3000145-35d1-412e-907f-c89f131f1145","ios":"levelo://app?vid=a3000145-35d1-412e-907f-c89f131f1145"},"vehicle_type_id":"4","last_reported":1700377576,"current_range_meters":28800,"station_id":"ce4bhbh2rcd13ifvqeqg","pricing_plan_id":"free"},{"bike_id":"d58ad5bc-d57e-45aa-94af-7ca361be6462","system_id":"levelo_inurba_marseille","lat":43.292311,"lon":5.360731,"is_reserved":false,"is_disabled":false,"rental_uris":{"android":"levelo://app?vid=d58ad5bc-d57e-45aa-94af-7ca361be6462","ios":"levelo://app?vid=d58ad5bc-d57e-45aa-94af-7ca361be6462"},"vehicle_type_id":"4","last_reported":1700377576,"current_range_meters":22800,"station_id":"ce4bhbh2rcd13ifvqeqg","pricing_plan_id":"free"},{"bike_id":"33075253-836e-4ba1-8e89-8aa665059210","system_id":"levelo_inurba_marseille","lat":43.29166,"lon":5.3714,"is_reserved":false,"is_disabled":false,"rental_uris":{"android":"levelo://app?vid=33075253-836e-4ba1-8e89-8aa665059210","ios":"levelo://app?vid=33075253-836e-4ba1-8e89-8aa665059210"},"vehicle_type_id":"4","last_reported":1700377576,"current_range_meters":13200,"station_id":"ce4bha92rcd13ifvqeh0","pricing_plan_id":"free"},{"bike_id":"6310aac1-166e-4292-a513-1ccb3d7d95a3","system_id":"levelo_inurba_marseille","lat":43.291675,"lon":5.371583,"is_reserved":false,"is_disabled":false,"rental_uris":{"android":"levelo://app?vid=6310aac1-166e-4292-a513-1ccb3d7d95a3","ios":"levelo://app?vid=6310aac1-166e-4292-a513-1ccb3d7d95a3"},"vehicle_type_id":"4","last_reported":1700377576,"current_range_meters":22800,"station_id":"ce4bha92rcd13ifvqeh0","pricing_plan_id":"free"},{"bike_id":"b8840de6-cc1a-4a7d-a10c-d9449ee5e75d","system_id":"levelo_inurba_marseille","lat":43.309038,"lon":5.396546,"is_reserved":false,"is_disabled":false,"rental_uris":{"android":"levelo://app?vid=b8840de6-cc1a-4a7d-a10c-d9449ee5e75d","ios":"levelo://app?vid=b8840de6-cc1a-4a7d-a10c-d9449ee5e75d"},"vehicle_type_id":"4","last_reported":1700377576,"current_range_meters":25600,"station_id":"ce4bh012rcd13ifvqcv0","pricing_plan_id":"free"},{"bike_id":"fbf237e0-ebf4-48ee-9298-75de0ce05f0e","system_id":"levelo_inurba_marseille","lat":43.309038,"lon":5.396546,"is_reserved":false,"is_disabled":false,"rental_uris":{"android":"levelo://app?vid=fbf237e0-ebf4-48ee-9298-75de0ce05f0e","ios":"levelo://app?vid=fbf237e0-ebf4-48ee-9298-75de0ce05f0e"},"vehicle_type_id":"4","last_reported":1700377576,"current_range_meters":11200,"station_id":"ce4bh012rcd13ifvqcv0","pricing_plan_id":"free"},{"bike_id":"3fdeda8b-81e4-449f-8880-52fb050994b9","system_id":"levelo_inurba_marseille","lat":43.309038,"lon":5.396546,"is_reserved":false,"is_disabled":false,"rental_uris":{"android":"levelo://app?vid=3fdeda8b-81e4-449f-8880-52fb050994b9","ios":"levelo://app?vid=3fdeda8b-81e4-449f-8880-52fb050994b9"},"vehicle_type_id":"4","last_reported":1700377576,"current_range_meters":31200,"station_id":"ce4bh012rcd13ifvqcv0","pricing_plan_id":"free"},{"bike_id":"2958b1fb-4b1c-4e52-9a5b-2d20f8f9506e","system_id":"levelo_inurba_marseille","lat":43.309038,"lon":5.396546,"is_reserved":false,"is_disabled":false,"rental_uris":{"android":"levelo://app?vid=2958b1fb-4b1c-4e52-9a5b-2d20f8f9506e","ios":"levelo://app?vid=2958b1fb-4b1c-4e52-9a5b-2d20f8f9506e"},"vehicle_type_id":"4","last_reported":1700377576,"current_range_meters":31600,"station_id":"ce4bh012rcd13ifvqcv0","pricing_plan_id":"free"},{"bike_id":"46429514-9d87-4911-8fbc-f0eb0137767d","system_id":"levelo_inurba_marseille","lat":43.309047,"lon":5.396551,"is_reserved":false,"is_disabled":false,"rental_uris":{"android":"levelo://app?vid=46429514-9d87-4911-8fbc-f0eb0137767d","ios":"levelo://app?vid=46429514-9d87-4911-8fbc-f0eb0137767d"},"vehicle_type_id":"4","last_reported":1700377576,"current_range_meters":30000,"station_id":"ce4bh012rcd13ifvqcv0","pricing_plan_id":"free"},{"bike_id":"4a033192-1d0b-4496-989f-de9078ffaa36","system_id":"levelo_inurba_marseille","lat":43.309047,"lon":5.396551,"is_reserved":false,"is_disabled":false,"rental_uris":{"android":"levelo://app?vid=4a033192-1d0b-4496-989f-de9078ffaa36","ios":"levelo://app?vid=4a033192-1d0b-4496-989f-de9078ffaa36"},"vehicle_type_id":"4","last_reported":1700377576,"current_range_meters":24800,"station_id":"ce4bh012rcd13ifvqcv0","pricing_plan_id":"free"},{"bike_id":"a40fd974-3afa-4abc-b303-85332b96188b","system_id":"levelo_inurba_marseille","lat":43.31333,"lon":5.39691,"is_reserved":false,"is_disabled":false,"rental_uris":{"android":"levelo://app?vid=a40fd974-3afa-4abc-b303-85332b96188b","ios":"levelo://app?vid=a40fd974-3afa-4abc-b303-85332b96188b"},"vehicle_type_id":"4","last_reported":1700377576,"current_range_meters":4000,"station_id":"ce4bgvp2rcd13ifvqcu0","pricing_plan_id":"free"},{"bike_id":"48d841b4-e022-4f6d-bc96-280ae575b319","system_id":"levelo_inurba_marseille","lat":43.31331,"lon":5.39692,"is_reserved":false,"is_disabled":false,"rental_uris":{"android":"levelo://app?vid=48d841b4-e022-4f6d-bc96-280ae575b319","ios":"levelo://app?vid=48d841b4-e022-4f6d-bc96-280ae575b319"},"vehicle_type_id":"4","last_reported":1700377576,"current_range_meters":30800,"station_id":"ce4bgvp2rcd13ifvqcu0","pricing_plan_id":"free"},{"bike_id":"ea5dd6f1-efec-4b11-bbf3-ceb31fc1397f","system_id":"levelo_inurba_marseille","lat":43.291994,"lon":5.357886,"is_reserved":false,"is_disabled":false,"rental_uris":{"android":"levelo://app?vid=ea5dd6f1-efec-4b11-bbf3-ceb31fc1397f","ios":"levelo://app?vid=ea5dd6f1-efec-4b11-bbf3-ceb31fc1397f"},"vehicle_type_id":"4","last_reported":1700377576,"current_range_meters":7200,"station_id":"ce4bhb12rcd13ifvqel0","pricing_plan_id":"free"},{"bike_id":"c3a00c42-0dda-47b3-9f09-0ce29375f46c","system_id":"levelo_inurba_marseille","lat":43.313291,"lon":5.396838,"is_reserved":false,"is_disabled":false,"rental_uris":{"android":"levelo://app?vid=c3a00c42-0dda-47b3-9f09-0ce29375f46c","ios":"levelo://app?vid=c3a00c42-0dda-47b3-9f09-0ce29375f46c"},"vehicle_type_id":"4","last_reported":1700377576,"current_range_meters":11600,"station_id":"ce4bgvp2rcd13ifvqcu0","pricing_plan_id":"free"},{"bike_id":"f80ff396-067b-4aff-84db-1a4288d6b7f3","system_id":"levelo_inurba_marseille","lat":43.313319,"lon":5.396949,"is_reserved":false,"is_disabled":false,"rental_uris":{"android":"levelo://app?vid=f80ff396-067b-4aff-84db-1a4288d6b7f3","ios":"levelo://app?vid=f80ff396-067b-4aff-84db-1a4288d6b7f3"},"vehicle_type_id":"4","last_reported":1700377576,"current_range_meters":30800,"station_id":"ce4bgvp2rcd13ifvqcu0","pricing_plan_id":"free"},{"bike_id":"22141bd5-4bb9-40e1-b9c7-031f3719ba37","system_id":"levelo_inurba_marseille","lat":43.313291,"lon":5.396838,"is_reserved":false,"is_disabled":false,"rental_uris":{"android":"levelo://app?vid=22141bd5-4bb9-40e1-b9c7-031f3719ba37","ios":"levelo://app?vid=22141bd5-4bb9-40e1-b9c7-031f3719ba37"},"vehicle_type_id":"4","last_reported":1700377576,"current_range_meters":28800,"station_id":"ce4bgvp2rcd13ifvqcu0","pricing_plan_id":"free"},{"bike_id":"0de747ba-d827-4bc2-8d9f-f961b891b941","system_id":"levelo_inurba_marseille","lat":43.309038,"lon":5.396546,"is_reserved":false,"is_disabled":false,"rental_uris":{"android":"levelo://app?vid=0de747ba-d827-4bc2-8d9f-f961b891b941","ios":"levelo://app?vid=0de747ba-d827-4bc2-8d9f-f961b891b941"},"vehicle_type_id":"4","last_reported":1700377576,"current_range_meters":31600,"station_id":"ce4bh012rcd13ifvqcv0","pricing_plan_id":"free"},{"bike_id":"da7cc4d0-9299-4edf-83a2-8e98d9e8a6ca","system_id":"levelo_inurba_marseille","lat":43.291994,"lon":5.357886,"is_reserved":false,"is_disabled":false,"rental_uris":{"android":"levelo://app?vid=da7cc4d0-9299-4edf-83a2-8e98d9e8a6ca","ios":"levelo://app?vid=da7cc4d0-9299-4edf-83a2-8e98d9e8a6ca"},"vehicle_type_id":"4","last_reported":1700377576,"current_range_meters":21600,"station_id":"ce4bhb12rcd13ifvqel0","pricing_plan_id":"free"},{"bike_id":"04fa29a5-84b4-4b16-b7ea-709f116fe52e","system_id":"levelo_inurba_marseille","lat":43.291994,"lon":5.357886,"is_reserved":false,"is_disabled":false,"rental_uris":{"android":"levelo://app?vid=04fa29a5-84b4-4b16-b7ea-709f116fe52e","ios":"levelo://app?vid=04fa29a5-84b4-4b16-b7ea-709f116fe52e"},"vehicle_type_id":"4","last_reported":1700377576,"current_range_meters":31200,"station_id":"ce4bhb12rcd13ifvqel0","pricing_plan_id":"free"},{"bike_id":"d1b70635-0df1-4c98-90c4-fbb3ab46d803","system_id":"levelo_inurba_marseille","lat":43.31333,"lon":5.39697,"is_reserved":false,"is_disabled":false,"rental_uris":{"android":"levelo://app?vid=d1b70635-0df1-4c98-90c4-fbb3ab46d803","ios":"levelo://app?vid=d1b70635-0df1-4c98-90c4-fbb3ab46d803"},"vehicle_type_id":"4","last_reported":1700377576,"current_range_meters":25600,"station_id":"ce4bgvp2rcd13ifvqcu0","pricing_plan_id":"free"},{"bike_id":"75160227-c293-45c2-8c0f-b2e6a290f1e8","system_id":"levelo_inurba_marseille","lat":43.291994,"lon":5.357886,"is_reserved":false,"is_disabled":false,"rental_uris":{"android":"levelo://app?vid=75160227-c293-45c2-8c0f-b2e6a290f1e8","ios":"levelo://app?vid=75160227-c293-45c2-8c0f-b2e6a290f1e8"},"vehicle_type_id":"4","last_reported":1700377576,"current_range_meters":29200,"station_id":"ce4bhb12rcd13ifvqel0","pricing_plan_id":"free"},{"bike_id":"5736e517-13a3-440f-a8ee-4f24db41282e","system_id":"levelo_inurba_marseille","lat":43.294586,"lon":5.384852,"is_reserved":false,"is_disabled":false,"rental_uris":{"android":"levelo://app?vid=5736e517-13a3-440f-a8ee-4f24db41282e","ios":"levelo://app?vid=5736e517-13a3-440f-a8ee-4f24db41282e"},"vehicle_type_id":"4","last_reported":1700377576,"current_range_meters":5600,"station_id":"","pricing_plan_id":"free"},{"bike_id":"b59fa648-a532-4e8b-89b9-f9c57314c2e0","system_id":"levelo_inurba_marseille","lat":43.290631,"lon":5.359244,"is_reserved":false,"is_disabled":false,"rental_uris":{"android":"levelo://app?vid=b59fa648-a532-4e8b-89b9-f9c57314c2e0","ios":"levelo://app?vid=b59fa648-a532-4e8b-89b9-f9c57314c2e0"},"vehicle_type_id":"4","last_reported":1700377576,"current_range_meters":27600,"station_id":"ce4bha92rcd13ifvqeg0","pricing_plan_id":"free"},{"bike_id":"2f5c7951-a851-4ce4-b180-17f735769598","system_id":"levelo_inurba_marseille","lat":43.289399,"lon":5.366373,"is_reserved":false,"is_disabled":false,"rental_uris":{"android":"levelo://app?vid=2f5c7951-a851-4ce4-b180-17f735769598","ios":"levelo://app?vid=2f5c7951-a851-4ce4-b180-17f735769598"},"vehicle_type_id":"4","last_reported":1700377576,"current_range_meters":30400,"station_id":"ce4bhap2rcd13ifvqek0","pricing_plan_id":"free"},{"bike_id":"791095d1-e6b4-46e7-952a-6272a92c9393","system_id":"levelo_inurba_marseille","lat":43.28938,"lon":5.36634,"is_reserved":false,"is_disabled":false,"rental_uris":{"android":"levelo://app?vid=791095d1-e6b4-46e7-952a-6272a92c9393","ios":"levelo://app?vid=791095d1-e6b4-46e7-952a-6272a92c9393"},"vehicle_type_id":"4","last_reported":1700377576,"current_range_meters":16000,"station_id":"ce4bhap2rcd13ifvqek0","pricing_plan_id":"free"},{"bike_id":"f2f7d578-32bf-4ab1-bd72-d88863a88033","system_id":"levelo_inurba_marseille","lat":43.290104,"lon":5.356111,"is_reserved":false,"is_disabled":false,"rental_uris":{"android":"levelo://app?vid=f2f7d578-32bf-4ab1-bd72-d88863a88033","ios":"levelo://app?vid=f2f7d578-32bf-4ab1-bd72-d88863a88033"},"vehicle_type_id":"4","last_reported":1700377576,"current_range_meters":25200,"station_id":"ce4bhb92rcd13ifvqen0","pricing_plan_id":"free"},{"bike_id":"a39b0f5c-e9f0-4db5-b025-205bbacbdbba","system_id":"levelo_inurba_marseille","lat":43.28992,"lon":5.35612,"is_reserved":false,"is_disabled":false,"rental_uris":{"android":"levelo://app?vid=a39b0f5c-e9f0-4db5-b025-205bbacbdbba","ios":"levelo://app?vid=a39b0f5c-e9f0-4db5-b025-205bbacbdbba"},"vehicle_type_id":"4","last_reported":1700377576,"current_range_meters":28400,"station_id":"ce4bhb92rcd13ifvqen0","pricing_plan_id":"free"},{"bike_id":"c5b40436-6ebe-4f46-af56-f7f175003df0","system_id":"levelo_inurba_marseille","lat":43.290995,"lon":5.381361,"is_reserved":false,"is_disabled":false,"rental_uris":{"android":"levelo://app?vid=c5b40436-6ebe-4f46-af56-f7f175003df0","ios":"levelo://app?vid=c5b40436-6ebe-4f46-af56-f7f175003df0"},"vehicle_type_id":"4","last_reported":1700377576,"current_range_meters":29600,"station_id":"ce4bh512rcd13ifvqe2g","pricing_plan_id":"free"},{"bike_id":"c053e55a-b36d-4c97-b222-c56232dfc123","system_id":"levelo_inurba_marseille","lat":43.29789,"lon":5.39345,"is_reserved":false,"is_disabled":false,"rental_uris":{"android":"levelo://app?vid=c053e55a-b36d-4c97-b222-c56232dfc123","ios":"levelo://app?vid=c053e55a-b36d-4c97-b222-c56232dfc123"},"vehicle_type_id":"4","last_reported":1700377576,"current_range_meters":24800,"station_id":"chh1huq6cuj3fo74tm60","pricing_plan_id":"free"},{"bike_id":"8057c92a-f565-4d00-b8d2-a2a1900e2eeb","system_id":"levelo_inurba_marseille","lat":43.295169,"lon":5.390426,"is_reserved":false,"is_disabled":false,"rental_uris":{"android":"levelo://app?vid=8057c92a-f565-4d00-b8d2-a2a1900e2eeb","ios":"levelo://app?vid=8057c92a-f565-4d00-b8d2-a2a1900e2eeb"},"vehicle_type_id":"4","last_reported":1700377576,"current_range_meters":24400,"station_id":"ce4bh3p2rcd13ifvqdp0","pricing_plan_id":"free"},{"bike_id":"b1d665b3-a60f-4275-9bb9-f325ab02d6b3","system_id":"levelo_inurba_marseille","lat":43.29519,"lon":5.390245,"is_reserved":false,"is_disabled":false,"rental_uris":{"android":"levelo://app?vid=b1d665b3-a60f-4275-9bb9-f325ab02d6b3","ios":"levelo://app?vid=b1d665b3-a60f-4275-9bb9-f325ab02d6b3"},"vehicle_type_id":"4","last_reported":1700377576,"current_range_meters":6400,"station_id":"ce4bh3p2rcd13ifvqdp0","pricing_plan_id":"free"},{"bike_id":"4b839fc0-878b-4eed-9fc2-f5225b4f213c","system_id":"levelo_inurba_marseille","lat":43.31282,"lon":5.40162,"is_reserved":false,"is_disabled":false,"rental_uris":{"android":"levelo://app?vid=4b839fc0-878b-4eed-9fc2-f5225b4f213c","ios":"levelo://app?vid=4b839fc0-878b-4eed-9fc2-f5225b4f213c"},"vehicle_type_id":"4","last_reported":1700377576,"current_range_meters":0,"station_id":"ce4bh092rcd13ifvqd30","pricing_plan_id":"free"},{"bike_id":"07202f70-50d7-46f0-a5bd-59712659d6a0","system_id":"levelo_inurba_marseille","lat":43.31251,"lon":5.40162,"is_reserved":false,"is_disabled":false,"rental_uris":{"android":"levelo://app?vid=07202f70-50d7-46f0-a5bd-59712659d6a0","ios":"levelo://app?vid=07202f70-50d7-46f0-a5bd-59712659d6a0"},"vehicle_type_id":"4","last_reported":1700377576,"current_range_meters":12000,"station_id":"","pricing_plan_id":"free"},{"bike_id":"b7de220e-6ef0-47ba-aa78-16023a6f960b","system_id":"levelo_inurba_marseille","lat":43.31276,"lon":5.4017,"is_reserved":false,"is_disabled":false,"rental_uris":{"android":"levelo://app?vid=b7de220e-6ef0-47ba-aa78-16023a6f960b","ios":"levelo://app?vid=b7de220e-6ef0-47ba-aa78-16023a6f960b"},"vehicle_type_id":"4","last_reported":1700377576,"current_range_meters":18800,"station_id":"ce4bh092rcd13ifvqd30","pricing_plan_id":"free"},{"bike_id":"55e03788-2a8a-437b-b98d-eddedafa78d8","system_id":"levelo_inurba_marseille","lat":43.312775,"lon":5.401711,"is_reserved":false,"is_disabled":false,"rental_uris":{"android":"levelo://app?vid=55e03788-2a8a-437b-b98d-eddedafa78d8","ios":"levelo://app?vid=55e03788-2a8a-437b-b98d-eddedafa78d8"},"vehicle_type_id":"4","last_reported":1700377576,"current_range_meters":30400,"station_id":"ce4bh092rcd13ifvqd30","pricing_plan_id":"free"},{"bike_id":"1e6bc39f-70a0-4e65-902a-720fd9cb3bff","system_id":"levelo_inurba_marseille","lat":43.312864,"lon":5.401738,"is_reserved":false,"is_disabled":false,"rental_uris":{"android":"levelo://app?vid=1e6bc39f-70a0-4e65-902a-720fd9cb3bff","ios":"levelo://app?vid=1e6bc39f-70a0-4e65-902a-720fd9cb3bff"},"vehicle_type_id":"4","last_reported":1700377576,"current_range_meters":30800,"station_id":"ce4bh092rcd13ifvqd30","pricing_plan_id":"free"},{"bike_id":"667ca90d-ec03-4885-8bad-4cdb726bdb71","system_id":"levelo_inurba_marseille","lat":43.309311,"lon":5.401451,"is_reserved":false,"is_disabled":false,"rental_uris":{"android":"levelo://app?vid=667ca90d-ec03-4885-8bad-4cdb726bdb71","ios":"levelo://app?vid=667ca90d-ec03-4885-8bad-4cdb726bdb71"},"vehicle_type_id":"4","last_reported":1700377576,"current_range_meters":30400,"station_id":"ce4bgvp2rcd13ifvqct0","pricing_plan_id":"free"},{"bike_id":"e7150089-9d6d-41fd-9e10-330e1e4530dc","system_id":"levelo_inurba_marseille","lat":43.309236,"lon":5.401447,"is_reserved":false,"is_disabled":false,"rental_uris":{"android":"levelo://app?vid=e7150089-9d6d-41fd-9e10-330e1e4530dc","ios":"levelo://app?vid=e7150089-9d6d-41fd-9e10-330e1e4530dc"},"vehicle_type_id":"4","last_reported":1700377576,"current_range_meters":11600,"station_id":"ce4bgvp2rcd13ifvqct0","pricing_plan_id":"free"},{"bike_id":"4a1eeebc-381a-42de-a98e-f332397794af","system_id":"levelo_inurba_marseille","lat":43.309269,"lon":5.401459,"is_reserved":false,"is_disabled":false,"rental_uris":{"android":"levelo://app?vid=4a1eeebc-381a-42de-a98e-f332397794af","ios":"levelo://app?vid=4a1eeebc-381a-42de-a98e-f332397794af"},"vehicle_type_id":"4","last_reported":1700377576,"current_range_meters":30800,"station_id":"ce4bgvp2rcd13ifvqct0","pricing_plan_id":"free"},{"bike_id":"edb5550c-7de5-4e16-84ed-60743e7de1dd","system_id":"levelo_inurba_marseille","lat":43.309205,"lon":5.401455,"is_reserved":false,"is_disabled":false,"rental_uris":{"android":"levelo://app?vid=edb5550c-7de5-4e16-84ed-60743e7de1dd","ios":"levelo://app?vid=edb5550c-7de5-4e16-84ed-60743e7de1dd"},"vehicle_type_id":"4","last_reported":1700377576,"current_range_meters":14000,"station_id":"ce4bgvp2rcd13ifvqct0","pricing_plan_id":"free"},{"bike_id":"e7f2efae-311a-4fe0-878e-a473067364d2","system_id":"levelo_inurba_marseille","lat":43.3093,"lon":5.40148,"is_reserved":false,"is_disabled":false,"rental_uris":{"android":"levelo://app?vid=e7f2efae-311a-4fe0-878e-a473067364d2","ios":"levelo://app?vid=e7f2efae-311a-4fe0-878e-a473067364d2"},"vehicle_type_id":"4","last_reported":1700377576,"current_range_meters":30800,"station_id":"ce4bgvp2rcd13ifvqct0","pricing_plan_id":"free"},{"bike_id":"556ac11f-7df6-48d2-945c-9f6c3632e369","system_id":"levelo_inurba_marseille","lat":43.30919,"lon":5.401504,"is_reserved":false,"is_disabled":false,"rental_uris":{"android":"levelo://app?vid=556ac11f-7df6-48d2-945c-9f6c3632e369","ios":"levelo://app?vid=556ac11f-7df6-48d2-945c-9f6c3632e369"},"vehicle_type_id":"4","last_reported":1700377576,"current_range_meters":24400,"station_id":"ce4bgvp2rcd13ifvqct0","pricing_plan_id":"free"},{"bike_id":"46509513-12f0-4bae-91ab-3b5bb7ed22cf","system_id":"levelo_inurba_marseille","lat":43.33769,"lon":5.37423,"is_reserved":false,"is_disabled":false,"rental_uris":{"android":"levelo://app?vid=46509513-12f0-4bae-91ab-3b5bb7ed22cf","ios":"levelo://app?vid=46509513-12f0-4bae-91ab-3b5bb7ed22cf"},"vehicle_type_id":"4","last_reported":1700377576,"current_range_meters":20000,"station_id":"","pricing_plan_id":"free"},{"bike_id":"fa88d3d4-c8ac-49e7-ab26-360f93f8515f","system_id":"levelo_inurba_marseille","lat":43.306412,"lon":5.401035,"is_reserved":false,"is_disabled":false,"rental_uris":{"android":"levelo://app?vid=fa88d3d4-c8ac-49e7-ab26-360f93f8515f","ios":"levelo://app?vid=fa88d3d4-c8ac-49e7-ab26-360f93f8515f"},"vehicle_type_id":"4","last_reported":1700377576,"current_range_meters":28400,"station_id":"ce4bh112rcd13ifvqda0","pricing_plan_id":"free"},{"bike_id":"54e95000-9361-439d-b9c1-cbed8c4068bc","system_id":"levelo_inurba_marseille","lat":43.30326,"lon":5.39967,"is_reserved":false,"is_disabled":false,"rental_uris":{"android":"levelo://app?vid=54e95000-9361-439d-b9c1-cbed8c4068bc","ios":"levelo://app?vid=54e95000-9361-439d-b9c1-cbed8c4068bc"},"vehicle_type_id":"4","last_reported":1700377576,"current_range_meters":7200,"station_id":"","pricing_plan_id":"free"},{"bike_id":"80f0407b-2cda-4fc5-8d4b-b0681a7c9611","system_id":"levelo_inurba_marseille","lat":43.28727,"lon":5.36078,"is_reserved":false,"is_disabled":false,"rental_uris":{"android":"levelo://app?vid=80f0407b-2cda-4fc5-8d4b-b0681a7c9611","ios":"levelo://app?vid=80f0407b-2cda-4fc5-8d4b-b0681a7c9611"},"vehicle_type_id":"4","last_reported":1700377576,"current_range_meters":31200,"station_id":"cki0cbj6b192h4jlfktg","pricing_plan_id":"free"},{"bike_id":"8e5cf5c8-1dc2-4e3c-a31e-02e895926b4b","system_id":"levelo_inurba_marseille","lat":43.28727,"lon":5.36078,"is_reserved":false,"is_disabled":false,"rental_uris":{"android":"levelo://app?vid=8e5cf5c8-1dc2-4e3c-a31e-02e895926b4b","ios":"levelo://app?vid=8e5cf5c8-1dc2-4e3c-a31e-02e895926b4b"},"vehicle_type_id":"4","last_reported":1700377576,"current_range_meters":13200,"station_id":"cki0cbj6b192h4jlfktg","pricing_plan_id":"free"},{"bike_id":"4cd639b0-092a-4370-9ad5-f9bd06344ddb","system_id":"levelo_inurba_marseille","lat":43.28727,"lon":5.36078,"is_reserved":false,"is_disabled":false,"rental_uris":{"android":"levelo://app?vid=4cd639b0-092a-4370-9ad5-f9bd06344ddb","ios":"levelo://app?vid=4cd639b0-092a-4370-9ad5-f9bd06344ddb"},"vehicle_type_id":"4","last_reported":1700377576,"current_range_meters":31200,"station_id":"cki0cbj6b192h4jlfktg","pricing_plan_id":"free"},{"bike_id":"70aa7f9c-9f54-4d73-baea-40672d909afe","system_id":"levelo_inurba_marseille","lat":43.28727,"lon":5.36078,"is_reserved":false,"is_disabled":false,"rental_uris":{"android":"levelo://app?vid=70aa7f9c-9f54-4d73-baea-40672d909afe","ios":"levelo://app?vid=70aa7f9c-9f54-4d73-baea-40672d909afe"},"vehicle_type_id":"4","last_reported":1700377576,"current_range_meters":29200,"station_id":"cki0cbj6b192h4jlfktg","pricing_plan_id":"free"},{"bike_id":"16bbd962-447c-4c0c-a453-dc44085d7c6d","system_id":"levelo_inurba_marseille","lat":43.286961,"lon":5.373785,"is_reserved":false,"is_disabled":false,"rental_uris":{"android":"levelo://app?vid=16bbd962-447c-4c0c-a453-dc44085d7c6d","ios":"levelo://app?vid=16bbd962-447c-4c0c-a453-dc44085d7c6d"},"vehicle_type_id":"4","last_reported":1700377576,"current_range_meters":29600,"station_id":"ce4bh3p2rcd13ifvqdq0","pricing_plan_id":"free"},{"bike_id":"3fe14831-5639-4e28-ab87-2a111283b537","system_id":"levelo_inurba_marseille","lat":43.286961,"lon":5.373785,"is_reserved":false,"is_disabled":false,"rental_uris":{"android":"levelo://app?vid=3fe14831-5639-4e28-ab87-2a111283b537","ios":"levelo://app?vid=3fe14831-5639-4e28-ab87-2a111283b537"},"vehicle_type_id":"4","last_reported":1700377576,"current_range_meters":27600,"station_id":"ce4bh3p2rcd13ifvqdq0","pricing_plan_id":"free"},{"bike_id":"8dd26faf-5e5e-49c9-a24a-3557661766d9","system_id":"levelo_inurba_marseille","lat":43.295203,"lon":5.39409,"is_reserved":false,"is_disabled":false,"rental_uris":{"android":"levelo://app?vid=8dd26faf-5e5e-49c9-a24a-3557661766d9","ios":"levelo://app?vid=8dd26faf-5e5e-49c9-a24a-3557661766d9"},"vehicle_type_id":"4","last_reported":1700377576,"current_range_meters":0,"station_id":"ce4bh292rcd13ifvqdf0","pricing_plan_id":"free"},{"bike_id":"9afec48a-16e4-4433-b425-17382cc4a521","system_id":"levelo_inurba_marseille","lat":43.28927,"lon":5.38382,"is_reserved":false,"is_disabled":false,"rental_uris":{"android":"levelo://app?vid=9afec48a-16e4-4433-b425-17382cc4a521","ios":"levelo://app?vid=9afec48a-16e4-4433-b425-17382cc4a521"},"vehicle_type_id":"4","last_reported":1700377576,"current_range_meters":28000,"station_id":"ce4bh612rcd13ifvqe6g","pricing_plan_id":"free"},{"bike_id":"e06163c5-b54f-497d-b6eb-6b78e4890b6f","system_id":"levelo_inurba_marseille","lat":43.29027,"lon":5.38634,"is_reserved":false,"is_disabled":false,"rental_uris":{"android":"levelo://app?vid=e06163c5-b54f-497d-b6eb-6b78e4890b6f","ios":"levelo://app?vid=e06163c5-b54f-497d-b6eb-6b78e4890b6f"},"vehicle_type_id":"4","last_reported":1700377576,"current_range_meters":23200,"station_id":"ce4bh4p2rcd13ifvqe0g","pricing_plan_id":"free"},{"bike_id":"bde08db5-50da-463f-8024-04f1acf5a3c7","system_id":"levelo_inurba_marseille","lat":43.287184,"lon":5.37937,"is_reserved":false,"is_disabled":false,"rental_uris":{"android":"levelo://app?vid=bde08db5-50da-463f-8024-04f1acf5a3c7","ios":"levelo://app?vid=bde08db5-50da-463f-8024-04f1acf5a3c7"},"vehicle_type_id":"4","last_reported":1700377576,"current_range_meters":14000,"station_id":"ce4bh9p2rcd13ifvqec0","pricing_plan_id":"free"},{"bike_id":"11da9b45-26cc-4b09-8151-244ce97768b3","system_id":"levelo_inurba_marseille","lat":43.287085,"lon":5.379405,"is_reserved":false,"is_disabled":false,"rental_uris":{"android":"levelo://app?vid=11da9b45-26cc-4b09-8151-244ce97768b3","ios":"levelo://app?vid=11da9b45-26cc-4b09-8151-244ce97768b3"},"vehicle_type_id":"4","last_reported":1700377576,"current_range_meters":23600,"station_id":"ce4bh9p2rcd13ifvqec0","pricing_plan_id":"free"},{"bike_id":"bff49b80-88e8-4f17-acee-aed693088ed4","system_id":"levelo_inurba_marseille","lat":43.284602,"lon":5.358965,"is_reserved":false,"is_disabled":false,"rental_uris":{"android":"levelo://app?vid=bff49b80-88e8-4f17-acee-aed693088ed4","ios":"levelo://app?vid=bff49b80-88e8-4f17-acee-aed693088ed4"},"vehicle_type_id":"4","last_reported":1700377576,"current_range_meters":27600,"station_id":"ce4bhah2rcd13ifvqei0","pricing_plan_id":"free"},{"bike_id":"4a96ea9f-08d4-4c56-8260-57216b0fc889","system_id":"levelo_inurba_marseille","lat":43.28461,"lon":5.35884,"is_reserved":false,"is_disabled":false,"rental_uris":{"android":"levelo://app?vid=4a96ea9f-08d4-4c56-8260-57216b0fc889","ios":"levelo://app?vid=4a96ea9f-08d4-4c56-8260-57216b0fc889"},"vehicle_type_id":"4","last_reported":1700377576,"current_range_meters":24000,"station_id":"ce4bhah2rcd13ifvqei0","pricing_plan_id":"free"},{"bike_id":"ff93a1e4-e569-4e9b-a5f3-5b5f552fe74a","system_id":"levelo_inurba_marseille","lat":43.284534,"lon":5.358662,"is_reserved":false,"is_disabled":false,"rental_uris":{"android":"levelo://app?vid=ff93a1e4-e569-4e9b-a5f3-5b5f552fe74a","ios":"levelo://app?vid=ff93a1e4-e569-4e9b-a5f3-5b5f552fe74a"},"vehicle_type_id":"4","last_reported":1700377576,"current_range_meters":31200,"station_id":"ce4bhah2rcd13ifvqei0","pricing_plan_id":"free"},{"bike_id":"99de5e8e-71b0-4ad2-b517-84e912871ac8","system_id":"levelo_inurba_marseille","lat":43.284538,"lon":5.358657,"is_reserved":false,"is_disabled":false,"rental_uris":{"android":"levelo://app?vid=99de5e8e-71b0-4ad2-b517-84e912871ac8","ios":"levelo://app?vid=99de5e8e-71b0-4ad2-b517-84e912871ac8"},"vehicle_type_id":"4","last_reported":1700377576,"current_range_meters":30000,"station_id":"ce4bhah2rcd13ifvqei0","pricing_plan_id":"free"},{"bike_id":"4a2c745f-5bab-4993-ad8f-d91bff5b4aeb","system_id":"levelo_inurba_marseille","lat":43.284534,"lon":5.358662,"is_reserved":false,"is_disabled":false,"rental_uris":{"android":"levelo://app?vid=4a2c745f-5bab-4993-ad8f-d91bff5b4aeb","ios":"levelo://app?vid=4a2c745f-5bab-4993-ad8f-d91bff5b4aeb"},"vehicle_type_id":"4","last_reported":1700377576,"current_range_meters":31200,"station_id":"ce4bhah2rcd13ifvqei0","pricing_plan_id":"free"},{"bike_id":"c5702630-2c8d-47e5-8918-d2cea553181f","system_id":"levelo_inurba_marseille","lat":43.28621,"lon":5.35101,"is_reserved":false,"is_disabled":false,"rental_uris":{"android":"levelo://app?vid=c5702630-2c8d-47e5-8918-d2cea553181f","ios":"levelo://app?vid=c5702630-2c8d-47e5-8918-d2cea553181f"},"vehicle_type_id":"4","last_reported":1700377576,"current_range_meters":30800,"station_id":"ce4bhch2rcd13ifvqeug","pricing_plan_id":"free"},{"bike_id":"d94dfb15-e572-4e59-af3c-ee7cbd62cef5","system_id":"levelo_inurba_marseille","lat":43.295717,"lon":5.399697,"is_reserved":false,"is_disabled":false,"rental_uris":{"android":"levelo://app?vid=d94dfb15-e572-4e59-af3c-ee7cbd62cef5","ios":"levelo://app?vid=d94dfb15-e572-4e59-af3c-ee7cbd62cef5"},"vehicle_type_id":"4","last_reported":1700377576,"current_range_meters":11200,"station_id":"","pricing_plan_id":"free"},{"bike_id":"8a6329af-f488-4217-b872-47e3ac29345c","system_id":"levelo_inurba_marseille","lat":43.283998,"lon":5.375062,"is_reserved":false,"is_disabled":false,"rental_uris":{"android":"levelo://app?vid=8a6329af-f488-4217-b872-47e3ac29345c","ios":"levelo://app?vid=8a6329af-f488-4217-b872-47e3ac29345c"},"vehicle_type_id":"4","last_reported":1700377576,"current_range_meters":31200,"station_id":"ce4bh412rcd13ifvqds0","pricing_plan_id":"free"},{"bike_id":"c6d486a9-02dc-4d81-a1da-09266b366f70","system_id":"levelo_inurba_marseille","lat":43.286763,"lon":5.386547,"is_reserved":false,"is_disabled":false,"rental_uris":{"android":"levelo://app?vid=c6d486a9-02dc-4d81-a1da-09266b366f70","ios":"levelo://app?vid=c6d486a9-02dc-4d81-a1da-09266b366f70"},"vehicle_type_id":"4","last_reported":1700377576,"current_range_meters":31200,"station_id":"ce4bh492rcd13ifvqdug","pricing_plan_id":"free"},{"bike_id":"c5a2d4b5-7c89-4c95-8e5d-a23ec5bc6147","system_id":"levelo_inurba_marseille","lat":43.286595,"lon":5.386795,"is_reserved":false,"is_disabled":false,"rental_uris":{"android":"levelo://app?vid=c5a2d4b5-7c89-4c95-8e5d-a23ec5bc6147","ios":"levelo://app?vid=c5a2d4b5-7c89-4c95-8e5d-a23ec5bc6147"},"vehicle_type_id":"4","last_reported":1700377576,"current_range_meters":23600,"station_id":"ce4bh492rcd13ifvqdug","pricing_plan_id":"free"},{"bike_id":"8ea4d595-0e85-412a-a574-6a086b52c3f2","system_id":"levelo_inurba_marseille","lat":43.319179,"lon":5.407725,"is_reserved":false,"is_disabled":false,"rental_uris":{"android":"levelo://app?vid=8ea4d595-0e85-412a-a574-6a086b52c3f2","ios":"levelo://app?vid=8ea4d595-0e85-412a-a574-6a086b52c3f2"},"vehicle_type_id":"4","last_reported":1700377576,"current_range_meters":30000,"station_id":"ce4bhq12rcd13ifvqhig","pricing_plan_id":"free"},{"bike_id":"5974ad3b-da81-42ca-a08b-1b3632a47afa","system_id":"levelo_inurba_marseille","lat":43.33237,"lon":5.3985,"is_reserved":false,"is_disabled":false,"rental_uris":{"android":"levelo://app?vid=5974ad3b-da81-42ca-a08b-1b3632a47afa","ios":"levelo://app?vid=5974ad3b-da81-42ca-a08b-1b3632a47afa"},"vehicle_type_id":"4","last_reported":1700377576,"current_range_meters":2400,"station_id":"","pricing_plan_id":"free"},{"bike_id":"69dea16a-46ca-4ecf-9a18-aec792baa921","system_id":"levelo_inurba_marseille","lat":43.323464,"lon":5.406297,"is_reserved":false,"is_disabled":false,"rental_uris":{"android":"levelo://app?vid=69dea16a-46ca-4ecf-9a18-aec792baa921","ios":"levelo://app?vid=69dea16a-46ca-4ecf-9a18-aec792baa921"},"vehicle_type_id":"4","last_reported":1700377576,"current_range_meters":22000,"station_id":"ce4bhq92rcd13ifvqhjg","pricing_plan_id":"free"},{"bike_id":"a08607c1-816a-491b-a085-3077fb7fb178","system_id":"levelo_inurba_marseille","lat":43.323464,"lon":5.406297,"is_reserved":false,"is_disabled":false,"rental_uris":{"android":"levelo://app?vid=a08607c1-816a-491b-a085-3077fb7fb178","ios":"levelo://app?vid=a08607c1-816a-491b-a085-3077fb7fb178"},"vehicle_type_id":"4","last_reported":1700377576,"current_range_meters":30000,"station_id":"ce4bhq92rcd13ifvqhjg","pricing_plan_id":"free"},{"bike_id":"99420b3d-80a0-48b3-bbc3-47ed02308197","system_id":"levelo_inurba_marseille","lat":43.28857,"lon":5.39317,"is_reserved":false,"is_disabled":false,"rental_uris":{"android":"levelo://app?vid=99420b3d-80a0-48b3-bbc3-47ed02308197","ios":"levelo://app?vid=99420b3d-80a0-48b3-bbc3-47ed02308197"},"vehicle_type_id":"4","last_reported":1700377576,"current_range_meters":1600,"station_id":"ce4bh2p2rcd13ifvqdi0","pricing_plan_id":"free"},{"bike_id":"6480512b-fd58-4eb9-bd58-759245e4bf2b","system_id":"levelo_inurba_marseille","lat":43.288497,"lon":5.393089,"is_reserved":false,"is_disabled":false,"rental_uris":{"android":"levelo://app?vid=6480512b-fd58-4eb9-bd58-759245e4bf2b","ios":"levelo://app?vid=6480512b-fd58-4eb9-bd58-759245e4bf2b"},"vehicle_type_id":"4","last_reported":1700377576,"current_range_meters":25600,"station_id":"ce4bh2p2rcd13ifvqdi0","pricing_plan_id":"free"},{"bike_id":"d3dd3e3d-57b0-4c9e-949f-fddd56c2349c","system_id":"levelo_inurba_marseille","lat":43.32521,"lon":5.40575,"is_reserved":false,"is_disabled":false,"rental_uris":{"android":"levelo://app?vid=d3dd3e3d-57b0-4c9e-949f-fddd56c2349c","ios":"levelo://app?vid=d3dd3e3d-57b0-4c9e-949f-fddd56c2349c"},"vehicle_type_id":"4","last_reported":1700377576,"current_range_meters":0,"station_id":"","pricing_plan_id":"free"},{"bike_id":"db6c6c1b-cc54-4be6-8b0d-7997173745b5","system_id":"levelo_inurba_marseille","lat":43.283494,"lon":5.380945,"is_reserved":false,"is_disabled":false,"rental_uris":{"android":"levelo://app?vid=db6c6c1b-cc54-4be6-8b0d-7997173745b5","ios":"levelo://app?vid=db6c6c1b-cc54-4be6-8b0d-7997173745b5"},"vehicle_type_id":"4","last_reported":1700377576,"current_range_meters":0,"station_id":"ce4bh412rcd13ifvqdr0","pricing_plan_id":"free"},{"bike_id":"46c7c8f3-095f-41dc-a09f-2c8ea3ec63e7","system_id":"levelo_inurba_marseille","lat":43.284217,"lon":5.349697,"is_reserved":false,"is_disabled":false,"rental_uris":{"android":"levelo://app?vid=46c7c8f3-095f-41dc-a09f-2c8ea3ec63e7","ios":"levelo://app?vid=46c7c8f3-095f-41dc-a09f-2c8ea3ec63e7"},"vehicle_type_id":"4","last_reported":1700377576,"current_range_meters":22400,"station_id":"ce4bhbh2rcd13ifvqepg","pricing_plan_id":"free"},{"bike_id":"07bf0ef5-ece1-4ae1-88ea-cde2aa7227ab","system_id":"levelo_inurba_marseille","lat":43.284155,"lon":5.34982,"is_reserved":false,"is_disabled":false,"rental_uris":{"android":"levelo://app?vid=07bf0ef5-ece1-4ae1-88ea-cde2aa7227ab","ios":"levelo://app?vid=07bf0ef5-ece1-4ae1-88ea-cde2aa7227ab"},"vehicle_type_id":"4","last_reported":1700377576,"current_range_meters":20400,"station_id":"ce4bhbh2rcd13ifvqepg","pricing_plan_id":"free"},{"bike_id":"d9013e91-e799-477f-8a83-5eee9e87f7a9","system_id":"levelo_inurba_marseille","lat":43.284085,"lon":5.34994,"is_reserved":false,"is_disabled":false,"rental_uris":{"android":"levelo://app?vid=d9013e91-e799-477f-8a83-5eee9e87f7a9","ios":"levelo://app?vid=d9013e91-e799-477f-8a83-5eee9e87f7a9"},"vehicle_type_id":"4","last_reported":1700377576,"current_range_meters":28400,"station_id":"ce4bhbh2rcd13ifvqepg","pricing_plan_id":"free"},{"bike_id":"a68b5ff9-59ad-4b80-804c-0ee3436bcde6","system_id":"levelo_inurba_marseille","lat":43.289363,"lon":5.396322,"is_reserved":false,"is_disabled":false,"rental_uris":{"android":"levelo://app?vid=a68b5ff9-59ad-4b80-804c-0ee3436bcde6","ios":"levelo://app?vid=a68b5ff9-59ad-4b80-804c-0ee3436bcde6"},"vehicle_type_id":"4","last_reported":1700377576,"current_range_meters":28000,"station_id":"ce4bh3h2rcd13ifvqdn0","pricing_plan_id":"free"},{"bike_id":"7a1b707c-0456-43af-a93b-6ba1c14178b9","system_id":"levelo_inurba_marseille","lat":43.28271,"lon":5.35073,"is_reserved":false,"is_disabled":false,"rental_uris":{"android":"levelo://app?vid=7a1b707c-0456-43af-a93b-6ba1c14178b9","ios":"levelo://app?vid=7a1b707c-0456-43af-a93b-6ba1c14178b9"},"vehicle_type_id":"4","last_reported":1700377576,"current_range_meters":24000,"station_id":"ce4bhbp2rcd13ifvqerg","pricing_plan_id":"free"},{"bike_id":"f1c4bd7f-15f5-4508-840c-51adf6c86080","system_id":"levelo_inurba_marseille","lat":43.28268,"lon":5.35074,"is_reserved":false,"is_disabled":false,"rental_uris":{"android":"levelo://app?vid=f1c4bd7f-15f5-4508-840c-51adf6c86080","ios":"levelo://app?vid=f1c4bd7f-15f5-4508-840c-51adf6c86080"},"vehicle_type_id":"4","last_reported":1700377576,"current_range_meters":28800,"station_id":"ce4bhbp2rcd13ifvqerg","pricing_plan_id":"free"},{"bike_id":"36c651bc-b323-4c84-8b87-431c8fea31a2","system_id":"levelo_inurba_marseille","lat":43.283642,"lon":5.386357,"is_reserved":false,"is_disabled":false,"rental_uris":{"android":"levelo://app?vid=36c651bc-b323-4c84-8b87-431c8fea31a2","ios":"levelo://app?vid=36c651bc-b323-4c84-8b87-431c8fea31a2"},"vehicle_type_id":"4","last_reported":1700377576,"current_range_meters":21200,"station_id":"ce4bh492rcd13ifvqdvg","pricing_plan_id":"free"},{"bike_id":"8c031073-86bb-4f0d-833a-13c788c3fb64","system_id":"levelo_inurba_marseille","lat":43.296263,"lon":5.40601,"is_reserved":false,"is_disabled":false,"rental_uris":{"android":"levelo://app?vid=8c031073-86bb-4f0d-833a-13c788c3fb64","ios":"levelo://app?vid=8c031073-86bb-4f0d-833a-13c788c3fb64"},"vehicle_type_id":"4","last_reported":1700377576,"current_range_meters":26400,"station_id":"ce4bh0h2rcd13ifvqd60","pricing_plan_id":"free"},{"bike_id":"cea45467-b65f-4456-b1c2-7a2ff6c22702","system_id":"levelo_inurba_marseille","lat":43.28449,"lon":5.39181,"is_reserved":false,"is_disabled":false,"rental_uris":{"android":"levelo://app?vid=cea45467-b65f-4456-b1c2-7a2ff6c22702","ios":"levelo://app?vid=cea45467-b65f-4456-b1c2-7a2ff6c22702"},"vehicle_type_id":"4","last_reported":1700377576,"current_range_meters":30800,"station_id":"ce4bhoh2rcd13ifvqh5g","pricing_plan_id":"free"},{"bike_id":"4a2f5acd-50c3-47b4-a30c-85111b37a269","system_id":"levelo_inurba_marseille","lat":43.284418,"lon":5.391887,"is_reserved":false,"is_disabled":false,"rental_uris":{"android":"levelo://app?vid=4a2f5acd-50c3-47b4-a30c-85111b37a269","ios":"levelo://app?vid=4a2f5acd-50c3-47b4-a30c-85111b37a269"},"vehicle_type_id":"4","last_reported":1700377576,"current_range_meters":30400,"station_id":"ce4bhoh2rcd13ifvqh5g","pricing_plan_id":"free"},{"bike_id":"ccf9b17e-2fb6-47d5-b5cb-73ea08fcb6e5","system_id":"levelo_inurba_marseille","lat":43.28575,"lon":5.39498,"is_reserved":false,"is_disabled":false,"rental_uris":{"android":"levelo://app?vid=ccf9b17e-2fb6-47d5-b5cb-73ea08fcb6e5","ios":"levelo://app?vid=ccf9b17e-2fb6-47d5-b5cb-73ea08fcb6e5"},"vehicle_type_id":"4","last_reported":1700377576,"current_range_meters":0,"station_id":"ce4bh292rcd13ifvqdg0","pricing_plan_id":"free"},{"bike_id":"e05860e3-01ce-4b1f-86c7-9f839ae165cc","system_id":"levelo_inurba_marseille","lat":43.304188,"lon":5.412904,"is_reserved":false,"is_disabled":false,"rental_uris":{"android":"levelo://app?vid=e05860e3-01ce-4b1f-86c7-9f839ae165cc","ios":"levelo://app?vid=e05860e3-01ce-4b1f-86c7-9f839ae165cc"},"vehicle_type_id":"4","last_reported":1700377576,"current_range_meters":30400,"station_id":"ce4bhop2rcd13ifvqh8g","pricing_plan_id":"free"},{"bike_id":"8fbe98df-e947-4eee-b6aa-6b597b477882","system_id":"levelo_inurba_marseille","lat":43.287154,"lon":5.399979,"is_reserved":false,"is_disabled":false,"rental_uris":{"android":"levelo://app?vid=8fbe98df-e947-4eee-b6aa-6b597b477882","ios":"levelo://app?vid=8fbe98df-e947-4eee-b6aa-6b597b477882"},"vehicle_type_id":"4","last_reported":1700377576,"current_range_meters":27200,"station_id":"ce4bho92rcd13ifvqh3g","pricing_plan_id":"free"},{"bike_id":"1a66ec51-8872-4bc4-b87a-d78c086073cf","system_id":"levelo_inurba_marseille","lat":43.292665,"lon":5.408155,"is_reserved":false,"is_disabled":false,"rental_uris":{"android":"levelo://app?vid=1a66ec51-8872-4bc4-b87a-d78c086073cf","ios":"levelo://app?vid=1a66ec51-8872-4bc4-b87a-d78c086073cf"},"vehicle_type_id":"4","last_reported":1700377576,"current_range_meters":8000,"station_id":"","pricing_plan_id":"free"},{"bike_id":"06f154da-4aae-4fe6-8d38-922fd2c19629","system_id":"levelo_inurba_marseille","lat":43.299579,"lon":5.413255,"is_reserved":false,"is_disabled":false,"rental_uris":{"android":"levelo://app?vid=06f154da-4aae-4fe6-8d38-922fd2c19629","ios":"levelo://app?vid=06f154da-4aae-4fe6-8d38-922fd2c19629"},"vehicle_type_id":"4","last_reported":1700377576,"current_range_meters":28800,"station_id":"ce4bhp12rcd13ifvqh9g","pricing_plan_id":"free"},{"bike_id":"8def6f3b-e1b0-48aa-ace8-d748ffd1acd0","system_id":"levelo_inurba_marseille","lat":43.27618,"lon":5.36115,"is_reserved":false,"is_disabled":false,"rental_uris":{"android":"levelo://app?vid=8def6f3b-e1b0-48aa-ace8-d748ffd1acd0","ios":"levelo://app?vid=8def6f3b-e1b0-48aa-ace8-d748ffd1acd0"},"vehicle_type_id":"4","last_reported":1700377576,"current_range_meters":13200,"station_id":"ce4bgj92rcd13ifvqbe0","pricing_plan_id":"free"},{"bike_id":"557e0fd2-e8e2-4503-abb2-2d138a28acc1","system_id":"levelo_inurba_marseille","lat":43.28083,"lon":5.39658,"is_reserved":false,"is_disabled":false,"rental_uris":{"android":"levelo://app?vid=557e0fd2-e8e2-4503-abb2-2d138a28acc1","ios":"levelo://app?vid=557e0fd2-e8e2-4503-abb2-2d138a28acc1"},"vehicle_type_id":"4","last_reported":1700377576,"current_range_meters":4400,"station_id":"ce4bho12rcd13ifvqh2g","pricing_plan_id":"free"},{"bike_id":"b605a260-916b-460c-8e42-5da4328c4587","system_id":"levelo_inurba_marseille","lat":43.280784,"lon":5.396622,"is_reserved":false,"is_disabled":false,"rental_uris":{"android":"levelo://app?vid=b605a260-916b-460c-8e42-5da4328c4587","ios":"levelo://app?vid=b605a260-916b-460c-8e42-5da4328c4587"},"vehicle_type_id":"4","last_reported":1700377576,"current_range_meters":20000,"station_id":"ce4bho12rcd13ifvqh2g","pricing_plan_id":"free"},{"bike_id":"10606041-6d1f-4abe-8004-6325e0030224","system_id":"levelo_inurba_marseille","lat":43.280784,"lon":5.396622,"is_reserved":false,"is_disabled":false,"rental_uris":{"android":"levelo://app?vid=10606041-6d1f-4abe-8004-6325e0030224","ios":"levelo://app?vid=10606041-6d1f-4abe-8004-6325e0030224"},"vehicle_type_id":"4","last_reported":1700377576,"current_range_meters":31200,"station_id":"ce4bho12rcd13ifvqh2g","pricing_plan_id":"free"},{"bike_id":"c6788832-3bc0-41bc-81e7-c86f322cdccc","system_id":"levelo_inurba_marseille","lat":43.30356,"lon":5.4188,"is_reserved":false,"is_disabled":false,"rental_uris":{"android":"levelo://app?vid=c6788832-3bc0-41bc-81e7-c86f322cdccc","ios":"levelo://app?vid=c6788832-3bc0-41bc-81e7-c86f322cdccc"},"vehicle_type_id":"4","last_reported":1700377576,"current_range_meters":0,"station_id":"ce4bhop2rcd13ifvqh7g","pricing_plan_id":"free"},{"bike_id":"cf99b74c-fa14-409b-a032-24123c1ffbc3","system_id":"levelo_inurba_marseille","lat":43.278401,"lon":5.392152,"is_reserved":false,"is_disabled":false,"rental_uris":{"android":"levelo://app?vid=cf99b74c-fa14-409b-a032-24123c1ffbc3","ios":"levelo://app?vid=cf99b74c-fa14-409b-a032-24123c1ffbc3"},"vehicle_type_id":"4","last_reported":1700377576,"current_range_meters":31200,"station_id":"ce4bhjp2rcd13ifvqga0","pricing_plan_id":"free"},{"bike_id":"c94bad85-9533-422a-b3bc-abf1e98ea89e","system_id":"levelo_inurba_marseille","lat":43.278399,"lon":5.392139,"is_reserved":false,"is_disabled":false,"rental_uris":{"android":"levelo://app?vid=c94bad85-9533-422a-b3bc-abf1e98ea89e","ios":"levelo://app?vid=c94bad85-9533-422a-b3bc-abf1e98ea89e"},"vehicle_type_id":"4","last_reported":1700377576,"current_range_meters":29600,"station_id":"ce4bhjp2rcd13ifvqga0","pricing_plan_id":"free"},{"bike_id":"29caab89-965c-4ed0-a878-714d3fe39485","system_id":"levelo_inurba_marseille","lat":43.27372,"lon":5.36258,"is_reserved":false,"is_disabled":false,"rental_uris":{"android":"levelo://app?vid=29caab89-965c-4ed0-a878-714d3fe39485","ios":"levelo://app?vid=29caab89-965c-4ed0-a878-714d3fe39485"},"vehicle_type_id":"4","last_reported":1700377576,"current_range_meters":26400,"station_id":"ce4bhbh2rcd13ifvqeo0","pricing_plan_id":"free"},{"bike_id":"3722b463-6f19-46da-8bcc-affad47df645","system_id":"levelo_inurba_marseille","lat":43.33612,"lon":5.410321,"is_reserved":false,"is_disabled":false,"rental_uris":{"android":"levelo://app?vid=3722b463-6f19-46da-8bcc-affad47df645","ios":"levelo://app?vid=3722b463-6f19-46da-8bcc-affad47df645"},"vehicle_type_id":"4","last_reported":1700377576,"current_range_meters":30000,"station_id":"ce4bhqh2rcd13ifvqhmg","pricing_plan_id":"free"},{"bike_id":"d69994bb-c32a-48c3-9c4a-3b835490a2ba","system_id":"levelo_inurba_marseille","lat":43.279952,"lon":5.400085,"is_reserved":false,"is_disabled":false,"rental_uris":{"android":"levelo://app?vid=d69994bb-c32a-48c3-9c4a-3b835490a2ba","ios":"levelo://app?vid=d69994bb-c32a-48c3-9c4a-3b835490a2ba"},"vehicle_type_id":"4","last_reported":1700377576,"current_range_meters":28400,"station_id":"ce4bho92rcd13ifvqh4g","pricing_plan_id":"free"},{"bike_id":"eafeb385-8734-4d6e-872f-817338dfdd8c","system_id":"levelo_inurba_marseille","lat":43.317121,"lon":5.423936,"is_reserved":false,"is_disabled":false,"rental_uris":{"android":"levelo://app?vid=eafeb385-8734-4d6e-872f-817338dfdd8c","ios":"levelo://app?vid=eafeb385-8734-4d6e-872f-817338dfdd8c"},"vehicle_type_id":"4","last_reported":1700377576,"current_range_meters":20400,"station_id":"ce4bhp92rcd13ifvqhbg","pricing_plan_id":"free"},{"bike_id":"2b211598-c6f8-4e22-9ff6-5fa6873b8d02","system_id":"levelo_inurba_marseille","lat":43.317121,"lon":5.423936,"is_reserved":false,"is_disabled":false,"rental_uris":{"android":"levelo://app?vid=2b211598-c6f8-4e22-9ff6-5fa6873b8d02","ios":"levelo://app?vid=2b211598-c6f8-4e22-9ff6-5fa6873b8d02"},"vehicle_type_id":"4","last_reported":1700377576,"current_range_meters":28800,"station_id":"ce4bhp92rcd13ifvqhbg","pricing_plan_id":"free"},{"bike_id":"fa4671d4-131d-49ff-8ca2-5f7c231deecb","system_id":"levelo_inurba_marseille","lat":43.304096,"lon":5.425385,"is_reserved":false,"is_disabled":false,"rental_uris":{"android":"levelo://app?vid=fa4671d4-131d-49ff-8ca2-5f7c231deecb","ios":"levelo://app?vid=fa4671d4-131d-49ff-8ca2-5f7c231deecb"},"vehicle_type_id":"4","last_reported":1700377576,"current_range_meters":18800,"station_id":"ce4bhoh2rcd13ifvqh6g","pricing_plan_id":"free"},{"bike_id":"ce542890-8717-4995-89d1-bfd21ca58cd1","system_id":"levelo_inurba_marseille","lat":43.304096,"lon":5.425385,"is_reserved":false,"is_disabled":false,"rental_uris":{"android":"levelo://app?vid=ce542890-8717-4995-89d1-bfd21ca58cd1","ios":"levelo://app?vid=ce542890-8717-4995-89d1-bfd21ca58cd1"},"vehicle_type_id":"4","last_reported":1700377576,"current_range_meters":11600,"station_id":"ce4bhoh2rcd13ifvqh6g","pricing_plan_id":"free"},{"bike_id":"69d3e5e9-343f-4efc-aa7b-0bec1bce6c1d","system_id":"levelo_inurba_marseille","lat":43.295511,"lon":5.422926,"is_reserved":false,"is_disabled":false,"rental_uris":{"android":"levelo://app?vid=69d3e5e9-343f-4efc-aa7b-0bec1bce6c1d","ios":"levelo://app?vid=69d3e5e9-343f-4efc-aa7b-0bec1bce6c1d"},"vehicle_type_id":"4","last_reported":1700377576,"current_range_meters":28000,"station_id":"ce4bhph2rcd13ifvqhdg","pricing_plan_id":"free"},{"bike_id":"f8f5619a-a183-461d-b100-453fb972fcd4","system_id":"levelo_inurba_marseille","lat":43.272118,"lon":5.391758,"is_reserved":false,"is_disabled":false,"rental_uris":{"android":"levelo://app?vid=f8f5619a-a183-461d-b100-453fb972fcd4","ios":"levelo://app?vid=f8f5619a-a183-461d-b100-453fb972fcd4"},"vehicle_type_id":"4","last_reported":1700377576,"current_range_meters":22000,"station_id":"ce4bhhp2rcd13ifvqfm0","pricing_plan_id":"free"},{"bike_id":"b001cd3e-3b51-4036-bfba-00eaf55ed726","system_id":"levelo_inurba_marseille","lat":43.272124,"lon":5.391768,"is_reserved":false,"is_disabled":false,"rental_uris":{"android":"levelo://app?vid=b001cd3e-3b51-4036-bfba-00eaf55ed726","ios":"levelo://app?vid=b001cd3e-3b51-4036-bfba-00eaf55ed726"},"vehicle_type_id":"4","last_reported":1700377576,"current_range_meters":17600,"station_id":"ce4bhhp2rcd13ifvqfm0","pricing_plan_id":"free"},{"bike_id":"96a58e04-4b9e-474e-aa8a-901076af3b0c","system_id":"levelo_inurba_marseille","lat":43.272116,"lon":5.391763,"is_reserved":false,"is_disabled":false,"rental_uris":{"android":"levelo://app?vid=96a58e04-4b9e-474e-aa8a-901076af3b0c","ios":"levelo://app?vid=96a58e04-4b9e-474e-aa8a-901076af3b0c"},"vehicle_type_id":"4","last_reported":1700377576,"current_range_meters":29600,"station_id":"ce4bhhp2rcd13ifvqfm0","pricing_plan_id":"free"},{"bike_id":"4c63495d-3c85-464b-a623-60c3394ea7e5","system_id":"levelo_inurba_marseille","lat":43.272116,"lon":5.391763,"is_reserved":false,"is_disabled":false,"rental_uris":{"android":"levelo://app?vid=4c63495d-3c85-464b-a623-60c3394ea7e5","ios":"levelo://app?vid=4c63495d-3c85-464b-a623-60c3394ea7e5"},"vehicle_type_id":"4","last_reported":1700377576,"current_range_meters":27200,"station_id":"ce4bhhp2rcd13ifvqfm0","pricing_plan_id":"free"},{"bike_id":"09a14ed3-5501-4509-ba40-f80bfe37c849","system_id":"levelo_inurba_marseille","lat":43.272116,"lon":5.391747,"is_reserved":false,"is_disabled":false,"rental_uris":{"android":"levelo://app?vid=09a14ed3-5501-4509-ba40-f80bfe37c849","ios":"levelo://app?vid=09a14ed3-5501-4509-ba40-f80bfe37c849"},"vehicle_type_id":"4","last_reported":1700377576,"current_range_meters":28800,"station_id":"ce4bhhp2rcd13ifvqfm0","pricing_plan_id":"free"},{"bike_id":"36b25673-4c38-4b0f-a0da-e1a2ed85c324","system_id":"levelo_inurba_marseille","lat":43.272124,"lon":5.391768,"is_reserved":false,"is_disabled":false,"rental_uris":{"android":"levelo://app?vid=36b25673-4c38-4b0f-a0da-e1a2ed85c324","ios":"levelo://app?vid=36b25673-4c38-4b0f-a0da-e1a2ed85c324"},"vehicle_type_id":"4","last_reported":1700377576,"current_range_meters":29600,"station_id":"ce4bhhp2rcd13ifvqfm0","pricing_plan_id":"free"},{"bike_id":"a2594bb0-d394-4de1-9309-47403b5f3407","system_id":"levelo_inurba_marseille","lat":43.27208,"lon":5.39194,"is_reserved":false,"is_disabled":false,"rental_uris":{"android":"levelo://app?vid=a2594bb0-d394-4de1-9309-47403b5f3407","ios":"levelo://app?vid=a2594bb0-d394-4de1-9309-47403b5f3407"},"vehicle_type_id":"4","last_reported":1700377576,"current_range_meters":25600,"station_id":"ce4bhhp2rcd13ifvqfm0","pricing_plan_id":"free"},{"bike_id":"b3115b64-19cc-4310-9366-699112ed0be8","system_id":"levelo_inurba_marseille","lat":43.272116,"lon":5.391747,"is_reserved":false,"is_disabled":false,"rental_uris":{"android":"levelo://app?vid=b3115b64-19cc-4310-9366-699112ed0be8","ios":"levelo://app?vid=b3115b64-19cc-4310-9366-699112ed0be8"},"vehicle_type_id":"4","last_reported":1700377576,"current_range_meters":28800,"station_id":"ce4bhhp2rcd13ifvqfm0","pricing_plan_id":"free"},{"bike_id":"9f79d3d8-64a8-45cd-85c3-e8eaba903fe9","system_id":"levelo_inurba_marseille","lat":43.272116,"lon":5.391747,"is_reserved":false,"is_disabled":false,"rental_uris":{"android":"levelo://app?vid=9f79d3d8-64a8-45cd-85c3-e8eaba903fe9","ios":"levelo://app?vid=9f79d3d8-64a8-45cd-85c3-e8eaba903fe9"},"vehicle_type_id":"4","last_reported":1700377576,"current_range_meters":20000,"station_id":"ce4bhhp2rcd13ifvqfm0","pricing_plan_id":"free"},{"bike_id":"139753b1-0b83-4c3a-80f1-5052bac15461","system_id":"levelo_inurba_marseille","lat":43.27215,"lon":5.392658,"is_reserved":false,"is_disabled":false,"rental_uris":{"android":"levelo://app?vid=139753b1-0b83-4c3a-80f1-5052bac15461","ios":"levelo://app?vid=139753b1-0b83-4c3a-80f1-5052bac15461"},"vehicle_type_id":"4","last_reported":1700377576,"current_range_meters":8800,"station_id":"","pricing_plan_id":"free"},{"bike_id":"fe139271-7817-4645-9ec4-f7eee743e805","system_id":"levelo_inurba_marseille","lat":43.271896,"lon":5.392307,"is_reserved":false,"is_disabled":false,"rental_uris":{"android":"levelo://app?vid=fe139271-7817-4645-9ec4-f7eee743e805","ios":"levelo://app?vid=fe139271-7817-4645-9ec4-f7eee743e805"},"vehicle_type_id":"4","last_reported":1700377576,"current_range_meters":0,"station_id":"","pricing_plan_id":"free"},{"bike_id":"f0ed4531-078e-42fb-a007-3ed80505eb54","system_id":"levelo_inurba_marseille","lat":43.271891,"lon":5.392412,"is_reserved":false,"is_disabled":false,"rental_uris":{"android":"levelo://app?vid=f0ed4531-078e-42fb-a007-3ed80505eb54","ios":"levelo://app?vid=f0ed4531-078e-42fb-a007-3ed80505eb54"},"vehicle_type_id":"4","last_reported":1700377576,"current_range_meters":4000,"station_id":"","pricing_plan_id":"free"},{"bike_id":"64192382-f50f-4031-b49a-1f0862a4927e","system_id":"levelo_inurba_marseille","lat":43.269319,"lon":5.389397,"is_reserved":false,"is_disabled":false,"rental_uris":{"android":"levelo://app?vid=64192382-f50f-4031-b49a-1f0862a4927e","ios":"levelo://app?vid=64192382-f50f-4031-b49a-1f0862a4927e"},"vehicle_type_id":"4","last_reported":1700377576,"current_range_meters":22800,"station_id":"ce4bhhh2rcd13ifvqfl0","pricing_plan_id":"free"},{"bike_id":"875af01b-d3ae-4784-840c-2df39061230d","system_id":"levelo_inurba_marseille","lat":43.26681,"lon":5.382694,"is_reserved":false,"is_disabled":false,"rental_uris":{"android":"levelo://app?vid=875af01b-d3ae-4784-840c-2df39061230d","ios":"levelo://app?vid=875af01b-d3ae-4784-840c-2df39061230d"},"vehicle_type_id":"4","last_reported":1700377576,"current_range_meters":25600,"station_id":"ce4bhg92rcd13ifvqf90","pricing_plan_id":"free"},{"bike_id":"c7758cb2-2a45-4f89-aa5c-0e391d845c76","system_id":"levelo_inurba_marseille","lat":43.326053,"lon":5.429943,"is_reserved":false,"is_disabled":false,"rental_uris":{"android":"levelo://app?vid=c7758cb2-2a45-4f89-aa5c-0e391d845c76","ios":"levelo://app?vid=c7758cb2-2a45-4f89-aa5c-0e391d845c76"},"vehicle_type_id":"4","last_reported":1700377576,"current_range_meters":1200,"station_id":"","pricing_plan_id":"free"},{"bike_id":"42871d3b-8c03-490f-baf1-f4b57c44a331","system_id":"levelo_inurba_marseille","lat":43.326569,"lon":5.430586,"is_reserved":false,"is_disabled":false,"rental_uris":{"android":"levelo://app?vid=42871d3b-8c03-490f-baf1-f4b57c44a331","ios":"levelo://app?vid=42871d3b-8c03-490f-baf1-f4b57c44a331"},"vehicle_type_id":"4","last_reported":1700377576,"current_range_meters":16400,"station_id":"","pricing_plan_id":"free"},{"bike_id":"20239025-ca57-4ea6-b208-9e44589f48c4","system_id":"levelo_inurba_marseille","lat":43.267966,"lon":5.393976,"is_reserved":false,"is_disabled":false,"rental_uris":{"android":"levelo://app?vid=20239025-ca57-4ea6-b208-9e44589f48c4","ios":"levelo://app?vid=20239025-ca57-4ea6-b208-9e44589f48c4"},"vehicle_type_id":"4","last_reported":1700377576,"current_range_meters":27200,"station_id":"ce4bhh12rcd13ifvqfg0","pricing_plan_id":"free"},{"bike_id":"b62e75f9-7e74-40fa-a582-5ea8b782f419","system_id":"levelo_inurba_marseille","lat":43.267966,"lon":5.393976,"is_reserved":false,"is_disabled":false,"rental_uris":{"android":"levelo://app?vid=b62e75f9-7e74-40fa-a582-5ea8b782f419","ios":"levelo://app?vid=b62e75f9-7e74-40fa-a582-5ea8b782f419"},"vehicle_type_id":"4","last_reported":1700377576,"current_range_meters":22400,"station_id":"ce4bhh12rcd13ifvqfg0","pricing_plan_id":"free"},{"bike_id":"c8493734-954e-4d55-82b2-5c0c406b53e5","system_id":"levelo_inurba_marseille","lat":43.26557,"lon":5.39016,"is_reserved":false,"is_disabled":false,"rental_uris":{"android":"levelo://app?vid=c8493734-954e-4d55-82b2-5c0c406b53e5","ios":"levelo://app?vid=c8493734-954e-4d55-82b2-5c0c406b53e5"},"vehicle_type_id":"4","last_reported":1700377576,"current_range_meters":28800,"station_id":"ce4bhe12rcd13ifvqf30","pricing_plan_id":"free"},{"bike_id":"302a664a-5824-48d2-93ed-e11eedae665f","system_id":"levelo_inurba_marseille","lat":43.26944,"lon":5.40254,"is_reserved":false,"is_disabled":false,"rental_uris":{"android":"levelo://app?vid=302a664a-5824-48d2-93ed-e11eedae665f","ios":"levelo://app?vid=302a664a-5824-48d2-93ed-e11eedae665f"},"vehicle_type_id":"4","last_reported":1700377576,"current_range_meters":16400,"station_id":"cjm6bp8fraef2m0cb0m0","pricing_plan_id":"free"},{"bike_id":"a58e6a44-8b8f-4c19-b750-9c10770a89d5","system_id":"levelo_inurba_marseille","lat":43.269399,"lon":5.402466,"is_reserved":false,"is_disabled":false,"rental_uris":{"android":"levelo://app?vid=a58e6a44-8b8f-4c19-b750-9c10770a89d5","ios":"levelo://app?vid=a58e6a44-8b8f-4c19-b750-9c10770a89d5"},"vehicle_type_id":"4","last_reported":1700377576,"current_range_meters":11600,"station_id":"cjm6bp8fraef2m0cb0m0","pricing_plan_id":"free"},{"bike_id":"2bba8091-b83c-431a-850a-bd280dacad58","system_id":"levelo_inurba_marseille","lat":43.26949,"lon":5.40262,"is_reserved":false,"is_disabled":false,"rental_uris":{"android":"levelo://app?vid=2bba8091-b83c-431a-850a-bd280dacad58","ios":"levelo://app?vid=2bba8091-b83c-431a-850a-bd280dacad58"},"vehicle_type_id":"4","last_reported":1700377576,"current_range_meters":29200,"station_id":"cjm6bp8fraef2m0cb0m0","pricing_plan_id":"free"},{"bike_id":"d06dceee-ec7a-4aad-b25e-6d0840a89e3d","system_id":"levelo_inurba_marseille","lat":43.262012,"lon":5.379307,"is_reserved":false,"is_disabled":false,"rental_uris":{"android":"levelo://app?vid=d06dceee-ec7a-4aad-b25e-6d0840a89e3d","ios":"levelo://app?vid=d06dceee-ec7a-4aad-b25e-6d0840a89e3d"},"vehicle_type_id":"4","last_reported":1700377576,"current_range_meters":29600,"station_id":"ce4bhjp2rcd13ifvqg90","pricing_plan_id":"free"},{"bike_id":"fceea0b4-dbf1-4ef6-9594-3d8e82d56d53","system_id":"levelo_inurba_marseille","lat":43.271368,"lon":5.40928,"is_reserved":false,"is_disabled":false,"rental_uris":{"android":"levelo://app?vid=fceea0b4-dbf1-4ef6-9594-3d8e82d56d53","ios":"levelo://app?vid=fceea0b4-dbf1-4ef6-9594-3d8e82d56d53"},"vehicle_type_id":"4","last_reported":1700377576,"current_range_meters":19600,"station_id":"ce4bhl12rcd13ifvqgf0","pricing_plan_id":"free"},{"bike_id":"10cc9d15-12a4-4222-8ac4-988310eef869","system_id":"levelo_inurba_marseille","lat":43.262012,"lon":5.379307,"is_reserved":false,"is_disabled":false,"rental_uris":{"android":"levelo://app?vid=10cc9d15-12a4-4222-8ac4-988310eef869","ios":"levelo://app?vid=10cc9d15-12a4-4222-8ac4-988310eef869"},"vehicle_type_id":"4","last_reported":1700377576,"current_range_meters":30400,"station_id":"ce4bhjp2rcd13ifvqg90","pricing_plan_id":"free"},{"bike_id":"05c00383-ec19-421b-b6cf-818fbc2db8ef","system_id":"levelo_inurba_marseille","lat":43.26202,"lon":5.379299,"is_reserved":false,"is_disabled":false,"rental_uris":{"android":"levelo://app?vid=05c00383-ec19-421b-b6cf-818fbc2db8ef","ios":"levelo://app?vid=05c00383-ec19-421b-b6cf-818fbc2db8ef"},"vehicle_type_id":"4","last_reported":1700377576,"current_range_meters":28000,"station_id":"ce4bhjp2rcd13ifvqg90","pricing_plan_id":"free"},{"bike_id":"74ce853b-0d8b-42c9-81c8-17a7564a4b34","system_id":"levelo_inurba_marseille","lat":43.31725,"lon":5.43786,"is_reserved":false,"is_disabled":false,"rental_uris":{"android":"levelo://app?vid=74ce853b-0d8b-42c9-81c8-17a7564a4b34","ios":"levelo://app?vid=74ce853b-0d8b-42c9-81c8-17a7564a4b34"},"vehicle_type_id":"4","last_reported":1700377576,"current_range_meters":15600,"station_id":"","pricing_plan_id":"free"},{"bike_id":"abadc828-69fe-497b-b711-e5360a68b2c4","system_id":"levelo_inurba_marseille","lat":43.29899,"lon":5.43662,"is_reserved":false,"is_disabled":false,"rental_uris":{"android":"levelo://app?vid=abadc828-69fe-497b-b711-e5360a68b2c4","ios":"levelo://app?vid=abadc828-69fe-497b-b711-e5360a68b2c4"},"vehicle_type_id":"4","last_reported":1700377576,"current_range_meters":21600,"station_id":"ce4bhpp2rcd13ifvqhfg","pricing_plan_id":"free"},{"bike_id":"eceaa0f3-52ef-4d0d-b422-04c8e585a271","system_id":"levelo_inurba_marseille","lat":43.28153,"lon":5.42643,"is_reserved":false,"is_disabled":false,"rental_uris":{"android":"levelo://app?vid=eceaa0f3-52ef-4d0d-b422-04c8e585a271","ios":"levelo://app?vid=eceaa0f3-52ef-4d0d-b422-04c8e585a271"},"vehicle_type_id":"4","last_reported":1700377576,"current_range_meters":0,"station_id":"ce4bhnh2rcd13ifvqgug","pricing_plan_id":"free"},{"bike_id":"4b05078a-8712-4997-a6f5-f5ba1ef519e4","system_id":"levelo_inurba_marseille","lat":43.26064,"lon":5.3939,"is_reserved":false,"is_disabled":false,"rental_uris":{"android":"levelo://app?vid=4b05078a-8712-4997-a6f5-f5ba1ef519e4","ios":"levelo://app?vid=4b05078a-8712-4997-a6f5-f5ba1ef519e4"},"vehicle_type_id":"4","last_reported":1700377576,"current_range_meters":26800,"station_id":"ce4bhh92rcd13ifvqfj0","pricing_plan_id":"free"},{"bike_id":"c15cbfe4-6e79-4293-b2f2-eee731f9c6c2","system_id":"levelo_inurba_marseille","lat":43.2607,"lon":5.393983,"is_reserved":false,"is_disabled":false,"rental_uris":{"android":"levelo://app?vid=c15cbfe4-6e79-4293-b2f2-eee731f9c6c2","ios":"levelo://app?vid=c15cbfe4-6e79-4293-b2f2-eee731f9c6c2"},"vehicle_type_id":"4","last_reported":1700377576,"current_range_meters":30400,"station_id":"ce4bhh92rcd13ifvqfj0","pricing_plan_id":"free"},{"bike_id":"28d5df33-0a6f-4bf9-9f7a-c1bb2724b4b4","system_id":"levelo_inurba_marseille","lat":43.2607,"lon":5.393983,"is_reserved":false,"is_disabled":false,"rental_uris":{"android":"levelo://app?vid=28d5df33-0a6f-4bf9-9f7a-c1bb2724b4b4","ios":"levelo://app?vid=28d5df33-0a6f-4bf9-9f7a-c1bb2724b4b4"},"vehicle_type_id":"4","last_reported":1700377576,"current_range_meters":31200,"station_id":"ce4bhh92rcd13ifvqfj0","pricing_plan_id":"free"},{"bike_id":"74c6e14c-1175-4e17-8f5f-d056513a9f89","system_id":"levelo_inurba_marseille","lat":43.2607,"lon":5.393983,"is_reserved":false,"is_disabled":false,"rental_uris":{"android":"levelo://app?vid=74c6e14c-1175-4e17-8f5f-d056513a9f89","ios":"levelo://app?vid=74c6e14c-1175-4e17-8f5f-d056513a9f89"},"vehicle_type_id":"4","last_reported":1700377576,"current_range_meters":30800,"station_id":"ce4bhh92rcd13ifvqfj0","pricing_plan_id":"free"},{"bike_id":"039398bb-8f48-4a09-90e4-c695a075e1b2","system_id":"levelo_inurba_marseille","lat":43.275028,"lon":5.424534,"is_reserved":false,"is_disabled":false,"rental_uris":{"android":"levelo://app?vid=039398bb-8f48-4a09-90e4-c695a075e1b2","ios":"levelo://app?vid=039398bb-8f48-4a09-90e4-c695a075e1b2"},"vehicle_type_id":"4","last_reported":1700377576,"current_range_meters":27200,"station_id":"ce4bhn92rcd13ifvqgrg","pricing_plan_id":"free"},{"bike_id":"83adb50e-13ad-4a0a-b679-c8ddf78a1b0a","system_id":"levelo_inurba_marseille","lat":43.275028,"lon":5.424534,"is_reserved":false,"is_disabled":false,"rental_uris":{"android":"levelo://app?vid=83adb50e-13ad-4a0a-b679-c8ddf78a1b0a","ios":"levelo://app?vid=83adb50e-13ad-4a0a-b679-c8ddf78a1b0a"},"vehicle_type_id":"4","last_reported":1700377576,"current_range_meters":29600,"station_id":"ce4bhn92rcd13ifvqgrg","pricing_plan_id":"free"},{"bike_id":"568d1d00-016b-48b6-964b-364bcd49ff03","system_id":"levelo_inurba_marseille","lat":43.260909,"lon":5.397591,"is_reserved":false,"is_disabled":false,"rental_uris":{"android":"levelo://app?vid=568d1d00-016b-48b6-964b-364bcd49ff03","ios":"levelo://app?vid=568d1d00-016b-48b6-964b-364bcd49ff03"},"vehicle_type_id":"4","last_reported":1700377576,"current_range_meters":31200,"station_id":"ce4bhi12rcd13ifvqfq0","pricing_plan_id":"free"},{"bike_id":"91b3c4bf-7b19-45fb-b809-6f886f9aa480","system_id":"levelo_inurba_marseille","lat":43.275028,"lon":5.424534,"is_reserved":false,"is_disabled":false,"rental_uris":{"android":"levelo://app?vid=91b3c4bf-7b19-45fb-b809-6f886f9aa480","ios":"levelo://app?vid=91b3c4bf-7b19-45fb-b809-6f886f9aa480"},"vehicle_type_id":"4","last_reported":1700377576,"current_range_meters":29600,"station_id":"ce4bhn92rcd13ifvqgrg","pricing_plan_id":"free"},