{"last_updated":1736267219,"ttl":60,"version":"2.2","data":{"bikes":[{"bike_id":"e5028c33-9f8e-4ac3-a14c-e67e8c232bdb","system_id":"levelo_inurba_marseille","lat":43.27826,"lon":5.40687,"is_reserved":false,"is_disabled":false,"rental_uris":{"android":"levelo://app?vid=e5028c33-9f8e-4ac3-a14c-e67e8c232bdb","ios":"levelo://app?vid=e5028c33-9f8e-4ac3-a14c-e67e8c232bdb"},"vehicle_type_id":"4","last_reported":1736267219,"current_range_meters":30000,"station_id":"ce4bhnh2rcd13ifvqgtg","pricing_plan_id":"cebpf4jnsgd1na2vs0mg"},{"bike_id":"1222b776-bbdb-4c45-af67-3952d4fc7463","system_id":"levelo_inurba_marseille","lat":43.2926,"lon":5.40914,"is_reserved":false,"is_disabled":false,"rental_uris":{"android":"levelo://app?vid=1222b776-bbdb-4c45-af67-3952d4fc7463","ios":"levelo://app?vid=1222b776-bbdb-4c45-af67-3952d4fc7463"},"vehicle_type_id":"4","last_reported":1736267219,"current_range_meters":38000,"station_id":"ce4bh192rcd13ifvqdc0","pricing_plan_id":"cebpf4jnsgd1na2vs0mg"},{"bike_id":"68e467a4-c43e-4c3c-bec8-ea4739453bb6","system_id":"levelo_inurba_marseille","lat":43.3029,"lon":5.37708,"is_reserved":false,"is_disabled":false,"rental_uris":{"android":"levelo://app?vid=68e467a4-c43e-4c3c-bec8-ea4739453bb6","ios":"levelo://app?vid=68e467a4-c43e-4c3c-bec8-ea4739453bb6"},"vehicle_type_id":"4","last_reported":1736267219,"current_range_meters":14000,"station_id":"ce4bguh2rcd13ifvqcj0","pricing_plan_id":"cebpf4jnsgd1na2vs0mg"},{"bike_id":"1c2c3464-8b3a-4eab-9fdd-fd6c6e2d5657","system_id":"levelo_inurba_marseille","lat":43.28669,"lon":5.38658,"is_reserved":false,"is_disabled":false,"rental_uris":{"android":"levelo://app?vid=1c2c3464-8b3a-4eab-9fdd-fd6c6e2d5657","ios":"levelo://app?vid=1c2c3464-8b3a-4eab-9fdd-fd6c6e2d5657"},"vehicle_type_id":"4","last_reported":1736267219,"current_range_meters":38800,"station_id":"ce4bh492rcd13ifvqdug","pricing_plan_id":"cebpf4jnsgd1na2vs0mg"},{"bike_id":"f966b4a0-9a2b-42b9-b80b-88c744b63399","system_id":"levelo_inurba_marseille","lat":43.31079,"lon":5.42431,"is_reserved":false,"is_disabled":false,"rental_uris":{"android":"levelo://app?vid=f966b4a0-9a2b-42b9-b80b-88c744b63399","ios":"levelo://app?vid=f966b4a0-9a2b-42b9-b80b-88c744b63399"},"vehicle_type_id":"4","last_reported":1736267219,"current_range_meters":28400,"station_id":"ce4bhp92rcd13ifvqhag","pricing_plan_id":"cebpf4jnsgd1na2vs0mg"},{"bike_id":"e8f7458c-cf19-43d7-a972-43547ad9fe30","system_id":"levelo_inurba_marseille","lat":43.27174,"lon":5.40996,"is_reserved":false,"is_disabled":false,"rental_uris":{"android":"levelo://app?vid=e8f7458c-cf19-43d7-a972-43547ad9fe30","ios":"levelo://app?vid=e8f7458c-cf19-43d7-a972-43547ad9fe30"},"vehicle_type_id":"4","last_reported":1736267219,"current_range_meters":2800,"station_id":"ce4bhl12rcd13ifvqgf0","pricing_plan_id":"cebpf4jnsgd1na2vs0mg"},{"bike_id":"05a2c15a-fb68-455c-8082-fdf747a62fe7","system_id":"levelo_inurba_marseille","lat":43.27831,"lon":5.40691,"is_reserved":false,"is_disabled":false,"rental_uris":{"android":"levelo://app?vid=05a2c15a-fb68-455c-8082-fdf747a62fe7","ios":"levelo://app?vid=05a2c15a-fb68-455c-8082-fdf747a62fe7"},"vehicle_type_id":"4","last_reported":1736267219,"current_range_meters":38800,"station_id":"ce4bhnh2rcd13ifvqgtg","pricing_plan_id":"cebpf4jnsgd1na2vs0mg"},{"bike_id":"ea2fb47d-80c6-468d-af24-19167dbb7203","system_id":"levelo_inurba_marseille","lat":43.3065,"lon":5.40106,"is_reserved":false,"is_disabled":false,"rental_uris":{"android":"levelo://app?vid=ea2fb47d-80c6-468d-af24-19167dbb7203","ios":"levelo://app?vid=ea2fb47d-80c6-468d-af24-19167dbb7203"},"vehicle_type_id":"4","last_reported":1736267219,"current_range_meters":34800,"station_id":"ce4bh112rcd13ifvqda0","pricing_plan_id":"cebpf4jnsgd1na2vs0mg"},{"bike_id":"7acb32b8-42a7-4a4d-88f8-f6099016e2cc","system_id":"levelo_inurba_marseille","lat":43.2903,"lon":5.3756,"is_reserved":false,"is_disabled":false,"rental_uris":{"android":"levelo://app?vid=7acb32b8-42a7-4a4d-88f8-f6099016e2cc","ios":"levelo://app?vid=7acb32b8-42a7-4a4d-88f8-f6099016e2cc"},"vehicle_type_id":"4","last_reported":1736267219,"current_range_meters":30800,"station_id":"ce4bh692rcd13ifvqe90","pricing_plan_id":"cebpf4jnsgd1na2vs0mg"},{"bike_id":"9c9da3e0-e69f-4cd5-beaa-cb2ed1efc70d","system_id":"levelo_inurba_marseille","lat":43.28603,"lon":5.37073,"is_reserved":false,"is_disabled":true,"rental_uris":{"android":"levelo://app?vid=9c9da3e0-e69f-4cd5-beaa-cb2ed1efc70d","ios":"levelo://app?vid=9c9da3e0-e69f-4cd5-beaa-cb2ed1efc70d"},"vehicle_type_id":"4","last_reported":1736267219,"current_range_meters":400,"station_id":"ce4bht12rcd13ifvqi60","pricing_plan_id":"cebpf4jnsgd1na2vs0mg"},{"bike_id":"2e3020fc-739e-484f-aff1-968aa18f2ac1","system_id":"levelo_inurba_marseille","lat":43.27993,"lon":5.41653,"is_reserved":false,"is_disabled":true,"rental_uris":{"android":"levelo://app?vid=2e3020fc-739e-484f-aff1-968aa18f2ac1","ios":"levelo://app?vid=2e3020fc-739e-484f-aff1-968aa18f2ac1"},"vehicle_type_id":"4","last_reported":1736267219,"current_range_meters":35600,"station_id":"ce4bho12rcd13ifvqh1g","pricing_plan_id":"cebpf4jnsgd1na2vs0mg"},{"bike_id":"53d571f8-efce-44c6-8899-b9338e3df679","system_id":"levelo_inurba_marseille","lat":43.29003,"lon":5.35614,"is_reserved":false,"is_disabled":false,"rental_uris":{"android":"levelo://app?vid=53d571f8-efce-44c6-8899-b9338e3df679","ios":"levelo://app?vid=53d571f8-efce-44c6-8899-b9338e3df679"},"vehicle_type_id":"4","last_reported":1736267219,"current_range_meters":30400,"station_id":"ce4bhb92rcd13ifvqen0","pricing_plan_id":"cebpf4jnsgd1na2vs0mg"},{"bike_id":"363a4833-cd98-4508-ba01-dd9b878c8e4e","system_id":"levelo_inurba_marseille","lat":43.26216,"lon":5.37439,"is_reserved":false,"is_disabled":false,"rental_uris":{"android":"levelo://app?vid=363a4833-cd98-4508-ba01-dd9b878c8e4e","ios":"levelo://app?vid=363a4833-cd98-4508-ba01-dd9b878c8e4e"},"vehicle_type_id":"4","last_reported":1736267219,"current_range_meters":24400,"station_id":"ce4bhgp2rcd13ifvqfc0","pricing_plan_id":"cebpf4jnsgd1na2vs0mg"},{"bike_id":"5f21cdc1-e56d-4c94-b8ac-7c72599c490f","system_id":"levelo_inurba_marseille","lat":43.30547,"lon":5.36541,"is_reserved":false,"is_disabled":false,"rental_uris":{"android":"levelo://app?vid=5f21cdc1-e56d-4c94-b8ac-7c72599c490f","ios":"levelo://app?vid=5f21cdc1-e56d-4c94-b8ac-7c72599c490f"},"vehicle_type_id":"4","last_reported":1736267219,"current_range_meters":38800,"station_id":"ce4bgs12rcd13ifvqcag","pricing_plan_id":"cebpf4jnsgd1na2vs0mg"},{"bike_id":"954aa06e-89dc-41a2-b8ed-f2bc14bde573","system_id":"levelo_inurba_marseille","lat":43.29809,"lon":5.38093,"is_reserved":false,"is_disabled":false,"rental_uris":{"android":"levelo://app?vid=954aa06e-89dc-41a2-b8ed-f2bc14bde573","ios":"levelo://app?vid=954aa06e-89dc-41a2-b8ed-f2bc14bde573"},"vehicle_type_id":"4","last_reported":1736267219,"current_range_meters":38800,"station_id":"ce4bgip2rcd13ifvqbb0","pricing_plan_id":"cebpf4jnsgd1na2vs0mg"},{"bike_id":"8b7b03a4-76c0-429d-86c4-2cba528f75db","system_id":"levelo_inurba_marseille","lat":43.32367,"lon":5.38881,"is_reserved":false,"is_disabled":true,"rental_uris":{"android":"levelo://app?vid=8b7b03a4-76c0-429d-86c4-2cba528f75db","ios":"levelo://app?vid=8b7b03a4-76c0-429d-86c4-2cba528f75db"},"vehicle_type_id":"4","last_reported":1736267219,"current_range_meters":0,"station_id":"ce4bhqp2rcd13ifvqhog","pricing_plan_id":"cebpf4jnsgd1na2vs0mg"},{"bike_id":"3dcc1c8e-6db9-4000-a7ee-f1b5b658ee7a","system_id":"levelo_inurba_marseille","lat":43.27183,"lon":5.40974,"is_reserved":false,"is_disabled":false,"rental_uris":{"android":"levelo://app?vid=3dcc1c8e-6db9-4000-a7ee-f1b5b658ee7a","ios":"levelo://app?vid=3dcc1c8e-6db9-4000-a7ee-f1b5b658ee7a"},"vehicle_type_id":"4","last_reported":1736267219,"current_range_meters":38800,"station_id":"ce4bhl12rcd13ifvqgf0","pricing_plan_id":"cebpf4jnsgd1na2vs0mg"},{"bike_id":"e1d67e76-e9ef-43a5-b307-2704c03519b0","system_id":"levelo_inurba_marseille","lat":43.27995,"lon":5.39999,"is_reserved":false,"is_disabled":false,"rental_uris":{"android":"levelo://app?vid=e1d67e76-e9ef-43a5-b307-2704c03519b0","ios":"levelo://app?vid=e1d67e76-e9ef-43a5-b307-2704c03519b0"},"vehicle_type_id":"4","last_reported":1736267219,"current_range_meters":21600,"station_id":"ce4bho92rcd13ifvqh4g","pricing_plan_id":"cebpf4jnsgd1na2vs0mg"},{"bike_id":"5c0aad52-25fe-4bd2-a04f-5e15c35b85f1","system_id":"levelo_inurba_marseille","lat":43.29592,"lon":5.38101,"is_reserved":false,"is_disabled":false,"rental_uris":{"android":"levelo://app?vid=5c0aad52-25fe-4bd2-a04f-5e15c35b85f1","ios":"levelo://app?vid=5c0aad52-25fe-4bd2-a04f-5e15c35b85f1"},"vehicle_type_id":"4","last_reported":1736267219,"current_range_meters":20800,"station_id":"ce4bgl12rcd13ifvqbo0","pricing_plan_id":"cebpf4jnsgd1na2vs0mg"},{"bike_id":"0689e2af-22a3-4abe-9f8b-7152ee049ab5","system_id":"levelo_inurba_marseille","lat":43.27208,"lon":5.39143,"is_reserved":false,"is_disabled":true,"rental_uris":{"android":"levelo://app?vid=0689e2af-22a3-4abe-9f8b-7152ee049ab5","ios":"levelo://app?vid=0689e2af-22a3-4abe-9f8b-7152ee049ab5"},"vehicle_type_id":"4","last_reported":1736267219,"current_range_meters":0,"station_id":"ce4bhhp2rcd13ifvqfm0","pricing_plan_id":"cebpf4jnsgd1na2vs0mg"},{"bike_id":"ebf91ce6-504a-4fbf-8198-7dd9b2d4818f","system_id":"levelo_inurba_marseille","lat":43.29076,"lon":5.37166,"is_reserved":false,"is_disabled":true,"rental_uris":{"android":"levelo://app?vid=ebf91ce6-504a-4fbf-8198-7dd9b2d4818f","ios":"levelo://app?vid=ebf91ce6-504a-4fbf-8198-7dd9b2d4818f"},"vehicle_type_id":"4","last_reported":1736267219,"current_range_meters":1600,"station_id":"ce4bh5p2rcd13ifvqe4g","pricing_plan_id":"cebpf4jnsgd1na2vs0mg"},{"bike_id":"8a4c045a-dd75-4b08-85b8-01a9f1b5d499","system_id":"levelo_inurba_marseille","lat":43.31067,"lon":5.38355,"is_reserved":false,"is_disabled":false,"rental_uris":{"android":"levelo://app?vid=8a4c045a-dd75-4b08-85b8-01a9f1b5d499","ios":"levelo://app?vid=8a4c045a-dd75-4b08-85b8-01a9f1b5d499"},"vehicle_type_id":"4","last_reported":1736267219,"current_range_meters":22000,"station_id":"ce4bgv92rcd13ifvqcr0","pricing_plan_id":"cebpf4jnsgd1na2vs0mg"},{"bike_id":"c023aed8-c4af-47de-bf55-7ec6cfb1c879","system_id":"levelo_inurba_marseille","lat":43.26203,"lon":5.37444,"is_reserved":false,"is_disabled":true,"rental_uris":{"android":"levelo://app?vid=c023aed8-c4af-47de-bf55-7ec6cfb1c879","ios":"levelo://app?vid=c023aed8-c4af-47de-bf55-7ec6cfb1c879"},"vehicle_type_id":"4","last_reported":1736267219,"current_range_meters":27200,"station_id":"ce4bhgp2rcd13ifvqfc0","pricing_plan_id":"cebpf4jnsgd1na2vs0mg"},{"bike_id":"f5477bd9-ae2b-4f4a-90d2-43e1d2905a20","system_id":"levelo_inurba_marseille","lat":43.28427,"lon":5.34986,"is_reserved":false,"is_disabled":false,"rental_uris":{"android":"levelo://app?vid=f5477bd9-ae2b-4f4a-90d2-43e1d2905a20","ios":"levelo://app?vid=f5477bd9-ae2b-4f4a-90d2-43e1d2905a20"},"vehicle_type_id":"4","last_reported":1736267219,"current_range_meters":18000,"station_id":"ce4bhbh2rcd13ifvqepg","pricing_plan_id":"cebpf4jnsgd1na2vs0mg"},{"bike_id":"ad036647-e9f4-4246-953d-37ee6601db50","system_id":"levelo_inurba_marseille","lat":43.24671,"lon":5.38163,"is_reserved":false,"is_disabled":false,"rental_uris":{"android":"levelo://app?vid=ad036647-e9f4-4246-953d-37ee6601db50","ios":"levelo://app?vid=ad036647-e9f4-4246-953d-37ee6601db50"},"vehicle_type_id":"4","last_reported":1736267219,"current_range_meters":16000,"station_id":"ce4bhih2rcd13ifvqfr0","pricing_plan_id":"cebpf4jnsgd1na2vs0mg"},{"bike_id":"515fb29a-e725-42c4-b3fe-98f830e3054e","system_id":"levelo_inurba_marseille","lat":43.26565,"lon":5.37292,"is_reserved":false,"is_disabled":false,"rental_uris":{"android":"levelo://app?vid=515fb29a-e725-42c4-b3fe-98f830e3054e","ios":"levelo://app?vid=515fb29a-e725-42c4-b3fe-98f830e3054e"},"vehicle_type_id":"4","last_reported":1736267219,"current_range_meters":28400,"station_id":"ce4bhg12rcd13ifvqf70","pricing_plan_id":"cebpf4jnsgd1na2vs0mg"},{"bike_id":"ee7f5816-483f-4372-8ce1-bc546e1bdb5f","system_id":"levelo_inurba_marseille","lat":43.249987,"lon":5.389288,"is_reserved":false,"is_disabled":false,"rental_uris":{"android":"levelo://app?vid=ee7f5816-483f-4372-8ce1-bc546e1bdb5f","ios":"levelo://app?vid=ee7f5816-483f-4372-8ce1-bc546e1bdb5f"},"vehicle_type_id":"4","last_reported":1736267219,"current_range_meters":22800,"station_id":"ce4bhgp2rcd13ifvqfd0","pricing_plan_id":"cebpf4jnsgd1na2vs0mg"},{"bike_id":"78da78dd-6e28-4780-ba4d-89e8ee2d06c7","system_id":"levelo_inurba_marseille","lat":43.30609,"lon":5.37222,"is_reserved":false,"is_disabled":false,"rental_uris":{"android":"levelo://app?vid=78da78dd-6e28-4780-ba4d-89e8ee2d06c7","ios":"levelo://app?vid=78da78dd-6e28-4780-ba4d-89e8ee2d06c7"},"vehicle_type_id":"4","last_reported":1736267219,"current_range_meters":15200,"station_id":"ce4bgqh2rcd13ifvqc4g","pricing_plan_id":"cebpf4jnsgd1na2vs0mg"},{"bike_id":"4ab6871b-bd43-49a5-a391-9a5a38e489aa","system_id":"levelo_inurba_marseille","lat":43.26198,"lon":5.37913,"is_reserved":false,"is_disabled":false,"rental_uris":{"android":"levelo://app?vid=4ab6871b-bd43-49a5-a391-9a5a38e489aa","ios":"levelo://app?vid=4ab6871b-bd43-49a5-a391-9a5a38e489aa"},"vehicle_type_id":"4","last_reported":1736267219,"current_range_meters":37600,"station_id":"ce4bhjp2rcd13ifvqg90","pricing_plan_id":"cebpf4jnsgd1na2vs0mg"},{"bike_id":"c736efc7-bdd4-4760-a57b-96851815e95f","system_id":"levelo_inurba_marseille","lat":43.26502,"lon":5.3955,"is_reserved":false,"is_disabled":true,"rental_uris":{"android":"levelo://app?vid=c736efc7-bdd4-4760-a57b-96851815e95f","ios":"levelo://app?vid=c736efc7-bdd4-4760-a57b-96851815e95f"},"vehicle_type_id":"4","last_reported":1736267219,"current_range_meters":38800,"station_id":"ce4bhi12rcd13ifvqfq0","pricing_plan_id":"cebpf4jnsgd1na2vs0mg"},{"bike_id":"52a27691-0980-4150-ac0e-032a862a6ca9","system_id":"levelo_inurba_marseille","lat":43.23193,"lon":5.35546,"is_reserved":false,"is_disabled":false,"rental_uris":{"android":"levelo://app?vid=52a27691-0980-4150-ac0e-032a862a6ca9","ios":"levelo://app?vid=52a27691-0980-4150-ac0e-032a862a6ca9"},"vehicle_type_id":"4","last_reported":1736267219,"current_range_meters":38400,"station_id":"ce4bhu92rcd13ifvqi70","pricing_plan_id":"cebpf4jnsgd1na2vs0mg"},{"bike_id":"0b612a78-0339-4e70-8c85-f23f8ddd6228","system_id":"levelo_inurba_marseille","lat":43.267613,"lon":5.398391,"is_reserved":false,"is_disabled":false,"rental_uris":{"android":"levelo://app?vid=0b612a78-0339-4e70-8c85-f23f8ddd6228","ios":"levelo://app?vid=0b612a78-0339-4e70-8c85-f23f8ddd6228"},"vehicle_type_id":"4","last_reported":1736267219,"current_range_meters":17200,"station_id":"ce501612rcd8frsf0b60","pricing_plan_id":"cebpf4jnsgd1na2vs0mg"},{"bike_id":"98e4abe9-268b-4ebe-b8a0-9d17e1060cf4","system_id":"levelo_inurba_marseille","lat":43.32115,"lon":5.3675,"is_reserved":false,"is_disabled":false,"rental_uris":{"android":"levelo://app?vid=98e4abe9-268b-4ebe-b8a0-9d17e1060cf4","ios":"levelo://app?vid=98e4abe9-268b-4ebe-b8a0-9d17e1060cf4"},"vehicle_type_id":"4","last_reported":1736267219,"current_range_meters":36800,"station_id":"ce4bhrh2rcd13ifvqhug","pricing_plan_id":"cebpf4jnsgd1na2vs0mg"},{"bike_id":"71a42d18-caa4-4a2b-a01f-fb44ab671ff7","system_id":"levelo_inurba_marseille","lat":43.27815,"lon":5.40707,"is_reserved":false,"is_disabled":false,"rental_uris":{"android":"levelo://app?vid=71a42d18-caa4-4a2b-a01f-fb44ab671ff7","ios":"levelo://app?vid=71a42d18-caa4-4a2b-a01f-fb44ab671ff7"},"vehicle_type_id":"4","last_reported":1736267219,"current_range_meters":12400,"station_id":"ce4bhnh2rcd13ifvqgtg","pricing_plan_id":"cebpf4jnsgd1na2vs0mg"},{"bike_id":"0d869571-702b-474e-9734-e51fa36b8db2","system_id":"levelo_inurba_marseille","lat":43.29198,"lon":5.39324,"is_reserved":false,"is_disabled":true,"rental_uris":{"android":"levelo://app?vid=0d869571-702b-474e-9734-e51fa36b8db2","ios":"levelo://app?vid=0d869571-702b-474e-9734-e51fa36b8db2"},"vehicle_type_id":"4","last_reported":1736267219,"current_range_meters":7200,"station_id":"ce4bh192rcd13ifvqdd0","pricing_plan_id":"cebpf4jnsgd1na2vs0mg"},{"bike_id":"d529a0f8-b6c1-44cc-8f2f-bc8da6e8ca6f","system_id":"levelo_inurba_marseille","lat":43.28276,"lon":5.35069,"is_reserved":false,"is_disabled":false,"rental_uris":{"android":"levelo://app?vid=d529a0f8-b6c1-44cc-8f2f-bc8da6e8ca6f","ios":"levelo://app?vid=d529a0f8-b6c1-44cc-8f2f-bc8da6e8ca6f"},"vehicle_type_id":"4","last_reported":1736267219,"current_range_meters":30800,"station_id":"ce4bhbp2rcd13ifvqerg","pricing_plan_id":"cebpf4jnsgd1na2vs0mg"},{"bike_id":"f5465d99-1b1c-41fe-8f73-a40125f1fb8a","system_id":"levelo_inurba_marseille","lat":43.28085,"lon":5.39658,"is_reserved":false,"is_disabled":false,"rental_uris":{"android":"levelo://app?vid=f5465d99-1b1c-41fe-8f73-a40125f1fb8a","ios":"levelo://app?vid=f5465d99-1b1c-41fe-8f73-a40125f1fb8a"},"vehicle_type_id":"4","last_reported":1736267219,"current_range_meters":31200,"station_id":"ce4bho12rcd13ifvqh2g","pricing_plan_id":"cebpf4jnsgd1na2vs0mg"},{"bike_id":"10b47d85-d9b8-47c7-a371-59105a054316","system_id":"levelo_inurba_marseille","lat":43.26496,"lon":5.39545,"is_reserved":false,"is_disabled":false,"rental_uris":{"android":"levelo://app?vid=10b47d85-d9b8-47c7-a371-59105a054316","ios":"levelo://app?vid=10b47d85-d9b8-47c7-a371-59105a054316"},"vehicle_type_id":"4","last_reported":1736267219,"current_range_meters":28400,"station_id":"ce4bhi12rcd13ifvqfq0","pricing_plan_id":"cebpf4jnsgd1na2vs0mg"},{"bike_id":"c2b0913e-d8b5-4bbd-bed3-726210553a98","system_id":"levelo_inurba_marseille","lat":43.32334,"lon":5.4062,"is_reserved":false,"is_disabled":false,"rental_uris":{"android":"levelo://app?vid=c2b0913e-d8b5-4bbd-bed3-726210553a98","ios":"levelo://app?vid=c2b0913e-d8b5-4bbd-bed3-726210553a98"},"vehicle_type_id":"4","last_reported":1736267219,"current_range_meters":21600,"station_id":"ce4bhq92rcd13ifvqhjg","pricing_plan_id":"cebpf4jnsgd1na2vs0mg"},{"bike_id":"6ebaba3b-a1f7-47a9-8a13-a47e91f8a3d0","system_id":"levelo_inurba_marseille","lat":43.26035,"lon":5.37545,"is_reserved":false,"is_disabled":false,"rental_uris":{"android":"levelo://app?vid=6ebaba3b-a1f7-47a9-8a13-a47e91f8a3d0","ios":"levelo://app?vid=6ebaba3b-a1f7-47a9-8a13-a47e91f8a3d0"},"vehicle_type_id":"4","last_reported":1736267219,"current_range_meters":37600,"station_id":"ce4bhgh2rcd13ifvqfa0","pricing_plan_id":"cebpf4jnsgd1na2vs0mg"},{"bike_id":"6e713954-2980-4115-a90e-0435373421d6","system_id":"levelo_inurba_marseille","lat":43.29526,"lon":5.38546,"is_reserved":false,"is_disabled":false,"rental_uris":{"android":"levelo://app?vid=6e713954-2980-4115-a90e-0435373421d6","ios":"levelo://app?vid=6e713954-2980-4115-a90e-0435373421d6"},"vehicle_type_id":"4","last_reported":1736267219,"current_range_meters":33600,"station_id":"ce4bgih2rcd13ifvqba0","pricing_plan_id":"cebpf4jnsgd1na2vs0mg"},{"bike_id":"5cf5d467-316b-44fa-8fb8-856da6a44a4c","system_id":"levelo_inurba_marseille","lat":43.24643,"lon":5.37793,"is_reserved":false,"is_disabled":true,"rental_uris":{"android":"levelo://app?vid=5cf5d467-316b-44fa-8fb8-856da6a44a4c","ios":"levelo://app?vid=5cf5d467-316b-44fa-8fb8-856da6a44a4c"},"vehicle_type_id":"4","last_reported":1736267219,"current_range_meters":0,"station_id":"","pricing_plan_id":"cebpf4jnsgd1na2vs0mg"},{"bike_id":"13b75c96-d533-4a08-9770-20e7f48dc03a","system_id":"levelo_inurba_marseille","lat":43.27943,"lon":5.41042,"is_reserved":false,"is_disabled":false,"rental_uris":{"android":"levelo://app?vid=13b75c96-d533-4a08-9770-20e7f48dc03a","ios":"levelo://app?vid=13b75c96-d533-4a08-9770-20e7f48dc03a"},"vehicle_type_id":"4","last_reported":1736267219,"current_range_meters":3600,"station_id":"ce4bhnp2rcd13ifvqh0g","pricing_plan_id":"cebpf4jnsgd1na2vs0mg"},{"bike_id":"4627e9a0-8644-4796-96fd-d3570527e34b","system_id":"levelo_inurba_marseille","lat":43.26807,"lon":5.40275,"is_reserved":false,"is_disabled":false,"rental_uris":{"android":"levelo://app?vid=4627e9a0-8644-4796-96fd-d3570527e34b","ios":"levelo://app?vid=4627e9a0-8644-4796-96fd-d3570527e34b"},"vehicle_type_id":"4","last_reported":1736267219,"current_range_meters":15200,"station_id":"ce501612rcd8frsf0b60","pricing_plan_id":"cebpf4jnsgd1na2vs0mg"},{"bike_id":"c919b6c8-15bc-4951-942b-ff0a473b3354","system_id":"levelo_inurba_marseille","lat":43.30602,"lon":5.37226,"is_reserved":false,"is_disabled":false,"rental_uris":{"android":"levelo://app?vid=c919b6c8-15bc-4951-942b-ff0a473b3354","ios":"levelo://app?vid=c919b6c8-15bc-4951-942b-ff0a473b3354"},"vehicle_type_id":"4","last_reported":1736267219,"current_range_meters":10000,"station_id":"ce4bgqh2rcd13ifvqc4g","pricing_plan_id":"cebpf4jnsgd1na2vs0mg"},{"bike_id":"556c8027-665f-422a-b361-d2833e961fb8","system_id":"levelo_inurba_marseille","lat":43.30302,"lon":5.36887,"is_reserved":false,"is_disabled":false,"rental_uris":{"android":"levelo://app?vid=556c8027-665f-422a-b361-d2833e961fb8","ios":"levelo://app?vid=556c8027-665f-422a-b361-d2833e961fb8"},"vehicle_type_id":"4","last_reported":1736267219,"current_range_meters":26000,"station_id":"ce4bgqh2rcd13ifvqc5g","pricing_plan_id":"cebpf4jnsgd1na2vs0mg"},{"bike_id":"7f3583a0-2a43-4173-9489-ad9aedc3bf58","system_id":"levelo_inurba_marseille","lat":43.323705,"lon":5.388853,"is_reserved":false,"is_disabled":false,"rental_uris":{"android":"levelo://app?vid=7f3583a0-2a43-4173-9489-ad9aedc3bf58","ios":"levelo://app?vid=7f3583a0-2a43-4173-9489-ad9aedc3bf58"},"vehicle_type_id":"4","last_reported":1736267219,"current_range_meters":38800,"station_id":"ce4bhqp2rcd13ifvqhog","pricing_plan_id":"cebpf4jnsgd1na2vs0mg"},{"bike_id":"4c79f864-3da8-4813-a506-a9595819fe25","system_id":"levelo_inurba_marseille","lat":43.25863,"lon":5.399,"is_reserved":false,"is_disabled":false,"rental_uris":{"android":"levelo://app?vid=4c79f864-3da8-4813-a506-a9595819fe25","ios":"levelo://app?vid=4c79f864-3da8-4813-a506-a9595819fe25"},"vehicle_type_id":"4","last_reported":1736267219,"current_range_meters":28800,"station_id":"ce4bhl92rcd13ifvqghg","pricing_plan_id":"cebpf4jnsgd1na2vs0mg"},{"bike_id":"840e3f90-17d0-4c94-88a0-c5120c40cdea","system_id":"levelo_inurba_marseille","lat":43.25721,"lon":5.41053,"is_reserved":false,"is_disabled":true,"rental_uris":{"android":"levelo://app?vid=840e3f90-17d0-4c94-88a0-c5120c40cdea","ios":"levelo://app?vid=840e3f90-17d0-4c94-88a0-c5120c40cdea"},"vehicle_type_id":"4","last_reported":1736267219,"current_range_meters":38800,"station_id":"ce4bhkp2rcd13ifvqgd0","pricing_plan_id":"cebpf4jnsgd1na2vs0mg"},{"bike_id":"a0b57a50-67bc-4d12-bffe-4176748f2bc4","system_id":"levelo_inurba_marseille","lat":43.30314,"lon":5.36905,"is_reserved":false,"is_disabled":false,"rental_uris":{"android":"levelo://app?vid=a0b57a50-67bc-4d12-bffe-4176748f2bc4","ios":"levelo://app?vid=a0b57a50-67bc-4d12-bffe-4176748f2bc4"},"vehicle_type_id":"4","last_reported":1736267219,"current_range_meters":14400,"station_id":"ce4bgqh2rcd13ifvqc5g","pricing_plan_id":"cebpf4jnsgd1na2vs0mg"},{"bike_id":"2f68cdef-bffc-4037-b844-7b9747e6cb93","system_id":"levelo_inurba_marseille","lat":43.24393,"lon":5.37041,"is_reserved":false,"is_disabled":false,"rental_uris":{"android":"levelo://app?vid=2f68cdef-bffc-4037-b844-7b9747e6cb93","ios":"levelo://app?vid=2f68cdef-bffc-4037-b844-7b9747e6cb93"},"vehicle_type_id":"4","last_reported":1736267219,"current_range_meters":39200,"station_id":"ce4bhhh2rcd13ifvqfk0","pricing_plan_id":"cebpf4jnsgd1na2vs0mg"},{"bike_id":"1b41b9e4-6eed-483b-b0d7-8d871528a1c0","system_id":"levelo_inurba_marseille","lat":43.2407,"lon":5.37764,"is_reserved":false,"is_disabled":false,"rental_uris":{"android":"levelo://app?vid=1b41b9e4-6eed-483b-b0d7-8d871528a1c0","ios":"levelo://app?vid=1b41b9e4-6eed-483b-b0d7-8d871528a1c0"},"vehicle_type_id":"4","last_reported":1736267219,"current_range_meters":31200,"station_id":"ce4bhnp2rcd13ifvqgvg","pricing_plan_id":"cebpf4jnsgd1na2vs0mg"},{"bike_id":"a7120202-8c32-4476-b267-de96ca2aca30","system_id":"levelo_inurba_marseille","lat":43.307886,"lon":5.376485,"is_reserved":false,"is_disabled":false,"rental_uris":{"android":"levelo://app?vid=a7120202-8c32-4476-b267-de96ca2aca30","ios":"levelo://app?vid=a7120202-8c32-4476-b267-de96ca2aca30"},"vehicle_type_id":"4","last_reported":1736267219,"current_range_meters":38400,"station_id":"ce4bgv92rcd13ifvqcq0","pricing_plan_id":"cebpf4jnsgd1na2vs0mg"},{"bike_id":"240583e2-22ce-4a44-8ce3-4744576473a5","system_id":"levelo_inurba_marseille","lat":43.26562,"lon":5.39006,"is_reserved":false,"is_disabled":false,"rental_uris":{"android":"levelo://app?vid=240583e2-22ce-4a44-8ce3-4744576473a5","ios":"levelo://app?vid=240583e2-22ce-4a44-8ce3-4744576473a5"},"vehicle_type_id":"4","last_reported":1736267219,"current_range_meters":38800,"station_id":"ce4bhe12rcd13ifvqf30","pricing_plan_id":"cebpf4jnsgd1na2vs0mg"},{"bike_id":"9d5e0579-5e6c-46a9-8c99-51744cc221ef","system_id":"levelo_inurba_marseille","lat":43.28157,"lon":5.42648,"is_reserved":false,"is_disabled":false,"rental_uris":{"android":"levelo://app?vid=9d5e0579-5e6c-46a9-8c99-51744cc221ef","ios":"levelo://app?vid=9d5e0579-5e6c-46a9-8c99-51744cc221ef"},"vehicle_type_id":"4","last_reported":1736267219,"current_range_meters":4400,"station_id":"ce4bhnh2rcd13ifvqgug","pricing_plan_id":"cebpf4jnsgd1na2vs0mg"},{"bike_id":"502b9a2d-7119-4752-a288-d02d6d3527f6","system_id":"levelo_inurba_marseille","lat":43.28466,"lon":5.35888,"is_reserved":false,"is_disabled":false,"rental_uris":{"android":"levelo://app?vid=502b9a2d-7119-4752-a288-d02d6d3527f6","ios":"levelo://app?vid=502b9a2d-7119-4752-a288-d02d6d3527f6"},"vehicle_type_id":"4","last_reported":1736267219,"current_range_meters":27600,"station_id":"ce4bhah2rcd13ifvqei0","pricing_plan_id":"cebpf4jnsgd1na2vs0mg"},{"bike_id":"bc9bb4d7-2fdc-4d34-b0a0-ed77a3035abd","system_id":"levelo_inurba_marseille","lat":43.31728,"lon":5.37761,"is_reserved":false,"is_disabled":false,"rental_uris":{"android":"levelo://app?vid=bc9bb4d7-2fdc-4d34-b0a0-ed77a3035abd","ios":"levelo://app?vid=bc9bb4d7-2fdc-4d34-b0a0-ed77a3035abd"},"vehicle_type_id":"4","last_reported":1736267219,"current_range_meters":26000,"station_id":"ce4bgth2rcd13ifvqch0","pricing_plan_id":"cebpf4jnsgd1na2vs0mg"},{"bike_id":"27959418-f0e4-4eac-bc77-97de904c8081","system_id":"levelo_inurba_marseille","lat":43.26508,"lon":5.39532,"is_reserved":false,"is_disabled":false,"rental_uris":{"android":"levelo://app?vid=27959418-f0e4-4eac-bc77-97de904c8081","ios":"levelo://app?vid=27959418-f0e4-4eac-bc77-97de904c8081"},"vehicle_type_id":"4","last_reported":1736267219,"current_range_meters":12400,"station_id":"ce4bhi12rcd13ifvqfq0","pricing_plan_id":"cebpf4jnsgd1na2vs0mg"},{"bike_id":"2cb70b0a-1ff3-491f-a1f0-3cffb4d54010","system_id":"levelo_inurba_marseille","lat":43.26193,"lon":5.3745,"is_reserved":false,"is_disabled":false,"rental_uris":{"android":"levelo://app?vid=2cb70b0a-1ff3-491f-a1f0-3cffb4d54010","ios":"levelo://app?vid=2cb70b0a-1ff3-491f-a1f0-3cffb4d54010"},"vehicle_type_id":"4","last_reported":1736267219,"current_range_meters":37600,"station_id":"ce4bhgp2rcd13ifvqfc0","pricing_plan_id":"cebpf4jnsgd1na2vs0mg"},{"bike_id":"bc86f23c-4371-4721-b514-43c753cee659","system_id":"levelo_inurba_marseille","lat":43.27996,"lon":5.4001,"is_reserved":false,"is_disabled":false,"rental_uris":{"android":"levelo://app?vid=bc86f23c-4371-4721-b514-43c753cee659","ios":"levelo://app?vid=bc86f23c-4371-4721-b514-43c753cee659"},"vehicle_type_id":"4","last_reported":1736267219,"current_range_meters":28000,"station_id":"ce4bho92rcd13ifvqh4g","pricing_plan_id":"cebpf4jnsgd1na2vs0mg"},{"bike_id":"ccefbdf4-df27-4947-9b01-eba3707af800","system_id":"levelo_inurba_marseille","lat":43.295375,"lon":5.385527,"is_reserved":false,"is_disabled":true,"rental_uris":{"android":"levelo://app?vid=ccefbdf4-df27-4947-9b01-eba3707af800","ios":"levelo://app?vid=ccefbdf4-df27-4947-9b01-eba3707af800"},"vehicle_type_id":"4","last_reported":1736267219,"current_range_meters":19600,"station_id":"ce4bgih2rcd13ifvqba0","pricing_plan_id":"cebpf4jnsgd1na2vs0mg"},{"bike_id":"15c6a4a4-22a2-45b6-a26f-20172a12246a","system_id":"levelo_inurba_marseille","lat":43.25096,"lon":5.39503,"is_reserved":false,"is_disabled":false,"rental_uris":{"android":"levelo://app?vid=15c6a4a4-22a2-45b6-a26f-20172a12246a","ios":"levelo://app?vid=15c6a4a4-22a2-45b6-a26f-20172a12246a"},"vehicle_type_id":"4","last_reported":1736267219,"current_range_meters":36800,"station_id":"ce4bhm12rcd13ifvqgkg","pricing_plan_id":"cebpf4jnsgd1na2vs0mg"},{"bike_id":"a8b439d4-9c9d-4b93-8dee-f5aa3cc57bf3","system_id":"levelo_inurba_marseille","lat":43.29195,"lon":5.39323,"is_reserved":false,"is_disabled":false,"rental_uris":{"android":"levelo://app?vid=a8b439d4-9c9d-4b93-8dee-f5aa3cc57bf3","ios":"levelo://app?vid=a8b439d4-9c9d-4b93-8dee-f5aa3cc57bf3"},"vehicle_type_id":"4","last_reported":1736267219,"current_range_meters":19200,"station_id":"ce4bh192rcd13ifvqdd0","pricing_plan_id":"cebpf4jnsgd1na2vs0mg"},{"bike_id":"693308d4-e9b2-4a27-86e7-4ba49a483f63","system_id":"levelo_inurba_marseille","lat":43.30141,"lon":5.39872,"is_reserved":false,"is_disabled":false,"rental_uris":{"android":"levelo://app?vid=693308d4-e9b2-4a27-86e7-4ba49a483f63","ios":"levelo://app?vid=693308d4-e9b2-4a27-86e7-4ba49a483f63"},"vehicle_type_id":"4","last_reported":1736267219,"current_range_meters":22800,"station_id":"ce4bh0h2rcd13ifvqd40","pricing_plan_id":"cebpf4jnsgd1na2vs0mg"},{"bike_id":"2caa7ff0-56a0-4a66-805c-847ccd11c31b","system_id":"levelo_inurba_marseille","lat":43.313313,"lon":5.396852,"is_reserved":false,"is_disabled":false,"rental_uris":{"android":"levelo://app?vid=2caa7ff0-56a0-4a66-805c-847ccd11c31b","ios":"levelo://app?vid=2caa7ff0-56a0-4a66-805c-847ccd11c31b"},"vehicle_type_id":"4","last_reported":1736267219,"current_range_meters":20400,"station_id":"ce4bgvp2rcd13ifvqcu0","pricing_plan_id":"cebpf4jnsgd1na2vs0mg"},{"bike_id":"637c9e25-6ec5-4d5c-9ec9-ed6c73dcb821","system_id":"levelo_inurba_marseille","lat":43.31723,"lon":5.37818,"is_reserved":false,"is_disabled":false,"rental_uris":{"android":"levelo://app?vid=637c9e25-6ec5-4d5c-9ec9-ed6c73dcb821","ios":"levelo://app?vid=637c9e25-6ec5-4d5c-9ec9-ed6c73dcb821"},"vehicle_type_id":"4","last_reported":1736267219,"current_range_meters":35200,"station_id":"","pricing_plan_id":"cebpf4jnsgd1na2vs0mg"},{"bike_id":"d28f5a9c-bf35-45cf-80f0-a5fd5e8f4878","system_id":"levelo_inurba_marseille","lat":43.28711,"lon":5.39993,"is_reserved":false,"is_disabled":false,"rental_uris":{"android":"levelo://app?vid=d28f5a9c-bf35-45cf-80f0-a5fd5e8f4878","ios":"levelo://app?vid=d28f5a9c-bf35-45cf-80f0-a5fd5e8f4878"},"vehicle_type_id":"4","last_reported":1736267219,"current_range_meters":36800,"station_id":"ce4bho92rcd13ifvqh3g","pricing_plan_id":"cebpf4jnsgd1na2vs0mg"},{"bike_id":"b02fab9b-85e2-4691-a949-9c3558950865","system_id":"levelo_inurba_marseille","lat":43.31327,"lon":5.39702,"is_reserved":false,"is_disabled":false,"rental_uris":{"android":"levelo://app?vid=b02fab9b-85e2-4691-a949-9c3558950865","ios":"levelo://app?vid=b02fab9b-85e2-4691-a949-9c3558950865"},"vehicle_type_id":"4","last_reported":1736267219,"current_range_meters":12800,"station_id":"ce4bgvp2rcd13ifvqcu0","pricing_plan_id":"cebpf4jnsgd1na2vs0mg"},{"bike_id":"d96d9b68-d742-4189-b8cb-d3aa71a08fda","system_id":"levelo_inurba_marseille","lat":43.24131,"lon":5.39729,"is_reserved":false,"is_disabled":true,"rental_uris":{"android":"levelo://app?vid=d96d9b68-d742-4189-b8cb-d3aa71a08fda","ios":"levelo://app?vid=d96d9b68-d742-4189-b8cb-d3aa71a08fda"},"vehicle_type_id":"4","last_reported":1736267219,"current_range_meters":0,"station_id":"ce4bhn12rcd13ifvqgpg","pricing_plan_id":"cebpf4jnsgd1na2vs0mg"},{"bike_id":"5671a7cc-1094-4b46-906d-b97f733ad9e2","system_id":"levelo_inurba_marseille","lat":43.3032,"lon":5.40437,"is_reserved":false,"is_disabled":true,"rental_uris":{"android":"levelo://app?vid=5671a7cc-1094-4b46-906d-b97f733ad9e2","ios":"levelo://app?vid=5671a7cc-1094-4b46-906d-b97f733ad9e2"},"vehicle_type_id":"4","last_reported":1736267219,"current_range_meters":36800,"station_id":"ce4bh012rcd13ifvqd10","pricing_plan_id":"cebpf4jnsgd1na2vs0mg"},{"bike_id":"5922bf93-241a-4935-a97c-43a6d6bef8cc","system_id":"levelo_inurba_marseille","lat":43.29935,"lon":5.36554,"is_reserved":false,"is_disabled":false,"rental_uris":{"android":"levelo://app?vid=5922bf93-241a-4935-a97c-43a6d6bef8cc","ios":"levelo://app?vid=5922bf93-241a-4935-a97c-43a6d6bef8cc"},"vehicle_type_id":"4","last_reported":1736267219,"current_range_meters":8400,"station_id":"ce4bgm92rcd13ifvqbr0","pricing_plan_id":"cebpf4jnsgd1na2vs0mg"},{"bike_id":"005c2044-0c78-410b-b1cd-e1e9feaa0e05","system_id":"levelo_inurba_marseille","lat":43.23964,"lon":5.36625,"is_reserved":false,"is_disabled":false,"rental_uris":{"android":"levelo://app?vid=005c2044-0c78-410b-b1cd-e1e9feaa0e05","ios":"levelo://app?vid=005c2044-0c78-410b-b1cd-e1e9feaa0e05"},"vehicle_type_id":"4","last_reported":1736267219,"current_range_meters":17600,"station_id":"ce4bhi12rcd13ifvqfp0","pricing_plan_id":"cebpf4jnsgd1na2vs0mg"},{"bike_id":"c06e2972-5190-456d-9738-ffe2f692bbcf","system_id":"levelo_inurba_marseille","lat":43.28477,"lon":5.38426,"is_reserved":false,"is_disabled":false,"rental_uris":{"android":"levelo://app?vid=c06e2972-5190-456d-9738-ffe2f692bbcf","ios":"levelo://app?vid=c06e2972-5190-456d-9738-ffe2f692bbcf"},"vehicle_type_id":"4","last_reported":1736267219,"current_range_meters":31200,"station_id":"ce4bh512rcd13ifvqe3g","pricing_plan_id":"cebpf4jnsgd1na2vs0mg"},{"bike_id":"ce411bdc-5654-43f6-be62-dbc0deb638b9","system_id":"levelo_inurba_marseille","lat":43.30643,"lon":5.37332,"is_reserved":false,"is_disabled":false,"rental_uris":{"android":"levelo://app?vid=ce411bdc-5654-43f6-be62-dbc0deb638b9","ios":"levelo://app?vid=ce411bdc-5654-43f6-be62-dbc0deb638b9"},"vehicle_type_id":"4","last_reported":1736267219,"current_range_meters":22000,"station_id":"","pricing_plan_id":"cebpf4jnsgd1na2vs0mg"},{"bike_id":"ca99031f-49e5-48f9-87b6-b4e6f5399ff3","system_id":"levelo_inurba_marseille","lat":43.28938,"lon":5.39629,"is_reserved":false,"is_disabled":true,"rental_uris":{"android":"levelo://app?vid=ca99031f-49e5-48f9-87b6-b4e6f5399ff3","ios":"levelo://app?vid=ca99031f-49e5-48f9-87b6-b4e6f5399ff3"},"vehicle_type_id":"4","last_reported":1736267219,"current_range_meters":2000,"station_id":"ce4bh3h2rcd13ifvqdn0","pricing_plan_id":"cebpf4jnsgd1na2vs0mg"},{"bike_id":"f978b948-6b87-4400-9603-341a57575ca1","system_id":"levelo_inurba_marseille","lat":43.29864,"lon":5.39736,"is_reserved":false,"is_disabled":true,"rental_uris":{"android":"levelo://app?vid=f978b948-6b87-4400-9603-341a57575ca1","ios":"levelo://app?vid=f978b948-6b87-4400-9603-341a57575ca1"},"vehicle_type_id":"4","last_reported":1736267219,"current_range_meters":400,"station_id":"ce4bh0h2rcd13ifvqd50","pricing_plan_id":"cebpf4jnsgd1na2vs0mg"},{"bike_id":"94ae9d8d-339e-41f5-bf14-1e9df4322647","system_id":"levelo_inurba_marseille","lat":43.27495,"lon":5.42466,"is_reserved":false,"is_disabled":true,"rental_uris":{"android":"levelo://app?vid=94ae9d8d-339e-41f5-bf14-1e9df4322647","ios":"levelo://app?vid=94ae9d8d-339e-41f5-bf14-1e9df4322647"},"vehicle_type_id":"4","last_reported":1736267219,"current_range_meters":36000,"station_id":"ce4bhn92rcd13ifvqgrg","pricing_plan_id":"cebpf4jnsgd1na2vs0mg"},{"bike_id":"6a595de3-0911-46a9-bdbf-4cca5437105e","system_id":"levelo_inurba_marseille","lat":43.23193,"lon":5.35543,"is_reserved":false,"is_disabled":false,"rental_uris":{"android":"levelo://app?vid=6a595de3-0911-46a9-bdbf-4cca5437105e","ios":"levelo://app?vid=6a595de3-0911-46a9-bdbf-4cca5437105e"},"vehicle_type_id":"4","last_reported":1736267219,"current_range_meters":15200,"station_id":"ce4bhu92rcd13ifvqi70","pricing_plan_id":"cebpf4jnsgd1na2vs0mg"},{"bike_id":"641d8acc-50b2-4173-ab23-c70f2a11d28e","system_id":"levelo_inurba_marseille","lat":43.28156,"lon":5.42646,"is_reserved":false,"is_disabled":true,"rental_uris":{"android":"levelo://app?vid=641d8acc-50b2-4173-ab23-c70f2a11d28e","ios":"levelo://app?vid=641d8acc-50b2-4173-ab23-c70f2a11d28e"},"vehicle_type_id":"4","last_reported":1736267219,"current_range_meters":23200,"station_id":"ce4bhnh2rcd13ifvqgug","pricing_plan_id":"cebpf4jnsgd1na2vs0mg"},{"bike_id":"b11722f6-22a4-4046-82fd-6b6695fbf260","system_id":"levelo_inurba_marseille","lat":43.28938,"lon":5.36645,"is_reserved":false,"is_disabled":false,"rental_uris":{"android":"levelo://app?vid=b11722f6-22a4-4046-82fd-6b6695fbf260","ios":"levelo://app?vid=b11722f6-22a4-4046-82fd-6b6695fbf260"},"vehicle_type_id":"4","last_reported":1736267219,"current_range_meters":12400,"station_id":"ce4bhap2rcd13ifvqek0","pricing_plan_id":"cebpf4jnsgd1na2vs0mg"},{"bike_id":"15e503f5-1d52-42d6-a98f-33a61fd8b554","system_id":"levelo_inurba_marseille","lat":43.28461,"lon":5.35888,"is_reserved":false,"is_disabled":true,"rental_uris":{"android":"levelo://app?vid=15e503f5-1d52-42d6-a98f-33a61fd8b554","ios":"levelo://app?vid=15e503f5-1d52-42d6-a98f-33a61fd8b554"},"vehicle_type_id":"4","last_reported":1736267219,"current_range_meters":16000,"station_id":"ce4bhah2rcd13ifvqei0","pricing_plan_id":"cebpf4jnsgd1na2vs0mg"},{"bike_id":"f869105d-d81e-4459-8b1d-8c6801e08912","system_id":"levelo_inurba_marseille","lat":43.316869,"lon":5.404717,"is_reserved":false,"is_disabled":true,"rental_uris":{"android":"levelo://app?vid=f869105d-d81e-4459-8b1d-8c6801e08912","ios":"levelo://app?vid=f869105d-d81e-4459-8b1d-8c6801e08912"},"vehicle_type_id":"4","last_reported":1736267219,"current_range_meters":2000,"station_id":"ce4bh012rcd13ifvqd00","pricing_plan_id":"cebpf4jnsgd1na2vs0mg"},{"bike_id":"c2efde7d-f223-4013-8a76-91fdbccdd2c9","system_id":"levelo_inurba_marseille","lat":43.25115,"lon":5.4032,"is_reserved":false,"is_disabled":false,"rental_uris":{"android":"levelo://app?vid=c2efde7d-f223-4013-8a76-91fdbccdd2c9","ios":"levelo://app?vid=c2efde7d-f223-4013-8a76-91fdbccdd2c9"},"vehicle_type_id":"4","last_reported":1736267219,"current_range_meters":8800,"station_id":"ce4bhlh2rcd13ifvqgig","pricing_plan_id":"cebpf4jnsgd1na2vs0mg"},{"bike_id":"44ab28fa-0b3d-469d-97ff-06319e1159ef","system_id":"levelo_inurba_marseille","lat":43.23964,"lon":5.36629,"is_reserved":false,"is_disabled":false,"rental_uris":{"android":"levelo://app?vid=44ab28fa-0b3d-469d-97ff-06319e1159ef","ios":"levelo://app?vid=44ab28fa-0b3d-469d-97ff-06319e1159ef"},"vehicle_type_id":"4","last_reported":1736267219,"current_range_meters":18800,"station_id":"ce4bhi12rcd13ifvqfp0","pricing_plan_id":"cebpf4jnsgd1na2vs0mg"},{"bike_id":"1a7de19f-0a4e-4963-8586-1740bc4a35a9","system_id":"levelo_inurba_marseille","lat":43.30647,"lon":5.4008,"is_reserved":false,"is_disabled":false,"rental_uris":{"android":"levelo://app?vid=1a7de19f-0a4e-4963-8586-1740bc4a35a9","ios":"levelo://app?vid=1a7de19f-0a4e-4963-8586-1740bc4a35a9"},"vehicle_type_id":"4","last_reported":1736267219,"current_range_meters":37600,"station_id":"ce4bh112rcd13ifvqda0","pricing_plan_id":"cebpf4jnsgd1na2vs0mg"},{"bike_id":"35e7aa78-7e7f-4262-876c-284ce5a7c074","system_id":"levelo_inurba_marseille","lat":43.29531,"lon":5.38541,"is_reserved":false,"is_disabled":false,"rental_uris":{"android":"levelo://app?vid=35e7aa78-7e7f-4262-876c-284ce5a7c074","ios":"levelo://app?vid=35e7aa78-7e7f-4262-876c-284ce5a7c074"},"vehicle_type_id":"4","last_reported":1736267219,"current_range_meters":38800,"station_id":"ce4bgih2rcd13ifvqba0","pricing_plan_id":"cebpf4jnsgd1na2vs0mg"},{"bike_id":"7328a366-1abc-481a-8cda-0d7d6345a0c9","system_id":"levelo_inurba_marseille","lat":43.24997,"lon":5.38951,"is_reserved":false,"is_disabled":false,"rental_uris":{"android":"levelo://app?vid=7328a366-1abc-481a-8cda-0d7d6345a0c9","ios":"levelo://app?vid=7328a366-1abc-481a-8cda-0d7d6345a0c9"},"vehicle_type_id":"4","last_reported":1736267219,"current_range_meters":25600,"station_id":"ce4bhgp2rcd13ifvqfd0","pricing_plan_id":"cebpf4jnsgd1na2vs0mg"},{"bike_id":"6d88bbf0-f428-4bd4-ab8a-2ee8d5e7c74e","system_id":"levelo_inurba_marseille","lat":43.230724,"lon":5.354915,"is_reserved":false,"is_disabled":false,"rental_uris":{"android":"levelo://app?vid=6d88bbf0-f428-4bd4-ab8a-2ee8d5e7c74e","ios":"levelo://app?vid=6d88bbf0-f428-4bd4-ab8a-2ee8d5e7c74e"},"vehicle_type_id":"4","last_reported":1736267219,"current_range_meters":37600,"station_id":"cpo3342slgdg3j2ifvpg","pricing_plan_id":"cebpf4jnsgd1na2vs0mg"},{"bike_id":"a449407a-7a6c-4db7-8d8e-7218b391e293","system_id":"levelo_inurba_marseille","lat":43.33725,"lon":5.39179,"is_reserved":false,"is_disabled":false,"rental_uris":{"android":"levelo://app?vid=a449407a-7a6c-4db7-8d8e-7218b391e293","ios":"levelo://app?vid=a449407a-7a6c-4db7-8d8e-7218b391e293"},"vehicle_type_id":"4","last_reported":1736267219,"current_range_meters":12400,"station_id":"ce4bhr92rcd13ifvqhsg","pricing_plan_id":"cebpf4jnsgd1na2vs0mg"},{"bike_id":"fc28be46-23fe-4f09-821c-8a3bd21ca77c","system_id":"levelo_inurba_marseille","lat":43.25582,"lon":5.38227,"is_reserved":false,"is_disabled":false,"rental_uris":{"android":"levelo://app?vid=fc28be46-23fe-4f09-821c-8a3bd21ca77c","ios":"levelo://app?vid=fc28be46-23fe-4f09-821c-8a3bd21ca77c"},"vehicle_type_id":"4","last_reported":1736267219,"current_range_meters":38800,"station_id":"ce4bhih2rcd13ifvqfs0","pricing_plan_id":"cebpf4jnsgd1na2vs0mg"},{"bike_id":"e79e8560-c964-484c-8a58-c73a25d45737","system_id":"levelo_inurba_marseille","lat":43.26065,"lon":5.39385,"is_reserved":false,"is_disabled":false,"rental_uris":{"android":"levelo://app?vid=e79e8560-c964-484c-8a58-c73a25d45737","ios":"levelo://app?vid=e79e8560-c964-484c-8a58-c73a25d45737"},"vehicle_type_id":"4","last_reported":1736267219,"current_range_meters":35200,"station_id":"ce4bhh92rcd13ifvqfj0","pricing_plan_id":"cebpf4jnsgd1na2vs0mg"},{"bike_id":"0be78547-3d45-442c-9aa9-39892a59b56b","system_id":"levelo_inurba_marseille","lat":43.29261,"lon":5.40922,"is_reserved":false,"is_disabled":false,"rental_uris":{"android":"levelo://app?vid=0be78547-3d45-442c-9aa9-39892a59b56b","ios":"levelo://app?vid=0be78547-3d45-442c-9aa9-39892a59b56b"},"vehicle_type_id":"4","last_reported":1736267219,"current_range_meters":39200,"station_id":"ce4bh192rcd13ifvqdc0","pricing_plan_id":"cebpf4jnsgd1na2vs0mg"},{"bike_id":"56534aac-e0cb-46c8-b5db-2f49272a6c11","system_id":"levelo_inurba_marseille","lat":43.29067,"lon":5.37162,"is_reserved":false,"is_disabled":false,"rental_uris":{"android":"levelo://app?vid=56534aac-e0cb-46c8-b5db-2f49272a6c11","ios":"levelo://app?vid=56534aac-e0cb-46c8-b5db-2f49272a6c11"},"vehicle_type_id":"4","last_reported":1736267219,"current_range_meters":36800,"station_id":"ce4bh5p2rcd13ifvqe4g","pricing_plan_id":"cebpf4jnsgd1na2vs0mg"},{"bike_id":"a6b1fa15-0d95-44cb-8be4-c3e55514c811","system_id":"levelo_inurba_marseille","lat":43.27332,"lon":5.39098,"is_reserved":false,"is_disabled":false,"rental_uris":{"android":"levelo://app?vid=a6b1fa15-0d95-44cb-8be4-c3e55514c811","ios":"levelo://app?vid=a6b1fa15-0d95-44cb-8be4-c3e55514c811"},"vehicle_type_id":"4","last_reported":1736267219,"current_range_meters":7200,"station_id":"ce4bhgp2rcd13ifvqfe0","pricing_plan_id":"cebpf4jnsgd1na2vs0mg"},{"bike_id":"d0f7f7c9-5d11-43e5-ac3d-598fa4404ec8","system_id":"levelo_inurba_marseille","lat":43.23182,"lon":5.39993,"is_reserved":false,"is_disabled":false,"rental_uris":{"android":"levelo://app?vid=d0f7f7c9-5d11-43e5-ac3d-598fa4404ec8","ios":"levelo://app?vid=d0f7f7c9-5d11-43e5-ac3d-598fa4404ec8"},"vehicle_type_id":"4","last_reported":1736267219,"current_range_meters":11600,"station_id":"ce4bhn12rcd13ifvqgqg","pricing_plan_id":"cebpf4jnsgd1na2vs0mg"},{"bike_id":"4d605535-491f-4c3a-80b6-9644ac912a82","system_id":"levelo_inurba_marseille","lat":43.30602,"lon":5.37213,"is_reserved":false,"is_disabled":false,"rental_uris":{"android":"levelo://app?vid=4d605535-491f-4c3a-80b6-9644ac912a82","ios":"levelo://app?vid=4d605535-491f-4c3a-80b6-9644ac912a82"},"vehicle_type_id":"4","last_reported":1736267219,"current_range_meters":39200,"station_id":"ce4bgqh2rcd13ifvqc4g","pricing_plan_id":"cebpf4jnsgd1na2vs0mg"},{"bike_id":"ffe1d64d-8668-4f00-9722-535d8fdee1b2","system_id":"levelo_inurba_marseille","lat":43.3247,"lon":5.36553,"is_reserved":false,"is_disabled":false,"rental_uris":{"android":"levelo://app?vid=ffe1d64d-8668-4f00-9722-535d8fdee1b2","ios":"levelo://app?vid=ffe1d64d-8668-4f00-9722-535d8fdee1b2"},"vehicle_type_id":"4","last_reported":1736267219,"current_range_meters":6400,"station_id":"ce4bhs12rcd13ifvqhvg","pricing_plan_id":"cebpf4jnsgd1na2vs0mg"},{"bike_id":"cdfea266-e5fd-4018-a292-1ba3701f72dd","system_id":"levelo_inurba_marseille","lat":43.25499,"lon":5.37654,"is_reserved":false,"is_disabled":false,"rental_uris":{"android":"levelo://app?vid=cdfea266-e5fd-4018-a292-1ba3701f72dd","ios":"levelo://app?vid=cdfea266-e5fd-4018-a292-1ba3701f72dd"},"vehicle_type_id":"4","last_reported":1736267219,"current_range_meters":31200,"station_id":"ce4bhh12rcd13ifvqff0","pricing_plan_id":"cebpf4jnsgd1na2vs0mg"},{"bike_id":"4fdb8485-afe3-4335-816c-3db021d1431c","system_id":"levelo_inurba_marseille","lat":43.27218,"lon":5.39195,"is_reserved":false,"is_disabled":false,"rental_uris":{"android":"levelo://app?vid=4fdb8485-afe3-4335-816c-3db021d1431c","ios":"levelo://app?vid=4fdb8485-afe3-4335-816c-3db021d1431c"},"vehicle_type_id":"4","last_reported":1736267219,"current_range_meters":38800,"station_id":"ce4bhhp2rcd13ifvqfm0","pricing_plan_id":"cebpf4jnsgd1na2vs0mg"},{"bike_id":"b2cca208-84f4-40bb-b18c-514d8a47b812","system_id":"levelo_inurba_marseille","lat":43.29938,"lon":5.36521,"is_reserved":false,"is_disabled":false,"rental_uris":{"android":"levelo://app?vid=b2cca208-84f4-40bb-b18c-514d8a47b812","ios":"levelo://app?vid=b2cca208-84f4-40bb-b18c-514d8a47b812"},"vehicle_type_id":"4","last_reported":1736267219,"current_range_meters":20000,"station_id":"ce4bgm92rcd13ifvqbr0","pricing_plan_id":"cebpf4jnsgd1na2vs0mg"},{"bike_id":"3c96135c-be1c-48d4-af35-f77f88dd5989","system_id":"levelo_inurba_marseille","lat":43.2922,"lon":5.3605,"is_reserved":false,"is_disabled":true,"rental_uris":{"android":"levelo://app?vid=3c96135c-be1c-48d4-af35-f77f88dd5989","ios":"levelo://app?vid=3c96135c-be1c-48d4-af35-f77f88dd5989"},"vehicle_type_id":"4","last_reported":1736267219,"current_range_meters":29600,"station_id":"ce4bhbh2rcd13ifvqeqg","pricing_plan_id":"cebpf4jnsgd1na2vs0mg"},{"bike_id":"f4ae6a95-c135-4321-bb0a-f43670f735e7","system_id":"levelo_inurba_marseille","lat":43.28421,"lon":5.37521,"is_reserved":false,"is_disabled":false,"rental_uris":{"android":"levelo://app?vid=f4ae6a95-c135-4321-bb0a-f43670f735e7","ios":"levelo://app?vid=f4ae6a95-c135-4321-bb0a-f43670f735e7"},"vehicle_type_id":"4","last_reported":1736267219,"current_range_meters":30000,"station_id":"ce4bh412rcd13ifvqds0","pricing_plan_id":"cebpf4jnsgd1na2vs0mg"},{"bike_id":"8ea5017a-bc2f-46dd-8163-126dbf1a7891","system_id":"levelo_inurba_marseille","lat":43.30436,"lon":5.39736,"is_reserved":false,"is_disabled":false,"rental_uris":{"android":"levelo://app?vid=8ea5017a-bc2f-46dd-8163-126dbf1a7891","ios":"levelo://app?vid=8ea5017a-bc2f-46dd-8163-126dbf1a7891"},"vehicle_type_id":"4","last_reported":1736267219,"current_range_meters":17600,"station_id":"ce4bhb92rcd13ifvqen0","pricing_plan_id":"cebpf4jnsgd1na2vs0mg"},{"bike_id":"145a6ae2-cb5f-42da-be0f-1ab1a50a1500","system_id":"levelo_inurba_marseille","lat":43.27622,"lon":5.36106,"is_reserved":false,"is_disabled":false,"rental_uris":{"android":"levelo://app?vid=145a6ae2-cb5f-42da-be0f-1ab1a50a1500","ios":"levelo://app?vid=145a6ae2-cb5f-42da-be0f-1ab1a50a1500"},"vehicle_type_id":"4","last_reported":1736267219,"current_range_meters":9200,"station_id":"ce4bgj92rcd13ifvqbe0","pricing_plan_id":"cebpf4jnsgd1na2vs0mg"},{"bike_id":"3b09c87e-cbc2-4176-bc1b-1b93a39221ad","system_id":"levelo_inurba_marseille","lat":43.33004,"lon":5.39038,"is_reserved":false,"is_disabled":false,"rental_uris":{"android":"levelo://app?vid=3b09c87e-cbc2-4176-bc1b-1b93a39221ad","ios":"levelo://app?vid=3b09c87e-cbc2-4176-bc1b-1b93a39221ad"},"vehicle_type_id":"4","last_reported":1736267219,"current_range_meters":36400,"station_id":"ce4bhr92rcd13ifvqhrg","pricing_plan_id":"cebpf4jnsgd1na2vs0mg"},{"bike_id":"fcc45256-f2dc-4b0a-88f0-9cf52415e038","system_id":"levelo_inurba_marseille","lat":43.3171,"lon":5.3774,"is_reserved":false,"is_disabled":false,"rental_uris":{"android":"levelo://app?vid=fcc45256-f2dc-4b0a-88f0-9cf52415e038","ios":"levelo://app?vid=fcc45256-f2dc-4b0a-88f0-9cf52415e038"},"vehicle_type_id":"4","last_reported":1736267219,"current_range_meters":30000,"station_id":"ce4bgth2rcd13ifvqch0","pricing_plan_id":"cebpf4jnsgd1na2vs0mg"},{"bike_id":"6bd7205e-96f5-43e9-a2d0-0746baeb0fc8","system_id":"levelo_inurba_marseille","lat":43.29036,"lon":5.37566,"is_reserved":false,"is_disabled":false,"rental_uris":{"android":"levelo://app?vid=6bd7205e-96f5-43e9-a2d0-0746baeb0fc8","ios":"levelo://app?vid=6bd7205e-96f5-43e9-a2d0-0746baeb0fc8"},"vehicle_type_id":"4","last_reported":1736267219,"current_range_meters":8000,"station_id":"ce4bh692rcd13ifvqe90","pricing_plan_id":"cebpf4jnsgd1na2vs0mg"},{"bike_id":"e4f6dbe1-f6ac-46f0-a445-ec5525210652","system_id":"levelo_inurba_marseille","lat":43.29046,"lon":5.39963,"is_reserved":false,"is_disabled":false,"rental_uris":{"android":"levelo://app?vid=e4f6dbe1-f6ac-46f0-a445-ec5525210652","ios":"levelo://app?vid=e4f6dbe1-f6ac-46f0-a445-ec5525210652"},"vehicle_type_id":"4","last_reported":1736267219,"current_range_meters":15200,"station_id":"ce4bh392rcd13ifvqdm0","pricing_plan_id":"cebpf4jnsgd1na2vs0mg"},{"bike_id":"b911e473-5534-4035-8469-976ae1cca4ad","system_id":"levelo_inurba_marseille","lat":43.28273,"lon":5.35065,"is_reserved":false,"is_disabled":false,"rental_uris":{"android":"levelo://app?vid=b911e473-5534-4035-8469-976ae1cca4ad","ios":"levelo://app?vid=b911e473-5534-4035-8469-976ae1cca4ad"},"vehicle_type_id":"4","last_reported":1736267219,"current_range_meters":38800,"station_id":"ce4bhbp2rcd13ifvqerg","pricing_plan_id":"cebpf4jnsgd1na2vs0mg"},{"bike_id":"a4dec33a-3574-46ab-bf07-5ce5a74a1fd6","system_id":"levelo_inurba_marseille","lat":43.28621,"lon":5.35102,"is_reserved":false,"is_disabled":false,"rental_uris":{"android":"levelo://app?vid=a4dec33a-3574-46ab-bf07-5ce5a74a1fd6","ios":"levelo://app?vid=a4dec33a-3574-46ab-bf07-5ce5a74a1fd6"},"vehicle_type_id":"4","last_reported":1736267219,"current_range_meters":29600,"station_id":"ce4bhch2rcd13ifvqeug","pricing_plan_id":"cebpf4jnsgd1na2vs0mg"},{"bike_id":"7447d9e7-e582-45e7-8a59-1e1445a32e7b","system_id":"levelo_inurba_marseille","lat":43.25502,"lon":5.37654,"is_reserved":false,"is_disabled":false,"rental_uris":{"android":"levelo://app?vid=7447d9e7-e582-45e7-8a59-1e1445a32e7b","ios":"levelo://app?vid=7447d9e7-e582-45e7-8a59-1e1445a32e7b"},"vehicle_type_id":"4","last_reported":1736267219,"current_range_meters":39200,"station_id":"ce4bhh12rcd13ifvqff0","pricing_plan_id":"cebpf4jnsgd1na2vs0mg"},{"bike_id":"5f496f8e-d735-4c41-b48f-ac44f9def9ec","system_id":"levelo_inurba_marseille","lat":43.31072,"lon":5.383463,"is_reserved":false,"is_disabled":false,"rental_uris":{"android":"levelo://app?vid=5f496f8e-d735-4c41-b48f-ac44f9def9ec","ios":"levelo://app?vid=5f496f8e-d735-4c41-b48f-ac44f9def9ec"},"vehicle_type_id":"4","last_reported":1736267219,"current_range_meters":28000,"station_id":"ce4bgv92rcd13ifvqcr0","pricing_plan_id":"cebpf4jnsgd1na2vs0mg"},{"bike_id":"f3d1f244-18c3-434d-87c1-4500012e65af","system_id":"levelo_inurba_marseille","lat":43.337444,"lon":5.374475,"is_reserved":false,"is_disabled":false,"rental_uris":{"android":"levelo://app?vid=f3d1f244-18c3-434d-87c1-4500012e65af","ios":"levelo://app?vid=f3d1f244-18c3-434d-87c1-4500012e65af"},"vehicle_type_id":"4","last_reported":1736267219,"current_range_meters":27200,"station_id":"","pricing_plan_id":"cebpf4jnsgd1na2vs0mg"},{"bike_id":"49781949-7f86-4ef3-bffa-893957756c38","system_id":"levelo_inurba_marseille","lat":43.28105,"lon":5.37842,"is_reserved":false,"is_disabled":false,"rental_uris":{"android":"levelo://app?vid=49781949-7f86-4ef3-bffa-893957756c38","ios":"levelo://app?vid=49781949-7f86-4ef3-bffa-893957756c38"},"vehicle_type_id":"4","last_reported":1736267219,"current_range_meters":38800,"station_id":"ce4bha12rcd13ifvqee0","pricing_plan_id":"cebpf4jnsgd1na2vs0mg"},{"bike_id":"39a66161-6256-4a44-9ff8-9ec79f8478c8","system_id":"levelo_inurba_marseille","lat":43.28627,"lon":5.35099,"is_reserved":false,"is_disabled":false,"rental_uris":{"android":"levelo://app?vid=39a66161-6256-4a44-9ff8-9ec79f8478c8","ios":"levelo://app?vid=39a66161-6256-4a44-9ff8-9ec79f8478c8"},"vehicle_type_id":"4","last_reported":1736267219,"current_range_meters":21600,"station_id":"ce4bhch2rcd13ifvqeug","pricing_plan_id":"cebpf4jnsgd1na2vs0mg"},{"bike_id":"d45d0089-5e8c-41ac-a04c-9866c8dc94cc","system_id":"levelo_inurba_marseille","lat":43.23207,"lon":5.3554,"is_reserved":false,"is_disabled":false,"rental_uris":{"android":"levelo://app?vid=d45d0089-5e8c-41ac-a04c-9866c8dc94cc","ios":"levelo://app?vid=d45d0089-5e8c-41ac-a04c-9866c8dc94cc"},"vehicle_type_id":"4","last_reported":1736267219,"current_range_meters":38800,"station_id":"ce4bhu92rcd13ifvqi70","pricing_plan_id":"cebpf4jnsgd1na2vs0mg"},{"bike_id":"318f78a8-0263-4834-ac39-be164f4831d1","system_id":"levelo_inurba_marseille","lat":43.26208,"lon":5.37442,"is_reserved":false,"is_disabled":false,"rental_uris":{"android":"levelo://app?vid=318f78a8-0263-4834-ac39-be164f4831d1","ios":"levelo://app?vid=318f78a8-0263-4834-ac39-be164f4831d1"},"vehicle_type_id":"4","last_reported":1736267219,"current_range_meters":16400,"station_id":"ce4bhgp2rcd13ifvqfc0","pricing_plan_id":"cebpf4jnsgd1na2vs0mg"},{"bike_id":"aa33a53e-f806-43a8-ad7e-8e2bd9644426","system_id":"levelo_inurba_marseille","lat":43.32345,"lon":5.40629,"is_reserved":false,"is_disabled":true,"rental_uris":{"android":"levelo://app?vid=aa33a53e-f806-43a8-ad7e-8e2bd9644426","ios":"levelo://app?vid=aa33a53e-f806-43a8-ad7e-8e2bd9644426"},"vehicle_type_id":"4","last_reported":1736267219,"current_range_meters":0,"station_id":"ce4bhq92rcd13ifvqhjg","pricing_plan_id":"cebpf4jnsgd1na2vs0mg"},{"bike_id":"1f8297d7-92a8-4f77-9ed5-6e009f0cffcd","system_id":"levelo_inurba_marseille","lat":43.29532,"lon":5.39045,"is_reserved":false,"is_disabled":false,"rental_uris":{"android":"levelo://app?vid=1f8297d7-92a8-4f77-9ed5-6e009f0cffcd","ios":"levelo://app?vid=1f8297d7-92a8-4f77-9ed5-6e009f0cffcd"},"vehicle_type_id":"4","last_reported":1736267219,"current_range_meters":20800,"station_id":"ce4bh3p2rcd13ifvqdp0","pricing_plan_id":"cebpf4jnsgd1na2vs0mg"},{"bike_id":"28706a8a-e4d8-40e9-a34b-f308bb4cb4ca","system_id":"levelo_inurba_marseille","lat":43.31329,"lon":5.39685,"is_reserved":false,"is_disabled":false,"rental_uris":{"android":"levelo://app?vid=28706a8a-e4d8-40e9-a34b-f308bb4cb4ca","ios":"levelo://app?vid=28706a8a-e4d8-40e9-a34b-f308bb4cb4ca"},"vehicle_type_id":"4","last_reported":1736267219,"current_range_meters":38800,"station_id":"ce4bgvp2rcd13ifvqcu0","pricing_plan_id":"cebpf4jnsgd1na2vs0mg"},{"bike_id":"cc2e3a36-fe84-4cde-90e8-f4ea2e11e42a","system_id":"levelo_inurba_marseille","lat":43.29576,"lon":5.3674,"is_reserved":false,"is_disabled":false,"rental_uris":{"android":"levelo://app?vid=cc2e3a36-fe84-4cde-90e8-f4ea2e11e42a","ios":"levelo://app?vid=cc2e3a36-fe84-4cde-90e8-f4ea2e11e42a"},"vehicle_type_id":"4","last_reported":1736267219,"current_range_meters":34800,"station_id":"ce4bgph2rcd13ifvqc2g","pricing_plan_id":"cebpf4jnsgd1na2vs0mg"},{"bike_id":"184ebaba-bf18-489d-8947-aa0b180dec35","system_id":"levelo_inurba_marseille","lat":43.30601,"lon":5.37263,"is_reserved":false,"is_disabled":false,"rental_uris":{"android":"levelo://app?vid=184ebaba-bf18-489d-8947-aa0b180dec35","ios":"levelo://app?vid=184ebaba-bf18-489d-8947-aa0b180dec35"},"vehicle_type_id":"4","last_reported":1736267219,"current_range_meters":33600,"station_id":"ce4bgqh2rcd13ifvqc4g","pricing_plan_id":"cebpf4jnsgd1na2vs0mg"},{"bike_id":"e7d526cc-7abd-4222-b216-75d6968393eb","system_id":"levelo_inurba_marseille","lat":43.2906,"lon":5.3716,"is_reserved":false,"is_disabled":false,"rental_uris":{"android":"levelo://app?vid=e7d526cc-7abd-4222-b216-75d6968393eb","ios":"levelo://app?vid=e7d526cc-7abd-4222-b216-75d6968393eb"},"vehicle_type_id":"4","last_reported":1736267219,"current_range_meters":14400,"station_id":"ce4bh5p2rcd13ifvqe4g","pricing_plan_id":"cebpf4jnsgd1na2vs0mg"},{"bike_id":"d19c24fd-f814-495d-a19f-5bdf5fa669e7","system_id":"levelo_inurba_marseille","lat":43.29062,"lon":5.37161,"is_reserved":false,"is_disabled":false,"rental_uris":{"android":"levelo://app?vid=d19c24fd-f814-495d-a19f-5bdf5fa669e7","ios":"levelo://app?vid=d19c24fd-f814-495d-a19f-5bdf5fa669e7"},"vehicle_type_id":"4","last_reported":1736267219,"current_range_meters":26800,"station_id":"ce4bh5p2rcd13ifvqe4g","pricing_plan_id":"cebpf4jnsgd1na2vs0mg"},{"bike_id":"77177f8a-71d5-4e1a-868f-582664cef4f6","system_id":"levelo_inurba_marseille","lat":43.30139,"lon":5.3743,"is_reserved":false,"is_disabled":true,"rental_uris":{"android":"levelo://app?vid=77177f8a-71d5-4e1a-868f-582664cef4f6","ios":"levelo://app?vid=77177f8a-71d5-4e1a-868f-582664cef4f6"},"vehicle_type_id":"4","last_reported":1736267219,"current_range_meters":38400,"station_id":"ce4bgs92rcd13ifvqcc0","pricing_plan_id":"cebpf4jnsgd1na2vs0mg"},{"bike_id":"e64987f7-3c70-4af3-874b-1f11a68175f5","system_id":"levelo_inurba_marseille","lat":43.26215,"lon":5.37435,"is_reserved":false,"is_disabled":false,"rental_uris":{"android":"levelo://app?vid=e64987f7-3c70-4af3-874b-1f11a68175f5","ios":"levelo://app?vid=e64987f7-3c70-4af3-874b-1f11a68175f5"},"vehicle_type_id":"4","last_reported":1736267219,"current_range_meters":17600,"station_id":"ce4bhgp2rcd13ifvqfc0","pricing_plan_id":"cebpf4jnsgd1na2vs0mg"},{"bike_id":"bbc58ba2-66d4-417a-a386-fe0bb02b0043","system_id":"levelo_inurba_marseille","lat":43.31761,"lon":5.39014,"is_reserved":false,"is_disabled":false,"rental_uris":{"android":"levelo://app?vid=bbc58ba2-66d4-417a-a386-fe0bb02b0043","ios":"levelo://app?vid=bbc58ba2-66d4-417a-a386-fe0bb02b0043"},"vehicle_type_id":"4","last_reported":1736267219,"current_range_meters":28800,"station_id":"ce4bhqp2rcd13ifvqhng","pricing_plan_id":"cebpf4jnsgd1na2vs0mg"},{"bike_id":"7baf549d-feae-4179-84e3-d34121bfcd55","system_id":"levelo_inurba_marseille","lat":43.31703,"lon":5.43703,"is_reserved":false,"is_disabled":false,"rental_uris":{"android":"levelo://app?vid=7baf549d-feae-4179-84e3-d34121bfcd55","ios":"levelo://app?vid=7baf549d-feae-4179-84e3-d34121bfcd55"},"vehicle_type_id":"4","last_reported":1736267219,"current_range_meters":37600,"station_id":"ce4bhp92rcd13ifvqhcg","pricing_plan_id":"cebpf4jnsgd1na2vs0mg"},{"bike_id":"502087b1-18db-427e-9ac7-3d1aa22f63c7","system_id":"levelo_inurba_marseille","lat":43.2985,"lon":5.36282,"is_reserved":false,"is_disabled":false,"rental_uris":{"android":"levelo://app?vid=502087b1-18db-427e-9ac7-3d1aa22f63c7","ios":"levelo://app?vid=502087b1-18db-427e-9ac7-3d1aa22f63c7"},"vehicle_type_id":"4","last_reported":1736267219,"current_range_meters":38800,"station_id":"ce4bgpp2rcd13ifvqc3g","pricing_plan_id":"cebpf4jnsgd1na2vs0mg"},{"bike_id":"9a9b98a3-c084-429a-9727-d3c64f73c7da","system_id":"levelo_inurba_marseille","lat":43.29808,"lon":5.38113,"is_reserved":false,"is_disabled":false,"rental_uris":{"android":"levelo://app?vid=9a9b98a3-c084-429a-9727-d3c64f73c7da","ios":"levelo://app?vid=9a9b98a3-c084-429a-9727-d3c64f73c7da"},"vehicle_type_id":"4","last_reported":1736267219,"current_range_meters":37600,"station_id":"ce4bgip2rcd13ifvqbb0","pricing_plan_id":"cebpf4jnsgd1na2vs0mg"},{"bike_id":"7a92d907-ce7d-4776-b9fe-0b8ebe9491a1","system_id":"levelo_inurba_marseille","lat":43.27623,"lon":5.3611,"is_reserved":false,"is_disabled":false,"rental_uris":{"android":"levelo://app?vid=7a92d907-ce7d-4776-b9fe-0b8ebe9491a1","ios":"levelo://app?vid=7a92d907-ce7d-4776-b9fe-0b8ebe9491a1"},"vehicle_type_id":"4","last_reported":1736267219,"current_range_meters":38800,"station_id":"ce4bgj92rcd13ifvqbe0","pricing_plan_id":"cebpf4jnsgd1na2vs0mg"},{"bike_id":"039b29f7-94ed-4721-a8e9-0c1927d58b60","system_id":"levelo_inurba_marseille","lat":43.24653,"lon":5.38169,"is_reserved":false,"is_disabled":false,"rental_uris":{"android":"levelo://app?vid=039b29f7-94ed-4721-a8e9-0c1927d58b60","ios":"levelo://app?vid=039b29f7-94ed-4721-a8e9-0c1927d58b60"},"vehicle_type_id":"4","last_reported":1736267219,"current_range_meters":10000,"station_id":"ce4bhih2rcd13ifvqfr0","pricing_plan_id":"cebpf4jnsgd1na2vs0mg"},{"bike_id":"a408756d-cb24-4825-9ea5-061df1b6731c","system_id":"levelo_inurba_marseille","lat":43.2828,"lon":5.35081,"is_reserved":false,"is_disabled":false,"rental_uris":{"android":"levelo://app?vid=a408756d-cb24-4825-9ea5-061df1b6731c","ios":"levelo://app?vid=a408756d-cb24-4825-9ea5-061df1b6731c"},"vehicle_type_id":"4","last_reported":1736267219,"current_range_meters":28000,"station_id":"ce4bhbp2rcd13ifvqerg","pricing_plan_id":"cebpf4jnsgd1na2vs0mg"},{"bike_id":"3f86cc4e-c4fd-40a8-a7f2-03738bc004c2","system_id":"levelo_inurba_marseille","lat":43.28461,"lon":5.35888,"is_reserved":false,"is_disabled":false,"rental_uris":{"android":"levelo://app?vid=3f86cc4e-c4fd-40a8-a7f2-03738bc004c2","ios":"levelo://app?vid=3f86cc4e-c4fd-40a8-a7f2-03738bc004c2"},"vehicle_type_id":"4","last_reported":1736267219,"current_range_meters":35600,"station_id":"ce4bhah2rcd13ifvqei0","pricing_plan_id":"cebpf4jnsgd1na2vs0mg"},{"bike_id":"bbf998ea-d252-4590-8711-16d78ff4b07c","system_id":"levelo_inurba_marseille","lat":43.24655,"lon":5.38897,"is_reserved":false,"is_disabled":false,"rental_uris":{"android":"levelo://app?vid=bbf998ea-d252-4590-8711-16d78ff4b07c","ios":"levelo://app?vid=bbf998ea-d252-4590-8711-16d78ff4b07c"},"vehicle_type_id":"4","last_reported":1736267219,"current_range_meters":25600,"station_id":"ce4bhg12rcd13ifvqf60","pricing_plan_id":"cebpf4jnsgd1na2vs0mg"},{"bike_id":"5edae86c-18e1-4fdc-8a0c-632158237bb8","system_id":"levelo_inurba_marseille","lat":43.24686,"lon":5.38156,"is_reserved":false,"is_disabled":false,"rental_uris":{"android":"levelo://app?vid=5edae86c-18e1-4fdc-8a0c-632158237bb8","ios":"levelo://app?vid=5edae86c-18e1-4fdc-8a0c-632158237bb8"},"vehicle_type_id":"4","last_reported":1736267219,"current_range_meters":34800,"station_id":"ce4bhih2rcd13ifvqfr0","pricing_plan_id":"cebpf4jnsgd1na2vs0mg"},{"bike_id":"dc7a03ed-21bb-4549-b5e4-9a80411a620b","system_id":"levelo_inurba_marseille","lat":43.26558,"lon":5.3729,"is_reserved":false,"is_disabled":false,"rental_uris":{"android":"levelo://app?vid=dc7a03ed-21bb-4549-b5e4-9a80411a620b","ios":"levelo://app?vid=dc7a03ed-21bb-4549-b5e4-9a80411a620b"},"vehicle_type_id":"4","last_reported":1736267219,"current_range_meters":26800,"station_id":"ce4bhg12rcd13ifvqf70","pricing_plan_id":"cebpf4jnsgd1na2vs0mg"},{"bike_id":"1f3279ad-7688-4d1e-817a-428a5253b908","system_id":"levelo_inurba_marseille","lat":43.31328,"lon":5.39686,"is_reserved":false,"is_disabled":false,"rental_uris":{"android":"levelo://app?vid=1f3279ad-7688-4d1e-817a-428a5253b908","ios":"levelo://app?vid=1f3279ad-7688-4d1e-817a-428a5253b908"},"vehicle_type_id":"4","last_reported":1736267219,"current_range_meters":33200,"station_id":"ce4bgvp2rcd13ifvqcu0","pricing_plan_id":"cebpf4jnsgd1na2vs0mg"},{"bike_id":"f1d4813b-e051-4d1f-8d97-b4e424de96a0","system_id":"levelo_inurba_marseille","lat":43.30351,"lon":5.41852,"is_reserved":false,"is_disabled":false,"rental_uris":{"android":"levelo://app?vid=f1d4813b-e051-4d1f-8d97-b4e424de96a0","ios":"levelo://app?vid=f1d4813b-e051-4d1f-8d97-b4e424de96a0"},"vehicle_type_id":"4","last_reported":1736267219,"current_range_meters":38800,"station_id":"ce4bhop2rcd13ifvqh7g","pricing_plan_id":"cebpf4jnsgd1na2vs0mg"},{"bike_id":"6fe81e10-1fc7-4caa-af79-8151212f56ba","system_id":"levelo_inurba_marseille","lat":43.29377,"lon":5.37852,"is_reserved":false,"is_disabled":false,"rental_uris":{"android":"levelo://app?vid=6fe81e10-1fc7-4caa-af79-8151212f56ba","ios":"levelo://app?vid=6fe81e10-1fc7-4caa-af79-8151212f56ba"},"vehicle_type_id":"4","last_reported":1736267219,"current_range_meters":4400,"station_id":"ce4bgjh2rcd13ifvqbf0","pricing_plan_id":"cebpf4jnsgd1na2vs0mg"},{"bike_id":"0b9521b2-4a4a-4b15-a356-31ebe979341d","system_id":"levelo_inurba_marseille","lat":43.29904,"lon":5.43661,"is_reserved":false,"is_disabled":false,"rental_uris":{"android":"levelo://app?vid=0b9521b2-4a4a-4b15-a356-31ebe979341d","ios":"levelo://app?vid=0b9521b2-4a4a-4b15-a356-31ebe979341d"},"vehicle_type_id":"4","last_reported":1736267219,"current_range_meters":8400,"station_id":"ce4bhpp2rcd13ifvqhfg","pricing_plan_id":"cebpf4jnsgd1na2vs0mg"},{"bike_id":"7fdb8a30-d664-4f4a-8ef4-74d360ec87d0","system_id":"levelo_inurba_marseille","lat":43.30647,"lon":5.40039,"is_reserved":false,"is_disabled":false,"rental_uris":{"android":"levelo://app?vid=7fdb8a30-d664-4f4a-8ef4-74d360ec87d0","ios":"levelo://app?vid=7fdb8a30-d664-4f4a-8ef4-74d360ec87d0"},"vehicle_type_id":"4","last_reported":1736267219,"current_range_meters":13600,"station_id":"","pricing_plan_id":"cebpf4jnsgd1na2vs0mg"},{"bike_id":"c3edf4fb-96b4-4319-a2af-3e4887a01222","system_id":"levelo_inurba_marseille","lat":43.29078,"lon":5.37164,"is_reserved":false,"is_disabled":false,"rental_uris":{"android":"levelo://app?vid=c3edf4fb-96b4-4319-a2af-3e4887a01222","ios":"levelo://app?vid=c3edf4fb-96b4-4319-a2af-3e4887a01222"},"vehicle_type_id":"4","last_reported":1736267219,"current_range_meters":27200,"station_id":"ce4bh5p2rcd13ifvqe4g","pricing_plan_id":"cebpf4jnsgd1na2vs0mg"},{"bike_id":"8f8a6b60-f04d-4b74-b362-c3a3a2a54621","system_id":"levelo_inurba_marseille","lat":43.28697,"lon":5.38674,"is_reserved":false,"is_disabled":false,"rental_uris":{"android":"levelo://app?vid=8f8a6b60-f04d-4b74-b362-c3a3a2a54621","ios":"levelo://app?vid=8f8a6b60-f04d-4b74-b362-c3a3a2a54621"},"vehicle_type_id":"4","last_reported":1736267219,"current_range_meters":38800,"station_id":"ce4bh492rcd13ifvqdug","pricing_plan_id":"cebpf4jnsgd1na2vs0mg"},{"bike_id":"f3068faf-6ea3-45c0-943e-8f5eb9fecb3c","system_id":"levelo_inurba_marseille","lat":43.2396,"lon":5.36635,"is_reserved":false,"is_disabled":false,"rental_uris":{"android":"levelo://app?vid=f3068faf-6ea3-45c0-943e-8f5eb9fecb3c","ios":"levelo://app?vid=f3068faf-6ea3-45c0-943e-8f5eb9fecb3c"},"vehicle_type_id":"4","last_reported":1736267219,"current_range_meters":36800,"station_id":"ce4bhi12rcd13ifvqfp0","pricing_plan_id":"cebpf4jnsgd1na2vs0mg"},{"bike_id":"2937c8f0-6f06-4c7f-8240-41ad44bc55fa","system_id":"levelo_inurba_marseille","lat":43.23188,"lon":5.39987,"is_reserved":false,"is_disabled":false,"rental_uris":{"android":"levelo://app?vid=2937c8f0-6f06-4c7f-8240-41ad44bc55fa","ios":"levelo://app?vid=2937c8f0-6f06-4c7f-8240-41ad44bc55fa"},"vehicle_type_id":"4","last_reported":1736267219,"current_range_meters":9600,"station_id":"ce4bhn12rcd13ifvqgqg","pricing_plan_id":"cebpf4jnsgd1na2vs0mg"},{"bike_id":"cf4fcf6b-97d4-439f-945b-4a3791e0a013","system_id":"levelo_inurba_marseille","lat":43.2963,"lon":5.40598,"is_reserved":false,"is_disabled":true,"rental_uris":{"android":"levelo://app?vid=cf4fcf6b-97d4-439f-945b-4a3791e0a013","ios":"levelo://app?vid=cf4fcf6b-97d4-439f-945b-4a3791e0a013"},"vehicle_type_id":"4","last_reported":1736267219,"current_range_meters":1600,"station_id":"ce4bh0h2rcd13ifvqd60","pricing_plan_id":"cebpf4jnsgd1na2vs0mg"},{"bike_id":"ac474c7a-d979-4efb-944d-8e1bd64ce0dd","system_id":"levelo_inurba_marseille","lat":43.29633,"lon":5.40611,"is_reserved":false,"is_disabled":false,"rental_uris":{"android":"levelo://app?vid=ac474c7a-d979-4efb-944d-8e1bd64ce0dd","ios":"levelo://app?vid=ac474c7a-d979-4efb-944d-8e1bd64ce0dd"},"vehicle_type_id":"4","last_reported":1736267219,"current_range_meters":19600,"station_id":"ce4bh0h2rcd13ifvqd60","pricing_plan_id":"cebpf4jnsgd1na2vs0mg"},{"bike_id":"b1a225bc-fcb7-47d4-bccc-5a0b0c52db6e","system_id":"levelo_inurba_marseille","lat":43.29418,"lon":5.38624,"is_reserved":false,"is_disabled":false,"rental_uris":{"android":"levelo://app?vid=b1a225bc-fcb7-47d4-bccc-5a0b0c52db6e","ios":"levelo://app?vid=b1a225bc-fcb7-47d4-bccc-5a0b0c52db6e"},"vehicle_type_id":"4","last_reported":1736267219,"current_range_meters":9600,"station_id":"ce4bh2h2rcd13ifvqdh0","pricing_plan_id":"cebpf4jnsgd1na2vs0mg"},{"bike_id":"d9aa7e1f-6743-4005-bb2f-1f492d12ae91","system_id":"levelo_inurba_marseille","lat":43.26215,"lon":5.37927,"is_reserved":false,"is_disabled":false,"rental_uris":{"android":"levelo://app?vid=d9aa7e1f-6743-4005-bb2f-1f492d12ae91","ios":"levelo://app?vid=d9aa7e1f-6743-4005-bb2f-1f492d12ae91"},"vehicle_type_id":"4","last_reported":1736267219,"current_range_meters":33200,"station_id":"ce4bhjp2rcd13ifvqg90","pricing_plan_id":"cebpf4jnsgd1na2vs0mg"},{"bike_id":"0cdd36e2-7a75-4792-918c-5c381513df26","system_id":"levelo_inurba_marseille","lat":43.2931,"lon":5.37176,"is_reserved":false,"is_disabled":false,"rental_uris":{"android":"levelo://app?vid=0cdd36e2-7a75-4792-918c-5c381513df26","ios":"levelo://app?vid=0cdd36e2-7a75-4792-918c-5c381513df26"},"vehicle_type_id":"4","last_reported":1736267219,"current_range_meters":38800,"station_id":"ce4bgh92rcd13ifvqb40","pricing_plan_id":"cebpf4jnsgd1na2vs0mg"},{"bike_id":"d014f699-d84d-436b-b3bf-8c059d18ea89","system_id":"levelo_inurba_marseille","lat":43.22943,"lon":5.35345,"is_reserved":false,"is_disabled":false,"rental_uris":{"android":"levelo://app?vid=d014f699-d84d-436b-b3bf-8c059d18ea89","ios":"levelo://app?vid=d014f699-d84d-436b-b3bf-8c059d18ea89"},"vehicle_type_id":"4","last_reported":1736267219,"current_range_meters":7200,"station_id":"cpo3532slgdg3j2ikp40","pricing_plan_id":"cebpf4jnsgd1na2vs0mg"},{"bike_id":"8fa8b7f9-1a9a-4b12-8f46-a00de1a280d3","system_id":"levelo_inurba_marseille","lat":43.28429,"lon":5.34991,"is_reserved":false,"is_disabled":false,"rental_uris":{"android":"levelo://app?vid=8fa8b7f9-1a9a-4b12-8f46-a00de1a280d3","ios":"levelo://app?vid=8fa8b7f9-1a9a-4b12-8f46-a00de1a280d3"},"vehicle_type_id":"4","last_reported":1736267219,"current_range_meters":27200,"station_id":"ce4bhbh2rcd13ifvqepg","pricing_plan_id":"cebpf4jnsgd1na2vs0mg"},{"bike_id":"955387a8-4a47-4691-946f-78754c88504b","system_id":"levelo_inurba_marseille","lat":43.23207,"lon":5.35553,"is_reserved":false,"is_disabled":false,"rental_uris":{"android":"levelo://app?vid=955387a8-4a47-4691-946f-78754c88504b","ios":"levelo://app?vid=955387a8-4a47-4691-946f-78754c88504b"},"vehicle_type_id":"4","last_reported":1736267219,"current_range_meters":36400,"station_id":"ce4bhu92rcd13ifvqi70","pricing_plan_id":"cebpf4jnsgd1na2vs0mg"},{"bike_id":"ef72cdb4-465d-4178-b952-49906f159c48","system_id":"levelo_inurba_marseille","lat":43.28152,"lon":5.42639,"is_reserved":false,"is_disabled":false,"rental_uris":{"android":"levelo://app?vid=ef72cdb4-465d-4178-b952-49906f159c48","ios":"levelo://app?vid=ef72cdb4-465d-4178-b952-49906f159c48"},"vehicle_type_id":"4","last_reported":1736267219,"current_range_meters":36000,"station_id":"ce4bhnh2rcd13ifvqgug","pricing_plan_id":"cebpf4jnsgd1na2vs0mg"},{"bike_id":"94df642c-7b40-4421-9ecb-14dea7ab90ae","system_id":"levelo_inurba_marseille","lat":43.31717,"lon":5.37777,"is_reserved":false,"is_disabled":false,"rental_uris":{"android":"levelo://app?vid=94df642c-7b40-4421-9ecb-14dea7ab90ae","ios":"levelo://app?vid=94df642c-7b40-4421-9ecb-14dea7ab90ae"},"vehicle_type_id":"4","last_reported":1736267219,"current_range_meters":38800,"station_id":"ce4bgth2rcd13ifvqch0","pricing_plan_id":"cebpf4jnsgd1na2vs0mg"},{"bike_id":"f949af9a-2683-4ec9-b4bf-168b31b3bcb2","system_id":"levelo_inurba_marseille","lat":43.24653,"lon":5.389161,"is_reserved":false,"is_disabled":false,"rental_uris":{"android":"levelo://app?vid=f949af9a-2683-4ec9-b4bf-168b31b3bcb2","ios":"levelo://app?vid=f949af9a-2683-4ec9-b4bf-168b31b3bcb2"},"vehicle_type_id":"4","last_reported":1736267219,"current_range_meters":18000,"station_id":"ce4bhg12rcd13ifvqf60","pricing_plan_id":"cebpf4jnsgd1na2vs0mg"},{"bike_id":"77aaaf35-bdb3-4477-92f3-b5cabf767f6e","system_id":"levelo_inurba_marseille","lat":43.28699,"lon":5.37396,"is_reserved":false,"is_disabled":false,"rental_uris":{"android":"levelo://app?vid=77aaaf35-bdb3-4477-92f3-b5cabf767f6e","ios":"levelo://app?vid=77aaaf35-bdb3-4477-92f3-b5cabf767f6e"},"vehicle_type_id":"4","last_reported":1736267219,"current_range_meters":36400,"station_id":"ce4bh3p2rcd13ifvqdq0","pricing_plan_id":"cebpf4jnsgd1na2vs0mg"},{"bike_id":"17071e33-9473-4b17-8664-bdc759307bd0","system_id":"levelo_inurba_marseille","lat":43.30315,"lon":5.36893,"is_reserved":false,"is_disabled":false,"rental_uris":{"android":"levelo://app?vid=17071e33-9473-4b17-8664-bdc759307bd0","ios":"levelo://app?vid=17071e33-9473-4b17-8664-bdc759307bd0"},"vehicle_type_id":"4","last_reported":1736267219,"current_range_meters":38800,"station_id":"ce4bgqh2rcd13ifvqc5g","pricing_plan_id":"cebpf4jnsgd1na2vs0mg"},{"bike_id":"38eb13bb-c212-45e4-8330-09c11a2b3fcd","system_id":"levelo_inurba_marseille","lat":43.31221,"lon":5.36858,"is_reserved":false,"is_disabled":false,"rental_uris":{"android":"levelo://app?vid=38eb13bb-c212-45e4-8330-09c11a2b3fcd","ios":"levelo://app?vid=38eb13bb-c212-45e4-8330-09c11a2b3fcd"},"vehicle_type_id":"4","last_reported":1736267219,"current_range_meters":38000,"station_id":"ce4bgl92rcd13ifvqbq0","pricing_plan_id":"cebpf4jnsgd1na2vs0mg"},{"bike_id":"2cbe44e8-5153-4f16-96d5-c672956deddb","system_id":"levelo_inurba_marseille","lat":43.29382,"lon":5.37857,"is_reserved":false,"is_disabled":false,"rental_uris":{"android":"levelo://app?vid=2cbe44e8-5153-4f16-96d5-c672956deddb","ios":"levelo://app?vid=2cbe44e8-5153-4f16-96d5-c672956deddb"},"vehicle_type_id":"4","last_reported":1736267219,"current_range_meters":13600,"station_id":"ce4bgjh2rcd13ifvqbf0","pricing_plan_id":"cebpf4jnsgd1na2vs0mg"},{"bike_id":"6ab42f04-ca2f-4d94-aea5-eb2c85d4cff1","system_id":"levelo_inurba_marseille","lat":43.25109,"lon":5.40323,"is_reserved":false,"is_disabled":false,"rental_uris":{"android":"levelo://app?vid=6ab42f04-ca2f-4d94-aea5-eb2c85d4cff1","ios":"levelo://app?vid=6ab42f04-ca2f-4d94-aea5-eb2c85d4cff1"},"vehicle_type_id":"4","last_reported":1736267219,"current_range_meters":38000,"station_id":"ce4bhlh2rcd13ifvqgig","pricing_plan_id":"cebpf4jnsgd1na2vs0mg"},{"bike_id":"638997bd-d149-4d90-93a6-5df85053fb09","system_id":"levelo_inurba_marseille","lat":43.26203,"lon":5.37923,"is_reserved":false,"is_disabled":false,"rental_uris":{"android":"levelo://app?vid=638997bd-d149-4d90-93a6-5df85053fb09","ios":"levelo://app?vid=638997bd-d149-4d90-93a6-5df85053fb09"},"vehicle_type_id":"4","last_reported":1736267219,"current_range_meters":38400,"station_id":"ce4bhjp2rcd13ifvqg90","pricing_plan_id":"cebpf4jnsgd1na2vs0mg"},{"bike_id":"96c31a2d-4c1d-4296-b5ba-155a7809cd29","system_id":"levelo_inurba_marseille","lat":43.27674,"lon":5.38899,"is_reserved":false,"is_disabled":false,"rental_uris":{"android":"levelo://app?vid=96c31a2d-4c1d-4296-b5ba-155a7809cd29","ios":"levelo://app?vid=96c31a2d-4c1d-4296-b5ba-155a7809cd29"},"vehicle_type_id":"4","last_reported":1736267219,"current_range_meters":25200,"station_id":"ce4bhi12rcd13ifvqfo0","pricing_plan_id":"cebpf4jnsgd1na2vs0mg"},{"bike_id":"7a541cb7-8cb2-405d-826f-44f00f414d91","system_id":"levelo_inurba_marseille","lat":43.29594,"lon":5.38101,"is_reserved":false,"is_disabled":false,"rental_uris":{"android":"levelo://app?vid=7a541cb7-8cb2-405d-826f-44f00f414d91","ios":"levelo://app?vid=7a541cb7-8cb2-405d-826f-44f00f414d91"},"vehicle_type_id":"4","last_reported":1736267219,"current_range_meters":19200,"station_id":"ce4bgl12rcd13ifvqbo0","pricing_plan_id":"cebpf4jnsgd1na2vs0mg"},{"bike_id":"93c40cb2-9b19-4384-8847-1087c5e648b6","system_id":"levelo_inurba_marseille","lat":43.29004,"lon":5.35616,"is_reserved":false,"is_disabled":false,"rental_uris":{"android":"levelo://app?vid=93c40cb2-9b19-4384-8847-1087c5e648b6","ios":"levelo://app?vid=93c40cb2-9b19-4384-8847-1087c5e648b6"},"vehicle_type_id":"4","last_reported":1736267219,"current_range_meters":25600,"station_id":"ce4bhb92rcd13ifvqen0","pricing_plan_id":"cebpf4jnsgd1na2vs0mg"},{"bike_id":"b69dcd32-9d4d-4ebd-9627-3f9dbce2640b","system_id":"levelo_inurba_marseille","lat":43.27816,"lon":5.40713,"is_reserved":false,"is_disabled":false,"rental_uris":{"android":"levelo://app?vid=b69dcd32-9d4d-4ebd-9627-3f9dbce2640b","ios":"levelo://app?vid=b69dcd32-9d4d-4ebd-9627-3f9dbce2640b"},"vehicle_type_id":"4","last_reported":1736267219,"current_range_meters":35600,"station_id":"ce4bhnh2rcd13ifvqgtg","pricing_plan_id":"cebpf4jnsgd1na2vs0mg"},{"bike_id":"a362e23d-da44-442a-9686-b2c37785ecf3","system_id":"levelo_inurba_marseille","lat":43.29982,"lon":5.38522,"is_reserved":false,"is_disabled":false,"rental_uris":{"android":"levelo://app?vid=a362e23d-da44-442a-9686-b2c37785ecf3","ios":"levelo://app?vid=a362e23d-da44-442a-9686-b2c37785ecf3"},"vehicle_type_id":"4","last_reported":1736267219,"current_range_meters":24400,"station_id":"ce4bgj92rcd13ifvqbd0","pricing_plan_id":"cebpf4jnsgd1na2vs0mg"},{"bike_id":"79effc26-08b3-4490-b08b-e2d57404a75e","system_id":"levelo_inurba_marseille","lat":43.30319,"lon":5.40456,"is_reserved":false,"is_disabled":false,"rental_uris":{"android":"levelo://app?vid=79effc26-08b3-4490-b08b-e2d57404a75e","ios":"levelo://app?vid=79effc26-08b3-4490-b08b-e2d57404a75e"},"vehicle_type_id":"4","last_reported":1736267219,"current_range_meters":30000,"station_id":"ce4bh012rcd13ifvqd10","pricing_plan_id":"cebpf4jnsgd1na2vs0mg"},{"bike_id":"a0f6036a-5401-4667-beb1-c12911e1f446","system_id":"levelo_inurba_marseille","lat":43.28722,"lon":5.36082,"is_reserved":false,"is_disabled":false,"rental_uris":{"android":"levelo://app?vid=a0f6036a-5401-4667-beb1-c12911e1f446","ios":"levelo://app?vid=a0f6036a-5401-4667-beb1-c12911e1f446"},"vehicle_type_id":"4","last_reported":1736267219,"current_range_meters":23200,"station_id":"cki0cbj6b192h4jlfktg","pricing_plan_id":"cebpf4jnsgd1na2vs0mg"},{"bike_id":"990ac71a-3986-4752-8c42-be25551b8954","system_id":"levelo_inurba_marseille","lat":43.31711,"lon":5.37718,"is_reserved":false,"is_disabled":false,"rental_uris":{"android":"levelo://app?vid=990ac71a-3986-4752-8c42-be25551b8954","ios":"levelo://app?vid=990ac71a-3986-4752-8c42-be25551b8954"},"vehicle_type_id":"4","last_reported":1736267219,"current_range_meters":27600,"station_id":"ce4bgth2rcd13ifvqch0","pricing_plan_id":"cebpf4jnsgd1na2vs0mg"},{"bike_id":"4349e322-e54f-4a7c-8de9-2ce06a16918d","system_id":"levelo_inurba_marseille","lat":43.279538,"lon":5.41047,"is_reserved":false,"is_disabled":false,"rental_uris":{"android":"levelo://app?vid=4349e322-e54f-4a7c-8de9-2ce06a16918d","ios":"levelo://app?vid=4349e322-e54f-4a7c-8de9-2ce06a16918d"},"vehicle_type_id":"4","last_reported":1736267219,"current_range_meters":38800,"station_id":"ce4bhnp2rcd13ifvqh0g","pricing_plan_id":"cebpf4jnsgd1na2vs0mg"},{"bike_id":"031ebb29-b773-4a0e-86cf-28baeeeb711e","system_id":"levelo_inurba_marseille","lat":43.29603,"lon":5.381,"is_reserved":false,"is_disabled":false,"rental_uris":{"android":"levelo://app?vid=031ebb29-b773-4a0e-86cf-28baeeeb711e","ios":"levelo://app?vid=031ebb29-b773-4a0e-86cf-28baeeeb711e"},"vehicle_type_id":"4","last_reported":1736267219,"current_range_meters":38800,"station_id":"ce4bgl12rcd13ifvqbo0","pricing_plan_id":"cebpf4jnsgd1na2vs0mg"},{"bike_id":"6745d055-1c33-4fe2-9a73-97a24f35c0f0","system_id":"levelo_inurba_marseille","lat":43.32527,"lon":5.41523,"is_reserved":false,"is_disabled":false,"rental_uris":{"android":"levelo://app?vid=6745d055-1c33-4fe2-9a73-97a24f35c0f0","ios":"levelo://app?vid=6745d055-1c33-4fe2-9a73-97a24f35c0f0"},"vehicle_type_id":"4","last_reported":1736267219,"current_range_meters":32800,"station_id":"","pricing_plan_id":"cebpf4jnsgd1na2vs0mg"},{"bike_id":"23ecf45a-b579-41bc-9e56-c490ed9d407b","system_id":"levelo_inurba_marseille","lat":43.27832,"lon":5.39216,"is_reserved":false,"is_disabled":false,"rental_uris":{"android":"levelo://app?vid=23ecf45a-b579-41bc-9e56-c490ed9d407b","ios":"levelo://app?vid=23ecf45a-b579-41bc-9e56-c490ed9d407b"},"vehicle_type_id":"4","last_reported":1736267219,"current_range_meters":35200,"station_id":"ce4bhjp2rcd13ifvqga0","pricing_plan_id":"cebpf4jnsgd1na2vs0mg"},{"bike_id":"d26d2a2b-6b23-4fc3-b931-56527ca935bc","system_id":"levelo_inurba_marseille","lat":43.31764,"lon":5.38994,"is_reserved":false,"is_disabled":false,"rental_uris":{"android":"levelo://app?vid=d26d2a2b-6b23-4fc3-b931-56527ca935bc","ios":"levelo://app?vid=d26d2a2b-6b23-4fc3-b931-56527ca935bc"},"vehicle_type_id":"4","last_reported":1736267219,"current_range_meters":20000,"station_id":"ce4bhqp2rcd13ifvqhng","pricing_plan_id":"cebpf4jnsgd1na2vs0mg"},{"bike_id":"51bc5de6-4fe5-4b26-87ea-d151c6fb650f","system_id":"levelo_inurba_marseille","lat":43.31339,"lon":5.39887,"is_reserved":false,"is_disabled":false,"rental_uris":{"android":"levelo://app?vid=51bc5de6-4fe5-4b26-87ea-d151c6fb650f","ios":"levelo://app?vid=51bc5de6-4fe5-4b26-87ea-d151c6fb650f"},"vehicle_type_id":"4","last_reported":1736267219,"current_range_meters":11200,"station_id":"ce4bgvp2rcd13ifvqcu0","pricing_plan_id":"cebpf4jnsgd1na2vs0mg"},{"bike_id":"1ef18e5f-6acf-4c4d-ba3a-8b6e0b65fd2b","system_id":"levelo_inurba_marseille","lat":43.29415,"lon":5.38624,"is_reserved":false,"is_disabled":false,"rental_uris":{"android":"levelo://app?vid=1ef18e5f-6acf-4c4d-ba3a-8b6e0b65fd2b","ios":"levelo://app?vid=1ef18e5f-6acf-4c4d-ba3a-8b6e0b65fd2b"},"vehicle_type_id":"4","last_reported":1736267219,"current_range_meters":32400,"station_id":"ce4bh2h2rcd13ifvqdh0","pricing_plan_id":"cebpf4jnsgd1na2vs0mg"},{"bike_id":"3eb800a9-fbc6-44dd-8d8e-2ed4125878c3","system_id":"levelo_inurba_marseille","lat":43.28156,"lon":5.42644,"is_reserved":false,"is_disabled":false,"rental_uris":{"android":"levelo://app?vid=3eb800a9-fbc6-44dd-8d8e-2ed4125878c3","ios":"levelo://app?vid=3eb800a9-fbc6-44dd-8d8e-2ed4125878c3"},"vehicle_type_id":"4","last_reported":1736267219,"current_range_meters":6800,"station_id":"ce4bhnh2rcd13ifvqgug","pricing_plan_id":"cebpf4jnsgd1na2vs0mg"},{"bike_id":"a1f63b46-b5b2-4a8b-ba46-c22676151fc3","system_id":"levelo_inurba_marseille","lat":43.28437,"lon":5.39194,"is_reserved":false,"is_disabled":false,"rental_uris":{"android":"levelo://app?vid=a1f63b46-b5b2-4a8b-ba46-c22676151fc3","ios":"levelo://app?vid=a1f63b46-b5b2-4a8b-ba46-c22676151fc3"},"vehicle_type_id":"4","last_reported":1736267219,"current_range_meters":28400,"station_id":"ce4bhoh2rcd13ifvqh5g","pricing_plan_id":"cebpf4jnsgd1na2vs0mg"},{"bike_id":"6fa7235e-6bdf-4dc2-8ca4-a4a2af2c852e","system_id":"levelo_inurba_marseille","lat":43.29518,"lon":5.37506,"is_reserved":false,"is_disabled":false,"rental_uris":{"android":"levelo://app?vid=6fa7235e-6bdf-4dc2-8ca4-a4a2af2c852e","ios":"levelo://app?vid=6fa7235e-6bdf-4dc2-8ca4-a4a2af2c852e"},"vehicle_type_id":"4","last_reported":1736267219,"current_range_meters":38800,"station_id":"ce4bgkp2rcd13ifvqbmg","pricing_plan_id":"cebpf4jnsgd1na2vs0mg"},{"bike_id":"aad4a535-b699-4598-8dc1-ecd244317ca1","system_id":"levelo_inurba_marseille","lat":43.23182,"lon":5.39978,"is_reserved":false,"is_disabled":false,"rental_uris":{"android":"levelo://app?vid=aad4a535-b699-4598-8dc1-ecd244317ca1","ios":"levelo://app?vid=aad4a535-b699-4598-8dc1-ecd244317ca1"},"vehicle_type_id":"4","last_reported":1736267219,"current_range_meters":8400,"station_id":"ce4bhn12rcd13ifvqgqg","pricing_plan_id":"cebpf4jnsgd1na2vs0mg"},{"bike_id":"ed6be1a6-1d1e-4c96-92db-cb939578d6fc","system_id":"levelo_inurba_marseille","lat":43.28424,"lon":5.34997,"is_reserved":false,"is_disabled":false,"rental_uris":{"android":"levelo://app?vid=ed6be1a6-1d1e-4c96-92db-cb939578d6fc","ios":"levelo://app?vid=ed6be1a6-1d1e-4c96-92db-cb939578d6fc"},"vehicle_type_id":"4","last_reported":1736267219,"current_range_meters":12000,"station_id":"ce4bhbh2rcd13ifvqepg","pricing_plan_id":"cebpf4jnsgd1na2vs0mg"},{"bike_id":"ee60f4bc-4321-4c0e-a605-c529969a2487","system_id":"levelo_inurba_marseille","lat":43.29276,"lon":5.40114,"is_reserved":false,"is_disabled":false,"rental_uris":{"android":"levelo://app?vid=ee60f4bc-4321-4c0e-a605-c529969a2487","ios":"levelo://app?vid=ee60f4bc-4321-4c0e-a605-c529969a2487"},"vehicle_type_id":"4","last_reported":1736267219,"current_range_meters":28400,"station_id":"ce4bh312rcd13ifvqdk0","pricing_plan_id":"cebpf4jnsgd1na2vs0mg"},{"bike_id":"2a75ae41-e300-40b0-b264-03221db0148f","system_id":"levelo_inurba_marseille","lat":43.308962,"lon":5.396507,"is_reserved":false,"is_disabled":false,"rental_uris":{"android":"levelo://app?vid=2a75ae41-e300-40b0-b264-03221db0148f","ios":"levelo://app?vid=2a75ae41-e300-40b0-b264-03221db0148f"},"vehicle_type_id":"4","last_reported":1736267219,"current_range_meters":38800,"station_id":"ce4bh012rcd13ifvqcv0","pricing_plan_id":"cebpf4jnsgd1na2vs0mg"},{"bike_id":"a66ca779-7775-4e09-8e43-acf113610ae9","system_id":"levelo_inurba_marseille","lat":43.29803,"lon":5.38102,"is_reserved":false,"is_disabled":false,"rental_uris":{"android":"levelo://app?vid=a66ca779-7775-4e09-8e43-acf113610ae9","ios":"levelo://app?vid=a66ca779-7775-4e09-8e43-acf113610ae9"},"vehicle_type_id":"4","last_reported":1736267219,"current_range_meters":28400,"station_id":"ce4bgip2rcd13ifvqbb0","pricing_plan_id":"cebpf4jnsgd1na2vs0mg"},{"bike_id":"b210e670-04e4-4c2c-8f2a-43a3063e68eb","system_id":"levelo_inurba_marseille","lat":43.24005,"lon":5.37691,"is_reserved":false,"is_disabled":true,"rental_uris":{"android":"levelo://app?vid=b210e670-04e4-4c2c-8f2a-43a3063e68eb","ios":"levelo://app?vid=b210e670-04e4-4c2c-8f2a-43a3063e68eb"},"vehicle_type_id":"4","last_reported":1736267219,"current_range_meters":38000,"station_id":"","pricing_plan_id":"cebpf4jnsgd1na2vs0mg"},{"bike_id":"64facfae-952e-4e11-8cc0-28574ffebf56","system_id":"levelo_inurba_marseille","lat":43.29293,"lon":5.37459,"is_reserved":false,"is_disabled":true,"rental_uris":{"android":"levelo://app?vid=64facfae-952e-4e11-8cc0-28574ffebf56","ios":"levelo://app?vid=64facfae-952e-4e11-8cc0-28574ffebf56"},"vehicle_type_id":"4","last_reported":1736267219,"current_range_meters":1600,"station_id":"ce4bgi12rcd13ifvqb70","pricing_plan_id":"cebpf4jnsgd1na2vs0mg"},{"bike_id":"0227fe98-6a0e-4931-aae5-4fbf86118025","system_id":"levelo_inurba_marseille","lat":43.305754,"lon":5.365666,"is_reserved":false,"is_disabled":false,"rental_uris":{"android":"levelo://app?vid=0227fe98-6a0e-4931-aae5-4fbf86118025","ios":"levelo://app?vid=0227fe98-6a0e-4931-aae5-4fbf86118025"},"vehicle_type_id":"4","last_reported":1736267219,"current_range_meters":4800,"station_id":"ce4bgs12rcd13ifvqcag","pricing_plan_id":"cebpf4jnsgd1na2vs0mg"},{"bike_id":"cf40d936-bcae-401e-a7a9-3fc56a32ddc8","system_id":"levelo_inurba_marseille","lat":43.2872,"lon":5.3795,"is_reserved":false,"is_disabled":false,"rental_uris":{"android":"levelo://app?vid=cf40d936-bcae-401e-a7a9-3fc56a32ddc8","ios":"levelo://app?vid=cf40d936-bcae-401e-a7a9-3fc56a32ddc8"},"vehicle_type_id":"4","last_reported":1736267219,"current_range_meters":12800,"station_id":"ce4bh9p2rcd13ifvqec0","pricing_plan_id":"cebpf4jnsgd1na2vs0mg"},{"bike_id":"bad934bb-fb0a-46e5-8d7b-b010aa8eb128","system_id":"levelo_inurba_marseille","lat":43.27625,"lon":5.36099,"is_reserved":false,"is_disabled":false,"rental_uris":{"android":"levelo://app?vid=bad934bb-fb0a-46e5-8d7b-b010aa8eb128","ios":"levelo://app?vid=bad934bb-fb0a-46e5-8d7b-b010aa8eb128"},"vehicle_type_id":"4","last_reported":1736267219,"current_range_meters":38800,"station_id":"ce4bgj92rcd13ifvqbe0","pricing_plan_id":"cebpf4jnsgd1na2vs0mg"},{"bike_id":"a8b6888e-d27e-40ac-990e-440f9348d454","system_id":"levelo_inurba_marseille","lat":43.28603,"lon":5.35101,"is_reserved":false,"is_disabled":true,"rental_uris":{"android":"levelo://app?vid=a8b6888e-d27e-40ac-990e-440f9348d454","ios":"levelo://app?vid=a8b6888e-d27e-40ac-990e-440f9348d454"},"vehicle_type_id":"4","last_reported":1736267219,"current_range_meters":2000,"station_id":"ce4bhch2rcd13ifvqeug","pricing_plan_id":"cebpf4jnsgd1na2vs0mg"},{"bike_id":"53ebdf7f-4b19-4ee9-b461-7c9dc5e58b35","system_id":"levelo_inurba_marseille","lat":43.28375,"lon":5.38634,"is_reserved":false,"is_disabled":false,"rental_uris":{"android":"levelo://app?vid=53ebdf7f-4b19-4ee9-b461-7c9dc5e58b35","ios":"levelo://app?vid=53ebdf7f-4b19-4ee9-b461-7c9dc5e58b35"},"vehicle_type_id":"4","last_reported":1736267219,"current_range_meters":4400,"station_id":"ce4bh492rcd13ifvqdvg","pricing_plan_id":"cebpf4jnsgd1na2vs0mg"},{"bike_id":"b7f193ff-d9fe-43e0-bdc6-aff16c0c1376","system_id":"levelo_inurba_marseille","lat":43.262088,"lon":5.374412,"is_reserved":false,"is_disabled":false,"rental_uris":{"android":"levelo://app?vid=b7f193ff-d9fe-43e0-bdc6-aff16c0c1376","ios":"levelo://app?vid=b7f193ff-d9fe-43e0-bdc6-aff16c0c1376"},"vehicle_type_id":"4","last_reported":1736267219,"current_range_meters":33200,"station_id":"ce4bhgp2rcd13ifvqfc0","pricing_plan_id":"cebpf4jnsgd1na2vs0mg"},{"bike_id":"c1b43e9f-cc91-4a6e-ab09-c797dfdc71e9","system_id":"levelo_inurba_marseille","lat":43.32365,"lon":5.38885,"is_reserved":false,"is_disabled":false,"rental_uris":{"android":"levelo://app?vid=c1b43e9f-cc91-4a6e-ab09-c797dfdc71e9","ios":"levelo://app?vid=c1b43e9f-cc91-4a6e-ab09-c797dfdc71e9"},"vehicle_type_id":"4","last_reported":1736267219,"current_range_meters":16400,"station_id":"ce4bhqp2rcd13ifvqhog","pricing_plan_id":"cebpf4jnsgd1na2vs0mg"},{"bike_id":"518bbff6-4c21-4000-9685-65aa73042136","system_id":"levelo_inurba_marseille","lat":43.25494,"lon":5.37652,"is_reserved":false,"is_disabled":false,"rental_uris":{"android":"levelo://app?vid=518bbff6-4c21-4000-9685-65aa73042136","ios":"levelo://app?vid=518bbff6-4c21-4000-9685-65aa73042136"},"vehicle_type_id":"4","last_reported":1736267219,"current_range_meters":38400,"station_id":"ce4bhh12rcd13ifvqff0","pricing_plan_id":"cebpf4jnsgd1na2vs0mg"},{"bike_id":"0e5c21fd-e134-4614-919e-611869e665d2","system_id":"levelo_inurba_marseille","lat":43.292,"lon":5.39324,"is_reserved":false,"is_disabled":false,"rental_uris":{"android":"levelo://app?vid=0e5c21fd-e134-4614-919e-611869e665d2","ios":"levelo://app?vid=0e5c21fd-e134-4614-919e-611869e665d2"},"vehicle_type_id":"4","last_reported":1736267219,"current_range_meters":30000,"station_id":"ce4bh192rcd13ifvqdd0","pricing_plan_id":"cebpf4jnsgd1na2vs0mg"},{"bike_id":"390fabc0-1988-4707-88cb-f7876c15b1ca","system_id":"levelo_inurba_marseille","lat":43.24126,"lon":5.37717,"is_reserved":false,"is_disabled":true,"rental_uris":{"android":"levelo://app?vid=390fabc0-1988-4707-88cb-f7876c15b1ca","ios":"levelo://app?vid=390fabc0-1988-4707-88cb-f7876c15b1ca"},"vehicle_type_id":"4","last_reported":1736267219,"current_range_meters":16400,"station_id":"","pricing_plan_id":"cebpf4jnsgd1na2vs0mg"},{"bike_id":"a78ba192-6ffe-48ca-aeee-440333a1e8aa","system_id":"levelo_inurba_marseille","lat":43.29788,"lon":5.39332,"is_reserved":false,"is_disabled":false,"rental_uris":{"android":"levelo://app?vid=a78ba192-6ffe-48ca-aeee-440333a1e8aa","ios":"levelo://app?vid=a78ba192-6ffe-48ca-aeee-440333a1e8aa"},"vehicle_type_id":"4","last_reported":1736267219,"current_range_meters":19200,"station_id":"chh1huq6cuj3fo74tm60","pricing_plan_id":"cebpf4jnsgd1na2vs0mg"},{"bike_id":"18aa2cc8-44e8-4c77-8bab-0f1d110ee821","system_id":"levelo_inurba_marseille","lat":43.28369,"lon":5.38632,"is_reserved":false,"is_disabled":false,"rental_uris":{"android":"levelo://app?vid=18aa2cc8-44e8-4c77-8bab-0f1d110ee821","ios":"levelo://app?vid=18aa2cc8-44e8-4c77-8bab-0f1d110ee821"},"vehicle_type_id":"4","last_reported":1736267219,"current_range_meters":38800,"station_id":"ce4bh492rcd13ifvqdvg","pricing_plan_id":"cebpf4jnsgd1na2vs0mg"},{"bike_id":"430df67c-dfda-4d28-b01c-8eccdb58380e","system_id":"levelo_inurba_marseille","lat":43.30206,"lon":5.3946,"is_reserved":false,"is_disabled":false,"rental_uris":{"android":"levelo://app?vid=430df67c-dfda-4d28-b01c-8eccdb58380e","ios":"levelo://app?vid=430df67c-dfda-4d28-b01c-8eccdb58380e"},"vehicle_type_id":"4","last_reported":1736267219,"current_range_meters":28000,"station_id":"ce4bh0p2rcd13ifvqd70","pricing_plan_id":"cebpf4jnsgd1na2vs0mg"},{"bike_id":"4827c42a-358c-4f80-bfc7-eb67ef05d66d","system_id":"levelo_inurba_marseille","lat":43.28162,"lon":5.42611,"is_reserved":false,"is_disabled":true,"rental_uris":{"android":"levelo://app?vid=4827c42a-358c-4f80-bfc7-eb67ef05d66d","ios":"levelo://app?vid=4827c42a-358c-4f80-bfc7-eb67ef05d66d"},"vehicle_type_id":"4","last_reported":1736267219,"current_range_meters":0,"station_id":"ce4bhnh2rcd13ifvqgug","pricing_plan_id":"cebpf4jnsgd1na2vs0mg"},{"bike_id":"d8e6c04e-ccb9-4935-99a9-bb2ce5681634","system_id":"levelo_inurba_marseille","lat":43.28966,"lon":5.37844,"is_reserved":false,"is_disabled":false,"rental_uris":{"android":"levelo://app?vid=d8e6c04e-ccb9-4935-99a9-bb2ce5681634","ios":"levelo://app?vid=d8e6c04e-ccb9-4935-99a9-bb2ce5681634"},"vehicle_type_id":"4","last_reported":1736267219,"current_range_meters":30800,"station_id":"ce4bh9p2rcd13ifvqed0","pricing_plan_id":"cebpf4jnsgd1na2vs0mg"},{"bike_id":"21c62b1c-c551-4e91-9bb4-a629a9fd0fac","system_id":"levelo_inurba_marseille","lat":43.25865,"lon":5.39901,"is_reserved":false,"is_disabled":false,"rental_uris":{"android":"levelo://app?vid=21c62b1c-c551-4e91-9bb4-a629a9fd0fac","ios":"levelo://app?vid=21c62b1c-c551-4e91-9bb4-a629a9fd0fac"},"vehicle_type_id":"4","last_reported":1736267219,"current_range_meters":38800,"station_id":"ce4bhl92rcd13ifvqghg","pricing_plan_id":"cebpf4jnsgd1na2vs0mg"},{"bike_id":"86cf36f7-3cde-436c-956c-d389352dec21","system_id":"levelo_inurba_marseille","lat":43.28429,"lon":5.34981,"is_reserved":false,"is_disabled":false,"rental_uris":{"android":"levelo://app?vid=86cf36f7-3cde-436c-956c-d389352dec21","ios":"levelo://app?vid=86cf36f7-3cde-436c-956c-d389352dec21"},"vehicle_type_id":"4","last_reported":1736267219,"current_range_meters":38800,"station_id":"ce4bhbh2rcd13ifvqepg","pricing_plan_id":"cebpf4jnsgd1na2vs0mg"},{"bike_id":"14f8913d-0be9-43d8-92f0-b5cd853228e6","system_id":"levelo_inurba_marseille","lat":43.29635,"lon":5.406,"is_reserved":false,"is_disabled":false,"rental_uris":{"android":"levelo://app?vid=14f8913d-0be9-43d8-92f0-b5cd853228e6","ios":"levelo://app?vid=14f8913d-0be9-43d8-92f0-b5cd853228e6"},"vehicle_type_id":"4","last_reported":1736267219,"current_range_meters":26000,"station_id":"ce4bh0h2rcd13ifvqd60","pricing_plan_id":"cebpf4jnsgd1na2vs0mg"},{"bike_id":"aa4ebe27-e59b-4fe6-9d3b-b5c9588fb1f5","system_id":"levelo_inurba_marseille","lat":43.26065,"lon":5.39393,"is_reserved":false,"is_disabled":false,"rental_uris":{"android":"levelo://app?vid=aa4ebe27-e59b-4fe6-9d3b-b5c9588fb1f5","ios":"levelo://app?vid=aa4ebe27-e59b-4fe6-9d3b-b5c9588fb1f5"},"vehicle_type_id":"4","last_reported":1736267219,"current_range_meters":38000,"station_id":"ce4bhh92rcd13ifvqfj0","pricing_plan_id":"cebpf4jnsgd1na2vs0mg"},{"bike_id":"523ae090-2d21-4781-90c1-b72155be4750","system_id":"levelo_inurba_marseille","lat":43.2957,"lon":5.3753,"is_reserved":false,"is_disabled":false,"rental_uris":{"android":"levelo://app?vid=523ae090-2d21-4781-90c1-b72155be4750","ios":"levelo://app?vid=523ae090-2d21-4781-90c1-b72155be4750"},"vehicle_type_id":"4","last_reported":1736267219,"current_range_meters":7200,"station_id":"ce4bgh92rcd13ifvqb50","pricing_plan_id":"cebpf4jnsgd1na2vs0mg"},{"bike_id":"5318e8f2-83b0-49a3-8e76-93c11002be4f","system_id":"levelo_inurba_marseille","lat":43.2909,"lon":5.40068,"is_reserved":false,"is_disabled":true,"rental_uris":{"android":"levelo://app?vid=5318e8f2-83b0-49a3-8e76-93c11002be4f","ios":"levelo://app?vid=5318e8f2-83b0-49a3-8e76-93c11002be4f"},"vehicle_type_id":"4","last_reported":1736267219,"current_range_meters":38800,"station_id":"","pricing_plan_id":"cebpf4jnsgd1na2vs0mg"},{"bike_id":"7bfbba7d-37d7-4c77-97bd-0629ac4fb2d2","system_id":"levelo_inurba_marseille","lat":43.306,"lon":5.37213,"is_reserved":false,"is_disabled":false,"rental_uris":{"android":"levelo://app?vid=7bfbba7d-37d7-4c77-97bd-0629ac4fb2d2","ios":"levelo://app?vid=7bfbba7d-37d7-4c77-97bd-0629ac4fb2d2"},"vehicle_type_id":"4","last_reported":1736267219,"current_range_meters":38800,"station_id":"ce4bgqh2rcd13ifvqc4g","pricing_plan_id":"cebpf4jnsgd1na2vs0mg"},{"bike_id":"9774af7f-1002-4ab0-9462-48fa84b867bc","system_id":"levelo_inurba_marseille","lat":43.26808,"lon":5.40262,"is_reserved":false,"is_disabled":false,"rental_uris":{"android":"levelo://app?vid=9774af7f-1002-4ab0-9462-48fa84b867bc","ios":"levelo://app?vid=9774af7f-1002-4ab0-9462-48fa84b867bc"},"vehicle_type_id":"4","last_reported":1736267219,"current_range_meters":23200,"station_id":"ce501612rcd8frsf0b60","pricing_plan_id":"cebpf4jnsgd1na2vs0mg"},{"bike_id":"89094339-9e29-4fc6-a078-8661bb32adf2","system_id":"levelo_inurba_marseille","lat":43.25578,"lon":5.38224,"is_reserved":false,"is_disabled":false,"rental_uris":{"android":"levelo://app?vid=89094339-9e29-4fc6-a078-8661bb32adf2","ios":"levelo://app?vid=89094339-9e29-4fc6-a078-8661bb32adf2"},"vehicle_type_id":"4","last_reported":1736267219,"current_range_meters":23200,"station_id":"ce4bhih2rcd13ifvqfs0","pricing_plan_id":"cebpf4jnsgd1na2vs0mg"},{"bike_id":"ba1b008c-7986-4493-8ff1-8337d45a4978","system_id":"levelo_inurba_marseille","lat":43.25009,"lon":5.38945,"is_reserved":false,"is_disabled":false,"rental_uris":{"android":"levelo://app?vid=ba1b008c-7986-4493-8ff1-8337d45a4978","ios":"levelo://app?vid=ba1b008c-7986-4493-8ff1-8337d45a4978"},"vehicle_type_id":"4","last_reported":1736267219,"current_range_meters":18000,"station_id":"ce4bhgp2rcd13ifvqfd0","pricing_plan_id":"cebpf4jnsgd1na2vs0mg"},{"bike_id":"970641cf-3daf-4b2a-b81b-32761748adbb","system_id":"levelo_inurba_marseille","lat":43.24168,"lon":5.36367,"is_reserved":false,"is_disabled":false,"rental_uris":{"android":"levelo://app?vid=970641cf-3daf-4b2a-b81b-32761748adbb","ios":"levelo://app?vid=970641cf-3daf-4b2a-b81b-32761748adbb"},"vehicle_type_id":"4","last_reported":1736267219,"current_range_meters":27600,"station_id":"cpo36qri1sfpv3e86is0","pricing_plan_id":"cebpf4jnsgd1na2vs0mg"},{"bike_id":"2dec7cc7-aea5-461d-96c1-b93d23172cb0","system_id":"levelo_inurba_marseille","lat":43.29034,"lon":5.38644,"is_reserved":false,"is_disabled":false,"rental_uris":{"android":"levelo://app?vid=2dec7cc7-aea5-461d-96c1-b93d23172cb0","ios":"levelo://app?vid=2dec7cc7-aea5-461d-96c1-b93d23172cb0"},"vehicle_type_id":"4","last_reported":1736267219,"current_range_meters":30000,"station_id":"ce4bh4p2rcd13ifvqe0g","pricing_plan_id":"cebpf4jnsgd1na2vs0mg"},{"bike_id":"d089bd59-f979-4d29-bf5f-7faf2cc178b8","system_id":"levelo_inurba_marseille","lat":43.29267,"lon":5.40127,"is_reserved":false,"is_disabled":false,"rental_uris":{"android":"levelo://app?vid=d089bd59-f979-4d29-bf5f-7faf2cc178b8","ios":"levelo://app?vid=d089bd59-f979-4d29-bf5f-7faf2cc178b8"},"vehicle_type_id":"4","last_reported":1736267219,"current_range_meters":24800,"station_id":"ce4bh312rcd13ifvqdk0","pricing_plan_id":"cebpf4jnsgd1na2vs0mg"},{"bike_id":"6967a99a-d5f1-4cc9-9e80-dd1488ea6621","system_id":"levelo_inurba_marseille","lat":43.24068,"lon":5.37748,"is_reserved":false,"is_disabled":false,"rental_uris":{"android":"levelo://app?vid=6967a99a-d5f1-4cc9-9e80-dd1488ea6621","ios":"levelo://app?vid=6967a99a-d5f1-4cc9-9e80-dd1488ea6621"},"vehicle_type_id":"4","last_reported":1736267219,"current_range_meters":28800,"station_id":"ce4bhnp2rcd13ifvqgvg","pricing_plan_id":"cebpf4jnsgd1na2vs0mg"},{"bike_id":"2bf53163-e95a-46db-8aa7-84fec9c94a0a","system_id":"levelo_inurba_marseille","lat":43.33726,"lon":5.3919,"is_reserved":false,"is_disabled":false,"rental_uris":{"android":"levelo://app?vid=2bf53163-e95a-46db-8aa7-84fec9c94a0a","ios":"levelo://app?vid=2bf53163-e95a-46db-8aa7-84fec9c94a0a"},"vehicle_type_id":"4","last_reported":1736267219,"current_range_meters":36800,"station_id":"ce4bhr92rcd13ifvqhsg","pricing_plan_id":"cebpf4jnsgd1na2vs0mg"},{"bike_id":"7cbd1b12-7362-4c7f-bd26-6f356dd5183a","system_id":"levelo_inurba_marseille","lat":43.28101,"lon":5.37848,"is_reserved":false,"is_disabled":false,"rental_uris":{"android":"levelo://app?vid=7cbd1b12-7362-4c7f-bd26-6f356dd5183a","ios":"levelo://app?vid=7cbd1b12-7362-4c7f-bd26-6f356dd5183a"},"vehicle_type_id":"4","last_reported":1736267219,"current_range_meters":12800,"station_id":"ce4bha12rcd13ifvqee0","pricing_plan_id":"cebpf4jnsgd1na2vs0mg"},