{"last_updated":1702534194,"ttl":30,"version":"2.2","data":{"bikes":[{"bike_id":"556d34cd-1b95-4563-8298-2b71ac4f9ccb","system_id":"levelo_inurba_marseille","lat":43.309076,"lon":5.368465,"is_reserved":false,"is_disabled":false,"rental_uris":{"android":"levelo://app?vid=556d34cd-1b95-4563-8298-2b71ac4f9ccb","ios":"levelo://app?vid=556d34cd-1b95-4563-8298-2b71ac4f9ccb"},"vehicle_type_id":"4","last_reported":1702534194,"current_range_meters":27600,"station_id":"ce4bgn92rcd13ifvqbvg","pricing_plan_id":"free"},{"bike_id":"a3994b49-b2ff-4493-9881-6351d5229cdd","system_id":"levelo_inurba_marseille","lat":43.314811,"lon":5.373103,"is_reserved":false,"is_disabled":false,"rental_uris":{"android":"levelo://app?vid=a3994b49-b2ff-4493-9881-6351d5229cdd","ios":"levelo://app?vid=a3994b49-b2ff-4493-9881-6351d5229cdd"},"vehicle_type_id":"4","last_reported":1702534194,"current_range_meters":27200,"station_id":"ce4bgt12rcd13ifvqcd0","pricing_plan_id":"free"},{"bike_id":"6957b6cd-c87d-470c-8998-d05b3e2d1c73","system_id":"levelo_inurba_marseille","lat":43.309039,"lon":5.371797,"is_reserved":false,"is_disabled":false,"rental_uris":{"android":"levelo://app?vid=6957b6cd-c87d-470c-8998-d05b3e2d1c73","ios":"levelo://app?vid=6957b6cd-c87d-470c-8998-d05b3e2d1c73"},"vehicle_type_id":"4","last_reported":1702534194,"current_range_meters":27600,"station_id":"ce4bguh2rcd13ifvqckg","pricing_plan_id":"free"},{"bike_id":"3f8b821f-e430-4a35-bf14-f8b6e777ea11","system_id":"levelo_inurba_marseille","lat":43.313939,"lon":5.375306,"is_reserved":false,"is_disabled":false,"rental_uris":{"android":"levelo://app?vid=3f8b821f-e430-4a35-bf14-f8b6e777ea11","ios":"levelo://app?vid=3f8b821f-e430-4a35-bf14-f8b6e777ea11"},"vehicle_type_id":"4","last_reported":1702534194,"current_range_meters":4800,"station_id":"","pricing_plan_id":"free"},{"bike_id":"955e4ab2-16e5-44e8-a986-a2f50ff96c06","system_id":"levelo_inurba_marseille","lat":43.305382,"lon":5.365389,"is_reserved":false,"is_disabled":false,"rental_uris":{"android":"levelo://app?vid=955e4ab2-16e5-44e8-a986-a2f50ff96c06","ios":"levelo://app?vid=955e4ab2-16e5-44e8-a986-a2f50ff96c06"},"vehicle_type_id":"4","last_reported":1702534194,"current_range_meters":24400,"station_id":"","pricing_plan_id":"free"},{"bike_id":"1704f7b5-613b-4dae-861b-84519730a16f","system_id":"levelo_inurba_marseille","lat":43.305706,"lon":5.365654,"is_reserved":false,"is_disabled":false,"rental_uris":{"android":"levelo://app?vid=1704f7b5-613b-4dae-861b-84519730a16f","ios":"levelo://app?vid=1704f7b5-613b-4dae-861b-84519730a16f"},"vehicle_type_id":"4","last_reported":1702534194,"current_range_meters":26800,"station_id":"ce4bgs12rcd13ifvqcag","pricing_plan_id":"free"},{"bike_id":"aa4b0b83-aa93-4c62-9e93-ad0a501ad28c","system_id":"levelo_inurba_marseille","lat":43.305989,"lon":5.37225,"is_reserved":false,"is_disabled":false,"rental_uris":{"android":"levelo://app?vid=aa4b0b83-aa93-4c62-9e93-ad0a501ad28c","ios":"levelo://app?vid=aa4b0b83-aa93-4c62-9e93-ad0a501ad28c"},"vehicle_type_id":"4","last_reported":1702534194,"current_range_meters":30000,"station_id":"ce4bgqh2rcd13ifvqc4g","pricing_plan_id":"free"},{"bike_id":"69223314-81a8-4c93-9481-845a397dbb96","system_id":"levelo_inurba_marseille","lat":43.305989,"lon":5.37225,"is_reserved":false,"is_disabled":false,"rental_uris":{"android":"levelo://app?vid=69223314-81a8-4c93-9481-845a397dbb96","ios":"levelo://app?vid=69223314-81a8-4c93-9481-845a397dbb96"},"vehicle_type_id":"4","last_reported":1702534194,"current_range_meters":29200,"station_id":"ce4bgqh2rcd13ifvqc4g","pricing_plan_id":"free"},{"bike_id":"dc68debd-6203-4696-b9a5-55eea857c5a0","system_id":"levelo_inurba_marseille","lat":43.317095,"lon":5.376821,"is_reserved":false,"is_disabled":false,"rental_uris":{"android":"levelo://app?vid=dc68debd-6203-4696-b9a5-55eea857c5a0","ios":"levelo://app?vid=dc68debd-6203-4696-b9a5-55eea857c5a0"},"vehicle_type_id":"4","last_reported":1702534194,"current_range_meters":20800,"station_id":"ce4bgth2rcd13ifvqch0","pricing_plan_id":"free"},{"bike_id":"1ffababd-a0b0-4a59-9999-2e4ee96e1154","system_id":"levelo_inurba_marseille","lat":43.31691,"lon":5.37754,"is_reserved":false,"is_disabled":false,"rental_uris":{"android":"levelo://app?vid=1ffababd-a0b0-4a59-9999-2e4ee96e1154","ios":"levelo://app?vid=1ffababd-a0b0-4a59-9999-2e4ee96e1154"},"vehicle_type_id":"4","last_reported":1702534194,"current_range_meters":16000,"station_id":"ce4bgth2rcd13ifvqch0","pricing_plan_id":"free"},{"bike_id":"cd354860-34c6-4054-850a-3645947bc4c3","system_id":"levelo_inurba_marseille","lat":43.317094,"lon":5.377501,"is_reserved":false,"is_disabled":false,"rental_uris":{"android":"levelo://app?vid=cd354860-34c6-4054-850a-3645947bc4c3","ios":"levelo://app?vid=cd354860-34c6-4054-850a-3645947bc4c3"},"vehicle_type_id":"4","last_reported":1702534194,"current_range_meters":30000,"station_id":"ce4bgth2rcd13ifvqch0","pricing_plan_id":"free"},{"bike_id":"b28b6ce4-25de-4dab-9408-ced7ecaaa0be","system_id":"levelo_inurba_marseille","lat":43.30304,"lon":5.368987,"is_reserved":false,"is_disabled":false,"rental_uris":{"android":"levelo://app?vid=b28b6ce4-25de-4dab-9408-ced7ecaaa0be","ios":"levelo://app?vid=b28b6ce4-25de-4dab-9408-ced7ecaaa0be"},"vehicle_type_id":"4","last_reported":1702534194,"current_range_meters":29600,"station_id":"ce4bgqh2rcd13ifvqc5g","pricing_plan_id":"free"},{"bike_id":"d4b293c6-e3f6-4e89-98e7-d5aa12d20506","system_id":"levelo_inurba_marseille","lat":43.303046,"lon":5.368981,"is_reserved":false,"is_disabled":false,"rental_uris":{"android":"levelo://app?vid=d4b293c6-e3f6-4e89-98e7-d5aa12d20506","ios":"levelo://app?vid=d4b293c6-e3f6-4e89-98e7-d5aa12d20506"},"vehicle_type_id":"4","last_reported":1702534194,"current_range_meters":25600,"station_id":"ce4bgqh2rcd13ifvqc5g","pricing_plan_id":"free"},{"bike_id":"81bd0fa4-0462-4c0e-b45d-e3b550d8b0e9","system_id":"levelo_inurba_marseille","lat":43.315293,"lon":5.380349,"is_reserved":false,"is_disabled":false,"rental_uris":{"android":"levelo://app?vid=81bd0fa4-0462-4c0e-b45d-e3b550d8b0e9","ios":"levelo://app?vid=81bd0fa4-0462-4c0e-b45d-e3b550d8b0e9"},"vehicle_type_id":"4","last_reported":1702534194,"current_range_meters":13600,"station_id":"ce4bhsp2rcd13ifvqi50","pricing_plan_id":"free"},{"bike_id":"227b454f-cbfd-4a97-b4c2-968569f53a3b","system_id":"levelo_inurba_marseille","lat":43.315293,"lon":5.380349,"is_reserved":false,"is_disabled":false,"rental_uris":{"android":"levelo://app?vid=227b454f-cbfd-4a97-b4c2-968569f53a3b","ios":"levelo://app?vid=227b454f-cbfd-4a97-b4c2-968569f53a3b"},"vehicle_type_id":"4","last_reported":1702534194,"current_range_meters":26000,"station_id":"ce4bhsp2rcd13ifvqi50","pricing_plan_id":"free"},{"bike_id":"7e3d2950-5224-432d-80ae-7ca4574d6377","system_id":"levelo_inurba_marseille","lat":43.304606,"lon":5.379026,"is_reserved":false,"is_disabled":false,"rental_uris":{"android":"levelo://app?vid=7e3d2950-5224-432d-80ae-7ca4574d6377","ios":"levelo://app?vid=7e3d2950-5224-432d-80ae-7ca4574d6377"},"vehicle_type_id":"4","last_reported":1702534194,"current_range_meters":27200,"station_id":"ce4bgup2rcd13ifvqcn0","pricing_plan_id":"free"},{"bike_id":"c456afe1-eb7c-40ba-8fd3-208f3dcd6406","system_id":"levelo_inurba_marseille","lat":43.304606,"lon":5.379026,"is_reserved":false,"is_disabled":false,"rental_uris":{"android":"levelo://app?vid=c456afe1-eb7c-40ba-8fd3-208f3dcd6406","ios":"levelo://app?vid=c456afe1-eb7c-40ba-8fd3-208f3dcd6406"},"vehicle_type_id":"4","last_reported":1702534194,"current_range_meters":25200,"station_id":"ce4bgup2rcd13ifvqcn0","pricing_plan_id":"free"},{"bike_id":"acdd8f29-62b0-4b24-b14c-650070f71769","system_id":"levelo_inurba_marseille","lat":43.304606,"lon":5.379026,"is_reserved":false,"is_disabled":false,"rental_uris":{"android":"levelo://app?vid=acdd8f29-62b0-4b24-b14c-650070f71769","ios":"levelo://app?vid=acdd8f29-62b0-4b24-b14c-650070f71769"},"vehicle_type_id":"4","last_reported":1702534194,"current_range_meters":4400,"station_id":"ce4bgup2rcd13ifvqcn0","pricing_plan_id":"free"},{"bike_id":"d5809cf1-fecf-49d6-827a-656eadb121f8","system_id":"levelo_inurba_marseille","lat":43.304606,"lon":5.379026,"is_reserved":false,"is_disabled":false,"rental_uris":{"android":"levelo://app?vid=d5809cf1-fecf-49d6-827a-656eadb121f8","ios":"levelo://app?vid=d5809cf1-fecf-49d6-827a-656eadb121f8"},"vehicle_type_id":"4","last_reported":1702534194,"current_range_meters":26800,"station_id":"ce4bgup2rcd13ifvqcn0","pricing_plan_id":"free"},{"bike_id":"7f7d88a9-34ac-495a-bcfa-6b05b685353e","system_id":"levelo_inurba_marseille","lat":43.304606,"lon":5.379026,"is_reserved":false,"is_disabled":false,"rental_uris":{"android":"levelo://app?vid=7f7d88a9-34ac-495a-bcfa-6b05b685353e","ios":"levelo://app?vid=7f7d88a9-34ac-495a-bcfa-6b05b685353e"},"vehicle_type_id":"4","last_reported":1702534194,"current_range_meters":31200,"station_id":"ce4bgup2rcd13ifvqcn0","pricing_plan_id":"free"},{"bike_id":"b8d5c454-58cd-46f5-8526-58ff8b3a180a","system_id":"levelo_inurba_marseille","lat":43.304606,"lon":5.379026,"is_reserved":false,"is_disabled":false,"rental_uris":{"android":"levelo://app?vid=b8d5c454-58cd-46f5-8526-58ff8b3a180a","ios":"levelo://app?vid=b8d5c454-58cd-46f5-8526-58ff8b3a180a"},"vehicle_type_id":"4","last_reported":1702534194,"current_range_meters":26000,"station_id":"ce4bgup2rcd13ifvqcn0","pricing_plan_id":"free"},{"bike_id":"7d84712d-9eda-436e-a118-cd18ffcb4d86","system_id":"levelo_inurba_marseille","lat":43.304606,"lon":5.379026,"is_reserved":false,"is_disabled":false,"rental_uris":{"android":"levelo://app?vid=7d84712d-9eda-436e-a118-cd18ffcb4d86","ios":"levelo://app?vid=7d84712d-9eda-436e-a118-cd18ffcb4d86"},"vehicle_type_id":"4","last_reported":1702534194,"current_range_meters":24000,"station_id":"ce4bgup2rcd13ifvqcn0","pricing_plan_id":"free"},{"bike_id":"6911c7c9-7367-4919-8231-a63553553e9d","system_id":"levelo_inurba_marseille","lat":43.304606,"lon":5.379026,"is_reserved":false,"is_disabled":false,"rental_uris":{"android":"levelo://app?vid=6911c7c9-7367-4919-8231-a63553553e9d","ios":"levelo://app?vid=6911c7c9-7367-4919-8231-a63553553e9d"},"vehicle_type_id":"4","last_reported":1702534194,"current_range_meters":27600,"station_id":"ce4bgup2rcd13ifvqcn0","pricing_plan_id":"free"},{"bike_id":"5925627e-adb7-44c8-87b7-a03071747e35","system_id":"levelo_inurba_marseille","lat":43.304606,"lon":5.379026,"is_reserved":false,"is_disabled":false,"rental_uris":{"android":"levelo://app?vid=5925627e-adb7-44c8-87b7-a03071747e35","ios":"levelo://app?vid=5925627e-adb7-44c8-87b7-a03071747e35"},"vehicle_type_id":"4","last_reported":1702534194,"current_range_meters":22400,"station_id":"ce4bgup2rcd13ifvqcn0","pricing_plan_id":"free"},{"bike_id":"3cabcb3c-188c-41d3-87a0-6033bd4b3b1c","system_id":"levelo_inurba_marseille","lat":43.304606,"lon":5.379026,"is_reserved":false,"is_disabled":false,"rental_uris":{"android":"levelo://app?vid=3cabcb3c-188c-41d3-87a0-6033bd4b3b1c","ios":"levelo://app?vid=3cabcb3c-188c-41d3-87a0-6033bd4b3b1c"},"vehicle_type_id":"4","last_reported":1702534194,"current_range_meters":26000,"station_id":"ce4bgup2rcd13ifvqcn0","pricing_plan_id":"free"},{"bike_id":"d645372f-0629-4787-ac3a-bce7a4917656","system_id":"levelo_inurba_marseille","lat":43.304606,"lon":5.379026,"is_reserved":false,"is_disabled":false,"rental_uris":{"android":"levelo://app?vid=d645372f-0629-4787-ac3a-bce7a4917656","ios":"levelo://app?vid=d645372f-0629-4787-ac3a-bce7a4917656"},"vehicle_type_id":"4","last_reported":1702534194,"current_range_meters":29600,"station_id":"ce4bgup2rcd13ifvqcn0","pricing_plan_id":"free"},{"bike_id":"32fb2329-545d-4491-99d7-17cf06456dc0","system_id":"levelo_inurba_marseille","lat":43.304606,"lon":5.379026,"is_reserved":false,"is_disabled":false,"rental_uris":{"android":"levelo://app?vid=32fb2329-545d-4491-99d7-17cf06456dc0","ios":"levelo://app?vid=32fb2329-545d-4491-99d7-17cf06456dc0"},"vehicle_type_id":"4","last_reported":1702534194,"current_range_meters":12000,"station_id":"ce4bgup2rcd13ifvqcn0","pricing_plan_id":"free"},{"bike_id":"0ca3207c-ac56-41b3-bb10-8489ed70d98a","system_id":"levelo_inurba_marseille","lat":43.304606,"lon":5.379026,"is_reserved":false,"is_disabled":false,"rental_uris":{"android":"levelo://app?vid=0ca3207c-ac56-41b3-bb10-8489ed70d98a","ios":"levelo://app?vid=0ca3207c-ac56-41b3-bb10-8489ed70d98a"},"vehicle_type_id":"4","last_reported":1702534194,"current_range_meters":30000,"station_id":"ce4bgup2rcd13ifvqcn0","pricing_plan_id":"free"},{"bike_id":"95c4e385-6e9a-4cf2-8ebe-2a76d43b3abc","system_id":"levelo_inurba_marseille","lat":43.304606,"lon":5.379026,"is_reserved":false,"is_disabled":false,"rental_uris":{"android":"levelo://app?vid=95c4e385-6e9a-4cf2-8ebe-2a76d43b3abc","ios":"levelo://app?vid=95c4e385-6e9a-4cf2-8ebe-2a76d43b3abc"},"vehicle_type_id":"4","last_reported":1702534194,"current_range_meters":25600,"station_id":"ce4bgup2rcd13ifvqcn0","pricing_plan_id":"free"},{"bike_id":"e24cfc73-d832-43a0-be49-f5c782ee697f","system_id":"levelo_inurba_marseille","lat":43.304606,"lon":5.379026,"is_reserved":false,"is_disabled":false,"rental_uris":{"android":"levelo://app?vid=e24cfc73-d832-43a0-be49-f5c782ee697f","ios":"levelo://app?vid=e24cfc73-d832-43a0-be49-f5c782ee697f"},"vehicle_type_id":"4","last_reported":1702534194,"current_range_meters":29200,"station_id":"ce4bgup2rcd13ifvqcn0","pricing_plan_id":"free"},{"bike_id":"0a956dae-9fb6-40fc-b61a-5bb393e9a4f8","system_id":"levelo_inurba_marseille","lat":43.31994,"lon":5.38146,"is_reserved":false,"is_disabled":false,"rental_uris":{"android":"levelo://app?vid=0a956dae-9fb6-40fc-b61a-5bb393e9a4f8","ios":"levelo://app?vid=0a956dae-9fb6-40fc-b61a-5bb393e9a4f8"},"vehicle_type_id":"4","last_reported":1702534194,"current_range_meters":30800,"station_id":"ce4bhr12rcd13ifvqhpg","pricing_plan_id":"free"},{"bike_id":"62c4f95f-ec48-4f8f-96b5-1da2ba2b0a34","system_id":"levelo_inurba_marseille","lat":43.311592,"lon":5.386841,"is_reserved":false,"is_disabled":false,"rental_uris":{"android":"levelo://app?vid=62c4f95f-ec48-4f8f-96b5-1da2ba2b0a34","ios":"levelo://app?vid=62c4f95f-ec48-4f8f-96b5-1da2ba2b0a34"},"vehicle_type_id":"4","last_reported":1702534194,"current_range_meters":10800,"station_id":"ce4bgv12rcd13ifvqcp0","pricing_plan_id":"free"},{"bike_id":"77a6c46d-d898-4e4f-8846-efa91689c7f0","system_id":"levelo_inurba_marseille","lat":43.302006,"lon":5.38065,"is_reserved":false,"is_disabled":false,"rental_uris":{"android":"levelo://app?vid=77a6c46d-d898-4e4f-8846-efa91689c7f0","ios":"levelo://app?vid=77a6c46d-d898-4e4f-8846-efa91689c7f0"},"vehicle_type_id":"4","last_reported":1702534194,"current_range_meters":0,"station_id":"","pricing_plan_id":"free"},{"bike_id":"85d7a317-0efb-4b3d-bcf4-3a4369227435","system_id":"levelo_inurba_marseille","lat":43.297794,"lon":5.370888,"is_reserved":false,"is_disabled":false,"rental_uris":{"android":"levelo://app?vid=85d7a317-0efb-4b3d-bcf4-3a4369227435","ios":"levelo://app?vid=85d7a317-0efb-4b3d-bcf4-3a4369227435"},"vehicle_type_id":"4","last_reported":1702534194,"current_range_meters":30000,"station_id":"ce4bgop2rcd13ifvqc1g","pricing_plan_id":"free"},{"bike_id":"0b5e61b9-814f-4eca-8141-7b9284cde3ef","system_id":"levelo_inurba_marseille","lat":43.297794,"lon":5.370888,"is_reserved":false,"is_disabled":false,"rental_uris":{"android":"levelo://app?vid=0b5e61b9-814f-4eca-8141-7b9284cde3ef","ios":"levelo://app?vid=0b5e61b9-814f-4eca-8141-7b9284cde3ef"},"vehicle_type_id":"4","last_reported":1702534194,"current_range_meters":22400,"station_id":"ce4bgop2rcd13ifvqc1g","pricing_plan_id":"free"},{"bike_id":"659a38c5-092d-469d-acdb-90f2143cb397","system_id":"levelo_inurba_marseille","lat":43.328256,"lon":5.366728,"is_reserved":false,"is_disabled":false,"rental_uris":{"android":"levelo://app?vid=659a38c5-092d-469d-acdb-90f2143cb397","ios":"levelo://app?vid=659a38c5-092d-469d-acdb-90f2143cb397"},"vehicle_type_id":"4","last_reported":1702534194,"current_range_meters":30000,"station_id":"ce4bhs92rcd13ifvqi0g","pricing_plan_id":"free"},{"bike_id":"cbc11d14-9f41-4b34-8edf-188c262dbf4e","system_id":"levelo_inurba_marseille","lat":43.328371,"lon":5.366909,"is_reserved":false,"is_disabled":false,"rental_uris":{"android":"levelo://app?vid=cbc11d14-9f41-4b34-8edf-188c262dbf4e","ios":"levelo://app?vid=cbc11d14-9f41-4b34-8edf-188c262dbf4e"},"vehicle_type_id":"4","last_reported":1702534194,"current_range_meters":30400,"station_id":"ce4bhs92rcd13ifvqi0g","pricing_plan_id":"free"},{"bike_id":"bc06b289-dab8-4815-820b-662dd218c477","system_id":"levelo_inurba_marseille","lat":43.328287,"lon":5.366761,"is_reserved":false,"is_disabled":false,"rental_uris":{"android":"levelo://app?vid=bc06b289-dab8-4815-820b-662dd218c477","ios":"levelo://app?vid=bc06b289-dab8-4815-820b-662dd218c477"},"vehicle_type_id":"4","last_reported":1702534194,"current_range_meters":30000,"station_id":"ce4bhs92rcd13ifvqi0g","pricing_plan_id":"free"},{"bike_id":"7146b216-5dbf-4f39-a872-ebb9140c77d1","system_id":"levelo_inurba_marseille","lat":43.32829,"lon":5.366848,"is_reserved":false,"is_disabled":false,"rental_uris":{"android":"levelo://app?vid=7146b216-5dbf-4f39-a872-ebb9140c77d1","ios":"levelo://app?vid=7146b216-5dbf-4f39-a872-ebb9140c77d1"},"vehicle_type_id":"4","last_reported":1702534194,"current_range_meters":19600,"station_id":"ce4bhs92rcd13ifvqi0g","pricing_plan_id":"free"},{"bike_id":"5a517fc2-0a9a-4b33-99c0-e320e3872aaa","system_id":"levelo_inurba_marseille","lat":43.297163,"lon":5.365866,"is_reserved":false,"is_disabled":false,"rental_uris":{"android":"levelo://app?vid=5a517fc2-0a9a-4b33-99c0-e320e3872aaa","ios":"levelo://app?vid=5a517fc2-0a9a-4b33-99c0-e320e3872aaa"},"vehicle_type_id":"4","last_reported":1702534194,"current_range_meters":28000,"station_id":"ce4bgn12rcd13ifvqbt0","pricing_plan_id":"free"},{"bike_id":"ce387e1a-46ea-462c-9976-4c391fd7fccb","system_id":"levelo_inurba_marseille","lat":43.2968,"lon":5.37291,"is_reserved":false,"is_disabled":false,"rental_uris":{"android":"levelo://app?vid=ce387e1a-46ea-462c-9976-4c391fd7fccb","ios":"levelo://app?vid=ce387e1a-46ea-462c-9976-4c391fd7fccb"},"vehicle_type_id":"4","last_reported":1702534194,"current_range_meters":23200,"station_id":"ce4bgk12rcd13ifvqbj0","pricing_plan_id":"free"},{"bike_id":"06ae4597-233a-4e6a-9751-a6c018fee089","system_id":"levelo_inurba_marseille","lat":43.296935,"lon":5.376544,"is_reserved":false,"is_disabled":false,"rental_uris":{"android":"levelo://app?vid=06ae4597-233a-4e6a-9751-a6c018fee089","ios":"levelo://app?vid=06ae4597-233a-4e6a-9751-a6c018fee089"},"vehicle_type_id":"4","last_reported":1702534194,"current_range_meters":30000,"station_id":"ce4bgkh2rcd13ifvqbl0","pricing_plan_id":"free"},{"bike_id":"aef26851-6fa4-4316-bc6c-1aa2ac098035","system_id":"levelo_inurba_marseille","lat":43.299028,"lon":5.381509,"is_reserved":false,"is_disabled":false,"rental_uris":{"android":"levelo://app?vid=aef26851-6fa4-4316-bc6c-1aa2ac098035","ios":"levelo://app?vid=aef26851-6fa4-4316-bc6c-1aa2ac098035"},"vehicle_type_id":"4","last_reported":1702534194,"current_range_meters":26800,"station_id":"ce4bgj12rcd13ifvqbc0","pricing_plan_id":"free"},{"bike_id":"1b949d6c-2ae4-4924-9fe4-41abc5e9074d","system_id":"levelo_inurba_marseille","lat":43.309589,"lon":5.390258,"is_reserved":false,"is_disabled":false,"rental_uris":{"android":"levelo://app?vid=1b949d6c-2ae4-4924-9fe4-41abc5e9074d","ios":"levelo://app?vid=1b949d6c-2ae4-4924-9fe4-41abc5e9074d"},"vehicle_type_id":"4","last_reported":1702534194,"current_range_meters":27200,"station_id":"ce4bgup2rcd13ifvqco0","pricing_plan_id":"free"},{"bike_id":"a567bac1-9bb1-449a-82fb-4526e908ffd7","system_id":"levelo_inurba_marseille","lat":43.299028,"lon":5.381509,"is_reserved":false,"is_disabled":false,"rental_uris":{"android":"levelo://app?vid=a567bac1-9bb1-449a-82fb-4526e908ffd7","ios":"levelo://app?vid=a567bac1-9bb1-449a-82fb-4526e908ffd7"},"vehicle_type_id":"4","last_reported":1702534194,"current_range_meters":27200,"station_id":"ce4bgj12rcd13ifvqbc0","pricing_plan_id":"free"},{"bike_id":"c840002a-d80a-40b4-a65f-1d4c04eabb61","system_id":"levelo_inurba_marseille","lat":43.31749,"lon":5.39017,"is_reserved":false,"is_disabled":false,"rental_uris":{"android":"levelo://app?vid=c840002a-d80a-40b4-a65f-1d4c04eabb61","ios":"levelo://app?vid=c840002a-d80a-40b4-a65f-1d4c04eabb61"},"vehicle_type_id":"4","last_reported":1702534194,"current_range_meters":7600,"station_id":"ce4bhqp2rcd13ifvqhng","pricing_plan_id":"free"},{"bike_id":"1f731f79-da92-4bc7-b21b-0abd1ee03930","system_id":"levelo_inurba_marseille","lat":43.317557,"lon":5.390173,"is_reserved":false,"is_disabled":false,"rental_uris":{"android":"levelo://app?vid=1f731f79-da92-4bc7-b21b-0abd1ee03930","ios":"levelo://app?vid=1f731f79-da92-4bc7-b21b-0abd1ee03930"},"vehicle_type_id":"4","last_reported":1702534194,"current_range_meters":29200,"station_id":"ce4bhqp2rcd13ifvqhng","pricing_plan_id":"free"},{"bike_id":"9b02d75e-6ee7-4dd9-8271-6724fbc8a465","system_id":"levelo_inurba_marseille","lat":43.295748,"lon":5.37522,"is_reserved":false,"is_disabled":false,"rental_uris":{"android":"levelo://app?vid=9b02d75e-6ee7-4dd9-8271-6724fbc8a465","ios":"levelo://app?vid=9b02d75e-6ee7-4dd9-8271-6724fbc8a465"},"vehicle_type_id":"4","last_reported":1702534194,"current_range_meters":27200,"station_id":"ce4bgh92rcd13ifvqb50","pricing_plan_id":"free"},{"bike_id":"ffdd2b81-26e7-4066-8be9-1b1b4e5d91ae","system_id":"levelo_inurba_marseille","lat":43.295748,"lon":5.37522,"is_reserved":false,"is_disabled":false,"rental_uris":{"android":"levelo://app?vid=ffdd2b81-26e7-4066-8be9-1b1b4e5d91ae","ios":"levelo://app?vid=ffdd2b81-26e7-4066-8be9-1b1b4e5d91ae"},"vehicle_type_id":"4","last_reported":1702534194,"current_range_meters":25200,"station_id":"ce4bgh92rcd13ifvqb50","pricing_plan_id":"free"},{"bike_id":"efb1ea5f-65cd-450f-a7ff-d2c8801579a4","system_id":"levelo_inurba_marseille","lat":43.295748,"lon":5.37522,"is_reserved":false,"is_disabled":false,"rental_uris":{"android":"levelo://app?vid=efb1ea5f-65cd-450f-a7ff-d2c8801579a4","ios":"levelo://app?vid=efb1ea5f-65cd-450f-a7ff-d2c8801579a4"},"vehicle_type_id":"4","last_reported":1702534194,"current_range_meters":28800,"station_id":"ce4bgh92rcd13ifvqb50","pricing_plan_id":"free"},{"bike_id":"4b322260-75cf-4bd9-b9d9-beafabf1699c","system_id":"levelo_inurba_marseille","lat":43.295748,"lon":5.37522,"is_reserved":false,"is_disabled":false,"rental_uris":{"android":"levelo://app?vid=4b322260-75cf-4bd9-b9d9-beafabf1699c","ios":"levelo://app?vid=4b322260-75cf-4bd9-b9d9-beafabf1699c"},"vehicle_type_id":"4","last_reported":1702534194,"current_range_meters":29600,"station_id":"ce4bgh92rcd13ifvqb50","pricing_plan_id":"free"},{"bike_id":"dcdf8994-a355-4420-9862-ad74783e5f1b","system_id":"levelo_inurba_marseille","lat":43.295748,"lon":5.37522,"is_reserved":false,"is_disabled":false,"rental_uris":{"android":"levelo://app?vid=dcdf8994-a355-4420-9862-ad74783e5f1b","ios":"levelo://app?vid=dcdf8994-a355-4420-9862-ad74783e5f1b"},"vehicle_type_id":"4","last_reported":1702534194,"current_range_meters":20000,"station_id":"ce4bgh92rcd13ifvqb50","pricing_plan_id":"free"},{"bike_id":"dc01d294-5e1b-433f-878e-eb8a914aadd8","system_id":"levelo_inurba_marseille","lat":43.32367,"lon":5.388836,"is_reserved":false,"is_disabled":false,"rental_uris":{"android":"levelo://app?vid=dc01d294-5e1b-433f-878e-eb8a914aadd8","ios":"levelo://app?vid=dc01d294-5e1b-433f-878e-eb8a914aadd8"},"vehicle_type_id":"4","last_reported":1702534194,"current_range_meters":28400,"station_id":"ce4bhqp2rcd13ifvqhog","pricing_plan_id":"free"},{"bike_id":"ef76321a-9b04-47b4-92de-d682e9f5920f","system_id":"levelo_inurba_marseille","lat":43.323583,"lon":5.388849,"is_reserved":false,"is_disabled":false,"rental_uris":{"android":"levelo://app?vid=ef76321a-9b04-47b4-92de-d682e9f5920f","ios":"levelo://app?vid=ef76321a-9b04-47b4-92de-d682e9f5920f"},"vehicle_type_id":"4","last_reported":1702534194,"current_range_meters":30800,"station_id":"ce4bhqp2rcd13ifvqhog","pricing_plan_id":"free"},{"bike_id":"18e8fec3-c034-486d-b65b-5c2605e3f3ab","system_id":"levelo_inurba_marseille","lat":43.32365,"lon":5.38884,"is_reserved":false,"is_disabled":false,"rental_uris":{"android":"levelo://app?vid=18e8fec3-c034-486d-b65b-5c2605e3f3ab","ios":"levelo://app?vid=18e8fec3-c034-486d-b65b-5c2605e3f3ab"},"vehicle_type_id":"4","last_reported":1702534194,"current_range_meters":13200,"station_id":"ce4bhqp2rcd13ifvqhog","pricing_plan_id":"free"},{"bike_id":"29437c84-0c58-47b0-85c3-f4d6a2abdc71","system_id":"levelo_inurba_marseille","lat":43.323663,"lon":5.38884,"is_reserved":false,"is_disabled":false,"rental_uris":{"android":"levelo://app?vid=29437c84-0c58-47b0-85c3-f4d6a2abdc71","ios":"levelo://app?vid=29437c84-0c58-47b0-85c3-f4d6a2abdc71"},"vehicle_type_id":"4","last_reported":1702534194,"current_range_meters":29600,"station_id":"ce4bhqp2rcd13ifvqhog","pricing_plan_id":"free"},{"bike_id":"8ab9895a-c9b8-42e7-a73a-c3d8ad10cfa2","system_id":"levelo_inurba_marseille","lat":43.323687,"lon":5.388821,"is_reserved":false,"is_disabled":false,"rental_uris":{"android":"levelo://app?vid=8ab9895a-c9b8-42e7-a73a-c3d8ad10cfa2","ios":"levelo://app?vid=8ab9895a-c9b8-42e7-a73a-c3d8ad10cfa2"},"vehicle_type_id":"4","last_reported":1702534194,"current_range_meters":29200,"station_id":"ce4bhqp2rcd13ifvqhog","pricing_plan_id":"free"},{"bike_id":"03f6119d-7ba1-4608-b75b-b20f3efbdaef","system_id":"levelo_inurba_marseille","lat":43.323677,"lon":5.38884,"is_reserved":false,"is_disabled":false,"rental_uris":{"android":"levelo://app?vid=03f6119d-7ba1-4608-b75b-b20f3efbdaef","ios":"levelo://app?vid=03f6119d-7ba1-4608-b75b-b20f3efbdaef"},"vehicle_type_id":"4","last_reported":1702534194,"current_range_meters":12400,"station_id":"ce4bhqp2rcd13ifvqhog","pricing_plan_id":"free"},{"bike_id":"21dd80d4-e212-4d93-bf63-322a4b3cc657","system_id":"levelo_inurba_marseille","lat":43.293009,"lon":5.374584,"is_reserved":false,"is_disabled":false,"rental_uris":{"android":"levelo://app?vid=21dd80d4-e212-4d93-bf63-322a4b3cc657","ios":"levelo://app?vid=21dd80d4-e212-4d93-bf63-322a4b3cc657"},"vehicle_type_id":"4","last_reported":1702534194,"current_range_meters":15600,"station_id":"ce4bgi12rcd13ifvqb70","pricing_plan_id":"free"},{"bike_id":"470e37e4-d402-4c08-88f6-0c354f343426","system_id":"levelo_inurba_marseille","lat":43.292311,"lon":5.360731,"is_reserved":false,"is_disabled":false,"rental_uris":{"android":"levelo://app?vid=470e37e4-d402-4c08-88f6-0c354f343426","ios":"levelo://app?vid=470e37e4-d402-4c08-88f6-0c354f343426"},"vehicle_type_id":"4","last_reported":1702534194,"current_range_meters":23200,"station_id":"ce4bhbh2rcd13ifvqeqg","pricing_plan_id":"free"},{"bike_id":"2a54657b-ca11-485d-b42f-eeaeba72a652","system_id":"levelo_inurba_marseille","lat":43.309038,"lon":5.396546,"is_reserved":false,"is_disabled":false,"rental_uris":{"android":"levelo://app?vid=2a54657b-ca11-485d-b42f-eeaeba72a652","ios":"levelo://app?vid=2a54657b-ca11-485d-b42f-eeaeba72a652"},"vehicle_type_id":"4","last_reported":1702534194,"current_range_meters":27200,"station_id":"ce4bh012rcd13ifvqcv0","pricing_plan_id":"free"},{"bike_id":"9913e388-91dd-4956-bf7f-ef589009be3f","system_id":"levelo_inurba_marseille","lat":43.309038,"lon":5.396546,"is_reserved":false,"is_disabled":false,"rental_uris":{"android":"levelo://app?vid=9913e388-91dd-4956-bf7f-ef589009be3f","ios":"levelo://app?vid=9913e388-91dd-4956-bf7f-ef589009be3f"},"vehicle_type_id":"4","last_reported":1702534194,"current_range_meters":28400,"station_id":"ce4bh012rcd13ifvqcv0","pricing_plan_id":"free"},{"bike_id":"28e27214-7b91-43a7-8026-8bb660c02638","system_id":"levelo_inurba_marseille","lat":43.291994,"lon":5.357886,"is_reserved":false,"is_disabled":false,"rental_uris":{"android":"levelo://app?vid=28e27214-7b91-43a7-8026-8bb660c02638","ios":"levelo://app?vid=28e27214-7b91-43a7-8026-8bb660c02638"},"vehicle_type_id":"4","last_reported":1702534194,"current_range_meters":29600,"station_id":"ce4bhb12rcd13ifvqel0","pricing_plan_id":"free"},{"bike_id":"cc94a7f5-8565-48df-bfb0-024ef5ae6186","system_id":"levelo_inurba_marseille","lat":43.313291,"lon":5.396838,"is_reserved":false,"is_disabled":false,"rental_uris":{"android":"levelo://app?vid=cc94a7f5-8565-48df-bfb0-024ef5ae6186","ios":"levelo://app?vid=cc94a7f5-8565-48df-bfb0-024ef5ae6186"},"vehicle_type_id":"4","last_reported":1702534194,"current_range_meters":25200,"station_id":"ce4bgvp2rcd13ifvqcu0","pricing_plan_id":"free"},{"bike_id":"aa528d82-51fc-4b35-9aca-368f4beafae4","system_id":"levelo_inurba_marseille","lat":43.29529,"lon":5.385581,"is_reserved":false,"is_disabled":false,"rental_uris":{"android":"levelo://app?vid=aa528d82-51fc-4b35-9aca-368f4beafae4","ios":"levelo://app?vid=aa528d82-51fc-4b35-9aca-368f4beafae4"},"vehicle_type_id":"4","last_reported":1702534194,"current_range_meters":26400,"station_id":"ce4bgih2rcd13ifvqba0","pricing_plan_id":"free"},{"bike_id":"f6e28638-3a2b-4b12-bb09-975d328331bf","system_id":"levelo_inurba_marseille","lat":43.304274,"lon":5.397513,"is_reserved":false,"is_disabled":false,"rental_uris":{"android":"levelo://app?vid=f6e28638-3a2b-4b12-bb09-975d328331bf","ios":"levelo://app?vid=f6e28638-3a2b-4b12-bb09-975d328331bf"},"vehicle_type_id":"4","last_reported":1702534194,"current_range_meters":28400,"station_id":"ce4bh092rcd13ifvqd20","pricing_plan_id":"free"},{"bike_id":"7778f71f-0654-462d-ad52-579b070625fa","system_id":"levelo_inurba_marseille","lat":43.304274,"lon":5.397513,"is_reserved":false,"is_disabled":false,"rental_uris":{"android":"levelo://app?vid=7778f71f-0654-462d-ad52-579b070625fa","ios":"levelo://app?vid=7778f71f-0654-462d-ad52-579b070625fa"},"vehicle_type_id":"4","last_reported":1702534194,"current_range_meters":26800,"station_id":"ce4bh092rcd13ifvqd20","pricing_plan_id":"free"},{"bike_id":"c84be106-7d77-4039-b765-8b8d9b7d2bcf","system_id":"levelo_inurba_marseille","lat":43.304296,"lon":5.397513,"is_reserved":false,"is_disabled":false,"rental_uris":{"android":"levelo://app?vid=c84be106-7d77-4039-b765-8b8d9b7d2bcf","ios":"levelo://app?vid=c84be106-7d77-4039-b765-8b8d9b7d2bcf"},"vehicle_type_id":"4","last_reported":1702534194,"current_range_meters":30000,"station_id":"ce4bh092rcd13ifvqd20","pricing_plan_id":"free"},{"bike_id":"07f670d0-374a-4b81-b8b0-158fd4af9fa0","system_id":"levelo_inurba_marseille","lat":43.330411,"lon":5.389191,"is_reserved":false,"is_disabled":false,"rental_uris":{"android":"levelo://app?vid=07f670d0-374a-4b81-b8b0-158fd4af9fa0","ios":"levelo://app?vid=07f670d0-374a-4b81-b8b0-158fd4af9fa0"},"vehicle_type_id":"4","last_reported":1702534194,"current_range_meters":10800,"station_id":"ce4bhr92rcd13ifvqhrg","pricing_plan_id":"free"},{"bike_id":"b23ba7b9-7c32-4573-8dfe-335fc2f2ea1f","system_id":"levelo_inurba_marseille","lat":43.290058,"lon":5.356118,"is_reserved":false,"is_disabled":false,"rental_uris":{"android":"levelo://app?vid=b23ba7b9-7c32-4573-8dfe-335fc2f2ea1f","ios":"levelo://app?vid=b23ba7b9-7c32-4573-8dfe-335fc2f2ea1f"},"vehicle_type_id":"4","last_reported":1702534194,"current_range_meters":29600,"station_id":"ce4bhb92rcd13ifvqen0","pricing_plan_id":"free"},{"bike_id":"134d6bb2-d743-4a28-b626-45985aec7c8d","system_id":"levelo_inurba_marseille","lat":43.29781,"lon":5.39355,"is_reserved":false,"is_disabled":false,"rental_uris":{"android":"levelo://app?vid=134d6bb2-d743-4a28-b626-45985aec7c8d","ios":"levelo://app?vid=134d6bb2-d743-4a28-b626-45985aec7c8d"},"vehicle_type_id":"4","last_reported":1702534194,"current_range_meters":30800,"station_id":"chh1huq6cuj3fo74tm60","pricing_plan_id":"free"},{"bike_id":"6aca6444-bfbc-4b36-84d2-07052f52c57c","system_id":"levelo_inurba_marseille","lat":43.28856,"lon":5.358371,"is_reserved":false,"is_disabled":false,"rental_uris":{"android":"levelo://app?vid=6aca6444-bfbc-4b36-84d2-07052f52c57c","ios":"levelo://app?vid=6aca6444-bfbc-4b36-84d2-07052f52c57c"},"vehicle_type_id":"4","last_reported":1702534194,"current_range_meters":22800,"station_id":"ce4bhb12rcd13ifvqem0","pricing_plan_id":"free"},{"bike_id":"1d88f152-c389-457d-9cdb-ccac5543e642","system_id":"levelo_inurba_marseille","lat":43.28856,"lon":5.358371,"is_reserved":false,"is_disabled":false,"rental_uris":{"android":"levelo://app?vid=1d88f152-c389-457d-9cdb-ccac5543e642","ios":"levelo://app?vid=1d88f152-c389-457d-9cdb-ccac5543e642"},"vehicle_type_id":"4","last_reported":1702534194,"current_range_meters":29200,"station_id":"ce4bhb12rcd13ifvqem0","pricing_plan_id":"free"},{"bike_id":"98d26069-5923-49ef-abe7-d98f82088b33","system_id":"levelo_inurba_marseille","lat":43.28856,"lon":5.358371,"is_reserved":false,"is_disabled":false,"rental_uris":{"android":"levelo://app?vid=98d26069-5923-49ef-abe7-d98f82088b33","ios":"levelo://app?vid=98d26069-5923-49ef-abe7-d98f82088b33"},"vehicle_type_id":"4","last_reported":1702534194,"current_range_meters":29200,"station_id":"ce4bhb12rcd13ifvqem0","pricing_plan_id":"free"},{"bike_id":"50b34c41-6329-42cd-bb8f-00b47b64e200","system_id":"levelo_inurba_marseille","lat":43.28856,"lon":5.358371,"is_reserved":false,"is_disabled":false,"rental_uris":{"android":"levelo://app?vid=50b34c41-6329-42cd-bb8f-00b47b64e200","ios":"levelo://app?vid=50b34c41-6329-42cd-bb8f-00b47b64e200"},"vehicle_type_id":"4","last_reported":1702534194,"current_range_meters":25200,"station_id":"ce4bhb12rcd13ifvqem0","pricing_plan_id":"free"},{"bike_id":"bb6c13e3-597f-48ff-ba12-1af34a8cd725","system_id":"levelo_inurba_marseille","lat":43.337243,"lon":5.374763,"is_reserved":false,"is_disabled":false,"rental_uris":{"android":"levelo://app?vid=bb6c13e3-597f-48ff-ba12-1af34a8cd725","ios":"levelo://app?vid=bb6c13e3-597f-48ff-ba12-1af34a8cd725"},"vehicle_type_id":"4","last_reported":1702534194,"current_range_meters":0,"station_id":"","pricing_plan_id":"free"},{"bike_id":"dadf45d6-8f84-48ea-aabc-df72c4ca5a08","system_id":"levelo_inurba_marseille","lat":43.309289,"lon":5.401473,"is_reserved":false,"is_disabled":false,"rental_uris":{"android":"levelo://app?vid=dadf45d6-8f84-48ea-aabc-df72c4ca5a08","ios":"levelo://app?vid=dadf45d6-8f84-48ea-aabc-df72c4ca5a08"},"vehicle_type_id":"4","last_reported":1702534194,"current_range_meters":18000,"station_id":"ce4bgvp2rcd13ifvqct0","pricing_plan_id":"free"},{"bike_id":"f1f5fa13-3553-4e2a-9451-31956f69f4cb","system_id":"levelo_inurba_marseille","lat":43.309371,"lon":5.401449,"is_reserved":false,"is_disabled":false,"rental_uris":{"android":"levelo://app?vid=f1f5fa13-3553-4e2a-9451-31956f69f4cb","ios":"levelo://app?vid=f1f5fa13-3553-4e2a-9451-31956f69f4cb"},"vehicle_type_id":"4","last_reported":1702534194,"current_range_meters":18000,"station_id":"ce4bgvp2rcd13ifvqct0","pricing_plan_id":"free"},{"bike_id":"325400dc-649c-4bed-bfff-a0807e38dfb4","system_id":"levelo_inurba_marseille","lat":43.30919,"lon":5.40147,"is_reserved":false,"is_disabled":false,"rental_uris":{"android":"levelo://app?vid=325400dc-649c-4bed-bfff-a0807e38dfb4","ios":"levelo://app?vid=325400dc-649c-4bed-bfff-a0807e38dfb4"},"vehicle_type_id":"4","last_reported":1702534194,"current_range_meters":17600,"station_id":"ce4bgvp2rcd13ifvqct0","pricing_plan_id":"free"},{"bike_id":"abb8f2e1-4ec3-40fa-884e-4116a15ad125","system_id":"levelo_inurba_marseille","lat":43.337575,"lon":5.374785,"is_reserved":false,"is_disabled":false,"rental_uris":{"android":"levelo://app?vid=abb8f2e1-4ec3-40fa-884e-4116a15ad125","ios":"levelo://app?vid=abb8f2e1-4ec3-40fa-884e-4116a15ad125"},"vehicle_type_id":"4","last_reported":1702534194,"current_range_meters":24800,"station_id":"","pricing_plan_id":"free"},{"bike_id":"8603588c-f8d4-4f28-ba72-97cf51310701","system_id":"levelo_inurba_marseille","lat":43.305994,"lon":5.393687,"is_reserved":false,"is_disabled":false,"rental_uris":{"android":"levelo://app?vid=8603588c-f8d4-4f28-ba72-97cf51310701","ios":"levelo://app?vid=8603588c-f8d4-4f28-ba72-97cf51310701"},"vehicle_type_id":"4","last_reported":1702534194,"current_range_meters":26800,"station_id":"ce4bh0p2rcd13ifvqd80","pricing_plan_id":"free"},{"bike_id":"594ddc5b-cd87-4ae6-adeb-505bb2d4457c","system_id":"levelo_inurba_marseille","lat":43.301117,"lon":5.398795,"is_reserved":false,"is_disabled":false,"rental_uris":{"android":"levelo://app?vid=594ddc5b-cd87-4ae6-adeb-505bb2d4457c","ios":"levelo://app?vid=594ddc5b-cd87-4ae6-adeb-505bb2d4457c"},"vehicle_type_id":"4","last_reported":1702534194,"current_range_meters":27600,"station_id":"ce4bh0h2rcd13ifvqd40","pricing_plan_id":"free"},{"bike_id":"bb34842f-3d9e-4806-9e00-fb81e690fb99","system_id":"levelo_inurba_marseille","lat":43.28727,"lon":5.36078,"is_reserved":false,"is_disabled":false,"rental_uris":{"android":"levelo://app?vid=bb34842f-3d9e-4806-9e00-fb81e690fb99","ios":"levelo://app?vid=bb34842f-3d9e-4806-9e00-fb81e690fb99"},"vehicle_type_id":"4","last_reported":1702534194,"current_range_meters":29600,"station_id":"cki0cbj6b192h4jlfktg","pricing_plan_id":"free"},{"bike_id":"f0d70e3a-0236-4546-99a7-bae9167c0494","system_id":"levelo_inurba_marseille","lat":43.28727,"lon":5.36078,"is_reserved":false,"is_disabled":false,"rental_uris":{"android":"levelo://app?vid=f0d70e3a-0236-4546-99a7-bae9167c0494","ios":"levelo://app?vid=f0d70e3a-0236-4546-99a7-bae9167c0494"},"vehicle_type_id":"4","last_reported":1702534194,"current_range_meters":31200,"station_id":"cki0cbj6b192h4jlfktg","pricing_plan_id":"free"},{"bike_id":"d26d58e1-6968-4755-a5df-fa3aa7d263a0","system_id":"levelo_inurba_marseille","lat":43.28727,"lon":5.36078,"is_reserved":false,"is_disabled":false,"rental_uris":{"android":"levelo://app?vid=d26d58e1-6968-4755-a5df-fa3aa7d263a0","ios":"levelo://app?vid=d26d58e1-6968-4755-a5df-fa3aa7d263a0"},"vehicle_type_id":"4","last_reported":1702534194,"current_range_meters":27600,"station_id":"cki0cbj6b192h4jlfktg","pricing_plan_id":"free"},{"bike_id":"fdee2bf1-04a8-492f-8379-38147e93826e","system_id":"levelo_inurba_marseille","lat":43.298681,"lon":5.397225,"is_reserved":false,"is_disabled":false,"rental_uris":{"android":"levelo://app?vid=fdee2bf1-04a8-492f-8379-38147e93826e","ios":"levelo://app?vid=fdee2bf1-04a8-492f-8379-38147e93826e"},"vehicle_type_id":"4","last_reported":1702534194,"current_range_meters":20000,"station_id":"ce4bh0h2rcd13ifvqd50","pricing_plan_id":"free"},{"bike_id":"1a99aa28-6b0a-4e12-a67c-d2e5d77ae6dc","system_id":"levelo_inurba_marseille","lat":43.286593,"lon":5.363346,"is_reserved":false,"is_disabled":false,"rental_uris":{"android":"levelo://app?vid=1a99aa28-6b0a-4e12-a67c-d2e5d77ae6dc","ios":"levelo://app?vid=1a99aa28-6b0a-4e12-a67c-d2e5d77ae6dc"},"vehicle_type_id":"4","last_reported":1702534194,"current_range_meters":30800,"station_id":"ce4bhah2rcd13ifvqej0","pricing_plan_id":"free"},{"bike_id":"8072fba0-43c8-4cfe-b424-6092dac29866","system_id":"levelo_inurba_marseille","lat":43.286961,"lon":5.373785,"is_reserved":false,"is_disabled":false,"rental_uris":{"android":"levelo://app?vid=8072fba0-43c8-4cfe-b424-6092dac29866","ios":"levelo://app?vid=8072fba0-43c8-4cfe-b424-6092dac29866"},"vehicle_type_id":"4","last_reported":1702534194,"current_range_meters":30000,"station_id":"ce4bh3p2rcd13ifvqdq0","pricing_plan_id":"free"},{"bike_id":"3fd6d764-233f-46c5-80ae-4807922dc31c","system_id":"levelo_inurba_marseille","lat":43.286039,"lon":5.370679,"is_reserved":false,"is_disabled":false,"rental_uris":{"android":"levelo://app?vid=3fd6d764-233f-46c5-80ae-4807922dc31c","ios":"levelo://app?vid=3fd6d764-233f-46c5-80ae-4807922dc31c"},"vehicle_type_id":"4","last_reported":1702534194,"current_range_meters":30800,"station_id":"ce4bht12rcd13ifvqi60","pricing_plan_id":"free"},{"bike_id":"5dc10632-1838-4b46-a105-042f318474fa","system_id":"levelo_inurba_marseille","lat":43.286039,"lon":5.370681,"is_reserved":false,"is_disabled":false,"rental_uris":{"android":"levelo://app?vid=5dc10632-1838-4b46-a105-042f318474fa","ios":"levelo://app?vid=5dc10632-1838-4b46-a105-042f318474fa"},"vehicle_type_id":"4","last_reported":1702534194,"current_range_meters":18000,"station_id":"ce4bht12rcd13ifvqi60","pricing_plan_id":"free"},{"bike_id":"8fe41910-b6aa-4d09-bd31-6fb49e9c2863","system_id":"levelo_inurba_marseille","lat":43.31693,"lon":5.40479,"is_reserved":false,"is_disabled":false,"rental_uris":{"android":"levelo://app?vid=8fe41910-b6aa-4d09-bd31-6fb49e9c2863","ios":"levelo://app?vid=8fe41910-b6aa-4d09-bd31-6fb49e9c2863"},"vehicle_type_id":"4","last_reported":1702534194,"current_range_meters":18800,"station_id":"ce4bh012rcd13ifvqd00","pricing_plan_id":"free"},{"bike_id":"900e39d0-35f6-4506-9e04-d3711ac52b25","system_id":"levelo_inurba_marseille","lat":43.291994,"lon":5.392907,"is_reserved":false,"is_disabled":false,"rental_uris":{"android":"levelo://app?vid=900e39d0-35f6-4506-9e04-d3711ac52b25","ios":"levelo://app?vid=900e39d0-35f6-4506-9e04-d3711ac52b25"},"vehicle_type_id":"4","last_reported":1702534194,"current_range_meters":27600,"station_id":"ce4bh192rcd13ifvqdd0","pricing_plan_id":"free"},{"bike_id":"501e389a-23fd-46a7-80e5-537918c4b4f6","system_id":"levelo_inurba_marseille","lat":43.284538,"lon":5.358657,"is_reserved":false,"is_disabled":false,"rental_uris":{"android":"levelo://app?vid=501e389a-23fd-46a7-80e5-537918c4b4f6","ios":"levelo://app?vid=501e389a-23fd-46a7-80e5-537918c4b4f6"},"vehicle_type_id":"4","last_reported":1702534194,"current_range_meters":28000,"station_id":"ce4bhah2rcd13ifvqei0","pricing_plan_id":"free"},{"bike_id":"83479b9e-f975-4df3-a4f8-95be3cb3a1c1","system_id":"levelo_inurba_marseille","lat":43.284538,"lon":5.358657,"is_reserved":false,"is_disabled":false,"rental_uris":{"android":"levelo://app?vid=83479b9e-f975-4df3-a4f8-95be3cb3a1c1","ios":"levelo://app?vid=83479b9e-f975-4df3-a4f8-95be3cb3a1c1"},"vehicle_type_id":"4","last_reported":1702534194,"current_range_meters":31600,"station_id":"ce4bhah2rcd13ifvqei0","pricing_plan_id":"free"},{"bike_id":"12b1e009-586e-4c16-a95b-8f2757d6394c","system_id":"levelo_inurba_marseille","lat":43.284538,"lon":5.358657,"is_reserved":false,"is_disabled":false,"rental_uris":{"android":"levelo://app?vid=12b1e009-586e-4c16-a95b-8f2757d6394c","ios":"levelo://app?vid=12b1e009-586e-4c16-a95b-8f2757d6394c"},"vehicle_type_id":"4","last_reported":1702534194,"current_range_meters":29600,"station_id":"ce4bhah2rcd13ifvqei0","pricing_plan_id":"free"},{"bike_id":"00d022b1-07e6-4aa8-91b5-12c51a0f14aa","system_id":"levelo_inurba_marseille","lat":43.284538,"lon":5.358657,"is_reserved":false,"is_disabled":false,"rental_uris":{"android":"levelo://app?vid=00d022b1-07e6-4aa8-91b5-12c51a0f14aa","ios":"levelo://app?vid=00d022b1-07e6-4aa8-91b5-12c51a0f14aa"},"vehicle_type_id":"4","last_reported":1702534194,"current_range_meters":28000,"station_id":"ce4bhah2rcd13ifvqei0","pricing_plan_id":"free"},{"bike_id":"ca031547-cfb3-4b2b-bc50-11b7481bd43b","system_id":"levelo_inurba_marseille","lat":43.284534,"lon":5.358662,"is_reserved":false,"is_disabled":false,"rental_uris":{"android":"levelo://app?vid=ca031547-cfb3-4b2b-bc50-11b7481bd43b","ios":"levelo://app?vid=ca031547-cfb3-4b2b-bc50-11b7481bd43b"},"vehicle_type_id":"4","last_reported":1702534194,"current_range_meters":29200,"station_id":"ce4bhah2rcd13ifvqei0","pricing_plan_id":"free"},{"bike_id":"762b0592-333e-420d-ad45-c7066346f521","system_id":"levelo_inurba_marseille","lat":43.28402,"lon":5.37523,"is_reserved":false,"is_disabled":false,"rental_uris":{"android":"levelo://app?vid=762b0592-333e-420d-ad45-c7066346f521","ios":"levelo://app?vid=762b0592-333e-420d-ad45-c7066346f521"},"vehicle_type_id":"4","last_reported":1702534194,"current_range_meters":29200,"station_id":"ce4bh412rcd13ifvqds0","pricing_plan_id":"free"},{"bike_id":"d42c0b02-cd55-44d9-8e86-820835e7be64","system_id":"levelo_inurba_marseille","lat":43.323464,"lon":5.406297,"is_reserved":false,"is_disabled":false,"rental_uris":{"android":"levelo://app?vid=d42c0b02-cd55-44d9-8e86-820835e7be64","ios":"levelo://app?vid=d42c0b02-cd55-44d9-8e86-820835e7be64"},"vehicle_type_id":"4","last_reported":1702534194,"current_range_meters":30000,"station_id":"ce4bhq92rcd13ifvqhjg","pricing_plan_id":"free"},{"bike_id":"54b8f86c-9143-4016-b61e-46e0842901c5","system_id":"levelo_inurba_marseille","lat":43.28473,"lon":5.38414,"is_reserved":false,"is_disabled":false,"rental_uris":{"android":"levelo://app?vid=54b8f86c-9143-4016-b61e-46e0842901c5","ios":"levelo://app?vid=54b8f86c-9143-4016-b61e-46e0842901c5"},"vehicle_type_id":"4","last_reported":1702534194,"current_range_meters":25200,"station_id":"ce4bh512rcd13ifvqe3g","pricing_plan_id":"free"},{"bike_id":"7ee2dc96-cbef-4d8d-9228-e7f01274e2b0","system_id":"levelo_inurba_marseille","lat":43.284787,"lon":5.384116,"is_reserved":false,"is_disabled":false,"rental_uris":{"android":"levelo://app?vid=7ee2dc96-cbef-4d8d-9228-e7f01274e2b0","ios":"levelo://app?vid=7ee2dc96-cbef-4d8d-9228-e7f01274e2b0"},"vehicle_type_id":"4","last_reported":1702534194,"current_range_meters":28000,"station_id":"ce4bh512rcd13ifvqe3g","pricing_plan_id":"free"},{"bike_id":"840ab13b-d811-4898-b601-624fe85fa55a","system_id":"levelo_inurba_marseille","lat":43.283498,"lon":5.380948,"is_reserved":false,"is_disabled":false,"rental_uris":{"android":"levelo://app?vid=840ab13b-d811-4898-b601-624fe85fa55a","ios":"levelo://app?vid=840ab13b-d811-4898-b601-624fe85fa55a"},"vehicle_type_id":"4","last_reported":1702534194,"current_range_meters":12000,"station_id":"ce4bh412rcd13ifvqdr0","pricing_plan_id":"free"},{"bike_id":"94134967-584c-4fb7-b877-ab21c6795823","system_id":"levelo_inurba_marseille","lat":43.289363,"lon":5.396322,"is_reserved":false,"is_disabled":false,"rental_uris":{"android":"levelo://app?vid=94134967-584c-4fb7-b877-ab21c6795823","ios":"levelo://app?vid=94134967-584c-4fb7-b877-ab21c6795823"},"vehicle_type_id":"4","last_reported":1702534194,"current_range_meters":28400,"station_id":"ce4bh3h2rcd13ifvqdn0","pricing_plan_id":"free"},{"bike_id":"14d136cb-9643-4a36-adf9-03b03df2cd64","system_id":"levelo_inurba_marseille","lat":43.283502,"lon":5.386471,"is_reserved":false,"is_disabled":false,"rental_uris":{"android":"levelo://app?vid=14d136cb-9643-4a36-adf9-03b03df2cd64","ios":"levelo://app?vid=14d136cb-9643-4a36-adf9-03b03df2cd64"},"vehicle_type_id":"4","last_reported":1702534194,"current_range_meters":28000,"station_id":"ce4bh492rcd13ifvqdvg","pricing_plan_id":"free"},{"bike_id":"14030a2d-f1a2-4925-86e2-9f7986ad362f","system_id":"levelo_inurba_marseille","lat":43.282754,"lon":5.350519,"is_reserved":false,"is_disabled":false,"rental_uris":{"android":"levelo://app?vid=14030a2d-f1a2-4925-86e2-9f7986ad362f","ios":"levelo://app?vid=14030a2d-f1a2-4925-86e2-9f7986ad362f"},"vehicle_type_id":"4","last_reported":1702534194,"current_range_meters":28400,"station_id":"ce4bhbp2rcd13ifvqerg","pricing_plan_id":"free"},{"bike_id":"ff13163c-7f82-4167-aae9-d772a15eabfc","system_id":"levelo_inurba_marseille","lat":43.282744,"lon":5.350533,"is_reserved":false,"is_disabled":false,"rental_uris":{"android":"levelo://app?vid=ff13163c-7f82-4167-aae9-d772a15eabfc","ios":"levelo://app?vid=ff13163c-7f82-4167-aae9-d772a15eabfc"},"vehicle_type_id":"4","last_reported":1702534194,"current_range_meters":26800,"station_id":"ce4bhbp2rcd13ifvqerg","pricing_plan_id":"free"},{"bike_id":"407b4c07-f353-4943-9b22-bf6398ea4edb","system_id":"levelo_inurba_marseille","lat":43.283502,"lon":5.386471,"is_reserved":false,"is_disabled":false,"rental_uris":{"android":"levelo://app?vid=407b4c07-f353-4943-9b22-bf6398ea4edb","ios":"levelo://app?vid=407b4c07-f353-4943-9b22-bf6398ea4edb"},"vehicle_type_id":"4","last_reported":1702534194,"current_range_meters":30000,"station_id":"ce4bh492rcd13ifvqdvg","pricing_plan_id":"free"},{"bike_id":"5c3195f6-352c-40da-ad54-1b047e8385b7","system_id":"levelo_inurba_marseille","lat":43.28038,"lon":5.3694,"is_reserved":false,"is_disabled":false,"rental_uris":{"android":"levelo://app?vid=5c3195f6-352c-40da-ad54-1b047e8385b7","ios":"levelo://app?vid=5c3195f6-352c-40da-ad54-1b047e8385b7"},"vehicle_type_id":"4","last_reported":1702534194,"current_range_meters":30800,"station_id":"ce4bha12rcd13ifvqef0","pricing_plan_id":"free"},{"bike_id":"2c8fb044-a62b-4fb3-9cdc-78126b72291d","system_id":"levelo_inurba_marseille","lat":43.296263,"lon":5.40601,"is_reserved":false,"is_disabled":false,"rental_uris":{"android":"levelo://app?vid=2c8fb044-a62b-4fb3-9cdc-78126b72291d","ios":"levelo://app?vid=2c8fb044-a62b-4fb3-9cdc-78126b72291d"},"vehicle_type_id":"4","last_reported":1702534194,"current_range_meters":28800,"station_id":"ce4bh0h2rcd13ifvqd60","pricing_plan_id":"free"},{"bike_id":"277f7566-9cf7-43c8-9c66-ef7aa3d05104","system_id":"levelo_inurba_marseille","lat":43.28094,"lon":5.37855,"is_reserved":false,"is_disabled":false,"rental_uris":{"android":"levelo://app?vid=277f7566-9cf7-43c8-9c66-ef7aa3d05104","ios":"levelo://app?vid=277f7566-9cf7-43c8-9c66-ef7aa3d05104"},"vehicle_type_id":"4","last_reported":1702534194,"current_range_meters":20400,"station_id":"ce4bha12rcd13ifvqee0","pricing_plan_id":"free"},{"bike_id":"53e3ad93-c484-4049-b446-8c685425dedd","system_id":"levelo_inurba_marseille","lat":43.326605,"lon":5.409903,"is_reserved":false,"is_disabled":false,"rental_uris":{"android":"levelo://app?vid=53e3ad93-c484-4049-b446-8c685425dedd","ios":"levelo://app?vid=53e3ad93-c484-4049-b446-8c685425dedd"},"vehicle_type_id":"4","last_reported":1702534194,"current_range_meters":26800,"station_id":"ce4bhpp2rcd13ifvqhgg","pricing_plan_id":"free"},{"bike_id":"26b2f7bd-6798-440e-a012-5618e054c289","system_id":"levelo_inurba_marseille","lat":43.304188,"lon":5.412904,"is_reserved":false,"is_disabled":false,"rental_uris":{"android":"levelo://app?vid=26b2f7bd-6798-440e-a012-5618e054c289","ios":"levelo://app?vid=26b2f7bd-6798-440e-a012-5618e054c289"},"vehicle_type_id":"4","last_reported":1702534194,"current_range_meters":31200,"station_id":"ce4bhop2rcd13ifvqh8g","pricing_plan_id":"free"},{"bike_id":"8b161b48-f19a-4ed6-bcb8-c2ffe6337936","system_id":"levelo_inurba_marseille","lat":43.304188,"lon":5.412904,"is_reserved":false,"is_disabled":false,"rental_uris":{"android":"levelo://app?vid=8b161b48-f19a-4ed6-bcb8-c2ffe6337936","ios":"levelo://app?vid=8b161b48-f19a-4ed6-bcb8-c2ffe6337936"},"vehicle_type_id":"4","last_reported":1702534194,"current_range_meters":26000,"station_id":"ce4bhop2rcd13ifvqh8g","pricing_plan_id":"free"},{"bike_id":"f04e2e09-457c-4e43-bfad-1f3c8352ac41","system_id":"levelo_inurba_marseille","lat":43.304188,"lon":5.412904,"is_reserved":false,"is_disabled":false,"rental_uris":{"android":"levelo://app?vid=f04e2e09-457c-4e43-bfad-1f3c8352ac41","ios":"levelo://app?vid=f04e2e09-457c-4e43-bfad-1f3c8352ac41"},"vehicle_type_id":"4","last_reported":1702534194,"current_range_meters":30400,"station_id":"ce4bhop2rcd13ifvqh8g","pricing_plan_id":"free"},{"bike_id":"3ddd9441-2aff-4354-bc37-bef6f7118610","system_id":"levelo_inurba_marseille","lat":43.30428,"lon":5.41292,"is_reserved":false,"is_disabled":false,"rental_uris":{"android":"levelo://app?vid=3ddd9441-2aff-4354-bc37-bef6f7118610","ios":"levelo://app?vid=3ddd9441-2aff-4354-bc37-bef6f7118610"},"vehicle_type_id":"4","last_reported":1702534194,"current_range_meters":28800,"station_id":"ce4bhop2rcd13ifvqh8g","pricing_plan_id":"free"},{"bike_id":"2d300816-e18c-4172-a561-47bf2d179549","system_id":"levelo_inurba_marseille","lat":43.320045,"lon":5.415048,"is_reserved":false,"is_disabled":false,"rental_uris":{"android":"levelo://app?vid=2d300816-e18c-4172-a561-47bf2d179549","ios":"levelo://app?vid=2d300816-e18c-4172-a561-47bf2d179549"},"vehicle_type_id":"4","last_reported":1702534194,"current_range_meters":29600,"station_id":"ce4bhq92rcd13ifvqhkg","pricing_plan_id":"free"},{"bike_id":"30851deb-c666-431e-aec5-90b7f23474a3","system_id":"levelo_inurba_marseille","lat":43.320045,"lon":5.415046,"is_reserved":false,"is_disabled":false,"rental_uris":{"android":"levelo://app?vid=30851deb-c666-431e-aec5-90b7f23474a3","ios":"levelo://app?vid=30851deb-c666-431e-aec5-90b7f23474a3"},"vehicle_type_id":"4","last_reported":1702534194,"current_range_meters":30400,"station_id":"ce4bhq92rcd13ifvqhkg","pricing_plan_id":"free"},{"bike_id":"41878be8-5525-4b88-958b-6b1fe5000c03","system_id":"levelo_inurba_marseille","lat":43.292569,"lon":5.409107,"is_reserved":false,"is_disabled":false,"rental_uris":{"android":"levelo://app?vid=41878be8-5525-4b88-958b-6b1fe5000c03","ios":"levelo://app?vid=41878be8-5525-4b88-958b-6b1fe5000c03"},"vehicle_type_id":"4","last_reported":1702534194,"current_range_meters":29600,"station_id":"ce4bh192rcd13ifvqdc0","pricing_plan_id":"free"},{"bike_id":"c016e672-b4d7-49b9-b38f-69fd9e1cf7ed","system_id":"levelo_inurba_marseille","lat":43.325243,"lon":5.414326,"is_reserved":false,"is_disabled":false,"rental_uris":{"android":"levelo://app?vid=c016e672-b4d7-49b9-b38f-69fd9e1cf7ed","ios":"levelo://app?vid=c016e672-b4d7-49b9-b38f-69fd9e1cf7ed"},"vehicle_type_id":"4","last_reported":1702534194,"current_range_meters":19200,"station_id":"ce4bhq12rcd13ifvqhhg","pricing_plan_id":"free"},{"bike_id":"74973e57-6a7e-4011-8d5e-0912c55eb2aa","system_id":"levelo_inurba_marseille","lat":43.35094,"lon":5.3681,"is_reserved":false,"is_disabled":false,"rental_uris":{"android":"levelo://app?vid=74973e57-6a7e-4011-8d5e-0912c55eb2aa","ios":"levelo://app?vid=74973e57-6a7e-4011-8d5e-0912c55eb2aa"},"vehicle_type_id":"4","last_reported":1702534194,"current_range_meters":0,"station_id":"","pricing_plan_id":"free"},{"bike_id":"bce467dd-ec9d-4e5c-b2cf-647d61a30a92","system_id":"levelo_inurba_marseille","lat":43.278401,"lon":5.392152,"is_reserved":false,"is_disabled":false,"rental_uris":{"android":"levelo://app?vid=bce467dd-ec9d-4e5c-b2cf-647d61a30a92","ios":"levelo://app?vid=bce467dd-ec9d-4e5c-b2cf-647d61a30a92"},"vehicle_type_id":"4","last_reported":1702534194,"current_range_meters":26400,"station_id":"ce4bhjp2rcd13ifvqga0","pricing_plan_id":"free"},{"bike_id":"95999ca3-6ed8-4d64-9c6d-96ed6ed03926","system_id":"levelo_inurba_marseille","lat":43.273613,"lon":5.362705,"is_reserved":false,"is_disabled":false,"rental_uris":{"android":"levelo://app?vid=95999ca3-6ed8-4d64-9c6d-96ed6ed03926","ios":"levelo://app?vid=95999ca3-6ed8-4d64-9c6d-96ed6ed03926"},"vehicle_type_id":"4","last_reported":1702534194,"current_range_meters":29600,"station_id":"ce4bhbh2rcd13ifvqeo0","pricing_plan_id":"free"},{"bike_id":"80b510a4-8911-4fa9-ba69-61e3cd3b82dd","system_id":"levelo_inurba_marseille","lat":43.275625,"lon":5.384392,"is_reserved":false,"is_disabled":false,"rental_uris":{"android":"levelo://app?vid=80b510a4-8911-4fa9-ba69-61e3cd3b82dd","ios":"levelo://app?vid=80b510a4-8911-4fa9-ba69-61e3cd3b82dd"},"vehicle_type_id":"4","last_reported":1702534194,"current_range_meters":28000,"station_id":"ce4bhh92rcd13ifvqfi0","pricing_plan_id":"free"},{"bike_id":"f121e83a-1d91-4e3f-be43-9284c610fa09","system_id":"levelo_inurba_marseille","lat":43.275625,"lon":5.384392,"is_reserved":false,"is_disabled":false,"rental_uris":{"android":"levelo://app?vid=f121e83a-1d91-4e3f-be43-9284c610fa09","ios":"levelo://app?vid=f121e83a-1d91-4e3f-be43-9284c610fa09"},"vehicle_type_id":"4","last_reported":1702534194,"current_range_meters":25200,"station_id":"ce4bhh92rcd13ifvqfi0","pricing_plan_id":"free"},{"bike_id":"20c1baef-db95-422b-9a73-9290c9241570","system_id":"levelo_inurba_marseille","lat":43.279952,"lon":5.400085,"is_reserved":false,"is_disabled":false,"rental_uris":{"android":"levelo://app?vid=20c1baef-db95-422b-9a73-9290c9241570","ios":"levelo://app?vid=20c1baef-db95-422b-9a73-9290c9241570"},"vehicle_type_id":"4","last_reported":1702534194,"current_range_meters":15600,"station_id":"ce4bho92rcd13ifvqh4g","pricing_plan_id":"free"},{"bike_id":"79650ebc-967e-4d1c-81ae-bc942d9248c1","system_id":"levelo_inurba_marseille","lat":43.279975,"lon":5.40009,"is_reserved":false,"is_disabled":false,"rental_uris":{"android":"levelo://app?vid=79650ebc-967e-4d1c-81ae-bc942d9248c1","ios":"levelo://app?vid=79650ebc-967e-4d1c-81ae-bc942d9248c1"},"vehicle_type_id":"4","last_reported":1702534194,"current_range_meters":24400,"station_id":"ce4bho92rcd13ifvqh4g","pricing_plan_id":"free"},{"bike_id":"55f8cf7b-a384-4860-b1f5-075034029351","system_id":"levelo_inurba_marseille","lat":43.31715,"lon":5.42399,"is_reserved":false,"is_disabled":false,"rental_uris":{"android":"levelo://app?vid=55f8cf7b-a384-4860-b1f5-075034029351","ios":"levelo://app?vid=55f8cf7b-a384-4860-b1f5-075034029351"},"vehicle_type_id":"4","last_reported":1702534194,"current_range_meters":22400,"station_id":"ce4bhp92rcd13ifvqhbg","pricing_plan_id":"free"},{"bike_id":"fdfea060-a937-4f92-8430-8f650d233de2","system_id":"levelo_inurba_marseille","lat":43.317121,"lon":5.423936,"is_reserved":false,"is_disabled":false,"rental_uris":{"android":"levelo://app?vid=fdfea060-a937-4f92-8430-8f650d233de2","ios":"levelo://app?vid=fdfea060-a937-4f92-8430-8f650d233de2"},"vehicle_type_id":"4","last_reported":1702534194,"current_range_meters":28400,"station_id":"ce4bhp92rcd13ifvqhbg","pricing_plan_id":"free"},{"bike_id":"7b1fa29e-caff-4f67-96a3-110a1ff97aa7","system_id":"levelo_inurba_marseille","lat":43.3172,"lon":5.42404,"is_reserved":false,"is_disabled":false,"rental_uris":{"android":"levelo://app?vid=7b1fa29e-caff-4f67-96a3-110a1ff97aa7","ios":"levelo://app?vid=7b1fa29e-caff-4f67-96a3-110a1ff97aa7"},"vehicle_type_id":"4","last_reported":1702534194,"current_range_meters":20000,"station_id":"ce4bhp92rcd13ifvqhbg","pricing_plan_id":"free"},{"bike_id":"b1c028eb-0fe1-4afa-b35c-b9783a0e9537","system_id":"levelo_inurba_marseille","lat":43.31723,"lon":5.42405,"is_reserved":false,"is_disabled":false,"rental_uris":{"android":"levelo://app?vid=b1c028eb-0fe1-4afa-b35c-b9783a0e9537","ios":"levelo://app?vid=b1c028eb-0fe1-4afa-b35c-b9783a0e9537"},"vehicle_type_id":"4","last_reported":1702534194,"current_range_meters":0,"station_id":"ce4bhp92rcd13ifvqhbg","pricing_plan_id":"free"},{"bike_id":"6161d674-6206-475b-bc2f-d94e3f80d335","system_id":"levelo_inurba_marseille","lat":43.317121,"lon":5.423936,"is_reserved":false,"is_disabled":false,"rental_uris":{"android":"levelo://app?vid=6161d674-6206-475b-bc2f-d94e3f80d335","ios":"levelo://app?vid=6161d674-6206-475b-bc2f-d94e3f80d335"},"vehicle_type_id":"4","last_reported":1702534194,"current_range_meters":28800,"station_id":"ce4bhp92rcd13ifvqhbg","pricing_plan_id":"free"},{"bike_id":"800bce67-be39-4ae9-a103-d9ca33d8cd2f","system_id":"levelo_inurba_marseille","lat":43.310785,"lon":5.424305,"is_reserved":false,"is_disabled":false,"rental_uris":{"android":"levelo://app?vid=800bce67-be39-4ae9-a103-d9ca33d8cd2f","ios":"levelo://app?vid=800bce67-be39-4ae9-a103-d9ca33d8cd2f"},"vehicle_type_id":"4","last_reported":1702534194,"current_range_meters":28000,"station_id":"ce4bhp92rcd13ifvqhag","pricing_plan_id":"free"},{"bike_id":"735a48c3-eb5d-4627-ac05-6da9b77b047f","system_id":"levelo_inurba_marseille","lat":43.340804,"lon":5.410219,"is_reserved":false,"is_disabled":false,"rental_uris":{"android":"levelo://app?vid=735a48c3-eb5d-4627-ac05-6da9b77b047f","ios":"levelo://app?vid=735a48c3-eb5d-4627-ac05-6da9b77b047f"},"vehicle_type_id":"4","last_reported":1702534194,"current_range_meters":28400,"station_id":"ce4bhqh2rcd13ifvqhlg","pricing_plan_id":"free"},{"bike_id":"ceded0a8-b6c8-4c13-8e17-994a5c22e158","system_id":"levelo_inurba_marseille","lat":43.340804,"lon":5.410219,"is_reserved":false,"is_disabled":false,"rental_uris":{"android":"levelo://app?vid=ceded0a8-b6c8-4c13-8e17-994a5c22e158","ios":"levelo://app?vid=ceded0a8-b6c8-4c13-8e17-994a5c22e158"},"vehicle_type_id":"4","last_reported":1702534194,"current_range_meters":28000,"station_id":"ce4bhqh2rcd13ifvqhlg","pricing_plan_id":"free"},{"bike_id":"3ca2c2d2-99b0-4aa6-a05d-e30f02e6a7fb","system_id":"levelo_inurba_marseille","lat":43.27588,"lon":5.39495,"is_reserved":false,"is_disabled":false,"rental_uris":{"android":"levelo://app?vid=3ca2c2d2-99b0-4aa6-a05d-e30f02e6a7fb","ios":"levelo://app?vid=3ca2c2d2-99b0-4aa6-a05d-e30f02e6a7fb"},"vehicle_type_id":"4","last_reported":1702534194,"current_range_meters":12400,"station_id":"","pricing_plan_id":"free"},{"bike_id":"a5268966-18d9-4d6f-b2e9-dfbde0c50fef","system_id":"levelo_inurba_marseille","lat":43.274103,"lon":5.394016,"is_reserved":false,"is_disabled":false,"rental_uris":{"android":"levelo://app?vid=a5268966-18d9-4d6f-b2e9-dfbde0c50fef","ios":"levelo://app?vid=a5268966-18d9-4d6f-b2e9-dfbde0c50fef"},"vehicle_type_id":"4","last_reported":1702534194,"current_range_meters":30000,"station_id":"ce4bhdp2rcd13ifvqf20","pricing_plan_id":"free"},{"bike_id":"bcb5db2f-8bfd-4a96-80c5-4e038682ef0d","system_id":"levelo_inurba_marseille","lat":43.273129,"lon":5.390725,"is_reserved":false,"is_disabled":false,"rental_uris":{"android":"levelo://app?vid=bcb5db2f-8bfd-4a96-80c5-4e038682ef0d","ios":"levelo://app?vid=bcb5db2f-8bfd-4a96-80c5-4e038682ef0d"},"vehicle_type_id":"4","last_reported":1702534194,"current_range_meters":17200,"station_id":"ce4bhgp2rcd13ifvqfe0","pricing_plan_id":"free"},{"bike_id":"9cbcb1df-fed0-41ab-8c8f-91ffd45f5cfa","system_id":"levelo_inurba_marseille","lat":43.304109,"lon":5.425431,"is_reserved":false,"is_disabled":false,"rental_uris":{"android":"levelo://app?vid=9cbcb1df-fed0-41ab-8c8f-91ffd45f5cfa","ios":"levelo://app?vid=9cbcb1df-fed0-41ab-8c8f-91ffd45f5cfa"},"vehicle_type_id":"4","last_reported":1702534194,"current_range_meters":17200,"station_id":"ce4bhoh2rcd13ifvqh6g","pricing_plan_id":"free"},{"bike_id":"645a98a2-ec47-4c49-97ff-deda42f8b697","system_id":"levelo_inurba_marseille","lat":43.273125,"lon":5.390731,"is_reserved":false,"is_disabled":false,"rental_uris":{"android":"levelo://app?vid=645a98a2-ec47-4c49-97ff-deda42f8b697","ios":"levelo://app?vid=645a98a2-ec47-4c49-97ff-deda42f8b697"},"vehicle_type_id":"4","last_reported":1702534194,"current_range_meters":27200,"station_id":"ce4bhgp2rcd13ifvqfe0","pricing_plan_id":"free"},{"bike_id":"f24842c9-86a0-47e5-beb1-29d6f71a0a0b","system_id":"levelo_inurba_marseille","lat":43.295523,"lon":5.422926,"is_reserved":false,"is_disabled":false,"rental_uris":{"android":"levelo://app?vid=f24842c9-86a0-47e5-beb1-29d6f71a0a0b","ios":"levelo://app?vid=f24842c9-86a0-47e5-beb1-29d6f71a0a0b"},"vehicle_type_id":"4","last_reported":1702534194,"current_range_meters":28400,"station_id":"ce4bhph2rcd13ifvqhdg","pricing_plan_id":"free"},{"bike_id":"21cd849d-d21e-4908-819b-2fc71912a061","system_id":"levelo_inurba_marseille","lat":43.295511,"lon":5.422926,"is_reserved":false,"is_disabled":false,"rental_uris":{"android":"levelo://app?vid=21cd849d-d21e-4908-819b-2fc71912a061","ios":"levelo://app?vid=21cd849d-d21e-4908-819b-2fc71912a061"},"vehicle_type_id":"4","last_reported":1702534194,"current_range_meters":31200,"station_id":"ce4bhph2rcd13ifvqhdg","pricing_plan_id":"free"},{"bike_id":"f19d5003-5a0d-4967-9436-10394784d0ca","system_id":"levelo_inurba_marseille","lat":43.272116,"lon":5.391763,"is_reserved":false,"is_disabled":false,"rental_uris":{"android":"levelo://app?vid=f19d5003-5a0d-4967-9436-10394784d0ca","ios":"levelo://app?vid=f19d5003-5a0d-4967-9436-10394784d0ca"},"vehicle_type_id":"4","last_reported":1702534194,"current_range_meters":27600,"station_id":"ce4bhhp2rcd13ifvqfm0","pricing_plan_id":"free"},{"bike_id":"8ab7bcd5-c7dc-4257-a2fb-116bdd628321","system_id":"levelo_inurba_marseille","lat":43.278159,"lon":5.407083,"is_reserved":false,"is_disabled":false,"rental_uris":{"android":"levelo://app?vid=8ab7bcd5-c7dc-4257-a2fb-116bdd628321","ios":"levelo://app?vid=8ab7bcd5-c7dc-4257-a2fb-116bdd628321"},"vehicle_type_id":"4","last_reported":1702534194,"current_range_meters":16800,"station_id":"ce4bhnh2rcd13ifvqgtg","pricing_plan_id":"free"},{"bike_id":"4390bffd-7c0b-4706-b12e-4a9031cdebaa","system_id":"levelo_inurba_marseille","lat":43.278128,"lon":5.407195,"is_reserved":false,"is_disabled":false,"rental_uris":{"android":"levelo://app?vid=4390bffd-7c0b-4706-b12e-4a9031cdebaa","ios":"levelo://app?vid=4390bffd-7c0b-4706-b12e-4a9031cdebaa"},"vehicle_type_id":"4","last_reported":1702534194,"current_range_meters":28800,"station_id":"ce4bhnh2rcd13ifvqgtg","pricing_plan_id":"free"},{"bike_id":"5b626053-f3b3-4a39-8e59-d93a232fcae0","system_id":"levelo_inurba_marseille","lat":43.278128,"lon":5.407195,"is_reserved":false,"is_disabled":false,"rental_uris":{"android":"levelo://app?vid=5b626053-f3b3-4a39-8e59-d93a232fcae0","ios":"levelo://app?vid=5b626053-f3b3-4a39-8e59-d93a232fcae0"},"vehicle_type_id":"4","last_reported":1702534194,"current_range_meters":30800,"station_id":"ce4bhnh2rcd13ifvqgtg","pricing_plan_id":"free"},{"bike_id":"9f039357-b7cd-4455-af9f-0e521c480e52","system_id":"levelo_inurba_marseille","lat":43.278128,"lon":5.407195,"is_reserved":false,"is_disabled":false,"rental_uris":{"android":"levelo://app?vid=9f039357-b7cd-4455-af9f-0e521c480e52","ios":"levelo://app?vid=9f039357-b7cd-4455-af9f-0e521c480e52"},"vehicle_type_id":"4","last_reported":1702534194,"current_range_meters":27600,"station_id":"ce4bhnh2rcd13ifvqgtg","pricing_plan_id":"free"},{"bike_id":"72f10e1d-8c2e-45b7-af47-b44f511a6f24","system_id":"levelo_inurba_marseille","lat":43.269467,"lon":5.386439,"is_reserved":false,"is_disabled":false,"rental_uris":{"android":"levelo://app?vid=72f10e1d-8c2e-45b7-af47-b44f511a6f24","ios":"levelo://app?vid=72f10e1d-8c2e-45b7-af47-b44f511a6f24"},"vehicle_type_id":"4","last_reported":1702534194,"current_range_meters":22800,"station_id":"ce4bhh92rcd13ifvqfh0","pricing_plan_id":"free"},{"bike_id":"480011b9-f9d2-4fdf-9b1c-aeac6f9eef67","system_id":"levelo_inurba_marseille","lat":43.26949,"lon":5.38627,"is_reserved":false,"is_disabled":false,"rental_uris":{"android":"levelo://app?vid=480011b9-f9d2-4fdf-9b1c-aeac6f9eef67","ios":"levelo://app?vid=480011b9-f9d2-4fdf-9b1c-aeac6f9eef67"},"vehicle_type_id":"4","last_reported":1702534194,"current_range_meters":29600,"station_id":"ce4bhh92rcd13ifvqfh0","pricing_plan_id":"free"},{"bike_id":"5821cd01-7346-414d-b49a-d556c7d46491","system_id":"levelo_inurba_marseille","lat":43.269467,"lon":5.386439,"is_reserved":false,"is_disabled":false,"rental_uris":{"android":"levelo://app?vid=5821cd01-7346-414d-b49a-d556c7d46491","ios":"levelo://app?vid=5821cd01-7346-414d-b49a-d556c7d46491"},"vehicle_type_id":"4","last_reported":1702534194,"current_range_meters":30800,"station_id":"ce4bhh92rcd13ifvqfh0","pricing_plan_id":"free"},{"bike_id":"2f954a71-a24d-4218-8131-98337f69cd1b","system_id":"levelo_inurba_marseille","lat":43.279465,"lon":5.410561,"is_reserved":false,"is_disabled":false,"rental_uris":{"android":"levelo://app?vid=2f954a71-a24d-4218-8131-98337f69cd1b","ios":"levelo://app?vid=2f954a71-a24d-4218-8131-98337f69cd1b"},"vehicle_type_id":"4","last_reported":1702534194,"current_range_meters":11200,"station_id":"ce4bhnp2rcd13ifvqh0g","pricing_plan_id":"free"},{"bike_id":"34b4316b-f345-45de-af70-0c64bb215ce6","system_id":"levelo_inurba_marseille","lat":43.269319,"lon":5.389397,"is_reserved":false,"is_disabled":false,"rental_uris":{"android":"levelo://app?vid=34b4316b-f345-45de-af70-0c64bb215ce6","ios":"levelo://app?vid=34b4316b-f345-45de-af70-0c64bb215ce6"},"vehicle_type_id":"4","last_reported":1702534194,"current_range_meters":28400,"station_id":"ce4bhhh2rcd13ifvqfl0","pricing_plan_id":"free"},{"bike_id":"cb25c8bf-e4ee-4d5d-bae9-3b58e7e9abcd","system_id":"levelo_inurba_marseille","lat":43.265714,"lon":5.372891,"is_reserved":false,"is_disabled":false,"rental_uris":{"android":"levelo://app?vid=cb25c8bf-e4ee-4d5d-bae9-3b58e7e9abcd","ios":"levelo://app?vid=cb25c8bf-e4ee-4d5d-bae9-3b58e7e9abcd"},"vehicle_type_id":"4","last_reported":1702534194,"current_range_meters":29600,"station_id":"ce4bhg12rcd13ifvqf70","pricing_plan_id":"free"},{"bike_id":"fa580f02-b807-4437-8699-633f96b3f41e","system_id":"levelo_inurba_marseille","lat":43.267966,"lon":5.393976,"is_reserved":false,"is_disabled":false,"rental_uris":{"android":"levelo://app?vid=fa580f02-b807-4437-8699-633f96b3f41e","ios":"levelo://app?vid=fa580f02-b807-4437-8699-633f96b3f41e"},"vehicle_type_id":"4","last_reported":1702534194,"current_range_meters":30400,"station_id":"ce4bhh12rcd13ifvqfg0","pricing_plan_id":"free"},{"bike_id":"af2968c9-3858-4920-90e1-be7507fc4cd7","system_id":"levelo_inurba_marseille","lat":43.307999,"lon":5.435179,"is_reserved":false,"is_disabled":false,"rental_uris":{"android":"levelo://app?vid=af2968c9-3858-4920-90e1-be7507fc4cd7","ios":"levelo://app?vid=af2968c9-3858-4920-90e1-be7507fc4cd7"},"vehicle_type_id":"4","last_reported":1702534194,"current_range_meters":20400,"station_id":"ce4bhph2rcd13ifvqheg","pricing_plan_id":"free"},{"bike_id":"3f232a0b-f328-4a7c-9376-5d1041aa79e5","system_id":"levelo_inurba_marseille","lat":43.307969,"lon":5.435234,"is_reserved":false,"is_disabled":false,"rental_uris":{"android":"levelo://app?vid=3f232a0b-f328-4a7c-9376-5d1041aa79e5","ios":"levelo://app?vid=3f232a0b-f328-4a7c-9376-5d1041aa79e5"},"vehicle_type_id":"4","last_reported":1702534194,"current_range_meters":28800,"station_id":"ce4bhph2rcd13ifvqheg","pricing_plan_id":"free"},{"bike_id":"cff10f6f-3673-4b24-8e98-ebb9bbc181ab","system_id":"levelo_inurba_marseille","lat":43.308051,"lon":5.43527,"is_reserved":false,"is_disabled":false,"rental_uris":{"android":"levelo://app?vid=cff10f6f-3673-4b24-8e98-ebb9bbc181ab","ios":"levelo://app?vid=cff10f6f-3673-4b24-8e98-ebb9bbc181ab"},"vehicle_type_id":"4","last_reported":1702534194,"current_range_meters":28800,"station_id":"ce4bhph2rcd13ifvqheg","pricing_plan_id":"free"},{"bike_id":"74aa75cc-540d-493f-9f44-d4d00cdc5059","system_id":"levelo_inurba_marseille","lat":43.26189,"lon":5.37437,"is_reserved":false,"is_disabled":false,"rental_uris":{"android":"levelo://app?vid=74aa75cc-540d-493f-9f44-d4d00cdc5059","ios":"levelo://app?vid=74aa75cc-540d-493f-9f44-d4d00cdc5059"},"vehicle_type_id":"4","last_reported":1702534194,"current_range_meters":29600,"station_id":"ce4bhgp2rcd13ifvqfc0","pricing_plan_id":"free"},{"bike_id":"4f487e36-00dc-42e1-bb73-139c0266d0c1","system_id":"levelo_inurba_marseille","lat":43.271368,"lon":5.40928,"is_reserved":false,"is_disabled":false,"rental_uris":{"android":"levelo://app?vid=4f487e36-00dc-42e1-bb73-139c0266d0c1","ios":"levelo://app?vid=4f487e36-00dc-42e1-bb73-139c0266d0c1"},"vehicle_type_id":"4","last_reported":1702534194,"current_range_meters":28800,"station_id":"ce4bhl12rcd13ifvqgf0","pricing_plan_id":"free"},{"bike_id":"d3a95d80-aad5-4f0e-bd06-ef04b82f37bb","system_id":"levelo_inurba_marseille","lat":43.26202,"lon":5.379299,"is_reserved":false,"is_disabled":false,"rental_uris":{"android":"levelo://app?vid=d3a95d80-aad5-4f0e-bd06-ef04b82f37bb","ios":"levelo://app?vid=d3a95d80-aad5-4f0e-bd06-ef04b82f37bb"},"vehicle_type_id":"4","last_reported":1702534194,"current_range_meters":8400,"station_id":"ce4bhjp2rcd13ifvqg90","pricing_plan_id":"free"},{"bike_id":"d7c68083-de0d-4032-884a-e4511850567b","system_id":"levelo_inurba_marseille","lat":43.26202,"lon":5.379299,"is_reserved":false,"is_disabled":false,"rental_uris":{"android":"levelo://app?vid=d7c68083-de0d-4032-884a-e4511850567b","ios":"levelo://app?vid=d7c68083-de0d-4032-884a-e4511850567b"},"vehicle_type_id":"4","last_reported":1702534194,"current_range_meters":31200,"station_id":"ce4bhjp2rcd13ifvqg90","pricing_plan_id":"free"},{"bike_id":"293b0fd3-65b1-42bb-807b-a77a51ee2260","system_id":"levelo_inurba_marseille","lat":43.271388,"lon":5.409269,"is_reserved":false,"is_disabled":false,"rental_uris":{"android":"levelo://app?vid=293b0fd3-65b1-42bb-807b-a77a51ee2260","ios":"levelo://app?vid=293b0fd3-65b1-42bb-807b-a77a51ee2260"},"vehicle_type_id":"4","last_reported":1702534194,"current_range_meters":30800,"station_id":"ce4bhl12rcd13ifvqgf0","pricing_plan_id":"free"},{"bike_id":"96dd960e-9e5f-4ba8-a693-12d87ec3b4a9","system_id":"levelo_inurba_marseille","lat":43.271388,"lon":5.409269,"is_reserved":false,"is_disabled":false,"rental_uris":{"android":"levelo://app?vid=96dd960e-9e5f-4ba8-a693-12d87ec3b4a9","ios":"levelo://app?vid=96dd960e-9e5f-4ba8-a693-12d87ec3b4a9"},"vehicle_type_id":"4","last_reported":1702534194,"current_range_meters":31200,"station_id":"ce4bhl12rcd13ifvqgf0","pricing_plan_id":"free"},{"bike_id":"3100a520-43ba-49b5-b022-5661f082c39e","system_id":"levelo_inurba_marseille","lat":43.271388,"lon":5.409269,"is_reserved":false,"is_disabled":false,"rental_uris":{"android":"levelo://app?vid=3100a520-43ba-49b5-b022-5661f082c39e","ios":"levelo://app?vid=3100a520-43ba-49b5-b022-5661f082c39e"},"vehicle_type_id":"4","last_reported":1702534194,"current_range_meters":24000,"station_id":"ce4bhl12rcd13ifvqgf0","pricing_plan_id":"free"},{"bike_id":"3b3ce763-90e8-4e69-820b-3004a0854853","system_id":"levelo_inurba_marseille","lat":43.267959,"lon":5.402687,"is_reserved":false,"is_disabled":false,"rental_uris":{"android":"levelo://app?vid=3b3ce763-90e8-4e69-820b-3004a0854853","ios":"levelo://app?vid=3b3ce763-90e8-4e69-820b-3004a0854853"},"vehicle_type_id":"4","last_reported":1702534194,"current_range_meters":31200,"station_id":"ce501612rcd8frsf0b60","pricing_plan_id":"free"},{"bike_id":"f66f0b2e-0865-4a33-83ab-95d1607aa62f","system_id":"levelo_inurba_marseille","lat":43.267959,"lon":5.402687,"is_reserved":false,"is_disabled":false,"rental_uris":{"android":"levelo://app?vid=f66f0b2e-0865-4a33-83ab-95d1607aa62f","ios":"levelo://app?vid=f66f0b2e-0865-4a33-83ab-95d1607aa62f"},"vehicle_type_id":"4","last_reported":1702534194,"current_range_meters":28000,"station_id":"ce501612rcd8frsf0b60","pricing_plan_id":"free"},{"bike_id":"f26caec4-39f2-4730-a41b-b6bc9b4a2be6","system_id":"levelo_inurba_marseille","lat":43.267959,"lon":5.402685,"is_reserved":false,"is_disabled":false,"rental_uris":{"android":"levelo://app?vid=f26caec4-39f2-4730-a41b-b6bc9b4a2be6","ios":"levelo://app?vid=f26caec4-39f2-4730-a41b-b6bc9b4a2be6"},"vehicle_type_id":"4","last_reported":1702534194,"current_range_meters":22000,"station_id":"ce501612rcd8frsf0b60","pricing_plan_id":"free"},{"bike_id":"237634d4-2d23-479f-935b-09427197b407","system_id":"levelo_inurba_marseille","lat":43.270893,"lon":5.409463,"is_reserved":false,"is_disabled":false,"rental_uris":{"android":"levelo://app?vid=237634d4-2d23-479f-935b-09427197b407","ios":"levelo://app?vid=237634d4-2d23-479f-935b-09427197b407"},"vehicle_type_id":"4","last_reported":1702534194,"current_range_meters":7600,"station_id":"","pricing_plan_id":"free"},{"bike_id":"f860f387-f2ce-4d8f-830e-bd8a0d08dbe2","system_id":"levelo_inurba_marseille","lat":43.298768,"lon":5.43643,"is_reserved":false,"is_disabled":false,"rental_uris":{"android":"levelo://app?vid=f860f387-f2ce-4d8f-830e-bd8a0d08dbe2","ios":"levelo://app?vid=f860f387-f2ce-4d8f-830e-bd8a0d08dbe2"},"vehicle_type_id":"4","last_reported":1702534194,"current_range_meters":26000,"station_id":"ce4bhpp2rcd13ifvqhfg","pricing_plan_id":"free"},{"bike_id":"38a4a3ac-b01c-43e0-abb4-5a012521fc8c","system_id":"levelo_inurba_marseille","lat":43.298768,"lon":5.43643,"is_reserved":false,"is_disabled":false,"rental_uris":{"android":"levelo://app?vid=38a4a3ac-b01c-43e0-abb4-5a012521fc8c","ios":"levelo://app?vid=38a4a3ac-b01c-43e0-abb4-5a012521fc8c"},"vehicle_type_id":"4","last_reported":1702534194,"current_range_meters":31200,"station_id":"ce4bhpp2rcd13ifvqhfg","pricing_plan_id":"free"},{"bike_id":"2bc19407-ebb9-491b-af73-83cc0dd47dfb","system_id":"levelo_inurba_marseille","lat":43.281548,"lon":5.42643,"is_reserved":false,"is_disabled":false,"rental_uris":{"android":"levelo://app?vid=2bc19407-ebb9-491b-af73-83cc0dd47dfb","ios":"levelo://app?vid=2bc19407-ebb9-491b-af73-83cc0dd47dfb"},"vehicle_type_id":"4","last_reported":1702534194,"current_range_meters":28000,"station_id":"ce4bhnh2rcd13ifvqgug","pricing_plan_id":"free"},{"bike_id":"9818b3a9-0aee-4725-bea5-4826825109e4","system_id":"levelo_inurba_marseille","lat":43.281548,"lon":5.42643,"is_reserved":false,"is_disabled":false,"rental_uris":{"android":"levelo://app?vid=9818b3a9-0aee-4725-bea5-4826825109e4","ios":"levelo://app?vid=9818b3a9-0aee-4725-bea5-4826825109e4"},"vehicle_type_id":"4","last_reported":1702534194,"current_range_meters":28800,"station_id":"ce4bhnh2rcd13ifvqgug","pricing_plan_id":"free"},{"bike_id":"89f090d1-02e6-4ed1-950a-6f917dc6929a","system_id":"levelo_inurba_marseille","lat":43.281548,"lon":5.42643,"is_reserved":false,"is_disabled":false,"rental_uris":{"android":"levelo://app?vid=89f090d1-02e6-4ed1-950a-6f917dc6929a","ios":"levelo://app?vid=89f090d1-02e6-4ed1-950a-6f917dc6929a"},"vehicle_type_id":"4","last_reported":1702534194,"current_range_meters":30800,"station_id":"ce4bhnh2rcd13ifvqgug","pricing_plan_id":"free"},{"bike_id":"90dd1de4-f108-4a51-959d-09fe5b551bc7","system_id":"levelo_inurba_marseille","lat":43.281548,"lon":5.42643,"is_reserved":false,"is_disabled":false,"rental_uris":{"android":"levelo://app?vid=90dd1de4-f108-4a51-959d-09fe5b551bc7","ios":"levelo://app?vid=90dd1de4-f108-4a51-959d-09fe5b551bc7"},"vehicle_type_id":"4","last_reported":1702534194,"current_range_meters":28400,"station_id":"ce4bhnh2rcd13ifvqgug","pricing_plan_id":"free"},{"bike_id":"04d2e7a8-d99a-4a76-a1d0-bb409b1c97df","system_id":"levelo_inurba_marseille","lat":43.2607,"lon":5.393983,"is_reserved":false,"is_disabled":false,"rental_uris":{"android":"levelo://app?vid=04d2e7a8-d99a-4a76-a1d0-bb409b1c97df","ios":"levelo://app?vid=04d2e7a8-d99a-4a76-a1d0-bb409b1c97df"},"vehicle_type_id":"4","last_reported":1702534194,"current_range_meters":29600,"station_id":"ce4bhh92rcd13ifvqfj0","pricing_plan_id":"free"},{"bike_id":"4230dd06-d9a7-468b-bd19-28761159c15c","system_id":"levelo_inurba_marseille","lat":43.2607,"lon":5.393983,"is_reserved":false,"is_disabled":false,"rental_uris":{"android":"levelo://app?vid=4230dd06-d9a7-468b-bd19-28761159c15c","ios":"levelo://app?vid=4230dd06-d9a7-468b-bd19-28761159c15c"},"vehicle_type_id":"4","last_reported":1702534194,"current_range_meters":30400,"station_id":"ce4bhh92rcd13ifvqfj0","pricing_plan_id":"free"},{"bike_id":"139a7b0f-d716-4a89-a8df-8cb0192f7033","system_id":"levelo_inurba_marseille","lat":43.275028,"lon":5.424534,"is_reserved":false,"is_disabled":false,"rental_uris":{"android":"levelo://app?vid=139a7b0f-d716-4a89-a8df-8cb0192f7033","ios":"levelo://app?vid=139a7b0f-d716-4a89-a8df-8cb0192f7033"},"vehicle_type_id":"4","last_reported":1702534194,"current_range_meters":27600,"station_id":"ce4bhn92rcd13ifvqgrg","pricing_plan_id":"free"},{"bike_id":"353927a9-cb05-4cbf-86bb-70fbbaad8f8f","system_id":"levelo_inurba_marseille","lat":43.258224,"lon":5.394369,"is_reserved":false,"is_disabled":false,"rental_uris":{"android":"levelo://app?vid=353927a9-cb05-4cbf-86bb-70fbbaad8f8f","ios":"levelo://app?vid=353927a9-cb05-4cbf-86bb-70fbbaad8f8f"},"vehicle_type_id":"4","last_reported":1702534194,"current_range_meters":28800,"station_id":"ce4bhip2rcd13ifvqft0","pricing_plan_id":"free"},{"bike_id":"b6a279a8-fe79-46d1-8667-535f50dd3220","system_id":"levelo_inurba_marseille","lat":43.25574,"lon":5.38236,"is_reserved":false,"is_disabled":false,"rental_uris":{"android":"levelo://app?vid=b6a279a8-fe79-46d1-8667-535f50dd3220","ios":"levelo://app?vid=b6a279a8-fe79-46d1-8667-535f50dd3220"},"vehicle_type_id":"4","last_reported":1702534194,"current_range_meters":2800,"station_id":"ce4bhih2rcd13ifvqfs0","pricing_plan_id":"free"},{"bike_id":"a70fc0a2-038b-4ab9-909f-2d34b111786a","system_id":"levelo_inurba_marseille","lat":43.258706,"lon":5.39898,"is_reserved":false,"is_disabled":false,"rental_uris":{"android":"levelo://app?vid=a70fc0a2-038b-4ab9-909f-2d34b111786a","ios":"levelo://app?vid=a70fc0a2-038b-4ab9-909f-2d34b111786a"},"vehicle_type_id":"4","last_reported":1702534194,"current_range_meters":26000,"station_id":"ce4bhl92rcd13ifvqghg","pricing_plan_id":"free"},{"bike_id":"69ff6680-51ba-4fb6-bcd3-e47fa46192a8","system_id":"levelo_inurba_marseille","lat":43.25863,"lon":5.39905,"is_reserved":false,"is_disabled":false,"rental_uris":{"android":"levelo://app?vid=69ff6680-51ba-4fb6-bcd3-e47fa46192a8","ios":"levelo://app?vid=69ff6680-51ba-4fb6-bcd3-e47fa46192a8"},"vehicle_type_id":"4","last_reported":1702534194,"current_range_meters":12400,"station_id":"ce4bhl92rcd13ifvqghg","pricing_plan_id":"free"},{"bike_id":"b3778f4b-17a5-414d-a355-5d6709a05873","system_id":"levelo_inurba_marseille","lat":43.25399,"lon":5.38275,"is_reserved":false,"is_disabled":false,"rental_uris":{"android":"levelo://app?vid=b3778f4b-17a5-414d-a355-5d6709a05873","ios":"levelo://app?vid=b3778f4b-17a5-414d-a355-5d6709a05873"},"vehicle_type_id":"4","last_reported":1702534194,"current_range_meters":22000,"station_id":"","pricing_plan_id":"free"},{"bike_id":"17984f3e-40b2-426c-b775-5a35ad8504fc","system_id":"levelo_inurba_marseille","lat":43.25926,"lon":5.40906,"is_reserved":false,"is_disabled":false,"rental_uris":{"android":"levelo://app?vid=17984f3e-40b2-426c-b775-5a35ad8504fc","ios":"levelo://app?vid=17984f3e-40b2-426c-b775-5a35ad8504fc"},"vehicle_type_id":"4","last_reported":1702534194,"current_range_meters":31200,"station_id":"ce4bhm92rcd13ifvqglg","pricing_plan_id":"free"},{"bike_id":"a8e20f3c-56a3-473c-a768-733a19fc879c","system_id":"levelo_inurba_marseille","lat":43.257079,"lon":5.411051,"is_reserved":false,"is_disabled":false,"rental_uris":{"android":"levelo://app?vid=a8e20f3c-56a3-473c-a768-733a19fc879c","ios":"levelo://app?vid=a8e20f3c-56a3-473c-a768-733a19fc879c"},"vehicle_type_id":"4","last_reported":1702534194,"current_range_meters":29200,"station_id":"ce4bhkp2rcd13ifvqgd0","pricing_plan_id":"free"},{"bike_id":"4609f49a-f338-428d-89d6-a5d7ed19bdbf","system_id":"levelo_inurba_marseille","lat":43.250045,"lon":5.389253,"is_reserved":false,"is_disabled":false,"rental_uris":{"android":"levelo://app?vid=4609f49a-f338-428d-89d6-a5d7ed19bdbf","ios":"levelo://app?vid=4609f49a-f338-428d-89d6-a5d7ed19bdbf"},"vehicle_type_id":"4","last_reported":1702534194,"current_range_meters":31200,"station_id":"ce4bhgp2rcd13ifvqfd0","pricing_plan_id":"free"},{"bike_id":"e2a5d076-ee7a-438d-a54a-4a0c0ddcdb3e","system_id":"levelo_inurba_marseille","lat":43.25001,"lon":5.38923,"is_reserved":false,"is_disabled":false,"rental_uris":{"android":"levelo://app?vid=e2a5d076-ee7a-438d-a54a-4a0c0ddcdb3e","ios":"levelo://app?vid=e2a5d076-ee7a-438d-a54a-4a0c0ddcdb3e"},"vehicle_type_id":"4","last_reported":1702534194,"current_range_meters":25600,"station_id":"ce4bhgp2rcd13ifvqfd0","pricing_plan_id":"free"},{"bike_id":"2b9e1e9c-7578-4bd4-a9ff-18548941acfc","system_id":"levelo_inurba_marseille","lat":43.2479,"lon":5.374457,"is_reserved":false,"is_disabled":false,"rental_uris":{"android":"levelo://app?vid=2b9e1e9c-7578-4bd4-a9ff-18548941acfc","ios":"levelo://app?vid=2b9e1e9c-7578-4bd4-a9ff-18548941acfc"},"vehicle_type_id":"4","last_reported":1702534194,"current_range_meters":31200,"station_id":"ce4bhgh2rcd13ifvqfb0","pricing_plan_id":"free"},{"bike_id":"74883750-c496-4779-9474-fd5991bc8d0f","system_id":"levelo_inurba_marseille","lat":43.2479,"lon":5.374457,"is_reserved":false,"is_disabled":false,"rental_uris":{"android":"levelo://app?vid=74883750-c496-4779-9474-fd5991bc8d0f","ios":"levelo://app?vid=74883750-c496-4779-9474-fd5991bc8d0f"},"vehicle_type_id":"4","last_reported":1702534194,"current_range_meters":24000,"station_id":"ce4bhgh2rcd13ifvqfb0","pricing_plan_id":"free"},{"bike_id":"24c3afac-e3f6-4ac8-b6cc-1a7bcf5555cc","system_id":"levelo_inurba_marseille","lat":43.250023,"lon":5.38919,"is_reserved":false,"is_disabled":false,"rental_uris":{"android":"levelo://app?vid=24c3afac-e3f6-4ac8-b6cc-1a7bcf5555cc","ios":"levelo://app?vid=24c3afac-e3f6-4ac8-b6cc-1a7bcf5555cc"},"vehicle_type_id":"4","last_reported":1702534194,"current_range_meters":30400,"station_id":"ce4bhgp2rcd13ifvqfd0","pricing_plan_id":"free"},{"bike_id":"5cae2298-3e03-42c1-bf24-6a636c501b6f","system_id":"levelo_inurba_marseille","lat":43.2479,"lon":5.374457,"is_reserved":false,"is_disabled":false,"rental_uris":{"android":"levelo://app?vid=5cae2298-3e03-42c1-bf24-6a636c501b6f","ios":"levelo://app?vid=5cae2298-3e03-42c1-bf24-6a636c501b6f"},"vehicle_type_id":"4","last_reported":1702534194,"current_range_meters":1600,"station_id":"ce4bhgh2rcd13ifvqfb0","pricing_plan_id":"free"},{"bike_id":"215c9b75-e235-4d68-9eee-1d1363ed0011","system_id":"levelo_inurba_marseille","lat":43.24074,"lon":5.37754,"is_reserved":false,"is_disabled":false,"rental_uris":{"android":"levelo://app?vid=215c9b75-e235-4d68-9eee-1d1363ed0011","ios":"levelo://app?vid=215c9b75-e235-4d68-9eee-1d1363ed0011"},"vehicle_type_id":"4","last_reported":1702534194,"current_range_meters":22000,"station_id":"ce4bhnp2rcd13ifvqgvg","pricing_plan_id":"free"},{"bike_id":"d1e4ffa3-0a0a-4153-b85c-71ae60bb1e49","system_id":"levelo_inurba_marseille","lat":43.24068,"lon":5.37759,"is_reserved":false,"is_disabled":false,"rental_uris":{"android":"levelo://app?vid=d1e4ffa3-0a0a-4153-b85c-71ae60bb1e49","ios":"levelo://app?vid=d1e4ffa3-0a0a-4153-b85c-71ae60bb1e49"},"vehicle_type_id":"4","last_reported":1702534194,"current_range_meters":23200,"station_id":"ce4bhnp2rcd13ifvqgvg","pricing_plan_id":"free"},{"bike_id":"9af76f9c-24ab-48cd-a884-2f55b135e3d5","system_id":"levelo_inurba_marseille","lat":43.239588,"lon":5.366238,"is_reserved":false,"is_disabled":false,"rental_uris":{"android":"levelo://app?vid=9af76f9c-24ab-48cd-a884-2f55b135e3d5","ios":"levelo://app?vid=9af76f9c-24ab-48cd-a884-2f55b135e3d5"},"vehicle_type_id":"4","last_reported":1702534194,"current_range_meters":24800,"station_id":"ce4bhi12rcd13ifvqfp0","pricing_plan_id":"free"},{"bike_id":"d2de9bcc-0a4a-4f92-a74d-96a33e79b929","system_id":"levelo_inurba_marseille","lat":43.239588,"lon":5.366238,"is_reserved":false,"is_disabled":false,"rental_uris":{"android":"levelo://app?vid=d2de9bcc-0a4a-4f92-a74d-96a33e79b929","ios":"levelo://app?vid=d2de9bcc-0a4a-4f92-a74d-96a33e79b929"},"vehicle_type_id":"4","last_reported":1702534194,"current_range_meters":31200,"station_id":"ce4bhi12rcd13ifvqfp0","pricing_plan_id":"free"},{"bike_id":"825265e1-f294-4e04-ac72-2c431a6af408","system_id":"levelo_inurba_marseille","lat":43.239588,"lon":5.366238,"is_reserved":false,"is_disabled":false,"rental_uris":{"android":"levelo://app?vid=825265e1-f294-4e04-ac72-2c431a6af408","ios":"levelo://app?vid=825265e1-f294-4e04-ac72-2c431a6af408"},"vehicle_type_id":"4","last_reported":1702534194,"current_range_meters":30400,"station_id":"ce4bhi12rcd13ifvqfp0","pricing_plan_id":"free"},{"bike_id":"ce1a6af6-9aa9-466e-8989-a8038703f282","system_id":"levelo_inurba_marseille","lat":43.239588,"lon":5.366238,"is_reserved":false,"is_disabled":false,"rental_uris":{"android":"levelo://app?vid=ce1a6af6-9aa9-466e-8989-a8038703f282","ios":"levelo://app?vid=ce1a6af6-9aa9-466e-8989-a8038703f282"},"vehicle_type_id":"4","last_reported":1702534194,"current_range_meters":22800,"station_id":"ce4bhi12rcd13ifvqfp0","pricing_plan_id":"free"},{"bike_id":"1a11021d-6d42-4b34-88b2-d10245b35442","system_id":"levelo_inurba_marseille","lat":43.239588,"lon":5.366238,"is_reserved":false,"is_disabled":false,"rental_uris":{"android":"levelo://app?vid=1a11021d-6d42-4b34-88b2-d10245b35442","ios":"levelo://app?vid=1a11021d-6d42-4b34-88b2-d10245b35442"},"vehicle_type_id":"4","last_reported":1702534194,"current_range_meters":28000,"station_id":"ce4bhi12rcd13ifvqfp0","pricing_plan_id":"free"},{"bike_id":"6319c87f-71db-4e16-88ff-997c6b137b73","system_id":"levelo_inurba_marseille","lat":43.239588,"lon":5.366238,"is_reserved":false,"is_disabled":false,"rental_uris":{"android":"levelo://app?vid=6319c87f-71db-4e16-88ff-997c6b137b73","ios":"levelo://app?vid=6319c87f-71db-4e16-88ff-997c6b137b73"},"vehicle_type_id":"4","last_reported":1702534194,"current_range_meters":30000,"station_id":"ce4bhi12rcd13ifvqfp0","pricing_plan_id":"free"},{"bike_id":"708e0811-e309-4ac8-b94d-8fd0999b98bf","system_id":"levelo_inurba_marseille","lat":43.241766,"lon":5.397144,"is_reserved":false,"is_disabled":false,"rental_uris":{"android":"levelo://app?vid=708e0811-e309-4ac8-b94d-8fd0999b98bf","ios":"levelo://app?vid=708e0811-e309-4ac8-b94d-8fd0999b98bf"},"vehicle_type_id":"4","last_reported":1702534194,"current_range_meters":17600,"station_id":"ce4bhn12rcd13ifvqgpg","pricing_plan_id":"free"},{"bike_id":"2b605040-44f0-4665-aefa-dbb05f50f601","system_id":"levelo_inurba_marseille","lat":43.231793,"lon":5.400044,"is_reserved":false,"is_disabled":false,"rental_uris":{"android":"levelo://app?vid=2b605040-44f0-4665-aefa-dbb05f50f601","ios":"levelo://app?vid=2b605040-44f0-4665-aefa-dbb05f50f601"},"vehicle_type_id":"4","last_reported":1702534194,"current_range_meters":30000,"station_id":"ce4bhn12rcd13ifvqgqg","pricing_plan_id":"free"},{"bike_id":"089568fd-e936-4c31-a2a6-ab09f2b4391b","system_id":"levelo_inurba_marseille","lat":43.231794,"lon":5.400052,"is_reserved":false,"is_disabled":false,"rental_uris":{"android":"levelo://app?vid=089568fd-e936-4c31-a2a6-ab09f2b4391b","ios":"levelo://app?vid=089568fd-e936-4c31-a2a6-ab09f2b4391b"},"vehicle_type_id":"4","last_reported":1702534194,"current_range_meters":29600,"station_id":"ce4bhn12rcd13ifvqgqg","pricing_plan_id":"free"},{"bike_id":"e9e13da5-814b-4e04-963f-f688451db439","system_id":"levelo_inurba_marseille","lat":43.231793,"lon":5.400044,"is_reserved":false,"is_disabled":false,"rental_uris":{"android":"levelo://app?vid=e9e13da5-814b-4e04-963f-f688451db439","ios":"levelo://app?vid=e9e13da5-814b-4e04-963f-f688451db439"},"vehicle_type_id":"4","last_reported":1702534194,"current_range_meters":29600,"station_id":"ce4bhn12rcd13ifvqgqg","pricing_plan_id":"free"},{"bike_id":"46e85755-7f44-4770-9e69-88e3e5d2d0d4","system_id":"levelo_inurba_marseille","lat":43.231794,"lon":5.400052,"is_reserved":false,"is_disabled":false,"rental_uris":{"android":"levelo://app?vid=46e85755-7f44-4770-9e69-88e3e5d2d0d4","ios":"levelo://app?vid=46e85755-7f44-4770-9e69-88e3e5d2d0d4"},"vehicle_type_id":"4","last_reported":1702534194,"current_range_meters":18400,"station_id":"ce4bhn12rcd13ifvqgqg","pricing_plan_id":"free"},{"bike_id":"28cf0186-3129-4448-9e8f-8fa9860365e7","system_id":"levelo_inurba_marseille","lat":43.231794,"lon":5.400052,"is_reserved":false,"is_disabled":false,"rental_uris":{"android":"levelo://app?vid=28cf0186-3129-4448-9e8f-8fa9860365e7","ios":"levelo://app?vid=28cf0186-3129-4448-9e8f-8fa9860365e7"},"vehicle_type_id":"4","last_reported":1702534194,"current_range_meters":16800,"station_id":"ce4bhn12rcd13ifvqgqg","pricing_plan_id":"free"},{"bike_id":"488995f1-5a8c-4082-a3c5-475b61d123ab","system_id":"levelo_inurba_marseille","lat":43.231793,"lon":5.400044,"is_reserved":false,"is_disabled":false,"rental_uris":{"android":"levelo://app?vid=488995f1-5a8c-4082-a3c5-475b61d123ab","ios":"levelo://app?vid=488995f1-5a8c-4082-a3c5-475b61d123ab"},"vehicle_type_id":"4","last_reported":1702534194,"current_range_meters":20800,"station_id":"ce4bhn12rcd13ifvqgqg","pricing_plan_id":"free"},{"bike_id":"7686f611-5aad-4e08-8e3f-9126375d30b8","system_id":"levelo_inurba_marseille","lat":43.231794,"lon":5.400052,"is_reserved":false,"is_disabled":false,"rental_uris":{"android":"levelo://app?vid=7686f611-5aad-4e08-8e3f-9126375d30b8","ios":"levelo://app?vid=7686f611-5aad-4e08-8e3f-9126375d30b8"},"vehicle_type_id":"4","last_reported":1702534194,"current_range_meters":23200,"station_id":"ce4bhn12rcd13ifvqgqg","pricing_plan_id":"free"},{"bike_id":"b5e4fe9e-d152-47d1-ab48-f60ff93db450","system_id":"levelo_inurba_marseille","lat":43.231793,"lon":5.400044,"is_reserved":false,"is_disabled":false,"rental_uris":{"android":"levelo://app?vid=b5e4fe9e-d152-47d1-ab48-f60ff93db450","ios":"levelo://app?vid=b5e4fe9e-d152-47d1-ab48-f60ff93db450"},"vehicle_type_id":"4","last_reported":1702534194,"current_range_meters":30400,"station_id":"ce4bhn12rcd13ifvqgqg","pricing_plan_id":"free"},{"bike_id":"c66ca343-0c27-4535-baf6-7afe3f4ae09f","system_id":"levelo_inurba_marseille","lat":43.231794,"lon":5.400052,"is_reserved":false,"is_disabled":false,"rental_uris":{"android":"levelo://app?vid=c66ca343-0c27-4535-baf6-7afe3f4ae09f","ios":"levelo://app?vid=c66ca343-0c27-4535-baf6-7afe3f4ae09f"},"vehicle_type_id":"4","last_reported":1702534194,"current_range_meters":27600,"station_id":"ce4bhn12rcd13ifvqgqg","pricing_plan_id":"free"},{"bike_id":"976b51c7-50e5-4a1e-9623-472378627f57","system_id":"levelo_inurba_marseille","lat":43.231794,"lon":5.400052,"is_reserved":false,"is_disabled":false,"rental_uris":{"android":"levelo://app?vid=976b51c7-50e5-4a1e-9623-472378627f57","ios":"levelo://app?vid=976b51c7-50e5-4a1e-9623-472378627f57"},"vehicle_type_id":"4","last_reported":1702534194,"current_range_meters":30000,"station_id":"ce4bhn12rcd13ifvqgqg","pricing_plan_id":"free"},{"bike_id":"990ccaad-9f0a-47ec-be4c-6b474a893de3","system_id":"levelo_inurba_marseille","lat":43.231793,"lon":5.400044,"is_reserved":false,"is_disabled":false,"rental_uris":{"android":"levelo://app?vid=990ccaad-9f0a-47ec-be4c-6b474a893de3","ios":"levelo://app?vid=990ccaad-9f0a-47ec-be4c-6b474a893de3"},"vehicle_type_id":"4","last_reported":1702534194,"current_range_meters":30800,"station_id":"ce4bhn12rcd13ifvqgqg","pricing_plan_id":"free"},{"bike_id":"8ee48730-c114-4df0-ba54-1702dd3d192f","system_id":"levelo_inurba_marseille","lat":43.231794,"lon":5.400052,"is_reserved":false,"is_disabled":false,"rental_uris":{"android":"levelo://app?vid=8ee48730-c114-4df0-ba54-1702dd3d192f","ios":"levelo://app?vid=8ee48730-c114-4df0-ba54-1702dd3d192f"},"vehicle_type_id":"4","last_reported":1702534194,"current_range_meters":6400,"station_id":"ce4bhn12rcd13ifvqgqg","pricing_plan_id":"free"},{"bike_id":"a70842cf-3cdd-4227-8996-9e4cdf55219b","system_id":"levelo_inurba_marseille","lat":43.231793,"lon":5.400044,"is_reserved":false,"is_disabled":false,"rental_uris":{"android":"levelo://app?vid=a70842cf-3cdd-4227-8996-9e4cdf55219b","ios":"levelo://app?vid=a70842cf-3cdd-4227-8996-9e4cdf55219b"},"vehicle_type_id":"4","last_reported":1702534194,"current_range_meters":28800,"station_id":"ce4bhn12rcd13ifvqgqg","pricing_plan_id":"free"},{"bike_id":"5d66a1e1-407e-43b7-8a1f-b43437a90341","system_id":"levelo_inurba_marseille","lat":43.231794,"lon":5.400052,"is_reserved":false,"is_disabled":false,"rental_uris":{"android":"levelo://app?vid=5d66a1e1-407e-43b7-8a1f-b43437a90341","ios":"levelo://app?vid=5d66a1e1-407e-43b7-8a1f-b43437a90341"},"vehicle_type_id":"4","last_reported":1702534194,"current_range_meters":31200,"station_id":"ce4bhn12rcd13ifvqgqg","pricing_plan_id":"free"},{"bike_id":"c7667cbb-4ebc-4ff0-8cc3-d90f64a1a989","system_id":"levelo_inurba_marseille","lat":43.231562,"lon":5.436933,"is_reserved":false,"is_disabled":false,"rental_uris":{"android":"levelo://app?vid=c7667cbb-4ebc-4ff0-8cc3-d90f64a1a989","ios":"levelo://app?vid=c7667cbb-4ebc-4ff0-8cc3-d90f64a1a989"},"vehicle_type_id":"4","last_reported":1702534194,"current_range_meters":27600,"station_id":"ce4bhmp2rcd13ifvqgog","pricing_plan_id":"free"}]}}