{"last_updated":1767322717,"ttl":60,"version":"2.2","data":{"bikes":[{"bike_id":"78ed77cb-47f0-4c82-bf8a-f958576ec953","system_id":"levelo_inurba_marseille","lat":43.28123,"lon":5.42594,"is_reserved":false,"is_disabled":false,"rental_uris":{"android":"levelo://app?vid=78ed77cb-47f0-4c82-bf8a-f958576ec953","ios":"levelo://app?vid=78ed77cb-47f0-4c82-bf8a-f958576ec953"},"vehicle_type_id":"4","last_reported":1767322717,"current_range_meters":2800,"station_id":"ce4bhnh2rcd13ifvqgug","pricing_plan_id":"cebpf4jnsgd1na2vs0mg"},{"bike_id":"1485075b-1bb5-48d2-b0e5-402379126b05","system_id":"levelo_inurba_marseille","lat":43.29867,"lon":5.38087,"is_reserved":false,"is_disabled":false,"rental_uris":{"android":"levelo://app?vid=1485075b-1bb5-48d2-b0e5-402379126b05","ios":"levelo://app?vid=1485075b-1bb5-48d2-b0e5-402379126b05"},"vehicle_type_id":"4","last_reported":1767322717,"current_range_meters":2800,"station_id":"","pricing_plan_id":"cebpf4jnsgd1na2vs0mg"},{"bike_id":"32a7b5d7-5af3-4910-b418-797951028920","system_id":"levelo_inurba_marseille","lat":43.29157,"lon":5.38507,"is_reserved":false,"is_disabled":false,"rental_uris":{"android":"levelo://app?vid=32a7b5d7-5af3-4910-b418-797951028920","ios":"levelo://app?vid=32a7b5d7-5af3-4910-b418-797951028920"},"vehicle_type_id":"4","last_reported":1767322717,"current_range_meters":2800,"station_id":"","pricing_plan_id":"cebpf4jnsgd1na2vs0mg"},{"bike_id":"4a19781c-8ab8-4459-a32c-4a5bdcabf7e6","system_id":"levelo_inurba_marseille","lat":43.225329,"lon":5.34827,"is_reserved":false,"is_disabled":false,"rental_uris":{"android":"levelo://app?vid=4a19781c-8ab8-4459-a32c-4a5bdcabf7e6","ios":"levelo://app?vid=4a19781c-8ab8-4459-a32c-4a5bdcabf7e6"},"vehicle_type_id":"4","last_reported":1767322717,"current_range_meters":2800,"station_id":"","pricing_plan_id":"cebpf4jnsgd1na2vs0mg"},{"bike_id":"b7440949-7f22-4301-98e2-5f9623b5a9cd","system_id":"levelo_inurba_marseille","lat":43.29966,"lon":5.37159,"is_reserved":false,"is_disabled":false,"rental_uris":{"android":"levelo://app?vid=b7440949-7f22-4301-98e2-5f9623b5a9cd","ios":"levelo://app?vid=b7440949-7f22-4301-98e2-5f9623b5a9cd"},"vehicle_type_id":"4","last_reported":1767322717,"current_range_meters":2800,"station_id":"ce4bgr92rcd13ifvqc7g","pricing_plan_id":"cebpf4jnsgd1na2vs0mg"},{"bike_id":"b7142933-5bc0-4beb-a4ab-a3152aae03ce","system_id":"levelo_inurba_marseille","lat":43.26045,"lon":5.41742,"is_reserved":false,"is_disabled":false,"rental_uris":{"android":"levelo://app?vid=b7142933-5bc0-4beb-a4ab-a3152aae03ce","ios":"levelo://app?vid=b7142933-5bc0-4beb-a4ab-a3152aae03ce"},"vehicle_type_id":"4","last_reported":1767322717,"current_range_meters":2800,"station_id":"","pricing_plan_id":"cebpf4jnsgd1na2vs0mg"},{"bike_id":"46f0ec81-32bc-442c-a431-ee89909da882","system_id":"levelo_inurba_marseille","lat":43.29718,"lon":5.36586,"is_reserved":false,"is_disabled":false,"rental_uris":{"android":"levelo://app?vid=46f0ec81-32bc-442c-a431-ee89909da882","ios":"levelo://app?vid=46f0ec81-32bc-442c-a431-ee89909da882"},"vehicle_type_id":"4","last_reported":1767322717,"current_range_meters":2800,"station_id":"","pricing_plan_id":"cebpf4jnsgd1na2vs0mg"},{"bike_id":"9a2077a2-cebc-468c-82f9-fecda68a9ec3","system_id":"levelo_inurba_marseille","lat":43.2949,"lon":5.40896,"is_reserved":false,"is_disabled":false,"rental_uris":{"android":"levelo://app?vid=9a2077a2-cebc-468c-82f9-fecda68a9ec3","ios":"levelo://app?vid=9a2077a2-cebc-468c-82f9-fecda68a9ec3"},"vehicle_type_id":"4","last_reported":1767322717,"current_range_meters":2800,"station_id":"","pricing_plan_id":"cebpf4jnsgd1na2vs0mg"},{"bike_id":"90dac6f2-4e58-4623-b929-4f8d06ec1c31","system_id":"levelo_inurba_marseille","lat":43.28502,"lon":5.42539,"is_reserved":false,"is_disabled":false,"rental_uris":{"android":"levelo://app?vid=90dac6f2-4e58-4623-b929-4f8d06ec1c31","ios":"levelo://app?vid=90dac6f2-4e58-4623-b929-4f8d06ec1c31"},"vehicle_type_id":"4","last_reported":1767322717,"current_range_meters":3200,"station_id":"","pricing_plan_id":"cebpf4jnsgd1na2vs0mg"},{"bike_id":"b303b43e-745e-4d8c-84d4-fb3476734707","system_id":"levelo_inurba_marseille","lat":43.24814,"lon":5.37463,"is_reserved":false,"is_disabled":false,"rental_uris":{"android":"levelo://app?vid=b303b43e-745e-4d8c-84d4-fb3476734707","ios":"levelo://app?vid=b303b43e-745e-4d8c-84d4-fb3476734707"},"vehicle_type_id":"4","last_reported":1767322717,"current_range_meters":3200,"station_id":"ce4bhgh2rcd13ifvqfb0","pricing_plan_id":"cebpf4jnsgd1na2vs0mg"},{"bike_id":"8fa53ddb-80a9-4b81-a17d-6b07554edef4","system_id":"levelo_inurba_marseille","lat":43.28466,"lon":5.48405,"is_reserved":false,"is_disabled":false,"rental_uris":{"android":"levelo://app?vid=8fa53ddb-80a9-4b81-a17d-6b07554edef4","ios":"levelo://app?vid=8fa53ddb-80a9-4b81-a17d-6b07554edef4"},"vehicle_type_id":"4","last_reported":1767322717,"current_range_meters":3200,"station_id":"st_d3svhcjqgbts73a3dn0g","pricing_plan_id":"cebpf4jnsgd1na2vs0mg"},{"bike_id":"13391d9d-76d7-4fec-b2f0-5b738a1a1639","system_id":"levelo_inurba_marseille","lat":43.24169,"lon":5.39714,"is_reserved":false,"is_disabled":false,"rental_uris":{"android":"levelo://app?vid=13391d9d-76d7-4fec-b2f0-5b738a1a1639","ios":"levelo://app?vid=13391d9d-76d7-4fec-b2f0-5b738a1a1639"},"vehicle_type_id":"4","last_reported":1767322717,"current_range_meters":3200,"station_id":"ce4bhn12rcd13ifvqgpg","pricing_plan_id":"cebpf4jnsgd1na2vs0mg"},{"bike_id":"2d4772b7-d16b-4cb4-a135-dc76b6fe23e3","system_id":"levelo_inurba_marseille","lat":43.279916,"lon":5.400158,"is_reserved":false,"is_disabled":false,"rental_uris":{"android":"levelo://app?vid=2d4772b7-d16b-4cb4-a135-dc76b6fe23e3","ios":"levelo://app?vid=2d4772b7-d16b-4cb4-a135-dc76b6fe23e3"},"vehicle_type_id":"4","last_reported":1767322717,"current_range_meters":3200,"station_id":"ce4bho92rcd13ifvqh4g","pricing_plan_id":"cebpf4jnsgd1na2vs0mg"},{"bike_id":"681c5b2e-33f5-44fa-b4bf-54d0eaea0b39","system_id":"levelo_inurba_marseille","lat":43.29387,"lon":5.3805,"is_reserved":false,"is_disabled":false,"rental_uris":{"android":"levelo://app?vid=681c5b2e-33f5-44fa-b4bf-54d0eaea0b39","ios":"levelo://app?vid=681c5b2e-33f5-44fa-b4bf-54d0eaea0b39"},"vehicle_type_id":"4","last_reported":1767322717,"current_range_meters":3200,"station_id":"","pricing_plan_id":"cebpf4jnsgd1na2vs0mg"},{"bike_id":"b0483a3e-92c3-45e1-84fc-22906381c04b","system_id":"levelo_inurba_marseille","lat":43.265807,"lon":5.390369,"is_reserved":false,"is_disabled":false,"rental_uris":{"android":"levelo://app?vid=b0483a3e-92c3-45e1-84fc-22906381c04b","ios":"levelo://app?vid=b0483a3e-92c3-45e1-84fc-22906381c04b"},"vehicle_type_id":"4","last_reported":1767322717,"current_range_meters":3200,"station_id":"ce4bhe12rcd13ifvqf30","pricing_plan_id":"cebpf4jnsgd1na2vs0mg"},{"bike_id":"f1cd3895-536b-472c-8d66-26190ec7d7d8","system_id":"levelo_inurba_marseille","lat":43.284746,"lon":5.35866,"is_reserved":false,"is_disabled":false,"rental_uris":{"android":"levelo://app?vid=f1cd3895-536b-472c-8d66-26190ec7d7d8","ios":"levelo://app?vid=f1cd3895-536b-472c-8d66-26190ec7d7d8"},"vehicle_type_id":"4","last_reported":1767322717,"current_range_meters":3200,"station_id":"ce4bhah2rcd13ifvqei0","pricing_plan_id":"cebpf4jnsgd1na2vs0mg"},{"bike_id":"5265762e-9468-4f8e-963d-e1d647f4d72d","system_id":"levelo_inurba_marseille","lat":43.337444,"lon":5.374475,"is_reserved":false,"is_disabled":false,"rental_uris":{"android":"levelo://app?vid=5265762e-9468-4f8e-963d-e1d647f4d72d","ios":"levelo://app?vid=5265762e-9468-4f8e-963d-e1d647f4d72d"},"vehicle_type_id":"4","last_reported":1767322717,"current_range_meters":3600,"station_id":"","pricing_plan_id":"cebpf4jnsgd1na2vs0mg"},{"bike_id":"e93c83d5-bafc-41ab-b80f-422d8d8d6d2a","system_id":"levelo_inurba_marseille","lat":43.26848,"lon":5.40078,"is_reserved":false,"is_disabled":false,"rental_uris":{"android":"levelo://app?vid=e93c83d5-bafc-41ab-b80f-422d8d8d6d2a","ios":"levelo://app?vid=e93c83d5-bafc-41ab-b80f-422d8d8d6d2a"},"vehicle_type_id":"4","last_reported":1767322717,"current_range_meters":3600,"station_id":"","pricing_plan_id":"cebpf4jnsgd1na2vs0mg"},{"bike_id":"650cf425-f87e-4c30-9156-354d5fef94cd","system_id":"levelo_inurba_marseille","lat":43.30123,"lon":5.36721,"is_reserved":false,"is_disabled":false,"rental_uris":{"android":"levelo://app?vid=650cf425-f87e-4c30-9156-354d5fef94cd","ios":"levelo://app?vid=650cf425-f87e-4c30-9156-354d5fef94cd"},"vehicle_type_id":"4","last_reported":1767322717,"current_range_meters":3600,"station_id":"","pricing_plan_id":"cebpf4jnsgd1na2vs0mg"},{"bike_id":"0a187aa3-537e-4db9-b109-f65fc4e03cdf","system_id":"levelo_inurba_marseille","lat":43.29014,"lon":5.40002,"is_reserved":false,"is_disabled":false,"rental_uris":{"android":"levelo://app?vid=0a187aa3-537e-4db9-b109-f65fc4e03cdf","ios":"levelo://app?vid=0a187aa3-537e-4db9-b109-f65fc4e03cdf"},"vehicle_type_id":"4","last_reported":1767322717,"current_range_meters":3600,"station_id":"ce4bh392rcd13ifvqdm0","pricing_plan_id":"cebpf4jnsgd1na2vs0mg"},{"bike_id":"2b23942c-0d5b-4193-b718-e6099c5527d3","system_id":"levelo_inurba_marseille","lat":43.23206,"lon":5.35557,"is_reserved":false,"is_disabled":false,"rental_uris":{"android":"levelo://app?vid=2b23942c-0d5b-4193-b718-e6099c5527d3","ios":"levelo://app?vid=2b23942c-0d5b-4193-b718-e6099c5527d3"},"vehicle_type_id":"4","last_reported":1767322717,"current_range_meters":4000,"station_id":"ce4bhu92rcd13ifvqi70","pricing_plan_id":"cebpf4jnsgd1na2vs0mg"},{"bike_id":"19d6c31d-125a-46cd-a802-94143ac0608f","system_id":"levelo_inurba_marseille","lat":43.29566,"lon":5.39973,"is_reserved":false,"is_disabled":false,"rental_uris":{"android":"levelo://app?vid=19d6c31d-125a-46cd-a802-94143ac0608f","ios":"levelo://app?vid=19d6c31d-125a-46cd-a802-94143ac0608f"},"vehicle_type_id":"4","last_reported":1767322717,"current_range_meters":4000,"station_id":"ce4bh312rcd13ifvqdj0","pricing_plan_id":"cebpf4jnsgd1na2vs0mg"},{"bike_id":"a3c4293b-86ee-4818-8897-fd2a17481700","system_id":"levelo_inurba_marseille","lat":43.23656,"lon":5.36758,"is_reserved":false,"is_disabled":false,"rental_uris":{"android":"levelo://app?vid=a3c4293b-86ee-4818-8897-fd2a17481700","ios":"levelo://app?vid=a3c4293b-86ee-4818-8897-fd2a17481700"},"vehicle_type_id":"4","last_reported":1767322717,"current_range_meters":4000,"station_id":"","pricing_plan_id":"cebpf4jnsgd1na2vs0mg"},{"bike_id":"00f10e68-8346-4c92-aadd-174d2f94ed8f","system_id":"levelo_inurba_marseille","lat":43.30279,"lon":5.3725,"is_reserved":false,"is_disabled":false,"rental_uris":{"android":"levelo://app?vid=00f10e68-8346-4c92-aadd-174d2f94ed8f","ios":"levelo://app?vid=00f10e68-8346-4c92-aadd-174d2f94ed8f"},"vehicle_type_id":"4","last_reported":1767322717,"current_range_meters":4000,"station_id":"","pricing_plan_id":"cebpf4jnsgd1na2vs0mg"},{"bike_id":"409af472-b6df-44d0-867f-ae2c60de00e4","system_id":"levelo_inurba_marseille","lat":43.2871,"lon":5.38692,"is_reserved":false,"is_disabled":false,"rental_uris":{"android":"levelo://app?vid=409af472-b6df-44d0-867f-ae2c60de00e4","ios":"levelo://app?vid=409af472-b6df-44d0-867f-ae2c60de00e4"},"vehicle_type_id":"4","last_reported":1767322717,"current_range_meters":4400,"station_id":"","pricing_plan_id":"cebpf4jnsgd1na2vs0mg"},{"bike_id":"6c5a0f93-b4f0-4709-9bde-46b446fc69f4","system_id":"levelo_inurba_marseille","lat":43.22567,"lon":5.41638,"is_reserved":false,"is_disabled":false,"rental_uris":{"android":"levelo://app?vid=6c5a0f93-b4f0-4709-9bde-46b446fc69f4","ios":"levelo://app?vid=6c5a0f93-b4f0-4709-9bde-46b446fc69f4"},"vehicle_type_id":"4","last_reported":1767322717,"current_range_meters":4400,"station_id":"st_d2o4gvlbi1j2169b742g","pricing_plan_id":"cebpf4jnsgd1na2vs0mg"},{"bike_id":"49998141-cac4-4767-a907-b8a3171a3b09","system_id":"levelo_inurba_marseille","lat":43.29155,"lon":5.38499,"is_reserved":false,"is_disabled":false,"rental_uris":{"android":"levelo://app?vid=49998141-cac4-4767-a907-b8a3171a3b09","ios":"levelo://app?vid=49998141-cac4-4767-a907-b8a3171a3b09"},"vehicle_type_id":"4","last_reported":1767322717,"current_range_meters":4400,"station_id":"","pricing_plan_id":"cebpf4jnsgd1na2vs0mg"},{"bike_id":"f2b9bcba-5330-4207-9f9e-28a6386d385d","system_id":"levelo_inurba_marseille","lat":43.29587,"lon":5.38101,"is_reserved":false,"is_disabled":false,"rental_uris":{"android":"levelo://app?vid=f2b9bcba-5330-4207-9f9e-28a6386d385d","ios":"levelo://app?vid=f2b9bcba-5330-4207-9f9e-28a6386d385d"},"vehicle_type_id":"4","last_reported":1767322717,"current_range_meters":4400,"station_id":"ce4bgl12rcd13ifvqbo0","pricing_plan_id":"cebpf4jnsgd1na2vs0mg"},{"bike_id":"53f9191b-e003-49c7-90f1-f6c658d01ab0","system_id":"levelo_inurba_marseille","lat":43.28993,"lon":5.35621,"is_reserved":false,"is_disabled":false,"rental_uris":{"android":"levelo://app?vid=53f9191b-e003-49c7-90f1-f6c658d01ab0","ios":"levelo://app?vid=53f9191b-e003-49c7-90f1-f6c658d01ab0"},"vehicle_type_id":"4","last_reported":1767322717,"current_range_meters":4400,"station_id":"ce4bhb92rcd13ifvqen0","pricing_plan_id":"cebpf4jnsgd1na2vs0mg"},{"bike_id":"9628c755-2c4e-4fef-bdbf-4f9f527af1c2","system_id":"levelo_inurba_marseille","lat":43.29405,"lon":5.38196,"is_reserved":false,"is_disabled":false,"rental_uris":{"android":"levelo://app?vid=9628c755-2c4e-4fef-bdbf-4f9f527af1c2","ios":"levelo://app?vid=9628c755-2c4e-4fef-bdbf-4f9f527af1c2"},"vehicle_type_id":"4","last_reported":1767322717,"current_range_meters":4400,"station_id":"","pricing_plan_id":"cebpf4jnsgd1na2vs0mg"},{"bike_id":"e26b5321-c74c-441d-a653-ab8e5ebf9c48","system_id":"levelo_inurba_marseille","lat":43.319927,"lon":5.381513,"is_reserved":false,"is_disabled":false,"rental_uris":{"android":"levelo://app?vid=e26b5321-c74c-441d-a653-ab8e5ebf9c48","ios":"levelo://app?vid=e26b5321-c74c-441d-a653-ab8e5ebf9c48"},"vehicle_type_id":"4","last_reported":1767322717,"current_range_meters":4800,"station_id":"ce4bhr12rcd13ifvqhpg","pricing_plan_id":"cebpf4jnsgd1na2vs0mg"},{"bike_id":"e091a64d-3bea-4eb4-be23-0d33eb28eebf","system_id":"levelo_inurba_marseille","lat":43.26935,"lon":5.4027,"is_reserved":false,"is_disabled":false,"rental_uris":{"android":"levelo://app?vid=e091a64d-3bea-4eb4-be23-0d33eb28eebf","ios":"levelo://app?vid=e091a64d-3bea-4eb4-be23-0d33eb28eebf"},"vehicle_type_id":"4","last_reported":1767322717,"current_range_meters":4800,"station_id":"cjm6bp8fraef2m0cb0m0","pricing_plan_id":"cebpf4jnsgd1na2vs0mg"},{"bike_id":"09994b4f-3e67-40bb-adb2-42adf4242b84","system_id":"levelo_inurba_marseille","lat":43.26202,"lon":5.37444,"is_reserved":false,"is_disabled":false,"rental_uris":{"android":"levelo://app?vid=09994b4f-3e67-40bb-adb2-42adf4242b84","ios":"levelo://app?vid=09994b4f-3e67-40bb-adb2-42adf4242b84"},"vehicle_type_id":"4","last_reported":1767322717,"current_range_meters":4800,"station_id":"ce4bhgp2rcd13ifvqfc0","pricing_plan_id":"cebpf4jnsgd1na2vs0mg"},{"bike_id":"a02fb672-5bdf-46c8-9fc1-e8fcbc8dc4d2","system_id":"levelo_inurba_marseille","lat":43.30296,"lon":5.38636,"is_reserved":false,"is_disabled":false,"rental_uris":{"android":"levelo://app?vid=a02fb672-5bdf-46c8-9fc1-e8fcbc8dc4d2","ios":"levelo://app?vid=a02fb672-5bdf-46c8-9fc1-e8fcbc8dc4d2"},"vehicle_type_id":"4","last_reported":1767322717,"current_range_meters":4800,"station_id":"","pricing_plan_id":"cebpf4jnsgd1na2vs0mg"},{"bike_id":"0c66d9fd-6c34-4a2b-97b7-03d2a909c171","system_id":"levelo_inurba_marseille","lat":43.29489,"lon":5.37385,"is_reserved":false,"is_disabled":false,"rental_uris":{"android":"levelo://app?vid=0c66d9fd-6c34-4a2b-97b7-03d2a909c171","ios":"levelo://app?vid=0c66d9fd-6c34-4a2b-97b7-03d2a909c171"},"vehicle_type_id":"4","last_reported":1767322717,"current_range_meters":4800,"station_id":"","pricing_plan_id":"cebpf4jnsgd1na2vs0mg"},{"bike_id":"9b31c737-9919-4753-902d-88d0177986b8","system_id":"levelo_inurba_marseille","lat":43.2887,"lon":5.42512,"is_reserved":false,"is_disabled":false,"rental_uris":{"android":"levelo://app?vid=9b31c737-9919-4753-902d-88d0177986b8","ios":"levelo://app?vid=9b31c737-9919-4753-902d-88d0177986b8"},"vehicle_type_id":"4","last_reported":1767322717,"current_range_meters":4800,"station_id":"st_d3b462108ojc7389ooeg","pricing_plan_id":"cebpf4jnsgd1na2vs0mg"},{"bike_id":"9e1c64d3-e7b9-49f4-8f17-a4e4b7f40d5a","system_id":"levelo_inurba_marseille","lat":43.246508,"lon":5.388951,"is_reserved":false,"is_disabled":false,"rental_uris":{"android":"levelo://app?vid=9e1c64d3-e7b9-49f4-8f17-a4e4b7f40d5a","ios":"levelo://app?vid=9e1c64d3-e7b9-49f4-8f17-a4e4b7f40d5a"},"vehicle_type_id":"4","last_reported":1767322717,"current_range_meters":4800,"station_id":"ce4bhg12rcd13ifvqf60","pricing_plan_id":"cebpf4jnsgd1na2vs0mg"},{"bike_id":"cee46e39-3687-4fee-9a5f-ffb17c75dbd2","system_id":"levelo_inurba_marseille","lat":43.26689,"lon":5.38255,"is_reserved":false,"is_disabled":false,"rental_uris":{"android":"levelo://app?vid=cee46e39-3687-4fee-9a5f-ffb17c75dbd2","ios":"levelo://app?vid=cee46e39-3687-4fee-9a5f-ffb17c75dbd2"},"vehicle_type_id":"4","last_reported":1767322717,"current_range_meters":4800,"station_id":"ce4bhg92rcd13ifvqf90","pricing_plan_id":"cebpf4jnsgd1na2vs0mg"},{"bike_id":"be8ffce0-92be-4864-a534-c85c9ae0632c","system_id":"levelo_inurba_marseille","lat":43.26236,"lon":5.37452,"is_reserved":false,"is_disabled":false,"rental_uris":{"android":"levelo://app?vid=be8ffce0-92be-4864-a534-c85c9ae0632c","ios":"levelo://app?vid=be8ffce0-92be-4864-a534-c85c9ae0632c"},"vehicle_type_id":"4","last_reported":1767322717,"current_range_meters":4800,"station_id":"","pricing_plan_id":"cebpf4jnsgd1na2vs0mg"},{"bike_id":"1e979309-d823-4aaf-b851-f1be8461cefe","system_id":"levelo_inurba_marseille","lat":43.28472,"lon":5.48397,"is_reserved":false,"is_disabled":false,"rental_uris":{"android":"levelo://app?vid=1e979309-d823-4aaf-b851-f1be8461cefe","ios":"levelo://app?vid=1e979309-d823-4aaf-b851-f1be8461cefe"},"vehicle_type_id":"4","last_reported":1767322717,"current_range_meters":4800,"station_id":"","pricing_plan_id":"cebpf4jnsgd1na2vs0mg"},{"bike_id":"3e3f7bbb-d8be-4283-a158-c83a5251eb44","system_id":"levelo_inurba_marseille","lat":43.24374,"lon":5.37095,"is_reserved":false,"is_disabled":false,"rental_uris":{"android":"levelo://app?vid=3e3f7bbb-d8be-4283-a158-c83a5251eb44","ios":"levelo://app?vid=3e3f7bbb-d8be-4283-a158-c83a5251eb44"},"vehicle_type_id":"4","last_reported":1767322717,"current_range_meters":4800,"station_id":"ce4bhhh2rcd13ifvqfk0","pricing_plan_id":"cebpf4jnsgd1na2vs0mg"},{"bike_id":"c398a130-0c0d-4ecb-9920-e3a7bb5e654c","system_id":"levelo_inurba_marseille","lat":43.30299,"lon":5.39219,"is_reserved":false,"is_disabled":false,"rental_uris":{"android":"levelo://app?vid=c398a130-0c0d-4ecb-9920-e3a7bb5e654c","ios":"levelo://app?vid=c398a130-0c0d-4ecb-9920-e3a7bb5e654c"},"vehicle_type_id":"4","last_reported":1767322717,"current_range_meters":4800,"station_id":"ce4bgkh2rcd13ifvqbk0","pricing_plan_id":"cebpf4jnsgd1na2vs0mg"},{"bike_id":"43464ac5-5123-4584-a572-085a071fa175","system_id":"levelo_inurba_marseille","lat":43.323998,"lon":5.404164,"is_reserved":false,"is_disabled":false,"rental_uris":{"android":"levelo://app?vid=43464ac5-5123-4584-a572-085a071fa175","ios":"levelo://app?vid=43464ac5-5123-4584-a572-085a071fa175"},"vehicle_type_id":"4","last_reported":1767322717,"current_range_meters":4800,"station_id":"","pricing_plan_id":"cebpf4jnsgd1na2vs0mg"},{"bike_id":"ae16ff2f-039d-4cdf-a936-aa3dd9f21d44","system_id":"levelo_inurba_marseille","lat":43.270566,"lon":5.382998,"is_reserved":false,"is_disabled":false,"rental_uris":{"android":"levelo://app?vid=ae16ff2f-039d-4cdf-a936-aa3dd9f21d44","ios":"levelo://app?vid=ae16ff2f-039d-4cdf-a936-aa3dd9f21d44"},"vehicle_type_id":"4","last_reported":1767322717,"current_range_meters":5600,"station_id":"st_d3n2fo6cfp8s73cte1j0","pricing_plan_id":"cebpf4jnsgd1na2vs0mg"},{"bike_id":"dce28840-1b59-4930-917a-12d88071d00f","system_id":"levelo_inurba_marseille","lat":43.290208,"lon":5.381355,"is_reserved":false,"is_disabled":false,"rental_uris":{"android":"levelo://app?vid=dce28840-1b59-4930-917a-12d88071d00f","ios":"levelo://app?vid=dce28840-1b59-4930-917a-12d88071d00f"},"vehicle_type_id":"4","last_reported":1767322717,"current_range_meters":5600,"station_id":"ce4bh4p2rcd13ifvqe1g","pricing_plan_id":"cebpf4jnsgd1na2vs0mg"},{"bike_id":"a8800cd5-9636-49e9-b1fe-ec75f21420d4","system_id":"levelo_inurba_marseille","lat":43.22568,"lon":5.41632,"is_reserved":false,"is_disabled":false,"rental_uris":{"android":"levelo://app?vid=a8800cd5-9636-49e9-b1fe-ec75f21420d4","ios":"levelo://app?vid=a8800cd5-9636-49e9-b1fe-ec75f21420d4"},"vehicle_type_id":"4","last_reported":1767322717,"current_range_meters":5600,"station_id":"st_d2o4gvlbi1j2169b742g","pricing_plan_id":"cebpf4jnsgd1na2vs0mg"},{"bike_id":"25f3b82f-06ca-4f8f-a005-18bf90572843","system_id":"levelo_inurba_marseille","lat":43.30193,"lon":5.36632,"is_reserved":false,"is_disabled":false,"rental_uris":{"android":"levelo://app?vid=25f3b82f-06ca-4f8f-a005-18bf90572843","ios":"levelo://app?vid=25f3b82f-06ca-4f8f-a005-18bf90572843"},"vehicle_type_id":"4","last_reported":1767322717,"current_range_meters":5600,"station_id":"ce4bgrh2rcd13ifvqc8g","pricing_plan_id":"cebpf4jnsgd1na2vs0mg"},{"bike_id":"4372a42a-b334-4e8f-9141-9b6d15dd3e03","system_id":"levelo_inurba_marseille","lat":43.284819,"lon":5.483884,"is_reserved":false,"is_disabled":false,"rental_uris":{"android":"levelo://app?vid=4372a42a-b334-4e8f-9141-9b6d15dd3e03","ios":"levelo://app?vid=4372a42a-b334-4e8f-9141-9b6d15dd3e03"},"vehicle_type_id":"4","last_reported":1767322717,"current_range_meters":5600,"station_id":"st_d3svhcjqgbts73a3dn0g","pricing_plan_id":"cebpf4jnsgd1na2vs0mg"},{"bike_id":"38dd17e8-5d80-4ad5-aa01-1fd6c367a77e","system_id":"levelo_inurba_marseille","lat":43.28348,"lon":5.3812,"is_reserved":false,"is_disabled":false,"rental_uris":{"android":"levelo://app?vid=38dd17e8-5d80-4ad5-aa01-1fd6c367a77e","ios":"levelo://app?vid=38dd17e8-5d80-4ad5-aa01-1fd6c367a77e"},"vehicle_type_id":"4","last_reported":1767322717,"current_range_meters":5600,"station_id":"ce4bh412rcd13ifvqdr0","pricing_plan_id":"cebpf4jnsgd1na2vs0mg"},{"bike_id":"9e5dafc7-f2da-4d0b-b668-e32cc043ceb4","system_id":"levelo_inurba_marseille","lat":43.28047,"lon":5.40073,"is_reserved":false,"is_disabled":false,"rental_uris":{"android":"levelo://app?vid=9e5dafc7-f2da-4d0b-b668-e32cc043ceb4","ios":"levelo://app?vid=9e5dafc7-f2da-4d0b-b668-e32cc043ceb4"},"vehicle_type_id":"4","last_reported":1767322717,"current_range_meters":5600,"station_id":"","pricing_plan_id":"cebpf4jnsgd1na2vs0mg"},{"bike_id":"2e432000-19e4-474b-acb8-4742408d8ecf","system_id":"levelo_inurba_marseille","lat":43.29572,"lon":5.38049,"is_reserved":false,"is_disabled":false,"rental_uris":{"android":"levelo://app?vid=2e432000-19e4-474b-acb8-4742408d8ecf","ios":"levelo://app?vid=2e432000-19e4-474b-acb8-4742408d8ecf"},"vehicle_type_id":"4","last_reported":1767322717,"current_range_meters":5600,"station_id":"","pricing_plan_id":"cebpf4jnsgd1na2vs0mg"},{"bike_id":"d0f568b9-b5bf-4480-b688-e3d8ab9f0c4f","system_id":"levelo_inurba_marseille","lat":43.284079,"lon":5.375095,"is_reserved":false,"is_disabled":false,"rental_uris":{"android":"levelo://app?vid=d0f568b9-b5bf-4480-b688-e3d8ab9f0c4f","ios":"levelo://app?vid=d0f568b9-b5bf-4480-b688-e3d8ab9f0c4f"},"vehicle_type_id":"4","last_reported":1767322717,"current_range_meters":5600,"station_id":"ce4bh412rcd13ifvqds0","pricing_plan_id":"cebpf4jnsgd1na2vs0mg"},{"bike_id":"15694dae-e2a2-45a6-a696-0713eb1eb9ee","system_id":"levelo_inurba_marseille","lat":43.26962,"lon":5.40201,"is_reserved":false,"is_disabled":false,"rental_uris":{"android":"levelo://app?vid=15694dae-e2a2-45a6-a696-0713eb1eb9ee","ios":"levelo://app?vid=15694dae-e2a2-45a6-a696-0713eb1eb9ee"},"vehicle_type_id":"4","last_reported":1767322717,"current_range_meters":5600,"station_id":"cjm6bp8fraef2m0cb0m0","pricing_plan_id":"cebpf4jnsgd1na2vs0mg"},{"bike_id":"73342cd1-bf95-4a1c-9f45-49ae6f0fd972","system_id":"levelo_inurba_marseille","lat":43.28853,"lon":5.42517,"is_reserved":false,"is_disabled":false,"rental_uris":{"android":"levelo://app?vid=73342cd1-bf95-4a1c-9f45-49ae6f0fd972","ios":"levelo://app?vid=73342cd1-bf95-4a1c-9f45-49ae6f0fd972"},"vehicle_type_id":"4","last_reported":1767322717,"current_range_meters":5600,"station_id":"st_d3b462108ojc7389ooeg","pricing_plan_id":"cebpf4jnsgd1na2vs0mg"},{"bike_id":"f297e1d0-d6d1-470d-832a-7cfd1d704b5f","system_id":"levelo_inurba_marseille","lat":43.269239,"lon":5.392808,"is_reserved":false,"is_disabled":false,"rental_uris":{"android":"levelo://app?vid=f297e1d0-d6d1-470d-832a-7cfd1d704b5f","ios":"levelo://app?vid=f297e1d0-d6d1-470d-832a-7cfd1d704b5f"},"vehicle_type_id":"4","last_reported":1767322717,"current_range_meters":5600,"station_id":"","pricing_plan_id":"cebpf4jnsgd1na2vs0mg"},{"bike_id":"85e2684f-90a1-433b-a695-bcf01b4dba93","system_id":"levelo_inurba_marseille","lat":43.28959,"lon":5.36628,"is_reserved":false,"is_disabled":false,"rental_uris":{"android":"levelo://app?vid=85e2684f-90a1-433b-a695-bcf01b4dba93","ios":"levelo://app?vid=85e2684f-90a1-433b-a695-bcf01b4dba93"},"vehicle_type_id":"4","last_reported":1767322717,"current_range_meters":5600,"station_id":"ce4bhap2rcd13ifvqek0","pricing_plan_id":"cebpf4jnsgd1na2vs0mg"},{"bike_id":"49a01a11-8673-492e-9b5e-b92964e4e9ba","system_id":"levelo_inurba_marseille","lat":43.28145,"lon":5.42651,"is_reserved":false,"is_disabled":false,"rental_uris":{"android":"levelo://app?vid=49a01a11-8673-492e-9b5e-b92964e4e9ba","ios":"levelo://app?vid=49a01a11-8673-492e-9b5e-b92964e4e9ba"},"vehicle_type_id":"4","last_reported":1767322717,"current_range_meters":5600,"station_id":"ce4bhnh2rcd13ifvqgug","pricing_plan_id":"cebpf4jnsgd1na2vs0mg"},{"bike_id":"dc1d1fd3-287c-4df2-89a3-973e9127dcfe","system_id":"levelo_inurba_marseille","lat":43.24608,"lon":5.4316,"is_reserved":false,"is_disabled":false,"rental_uris":{"android":"levelo://app?vid=dc1d1fd3-287c-4df2-89a3-973e9127dcfe","ios":"levelo://app?vid=dc1d1fd3-287c-4df2-89a3-973e9127dcfe"},"vehicle_type_id":"4","last_reported":1767322717,"current_range_meters":6000,"station_id":"st_d2m6c4gdas8pm72e190g","pricing_plan_id":"cebpf4jnsgd1na2vs0mg"},{"bike_id":"3282aea1-9bed-44e6-a833-eea50b551ac8","system_id":"levelo_inurba_marseille","lat":43.269373,"lon":5.389211,"is_reserved":false,"is_disabled":false,"rental_uris":{"android":"levelo://app?vid=3282aea1-9bed-44e6-a833-eea50b551ac8","ios":"levelo://app?vid=3282aea1-9bed-44e6-a833-eea50b551ac8"},"vehicle_type_id":"4","last_reported":1767322717,"current_range_meters":6000,"station_id":"ce4bhhh2rcd13ifvqfl0","pricing_plan_id":"cebpf4jnsgd1na2vs0mg"},{"bike_id":"de4d6dec-43d6-4438-b1b1-061395e51b1a","system_id":"levelo_inurba_marseille","lat":43.28482,"lon":5.38418,"is_reserved":false,"is_disabled":false,"rental_uris":{"android":"levelo://app?vid=de4d6dec-43d6-4438-b1b1-061395e51b1a","ios":"levelo://app?vid=de4d6dec-43d6-4438-b1b1-061395e51b1a"},"vehicle_type_id":"4","last_reported":1767322717,"current_range_meters":6000,"station_id":"ce4bh512rcd13ifvqe3g","pricing_plan_id":"cebpf4jnsgd1na2vs0mg"},{"bike_id":"1763bda5-9a2f-4323-b228-f44726653fd8","system_id":"levelo_inurba_marseille","lat":43.28339,"lon":5.35007,"is_reserved":false,"is_disabled":false,"rental_uris":{"android":"levelo://app?vid=1763bda5-9a2f-4323-b228-f44726653fd8","ios":"levelo://app?vid=1763bda5-9a2f-4323-b228-f44726653fd8"},"vehicle_type_id":"4","last_reported":1767322717,"current_range_meters":6000,"station_id":"ce4bhbp2rcd13ifvqerg","pricing_plan_id":"cebpf4jnsgd1na2vs0mg"},{"bike_id":"83a5ad5a-fe84-4c67-bbe0-e18050e1f9a3","system_id":"levelo_inurba_marseille","lat":43.27693,"lon":5.3888,"is_reserved":false,"is_disabled":false,"rental_uris":{"android":"levelo://app?vid=83a5ad5a-fe84-4c67-bbe0-e18050e1f9a3","ios":"levelo://app?vid=83a5ad5a-fe84-4c67-bbe0-e18050e1f9a3"},"vehicle_type_id":"4","last_reported":1767322717,"current_range_meters":6000,"station_id":"ce4bhi12rcd13ifvqfo0","pricing_plan_id":"cebpf4jnsgd1na2vs0mg"},{"bike_id":"23dd68b5-83fe-4e9e-b59e-9beb906eba90","system_id":"levelo_inurba_marseille","lat":43.284318,"lon":5.349986,"is_reserved":false,"is_disabled":false,"rental_uris":{"android":"levelo://app?vid=23dd68b5-83fe-4e9e-b59e-9beb906eba90","ios":"levelo://app?vid=23dd68b5-83fe-4e9e-b59e-9beb906eba90"},"vehicle_type_id":"4","last_reported":1767322717,"current_range_meters":6000,"station_id":"ce4bhbh2rcd13ifvqepg","pricing_plan_id":"cebpf4jnsgd1na2vs0mg"},{"bike_id":"2c146717-6981-4823-9d0b-1acd7ab247c9","system_id":"levelo_inurba_marseille","lat":43.27841,"lon":5.40683,"is_reserved":false,"is_disabled":false,"rental_uris":{"android":"levelo://app?vid=2c146717-6981-4823-9d0b-1acd7ab247c9","ios":"levelo://app?vid=2c146717-6981-4823-9d0b-1acd7ab247c9"},"vehicle_type_id":"4","last_reported":1767322717,"current_range_meters":6000,"station_id":"ce4bhnh2rcd13ifvqgtg","pricing_plan_id":"cebpf4jnsgd1na2vs0mg"},{"bike_id":"edb144c4-7934-4963-a970-3320a0ca02a8","system_id":"levelo_inurba_marseille","lat":43.21741,"lon":5.3461,"is_reserved":false,"is_disabled":false,"rental_uris":{"android":"levelo://app?vid=edb144c4-7934-4963-a970-3320a0ca02a8","ios":"levelo://app?vid=edb144c4-7934-4963-a970-3320a0ca02a8"},"vehicle_type_id":"4","last_reported":1767322717,"current_range_meters":6000,"station_id":"st_cvj6r9ubvosntc0bgbag","pricing_plan_id":"cebpf4jnsgd1na2vs0mg"},{"bike_id":"2367bd92-b99b-465d-86bd-3c80e90ce34f","system_id":"levelo_inurba_marseille","lat":43.28574,"lon":5.39931,"is_reserved":false,"is_disabled":false,"rental_uris":{"android":"levelo://app?vid=2367bd92-b99b-465d-86bd-3c80e90ce34f","ios":"levelo://app?vid=2367bd92-b99b-465d-86bd-3c80e90ce34f"},"vehicle_type_id":"4","last_reported":1767322717,"current_range_meters":6000,"station_id":"st_d4a7ka997mjs738ck50g","pricing_plan_id":"cebpf4jnsgd1na2vs0mg"},{"bike_id":"a9d7370e-c542-4ea5-b026-82659eb4c204","system_id":"levelo_inurba_marseille","lat":43.24664,"lon":5.38162,"is_reserved":false,"is_disabled":false,"rental_uris":{"android":"levelo://app?vid=a9d7370e-c542-4ea5-b026-82659eb4c204","ios":"levelo://app?vid=a9d7370e-c542-4ea5-b026-82659eb4c204"},"vehicle_type_id":"4","last_reported":1767322717,"current_range_meters":6000,"station_id":"ce4bhih2rcd13ifvqfr0","pricing_plan_id":"cebpf4jnsgd1na2vs0mg"},{"bike_id":"f9e9fd89-b7c6-4e84-90bb-2a2dc045365a","system_id":"levelo_inurba_marseille","lat":43.25917,"lon":5.40913,"is_reserved":false,"is_disabled":false,"rental_uris":{"android":"levelo://app?vid=f9e9fd89-b7c6-4e84-90bb-2a2dc045365a","ios":"levelo://app?vid=f9e9fd89-b7c6-4e84-90bb-2a2dc045365a"},"vehicle_type_id":"4","last_reported":1767322717,"current_range_meters":6000,"station_id":"ce4bhm92rcd13ifvqglg","pricing_plan_id":"cebpf4jnsgd1na2vs0mg"},{"bike_id":"ee1959ff-d4ae-4b6f-9140-6704900b9ea6","system_id":"levelo_inurba_marseille","lat":43.25093,"lon":5.39513,"is_reserved":false,"is_disabled":false,"rental_uris":{"android":"levelo://app?vid=ee1959ff-d4ae-4b6f-9140-6704900b9ea6","ios":"levelo://app?vid=ee1959ff-d4ae-4b6f-9140-6704900b9ea6"},"vehicle_type_id":"4","last_reported":1767322717,"current_range_meters":6000,"station_id":"ce4bhm12rcd13ifvqgkg","pricing_plan_id":"cebpf4jnsgd1na2vs0mg"},{"bike_id":"10082815-dbf9-4a48-b9bb-b7d9a21347fa","system_id":"levelo_inurba_marseille","lat":43.21746,"lon":5.34612,"is_reserved":false,"is_disabled":false,"rental_uris":{"android":"levelo://app?vid=10082815-dbf9-4a48-b9bb-b7d9a21347fa","ios":"levelo://app?vid=10082815-dbf9-4a48-b9bb-b7d9a21347fa"},"vehicle_type_id":"4","last_reported":1767322717,"current_range_meters":6000,"station_id":"st_cvj6r9ubvosntc0bgbag","pricing_plan_id":"cebpf4jnsgd1na2vs0mg"},{"bike_id":"b7ae8b8f-c800-4cd2-b0a1-e6db5363e1d5","system_id":"levelo_inurba_marseille","lat":43.25509,"lon":5.3765,"is_reserved":false,"is_disabled":false,"rental_uris":{"android":"levelo://app?vid=b7ae8b8f-c800-4cd2-b0a1-e6db5363e1d5","ios":"levelo://app?vid=b7ae8b8f-c800-4cd2-b0a1-e6db5363e1d5"},"vehicle_type_id":"4","last_reported":1767322717,"current_range_meters":6400,"station_id":"ce4bhh12rcd13ifvqff0","pricing_plan_id":"cebpf4jnsgd1na2vs0mg"},{"bike_id":"b5f80a1c-7345-44ae-9c2d-843287ace1f8","system_id":"levelo_inurba_marseille","lat":43.274234,"lon":5.424089,"is_reserved":false,"is_disabled":false,"rental_uris":{"android":"levelo://app?vid=b5f80a1c-7345-44ae-9c2d-843287ace1f8","ios":"levelo://app?vid=b5f80a1c-7345-44ae-9c2d-843287ace1f8"},"vehicle_type_id":"4","last_reported":1767322717,"current_range_meters":6400,"station_id":"","pricing_plan_id":"cebpf4jnsgd1na2vs0mg"},{"bike_id":"ca3f2db3-b93a-4ad8-90f8-de36e33fe8b4","system_id":"levelo_inurba_marseille","lat":43.225329,"lon":5.348285,"is_reserved":false,"is_disabled":false,"rental_uris":{"android":"levelo://app?vid=ca3f2db3-b93a-4ad8-90f8-de36e33fe8b4","ios":"levelo://app?vid=ca3f2db3-b93a-4ad8-90f8-de36e33fe8b4"},"vehicle_type_id":"4","last_reported":1767322717,"current_range_meters":6400,"station_id":"","pricing_plan_id":"cebpf4jnsgd1na2vs0mg"},{"bike_id":"86312e98-3486-4367-b50a-7a5236f4b8d0","system_id":"levelo_inurba_marseille","lat":43.27654,"lon":5.38931,"is_reserved":false,"is_disabled":false,"rental_uris":{"android":"levelo://app?vid=86312e98-3486-4367-b50a-7a5236f4b8d0","ios":"levelo://app?vid=86312e98-3486-4367-b50a-7a5236f4b8d0"},"vehicle_type_id":"4","last_reported":1767322717,"current_range_meters":6400,"station_id":"ce4bhi12rcd13ifvqfo0","pricing_plan_id":"cebpf4jnsgd1na2vs0mg"},{"bike_id":"ea5031e4-b749-4d48-ba29-71e8d8d5383b","system_id":"levelo_inurba_marseille","lat":43.26402,"lon":5.37394,"is_reserved":false,"is_disabled":false,"rental_uris":{"android":"levelo://app?vid=ea5031e4-b749-4d48-ba29-71e8d8d5383b","ios":"levelo://app?vid=ea5031e4-b749-4d48-ba29-71e8d8d5383b"},"vehicle_type_id":"4","last_reported":1767322717,"current_range_meters":6400,"station_id":"","pricing_plan_id":"cebpf4jnsgd1na2vs0mg"},{"bike_id":"0d8b64dc-d3a4-4c37-80be-c48d945a81e3","system_id":"levelo_inurba_marseille","lat":43.28489,"lon":5.38579,"is_reserved":false,"is_disabled":false,"rental_uris":{"android":"levelo://app?vid=0d8b64dc-d3a4-4c37-80be-c48d945a81e3","ios":"levelo://app?vid=0d8b64dc-d3a4-4c37-80be-c48d945a81e3"},"vehicle_type_id":"4","last_reported":1767322717,"current_range_meters":6400,"station_id":"ce4bh8p2rcd13ifvqeb0","pricing_plan_id":"cebpf4jnsgd1na2vs0mg"},{"bike_id":"d51b6a44-a05b-4deb-9147-7a5a8c9b7a34","system_id":"levelo_inurba_marseille","lat":43.29598,"lon":5.38097,"is_reserved":false,"is_disabled":false,"rental_uris":{"android":"levelo://app?vid=d51b6a44-a05b-4deb-9147-7a5a8c9b7a34","ios":"levelo://app?vid=d51b6a44-a05b-4deb-9147-7a5a8c9b7a34"},"vehicle_type_id":"4","last_reported":1767322717,"current_range_meters":6400,"station_id":"ce4bgl12rcd13ifvqbo0","pricing_plan_id":"cebpf4jnsgd1na2vs0mg"},{"bike_id":"e81f6402-b575-44f8-9405-25f53ea6d92c","system_id":"levelo_inurba_marseille","lat":43.29582,"lon":5.375198,"is_reserved":false,"is_disabled":false,"rental_uris":{"android":"levelo://app?vid=e81f6402-b575-44f8-9405-25f53ea6d92c","ios":"levelo://app?vid=e81f6402-b575-44f8-9405-25f53ea6d92c"},"vehicle_type_id":"4","last_reported":1767322717,"current_range_meters":6400,"station_id":"ce4bgh92rcd13ifvqb50","pricing_plan_id":"cebpf4jnsgd1na2vs0mg"},{"bike_id":"c616b386-869d-4a81-bbc8-a27ad66fe8e9","system_id":"levelo_inurba_marseille","lat":43.3016,"lon":5.38084,"is_reserved":false,"is_disabled":false,"rental_uris":{"android":"levelo://app?vid=c616b386-869d-4a81-bbc8-a27ad66fe8e9","ios":"levelo://app?vid=c616b386-869d-4a81-bbc8-a27ad66fe8e9"},"vehicle_type_id":"4","last_reported":1767322717,"current_range_meters":6400,"station_id":"ce4bgjp2rcd13ifvqbh0","pricing_plan_id":"cebpf4jnsgd1na2vs0mg"},{"bike_id":"ca2a4141-2d11-4724-ae9a-5df9c6e34715","system_id":"levelo_inurba_marseille","lat":43.24661,"lon":5.38871,"is_reserved":false,"is_disabled":false,"rental_uris":{"android":"levelo://app?vid=ca2a4141-2d11-4724-ae9a-5df9c6e34715","ios":"levelo://app?vid=ca2a4141-2d11-4724-ae9a-5df9c6e34715"},"vehicle_type_id":"4","last_reported":1767322717,"current_range_meters":6400,"station_id":"ce4bhg12rcd13ifvqf60","pricing_plan_id":"cebpf4jnsgd1na2vs0mg"},{"bike_id":"14a063dc-6bdd-4941-b6ce-72e2ea651aa8","system_id":"levelo_inurba_marseille","lat":43.28222,"lon":5.39011,"is_reserved":false,"is_disabled":false,"rental_uris":{"android":"levelo://app?vid=14a063dc-6bdd-4941-b6ce-72e2ea651aa8","ios":"levelo://app?vid=14a063dc-6bdd-4941-b6ce-72e2ea651aa8"},"vehicle_type_id":"4","last_reported":1767322717,"current_range_meters":6400,"station_id":"ce4bhn92rcd13ifvqgsg","pricing_plan_id":"cebpf4jnsgd1na2vs0mg"},{"bike_id":"84e86dfc-b61a-42c1-93b8-a112038f791b","system_id":"levelo_inurba_marseille","lat":43.28614,"lon":5.35108,"is_reserved":false,"is_disabled":false,"rental_uris":{"android":"levelo://app?vid=84e86dfc-b61a-42c1-93b8-a112038f791b","ios":"levelo://app?vid=84e86dfc-b61a-42c1-93b8-a112038f791b"},"vehicle_type_id":"4","last_reported":1767322717,"current_range_meters":6400,"station_id":"ce4bhch2rcd13ifvqeug","pricing_plan_id":"cebpf4jnsgd1na2vs0mg"},{"bike_id":"f27745bc-a703-4c7b-b0b1-1028a16be233","system_id":"levelo_inurba_marseille","lat":43.295987,"lon":5.381077,"is_reserved":false,"is_disabled":false,"rental_uris":{"android":"levelo://app?vid=f27745bc-a703-4c7b-b0b1-1028a16be233","ios":"levelo://app?vid=f27745bc-a703-4c7b-b0b1-1028a16be233"},"vehicle_type_id":"4","last_reported":1767322717,"current_range_meters":6400,"station_id":"ce4bgl12rcd13ifvqbo0","pricing_plan_id":"cebpf4jnsgd1na2vs0mg"},{"bike_id":"8f36adfd-9702-444f-9761-701cb7e1083e","system_id":"levelo_inurba_marseille","lat":43.289493,"lon":5.363855,"is_reserved":false,"is_disabled":false,"rental_uris":{"android":"levelo://app?vid=8f36adfd-9702-444f-9761-701cb7e1083e","ios":"levelo://app?vid=8f36adfd-9702-444f-9761-701cb7e1083e"},"vehicle_type_id":"4","last_reported":1767322717,"current_range_meters":6800,"station_id":"ce4bhc92rcd13ifvqetg","pricing_plan_id":"cebpf4jnsgd1na2vs0mg"},{"bike_id":"a89fcd65-3d18-45df-add8-bd4009ee6f38","system_id":"levelo_inurba_marseille","lat":43.27364,"lon":5.36261,"is_reserved":false,"is_disabled":false,"rental_uris":{"android":"levelo://app?vid=a89fcd65-3d18-45df-add8-bd4009ee6f38","ios":"levelo://app?vid=a89fcd65-3d18-45df-add8-bd4009ee6f38"},"vehicle_type_id":"4","last_reported":1767322717,"current_range_meters":6800,"station_id":"ce4bhbh2rcd13ifvqeo0","pricing_plan_id":"cebpf4jnsgd1na2vs0mg"},{"bike_id":"15535b78-92b9-46c7-ac4c-9d282c3dd513","system_id":"levelo_inurba_marseille","lat":43.28697,"lon":5.40019,"is_reserved":false,"is_disabled":true,"rental_uris":{"android":"levelo://app?vid=15535b78-92b9-46c7-ac4c-9d282c3dd513","ios":"levelo://app?vid=15535b78-92b9-46c7-ac4c-9d282c3dd513"},"vehicle_type_id":"4","last_reported":1767322717,"current_range_meters":6800,"station_id":"ce4bho92rcd13ifvqh3g","pricing_plan_id":"cebpf4jnsgd1na2vs0mg"},{"bike_id":"7f8bc2f4-3256-4176-a803-fa7e148de4c6","system_id":"levelo_inurba_marseille","lat":43.24363,"lon":5.40857,"is_reserved":false,"is_disabled":false,"rental_uris":{"android":"levelo://app?vid=7f8bc2f4-3256-4176-a803-fa7e148de4c6","ios":"levelo://app?vid=7f8bc2f4-3256-4176-a803-fa7e148de4c6"},"vehicle_type_id":"4","last_reported":1767322717,"current_range_meters":6800,"station_id":"","pricing_plan_id":"cebpf4jnsgd1na2vs0mg"},{"bike_id":"71feabac-18bb-4c38-9f1c-553d18ed10d6","system_id":"levelo_inurba_marseille","lat":43.29603,"lon":5.37178,"is_reserved":false,"is_disabled":false,"rental_uris":{"android":"levelo://app?vid=71feabac-18bb-4c38-9f1c-553d18ed10d6","ios":"levelo://app?vid=71feabac-18bb-4c38-9f1c-553d18ed10d6"},"vehicle_type_id":"4","last_reported":1767322717,"current_range_meters":6800,"station_id":"ce4bgnh2rcd13ifvqc0g","pricing_plan_id":"cebpf4jnsgd1na2vs0mg"},{"bike_id":"d49fd2c9-dca5-4864-87e0-359520dd27b8","system_id":"levelo_inurba_marseille","lat":43.261363,"lon":5.397456,"is_reserved":false,"is_disabled":false,"rental_uris":{"android":"levelo://app?vid=d49fd2c9-dca5-4864-87e0-359520dd27b8","ios":"levelo://app?vid=d49fd2c9-dca5-4864-87e0-359520dd27b8"},"vehicle_type_id":"4","last_reported":1767322717,"current_range_meters":6800,"station_id":"","pricing_plan_id":"cebpf4jnsgd1na2vs0mg"},{"bike_id":"9df51a33-d8d1-4b42-9888-b57cc9ef08bc","system_id":"levelo_inurba_marseille","lat":43.29486,"lon":5.38748,"is_reserved":false,"is_disabled":false,"rental_uris":{"android":"levelo://app?vid=9df51a33-d8d1-4b42-9888-b57cc9ef08bc","ios":"levelo://app?vid=9df51a33-d8d1-4b42-9888-b57cc9ef08bc"},"vehicle_type_id":"4","last_reported":1767322717,"current_range_meters":6800,"station_id":"","pricing_plan_id":"cebpf4jnsgd1na2vs0mg"},{"bike_id":"e369a9a2-eda3-46c0-81f1-34af3ed43d1e","system_id":"levelo_inurba_marseille","lat":43.305971,"lon":5.393579,"is_reserved":false,"is_disabled":false,"rental_uris":{"android":"levelo://app?vid=e369a9a2-eda3-46c0-81f1-34af3ed43d1e","ios":"levelo://app?vid=e369a9a2-eda3-46c0-81f1-34af3ed43d1e"},"vehicle_type_id":"4","last_reported":1767322717,"current_range_meters":6800,"station_id":"ce4bh0p2rcd13ifvqd80","pricing_plan_id":"cebpf4jnsgd1na2vs0mg"},{"bike_id":"2350a43b-549f-425a-a2e1-d8a5699a4cb1","system_id":"levelo_inurba_marseille","lat":43.304858,"lon":5.378899,"is_reserved":false,"is_disabled":false,"rental_uris":{"android":"levelo://app?vid=2350a43b-549f-425a-a2e1-d8a5699a4cb1","ios":"levelo://app?vid=2350a43b-549f-425a-a2e1-d8a5699a4cb1"},"vehicle_type_id":"4","last_reported":1767322717,"current_range_meters":7200,"station_id":"ce4bgup2rcd13ifvqcn0","pricing_plan_id":"cebpf4jnsgd1na2vs0mg"},{"bike_id":"f86a25f1-ea9e-4c4d-8fca-5f1887ab98fa","system_id":"levelo_inurba_marseille","lat":43.2846,"lon":5.38478,"is_reserved":false,"is_disabled":false,"rental_uris":{"android":"levelo://app?vid=f86a25f1-ea9e-4c4d-8fca-5f1887ab98fa","ios":"levelo://app?vid=f86a25f1-ea9e-4c4d-8fca-5f1887ab98fa"},"vehicle_type_id":"4","last_reported":1767322717,"current_range_meters":7200,"station_id":"","pricing_plan_id":"cebpf4jnsgd1na2vs0mg"},{"bike_id":"02382ba1-c53a-4d54-ae09-ac85bbe6d34b","system_id":"levelo_inurba_marseille","lat":43.29303,"lon":5.37455,"is_reserved":false,"is_disabled":false,"rental_uris":{"android":"levelo://app?vid=02382ba1-c53a-4d54-ae09-ac85bbe6d34b","ios":"levelo://app?vid=02382ba1-c53a-4d54-ae09-ac85bbe6d34b"},"vehicle_type_id":"4","last_reported":1767322717,"current_range_meters":7200,"station_id":"ce4bgi12rcd13ifvqb70","pricing_plan_id":"cebpf4jnsgd1na2vs0mg"},{"bike_id":"dc9feb7e-742c-4c15-83bb-7db4fa4848d4","system_id":"levelo_inurba_marseille","lat":43.32644,"lon":5.38898,"is_reserved":false,"is_disabled":false,"rental_uris":{"android":"levelo://app?vid=dc9feb7e-742c-4c15-83bb-7db4fa4848d4","ios":"levelo://app?vid=dc9feb7e-742c-4c15-83bb-7db4fa4848d4"},"vehicle_type_id":"4","last_reported":1767322717,"current_range_meters":7200,"station_id":"","pricing_plan_id":"cebpf4jnsgd1na2vs0mg"},{"bike_id":"bab8f5ce-6ea3-45fd-aa21-29b68816a77a","system_id":"levelo_inurba_marseille","lat":43.264953,"lon":5.395403,"is_reserved":false,"is_disabled":false,"rental_uris":{"android":"levelo://app?vid=bab8f5ce-6ea3-45fd-aa21-29b68816a77a","ios":"levelo://app?vid=bab8f5ce-6ea3-45fd-aa21-29b68816a77a"},"vehicle_type_id":"4","last_reported":1767322717,"current_range_meters":7200,"station_id":"ce4bhi12rcd13ifvqfq0","pricing_plan_id":"cebpf4jnsgd1na2vs0mg"},{"bike_id":"a37546a5-5ed0-437a-8b08-467eedf47722","system_id":"levelo_inurba_marseille","lat":43.245444,"lon":5.395208,"is_reserved":false,"is_disabled":false,"rental_uris":{"android":"levelo://app?vid=a37546a5-5ed0-437a-8b08-467eedf47722","ios":"levelo://app?vid=a37546a5-5ed0-437a-8b08-467eedf47722"},"vehicle_type_id":"4","last_reported":1767322717,"current_range_meters":7200,"station_id":"ce4bhlp2rcd13ifvqgjg","pricing_plan_id":"cebpf4jnsgd1na2vs0mg"},{"bike_id":"c033d2f6-a6cb-4fd7-a961-50f17588c0a8","system_id":"levelo_inurba_marseille","lat":43.28196,"lon":5.39061,"is_reserved":false,"is_disabled":false,"rental_uris":{"android":"levelo://app?vid=c033d2f6-a6cb-4fd7-a961-50f17588c0a8","ios":"levelo://app?vid=c033d2f6-a6cb-4fd7-a961-50f17588c0a8"},"vehicle_type_id":"4","last_reported":1767322717,"current_range_meters":7200,"station_id":"ce4bhn92rcd13ifvqgsg","pricing_plan_id":"cebpf4jnsgd1na2vs0mg"},{"bike_id":"81586eb2-5997-4a7f-910d-f12ada7984c8","system_id":"levelo_inurba_marseille","lat":43.29893,"lon":5.38606,"is_reserved":false,"is_disabled":false,"rental_uris":{"android":"levelo://app?vid=81586eb2-5997-4a7f-910d-f12ada7984c8","ios":"levelo://app?vid=81586eb2-5997-4a7f-910d-f12ada7984c8"},"vehicle_type_id":"4","last_reported":1767322717,"current_range_meters":7200,"station_id":"","pricing_plan_id":"cebpf4jnsgd1na2vs0mg"},{"bike_id":"ead7dd8d-77ea-4b67-b1fb-95ddc6c818a5","system_id":"levelo_inurba_marseille","lat":43.31392,"lon":5.38093,"is_reserved":false,"is_disabled":false,"rental_uris":{"android":"levelo://app?vid=ead7dd8d-77ea-4b67-b1fb-95ddc6c818a5","ios":"levelo://app?vid=ead7dd8d-77ea-4b67-b1fb-95ddc6c818a5"},"vehicle_type_id":"4","last_reported":1767322717,"current_range_meters":7200,"station_id":"","pricing_plan_id":"cebpf4jnsgd1na2vs0mg"},{"bike_id":"48cee1df-16aa-460a-ae1f-9b5bc1595f79","system_id":"levelo_inurba_marseille","lat":43.229425,"lon":5.353853,"is_reserved":false,"is_disabled":false,"rental_uris":{"android":"levelo://app?vid=48cee1df-16aa-460a-ae1f-9b5bc1595f79","ios":"levelo://app?vid=48cee1df-16aa-460a-ae1f-9b5bc1595f79"},"vehicle_type_id":"4","last_reported":1767322717,"current_range_meters":7200,"station_id":"cpo3532slgdg3j2ikp40","pricing_plan_id":"cebpf4jnsgd1na2vs0mg"},{"bike_id":"59b9f952-f261-4669-9bf2-ec09f3352df3","system_id":"levelo_inurba_marseille","lat":43.270737,"lon":5.422615,"is_reserved":false,"is_disabled":false,"rental_uris":{"android":"levelo://app?vid=59b9f952-f261-4669-9bf2-ec09f3352df3","ios":"levelo://app?vid=59b9f952-f261-4669-9bf2-ec09f3352df3"},"vehicle_type_id":"4","last_reported":1767322717,"current_range_meters":7200,"station_id":"ce4bhk92rcd13ifvqgb0","pricing_plan_id":"cebpf4jnsgd1na2vs0mg"},{"bike_id":"f489c472-ee6d-42dd-8be8-3a531cfd3f02","system_id":"levelo_inurba_marseille","lat":43.28833,"lon":5.45484,"is_reserved":false,"is_disabled":false,"rental_uris":{"android":"levelo://app?vid=f489c472-ee6d-42dd-8be8-3a531cfd3f02","ios":"levelo://app?vid=f489c472-ee6d-42dd-8be8-3a531cfd3f02"},"vehicle_type_id":"4","last_reported":1767322717,"current_range_meters":7200,"station_id":"","pricing_plan_id":"cebpf4jnsgd1na2vs0mg"},{"bike_id":"3726ff5a-3e12-42b0-b68f-b0200516c587","system_id":"levelo_inurba_marseille","lat":43.21199,"lon":5.35084,"is_reserved":false,"is_disabled":false,"rental_uris":{"android":"levelo://app?vid=3726ff5a-3e12-42b0-b68f-b0200516c587","ios":"levelo://app?vid=3726ff5a-3e12-42b0-b68f-b0200516c587"},"vehicle_type_id":"4","last_reported":1767322717,"current_range_meters":7200,"station_id":"st_cvj6sg6p6f1abm77japg","pricing_plan_id":"cebpf4jnsgd1na2vs0mg"},{"bike_id":"bd706bad-1cdd-46da-9aa9-c9b2e6f3f4f0","system_id":"levelo_inurba_marseille","lat":43.26506,"lon":5.39545,"is_reserved":false,"is_disabled":false,"rental_uris":{"android":"levelo://app?vid=bd706bad-1cdd-46da-9aa9-c9b2e6f3f4f0","ios":"levelo://app?vid=bd706bad-1cdd-46da-9aa9-c9b2e6f3f4f0"},"vehicle_type_id":"4","last_reported":1767322717,"current_range_meters":7200,"station_id":"ce4bhi12rcd13ifvqfq0","pricing_plan_id":"cebpf4jnsgd1na2vs0mg"},{"bike_id":"5294767e-dd69-4945-8c8e-03dd74e904a7","system_id":"levelo_inurba_marseille","lat":43.23062,"lon":5.35496,"is_reserved":false,"is_disabled":false,"rental_uris":{"android":"levelo://app?vid=5294767e-dd69-4945-8c8e-03dd74e904a7","ios":"levelo://app?vid=5294767e-dd69-4945-8c8e-03dd74e904a7"},"vehicle_type_id":"4","last_reported":1767322717,"current_range_meters":8000,"station_id":"cpo3342slgdg3j2ifvpg","pricing_plan_id":"cebpf4jnsgd1na2vs0mg"},{"bike_id":"5fb6044e-9e86-4cd7-8369-9dae8661f801","system_id":"levelo_inurba_marseille","lat":43.26555,"lon":5.40333,"is_reserved":false,"is_disabled":false,"rental_uris":{"android":"levelo://app?vid=5fb6044e-9e86-4cd7-8369-9dae8661f801","ios":"levelo://app?vid=5fb6044e-9e86-4cd7-8369-9dae8661f801"},"vehicle_type_id":"4","last_reported":1767322717,"current_range_meters":8000,"station_id":"ce4bhmp2rcd13ifvqgng","pricing_plan_id":"cebpf4jnsgd1na2vs0mg"},{"bike_id":"d4c6dc95-f402-4619-8161-a90cb01a834e","system_id":"levelo_inurba_marseille","lat":43.28878,"lon":5.42503,"is_reserved":false,"is_disabled":false,"rental_uris":{"android":"levelo://app?vid=d4c6dc95-f402-4619-8161-a90cb01a834e","ios":"levelo://app?vid=d4c6dc95-f402-4619-8161-a90cb01a834e"},"vehicle_type_id":"4","last_reported":1767322717,"current_range_meters":8000,"station_id":"st_d3b462108ojc7389ooeg","pricing_plan_id":"cebpf4jnsgd1na2vs0mg"},{"bike_id":"057c9c8d-777a-4461-a92a-6845c43c397c","system_id":"levelo_inurba_marseille","lat":43.29475,"lon":5.39364,"is_reserved":false,"is_disabled":false,"rental_uris":{"android":"levelo://app?vid=057c9c8d-777a-4461-a92a-6845c43c397c","ios":"levelo://app?vid=057c9c8d-777a-4461-a92a-6845c43c397c"},"vehicle_type_id":"4","last_reported":1767322717,"current_range_meters":8000,"station_id":"","pricing_plan_id":"cebpf4jnsgd1na2vs0mg"},{"bike_id":"ab98afa8-4907-4b9f-b6c6-75e71a064cde","system_id":"levelo_inurba_marseille","lat":43.2572,"lon":5.41103,"is_reserved":false,"is_disabled":false,"rental_uris":{"android":"levelo://app?vid=ab98afa8-4907-4b9f-b6c6-75e71a064cde","ios":"levelo://app?vid=ab98afa8-4907-4b9f-b6c6-75e71a064cde"},"vehicle_type_id":"4","last_reported":1767322717,"current_range_meters":8000,"station_id":"ce4bhkp2rcd13ifvqgd0","pricing_plan_id":"cebpf4jnsgd1na2vs0mg"},{"bike_id":"a0873333-ecdf-4ac4-985a-045fb2238f0a","system_id":"levelo_inurba_marseille","lat":43.28543,"lon":5.39482,"is_reserved":false,"is_disabled":false,"rental_uris":{"android":"levelo://app?vid=a0873333-ecdf-4ac4-985a-045fb2238f0a","ios":"levelo://app?vid=a0873333-ecdf-4ac4-985a-045fb2238f0a"},"vehicle_type_id":"4","last_reported":1767322717,"current_range_meters":8000,"station_id":"ce4bh292rcd13ifvqdg0","pricing_plan_id":"cebpf4jnsgd1na2vs0mg"},{"bike_id":"c70225d4-a502-4469-93b2-aecf70c63654","system_id":"levelo_inurba_marseille","lat":43.25545,"lon":5.38245,"is_reserved":false,"is_disabled":false,"rental_uris":{"android":"levelo://app?vid=c70225d4-a502-4469-93b2-aecf70c63654","ios":"levelo://app?vid=c70225d4-a502-4469-93b2-aecf70c63654"},"vehicle_type_id":"4","last_reported":1767322717,"current_range_meters":8000,"station_id":"ce4bhih2rcd13ifvqfs0","pricing_plan_id":"cebpf4jnsgd1na2vs0mg"},{"bike_id":"ac2c9016-1962-4bb7-98b8-6b51b62c6fe0","system_id":"levelo_inurba_marseille","lat":43.30109,"lon":5.39066,"is_reserved":false,"is_disabled":false,"rental_uris":{"android":"levelo://app?vid=ac2c9016-1962-4bb7-98b8-6b51b62c6fe0","ios":"levelo://app?vid=ac2c9016-1962-4bb7-98b8-6b51b62c6fe0"},"vehicle_type_id":"4","last_reported":1767322717,"current_range_meters":8000,"station_id":"ce4bh192rcd13ifvqdb0","pricing_plan_id":"cebpf4jnsgd1na2vs0mg"},{"bike_id":"6d39cb04-ab3b-45c1-90d7-0c7a54998c4a","system_id":"levelo_inurba_marseille","lat":43.278913,"lon":5.380114,"is_reserved":false,"is_disabled":false,"rental_uris":{"android":"levelo://app?vid=6d39cb04-ab3b-45c1-90d7-0c7a54998c4a","ios":"levelo://app?vid=6d39cb04-ab3b-45c1-90d7-0c7a54998c4a"},"vehicle_type_id":"4","last_reported":1767322717,"current_range_meters":8000,"station_id":"ce4bhf92rcd13ifvqf50","pricing_plan_id":"cebpf4jnsgd1na2vs0mg"},{"bike_id":"406f64a0-da6e-49db-a7ac-d7a777f3175c","system_id":"levelo_inurba_marseille","lat":43.27359,"lon":5.39135,"is_reserved":false,"is_disabled":false,"rental_uris":{"android":"levelo://app?vid=406f64a0-da6e-49db-a7ac-d7a777f3175c","ios":"levelo://app?vid=406f64a0-da6e-49db-a7ac-d7a777f3175c"},"vehicle_type_id":"4","last_reported":1767322717,"current_range_meters":8000,"station_id":"","pricing_plan_id":"cebpf4jnsgd1na2vs0mg"},{"bike_id":"152a1365-ee25-421d-85dd-2a6424d5b6f1","system_id":"levelo_inurba_marseille","lat":43.29995,"lon":5.37155,"is_reserved":false,"is_disabled":false,"rental_uris":{"android":"levelo://app?vid=152a1365-ee25-421d-85dd-2a6424d5b6f1","ios":"levelo://app?vid=152a1365-ee25-421d-85dd-2a6424d5b6f1"},"vehicle_type_id":"4","last_reported":1767322717,"current_range_meters":8000,"station_id":"ce4bgr92rcd13ifvqc7g","pricing_plan_id":"cebpf4jnsgd1na2vs0mg"},{"bike_id":"da51a696-5705-48cd-a174-f63e3c15d9de","system_id":"levelo_inurba_marseille","lat":43.28857,"lon":5.42525,"is_reserved":false,"is_disabled":false,"rental_uris":{"android":"levelo://app?vid=da51a696-5705-48cd-a174-f63e3c15d9de","ios":"levelo://app?vid=da51a696-5705-48cd-a174-f63e3c15d9de"},"vehicle_type_id":"4","last_reported":1767322717,"current_range_meters":8000,"station_id":"st_d3b462108ojc7389ooeg","pricing_plan_id":"cebpf4jnsgd1na2vs0mg"},{"bike_id":"e9b6cad5-a889-4b89-b13c-262634b6f2ab","system_id":"levelo_inurba_marseille","lat":43.2865,"lon":5.38697,"is_reserved":false,"is_disabled":false,"rental_uris":{"android":"levelo://app?vid=e9b6cad5-a889-4b89-b13c-262634b6f2ab","ios":"levelo://app?vid=e9b6cad5-a889-4b89-b13c-262634b6f2ab"},"vehicle_type_id":"4","last_reported":1767322717,"current_range_meters":8000,"station_id":"ce4bh492rcd13ifvqdug","pricing_plan_id":"cebpf4jnsgd1na2vs0mg"},{"bike_id":"bebec6bc-9df3-406e-90bc-396ce2b3b0b3","system_id":"levelo_inurba_marseille","lat":43.26374,"lon":5.37414,"is_reserved":false,"is_disabled":false,"rental_uris":{"android":"levelo://app?vid=bebec6bc-9df3-406e-90bc-396ce2b3b0b3","ios":"levelo://app?vid=bebec6bc-9df3-406e-90bc-396ce2b3b0b3"},"vehicle_type_id":"4","last_reported":1767322717,"current_range_meters":8000,"station_id":"","pricing_plan_id":"cebpf4jnsgd1na2vs0mg"},{"bike_id":"b7c65842-363d-43c4-92b2-529d07ea43d3","system_id":"levelo_inurba_marseille","lat":43.2584,"lon":5.39826,"is_reserved":false,"is_disabled":false,"rental_uris":{"android":"levelo://app?vid=b7c65842-363d-43c4-92b2-529d07ea43d3","ios":"levelo://app?vid=b7c65842-363d-43c4-92b2-529d07ea43d3"},"vehicle_type_id":"4","last_reported":1767322717,"current_range_meters":8400,"station_id":"","pricing_plan_id":"cebpf4jnsgd1na2vs0mg"},{"bike_id":"53924fd8-5777-4f20-9ea2-dc16a02b5d55","system_id":"levelo_inurba_marseille","lat":43.2662,"lon":5.37481,"is_reserved":false,"is_disabled":false,"rental_uris":{"android":"levelo://app?vid=53924fd8-5777-4f20-9ea2-dc16a02b5d55","ios":"levelo://app?vid=53924fd8-5777-4f20-9ea2-dc16a02b5d55"},"vehicle_type_id":"4","last_reported":1767322717,"current_range_meters":8400,"station_id":"","pricing_plan_id":"cebpf4jnsgd1na2vs0mg"},{"bike_id":"62bbb4f8-cd37-4703-914d-4c2cbb4345e1","system_id":"levelo_inurba_marseille","lat":43.28066,"lon":5.39653,"is_reserved":false,"is_disabled":false,"rental_uris":{"android":"levelo://app?vid=62bbb4f8-cd37-4703-914d-4c2cbb4345e1","ios":"levelo://app?vid=62bbb4f8-cd37-4703-914d-4c2cbb4345e1"},"vehicle_type_id":"4","last_reported":1767322717,"current_range_meters":8400,"station_id":"ce4bho12rcd13ifvqh2g","pricing_plan_id":"cebpf4jnsgd1na2vs0mg"},{"bike_id":"8952f09a-1324-40c7-a75c-442216df4446","system_id":"levelo_inurba_marseille","lat":43.27921,"lon":5.39576,"is_reserved":false,"is_disabled":false,"rental_uris":{"android":"levelo://app?vid=8952f09a-1324-40c7-a75c-442216df4446","ios":"levelo://app?vid=8952f09a-1324-40c7-a75c-442216df4446"},"vehicle_type_id":"4","last_reported":1767322717,"current_range_meters":8400,"station_id":"ce4bhf92rcd13ifvqf40","pricing_plan_id":"cebpf4jnsgd1na2vs0mg"},{"bike_id":"31074345-6b13-45ef-b79c-26566c89aa06","system_id":"levelo_inurba_marseille","lat":43.310507,"lon":5.371718,"is_reserved":false,"is_disabled":false,"rental_uris":{"android":"levelo://app?vid=31074345-6b13-45ef-b79c-26566c89aa06","ios":"levelo://app?vid=31074345-6b13-45ef-b79c-26566c89aa06"},"vehicle_type_id":"4","last_reported":1767322717,"current_range_meters":8400,"station_id":"st_d4kl2rp97mjs73e7tdfg","pricing_plan_id":"cebpf4jnsgd1na2vs0mg"},{"bike_id":"92e287f4-e88c-4138-a6d0-40d5e3d3b65d","system_id":"levelo_inurba_marseille","lat":43.29876,"lon":5.389,"is_reserved":false,"is_disabled":false,"rental_uris":{"android":"levelo://app?vid=92e287f4-e88c-4138-a6d0-40d5e3d3b65d","ios":"levelo://app?vid=92e287f4-e88c-4138-a6d0-40d5e3d3b65d"},"vehicle_type_id":"4","last_reported":1767322717,"current_range_meters":8400,"station_id":"ce4bh392rcd13ifvqdl0","pricing_plan_id":"cebpf4jnsgd1na2vs0mg"},{"bike_id":"7f8c1213-60b7-4367-a2bf-21350ef37308","system_id":"levelo_inurba_marseille","lat":43.27375,"lon":5.36259,"is_reserved":false,"is_disabled":true,"rental_uris":{"android":"levelo://app?vid=7f8c1213-60b7-4367-a2bf-21350ef37308","ios":"levelo://app?vid=7f8c1213-60b7-4367-a2bf-21350ef37308"},"vehicle_type_id":"4","last_reported":1767322717,"current_range_meters":8400,"station_id":"ce4bhbh2rcd13ifvqeo0","pricing_plan_id":"cebpf4jnsgd1na2vs0mg"},{"bike_id":"c75366f7-6d82-40d8-82e8-025dde28a263","system_id":"levelo_inurba_marseille","lat":43.29522,"lon":5.37441,"is_reserved":false,"is_disabled":true,"rental_uris":{"android":"levelo://app?vid=c75366f7-6d82-40d8-82e8-025dde28a263","ios":"levelo://app?vid=c75366f7-6d82-40d8-82e8-025dde28a263"},"vehicle_type_id":"4","last_reported":1767322717,"current_range_meters":8400,"station_id":"","pricing_plan_id":"cebpf4jnsgd1na2vs0mg"},{"bike_id":"54045760-2072-46e5-a5c4-00c3b9646aa6","system_id":"levelo_inurba_marseille","lat":43.29987,"lon":5.37181,"is_reserved":false,"is_disabled":false,"rental_uris":{"android":"levelo://app?vid=54045760-2072-46e5-a5c4-00c3b9646aa6","ios":"levelo://app?vid=54045760-2072-46e5-a5c4-00c3b9646aa6"},"vehicle_type_id":"4","last_reported":1767322717,"current_range_meters":8400,"station_id":"ce4bgr92rcd13ifvqc7g","pricing_plan_id":"cebpf4jnsgd1na2vs0mg"},{"bike_id":"b6c2de47-37fa-44c1-ae2a-ab2b9c904820","system_id":"levelo_inurba_marseille","lat":43.28482,"lon":5.38435,"is_reserved":false,"is_disabled":false,"rental_uris":{"android":"levelo://app?vid=b6c2de47-37fa-44c1-ae2a-ab2b9c904820","ios":"levelo://app?vid=b6c2de47-37fa-44c1-ae2a-ab2b9c904820"},"vehicle_type_id":"4","last_reported":1767322717,"current_range_meters":8400,"station_id":"ce4bh512rcd13ifvqe3g","pricing_plan_id":"cebpf4jnsgd1na2vs0mg"},{"bike_id":"d8431e58-d3e8-4456-9570-729e3ebbcc73","system_id":"levelo_inurba_marseille","lat":43.3015,"lon":5.3725,"is_reserved":false,"is_disabled":false,"rental_uris":{"android":"levelo://app?vid=d8431e58-d3e8-4456-9570-729e3ebbcc73","ios":"levelo://app?vid=d8431e58-d3e8-4456-9570-729e3ebbcc73"},"vehicle_type_id":"4","last_reported":1767322717,"current_range_meters":8400,"station_id":"","pricing_plan_id":"cebpf4jnsgd1na2vs0mg"},{"bike_id":"303fc977-bc34-40d7-a7b6-1a8c63d2d925","system_id":"levelo_inurba_marseille","lat":43.225326,"lon":5.348292,"is_reserved":false,"is_disabled":false,"rental_uris":{"android":"levelo://app?vid=303fc977-bc34-40d7-a7b6-1a8c63d2d925","ios":"levelo://app?vid=303fc977-bc34-40d7-a7b6-1a8c63d2d925"},"vehicle_type_id":"4","last_reported":1767322717,"current_range_meters":8400,"station_id":"","pricing_plan_id":"cebpf4jnsgd1na2vs0mg"},{"bike_id":"f088b2d3-124b-401d-abdd-c84fccfb9eda","system_id":"levelo_inurba_marseille","lat":43.28356,"lon":5.38099,"is_reserved":false,"is_disabled":false,"rental_uris":{"android":"levelo://app?vid=f088b2d3-124b-401d-abdd-c84fccfb9eda","ios":"levelo://app?vid=f088b2d3-124b-401d-abdd-c84fccfb9eda"},"vehicle_type_id":"4","last_reported":1767322717,"current_range_meters":8400,"station_id":"ce4bh412rcd13ifvqdr0","pricing_plan_id":"cebpf4jnsgd1na2vs0mg"},{"bike_id":"27eab711-3794-4c67-b72c-787e5b4b546b","system_id":"levelo_inurba_marseille","lat":43.25585,"lon":5.38223,"is_reserved":false,"is_disabled":false,"rental_uris":{"android":"levelo://app?vid=27eab711-3794-4c67-b72c-787e5b4b546b","ios":"levelo://app?vid=27eab711-3794-4c67-b72c-787e5b4b546b"},"vehicle_type_id":"4","last_reported":1767322717,"current_range_meters":8400,"station_id":"ce4bhih2rcd13ifvqfs0","pricing_plan_id":"cebpf4jnsgd1na2vs0mg"},{"bike_id":"1498f079-e300-4265-837b-8da7d97aca06","system_id":"levelo_inurba_marseille","lat":43.24162,"lon":5.36402,"is_reserved":false,"is_disabled":false,"rental_uris":{"android":"levelo://app?vid=1498f079-e300-4265-837b-8da7d97aca06","ios":"levelo://app?vid=1498f079-e300-4265-837b-8da7d97aca06"},"vehicle_type_id":"4","last_reported":1767322717,"current_range_meters":8400,"station_id":"cpo36qri1sfpv3e86is0","pricing_plan_id":"cebpf4jnsgd1na2vs0mg"},{"bike_id":"b33aadfa-7bba-4441-8e8e-edff0fc8d195","system_id":"levelo_inurba_marseille","lat":43.27062,"lon":5.38313,"is_reserved":false,"is_disabled":false,"rental_uris":{"android":"levelo://app?vid=b33aadfa-7bba-4441-8e8e-edff0fc8d195","ios":"levelo://app?vid=b33aadfa-7bba-4441-8e8e-edff0fc8d195"},"vehicle_type_id":"4","last_reported":1767322717,"current_range_meters":8400,"station_id":"st_d3n2fo6cfp8s73cte1j0","pricing_plan_id":"cebpf4jnsgd1na2vs0mg"},{"bike_id":"2573c545-f2d4-4ad8-9d30-55ccbf225a22","system_id":"levelo_inurba_marseille","lat":43.269157,"lon":5.368153,"is_reserved":false,"is_disabled":false,"rental_uris":{"android":"levelo://app?vid=2573c545-f2d4-4ad8-9d30-55ccbf225a22","ios":"levelo://app?vid=2573c545-f2d4-4ad8-9d30-55ccbf225a22"},"vehicle_type_id":"4","last_reported":1767322717,"current_range_meters":8400,"station_id":"","pricing_plan_id":"cebpf4jnsgd1na2vs0mg"},{"bike_id":"961a4b80-6a80-41fc-af4e-cb7c655480a6","system_id":"levelo_inurba_marseille","lat":43.28287,"lon":5.39752,"is_reserved":false,"is_disabled":true,"rental_uris":{"android":"levelo://app?vid=961a4b80-6a80-41fc-af4e-cb7c655480a6","ios":"levelo://app?vid=961a4b80-6a80-41fc-af4e-cb7c655480a6"},"vehicle_type_id":"4","last_reported":1767322717,"current_range_meters":8400,"station_id":"","pricing_plan_id":"cebpf4jnsgd1na2vs0mg"},{"bike_id":"f3a4c2fd-c27a-4ca6-bbe5-3949d2a88808","system_id":"levelo_inurba_marseille","lat":43.28556,"lon":5.4299,"is_reserved":false,"is_disabled":false,"rental_uris":{"android":"levelo://app?vid=f3a4c2fd-c27a-4ca6-bbe5-3949d2a88808","ios":"levelo://app?vid=f3a4c2fd-c27a-4ca6-bbe5-3949d2a88808"},"vehicle_type_id":"4","last_reported":1767322717,"current_range_meters":8400,"station_id":"","pricing_plan_id":"cebpf4jnsgd1na2vs0mg"},{"bike_id":"c9130f24-ffb5-404d-851b-31b1e51ee848","system_id":"levelo_inurba_marseille","lat":43.29262,"lon":5.38443,"is_reserved":false,"is_disabled":false,"rental_uris":{"android":"levelo://app?vid=c9130f24-ffb5-404d-851b-31b1e51ee848","ios":"levelo://app?vid=c9130f24-ffb5-404d-851b-31b1e51ee848"},"vehicle_type_id":"4","last_reported":1767322717,"current_range_meters":8400,"station_id":"ce4bh692rcd13ifvqea0","pricing_plan_id":"cebpf4jnsgd1na2vs0mg"},{"bike_id":"7ad11f56-6124-475a-8a9c-acbe7a5750ff","system_id":"levelo_inurba_marseille","lat":43.30018,"lon":5.38482,"is_reserved":false,"is_disabled":false,"rental_uris":{"android":"levelo://app?vid=7ad11f56-6124-475a-8a9c-acbe7a5750ff","ios":"levelo://app?vid=7ad11f56-6124-475a-8a9c-acbe7a5750ff"},"vehicle_type_id":"4","last_reported":1767322717,"current_range_meters":8400,"station_id":"","pricing_plan_id":"cebpf4jnsgd1na2vs0mg"},{"bike_id":"f62d34dd-ebca-439b-82f1-1a4028c8a2b2","system_id":"levelo_inurba_marseille","lat":43.29049,"lon":5.38169,"is_reserved":false,"is_disabled":false,"rental_uris":{"android":"levelo://app?vid=f62d34dd-ebca-439b-82f1-1a4028c8a2b2","ios":"levelo://app?vid=f62d34dd-ebca-439b-82f1-1a4028c8a2b2"},"vehicle_type_id":"4","last_reported":1767322717,"current_range_meters":8400,"station_id":"","pricing_plan_id":"cebpf4jnsgd1na2vs0mg"},{"bike_id":"3fd00cb0-0645-4a8c-874a-2e0df62cb4f5","system_id":"levelo_inurba_marseille","lat":43.29725,"lon":5.38001,"is_reserved":false,"is_disabled":false,"rental_uris":{"android":"levelo://app?vid=3fd00cb0-0645-4a8c-874a-2e0df62cb4f5","ios":"levelo://app?vid=3fd00cb0-0645-4a8c-874a-2e0df62cb4f5"},"vehicle_type_id":"4","last_reported":1767322717,"current_range_meters":8400,"station_id":"","pricing_plan_id":"cebpf4jnsgd1na2vs0mg"},{"bike_id":"5e6459c6-e888-4abf-8b73-e612dd2354ec","system_id":"levelo_inurba_marseille","lat":43.28448,"lon":5.3588,"is_reserved":false,"is_disabled":false,"rental_uris":{"android":"levelo://app?vid=5e6459c6-e888-4abf-8b73-e612dd2354ec","ios":"levelo://app?vid=5e6459c6-e888-4abf-8b73-e612dd2354ec"},"vehicle_type_id":"4","last_reported":1767322717,"current_range_meters":8400,"station_id":"ce4bhah2rcd13ifvqei0","pricing_plan_id":"cebpf4jnsgd1na2vs0mg"},{"bike_id":"9a253175-fef0-4c75-a8d8-bb357322efb0","system_id":"levelo_inurba_marseille","lat":43.21173,"lon":5.35075,"is_reserved":false,"is_disabled":false,"rental_uris":{"android":"levelo://app?vid=9a253175-fef0-4c75-a8d8-bb357322efb0","ios":"levelo://app?vid=9a253175-fef0-4c75-a8d8-bb357322efb0"},"vehicle_type_id":"4","last_reported":1767322717,"current_range_meters":8400,"station_id":"st_cvj6sg6p6f1abm77japg","pricing_plan_id":"cebpf4jnsgd1na2vs0mg"},{"bike_id":"f706dea8-efae-45c7-a0d0-ef3606201ff7","system_id":"levelo_inurba_marseille","lat":43.23959,"lon":5.36617,"is_reserved":false,"is_disabled":false,"rental_uris":{"android":"levelo://app?vid=f706dea8-efae-45c7-a0d0-ef3606201ff7","ios":"levelo://app?vid=f706dea8-efae-45c7-a0d0-ef3606201ff7"},"vehicle_type_id":"4","last_reported":1767322717,"current_range_meters":8400,"station_id":"ce4bhi12rcd13ifvqfp0","pricing_plan_id":"cebpf4jnsgd1na2vs0mg"},{"bike_id":"1e76a634-1236-4429-a6ca-562668962923","system_id":"levelo_inurba_marseille","lat":43.252176,"lon":5.394468,"is_reserved":false,"is_disabled":false,"rental_uris":{"android":"levelo://app?vid=1e76a634-1236-4429-a6ca-562668962923","ios":"levelo://app?vid=1e76a634-1236-4429-a6ca-562668962923"},"vehicle_type_id":"4","last_reported":1767322717,"current_range_meters":8800,"station_id":"","pricing_plan_id":"cebpf4jnsgd1na2vs0mg"},{"bike_id":"eae3ff06-d7a5-464a-8297-c6b4b0ceb3a3","system_id":"levelo_inurba_marseille","lat":43.29525,"lon":5.3855,"is_reserved":false,"is_disabled":false,"rental_uris":{"android":"levelo://app?vid=eae3ff06-d7a5-464a-8297-c6b4b0ceb3a3","ios":"levelo://app?vid=eae3ff06-d7a5-464a-8297-c6b4b0ceb3a3"},"vehicle_type_id":"4","last_reported":1767322717,"current_range_meters":8800,"station_id":"ce4bgih2rcd13ifvqba0","pricing_plan_id":"cebpf4jnsgd1na2vs0mg"},{"bike_id":"4f437bfb-eb50-4510-9679-8b39b057f8de","system_id":"levelo_inurba_marseille","lat":43.2406,"lon":5.37746,"is_reserved":false,"is_disabled":false,"rental_uris":{"android":"levelo://app?vid=4f437bfb-eb50-4510-9679-8b39b057f8de","ios":"levelo://app?vid=4f437bfb-eb50-4510-9679-8b39b057f8de"},"vehicle_type_id":"4","last_reported":1767322717,"current_range_meters":8800,"station_id":"ce4bhnp2rcd13ifvqgvg","pricing_plan_id":"cebpf4jnsgd1na2vs0mg"},{"bike_id":"d90ea927-cc8f-4bbb-a6fa-bc6608c1a260","system_id":"levelo_inurba_marseille","lat":43.2964,"lon":5.37697,"is_reserved":false,"is_disabled":true,"rental_uris":{"android":"levelo://app?vid=d90ea927-cc8f-4bbb-a6fa-bc6608c1a260","ios":"levelo://app?vid=d90ea927-cc8f-4bbb-a6fa-bc6608c1a260"},"vehicle_type_id":"4","last_reported":1767322717,"current_range_meters":8800,"station_id":"ce4bgi92rcd13ifvqb90","pricing_plan_id":"cebpf4jnsgd1na2vs0mg"},{"bike_id":"7ac98c64-2424-49b0-be1b-1d86a6975c42","system_id":"levelo_inurba_marseille","lat":43.289964,"lon":5.356117,"is_reserved":false,"is_disabled":false,"rental_uris":{"android":"levelo://app?vid=7ac98c64-2424-49b0-be1b-1d86a6975c42","ios":"levelo://app?vid=7ac98c64-2424-49b0-be1b-1d86a6975c42"},"vehicle_type_id":"4","last_reported":1767322717,"current_range_meters":8800,"station_id":"ce4bhb92rcd13ifvqen0","pricing_plan_id":"cebpf4jnsgd1na2vs0mg"},{"bike_id":"5b121814-175d-4dd8-bc6c-330fb3cb4dcd","system_id":"levelo_inurba_marseille","lat":43.30571,"lon":5.37263,"is_reserved":false,"is_disabled":false,"rental_uris":{"android":"levelo://app?vid=5b121814-175d-4dd8-bc6c-330fb3cb4dcd","ios":"levelo://app?vid=5b121814-175d-4dd8-bc6c-330fb3cb4dcd"},"vehicle_type_id":"4","last_reported":1767322717,"current_range_meters":8800,"station_id":"ce4bgqh2rcd13ifvqc4g","pricing_plan_id":"cebpf4jnsgd1na2vs0mg"},{"bike_id":"25f1743a-a2b2-454e-84ce-5c43f5ea30d3","system_id":"levelo_inurba_marseille","lat":43.29892,"lon":5.4366,"is_reserved":false,"is_disabled":false,"rental_uris":{"android":"levelo://app?vid=25f1743a-a2b2-454e-84ce-5c43f5ea30d3","ios":"levelo://app?vid=25f1743a-a2b2-454e-84ce-5c43f5ea30d3"},"vehicle_type_id":"4","last_reported":1767322717,"current_range_meters":8800,"station_id":"ce4bhpp2rcd13ifvqhfg","pricing_plan_id":"cebpf4jnsgd1na2vs0mg"},{"bike_id":"adee5904-d2f9-48c4-ad58-68d27b5bb40a","system_id":"levelo_inurba_marseille","lat":43.2927,"lon":5.37677,"is_reserved":false,"is_disabled":false,"rental_uris":{"android":"levelo://app?vid=adee5904-d2f9-48c4-ad58-68d27b5bb40a","ios":"levelo://app?vid=adee5904-d2f9-48c4-ad58-68d27b5bb40a"},"vehicle_type_id":"4","last_reported":1767322717,"current_range_meters":8800,"station_id":"ce4bgi12rcd13ifvqb80","pricing_plan_id":"cebpf4jnsgd1na2vs0mg"},{"bike_id":"08793bdf-bae6-4989-a3e8-8fa2dc512947","system_id":"levelo_inurba_marseille","lat":43.21184,"lon":5.35083,"is_reserved":false,"is_disabled":false,"rental_uris":{"android":"levelo://app?vid=08793bdf-bae6-4989-a3e8-8fa2dc512947","ios":"levelo://app?vid=08793bdf-bae6-4989-a3e8-8fa2dc512947"},"vehicle_type_id":"4","last_reported":1767322717,"current_range_meters":8800,"station_id":"st_cvj6sg6p6f1abm77japg","pricing_plan_id":"cebpf4jnsgd1na2vs0mg"},{"bike_id":"f92fc3b0-a46d-4af0-8feb-a02629fa3cd4","system_id":"levelo_inurba_marseille","lat":43.295225,"lon":5.390473,"is_reserved":false,"is_disabled":false,"rental_uris":{"android":"levelo://app?vid=f92fc3b0-a46d-4af0-8feb-a02629fa3cd4","ios":"levelo://app?vid=f92fc3b0-a46d-4af0-8feb-a02629fa3cd4"},"vehicle_type_id":"4","last_reported":1767322717,"current_range_meters":8800,"station_id":"ce4bh3p2rcd13ifvqdp0","pricing_plan_id":"cebpf4jnsgd1na2vs0mg"},{"bike_id":"a6e7076d-d8c4-4656-859d-6c27023029a5","system_id":"levelo_inurba_marseille","lat":43.28359,"lon":5.38658,"is_reserved":false,"is_disabled":false,"rental_uris":{"android":"levelo://app?vid=a6e7076d-d8c4-4656-859d-6c27023029a5","ios":"levelo://app?vid=a6e7076d-d8c4-4656-859d-6c27023029a5"},"vehicle_type_id":"4","last_reported":1767322717,"current_range_meters":8800,"station_id":"ce4bh492rcd13ifvqdvg","pricing_plan_id":"cebpf4jnsgd1na2vs0mg"},{"bike_id":"e0decbbd-66f2-41ff-95bf-ae2a7b2f4e23","system_id":"levelo_inurba_marseille","lat":43.28625,"lon":5.42628,"is_reserved":false,"is_disabled":false,"rental_uris":{"android":"levelo://app?vid=e0decbbd-66f2-41ff-95bf-ae2a7b2f4e23","ios":"levelo://app?vid=e0decbbd-66f2-41ff-95bf-ae2a7b2f4e23"},"vehicle_type_id":"4","last_reported":1767322717,"current_range_meters":8800,"station_id":"","pricing_plan_id":"cebpf4jnsgd1na2vs0mg"},{"bike_id":"ae255f5c-ca45-414c-9bef-0d95c9ceafbf","system_id":"levelo_inurba_marseille","lat":43.28173,"lon":5.42647,"is_reserved":false,"is_disabled":false,"rental_uris":{"android":"levelo://app?vid=ae255f5c-ca45-414c-9bef-0d95c9ceafbf","ios":"levelo://app?vid=ae255f5c-ca45-414c-9bef-0d95c9ceafbf"},"vehicle_type_id":"4","last_reported":1767322717,"current_range_meters":8800,"station_id":"ce4bhnh2rcd13ifvqgug","pricing_plan_id":"cebpf4jnsgd1na2vs0mg"},{"bike_id":"772124ba-5420-4e94-ba55-32ef5db59e17","system_id":"levelo_inurba_marseille","lat":43.28044,"lon":5.35335,"is_reserved":false,"is_disabled":false,"rental_uris":{"android":"levelo://app?vid=772124ba-5420-4e94-ba55-32ef5db59e17","ios":"levelo://app?vid=772124ba-5420-4e94-ba55-32ef5db59e17"},"vehicle_type_id":"4","last_reported":1767322717,"current_range_meters":8800,"station_id":"","pricing_plan_id":"cebpf4jnsgd1na2vs0mg"},{"bike_id":"e11b1421-fb63-4460-8784-0bf6411ea266","system_id":"levelo_inurba_marseille","lat":43.29535,"lon":5.389619,"is_reserved":false,"is_disabled":false,"rental_uris":{"android":"levelo://app?vid=e11b1421-fb63-4460-8784-0bf6411ea266","ios":"levelo://app?vid=e11b1421-fb63-4460-8784-0bf6411ea266"},"vehicle_type_id":"4","last_reported":1767322717,"current_range_meters":8800,"station_id":"","pricing_plan_id":"cebpf4jnsgd1na2vs0mg"},{"bike_id":"3ea63038-6c6b-45f0-b75e-c21acaf1cee5","system_id":"levelo_inurba_marseille","lat":43.27396,"lon":5.39356,"is_reserved":false,"is_disabled":false,"rental_uris":{"android":"levelo://app?vid=3ea63038-6c6b-45f0-b75e-c21acaf1cee5","ios":"levelo://app?vid=3ea63038-6c6b-45f0-b75e-c21acaf1cee5"},"vehicle_type_id":"4","last_reported":1767322717,"current_range_meters":8800,"station_id":"ce4bhdp2rcd13ifvqf20","pricing_plan_id":"cebpf4jnsgd1na2vs0mg"},{"bike_id":"efd33062-2cef-445f-af98-648f578e9c2a","system_id":"levelo_inurba_marseille","lat":43.32588,"lon":5.41999,"is_reserved":false,"is_disabled":false,"rental_uris":{"android":"levelo://app?vid=efd33062-2cef-445f-af98-648f578e9c2a","ios":"levelo://app?vid=efd33062-2cef-445f-af98-648f578e9c2a"},"vehicle_type_id":"4","last_reported":1767322717,"current_range_meters":9200,"station_id":"","pricing_plan_id":"cebpf4jnsgd1na2vs0mg"},{"bike_id":"e0d874b5-14d4-4ed6-ad4e-e34d0583933d","system_id":"levelo_inurba_marseille","lat":43.31218,"lon":5.36899,"is_reserved":false,"is_disabled":false,"rental_uris":{"android":"levelo://app?vid=e0d874b5-14d4-4ed6-ad4e-e34d0583933d","ios":"levelo://app?vid=e0d874b5-14d4-4ed6-ad4e-e34d0583933d"},"vehicle_type_id":"4","last_reported":1767322717,"current_range_meters":9200,"station_id":"ce4bgl92rcd13ifvqbq0","pricing_plan_id":"cebpf4jnsgd1na2vs0mg"},{"bike_id":"1a403cec-be48-4249-9b2c-735a7abb7cc1","system_id":"levelo_inurba_marseille","lat":43.29511,"lon":5.39417,"is_reserved":false,"is_disabled":false,"rental_uris":{"android":"levelo://app?vid=1a403cec-be48-4249-9b2c-735a7abb7cc1","ios":"levelo://app?vid=1a403cec-be48-4249-9b2c-735a7abb7cc1"},"vehicle_type_id":"4","last_reported":1767322717,"current_range_meters":9200,"station_id":"ce4bh292rcd13ifvqdf0","pricing_plan_id":"cebpf4jnsgd1na2vs0mg"},{"bike_id":"5d64b1d9-59fb-4d57-9b2b-5de60919d0d5","system_id":"levelo_inurba_marseille","lat":43.29217,"lon":5.37031,"is_reserved":false,"is_disabled":false,"rental_uris":{"android":"levelo://app?vid=5d64b1d9-59fb-4d57-9b2b-5de60919d0d5","ios":"levelo://app?vid=5d64b1d9-59fb-4d57-9b2b-5de60919d0d5"},"vehicle_type_id":"4","last_reported":1767322717,"current_range_meters":9200,"station_id":"","pricing_plan_id":"cebpf4jnsgd1na2vs0mg"},{"bike_id":"c2ccf014-e170-40d8-b014-33114e8ee2b2","system_id":"levelo_inurba_marseille","lat":43.29166,"lon":5.37971,"is_reserved":false,"is_disabled":false,"rental_uris":{"android":"levelo://app?vid=c2ccf014-e170-40d8-b014-33114e8ee2b2","ios":"levelo://app?vid=c2ccf014-e170-40d8-b014-33114e8ee2b2"},"vehicle_type_id":"4","last_reported":1767322717,"current_range_meters":9200,"station_id":"","pricing_plan_id":"cebpf4jnsgd1na2vs0mg"},{"bike_id":"34c978d5-47ad-4b2a-8a2f-906f7fa23f12","system_id":"levelo_inurba_marseille","lat":43.244664,"lon":5.425356,"is_reserved":false,"is_disabled":false,"rental_uris":{"android":"levelo://app?vid=34c978d5-47ad-4b2a-8a2f-906f7fa23f12","ios":"levelo://app?vid=34c978d5-47ad-4b2a-8a2f-906f7fa23f12"},"vehicle_type_id":"4","last_reported":1767322717,"current_range_meters":9200,"station_id":"st_d4a3vfp97mjs738cd8kg","pricing_plan_id":"cebpf4jnsgd1na2vs0mg"},{"bike_id":"50a1ce80-e2ae-4637-b1b3-c5d653d75cd1","system_id":"levelo_inurba_marseille","lat":43.31843,"lon":5.38995,"is_reserved":false,"is_disabled":false,"rental_uris":{"android":"levelo://app?vid=50a1ce80-e2ae-4637-b1b3-c5d653d75cd1","ios":"levelo://app?vid=50a1ce80-e2ae-4637-b1b3-c5d653d75cd1"},"vehicle_type_id":"4","last_reported":1767322717,"current_range_meters":9200,"station_id":"","pricing_plan_id":"cebpf4jnsgd1na2vs0mg"},{"bike_id":"650654d1-6b19-458f-97df-c0f29c65087f","system_id":"levelo_inurba_marseille","lat":43.264917,"lon":5.395334,"is_reserved":false,"is_disabled":false,"rental_uris":{"android":"levelo://app?vid=650654d1-6b19-458f-97df-c0f29c65087f","ios":"levelo://app?vid=650654d1-6b19-458f-97df-c0f29c65087f"},"vehicle_type_id":"4","last_reported":1767322717,"current_range_meters":9200,"station_id":"ce4bhi12rcd13ifvqfq0","pricing_plan_id":"cebpf4jnsgd1na2vs0mg"},{"bike_id":"5a8e23cb-d34e-4455-b0d4-2a97b4a55a8b","system_id":"levelo_inurba_marseille","lat":43.2533,"lon":5.42174,"is_reserved":false,"is_disabled":false,"rental_uris":{"android":"levelo://app?vid=5a8e23cb-d34e-4455-b0d4-2a97b4a55a8b","ios":"levelo://app?vid=5a8e23cb-d34e-4455-b0d4-2a97b4a55a8b"},"vehicle_type_id":"4","last_reported":1767322717,"current_range_meters":9200,"station_id":"st_d2m65c5bi1j21697t3ng","pricing_plan_id":"cebpf4jnsgd1na2vs0mg"},{"bike_id":"770adec0-43e5-4e4d-997f-51d8dafd046a","system_id":"levelo_inurba_marseille","lat":43.27828,"lon":5.3921,"is_reserved":false,"is_disabled":false,"rental_uris":{"android":"levelo://app?vid=770adec0-43e5-4e4d-997f-51d8dafd046a","ios":"levelo://app?vid=770adec0-43e5-4e4d-997f-51d8dafd046a"},"vehicle_type_id":"4","last_reported":1767322717,"current_range_meters":9200,"station_id":"ce4bhjp2rcd13ifvqga0","pricing_plan_id":"cebpf4jnsgd1na2vs0mg"},{"bike_id":"759f8fee-06f2-4bc4-8618-03ba85bfc8da","system_id":"levelo_inurba_marseille","lat":43.2975,"lon":5.42773,"is_reserved":false,"is_disabled":false,"rental_uris":{"android":"levelo://app?vid=759f8fee-06f2-4bc4-8618-03ba85bfc8da","ios":"levelo://app?vid=759f8fee-06f2-4bc4-8618-03ba85bfc8da"},"vehicle_type_id":"4","last_reported":1767322717,"current_range_meters":9200,"station_id":"st_d3md5207bmas73dh9klg","pricing_plan_id":"cebpf4jnsgd1na2vs0mg"},{"bike_id":"02b0ee5c-64ca-4302-a57c-eeac8dd8c11f","system_id":"levelo_inurba_marseille","lat":43.29501,"lon":5.39076,"is_reserved":false,"is_disabled":false,"rental_uris":{"android":"levelo://app?vid=02b0ee5c-64ca-4302-a57c-eeac8dd8c11f","ios":"levelo://app?vid=02b0ee5c-64ca-4302-a57c-eeac8dd8c11f"},"vehicle_type_id":"4","last_reported":1767322717,"current_range_meters":9200,"station_id":"ce4bh3p2rcd13ifvqdp0","pricing_plan_id":"cebpf4jnsgd1na2vs0mg"},{"bike_id":"051f3fd6-8a3b-4cb8-bc8d-666a69e5cd08","system_id":"levelo_inurba_marseille","lat":43.25112,"lon":5.40319,"is_reserved":false,"is_disabled":false,"rental_uris":{"android":"levelo://app?vid=051f3fd6-8a3b-4cb8-bc8d-666a69e5cd08","ios":"levelo://app?vid=051f3fd6-8a3b-4cb8-bc8d-666a69e5cd08"},"vehicle_type_id":"4","last_reported":1767322717,"current_range_meters":9200,"station_id":"ce4bhlh2rcd13ifvqgig","pricing_plan_id":"cebpf4jnsgd1na2vs0mg"},{"bike_id":"ead1444d-eac1-417f-b268-ce9ed5abb843","system_id":"levelo_inurba_marseille","lat":43.2969,"lon":5.37292,"is_reserved":false,"is_disabled":false,"rental_uris":{"android":"levelo://app?vid=ead1444d-eac1-417f-b268-ce9ed5abb843","ios":"levelo://app?vid=ead1444d-eac1-417f-b268-ce9ed5abb843"},"vehicle_type_id":"4","last_reported":1767322717,"current_range_meters":9200,"station_id":"ce4bgk12rcd13ifvqbj0","pricing_plan_id":"cebpf4jnsgd1na2vs0mg"},{"bike_id":"2a92eb68-3fcb-4c5e-aa8a-499824b82d0a","system_id":"levelo_inurba_marseille","lat":43.28396,"lon":5.37535,"is_reserved":false,"is_disabled":false,"rental_uris":{"android":"levelo://app?vid=2a92eb68-3fcb-4c5e-aa8a-499824b82d0a","ios":"levelo://app?vid=2a92eb68-3fcb-4c5e-aa8a-499824b82d0a"},"vehicle_type_id":"4","last_reported":1767322717,"current_range_meters":9200,"station_id":"ce4bh412rcd13ifvqds0","pricing_plan_id":"cebpf4jnsgd1na2vs0mg"},{"bike_id":"61a31656-c660-4275-9928-540ad7d8758e","system_id":"levelo_inurba_marseille","lat":43.24388,"lon":5.37062,"is_reserved":false,"is_disabled":false,"rental_uris":{"android":"levelo://app?vid=61a31656-c660-4275-9928-540ad7d8758e","ios":"levelo://app?vid=61a31656-c660-4275-9928-540ad7d8758e"},"vehicle_type_id":"4","last_reported":1767322717,"current_range_meters":9200,"station_id":"ce4bhhh2rcd13ifvqfk0","pricing_plan_id":"cebpf4jnsgd1na2vs0mg"},{"bike_id":"7acd2702-c08c-4efb-a471-4a949a40f897","system_id":"levelo_inurba_marseille","lat":43.286711,"lon":5.386696,"is_reserved":false,"is_disabled":false,"rental_uris":{"android":"levelo://app?vid=7acd2702-c08c-4efb-a471-4a949a40f897","ios":"levelo://app?vid=7acd2702-c08c-4efb-a471-4a949a40f897"},"vehicle_type_id":"4","last_reported":1767322717,"current_range_meters":9200,"station_id":"ce4bh492rcd13ifvqdug","pricing_plan_id":"cebpf4jnsgd1na2vs0mg"},{"bike_id":"81bb7359-0e58-4443-bd35-6642f1961b0f","system_id":"levelo_inurba_marseille","lat":43.28429,"lon":5.34986,"is_reserved":false,"is_disabled":false,"rental_uris":{"android":"levelo://app?vid=81bb7359-0e58-4443-bd35-6642f1961b0f","ios":"levelo://app?vid=81bb7359-0e58-4443-bd35-6642f1961b0f"},"vehicle_type_id":"4","last_reported":1767322717,"current_range_meters":9200,"station_id":"ce4bhbh2rcd13ifvqepg","pricing_plan_id":"cebpf4jnsgd1na2vs0mg"},{"bike_id":"aa4c0c3c-20a8-4dcd-8254-3a59efbed1dc","system_id":"levelo_inurba_marseille","lat":43.284254,"lon":5.38444,"is_reserved":false,"is_disabled":false,"rental_uris":{"android":"levelo://app?vid=aa4c0c3c-20a8-4dcd-8254-3a59efbed1dc","ios":"levelo://app?vid=aa4c0c3c-20a8-4dcd-8254-3a59efbed1dc"},"vehicle_type_id":"4","last_reported":1767322717,"current_range_meters":9600,"station_id":"","pricing_plan_id":"cebpf4jnsgd1na2vs0mg"},{"bike_id":"cd58d28f-2ebc-4e43-abdf-aaaf798746bc","system_id":"levelo_inurba_marseille","lat":43.26549,"lon":5.39056,"is_reserved":false,"is_disabled":false,"rental_uris":{"android":"levelo://app?vid=cd58d28f-2ebc-4e43-abdf-aaaf798746bc","ios":"levelo://app?vid=cd58d28f-2ebc-4e43-abdf-aaaf798746bc"},"vehicle_type_id":"4","last_reported":1767322717,"current_range_meters":9600,"station_id":"ce4bhe12rcd13ifvqf30","pricing_plan_id":"cebpf4jnsgd1na2vs0mg"},{"bike_id":"5f88614a-07fe-4f32-9a1e-bb1fe5e190c4","system_id":"levelo_inurba_marseille","lat":43.31223,"lon":5.36877,"is_reserved":false,"is_disabled":false,"rental_uris":{"android":"levelo://app?vid=5f88614a-07fe-4f32-9a1e-bb1fe5e190c4","ios":"levelo://app?vid=5f88614a-07fe-4f32-9a1e-bb1fe5e190c4"},"vehicle_type_id":"4","last_reported":1767322717,"current_range_meters":9600,"station_id":"ce4bgl92rcd13ifvqbq0","pricing_plan_id":"cebpf4jnsgd1na2vs0mg"},{"bike_id":"3b652abb-4144-4a5b-8035-ab28a7ba1f33","system_id":"levelo_inurba_marseille","lat":43.28132,"lon":5.42646,"is_reserved":false,"is_disabled":false,"rental_uris":{"android":"levelo://app?vid=3b652abb-4144-4a5b-8035-ab28a7ba1f33","ios":"levelo://app?vid=3b652abb-4144-4a5b-8035-ab28a7ba1f33"},"vehicle_type_id":"4","last_reported":1767322717,"current_range_meters":9600,"station_id":"ce4bhnh2rcd13ifvqgug","pricing_plan_id":"cebpf4jnsgd1na2vs0mg"},{"bike_id":"f1615576-13f4-4ebf-b52d-cb46c8289f42","system_id":"levelo_inurba_marseille","lat":43.27953,"lon":5.41037,"is_reserved":false,"is_disabled":false,"rental_uris":{"android":"levelo://app?vid=f1615576-13f4-4ebf-b52d-cb46c8289f42","ios":"levelo://app?vid=f1615576-13f4-4ebf-b52d-cb46c8289f42"},"vehicle_type_id":"4","last_reported":1767322717,"current_range_meters":9600,"station_id":"ce4bhnp2rcd13ifvqh0g","pricing_plan_id":"cebpf4jnsgd1na2vs0mg"},{"bike_id":"fae80570-c9d4-4aee-af35-a96795ca01bc","system_id":"levelo_inurba_marseille","lat":43.24657,"lon":5.38154,"is_reserved":false,"is_disabled":false,"rental_uris":{"android":"levelo://app?vid=fae80570-c9d4-4aee-af35-a96795ca01bc","ios":"levelo://app?vid=fae80570-c9d4-4aee-af35-a96795ca01bc"},"vehicle_type_id":"4","last_reported":1767322717,"current_range_meters":9600,"station_id":"ce4bhih2rcd13ifvqfr0","pricing_plan_id":"cebpf4jnsgd1na2vs0mg"},{"bike_id":"60a24bfa-71d1-4394-8423-89ffbc06474e","system_id":"levelo_inurba_marseille","lat":43.30301,"lon":5.37643,"is_reserved":false,"is_disabled":false,"rental_uris":{"android":"levelo://app?vid=60a24bfa-71d1-4394-8423-89ffbc06474e","ios":"levelo://app?vid=60a24bfa-71d1-4394-8423-89ffbc06474e"},"vehicle_type_id":"4","last_reported":1767322717,"current_range_meters":9600,"station_id":"","pricing_plan_id":"cebpf4jnsgd1na2vs0mg"},{"bike_id":"f82d391f-fa54-4944-99a1-f43326016a14","system_id":"levelo_inurba_marseille","lat":43.31756,"lon":5.38983,"is_reserved":false,"is_disabled":false,"rental_uris":{"android":"levelo://app?vid=f82d391f-fa54-4944-99a1-f43326016a14","ios":"levelo://app?vid=f82d391f-fa54-4944-99a1-f43326016a14"},"vehicle_type_id":"4","last_reported":1767322717,"current_range_meters":9600,"station_id":"ce4bhqp2rcd13ifvqhng","pricing_plan_id":"cebpf4jnsgd1na2vs0mg"},{"bike_id":"637f6ca5-94b4-4966-819c-aa817ec06354","system_id":"levelo_inurba_marseille","lat":43.29212,"lon":5.36089,"is_reserved":false,"is_disabled":false,"rental_uris":{"android":"levelo://app?vid=637f6ca5-94b4-4966-819c-aa817ec06354","ios":"levelo://app?vid=637f6ca5-94b4-4966-819c-aa817ec06354"},"vehicle_type_id":"4","last_reported":1767322717,"current_range_meters":9600,"station_id":"ce4bhbh2rcd13ifvqeqg","pricing_plan_id":"cebpf4jnsgd1na2vs0mg"},{"bike_id":"c7520a13-b022-4cba-860a-1d0a7964595c","system_id":"levelo_inurba_marseille","lat":43.23032,"lon":5.35421,"is_reserved":false,"is_disabled":false,"rental_uris":{"android":"levelo://app?vid=c7520a13-b022-4cba-860a-1d0a7964595c","ios":"levelo://app?vid=c7520a13-b022-4cba-860a-1d0a7964595c"},"vehicle_type_id":"4","last_reported":1767322717,"current_range_meters":9600,"station_id":"","pricing_plan_id":"cebpf4jnsgd1na2vs0mg"},{"bike_id":"aae83613-d180-4239-9800-5e6ea52a6395","system_id":"levelo_inurba_marseille","lat":43.312146,"lon":5.368892,"is_reserved":false,"is_disabled":false,"rental_uris":{"android":"levelo://app?vid=aae83613-d180-4239-9800-5e6ea52a6395","ios":"levelo://app?vid=aae83613-d180-4239-9800-5e6ea52a6395"},"vehicle_type_id":"4","last_reported":1767322717,"current_range_meters":9600,"station_id":"","pricing_plan_id":"cebpf4jnsgd1na2vs0mg"},{"bike_id":"0723e6cb-d68b-492a-9ec9-7dc733838137","system_id":"levelo_inurba_marseille","lat":43.32343,"lon":5.36741,"is_reserved":false,"is_disabled":false,"rental_uris":{"android":"levelo://app?vid=0723e6cb-d68b-492a-9ec9-7dc733838137","ios":"levelo://app?vid=0723e6cb-d68b-492a-9ec9-7dc733838137"},"vehicle_type_id":"4","last_reported":1767322717,"current_range_meters":9600,"station_id":"ce4bhsh2rcd13ifvqi2g","pricing_plan_id":"cebpf4jnsgd1na2vs0mg"},{"bike_id":"b4c9a5d7-4be2-49ec-96c4-187a2a733398","system_id":"levelo_inurba_marseille","lat":43.24163,"lon":5.36391,"is_reserved":false,"is_disabled":false,"rental_uris":{"android":"levelo://app?vid=b4c9a5d7-4be2-49ec-96c4-187a2a733398","ios":"levelo://app?vid=b4c9a5d7-4be2-49ec-96c4-187a2a733398"},"vehicle_type_id":"4","last_reported":1767322717,"current_range_meters":9600,"station_id":"cpo36qri1sfpv3e86is0","pricing_plan_id":"cebpf4jnsgd1na2vs0mg"},{"bike_id":"1f4701d5-d340-4df9-98f7-8c976bc059e9","system_id":"levelo_inurba_marseille","lat":43.28301,"lon":5.35041,"is_reserved":false,"is_disabled":false,"rental_uris":{"android":"levelo://app?vid=1f4701d5-d340-4df9-98f7-8c976bc059e9","ios":"levelo://app?vid=1f4701d5-d340-4df9-98f7-8c976bc059e9"},"vehicle_type_id":"4","last_reported":1767322717,"current_range_meters":9600,"station_id":"ce4bhbp2rcd13ifvqerg","pricing_plan_id":"cebpf4jnsgd1na2vs0mg"},{"bike_id":"1f3dd7a1-5535-4fc0-834e-8c50cf78bb81","system_id":"levelo_inurba_marseille","lat":43.29814,"lon":5.37616,"is_reserved":false,"is_disabled":false,"rental_uris":{"android":"levelo://app?vid=1f3dd7a1-5535-4fc0-834e-8c50cf78bb81","ios":"levelo://app?vid=1f3dd7a1-5535-4fc0-834e-8c50cf78bb81"},"vehicle_type_id":"4","last_reported":1767322717,"current_range_meters":9600,"station_id":"","pricing_plan_id":"cebpf4jnsgd1na2vs0mg"},{"bike_id":"5423a3a8-4e89-488f-af9d-d79b727b3b76","system_id":"levelo_inurba_marseille","lat":43.30096,"lon":5.39071,"is_reserved":false,"is_disabled":false,"rental_uris":{"android":"levelo://app?vid=5423a3a8-4e89-488f-af9d-d79b727b3b76","ios":"levelo://app?vid=5423a3a8-4e89-488f-af9d-d79b727b3b76"},"vehicle_type_id":"4","last_reported":1767322717,"current_range_meters":9600,"station_id":"ce4bh192rcd13ifvqdb0","pricing_plan_id":"cebpf4jnsgd1na2vs0mg"},{"bike_id":"96415ff9-cd65-4594-b519-e8462c67afcf","system_id":"levelo_inurba_marseille","lat":43.28539,"lon":5.44122,"is_reserved":false,"is_disabled":false,"rental_uris":{"android":"levelo://app?vid=96415ff9-cd65-4594-b519-e8462c67afcf","ios":"levelo://app?vid=96415ff9-cd65-4594-b519-e8462c67afcf"},"vehicle_type_id":"4","last_reported":1767322717,"current_range_meters":9600,"station_id":"st_d3j3df2ikq2c7380ej80","pricing_plan_id":"cebpf4jnsgd1na2vs0mg"},{"bike_id":"cadc82e3-3c1e-4b3f-8452-04462e4f5cfd","system_id":"levelo_inurba_marseille","lat":43.23164,"lon":5.4371,"is_reserved":false,"is_disabled":false,"rental_uris":{"android":"levelo://app?vid=cadc82e3-3c1e-4b3f-8452-04462e4f5cfd","ios":"levelo://app?vid=cadc82e3-3c1e-4b3f-8452-04462e4f5cfd"},"vehicle_type_id":"4","last_reported":1767322717,"current_range_meters":9600,"station_id":"ce4bhmp2rcd13ifvqgog","pricing_plan_id":"cebpf4jnsgd1na2vs0mg"},{"bike_id":"42d77009-fa58-4df2-b896-ba647ada43e5","system_id":"levelo_inurba_marseille","lat":43.27894,"lon":5.4047,"is_reserved":false,"is_disabled":false,"rental_uris":{"android":"levelo://app?vid=42d77009-fa58-4df2-b896-ba647ada43e5","ios":"levelo://app?vid=42d77009-fa58-4df2-b896-ba647ada43e5"},"vehicle_type_id":"4","last_reported":1767322717,"current_range_meters":9600,"station_id":"","pricing_plan_id":"cebpf4jnsgd1na2vs0mg"},{"bike_id":"83e50346-c21e-466e-8922-aea3198152db","system_id":"levelo_inurba_marseille","lat":43.237916,"lon":5.36619,"is_reserved":false,"is_disabled":false,"rental_uris":{"android":"levelo://app?vid=83e50346-c21e-466e-8922-aea3198152db","ios":"levelo://app?vid=83e50346-c21e-466e-8922-aea3198152db"},"vehicle_type_id":"4","last_reported":1767322717,"current_range_meters":9600,"station_id":"st_d3nk18o9ro0c73en2l3g","pricing_plan_id":"cebpf4jnsgd1na2vs0mg"},{"bike_id":"3acbaa1d-2eae-467f-b186-127b7d72fa9a","system_id":"levelo_inurba_marseille","lat":43.25822,"lon":5.39438,"is_reserved":false,"is_disabled":false,"rental_uris":{"android":"levelo://app?vid=3acbaa1d-2eae-467f-b186-127b7d72fa9a","ios":"levelo://app?vid=3acbaa1d-2eae-467f-b186-127b7d72fa9a"},"vehicle_type_id":"4","last_reported":1767322717,"current_range_meters":10000,"station_id":"ce4bhip2rcd13ifvqft0","pricing_plan_id":"cebpf4jnsgd1na2vs0mg"},{"bike_id":"2d42aa17-c3b7-4399-a80f-3190c91cb12e","system_id":"levelo_inurba_marseille","lat":43.2979,"lon":5.44064,"is_reserved":false,"is_disabled":false,"rental_uris":{"android":"levelo://app?vid=2d42aa17-c3b7-4399-a80f-3190c91cb12e","ios":"levelo://app?vid=2d42aa17-c3b7-4399-a80f-3190c91cb12e"},"vehicle_type_id":"4","last_reported":1767322717,"current_range_meters":10000,"station_id":"st_d3jp68qikq2c7381ktn0","pricing_plan_id":"cebpf4jnsgd1na2vs0mg"},{"bike_id":"608c7b76-23cf-40f8-94c2-a801dd95e79d","system_id":"levelo_inurba_marseille","lat":43.30881,"lon":5.36895,"is_reserved":false,"is_disabled":false,"rental_uris":{"android":"levelo://app?vid=608c7b76-23cf-40f8-94c2-a801dd95e79d","ios":"levelo://app?vid=608c7b76-23cf-40f8-94c2-a801dd95e79d"},"vehicle_type_id":"4","last_reported":1767322717,"current_range_meters":10000,"station_id":"ce4bgn92rcd13ifvqbvg","pricing_plan_id":"cebpf4jnsgd1na2vs0mg"},{"bike_id":"9feea015-e373-4e65-a8f2-66772efb3348","system_id":"levelo_inurba_marseille","lat":43.24762,"lon":5.37601,"is_reserved":false,"is_disabled":false,"rental_uris":{"android":"levelo://app?vid=9feea015-e373-4e65-a8f2-66772efb3348","ios":"levelo://app?vid=9feea015-e373-4e65-a8f2-66772efb3348"},"vehicle_type_id":"4","last_reported":1767322717,"current_range_meters":10000,"station_id":"","pricing_plan_id":"cebpf4jnsgd1na2vs0mg"},{"bike_id":"b43810b9-4ae6-4016-879d-bb6c42d90375","system_id":"levelo_inurba_marseille","lat":43.255076,"lon":5.376496,"is_reserved":false,"is_disabled":false,"rental_uris":{"android":"levelo://app?vid=b43810b9-4ae6-4016-879d-bb6c42d90375","ios":"levelo://app?vid=b43810b9-4ae6-4016-879d-bb6c42d90375"},"vehicle_type_id":"4","last_reported":1767322717,"current_range_meters":10000,"station_id":"ce4bhh12rcd13ifvqff0","pricing_plan_id":"cebpf4jnsgd1na2vs0mg"},{"bike_id":"b6b7a146-8a76-4eb7-abd8-58e5d94b3994","system_id":"levelo_inurba_marseille","lat":43.24639,"lon":5.43141,"is_reserved":false,"is_disabled":false,"rental_uris":{"android":"levelo://app?vid=b6b7a146-8a76-4eb7-abd8-58e5d94b3994","ios":"levelo://app?vid=b6b7a146-8a76-4eb7-abd8-58e5d94b3994"},"vehicle_type_id":"4","last_reported":1767322717,"current_range_meters":10000,"station_id":"st_d2m6c4gdas8pm72e190g","pricing_plan_id":"cebpf4jnsgd1na2vs0mg"},{"bike_id":"04c541f3-b297-498e-a18e-c8c36a4fe14d","system_id":"levelo_inurba_marseille","lat":43.21186,"lon":5.3507,"is_reserved":false,"is_disabled":false,"rental_uris":{"android":"levelo://app?vid=04c541f3-b297-498e-a18e-c8c36a4fe14d","ios":"levelo://app?vid=04c541f3-b297-498e-a18e-c8c36a4fe14d"},"vehicle_type_id":"4","last_reported":1767322717,"current_range_meters":10000,"station_id":"st_cvj6sg6p6f1abm77japg","pricing_plan_id":"cebpf4jnsgd1na2vs0mg"},{"bike_id":"081e0fab-3d03-4c48-bb94-cc3c47c837cb","system_id":"levelo_inurba_marseille","lat":43.23047,"lon":5.35467,"is_reserved":false,"is_disabled":false,"rental_uris":{"android":"levelo://app?vid=081e0fab-3d03-4c48-bb94-cc3c47c837cb","ios":"levelo://app?vid=081e0fab-3d03-4c48-bb94-cc3c47c837cb"},"vehicle_type_id":"4","last_reported":1767322717,"current_range_meters":10000,"station_id":"cpo3342slgdg3j2ifvpg","pricing_plan_id":"cebpf4jnsgd1na2vs0mg"},{"bike_id":"046f6f6d-1f73-42b5-99cc-1960f79b5648","system_id":"levelo_inurba_marseille","lat":43.29687,"lon":5.37284,"is_reserved":false,"is_disabled":false,"rental_uris":{"android":"levelo://app?vid=046f6f6d-1f73-42b5-99cc-1960f79b5648","ios":"levelo://app?vid=046f6f6d-1f73-42b5-99cc-1960f79b5648"},"vehicle_type_id":"4","last_reported":1767322717,"current_range_meters":10000,"station_id":"ce4bgk12rcd13ifvqbj0","pricing_plan_id":"cebpf4jnsgd1na2vs0mg"},{"bike_id":"cacd189b-364d-4b1a-8882-a16ba27a8c11","system_id":"levelo_inurba_marseille","lat":43.23794,"lon":5.36652,"is_reserved":false,"is_disabled":false,"rental_uris":{"android":"levelo://app?vid=cacd189b-364d-4b1a-8882-a16ba27a8c11","ios":"levelo://app?vid=cacd189b-364d-4b1a-8882-a16ba27a8c11"},"vehicle_type_id":"4","last_reported":1767322717,"current_range_meters":10000,"station_id":"st_d3nk18o9ro0c73en2l3g","pricing_plan_id":"cebpf4jnsgd1na2vs0mg"},{"bike_id":"19ea3e44-33fe-480a-85de-3a8705428674","system_id":"levelo_inurba_marseille","lat":43.28376,"lon":5.38643,"is_reserved":false,"is_disabled":false,"rental_uris":{"android":"levelo://app?vid=19ea3e44-33fe-480a-85de-3a8705428674","ios":"levelo://app?vid=19ea3e44-33fe-480a-85de-3a8705428674"},"vehicle_type_id":"4","last_reported":1767322717,"current_range_meters":10000,"station_id":"ce4bh492rcd13ifvqdvg","pricing_plan_id":"cebpf4jnsgd1na2vs0mg"},{"bike_id":"c52e4d9b-73c6-4a4e-a517-10da5d2e095e","system_id":"levelo_inurba_marseille","lat":43.30801,"lon":5.37612,"is_reserved":false,"is_disabled":false,"rental_uris":{"android":"levelo://app?vid=c52e4d9b-73c6-4a4e-a517-10da5d2e095e","ios":"levelo://app?vid=c52e4d9b-73c6-4a4e-a517-10da5d2e095e"},"vehicle_type_id":"4","last_reported":1767322717,"current_range_meters":10000,"station_id":"ce4bgv92rcd13ifvqcq0","pricing_plan_id":"cebpf4jnsgd1na2vs0mg"},{"bike_id":"222fb9ec-2875-4ac5-9c40-850f5a12dca5","system_id":"levelo_inurba_marseille","lat":43.26951,"lon":5.38628,"is_reserved":false,"is_disabled":false,"rental_uris":{"android":"levelo://app?vid=222fb9ec-2875-4ac5-9c40-850f5a12dca5","ios":"levelo://app?vid=222fb9ec-2875-4ac5-9c40-850f5a12dca5"},"vehicle_type_id":"4","last_reported":1767322717,"current_range_meters":10000,"station_id":"ce4bhh92rcd13ifvqfh0","pricing_plan_id":"cebpf4jnsgd1na2vs0mg"},{"bike_id":"f3962737-94b9-4206-bf68-00425886742a","system_id":"levelo_inurba_marseille","lat":43.24392,"lon":5.37069,"is_reserved":false,"is_disabled":false,"rental_uris":{"android":"levelo://app?vid=f3962737-94b9-4206-bf68-00425886742a","ios":"levelo://app?vid=f3962737-94b9-4206-bf68-00425886742a"},"vehicle_type_id":"4","last_reported":1767322717,"current_range_meters":10000,"station_id":"ce4bhhh2rcd13ifvqfk0","pricing_plan_id":"cebpf4jnsgd1na2vs0mg"},{"bike_id":"8b9044ec-34f3-40e4-9e14-9b0e8f8dc3fd","system_id":"levelo_inurba_marseille","lat":43.24971,"lon":5.38931,"is_reserved":false,"is_disabled":false,"rental_uris":{"android":"levelo://app?vid=8b9044ec-34f3-40e4-9e14-9b0e8f8dc3fd","ios":"levelo://app?vid=8b9044ec-34f3-40e4-9e14-9b0e8f8dc3fd"},"vehicle_type_id":"4","last_reported":1767322717,"current_range_meters":10000,"station_id":"ce4bhgp2rcd13ifvqfd0","pricing_plan_id":"cebpf4jnsgd1na2vs0mg"},{"bike_id":"f89a7ab5-4f10-40db-80a7-7c57c53bb059","system_id":"levelo_inurba_marseille","lat":43.2672,"lon":5.40671,"is_reserved":false,"is_disabled":false,"rental_uris":{"android":"levelo://app?vid=f89a7ab5-4f10-40db-80a7-7c57c53bb059","ios":"levelo://app?vid=f89a7ab5-4f10-40db-80a7-7c57c53bb059"},"vehicle_type_id":"4","last_reported":1767322717,"current_range_meters":10000,"station_id":"","pricing_plan_id":"cebpf4jnsgd1na2vs0mg"},{"bike_id":"61ce0408-17ed-4676-9b58-e317bf8b9269","system_id":"levelo_inurba_marseille","lat":43.273123,"lon":5.391269,"is_reserved":false,"is_disabled":false,"rental_uris":{"android":"levelo://app?vid=61ce0408-17ed-4676-9b58-e317bf8b9269","ios":"levelo://app?vid=61ce0408-17ed-4676-9b58-e317bf8b9269"},"vehicle_type_id":"4","last_reported":1767322717,"current_range_meters":10000,"station_id":"ce4bhgp2rcd13ifvqfe0","pricing_plan_id":"cebpf4jnsgd1na2vs0mg"},{"bike_id":"bc37c0d9-122a-4d74-b3e1-5b0dc8a43908","system_id":"levelo_inurba_marseille","lat":43.28486,"lon":5.42881,"is_reserved":false,"is_disabled":false,"rental_uris":{"android":"levelo://app?vid=bc37c0d9-122a-4d74-b3e1-5b0dc8a43908","ios":"levelo://app?vid=bc37c0d9-122a-4d74-b3e1-5b0dc8a43908"},"vehicle_type_id":"4","last_reported":1767322717,"current_range_meters":10000,"station_id":"","pricing_plan_id":"cebpf4jnsgd1na2vs0mg"},{"bike_id":"a0346e0f-5053-4c68-8ae4-a95cd85e0eb8","system_id":"levelo_inurba_marseille","lat":43.28424,"lon":5.34965,"is_reserved":false,"is_disabled":false,"rental_uris":{"android":"levelo://app?vid=a0346e0f-5053-4c68-8ae4-a95cd85e0eb8","ios":"levelo://app?vid=a0346e0f-5053-4c68-8ae4-a95cd85e0eb8"},"vehicle_type_id":"4","last_reported":1767322717,"current_range_meters":10000,"station_id":"ce4bhbh2rcd13ifvqepg","pricing_plan_id":"cebpf4jnsgd1na2vs0mg"},{"bike_id":"0d6bb5ad-dcd1-405b-b68d-99b30db1c271","system_id":"levelo_inurba_marseille","lat":43.27869,"lon":5.38588,"is_reserved":false,"is_disabled":false,"rental_uris":{"android":"levelo://app?vid=0d6bb5ad-dcd1-405b-b68d-99b30db1c271","ios":"levelo://app?vid=0d6bb5ad-dcd1-405b-b68d-99b30db1c271"},"vehicle_type_id":"4","last_reported":1767322717,"current_range_meters":10000,"station_id":"","pricing_plan_id":"cebpf4jnsgd1na2vs0mg"},{"bike_id":"5b8e0877-74d0-4505-84b4-8c7975a373e7","system_id":"levelo_inurba_marseille","lat":43.29662,"lon":5.3803,"is_reserved":false,"is_disabled":false,"rental_uris":{"android":"levelo://app?vid=5b8e0877-74d0-4505-84b4-8c7975a373e7","ios":"levelo://app?vid=5b8e0877-74d0-4505-84b4-8c7975a373e7"},"vehicle_type_id":"4","last_reported":1767322717,"current_range_meters":10000,"station_id":"","pricing_plan_id":"cebpf4jnsgd1na2vs0mg"},{"bike_id":"81640354-1fdb-4e0c-8b2a-c31f90862a44","system_id":"levelo_inurba_marseille","lat":43.30504,"lon":5.39421,"is_reserved":false,"is_disabled":false,"rental_uris":{"android":"levelo://app?vid=81640354-1fdb-4e0c-8b2a-c31f90862a44","ios":"levelo://app?vid=81640354-1fdb-4e0c-8b2a-c31f90862a44"},"vehicle_type_id":"4","last_reported":1767322717,"current_range_meters":10000,"station_id":"","pricing_plan_id":"cebpf4jnsgd1na2vs0mg"},{"bike_id":"78c8ad7f-7bb2-46d9-85b1-33ea630160d6","system_id":"levelo_inurba_marseille","lat":43.30596,"lon":5.39351,"is_reserved":false,"is_disabled":false,"rental_uris":{"android":"levelo://app?vid=78c8ad7f-7bb2-46d9-85b1-33ea630160d6","ios":"levelo://app?vid=78c8ad7f-7bb2-46d9-85b1-33ea630160d6"},