{"last_updated":1731331021,"ttl":60,"version":"2.2","data":{"bikes":[{"bike_id":"721fbd53-b0c5-4b4d-8347-51c88d10df20","system_id":"levelo_inurba_marseille","lat":43.24807,"lon":5.37451,"is_reserved":false,"is_disabled":false,"rental_uris":{"android":"levelo://app?vid=721fbd53-b0c5-4b4d-8347-51c88d10df20","ios":"levelo://app?vid=721fbd53-b0c5-4b4d-8347-51c88d10df20"},"vehicle_type_id":"4","last_reported":1731331021,"current_range_meters":36000,"station_id":"ce4bhgh2rcd13ifvqfb0","pricing_plan_id":"cebpf4jnsgd1na2vs0mg"},{"bike_id":"55f338da-564d-4339-bcb5-5d0a4b68c4e6","system_id":"levelo_inurba_marseille","lat":43.31026,"lon":5.40142,"is_reserved":false,"is_disabled":false,"rental_uris":{"android":"levelo://app?vid=55f338da-564d-4339-bcb5-5d0a4b68c4e6","ios":"levelo://app?vid=55f338da-564d-4339-bcb5-5d0a4b68c4e6"},"vehicle_type_id":"4","last_reported":1731331021,"current_range_meters":4800,"station_id":"","pricing_plan_id":"cebpf4jnsgd1na2vs0mg"},{"bike_id":"c53d3702-81f6-4381-b998-2f654d36886a","system_id":"levelo_inurba_marseille","lat":43.28251,"lon":5.35092,"is_reserved":false,"is_disabled":false,"rental_uris":{"android":"levelo://app?vid=c53d3702-81f6-4381-b998-2f654d36886a","ios":"levelo://app?vid=c53d3702-81f6-4381-b998-2f654d36886a"},"vehicle_type_id":"4","last_reported":1731331021,"current_range_meters":28400,"station_id":"ce4bhbp2rcd13ifvqerg","pricing_plan_id":"cebpf4jnsgd1na2vs0mg"},{"bike_id":"12c39770-5b00-40c5-9111-5821ecf115ad","system_id":"levelo_inurba_marseille","lat":43.29034,"lon":5.37567,"is_reserved":false,"is_disabled":false,"rental_uris":{"android":"levelo://app?vid=12c39770-5b00-40c5-9111-5821ecf115ad","ios":"levelo://app?vid=12c39770-5b00-40c5-9111-5821ecf115ad"},"vehicle_type_id":"4","last_reported":1731331021,"current_range_meters":10800,"station_id":"ce4bh692rcd13ifvqe90","pricing_plan_id":"cebpf4jnsgd1na2vs0mg"},{"bike_id":"05d8d9ca-0625-4c28-b1df-89bf63c59547","system_id":"levelo_inurba_marseille","lat":43.27971,"lon":5.3874,"is_reserved":false,"is_disabled":false,"rental_uris":{"android":"levelo://app?vid=05d8d9ca-0625-4c28-b1df-89bf63c59547","ios":"levelo://app?vid=05d8d9ca-0625-4c28-b1df-89bf63c59547"},"vehicle_type_id":"4","last_reported":1731331021,"current_range_meters":18800,"station_id":"ce4bhg12rcd13ifvqf80","pricing_plan_id":"cebpf4jnsgd1na2vs0mg"},{"bike_id":"4fef4701-0d86-4e0c-9971-790a51913c3c","system_id":"levelo_inurba_marseille","lat":43.23177,"lon":5.4,"is_reserved":false,"is_disabled":false,"rental_uris":{"android":"levelo://app?vid=4fef4701-0d86-4e0c-9971-790a51913c3c","ios":"levelo://app?vid=4fef4701-0d86-4e0c-9971-790a51913c3c"},"vehicle_type_id":"4","last_reported":1731331021,"current_range_meters":14000,"station_id":"ce4bhn12rcd13ifvqgqg","pricing_plan_id":"cebpf4jnsgd1na2vs0mg"},{"bike_id":"4d63f802-306a-4f3b-b202-47021c2fa507","system_id":"levelo_inurba_marseille","lat":43.25498,"lon":5.37651,"is_reserved":false,"is_disabled":false,"rental_uris":{"android":"levelo://app?vid=4d63f802-306a-4f3b-b202-47021c2fa507","ios":"levelo://app?vid=4d63f802-306a-4f3b-b202-47021c2fa507"},"vehicle_type_id":"4","last_reported":1731331021,"current_range_meters":6800,"station_id":"ce4bhh12rcd13ifvqff0","pricing_plan_id":"cebpf4jnsgd1na2vs0mg"},{"bike_id":"360d6fe2-5226-4943-b485-a1144ae29e6d","system_id":"levelo_inurba_marseille","lat":43.28617,"lon":5.35104,"is_reserved":false,"is_disabled":false,"rental_uris":{"android":"levelo://app?vid=360d6fe2-5226-4943-b485-a1144ae29e6d","ios":"levelo://app?vid=360d6fe2-5226-4943-b485-a1144ae29e6d"},"vehicle_type_id":"4","last_reported":1731331021,"current_range_meters":35600,"station_id":"","pricing_plan_id":"cebpf4jnsgd1na2vs0mg"},{"bike_id":"346ebc3c-4b19-49c5-90bb-a85bff191750","system_id":"levelo_inurba_marseille","lat":43.27053,"lon":5.40268,"is_reserved":false,"is_disabled":false,"rental_uris":{"android":"levelo://app?vid=346ebc3c-4b19-49c5-90bb-a85bff191750","ios":"levelo://app?vid=346ebc3c-4b19-49c5-90bb-a85bff191750"},"vehicle_type_id":"4","last_reported":1731331021,"current_range_meters":36000,"station_id":"ce4bhk92rcd13ifvqgc0","pricing_plan_id":"cebpf4jnsgd1na2vs0mg"},{"bike_id":"55a5313f-9906-4be1-9637-b8e0fb895c2c","system_id":"levelo_inurba_marseille","lat":43.26199,"lon":5.37933,"is_reserved":false,"is_disabled":false,"rental_uris":{"android":"levelo://app?vid=55a5313f-9906-4be1-9637-b8e0fb895c2c","ios":"levelo://app?vid=55a5313f-9906-4be1-9637-b8e0fb895c2c"},"vehicle_type_id":"4","last_reported":1731331021,"current_range_meters":16400,"station_id":"ce4bhjp2rcd13ifvqg90","pricing_plan_id":"cebpf4jnsgd1na2vs0mg"},{"bike_id":"d7ed4daa-790d-4f9b-99a3-6f11c7474e64","system_id":"levelo_inurba_marseille","lat":43.28266,"lon":5.35079,"is_reserved":false,"is_disabled":false,"rental_uris":{"android":"levelo://app?vid=d7ed4daa-790d-4f9b-99a3-6f11c7474e64","ios":"levelo://app?vid=d7ed4daa-790d-4f9b-99a3-6f11c7474e64"},"vehicle_type_id":"4","last_reported":1731331021,"current_range_meters":25600,"station_id":"ce4bhbp2rcd13ifvqerg","pricing_plan_id":"cebpf4jnsgd1na2vs0mg"},{"bike_id":"6d0d5526-2b6c-4eee-93d6-42c07dbe7b80","system_id":"levelo_inurba_marseille","lat":43.25502,"lon":5.37651,"is_reserved":false,"is_disabled":false,"rental_uris":{"android":"levelo://app?vid=6d0d5526-2b6c-4eee-93d6-42c07dbe7b80","ios":"levelo://app?vid=6d0d5526-2b6c-4eee-93d6-42c07dbe7b80"},"vehicle_type_id":"4","last_reported":1731331021,"current_range_meters":40000,"station_id":"ce4bhh12rcd13ifvqff0","pricing_plan_id":"cebpf4jnsgd1na2vs0mg"},{"bike_id":"98fabddd-012c-45b1-b4aa-d2b3574c46f7","system_id":"levelo_inurba_marseille","lat":43.27971,"lon":5.38742,"is_reserved":false,"is_disabled":false,"rental_uris":{"android":"levelo://app?vid=98fabddd-012c-45b1-b4aa-d2b3574c46f7","ios":"levelo://app?vid=98fabddd-012c-45b1-b4aa-d2b3574c46f7"},"vehicle_type_id":"4","last_reported":1731331021,"current_range_meters":21600,"station_id":"ce4bhg12rcd13ifvqf80","pricing_plan_id":"cebpf4jnsgd1na2vs0mg"},{"bike_id":"b5b18391-669d-4dba-91cd-a001f0eef768","system_id":"levelo_inurba_marseille","lat":43.24805,"lon":5.37458,"is_reserved":false,"is_disabled":false,"rental_uris":{"android":"levelo://app?vid=b5b18391-669d-4dba-91cd-a001f0eef768","ios":"levelo://app?vid=b5b18391-669d-4dba-91cd-a001f0eef768"},"vehicle_type_id":"4","last_reported":1731331021,"current_range_meters":7200,"station_id":"ce4bhgh2rcd13ifvqfb0","pricing_plan_id":"cebpf4jnsgd1na2vs0mg"},{"bike_id":"21dde677-107f-4b15-a499-7a4daf4d2706","system_id":"levelo_inurba_marseille","lat":43.2558,"lon":5.38235,"is_reserved":false,"is_disabled":false,"rental_uris":{"android":"levelo://app?vid=21dde677-107f-4b15-a499-7a4daf4d2706","ios":"levelo://app?vid=21dde677-107f-4b15-a499-7a4daf4d2706"},"vehicle_type_id":"4","last_reported":1731331021,"current_range_meters":30400,"station_id":"ce4bhih2rcd13ifvqfs0","pricing_plan_id":"cebpf4jnsgd1na2vs0mg"},{"bike_id":"9919db7a-8b4f-4220-becb-f54e10b5b1b8","system_id":"levelo_inurba_marseille","lat":43.23058,"lon":5.35492,"is_reserved":false,"is_disabled":false,"rental_uris":{"android":"levelo://app?vid=9919db7a-8b4f-4220-becb-f54e10b5b1b8","ios":"levelo://app?vid=9919db7a-8b4f-4220-becb-f54e10b5b1b8"},"vehicle_type_id":"4","last_reported":1731331021,"current_range_meters":36800,"station_id":"cpo3342slgdg3j2ifvpg","pricing_plan_id":"cebpf4jnsgd1na2vs0mg"},{"bike_id":"5fb393c3-84e2-439f-94a1-e61f74163abd","system_id":"levelo_inurba_marseille","lat":43.22932,"lon":5.35377,"is_reserved":false,"is_disabled":false,"rental_uris":{"android":"levelo://app?vid=5fb393c3-84e2-439f-94a1-e61f74163abd","ios":"levelo://app?vid=5fb393c3-84e2-439f-94a1-e61f74163abd"},"vehicle_type_id":"4","last_reported":1731331021,"current_range_meters":25200,"station_id":"cpo3532slgdg3j2ikp40","pricing_plan_id":"cebpf4jnsgd1na2vs0mg"},{"bike_id":"91c8f865-5719-41a7-ab38-4bf9781df352","system_id":"levelo_inurba_marseille","lat":43.23155,"lon":5.43714,"is_reserved":false,"is_disabled":false,"rental_uris":{"android":"levelo://app?vid=91c8f865-5719-41a7-ab38-4bf9781df352","ios":"levelo://app?vid=91c8f865-5719-41a7-ab38-4bf9781df352"},"vehicle_type_id":"4","last_reported":1731331021,"current_range_meters":7200,"station_id":"ce4bhmp2rcd13ifvqgog","pricing_plan_id":"cebpf4jnsgd1na2vs0mg"},{"bike_id":"1ec31f50-d96c-47c6-9806-96f227089cd4","system_id":"levelo_inurba_marseille","lat":43.27491,"lon":5.42462,"is_reserved":false,"is_disabled":false,"rental_uris":{"android":"levelo://app?vid=1ec31f50-d96c-47c6-9806-96f227089cd4","ios":"levelo://app?vid=1ec31f50-d96c-47c6-9806-96f227089cd4"},"vehicle_type_id":"4","last_reported":1731331021,"current_range_meters":37600,"station_id":"ce4bhn92rcd13ifvqgrg","pricing_plan_id":"cebpf4jnsgd1na2vs0mg"},{"bike_id":"40cdbe10-871d-42a6-9ecd-efe75d14defe","system_id":"levelo_inurba_marseille","lat":43.29927,"lon":5.36549,"is_reserved":false,"is_disabled":false,"rental_uris":{"android":"levelo://app?vid=40cdbe10-871d-42a6-9ecd-efe75d14defe","ios":"levelo://app?vid=40cdbe10-871d-42a6-9ecd-efe75d14defe"},"vehicle_type_id":"4","last_reported":1731331021,"current_range_meters":4800,"station_id":"ce4bgm92rcd13ifvqbr0","pricing_plan_id":"cebpf4jnsgd1na2vs0mg"},{"bike_id":"c9216ae2-5f88-401f-a710-0aa3cb5fdcd7","system_id":"levelo_inurba_marseille","lat":43.24803,"lon":5.37462,"is_reserved":false,"is_disabled":false,"rental_uris":{"android":"levelo://app?vid=c9216ae2-5f88-401f-a710-0aa3cb5fdcd7","ios":"levelo://app?vid=c9216ae2-5f88-401f-a710-0aa3cb5fdcd7"},"vehicle_type_id":"4","last_reported":1731331021,"current_range_meters":26800,"station_id":"ce4bhgh2rcd13ifvqfb0","pricing_plan_id":"cebpf4jnsgd1na2vs0mg"},{"bike_id":"c04e085b-2f93-438c-8325-3e100325499e","system_id":"levelo_inurba_marseille","lat":43.25001,"lon":5.3893,"is_reserved":false,"is_disabled":false,"rental_uris":{"android":"levelo://app?vid=c04e085b-2f93-438c-8325-3e100325499e","ios":"levelo://app?vid=c04e085b-2f93-438c-8325-3e100325499e"},"vehicle_type_id":"4","last_reported":1731331021,"current_range_meters":36800,"station_id":"ce4bhgp2rcd13ifvqfd0","pricing_plan_id":"cebpf4jnsgd1na2vs0mg"},{"bike_id":"adefca4b-6e4d-4ed4-92be-a18fe9bd3b81","system_id":"levelo_inurba_marseille","lat":43.2938,"lon":5.37865,"is_reserved":false,"is_disabled":false,"rental_uris":{"android":"levelo://app?vid=adefca4b-6e4d-4ed4-92be-a18fe9bd3b81","ios":"levelo://app?vid=adefca4b-6e4d-4ed4-92be-a18fe9bd3b81"},"vehicle_type_id":"4","last_reported":1731331021,"current_range_meters":16400,"station_id":"ce4bgjh2rcd13ifvqbf0","pricing_plan_id":"cebpf4jnsgd1na2vs0mg"},{"bike_id":"96ac797d-fee3-4d9f-93fe-eff2df4bd39e","system_id":"levelo_inurba_marseille","lat":43.23192,"lon":5.35548,"is_reserved":false,"is_disabled":false,"rental_uris":{"android":"levelo://app?vid=96ac797d-fee3-4d9f-93fe-eff2df4bd39e","ios":"levelo://app?vid=96ac797d-fee3-4d9f-93fe-eff2df4bd39e"},"vehicle_type_id":"4","last_reported":1731331021,"current_range_meters":15200,"station_id":"ce4bhu92rcd13ifvqi70","pricing_plan_id":"cebpf4jnsgd1na2vs0mg"},{"bike_id":"5f8acd82-8243-4688-9679-09e7f3c9e0da","system_id":"levelo_inurba_marseille","lat":43.31223,"lon":5.36835,"is_reserved":false,"is_disabled":false,"rental_uris":{"android":"levelo://app?vid=5f8acd82-8243-4688-9679-09e7f3c9e0da","ios":"levelo://app?vid=5f8acd82-8243-4688-9679-09e7f3c9e0da"},"vehicle_type_id":"4","last_reported":1731331021,"current_range_meters":36800,"station_id":"ce4bgl92rcd13ifvqbq0","pricing_plan_id":"cebpf4jnsgd1na2vs0mg"},{"bike_id":"9b3427b5-8835-4521-9768-5d8a9529e3ab","system_id":"levelo_inurba_marseille","lat":43.25497,"lon":5.37651,"is_reserved":false,"is_disabled":false,"rental_uris":{"android":"levelo://app?vid=9b3427b5-8835-4521-9768-5d8a9529e3ab","ios":"levelo://app?vid=9b3427b5-8835-4521-9768-5d8a9529e3ab"},"vehicle_type_id":"4","last_reported":1731331021,"current_range_meters":39200,"station_id":"ce4bhh12rcd13ifvqff0","pricing_plan_id":"cebpf4jnsgd1na2vs0mg"},{"bike_id":"2253dd2f-adf0-4962-907e-e835f7372f74","system_id":"levelo_inurba_marseille","lat":43.23156,"lon":5.43711,"is_reserved":false,"is_disabled":false,"rental_uris":{"android":"levelo://app?vid=2253dd2f-adf0-4962-907e-e835f7372f74","ios":"levelo://app?vid=2253dd2f-adf0-4962-907e-e835f7372f74"},"vehicle_type_id":"4","last_reported":1731331021,"current_range_meters":15200,"station_id":"ce4bhmp2rcd13ifvqgog","pricing_plan_id":"cebpf4jnsgd1na2vs0mg"},{"bike_id":"ea66599e-6116-4c74-a5e2-e20d242f9692","system_id":"levelo_inurba_marseille","lat":43.33727,"lon":5.39174,"is_reserved":false,"is_disabled":false,"rental_uris":{"android":"levelo://app?vid=ea66599e-6116-4c74-a5e2-e20d242f9692","ios":"levelo://app?vid=ea66599e-6116-4c74-a5e2-e20d242f9692"},"vehicle_type_id":"4","last_reported":1731331021,"current_range_meters":36800,"station_id":"ce4bhr92rcd13ifvqhsg","pricing_plan_id":"cebpf4jnsgd1na2vs0mg"},{"bike_id":"b81ee9db-87fc-45da-a598-7bae9bbe6aed","system_id":"levelo_inurba_marseille","lat":43.27181,"lon":5.41002,"is_reserved":false,"is_disabled":false,"rental_uris":{"android":"levelo://app?vid=b81ee9db-87fc-45da-a598-7bae9bbe6aed","ios":"levelo://app?vid=b81ee9db-87fc-45da-a598-7bae9bbe6aed"},"vehicle_type_id":"4","last_reported":1731331021,"current_range_meters":35200,"station_id":"ce4bhl12rcd13ifvqgf0","pricing_plan_id":"cebpf4jnsgd1na2vs0mg"},{"bike_id":"920ad4fc-3b7a-4e9a-9d7a-56c634f46550","system_id":"levelo_inurba_marseille","lat":43.26208,"lon":5.37453,"is_reserved":false,"is_disabled":false,"rental_uris":{"android":"levelo://app?vid=920ad4fc-3b7a-4e9a-9d7a-56c634f46550","ios":"levelo://app?vid=920ad4fc-3b7a-4e9a-9d7a-56c634f46550"},"vehicle_type_id":"4","last_reported":1731331021,"current_range_meters":27600,"station_id":"ce4bhgp2rcd13ifvqfc0","pricing_plan_id":"cebpf4jnsgd1na2vs0mg"},{"bike_id":"f669496d-fae4-44fd-8a51-586e76ca89f8","system_id":"levelo_inurba_marseille","lat":43.23195,"lon":5.35555,"is_reserved":false,"is_disabled":false,"rental_uris":{"android":"levelo://app?vid=f669496d-fae4-44fd-8a51-586e76ca89f8","ios":"levelo://app?vid=f669496d-fae4-44fd-8a51-586e76ca89f8"},"vehicle_type_id":"4","last_reported":1731331021,"current_range_meters":16000,"station_id":"ce4bhu92rcd13ifvqi70","pricing_plan_id":"cebpf4jnsgd1na2vs0mg"},{"bike_id":"333a8fd1-0af5-4d2d-8e99-f8610bc57a84","system_id":"levelo_inurba_marseille","lat":43.2396,"lon":5.36639,"is_reserved":false,"is_disabled":false,"rental_uris":{"android":"levelo://app?vid=333a8fd1-0af5-4d2d-8e99-f8610bc57a84","ios":"levelo://app?vid=333a8fd1-0af5-4d2d-8e99-f8610bc57a84"},"vehicle_type_id":"4","last_reported":1731331021,"current_range_meters":10800,"station_id":"ce4bhi12rcd13ifvqfp0","pricing_plan_id":"cebpf4jnsgd1na2vs0mg"},{"bike_id":"e45c3b16-9d56-4cb0-9735-cef5134d710a","system_id":"levelo_inurba_marseille","lat":43.25502,"lon":5.37648,"is_reserved":false,"is_disabled":false,"rental_uris":{"android":"levelo://app?vid=e45c3b16-9d56-4cb0-9735-cef5134d710a","ios":"levelo://app?vid=e45c3b16-9d56-4cb0-9735-cef5134d710a"},"vehicle_type_id":"4","last_reported":1731331021,"current_range_meters":15200,"station_id":"ce4bhh12rcd13ifvqff0","pricing_plan_id":"cebpf4jnsgd1na2vs0mg"},{"bike_id":"f2f2ad49-af25-4b8e-8e5a-253d5f2d2ed5","system_id":"levelo_inurba_marseille","lat":43.28415,"lon":5.34994,"is_reserved":false,"is_disabled":false,"rental_uris":{"android":"levelo://app?vid=f2f2ad49-af25-4b8e-8e5a-253d5f2d2ed5","ios":"levelo://app?vid=f2f2ad49-af25-4b8e-8e5a-253d5f2d2ed5"},"vehicle_type_id":"4","last_reported":1731331021,"current_range_meters":32000,"station_id":"ce4bhbh2rcd13ifvqepg","pricing_plan_id":"cebpf4jnsgd1na2vs0mg"},{"bike_id":"2972f759-c98e-4fe7-9758-85d215895273","system_id":"levelo_inurba_marseille","lat":43.23958,"lon":5.36622,"is_reserved":false,"is_disabled":false,"rental_uris":{"android":"levelo://app?vid=2972f759-c98e-4fe7-9758-85d215895273","ios":"levelo://app?vid=2972f759-c98e-4fe7-9758-85d215895273"},"vehicle_type_id":"4","last_reported":1731331021,"current_range_meters":30400,"station_id":"ce4bhi12rcd13ifvqfp0","pricing_plan_id":"cebpf4jnsgd1na2vs0mg"},{"bike_id":"d09e5479-52d1-4d64-98d0-a5aad6b6f27b","system_id":"levelo_inurba_marseille","lat":43.26713,"lon":5.39658,"is_reserved":false,"is_disabled":false,"rental_uris":{"android":"levelo://app?vid=d09e5479-52d1-4d64-98d0-a5aad6b6f27b","ios":"levelo://app?vid=d09e5479-52d1-4d64-98d0-a5aad6b6f27b"},"vehicle_type_id":"4","last_reported":1731331021,"current_range_meters":10000,"station_id":"ce4bhh92rcd13ifvqfj0","pricing_plan_id":"cebpf4jnsgd1na2vs0mg"},{"bike_id":"6f0df7a2-6c9e-4ac0-b4b6-a509278f42ae","system_id":"levelo_inurba_marseille","lat":43.28269,"lon":5.35082,"is_reserved":false,"is_disabled":false,"rental_uris":{"android":"levelo://app?vid=6f0df7a2-6c9e-4ac0-b4b6-a509278f42ae","ios":"levelo://app?vid=6f0df7a2-6c9e-4ac0-b4b6-a509278f42ae"},"vehicle_type_id":"4","last_reported":1731331021,"current_range_meters":38800,"station_id":"ce4bhbp2rcd13ifvqerg","pricing_plan_id":"cebpf4jnsgd1na2vs0mg"},{"bike_id":"b70e5e0c-b305-497b-a613-678833a2146e","system_id":"levelo_inurba_marseille","lat":43.23151,"lon":5.43726,"is_reserved":false,"is_disabled":false,"rental_uris":{"android":"levelo://app?vid=b70e5e0c-b305-497b-a613-678833a2146e","ios":"levelo://app?vid=b70e5e0c-b305-497b-a613-678833a2146e"},"vehicle_type_id":"4","last_reported":1731331021,"current_range_meters":38400,"station_id":"ce4bhmp2rcd13ifvqgog","pricing_plan_id":"cebpf4jnsgd1na2vs0mg"},{"bike_id":"7f3e1ff6-1483-4b12-acd5-3838fb7f84bf","system_id":"levelo_inurba_marseille","lat":43.23966,"lon":5.36628,"is_reserved":false,"is_disabled":false,"rental_uris":{"android":"levelo://app?vid=7f3e1ff6-1483-4b12-acd5-3838fb7f84bf","ios":"levelo://app?vid=7f3e1ff6-1483-4b12-acd5-3838fb7f84bf"},"vehicle_type_id":"4","last_reported":1731331021,"current_range_meters":16800,"station_id":"ce4bhi12rcd13ifvqfp0","pricing_plan_id":"cebpf4jnsgd1na2vs0mg"},{"bike_id":"b40c9466-e600-43f9-8b74-f177bb2c2e3a","system_id":"levelo_inurba_marseille","lat":43.24079,"lon":5.37752,"is_reserved":false,"is_disabled":false,"rental_uris":{"android":"levelo://app?vid=b40c9466-e600-43f9-8b74-f177bb2c2e3a","ios":"levelo://app?vid=b40c9466-e600-43f9-8b74-f177bb2c2e3a"},"vehicle_type_id":"4","last_reported":1731331021,"current_range_meters":24800,"station_id":"ce4bhnp2rcd13ifvqgvg","pricing_plan_id":"cebpf4jnsgd1na2vs0mg"},{"bike_id":"3a74e668-c81c-4ede-a059-9116e8f90e9b","system_id":"levelo_inurba_marseille","lat":43.2315,"lon":5.43711,"is_reserved":false,"is_disabled":false,"rental_uris":{"android":"levelo://app?vid=3a74e668-c81c-4ede-a059-9116e8f90e9b","ios":"levelo://app?vid=3a74e668-c81c-4ede-a059-9116e8f90e9b"},"vehicle_type_id":"4","last_reported":1731331021,"current_range_meters":38800,"station_id":"ce4bhmp2rcd13ifvqgog","pricing_plan_id":"cebpf4jnsgd1na2vs0mg"},{"bike_id":"8050e412-a32c-4830-b2c8-42f9f06f61c2","system_id":"levelo_inurba_marseille","lat":43.27058,"lon":5.40268,"is_reserved":false,"is_disabled":false,"rental_uris":{"android":"levelo://app?vid=8050e412-a32c-4830-b2c8-42f9f06f61c2","ios":"levelo://app?vid=8050e412-a32c-4830-b2c8-42f9f06f61c2"},"vehicle_type_id":"4","last_reported":1731331021,"current_range_meters":28000,"station_id":"ce4bhk92rcd13ifvqgc0","pricing_plan_id":"cebpf4jnsgd1na2vs0mg"},{"bike_id":"19bda9ac-6ba6-4a4d-97d3-c2c57ce71294","system_id":"levelo_inurba_marseille","lat":43.28412,"lon":5.3499,"is_reserved":false,"is_disabled":false,"rental_uris":{"android":"levelo://app?vid=19bda9ac-6ba6-4a4d-97d3-c2c57ce71294","ios":"levelo://app?vid=19bda9ac-6ba6-4a4d-97d3-c2c57ce71294"},"vehicle_type_id":"4","last_reported":1731331021,"current_range_meters":4400,"station_id":"ce4bhbh2rcd13ifvqepg","pricing_plan_id":"cebpf4jnsgd1na2vs0mg"},{"bike_id":"ae5f47d6-7993-49fb-9897-97a538303b0e","system_id":"levelo_inurba_marseille","lat":43.31894,"lon":5.40747,"is_reserved":false,"is_disabled":false,"rental_uris":{"android":"levelo://app?vid=ae5f47d6-7993-49fb-9897-97a538303b0e","ios":"levelo://app?vid=ae5f47d6-7993-49fb-9897-97a538303b0e"},"vehicle_type_id":"4","last_reported":1731331021,"current_range_meters":32800,"station_id":"ce4bhq12rcd13ifvqhig","pricing_plan_id":"cebpf4jnsgd1na2vs0mg"},{"bike_id":"8b867ec3-9f40-4218-bb82-8540d6bddad4","system_id":"levelo_inurba_marseille","lat":43.24394,"lon":5.37058,"is_reserved":false,"is_disabled":false,"rental_uris":{"android":"levelo://app?vid=8b867ec3-9f40-4218-bb82-8540d6bddad4","ios":"levelo://app?vid=8b867ec3-9f40-4218-bb82-8540d6bddad4"},"vehicle_type_id":"4","last_reported":1731331021,"current_range_meters":23200,"station_id":"ce4bhhh2rcd13ifvqfk0","pricing_plan_id":"cebpf4jnsgd1na2vs0mg"},{"bike_id":"af2ba120-baaa-460d-a585-6895b6ee57b0","system_id":"levelo_inurba_marseille","lat":43.23152,"lon":5.43716,"is_reserved":false,"is_disabled":false,"rental_uris":{"android":"levelo://app?vid=af2ba120-baaa-460d-a585-6895b6ee57b0","ios":"levelo://app?vid=af2ba120-baaa-460d-a585-6895b6ee57b0"},"vehicle_type_id":"4","last_reported":1731331021,"current_range_meters":35200,"station_id":"ce4bhmp2rcd13ifvqgog","pricing_plan_id":"cebpf4jnsgd1na2vs0mg"},{"bike_id":"81e3633b-c5e6-4f8f-860b-2d99a2f3f7e8","system_id":"levelo_inurba_marseille","lat":43.32539,"lon":5.41425,"is_reserved":false,"is_disabled":false,"rental_uris":{"android":"levelo://app?vid=81e3633b-c5e6-4f8f-860b-2d99a2f3f7e8","ios":"levelo://app?vid=81e3633b-c5e6-4f8f-860b-2d99a2f3f7e8"},"vehicle_type_id":"4","last_reported":1731331021,"current_range_meters":27200,"station_id":"ce4bhq12rcd13ifvqhhg","pricing_plan_id":"cebpf4jnsgd1na2vs0mg"},{"bike_id":"4e3e473c-46ba-4127-b0f1-b851dd5af7dd","system_id":"levelo_inurba_marseille","lat":43.28263,"lon":5.35068,"is_reserved":false,"is_disabled":false,"rental_uris":{"android":"levelo://app?vid=4e3e473c-46ba-4127-b0f1-b851dd5af7dd","ios":"levelo://app?vid=4e3e473c-46ba-4127-b0f1-b851dd5af7dd"},"vehicle_type_id":"4","last_reported":1731331021,"current_range_meters":6000,"station_id":"ce4bhbp2rcd13ifvqerg","pricing_plan_id":"cebpf4jnsgd1na2vs0mg"},{"bike_id":"ee029cd4-5bd2-435a-acde-8505033c6721","system_id":"levelo_inurba_marseille","lat":43.291984,"lon":5.357923,"is_reserved":false,"is_disabled":false,"rental_uris":{"android":"levelo://app?vid=ee029cd4-5bd2-435a-acde-8505033c6721","ios":"levelo://app?vid=ee029cd4-5bd2-435a-acde-8505033c6721"},"vehicle_type_id":"4","last_reported":1731331021,"current_range_meters":38000,"station_id":"ce4bhb12rcd13ifvqel0","pricing_plan_id":"cebpf4jnsgd1na2vs0mg"},{"bike_id":"f5f7adb1-08a0-41e5-84f8-4eacbb87fa6f","system_id":"levelo_inurba_marseille","lat":43.23955,"lon":5.36643,"is_reserved":false,"is_disabled":false,"rental_uris":{"android":"levelo://app?vid=f5f7adb1-08a0-41e5-84f8-4eacbb87fa6f","ios":"levelo://app?vid=f5f7adb1-08a0-41e5-84f8-4eacbb87fa6f"},"vehicle_type_id":"4","last_reported":1731331021,"current_range_meters":38400,"station_id":"ce4bhi12rcd13ifvqfp0","pricing_plan_id":"cebpf4jnsgd1na2vs0mg"},{"bike_id":"851779bb-3e79-4286-ac84-8245b0f01285","system_id":"levelo_inurba_marseille","lat":43.24547,"lon":5.39529,"is_reserved":false,"is_disabled":false,"rental_uris":{"android":"levelo://app?vid=851779bb-3e79-4286-ac84-8245b0f01285","ios":"levelo://app?vid=851779bb-3e79-4286-ac84-8245b0f01285"},"vehicle_type_id":"4","last_reported":1731331021,"current_range_meters":38800,"station_id":"ce4bhlp2rcd13ifvqgjg","pricing_plan_id":"cebpf4jnsgd1na2vs0mg"},{"bike_id":"c4773bc0-e021-4cc0-a28d-9360b0acc7dd","system_id":"levelo_inurba_marseille","lat":43.239652,"lon":5.366211,"is_reserved":false,"is_disabled":false,"rental_uris":{"android":"levelo://app?vid=c4773bc0-e021-4cc0-a28d-9360b0acc7dd","ios":"levelo://app?vid=c4773bc0-e021-4cc0-a28d-9360b0acc7dd"},"vehicle_type_id":"4","last_reported":1731331021,"current_range_meters":32000,"station_id":"ce4bhi12rcd13ifvqfp0","pricing_plan_id":"cebpf4jnsgd1na2vs0mg"},{"bike_id":"f3a8fd27-ca2a-49a9-ad6c-4fa8b2b91c34","system_id":"levelo_inurba_marseille","lat":43.33613,"lon":5.41035,"is_reserved":false,"is_disabled":false,"rental_uris":{"android":"levelo://app?vid=f3a8fd27-ca2a-49a9-ad6c-4fa8b2b91c34","ios":"levelo://app?vid=f3a8fd27-ca2a-49a9-ad6c-4fa8b2b91c34"},"vehicle_type_id":"4","last_reported":1731331021,"current_range_meters":2000,"station_id":"ce4bh512rcd13ifvqe3g","pricing_plan_id":"cebpf4jnsgd1na2vs0mg"},{"bike_id":"6b72b32c-e152-4d73-b460-847c7fea62ac","system_id":"levelo_inurba_marseille","lat":43.25719,"lon":5.41116,"is_reserved":false,"is_disabled":false,"rental_uris":{"android":"levelo://app?vid=6b72b32c-e152-4d73-b460-847c7fea62ac","ios":"levelo://app?vid=6b72b32c-e152-4d73-b460-847c7fea62ac"},"vehicle_type_id":"4","last_reported":1731331021,"current_range_meters":32400,"station_id":"ce4bhkp2rcd13ifvqgd0","pricing_plan_id":"cebpf4jnsgd1na2vs0mg"},{"bike_id":"98489f12-2dad-4060-9511-e44723ed9380","system_id":"levelo_inurba_marseille","lat":43.23182,"lon":5.39994,"is_reserved":false,"is_disabled":false,"rental_uris":{"android":"levelo://app?vid=98489f12-2dad-4060-9511-e44723ed9380","ios":"levelo://app?vid=98489f12-2dad-4060-9511-e44723ed9380"},"vehicle_type_id":"4","last_reported":1731331021,"current_range_meters":19200,"station_id":"ce4bhn12rcd13ifvqgqg","pricing_plan_id":"cebpf4jnsgd1na2vs0mg"},{"bike_id":"c28c30a0-39dd-4299-a220-222985df9d05","system_id":"levelo_inurba_marseille","lat":43.3414,"lon":5.40901,"is_reserved":false,"is_disabled":false,"rental_uris":{"android":"levelo://app?vid=c28c30a0-39dd-4299-a220-222985df9d05","ios":"levelo://app?vid=c28c30a0-39dd-4299-a220-222985df9d05"},"vehicle_type_id":"4","last_reported":1731331021,"current_range_meters":30400,"station_id":"ce4bhqh2rcd13ifvqhlg","pricing_plan_id":"cebpf4jnsgd1na2vs0mg"},{"bike_id":"aebf389d-d557-42cb-9a83-26709e2249b2","system_id":"levelo_inurba_marseille","lat":43.24808,"lon":5.37459,"is_reserved":false,"is_disabled":false,"rental_uris":{"android":"levelo://app?vid=aebf389d-d557-42cb-9a83-26709e2249b2","ios":"levelo://app?vid=aebf389d-d557-42cb-9a83-26709e2249b2"},"vehicle_type_id":"4","last_reported":1731331021,"current_range_meters":27200,"station_id":"ce4bhgh2rcd13ifvqfb0","pricing_plan_id":"cebpf4jnsgd1na2vs0mg"},{"bike_id":"85e2f4f3-6aa2-4c02-8cb0-3f10017cc61a","system_id":"levelo_inurba_marseille","lat":43.25084,"lon":5.39519,"is_reserved":false,"is_disabled":false,"rental_uris":{"android":"levelo://app?vid=85e2f4f3-6aa2-4c02-8cb0-3f10017cc61a","ios":"levelo://app?vid=85e2f4f3-6aa2-4c02-8cb0-3f10017cc61a"},"vehicle_type_id":"4","last_reported":1731331021,"current_range_meters":40000,"station_id":"ce4bhm12rcd13ifvqgkg","pricing_plan_id":"cebpf4jnsgd1na2vs0mg"},{"bike_id":"83990c5b-8905-47da-ab11-2295b72233ff","system_id":"levelo_inurba_marseille","lat":43.2827,"lon":5.35064,"is_reserved":false,"is_disabled":false,"rental_uris":{"android":"levelo://app?vid=83990c5b-8905-47da-ab11-2295b72233ff","ios":"levelo://app?vid=83990c5b-8905-47da-ab11-2295b72233ff"},"vehicle_type_id":"4","last_reported":1731331021,"current_range_meters":27600,"station_id":"ce4bhbp2rcd13ifvqerg","pricing_plan_id":"cebpf4jnsgd1na2vs0mg"},{"bike_id":"3d6ab80a-d16b-4bfc-b98e-9b75f8902807","system_id":"levelo_inurba_marseille","lat":43.28262,"lon":5.35078,"is_reserved":false,"is_disabled":false,"rental_uris":{"android":"levelo://app?vid=3d6ab80a-d16b-4bfc-b98e-9b75f8902807","ios":"levelo://app?vid=3d6ab80a-d16b-4bfc-b98e-9b75f8902807"},"vehicle_type_id":"4","last_reported":1731331021,"current_range_meters":33200,"station_id":"ce4bhbp2rcd13ifvqerg","pricing_plan_id":"cebpf4jnsgd1na2vs0mg"},{"bike_id":"dd5f1716-d9fc-4b5a-bb9b-9777d93017b4","system_id":"levelo_inurba_marseille","lat":43.28411,"lon":5.34994,"is_reserved":false,"is_disabled":false,"rental_uris":{"android":"levelo://app?vid=dd5f1716-d9fc-4b5a-bb9b-9777d93017b4","ios":"levelo://app?vid=dd5f1716-d9fc-4b5a-bb9b-9777d93017b4"},"vehicle_type_id":"4","last_reported":1731331021,"current_range_meters":20000,"station_id":"ce4bhbh2rcd13ifvqepg","pricing_plan_id":"cebpf4jnsgd1na2vs0mg"},{"bike_id":"1348ab3b-862b-4b63-9222-197e3ceb49e1","system_id":"levelo_inurba_marseille","lat":43.25493,"lon":5.3765,"is_reserved":false,"is_disabled":false,"rental_uris":{"android":"levelo://app?vid=1348ab3b-862b-4b63-9222-197e3ceb49e1","ios":"levelo://app?vid=1348ab3b-862b-4b63-9222-197e3ceb49e1"},"vehicle_type_id":"4","last_reported":1731331021,"current_range_meters":34800,"station_id":"ce4bhh12rcd13ifvqff0","pricing_plan_id":"cebpf4jnsgd1na2vs0mg"},{"bike_id":"f97b6bb8-fda2-436e-9020-908b83fb722c","system_id":"levelo_inurba_marseille","lat":43.23197,"lon":5.35573,"is_reserved":false,"is_disabled":false,"rental_uris":{"android":"levelo://app?vid=f97b6bb8-fda2-436e-9020-908b83fb722c","ios":"levelo://app?vid=f97b6bb8-fda2-436e-9020-908b83fb722c"},"vehicle_type_id":"4","last_reported":1731331021,"current_range_meters":10000,"station_id":"ce4bhu92rcd13ifvqi70","pricing_plan_id":"cebpf4jnsgd1na2vs0mg"},{"bike_id":"4c4a4770-16ac-41a5-9d60-08bcc91b138d","system_id":"levelo_inurba_marseille","lat":43.299836,"lon":5.41306,"is_reserved":false,"is_disabled":false,"rental_uris":{"android":"levelo://app?vid=4c4a4770-16ac-41a5-9d60-08bcc91b138d","ios":"levelo://app?vid=4c4a4770-16ac-41a5-9d60-08bcc91b138d"},"vehicle_type_id":"4","last_reported":1731331021,"current_range_meters":25600,"station_id":"ce4bhp12rcd13ifvqh9g","pricing_plan_id":"cebpf4jnsgd1na2vs0mg"},{"bike_id":"38059017-47b0-47a4-8a9b-1c81f359916b","system_id":"levelo_inurba_marseille","lat":43.292708,"lon":5.384507,"is_reserved":false,"is_disabled":false,"rental_uris":{"android":"levelo://app?vid=38059017-47b0-47a4-8a9b-1c81f359916b","ios":"levelo://app?vid=38059017-47b0-47a4-8a9b-1c81f359916b"},"vehicle_type_id":"4","last_reported":1731331021,"current_range_meters":18800,"station_id":"ce4bh512rcd13ifvqe3g","pricing_plan_id":"cebpf4jnsgd1na2vs0mg"},{"bike_id":"ea762381-05e4-46ef-a770-2f592cbf2c6b","system_id":"levelo_inurba_marseille","lat":43.29674,"lon":5.37292,"is_reserved":false,"is_disabled":false,"rental_uris":{"android":"levelo://app?vid=ea762381-05e4-46ef-a770-2f592cbf2c6b","ios":"levelo://app?vid=ea762381-05e4-46ef-a770-2f592cbf2c6b"},"vehicle_type_id":"4","last_reported":1731331021,"current_range_meters":39200,"station_id":"ce4bgk12rcd13ifvqbj0","pricing_plan_id":"cebpf4jnsgd1na2vs0mg"},{"bike_id":"09a1e313-58bb-4933-ac4b-7b06aceafd7a","system_id":"levelo_inurba_marseille","lat":43.26058,"lon":5.39403,"is_reserved":false,"is_disabled":false,"rental_uris":{"android":"levelo://app?vid=09a1e313-58bb-4933-ac4b-7b06aceafd7a","ios":"levelo://app?vid=09a1e313-58bb-4933-ac4b-7b06aceafd7a"},"vehicle_type_id":"4","last_reported":1731331021,"current_range_meters":39200,"station_id":"ce4bhh92rcd13ifvqfj0","pricing_plan_id":"cebpf4jnsgd1na2vs0mg"},{"bike_id":"1d75d4ce-da07-47a0-83ad-027ef32b7b53","system_id":"levelo_inurba_marseille","lat":43.27409,"lon":5.38951,"is_reserved":false,"is_disabled":false,"rental_uris":{"android":"levelo://app?vid=1d75d4ce-da07-47a0-83ad-027ef32b7b53","ios":"levelo://app?vid=1d75d4ce-da07-47a0-83ad-027ef32b7b53"},"vehicle_type_id":"4","last_reported":1731331021,"current_range_meters":20800,"station_id":"","pricing_plan_id":"cebpf4jnsgd1na2vs0mg"},{"bike_id":"a814f24b-fea0-4145-8389-3f04eeff442b","system_id":"levelo_inurba_marseille","lat":43.236603,"lon":5.362566,"is_reserved":false,"is_disabled":false,"rental_uris":{"android":"levelo://app?vid=a814f24b-fea0-4145-8389-3f04eeff442b","ios":"levelo://app?vid=a814f24b-fea0-4145-8389-3f04eeff442b"},"vehicle_type_id":"4","last_reported":1731331021,"current_range_meters":34800,"station_id":"","pricing_plan_id":"cebpf4jnsgd1na2vs0mg"},{"bike_id":"625e1995-b00f-42c2-82c5-28168c1b3c12","system_id":"levelo_inurba_marseille","lat":43.28265,"lon":5.35083,"is_reserved":false,"is_disabled":false,"rental_uris":{"android":"levelo://app?vid=625e1995-b00f-42c2-82c5-28168c1b3c12","ios":"levelo://app?vid=625e1995-b00f-42c2-82c5-28168c1b3c12"},"vehicle_type_id":"4","last_reported":1731331021,"current_range_meters":26800,"station_id":"ce4bhbp2rcd13ifvqerg","pricing_plan_id":"cebpf4jnsgd1na2vs0mg"},{"bike_id":"6d859acc-a3f9-43c2-ba79-8798ef174fca","system_id":"levelo_inurba_marseille","lat":43.28412,"lon":5.34988,"is_reserved":false,"is_disabled":false,"rental_uris":{"android":"levelo://app?vid=6d859acc-a3f9-43c2-ba79-8798ef174fca","ios":"levelo://app?vid=6d859acc-a3f9-43c2-ba79-8798ef174fca"},"vehicle_type_id":"4","last_reported":1731331021,"current_range_meters":38800,"station_id":"ce4bhbh2rcd13ifvqepg","pricing_plan_id":"cebpf4jnsgd1na2vs0mg"},{"bike_id":"e43e3dfb-08a3-4503-84d0-903a542426c9","system_id":"levelo_inurba_marseille","lat":43.25825,"lon":5.3943,"is_reserved":false,"is_disabled":false,"rental_uris":{"android":"levelo://app?vid=e43e3dfb-08a3-4503-84d0-903a542426c9","ios":"levelo://app?vid=e43e3dfb-08a3-4503-84d0-903a542426c9"},"vehicle_type_id":"4","last_reported":1731331021,"current_range_meters":23200,"station_id":"ce4bhip2rcd13ifvqft0","pricing_plan_id":"cebpf4jnsgd1na2vs0mg"},{"bike_id":"ca6bc757-afb2-47ae-8348-d50290e625d2","system_id":"levelo_inurba_marseille","lat":43.24806,"lon":5.37451,"is_reserved":false,"is_disabled":false,"rental_uris":{"android":"levelo://app?vid=ca6bc757-afb2-47ae-8348-d50290e625d2","ios":"levelo://app?vid=ca6bc757-afb2-47ae-8348-d50290e625d2"},"vehicle_type_id":"4","last_reported":1731331021,"current_range_meters":30000,"station_id":"ce4bhgh2rcd13ifvqfb0","pricing_plan_id":"cebpf4jnsgd1na2vs0mg"},{"bike_id":"26c953d5-0327-4450-b4b7-5368639baa6e","system_id":"levelo_inurba_marseille","lat":43.27381,"lon":5.36275,"is_reserved":false,"is_disabled":false,"rental_uris":{"android":"levelo://app?vid=26c953d5-0327-4450-b4b7-5368639baa6e","ios":"levelo://app?vid=26c953d5-0327-4450-b4b7-5368639baa6e"},"vehicle_type_id":"4","last_reported":1731331021,"current_range_meters":38000,"station_id":"ce4bhbh2rcd13ifvqeo0","pricing_plan_id":"cebpf4jnsgd1na2vs0mg"},{"bike_id":"bdf00644-feeb-4cfc-b7e7-a0b3e87216f9","system_id":"levelo_inurba_marseille","lat":43.23197,"lon":5.35551,"is_reserved":false,"is_disabled":false,"rental_uris":{"android":"levelo://app?vid=bdf00644-feeb-4cfc-b7e7-a0b3e87216f9","ios":"levelo://app?vid=bdf00644-feeb-4cfc-b7e7-a0b3e87216f9"},"vehicle_type_id":"4","last_reported":1731331021,"current_range_meters":38000,"station_id":"ce4bhu92rcd13ifvqi70","pricing_plan_id":"cebpf4jnsgd1na2vs0mg"},{"bike_id":"e950d8be-55d8-45c2-bb89-a8ba574ee35b","system_id":"levelo_inurba_marseille","lat":43.28265,"lon":5.35067,"is_reserved":false,"is_disabled":false,"rental_uris":{"android":"levelo://app?vid=e950d8be-55d8-45c2-bb89-a8ba574ee35b","ios":"levelo://app?vid=e950d8be-55d8-45c2-bb89-a8ba574ee35b"},"vehicle_type_id":"4","last_reported":1731331021,"current_range_meters":28400,"station_id":"ce4bhbp2rcd13ifvqerg","pricing_plan_id":"cebpf4jnsgd1na2vs0mg"},{"bike_id":"b7be4a98-cbde-46fb-9668-ebdb296d0759","system_id":"levelo_inurba_marseille","lat":43.26493,"lon":5.39555,"is_reserved":false,"is_disabled":false,"rental_uris":{"android":"levelo://app?vid=b7be4a98-cbde-46fb-9668-ebdb296d0759","ios":"levelo://app?vid=b7be4a98-cbde-46fb-9668-ebdb296d0759"},"vehicle_type_id":"4","last_reported":1731331021,"current_range_meters":38400,"station_id":"ce4bhi12rcd13ifvqfq0","pricing_plan_id":"cebpf4jnsgd1na2vs0mg"},{"bike_id":"00079633-0204-49b0-9404-0f1d9390baca","system_id":"levelo_inurba_marseille","lat":43.24804,"lon":5.37455,"is_reserved":false,"is_disabled":false,"rental_uris":{"android":"levelo://app?vid=00079633-0204-49b0-9404-0f1d9390baca","ios":"levelo://app?vid=00079633-0204-49b0-9404-0f1d9390baca"},"vehicle_type_id":"4","last_reported":1731331021,"current_range_meters":38800,"station_id":"ce4bhgh2rcd13ifvqfb0","pricing_plan_id":"cebpf4jnsgd1na2vs0mg"},{"bike_id":"cf99c0dd-da6f-480f-9c69-e3e81bccb4e8","system_id":"levelo_inurba_marseille","lat":43.29829,"lon":5.3845,"is_reserved":false,"is_disabled":false,"rental_uris":{"android":"levelo://app?vid=cf99c0dd-da6f-480f-9c69-e3e81bccb4e8","ios":"levelo://app?vid=cf99c0dd-da6f-480f-9c69-e3e81bccb4e8"},"vehicle_type_id":"4","last_reported":1731331021,"current_range_meters":36800,"station_id":"ce4bhb92rcd13ifvqen0","pricing_plan_id":"cebpf4jnsgd1na2vs0mg"},{"bike_id":"3411f805-e827-45b4-8033-7311f8b2b6fd","system_id":"levelo_inurba_marseille","lat":43.27342,"lon":5.39079,"is_reserved":false,"is_disabled":false,"rental_uris":{"android":"levelo://app?vid=3411f805-e827-45b4-8033-7311f8b2b6fd","ios":"levelo://app?vid=3411f805-e827-45b4-8033-7311f8b2b6fd"},"vehicle_type_id":"4","last_reported":1731331021,"current_range_meters":16000,"station_id":"ce4bhgp2rcd13ifvqfe0","pricing_plan_id":"cebpf4jnsgd1na2vs0mg"},{"bike_id":"06cd1fbe-f59a-4691-ad4a-838c581827cf","system_id":"levelo_inurba_marseille","lat":43.28418,"lon":5.34994,"is_reserved":false,"is_disabled":false,"rental_uris":{"android":"levelo://app?vid=06cd1fbe-f59a-4691-ad4a-838c581827cf","ios":"levelo://app?vid=06cd1fbe-f59a-4691-ad4a-838c581827cf"},"vehicle_type_id":"4","last_reported":1731331021,"current_range_meters":26800,"station_id":"ce4bhbh2rcd13ifvqepg","pricing_plan_id":"cebpf4jnsgd1na2vs0mg"},{"bike_id":"784616cb-3dcc-4a17-ae25-f5786a0d223a","system_id":"levelo_inurba_marseille","lat":43.337444,"lon":5.374475,"is_reserved":false,"is_disabled":false,"rental_uris":{"android":"levelo://app?vid=784616cb-3dcc-4a17-ae25-f5786a0d223a","ios":"levelo://app?vid=784616cb-3dcc-4a17-ae25-f5786a0d223a"},"vehicle_type_id":"4","last_reported":1731331021,"current_range_meters":36800,"station_id":"","pricing_plan_id":"cebpf4jnsgd1na2vs0mg"},{"bike_id":"bbd15542-9a18-45ac-89de-c5d57ab3a68f","system_id":"levelo_inurba_marseille","lat":43.24637,"lon":5.38905,"is_reserved":false,"is_disabled":false,"rental_uris":{"android":"levelo://app?vid=bbd15542-9a18-45ac-89de-c5d57ab3a68f","ios":"levelo://app?vid=bbd15542-9a18-45ac-89de-c5d57ab3a68f"},"vehicle_type_id":"4","last_reported":1731331021,"current_range_meters":15200,"station_id":"ce4bhg12rcd13ifvqf60","pricing_plan_id":"cebpf4jnsgd1na2vs0mg"},{"bike_id":"5b7436c1-f772-4ded-8e69-45ee2cf656ad","system_id":"levelo_inurba_marseille","lat":43.28097,"lon":5.37854,"is_reserved":false,"is_disabled":false,"rental_uris":{"android":"levelo://app?vid=5b7436c1-f772-4ded-8e69-45ee2cf656ad","ios":"levelo://app?vid=5b7436c1-f772-4ded-8e69-45ee2cf656ad"},"vehicle_type_id":"4","last_reported":1731331021,"current_range_meters":38800,"station_id":"ce4bha12rcd13ifvqee0","pricing_plan_id":"cebpf4jnsgd1na2vs0mg"},{"bike_id":"720d1874-b46b-47ba-999c-812502b47039","system_id":"levelo_inurba_marseille","lat":43.24806,"lon":5.37457,"is_reserved":false,"is_disabled":false,"rental_uris":{"android":"levelo://app?vid=720d1874-b46b-47ba-999c-812502b47039","ios":"levelo://app?vid=720d1874-b46b-47ba-999c-812502b47039"},"vehicle_type_id":"4","last_reported":1731331021,"current_range_meters":37600,"station_id":"ce4bhgh2rcd13ifvqfb0","pricing_plan_id":"cebpf4jnsgd1na2vs0mg"},{"bike_id":"86906207-4f8c-49ad-9f19-3cea72faf5a2","system_id":"levelo_inurba_marseille","lat":43.31751,"lon":5.39034,"is_reserved":false,"is_disabled":false,"rental_uris":{"android":"levelo://app?vid=86906207-4f8c-49ad-9f19-3cea72faf5a2","ios":"levelo://app?vid=86906207-4f8c-49ad-9f19-3cea72faf5a2"},"vehicle_type_id":"4","last_reported":1731331021,"current_range_meters":39200,"station_id":"ce4bhqp2rcd13ifvqhng","pricing_plan_id":"cebpf4jnsgd1na2vs0mg"},{"bike_id":"b5d5ee16-ba16-4bae-ac48-8e1670a76f1e","system_id":"levelo_inurba_marseille","lat":43.3248,"lon":5.36569,"is_reserved":false,"is_disabled":false,"rental_uris":{"android":"levelo://app?vid=b5d5ee16-ba16-4bae-ac48-8e1670a76f1e","ios":"levelo://app?vid=b5d5ee16-ba16-4bae-ac48-8e1670a76f1e"},"vehicle_type_id":"4","last_reported":1731331021,"current_range_meters":38000,"station_id":"ce4bhs12rcd13ifvqhvg","pricing_plan_id":"cebpf4jnsgd1na2vs0mg"},{"bike_id":"3ef157e4-2464-443c-8937-f5bc1f5ec441","system_id":"levelo_inurba_marseille","lat":43.2984,"lon":5.36266,"is_reserved":false,"is_disabled":false,"rental_uris":{"android":"levelo://app?vid=3ef157e4-2464-443c-8937-f5bc1f5ec441","ios":"levelo://app?vid=3ef157e4-2464-443c-8937-f5bc1f5ec441"},"vehicle_type_id":"4","last_reported":1731331021,"current_range_meters":25600,"station_id":"ce4bgpp2rcd13ifvqc3g","pricing_plan_id":"cebpf4jnsgd1na2vs0mg"},{"bike_id":"830f9ce5-eef9-49dd-96b6-892ebdde6ceb","system_id":"levelo_inurba_marseille","lat":43.30147,"lon":5.38075,"is_reserved":false,"is_disabled":false,"rental_uris":{"android":"levelo://app?vid=830f9ce5-eef9-49dd-96b6-892ebdde6ceb","ios":"levelo://app?vid=830f9ce5-eef9-49dd-96b6-892ebdde6ceb"},"vehicle_type_id":"4","last_reported":1731331021,"current_range_meters":23200,"station_id":"ce4bgjp2rcd13ifvqbh0","pricing_plan_id":"cebpf4jnsgd1na2vs0mg"},{"bike_id":"181fa628-fd06-4339-88f4-5d411c857699","system_id":"levelo_inurba_marseille","lat":43.27073,"lon":5.42287,"is_reserved":false,"is_disabled":false,"rental_uris":{"android":"levelo://app?vid=181fa628-fd06-4339-88f4-5d411c857699","ios":"levelo://app?vid=181fa628-fd06-4339-88f4-5d411c857699"},"vehicle_type_id":"4","last_reported":1731331021,"current_range_meters":37600,"station_id":"ce4bhk92rcd13ifvqgb0","pricing_plan_id":"cebpf4jnsgd1na2vs0mg"},{"bike_id":"4d19e696-b7c7-448a-a90b-26d952faad80","system_id":"levelo_inurba_marseille","lat":43.26552,"lon":5.37289,"is_reserved":false,"is_disabled":false,"rental_uris":{"android":"levelo://app?vid=4d19e696-b7c7-448a-a90b-26d952faad80","ios":"levelo://app?vid=4d19e696-b7c7-448a-a90b-26d952faad80"},"vehicle_type_id":"4","last_reported":1731331021,"current_range_meters":21600,"station_id":"ce4bhg12rcd13ifvqf70","pricing_plan_id":"cebpf4jnsgd1na2vs0mg"},{"bike_id":"5be4e6af-97de-40ca-8047-b679162adaee","system_id":"levelo_inurba_marseille","lat":43.27901,"lon":5.38011,"is_reserved":false,"is_disabled":false,"rental_uris":{"android":"levelo://app?vid=5be4e6af-97de-40ca-8047-b679162adaee","ios":"levelo://app?vid=5be4e6af-97de-40ca-8047-b679162adaee"},"vehicle_type_id":"4","last_reported":1731331021,"current_range_meters":8000,"station_id":"ce4bhf92rcd13ifvqf50","pricing_plan_id":"cebpf4jnsgd1na2vs0mg"},{"bike_id":"62f6ae94-3bc3-4a48-b645-72327e79ce87","system_id":"levelo_inurba_marseille","lat":43.29792,"lon":5.38104,"is_reserved":false,"is_disabled":false,"rental_uris":{"android":"levelo://app?vid=62f6ae94-3bc3-4a48-b645-72327e79ce87","ios":"levelo://app?vid=62f6ae94-3bc3-4a48-b645-72327e79ce87"},"vehicle_type_id":"4","last_reported":1731331021,"current_range_meters":38800,"station_id":"ce4bgip2rcd13ifvqbb0","pricing_plan_id":"cebpf4jnsgd1na2vs0mg"},{"bike_id":"7900a1f7-5e50-4487-967b-0e8eaabba6c8","system_id":"levelo_inurba_marseille","lat":43.28032,"lon":5.36943,"is_reserved":false,"is_disabled":false,"rental_uris":{"android":"levelo://app?vid=7900a1f7-5e50-4487-967b-0e8eaabba6c8","ios":"levelo://app?vid=7900a1f7-5e50-4487-967b-0e8eaabba6c8"},"vehicle_type_id":"4","last_reported":1731331021,"current_range_meters":9200,"station_id":"ce4bgpp2rcd13ifvqc3g","pricing_plan_id":"cebpf4jnsgd1na2vs0mg"},{"bike_id":"e043ca13-b1ea-4e0e-b05c-6c35b0e13faf","system_id":"levelo_inurba_marseille","lat":43.28482,"lon":5.38574,"is_reserved":false,"is_disabled":false,"rental_uris":{"android":"levelo://app?vid=e043ca13-b1ea-4e0e-b05c-6c35b0e13faf","ios":"levelo://app?vid=e043ca13-b1ea-4e0e-b05c-6c35b0e13faf"},"vehicle_type_id":"4","last_reported":1731331021,"current_range_meters":38000,"station_id":"ce4bh8p2rcd13ifvqeb0","pricing_plan_id":"cebpf4jnsgd1na2vs0mg"},{"bike_id":"1e7fd650-28c5-42ee-9922-4070c0acdb85","system_id":"levelo_inurba_marseille","lat":43.27487,"lon":5.42462,"is_reserved":false,"is_disabled":false,"rental_uris":{"android":"levelo://app?vid=1e7fd650-28c5-42ee-9922-4070c0acdb85","ios":"levelo://app?vid=1e7fd650-28c5-42ee-9922-4070c0acdb85"},"vehicle_type_id":"4","last_reported":1731331021,"current_range_meters":35600,"station_id":"ce4bhn92rcd13ifvqgrg","pricing_plan_id":"cebpf4jnsgd1na2vs0mg"},{"bike_id":"93d921fb-33c7-45b4-9409-b8e6fd592310","system_id":"levelo_inurba_marseille","lat":43.282623,"lon":5.350617,"is_reserved":false,"is_disabled":false,"rental_uris":{"android":"levelo://app?vid=93d921fb-33c7-45b4-9409-b8e6fd592310","ios":"levelo://app?vid=93d921fb-33c7-45b4-9409-b8e6fd592310"},"vehicle_type_id":"4","last_reported":1731331021,"current_range_meters":24000,"station_id":"ce4bhbp2rcd13ifvqerg","pricing_plan_id":"cebpf4jnsgd1na2vs0mg"},{"bike_id":"1dc7ac1a-b527-47b1-86f9-8ca8fddb6202","system_id":"levelo_inurba_marseille","lat":43.23053,"lon":5.35505,"is_reserved":false,"is_disabled":false,"rental_uris":{"android":"levelo://app?vid=1dc7ac1a-b527-47b1-86f9-8ca8fddb6202","ios":"levelo://app?vid=1dc7ac1a-b527-47b1-86f9-8ca8fddb6202"},"vehicle_type_id":"4","last_reported":1731331021,"current_range_meters":8400,"station_id":"cpo3342slgdg3j2ifvpg","pricing_plan_id":"cebpf4jnsgd1na2vs0mg"},{"bike_id":"a5379cc8-aca3-463b-9c9c-1562c0ff3ffe","system_id":"levelo_inurba_marseille","lat":43.24391,"lon":5.37052,"is_reserved":false,"is_disabled":false,"rental_uris":{"android":"levelo://app?vid=a5379cc8-aca3-463b-9c9c-1562c0ff3ffe","ios":"levelo://app?vid=a5379cc8-aca3-463b-9c9c-1562c0ff3ffe"},"vehicle_type_id":"4","last_reported":1731331021,"current_range_meters":31200,"station_id":"ce4bhhh2rcd13ifvqfk0","pricing_plan_id":"cebpf4jnsgd1na2vs0mg"},{"bike_id":"8b4498ee-fa87-4828-9883-ca8863a1719f","system_id":"levelo_inurba_marseille","lat":43.30148,"lon":5.38774,"is_reserved":false,"is_disabled":false,"rental_uris":{"android":"levelo://app?vid=8b4498ee-fa87-4828-9883-ca8863a1719f","ios":"levelo://app?vid=8b4498ee-fa87-4828-9883-ca8863a1719f"},"vehicle_type_id":"4","last_reported":1731331021,"current_range_meters":32800,"station_id":"ce4bghh2rcd13ifvqb60","pricing_plan_id":"cebpf4jnsgd1na2vs0mg"},{"bike_id":"defa6e3e-c11f-414a-afec-2e48be39d0e4","system_id":"levelo_inurba_marseille","lat":43.286621,"lon":5.363432,"is_reserved":false,"is_disabled":false,"rental_uris":{"android":"levelo://app?vid=defa6e3e-c11f-414a-afec-2e48be39d0e4","ios":"levelo://app?vid=defa6e3e-c11f-414a-afec-2e48be39d0e4"},"vehicle_type_id":"4","last_reported":1731331021,"current_range_meters":27600,"station_id":"ce4bhah2rcd13ifvqej0","pricing_plan_id":"cebpf4jnsgd1na2vs0mg"},{"bike_id":"07704a86-dbed-425a-854d-11b1a4e3d84c","system_id":"levelo_inurba_marseille","lat":43.33752,"lon":5.37456,"is_reserved":false,"is_disabled":false,"rental_uris":{"android":"levelo://app?vid=07704a86-dbed-425a-854d-11b1a4e3d84c","ios":"levelo://app?vid=07704a86-dbed-425a-854d-11b1a4e3d84c"},"vehicle_type_id":"4","last_reported":1731331021,"current_range_meters":25200,"station_id":"","pricing_plan_id":"cebpf4jnsgd1na2vs0mg"},{"bike_id":"5eb98245-bce3-4138-a00d-434ad59401f1","system_id":"levelo_inurba_marseille","lat":43.30517,"lon":5.36715,"is_reserved":false,"is_disabled":false,"rental_uris":{"android":"levelo://app?vid=5eb98245-bce3-4138-a00d-434ad59401f1","ios":"levelo://app?vid=5eb98245-bce3-4138-a00d-434ad59401f1"},"vehicle_type_id":"4","last_reported":1731331021,"current_range_meters":34000,"station_id":"ce4bgrp2rcd13ifvqc9g","pricing_plan_id":"cebpf4jnsgd1na2vs0mg"},{"bike_id":"4bfcecc4-8e60-4c8e-a7dd-123e0766ccac","system_id":"levelo_inurba_marseille","lat":43.28612,"lon":5.35104,"is_reserved":false,"is_disabled":false,"rental_uris":{"android":"levelo://app?vid=4bfcecc4-8e60-4c8e-a7dd-123e0766ccac","ios":"levelo://app?vid=4bfcecc4-8e60-4c8e-a7dd-123e0766ccac"},"vehicle_type_id":"4","last_reported":1731331021,"current_range_meters":25600,"station_id":"ce4bhch2rcd13ifvqeug","pricing_plan_id":"cebpf4jnsgd1na2vs0mg"},{"bike_id":"14d20505-09c3-49e6-b487-149678ce51b5","system_id":"levelo_inurba_marseille","lat":43.23187,"lon":5.35552,"is_reserved":false,"is_disabled":false,"rental_uris":{"android":"levelo://app?vid=14d20505-09c3-49e6-b487-149678ce51b5","ios":"levelo://app?vid=14d20505-09c3-49e6-b487-149678ce51b5"},"vehicle_type_id":"4","last_reported":1731331021,"current_range_meters":24000,"station_id":"ce4bhu92rcd13ifvqi70","pricing_plan_id":"cebpf4jnsgd1na2vs0mg"},{"bike_id":"d2bd9332-8f9b-4e5f-b0ca-5e8e4a76daca","system_id":"levelo_inurba_marseille","lat":43.27611,"lon":5.36107,"is_reserved":false,"is_disabled":false,"rental_uris":{"android":"levelo://app?vid=d2bd9332-8f9b-4e5f-b0ca-5e8e4a76daca","ios":"levelo://app?vid=d2bd9332-8f9b-4e5f-b0ca-5e8e4a76daca"},"vehicle_type_id":"4","last_reported":1731331021,"current_range_meters":30000,"station_id":"ce4bgj92rcd13ifvqbe0","pricing_plan_id":"cebpf4jnsgd1na2vs0mg"},{"bike_id":"0389f6ba-9b11-4bae-aa59-6c887bee55e5","system_id":"levelo_inurba_marseille","lat":43.32291,"lon":5.38273,"is_reserved":false,"is_disabled":false,"rental_uris":{"android":"levelo://app?vid=0389f6ba-9b11-4bae-aa59-6c887bee55e5","ios":"levelo://app?vid=0389f6ba-9b11-4bae-aa59-6c887bee55e5"},"vehicle_type_id":"4","last_reported":1731331021,"current_range_meters":38800,"station_id":"ce4bhr12rcd13ifvqhqg","pricing_plan_id":"cebpf4jnsgd1na2vs0mg"},{"bike_id":"dee87dfe-7c8d-4e4a-8d51-d2d17f3c6937","system_id":"levelo_inurba_marseille","lat":43.30261,"lon":5.40082,"is_reserved":false,"is_disabled":false,"rental_uris":{"android":"levelo://app?vid=dee87dfe-7c8d-4e4a-8d51-d2d17f3c6937","ios":"levelo://app?vid=dee87dfe-7c8d-4e4a-8d51-d2d17f3c6937"},"vehicle_type_id":"4","last_reported":1731331021,"current_range_meters":36400,"station_id":"ce4bgvh2rcd13ifvqcs0","pricing_plan_id":"cebpf4jnsgd1na2vs0mg"},{"bike_id":"223cb3dc-89db-437f-a733-d8ba2fd6c352","system_id":"levelo_inurba_marseille","lat":43.28271,"lon":5.35069,"is_reserved":false,"is_disabled":false,"rental_uris":{"android":"levelo://app?vid=223cb3dc-89db-437f-a733-d8ba2fd6c352","ios":"levelo://app?vid=223cb3dc-89db-437f-a733-d8ba2fd6c352"},"vehicle_type_id":"4","last_reported":1731331021,"current_range_meters":26800,"station_id":"ce4bhbp2rcd13ifvqerg","pricing_plan_id":"cebpf4jnsgd1na2vs0mg"},{"bike_id":"c1e70269-c155-460e-aa50-d5a936cbf590","system_id":"levelo_inurba_marseille","lat":43.23066,"lon":5.3549,"is_reserved":false,"is_disabled":false,"rental_uris":{"android":"levelo://app?vid=c1e70269-c155-460e-aa50-d5a936cbf590","ios":"levelo://app?vid=c1e70269-c155-460e-aa50-d5a936cbf590"},"vehicle_type_id":"4","last_reported":1731331021,"current_range_meters":35600,"station_id":"cpo3342slgdg3j2ifvpg","pricing_plan_id":"cebpf4jnsgd1na2vs0mg"},{"bike_id":"a3eee593-554c-49b6-a072-1e002305f4af","system_id":"levelo_inurba_marseille","lat":43.2621,"lon":5.37446,"is_reserved":false,"is_disabled":false,"rental_uris":{"android":"levelo://app?vid=a3eee593-554c-49b6-a072-1e002305f4af","ios":"levelo://app?vid=a3eee593-554c-49b6-a072-1e002305f4af"},"vehicle_type_id":"4","last_reported":1731331021,"current_range_meters":9600,"station_id":"ce4bhgp2rcd13ifvqfc0","pricing_plan_id":"cebpf4jnsgd1na2vs0mg"},{"bike_id":"f5293701-df9b-4a3c-bf61-d686249e5d80","system_id":"levelo_inurba_marseille","lat":43.25865,"lon":5.39899,"is_reserved":false,"is_disabled":false,"rental_uris":{"android":"levelo://app?vid=f5293701-df9b-4a3c-bf61-d686249e5d80","ios":"levelo://app?vid=f5293701-df9b-4a3c-bf61-d686249e5d80"},"vehicle_type_id":"4","last_reported":1731331021,"current_range_meters":32400,"station_id":"ce4bhl92rcd13ifvqghg","pricing_plan_id":"cebpf4jnsgd1na2vs0mg"},{"bike_id":"a6045460-5038-48ba-9982-748890abe30d","system_id":"levelo_inurba_marseille","lat":43.283691,"lon":5.34974,"is_reserved":false,"is_disabled":false,"rental_uris":{"android":"levelo://app?vid=a6045460-5038-48ba-9982-748890abe30d","ios":"levelo://app?vid=a6045460-5038-48ba-9982-748890abe30d"},"vehicle_type_id":"4","last_reported":1731331021,"current_range_meters":38800,"station_id":"ce4bhbh2rcd13ifvqepg","pricing_plan_id":"cebpf4jnsgd1na2vs0mg"},{"bike_id":"2bacaef1-2a07-48a3-b14b-9ed61bf9009c","system_id":"levelo_inurba_marseille","lat":43.30902,"lon":5.36849,"is_reserved":false,"is_disabled":false,"rental_uris":{"android":"levelo://app?vid=2bacaef1-2a07-48a3-b14b-9ed61bf9009c","ios":"levelo://app?vid=2bacaef1-2a07-48a3-b14b-9ed61bf9009c"},"vehicle_type_id":"4","last_reported":1731331021,"current_range_meters":7200,"station_id":"ce4bgn92rcd13ifvqbvg","pricing_plan_id":"cebpf4jnsgd1na2vs0mg"},{"bike_id":"020cb538-d08e-4252-b1d1-7206ce6e09fd","system_id":"levelo_inurba_marseille","lat":43.29884,"lon":5.3891,"is_reserved":false,"is_disabled":false,"rental_uris":{"android":"levelo://app?vid=020cb538-d08e-4252-b1d1-7206ce6e09fd","ios":"levelo://app?vid=020cb538-d08e-4252-b1d1-7206ce6e09fd"},"vehicle_type_id":"4","last_reported":1731331021,"current_range_meters":30000,"station_id":"ce4bh392rcd13ifvqdl0","pricing_plan_id":"cebpf4jnsgd1na2vs0mg"},{"bike_id":"bee4f0f0-63b3-4119-b424-dfa518be92c2","system_id":"levelo_inurba_marseille","lat":43.28277,"lon":5.35058,"is_reserved":false,"is_disabled":false,"rental_uris":{"android":"levelo://app?vid=bee4f0f0-63b3-4119-b424-dfa518be92c2","ios":"levelo://app?vid=bee4f0f0-63b3-4119-b424-dfa518be92c2"},"vehicle_type_id":"4","last_reported":1731331021,"current_range_meters":27200,"station_id":"ce4bhbp2rcd13ifvqerg","pricing_plan_id":"cebpf4jnsgd1na2vs0mg"},{"bike_id":"f231988b-c677-4d61-8d18-d58a52fe96b5","system_id":"levelo_inurba_marseille","lat":43.25501,"lon":5.37655,"is_reserved":false,"is_disabled":false,"rental_uris":{"android":"levelo://app?vid=f231988b-c677-4d61-8d18-d58a52fe96b5","ios":"levelo://app?vid=f231988b-c677-4d61-8d18-d58a52fe96b5"},"vehicle_type_id":"4","last_reported":1731331021,"current_range_meters":40000,"station_id":"ce4bhh12rcd13ifvqff0","pricing_plan_id":"cebpf4jnsgd1na2vs0mg"},{"bike_id":"05b62862-8331-49c7-8a0f-0d0121269a5e","system_id":"levelo_inurba_marseille","lat":43.28416,"lon":5.34993,"is_reserved":false,"is_disabled":false,"rental_uris":{"android":"levelo://app?vid=05b62862-8331-49c7-8a0f-0d0121269a5e","ios":"levelo://app?vid=05b62862-8331-49c7-8a0f-0d0121269a5e"},"vehicle_type_id":"4","last_reported":1731331021,"current_range_meters":38800,"station_id":"ce4bhbh2rcd13ifvqepg","pricing_plan_id":"cebpf4jnsgd1na2vs0mg"},{"bike_id":"ae119784-29c4-45e1-aa06-6ebdb9e26032","system_id":"levelo_inurba_marseille","lat":43.2416,"lon":5.36401,"is_reserved":false,"is_disabled":false,"rental_uris":{"android":"levelo://app?vid=ae119784-29c4-45e1-aa06-6ebdb9e26032","ios":"levelo://app?vid=ae119784-29c4-45e1-aa06-6ebdb9e26032"},"vehicle_type_id":"4","last_reported":1731331021,"current_range_meters":26000,"station_id":"cpo36qri1sfpv3e86is0","pricing_plan_id":"cebpf4jnsgd1na2vs0mg"},{"bike_id":"8c55a504-d797-40de-8554-3ee442ac41eb","system_id":"levelo_inurba_marseille","lat":43.282684,"lon":5.350529,"is_reserved":false,"is_disabled":false,"rental_uris":{"android":"levelo://app?vid=8c55a504-d797-40de-8554-3ee442ac41eb","ios":"levelo://app?vid=8c55a504-d797-40de-8554-3ee442ac41eb"},"vehicle_type_id":"4","last_reported":1731331021,"current_range_meters":8000,"station_id":"ce4bhbp2rcd13ifvqerg","pricing_plan_id":"cebpf4jnsgd1na2vs0mg"},{"bike_id":"f6ebe1ae-486a-4abb-85b1-9ddf32f0ea8b","system_id":"levelo_inurba_marseille","lat":43.28666,"lon":5.386655,"is_reserved":false,"is_disabled":false,"rental_uris":{"android":"levelo://app?vid=f6ebe1ae-486a-4abb-85b1-9ddf32f0ea8b","ios":"levelo://app?vid=f6ebe1ae-486a-4abb-85b1-9ddf32f0ea8b"},"vehicle_type_id":"4","last_reported":1731331021,"current_range_meters":30400,"station_id":"ce4bh492rcd13ifvqdug","pricing_plan_id":"cebpf4jnsgd1na2vs0mg"},{"bike_id":"7a5423ff-9bad-4bf3-b53d-149c4e2f55ae","system_id":"levelo_inurba_marseille","lat":43.28423,"lon":5.34974,"is_reserved":false,"is_disabled":false,"rental_uris":{"android":"levelo://app?vid=7a5423ff-9bad-4bf3-b53d-149c4e2f55ae","ios":"levelo://app?vid=7a5423ff-9bad-4bf3-b53d-149c4e2f55ae"},"vehicle_type_id":"4","last_reported":1731331021,"current_range_meters":38800,"station_id":"ce4bhbh2rcd13ifvqepg","pricing_plan_id":"cebpf4jnsgd1na2vs0mg"},{"bike_id":"0ddc6cef-4a19-42a6-95a0-b546207e9d35","system_id":"levelo_inurba_marseille","lat":43.23187,"lon":5.35544,"is_reserved":false,"is_disabled":false,"rental_uris":{"android":"levelo://app?vid=0ddc6cef-4a19-42a6-95a0-b546207e9d35","ios":"levelo://app?vid=0ddc6cef-4a19-42a6-95a0-b546207e9d35"},"vehicle_type_id":"4","last_reported":1731331021,"current_range_meters":31200,"station_id":"ce4bhu92rcd13ifvqi70","pricing_plan_id":"cebpf4jnsgd1na2vs0mg"},{"bike_id":"6d72a493-11da-48b3-be50-fd384c9287b5","system_id":"levelo_inurba_marseille","lat":43.29851,"lon":5.36285,"is_reserved":false,"is_disabled":false,"rental_uris":{"android":"levelo://app?vid=6d72a493-11da-48b3-be50-fd384c9287b5","ios":"levelo://app?vid=6d72a493-11da-48b3-be50-fd384c9287b5"},"vehicle_type_id":"4","last_reported":1731331021,"current_range_meters":32000,"station_id":"ce4bgpp2rcd13ifvqc3g","pricing_plan_id":"cebpf4jnsgd1na2vs0mg"},{"bike_id":"43fe7e54-a4b4-4b1d-83e7-24e580be2ab3","system_id":"levelo_inurba_marseille","lat":43.28629,"lon":5.38594,"is_reserved":false,"is_disabled":false,"rental_uris":{"android":"levelo://app?vid=43fe7e54-a4b4-4b1d-83e7-24e580be2ab3","ios":"levelo://app?vid=43fe7e54-a4b4-4b1d-83e7-24e580be2ab3"},"vehicle_type_id":"4","last_reported":1731331021,"current_range_meters":32000,"station_id":"ce4bh492rcd13ifvqdug","pricing_plan_id":"cebpf4jnsgd1na2vs0mg"},{"bike_id":"fe29962d-68ce-4f09-9fbc-dc7a9a59cb6a","system_id":"levelo_inurba_marseille","lat":43.29194,"lon":5.35807,"is_reserved":false,"is_disabled":false,"rental_uris":{"android":"levelo://app?vid=fe29962d-68ce-4f09-9fbc-dc7a9a59cb6a","ios":"levelo://app?vid=fe29962d-68ce-4f09-9fbc-dc7a9a59cb6a"},"vehicle_type_id":"4","last_reported":1731331021,"current_range_meters":38800,"station_id":"ce4bhb12rcd13ifvqel0","pricing_plan_id":"cebpf4jnsgd1na2vs0mg"},{"bike_id":"0e4982ff-1427-4a26-a195-9d3c9461ff02","system_id":"levelo_inurba_marseille","lat":43.28486,"lon":5.38425,"is_reserved":false,"is_disabled":false,"rental_uris":{"android":"levelo://app?vid=0e4982ff-1427-4a26-a195-9d3c9461ff02","ios":"levelo://app?vid=0e4982ff-1427-4a26-a195-9d3c9461ff02"},"vehicle_type_id":"4","last_reported":1731331021,"current_range_meters":36400,"station_id":"ce4bh512rcd13ifvqe3g","pricing_plan_id":"cebpf4jnsgd1na2vs0mg"},{"bike_id":"fecdd1f9-9ba9-40fe-8ffd-765c3531dbdd","system_id":"levelo_inurba_marseille","lat":43.26558,"lon":5.39005,"is_reserved":false,"is_disabled":false,"rental_uris":{"android":"levelo://app?vid=fecdd1f9-9ba9-40fe-8ffd-765c3531dbdd","ios":"levelo://app?vid=fecdd1f9-9ba9-40fe-8ffd-765c3531dbdd"},"vehicle_type_id":"4","last_reported":1731331021,"current_range_meters":38400,"station_id":"ce4bhe12rcd13ifvqf30","pricing_plan_id":"cebpf4jnsgd1na2vs0mg"},{"bike_id":"82ce0d1a-35aa-4501-b8b0-471c54595dce","system_id":"levelo_inurba_marseille","lat":43.23967,"lon":5.36631,"is_reserved":false,"is_disabled":false,"rental_uris":{"android":"levelo://app?vid=82ce0d1a-35aa-4501-b8b0-471c54595dce","ios":"levelo://app?vid=82ce0d1a-35aa-4501-b8b0-471c54595dce"},"vehicle_type_id":"4","last_reported":1731331021,"current_range_meters":24400,"station_id":"ce4bhi12rcd13ifvqfp0","pricing_plan_id":"cebpf4jnsgd1na2vs0mg"},{"bike_id":"85849e39-f38e-4437-afbd-f8d706fa4b32","system_id":"levelo_inurba_marseille","lat":43.28413,"lon":5.34986,"is_reserved":false,"is_disabled":false,"rental_uris":{"android":"levelo://app?vid=85849e39-f38e-4437-afbd-f8d706fa4b32","ios":"levelo://app?vid=85849e39-f38e-4437-afbd-f8d706fa4b32"},"vehicle_type_id":"4","last_reported":1731331021,"current_range_meters":32400,"station_id":"ce4bhbh2rcd13ifvqepg","pricing_plan_id":"cebpf4jnsgd1na2vs0mg"},{"bike_id":"980c40ee-32e7-483f-a194-2bcb449dd0e3","system_id":"levelo_inurba_marseille","lat":43.275543,"lon":5.384295,"is_reserved":false,"is_disabled":false,"rental_uris":{"android":"levelo://app?vid=980c40ee-32e7-483f-a194-2bcb449dd0e3","ios":"levelo://app?vid=980c40ee-32e7-483f-a194-2bcb449dd0e3"},"vehicle_type_id":"4","last_reported":1731331021,"current_range_meters":22800,"station_id":"ce4bhh92rcd13ifvqfi0","pricing_plan_id":"cebpf4jnsgd1na2vs0mg"},{"bike_id":"cf9aba8e-16f9-4582-ad53-0d8f645170b3","system_id":"levelo_inurba_marseille","lat":43.26493,"lon":5.39563,"is_reserved":false,"is_disabled":false,"rental_uris":{"android":"levelo://app?vid=cf9aba8e-16f9-4582-ad53-0d8f645170b3","ios":"levelo://app?vid=cf9aba8e-16f9-4582-ad53-0d8f645170b3"},"vehicle_type_id":"4","last_reported":1731331021,"current_range_meters":37600,"station_id":"ce4bhi12rcd13ifvqfq0","pricing_plan_id":"cebpf4jnsgd1na2vs0mg"},{"bike_id":"d5990e19-0551-4ad3-8c2a-d80513ba61ae","system_id":"levelo_inurba_marseille","lat":43.23194,"lon":5.35552,"is_reserved":false,"is_disabled":false,"rental_uris":{"android":"levelo://app?vid=d5990e19-0551-4ad3-8c2a-d80513ba61ae","ios":"levelo://app?vid=d5990e19-0551-4ad3-8c2a-d80513ba61ae"},"vehicle_type_id":"4","last_reported":1731331021,"current_range_meters":39200,"station_id":"ce4bhu92rcd13ifvqi70","pricing_plan_id":"cebpf4jnsgd1na2vs0mg"},{"bike_id":"f7197dc1-3647-4486-a0e7-18eb58ac00e1","system_id":"levelo_inurba_marseille","lat":43.280365,"lon":5.369384,"is_reserved":false,"is_disabled":false,"rental_uris":{"android":"levelo://app?vid=f7197dc1-3647-4486-a0e7-18eb58ac00e1","ios":"levelo://app?vid=f7197dc1-3647-4486-a0e7-18eb58ac00e1"},"vehicle_type_id":"4","last_reported":1731331021,"current_range_meters":20800,"station_id":"ce4bha12rcd13ifvqef0","pricing_plan_id":"cebpf4jnsgd1na2vs0mg"},{"bike_id":"10774245-c9a9-4b29-9da3-f415af0c50fc","system_id":"levelo_inurba_marseille","lat":43.29964,"lon":5.38496,"is_reserved":false,"is_disabled":false,"rental_uris":{"android":"levelo://app?vid=10774245-c9a9-4b29-9da3-f415af0c50fc","ios":"levelo://app?vid=10774245-c9a9-4b29-9da3-f415af0c50fc"},"vehicle_type_id":"4","last_reported":1731331021,"current_range_meters":20000,"station_id":"ce4bgj92rcd13ifvqbd0","pricing_plan_id":"cebpf4jnsgd1na2vs0mg"},{"bike_id":"d0de0228-1d77-44ff-abd5-a2717cad4818","system_id":"levelo_inurba_marseille","lat":43.27176,"lon":5.40998,"is_reserved":false,"is_disabled":false,"rental_uris":{"android":"levelo://app?vid=d0de0228-1d77-44ff-abd5-a2717cad4818","ios":"levelo://app?vid=d0de0228-1d77-44ff-abd5-a2717cad4818"},"vehicle_type_id":"4","last_reported":1731331021,"current_range_meters":28400,"station_id":"ce4bhl12rcd13ifvqgf0","pricing_plan_id":"cebpf4jnsgd1na2vs0mg"},{"bike_id":"b2f3adca-b446-441d-a1ab-5903c30fd432","system_id":"levelo_inurba_marseille","lat":43.33772,"lon":5.37447,"is_reserved":false,"is_disabled":false,"rental_uris":{"android":"levelo://app?vid=b2f3adca-b446-441d-a1ab-5903c30fd432","ios":"levelo://app?vid=b2f3adca-b446-441d-a1ab-5903c30fd432"},"vehicle_type_id":"4","last_reported":1731331021,"current_range_meters":10800,"station_id":"","pricing_plan_id":"cebpf4jnsgd1na2vs0mg"},{"bike_id":"f8a80f2d-b549-46ec-a2ef-7f7a2490b738","system_id":"levelo_inurba_marseille","lat":43.26793,"lon":5.39411,"is_reserved":false,"is_disabled":false,"rental_uris":{"android":"levelo://app?vid=f8a80f2d-b549-46ec-a2ef-7f7a2490b738","ios":"levelo://app?vid=f8a80f2d-b549-46ec-a2ef-7f7a2490b738"},"vehicle_type_id":"4","last_reported":1731331021,"current_range_meters":39200,"station_id":"ce4bhh12rcd13ifvqfg0","pricing_plan_id":"cebpf4jnsgd1na2vs0mg"},{"bike_id":"9dce73c2-a6b1-460f-8542-462301742faa","system_id":"levelo_inurba_marseille","lat":43.24808,"lon":5.37463,"is_reserved":false,"is_disabled":false,"rental_uris":{"android":"levelo://app?vid=9dce73c2-a6b1-460f-8542-462301742faa","ios":"levelo://app?vid=9dce73c2-a6b1-460f-8542-462301742faa"},"vehicle_type_id":"4","last_reported":1731331021,"current_range_meters":33200,"station_id":"ce4bhgh2rcd13ifvqfb0","pricing_plan_id":"cebpf4jnsgd1na2vs0mg"},{"bike_id":"2bdf9060-9eaa-4055-aa8b-ae8cd81f6e98","system_id":"levelo_inurba_marseille","lat":43.27069,"lon":5.42287,"is_reserved":false,"is_disabled":false,"rental_uris":{"android":"levelo://app?vid=2bdf9060-9eaa-4055-aa8b-ae8cd81f6e98","ios":"levelo://app?vid=2bdf9060-9eaa-4055-aa8b-ae8cd81f6e98"},"vehicle_type_id":"4","last_reported":1731331021,"current_range_meters":10000,"station_id":"ce4bhk92rcd13ifvqgb0","pricing_plan_id":"cebpf4jnsgd1na2vs0mg"},{"bike_id":"19fa704b-aa6a-4aee-9b85-b1d4bec7f4b0","system_id":"levelo_inurba_marseille","lat":43.23065,"lon":5.35487,"is_reserved":false,"is_disabled":false,"rental_uris":{"android":"levelo://app?vid=19fa704b-aa6a-4aee-9b85-b1d4bec7f4b0","ios":"levelo://app?vid=19fa704b-aa6a-4aee-9b85-b1d4bec7f4b0"},"vehicle_type_id":"4","last_reported":1731331021,"current_range_meters":11600,"station_id":"cpo3342slgdg3j2ifvpg","pricing_plan_id":"cebpf4jnsgd1na2vs0mg"},{"bike_id":"61d59144-939f-4582-9efc-d588c6421da9","system_id":"levelo_inurba_marseille","lat":43.24167,"lon":5.364,"is_reserved":false,"is_disabled":false,"rental_uris":{"android":"levelo://app?vid=61d59144-939f-4582-9efc-d588c6421da9","ios":"levelo://app?vid=61d59144-939f-4582-9efc-d588c6421da9"},"vehicle_type_id":"4","last_reported":1731331021,"current_range_meters":11200,"station_id":"cpo36qri1sfpv3e86is0","pricing_plan_id":"cebpf4jnsgd1na2vs0mg"},{"bike_id":"197ec895-40e4-49ce-b86a-3c24aa3eed39","system_id":"levelo_inurba_marseille","lat":43.28416,"lon":5.3498,"is_reserved":false,"is_disabled":false,"rental_uris":{"android":"levelo://app?vid=197ec895-40e4-49ce-b86a-3c24aa3eed39","ios":"levelo://app?vid=197ec895-40e4-49ce-b86a-3c24aa3eed39"},"vehicle_type_id":"4","last_reported":1731331021,"current_range_meters":31200,"station_id":"ce4bhbh2rcd13ifvqepg","pricing_plan_id":"cebpf4jnsgd1na2vs0mg"},{"bike_id":"b72ca6e7-47e9-42be-9a97-b74e22acdc0e","system_id":"levelo_inurba_marseille","lat":43.32101,"lon":5.36784,"is_reserved":false,"is_disabled":false,"rental_uris":{"android":"levelo://app?vid=b72ca6e7-47e9-42be-9a97-b74e22acdc0e","ios":"levelo://app?vid=b72ca6e7-47e9-42be-9a97-b74e22acdc0e"},"vehicle_type_id":"4","last_reported":1731331021,"current_range_meters":30400,"station_id":"ce4bhrh2rcd13ifvqhug","pricing_plan_id":"cebpf4jnsgd1na2vs0mg"},{"bike_id":"3ed0f895-4cac-452b-affe-6d7e15dfeea1","system_id":"levelo_inurba_marseille","lat":43.2621,"lon":5.37442,"is_reserved":false,"is_disabled":false,"rental_uris":{"android":"levelo://app?vid=3ed0f895-4cac-452b-affe-6d7e15dfeea1","ios":"levelo://app?vid=3ed0f895-4cac-452b-affe-6d7e15dfeea1"},"vehicle_type_id":"4","last_reported":1731331021,"current_range_meters":38800,"station_id":"ce4bhgp2rcd13ifvqfc0","pricing_plan_id":"cebpf4jnsgd1na2vs0mg"},{"bike_id":"0df8bb59-b428-49af-9f16-568e84e6042c","system_id":"levelo_inurba_marseille","lat":43.24068,"lon":5.3776,"is_reserved":false,"is_disabled":false,"rental_uris":{"android":"levelo://app?vid=0df8bb59-b428-49af-9f16-568e84e6042c","ios":"levelo://app?vid=0df8bb59-b428-49af-9f16-568e84e6042c"},"vehicle_type_id":"4","last_reported":1731331021,"current_range_meters":32400,"station_id":"ce4bhnp2rcd13ifvqgvg","pricing_plan_id":"cebpf4jnsgd1na2vs0mg"},{"bike_id":"6bb881c6-4656-4c7f-b64f-1183ee7957c6","system_id":"levelo_inurba_marseille","lat":43.27424,"lon":5.39418,"is_reserved":false,"is_disabled":false,"rental_uris":{"android":"levelo://app?vid=6bb881c6-4656-4c7f-b64f-1183ee7957c6","ios":"levelo://app?vid=6bb881c6-4656-4c7f-b64f-1183ee7957c6"},"vehicle_type_id":"4","last_reported":1731331021,"current_range_meters":38800,"station_id":"ce4bhdp2rcd13ifvqf20","pricing_plan_id":"cebpf4jnsgd1na2vs0mg"},{"bike_id":"f4e00063-2c86-4ec7-86e2-d138d8b01476","system_id":"levelo_inurba_marseille","lat":43.30179,"lon":5.36612,"is_reserved":false,"is_disabled":false,"rental_uris":{"android":"levelo://app?vid=f4e00063-2c86-4ec7-86e2-d138d8b01476","ios":"levelo://app?vid=f4e00063-2c86-4ec7-86e2-d138d8b01476"},"vehicle_type_id":"4","last_reported":1731331021,"current_range_meters":39200,"station_id":"ce4bgrh2rcd13ifvqc8g","pricing_plan_id":"cebpf4jnsgd1na2vs0mg"},{"bike_id":"901a8ee9-a86a-49aa-b9b0-44d3ae03326a","system_id":"levelo_inurba_marseille","lat":43.31714,"lon":5.43702,"is_reserved":false,"is_disabled":false,"rental_uris":{"android":"levelo://app?vid=901a8ee9-a86a-49aa-b9b0-44d3ae03326a","ios":"levelo://app?vid=901a8ee9-a86a-49aa-b9b0-44d3ae03326a"},"vehicle_type_id":"4","last_reported":1731331021,"current_range_meters":8000,"station_id":"ce4bhp92rcd13ifvqhcg","pricing_plan_id":"cebpf4jnsgd1na2vs0mg"},{"bike_id":"52a71ef5-8ef7-4a13-9edb-b931936b8cfb","system_id":"levelo_inurba_marseille","lat":43.33726,"lon":5.39186,"is_reserved":false,"is_disabled":false,"rental_uris":{"android":"levelo://app?vid=52a71ef5-8ef7-4a13-9edb-b931936b8cfb","ios":"levelo://app?vid=52a71ef5-8ef7-4a13-9edb-b931936b8cfb"},"vehicle_type_id":"4","last_reported":1731331021,"current_range_meters":30400,"station_id":"ce4bhr92rcd13ifvqhsg","pricing_plan_id":"cebpf4jnsgd1na2vs0mg"},{"bike_id":"30d69020-0b4f-4098-9103-075295f829ff","system_id":"levelo_inurba_marseille","lat":43.3013,"lon":5.387691,"is_reserved":false,"is_disabled":false,"rental_uris":{"android":"levelo://app?vid=30d69020-0b4f-4098-9103-075295f829ff","ios":"levelo://app?vid=30d69020-0b4f-4098-9103-075295f829ff"},"vehicle_type_id":"4","last_reported":1731331021,"current_range_meters":6800,"station_id":"ce4bgi92rcd13ifvqb90","pricing_plan_id":"cebpf4jnsgd1na2vs0mg"},{"bike_id":"8f803afa-5642-4caf-899b-e5614b30849d","system_id":"levelo_inurba_marseille","lat":43.28268,"lon":5.35079,"is_reserved":false,"is_disabled":false,"rental_uris":{"android":"levelo://app?vid=8f803afa-5642-4caf-899b-e5614b30849d","ios":"levelo://app?vid=8f803afa-5642-4caf-899b-e5614b30849d"},"vehicle_type_id":"4","last_reported":1731331021,"current_range_meters":38800,"station_id":"ce4bhbp2rcd13ifvqerg","pricing_plan_id":"cebpf4jnsgd1na2vs0mg"},{"bike_id":"b42cb898-3c97-4984-ad72-adc4d4048afd","system_id":"levelo_inurba_marseille","lat":43.22926,"lon":5.35372,"is_reserved":false,"is_disabled":false,"rental_uris":{"android":"levelo://app?vid=b42cb898-3c97-4984-ad72-adc4d4048afd","ios":"levelo://app?vid=b42cb898-3c97-4984-ad72-adc4d4048afd"},"vehicle_type_id":"4","last_reported":1731331021,"current_range_meters":13600,"station_id":"cpo3532slgdg3j2ikp40","pricing_plan_id":"cebpf4jnsgd1na2vs0mg"},{"bike_id":"effe6a52-fd80-4e1d-a183-e0e0f1622037","system_id":"levelo_inurba_marseille","lat":43.31998,"lon":5.38158,"is_reserved":false,"is_disabled":false,"rental_uris":{"android":"levelo://app?vid=effe6a52-fd80-4e1d-a183-e0e0f1622037","ios":"levelo://app?vid=effe6a52-fd80-4e1d-a183-e0e0f1622037"},"vehicle_type_id":"4","last_reported":1731331021,"current_range_meters":28800,"station_id":"ce4bhr12rcd13ifvqhpg","pricing_plan_id":"cebpf4jnsgd1na2vs0mg"},{"bike_id":"4f0b5eb1-7d50-489a-b482-e83519ff277a","system_id":"levelo_inurba_marseille","lat":43.25087,"lon":5.39521,"is_reserved":false,"is_disabled":false,"rental_uris":{"android":"levelo://app?vid=4f0b5eb1-7d50-489a-b482-e83519ff277a","ios":"levelo://app?vid=4f0b5eb1-7d50-489a-b482-e83519ff277a"},"vehicle_type_id":"4","last_reported":1731331021,"current_range_meters":29600,"station_id":"ce4bhm12rcd13ifvqgkg","pricing_plan_id":"cebpf4jnsgd1na2vs0mg"},{"bike_id":"7688bd19-3d11-406e-84d9-9c8cd611bb73","system_id":"levelo_inurba_marseille","lat":43.28156,"lon":5.42629,"is_reserved":false,"is_disabled":false,"rental_uris":{"android":"levelo://app?vid=7688bd19-3d11-406e-84d9-9c8cd611bb73","ios":"levelo://app?vid=7688bd19-3d11-406e-84d9-9c8cd611bb73"},"vehicle_type_id":"4","last_reported":1731331021,"current_range_meters":38000,"station_id":"ce4bhnh2rcd13ifvqgug","pricing_plan_id":"cebpf4jnsgd1na2vs0mg"},{"bike_id":"c74a236a-3f2a-4617-8ca8-47c166434983","system_id":"levelo_inurba_marseille","lat":43.28152,"lon":5.42642,"is_reserved":false,"is_disabled":false,"rental_uris":{"android":"levelo://app?vid=c74a236a-3f2a-4617-8ca8-47c166434983","ios":"levelo://app?vid=c74a236a-3f2a-4617-8ca8-47c166434983"},"vehicle_type_id":"4","last_reported":1731331021,"current_range_meters":32800,"station_id":"ce4bhnh2rcd13ifvqgug","pricing_plan_id":"cebpf4jnsgd1na2vs0mg"},{"bike_id":"845316cb-13b2-4690-a07a-49926118981f","system_id":"levelo_inurba_marseille","lat":43.25866,"lon":5.39898,"is_reserved":false,"is_disabled":false,"rental_uris":{"android":"levelo://app?vid=845316cb-13b2-4690-a07a-49926118981f","ios":"levelo://app?vid=845316cb-13b2-4690-a07a-49926118981f"},"vehicle_type_id":"4","last_reported":1731331021,"current_range_meters":38800,"station_id":"ce4bhl92rcd13ifvqghg","pricing_plan_id":"cebpf4jnsgd1na2vs0mg"},{"bike_id":"81c3c706-55d5-4515-bcda-e2c7ffc6d53f","system_id":"levelo_inurba_marseille","lat":43.30799,"lon":5.43523,"is_reserved":false,"is_disabled":false,"rental_uris":{"android":"levelo://app?vid=81c3c706-55d5-4515-bcda-e2c7ffc6d53f","ios":"levelo://app?vid=81c3c706-55d5-4515-bcda-e2c7ffc6d53f"},"vehicle_type_id":"4","last_reported":1731331021,"current_range_meters":38800,"station_id":"ce4bhph2rcd13ifvqheg","pricing_plan_id":"cebpf4jnsgd1na2vs0mg"},{"bike_id":"16edd5e5-0497-4831-bb6b-d18eb7e92293","system_id":"levelo_inurba_marseille","lat":43.24808,"lon":5.37453,"is_reserved":false,"is_disabled":false,"rental_uris":{"android":"levelo://app?vid=16edd5e5-0497-4831-bb6b-d18eb7e92293","ios":"levelo://app?vid=16edd5e5-0497-4831-bb6b-d18eb7e92293"},"vehicle_type_id":"4","last_reported":1731331021,"current_range_meters":24400,"station_id":"ce4bhgh2rcd13ifvqfb0","pricing_plan_id":"cebpf4jnsgd1na2vs0mg"},{"bike_id":"a82d3051-e21d-4222-a7a4-16850359cffa","system_id":"levelo_inurba_marseille","lat":43.248052,"lon":5.374585,"is_reserved":false,"is_disabled":false,"rental_uris":{"android":"levelo://app?vid=a82d3051-e21d-4222-a7a4-16850359cffa","ios":"levelo://app?vid=a82d3051-e21d-4222-a7a4-16850359cffa"},"vehicle_type_id":"4","last_reported":1731331021,"current_range_meters":16000,"station_id":"ce4bhgh2rcd13ifvqfb0","pricing_plan_id":"cebpf4jnsgd1na2vs0mg"},{"bike_id":"6009284f-c74a-4dab-9574-dc9e56eab4df","system_id":"levelo_inurba_marseille","lat":43.290277,"lon":5.386481,"is_reserved":false,"is_disabled":false,"rental_uris":{"android":"levelo://app?vid=6009284f-c74a-4dab-9574-dc9e56eab4df","ios":"levelo://app?vid=6009284f-c74a-4dab-9574-dc9e56eab4df"},"vehicle_type_id":"4","last_reported":1731331021,"current_range_meters":38000,"station_id":"ce4bgj92rcd13ifvqbd0","pricing_plan_id":"cebpf4jnsgd1na2vs0mg"},{"bike_id":"feb86f62-2c80-4064-8e38-33c5534046da","system_id":"levelo_inurba_marseille","lat":43.28207,"lon":5.399,"is_reserved":false,"is_disabled":false,"rental_uris":{"android":"levelo://app?vid=feb86f62-2c80-4064-8e38-33c5534046da","ios":"levelo://app?vid=feb86f62-2c80-4064-8e38-33c5534046da"},"vehicle_type_id":"4","last_reported":1731331021,"current_range_meters":16400,"station_id":"","pricing_plan_id":"cebpf4jnsgd1na2vs0mg"},{"bike_id":"a2e0dbd8-6bb6-4f58-81e6-a5bb2ebfdca4","system_id":"levelo_inurba_marseille","lat":43.23194,"lon":5.35553,"is_reserved":false,"is_disabled":false,"rental_uris":{"android":"levelo://app?vid=a2e0dbd8-6bb6-4f58-81e6-a5bb2ebfdca4","ios":"levelo://app?vid=a2e0dbd8-6bb6-4f58-81e6-a5bb2ebfdca4"},"vehicle_type_id":"4","last_reported":1731331021,"current_range_meters":40000,"station_id":"ce4bhu92rcd13ifvqi70","pricing_plan_id":"cebpf4jnsgd1na2vs0mg"},{"bike_id":"b03abf6e-6eea-4ffb-ac28-9602aca8ca60","system_id":"levelo_inurba_marseille","lat":43.27494,"lon":5.42453,"is_reserved":false,"is_disabled":false,"rental_uris":{"android":"levelo://app?vid=b03abf6e-6eea-4ffb-ac28-9602aca8ca60","ios":"levelo://app?vid=b03abf6e-6eea-4ffb-ac28-9602aca8ca60"},"vehicle_type_id":"4","last_reported":1731331021,"current_range_meters":24000,"station_id":"ce4bhn92rcd13ifvqgrg","pricing_plan_id":"cebpf4jnsgd1na2vs0mg"},{"bike_id":"2c69c201-1d8c-4f3b-b0ec-e9c4f67178a4","system_id":"levelo_inurba_marseille","lat":43.30086,"lon":5.39086,"is_reserved":false,"is_disabled":false,"rental_uris":{"android":"levelo://app?vid=2c69c201-1d8c-4f3b-b0ec-e9c4f67178a4","ios":"levelo://app?vid=2c69c201-1d8c-4f3b-b0ec-e9c4f67178a4"},"vehicle_type_id":"4","last_reported":1731331021,"current_range_meters":38000,"station_id":"ce4bh192rcd13ifvqdb0","pricing_plan_id":"cebpf4jnsgd1na2vs0mg"},{"bike_id":"9e3f5526-dc45-4ee1-9c8e-05c036614c5b","system_id":"levelo_inurba_marseille","lat":43.248,"lon":5.37455,"is_reserved":false,"is_disabled":false,"rental_uris":{"android":"levelo://app?vid=9e3f5526-dc45-4ee1-9c8e-05c036614c5b","ios":"levelo://app?vid=9e3f5526-dc45-4ee1-9c8e-05c036614c5b"},"vehicle_type_id":"4","last_reported":1731331021,"current_range_meters":36800,"station_id":"ce4bhgh2rcd13ifvqfb0","pricing_plan_id":"cebpf4jnsgd1na2vs0mg"},{"bike_id":"d34bf5b5-25e3-4cbb-9654-ea9ef4a468a2","system_id":"levelo_inurba_marseille","lat":43.23964,"lon":5.36641,"is_reserved":false,"is_disabled":false,"rental_uris":{"android":"levelo://app?vid=d34bf5b5-25e3-4cbb-9654-ea9ef4a468a2","ios":"levelo://app?vid=d34bf5b5-25e3-4cbb-9654-ea9ef4a468a2"},"vehicle_type_id":"4","last_reported":1731331021,"current_range_meters":20400,"station_id":"ce4bhi12rcd13ifvqfp0","pricing_plan_id":"cebpf4jnsgd1na2vs0mg"},{"bike_id":"ab2a664c-93a2-484e-b5f9-981e6a4f4ccf","system_id":"levelo_inurba_marseille","lat":43.25862,"lon":5.39904,"is_reserved":false,"is_disabled":false,"rental_uris":{"android":"levelo://app?vid=ab2a664c-93a2-484e-b5f9-981e6a4f4ccf","ios":"levelo://app?vid=ab2a664c-93a2-484e-b5f9-981e6a4f4ccf"},"vehicle_type_id":"4","last_reported":1731331021,"current_range_meters":32400,"station_id":"ce4bhl92rcd13ifvqghg","pricing_plan_id":"cebpf4jnsgd1na2vs0mg"},{"bike_id":"d7979457-c72f-4f9f-afe8-1edc23346266","system_id":"levelo_inurba_marseille","lat":43.28419,"lon":5.34987,"is_reserved":false,"is_disabled":false,"rental_uris":{"android":"levelo://app?vid=d7979457-c72f-4f9f-afe8-1edc23346266","ios":"levelo://app?vid=d7979457-c72f-4f9f-afe8-1edc23346266"},"vehicle_type_id":"4","last_reported":1731331021,"current_range_meters":27600,"station_id":"ce4bhbh2rcd13ifvqepg","pricing_plan_id":"cebpf4jnsgd1na2vs0mg"},{"bike_id":"57af29f6-f51d-4f0a-b501-e449eacfa998","system_id":"levelo_inurba_marseille","lat":43.286145,"lon":5.370737,"is_reserved":false,"is_disabled":false,"rental_uris":{"android":"levelo://app?vid=57af29f6-f51d-4f0a-b501-e449eacfa998","ios":"levelo://app?vid=57af29f6-f51d-4f0a-b501-e449eacfa998"},"vehicle_type_id":"4","last_reported":1731331021,"current_range_meters":17200,"station_id":"ce4bht12rcd13ifvqi60","pricing_plan_id":"cebpf4jnsgd1na2vs0mg"},{"bike_id":"0e1b6e24-8ebe-441d-ac01-cf4aede805b5","system_id":"levelo_inurba_marseille","lat":43.28263,"lon":5.35083,"is_reserved":false,"is_disabled":false,"rental_uris":{"android":"levelo://app?vid=0e1b6e24-8ebe-441d-ac01-cf4aede805b5","ios":"levelo://app?vid=0e1b6e24-8ebe-441d-ac01-cf4aede805b5"},"vehicle_type_id":"4","last_reported":1731331021,"current_range_meters":30400,"station_id":"ce4bhbp2rcd13ifvqerg","pricing_plan_id":"cebpf4jnsgd1na2vs0mg"},{"bike_id":"4ec64de8-7fe0-47cf-b20d-6779a023e615","system_id":"levelo_inurba_marseille","lat":43.26495,"lon":5.3955,"is_reserved":false,"is_disabled":false,"rental_uris":{"android":"levelo://app?vid=4ec64de8-7fe0-47cf-b20d-6779a023e615","ios":"levelo://app?vid=4ec64de8-7fe0-47cf-b20d-6779a023e615"},"vehicle_type_id":"4","last_reported":1731331021,"current_range_meters":38800,"station_id":"ce4bhi12rcd13ifvqfq0","pricing_plan_id":"cebpf4jnsgd1na2vs0mg"},{"bike_id":"6e0d57f5-5b34-4a52-a66b-7858d4e5f199","system_id":"levelo_inurba_marseille","lat":43.282626,"lon":5.350607,"is_reserved":false,"is_disabled":false,"rental_uris":{"android":"levelo://app?vid=6e0d57f5-5b34-4a52-a66b-7858d4e5f199","ios":"levelo://app?vid=6e0d57f5-5b34-4a52-a66b-7858d4e5f199"},"vehicle_type_id":"4","last_reported":1731331021,"current_range_meters":13600,"station_id":"ce4bhbp2rcd13ifvqerg","pricing_plan_id":"cebpf4jnsgd1na2vs0mg"},{"bike_id":"a9279aec-fd42-446f-98f8-78f07cda3dc4","system_id":"levelo_inurba_marseille","lat":43.24168,"lon":5.36396,"is_reserved":false,"is_disabled":false,"rental_uris":{"android":"levelo://app?vid=a9279aec-fd42-446f-98f8-78f07cda3dc4","ios":"levelo://app?vid=a9279aec-fd42-446f-98f8-78f07cda3dc4"},"vehicle_type_id":"4","last_reported":1731331021,"current_range_meters":11200,"station_id":"cpo36qri1sfpv3e86is0","pricing_plan_id":"cebpf4jnsgd1na2vs0mg"},{"bike_id":"239e691a-d067-4401-941a-ffa21686cf64","system_id":"levelo_inurba_marseille","lat":43.25083,"lon":5.39523,"is_reserved":false,"is_disabled":false,"rental_uris":{"android":"levelo://app?vid=239e691a-d067-4401-941a-ffa21686cf64","ios":"levelo://app?vid=239e691a-d067-4401-941a-ffa21686cf64"},"vehicle_type_id":"4","last_reported":1731331021,"current_range_meters":25600,"station_id":"ce4bhm12rcd13ifvqgkg","pricing_plan_id":"cebpf4jnsgd1na2vs0mg"},{"bike_id":"106cc77c-122d-43e9-b84f-d8544cad5890","system_id":"levelo_inurba_marseille","lat":43.27583,"lon":5.38432,"is_reserved":false,"is_disabled":false,"rental_uris":{"android":"levelo://app?vid=106cc77c-122d-43e9-b84f-d8544cad5890","ios":"levelo://app?vid=106cc77c-122d-43e9-b84f-d8544cad5890"},"vehicle_type_id":"4","last_reported":1731331021,"current_range_meters":33600,"station_id":"ce4bh5p2rcd13ifvqe4g","pricing_plan_id":"cebpf4jnsgd1na2vs0mg"},{"bike_id":"51425cab-636a-4dc6-aa35-1f1560d0c8d8","system_id":"levelo_inurba_marseille","lat":43.22936,"lon":5.35381,"is_reserved":false,"is_disabled":false,"rental_uris":{"android":"levelo://app?vid=51425cab-636a-4dc6-aa35-1f1560d0c8d8","ios":"levelo://app?vid=51425cab-636a-4dc6-aa35-1f1560d0c8d8"},"vehicle_type_id":"4","last_reported":1731331021,"current_range_meters":21600,"station_id":"cpo3532slgdg3j2ikp40","pricing_plan_id":"cebpf4jnsgd1na2vs0mg"},{"bike_id":"b16943e1-6e4b-4767-8789-7da828786277","system_id":"levelo_inurba_marseille","lat":43.34183,"lon":5.386132,"is_reserved":false,"is_disabled":false,"rental_uris":{"android":"levelo://app?vid=b16943e1-6e4b-4767-8789-7da828786277","ios":"levelo://app?vid=b16943e1-6e4b-4767-8789-7da828786277"},"vehicle_type_id":"4","last_reported":1731331021,"current_range_meters":13600,"station_id":"","pricing_plan_id":"cebpf4jnsgd1na2vs0mg"},{"bike_id":"4ab49f5f-4d0d-40d5-9818-d03803c66b9a","system_id":"levelo_inurba_marseille","lat":43.23152,"lon":5.4373,"is_reserved":false,"is_disabled":false,"rental_uris":{"android":"levelo://app?vid=4ab49f5f-4d0d-40d5-9818-d03803c66b9a","ios":"levelo://app?vid=4ab49f5f-4d0d-40d5-9818-d03803c66b9a"},"vehicle_type_id":"4","last_reported":1731331021,"current_range_meters":8400,"station_id":"ce4bhmp2rcd13ifvqgog","pricing_plan_id":"cebpf4jnsgd1na2vs0mg"},{"bike_id":"228f5f0c-464f-4e60-8767-0b14f79522d9","system_id":"levelo_inurba_marseille","lat":43.31331,"lon":5.39692,"is_reserved":false,"is_disabled":false,"rental_uris":{"android":"levelo://app?vid=228f5f0c-464f-4e60-8767-0b14f79522d9","ios":"levelo://app?vid=228f5f0c-464f-4e60-8767-0b14f79522d9"},"vehicle_type_id":"4","last_reported":1731331021,"current_range_meters":28400,"station_id":"ce4bgvp2rcd13ifvqcu0","pricing_plan_id":"cebpf4jnsgd1na2vs0mg"},{"bike_id":"12f67ea6-3576-4884-b1fb-ab07792326af","system_id":"levelo_inurba_marseille","lat":43.24375,"lon":5.37179,"is_reserved":false,"is_disabled":false,"rental_uris":{"android":"levelo://app?vid=12f67ea6-3576-4884-b1fb-ab07792326af","ios":"levelo://app?vid=12f67ea6-3576-4884-b1fb-ab07792326af"},"vehicle_type_id":"4","last_reported":1731331021,"current_range_meters":18800,"station_id":"ce4bhnp2rcd13ifvqgvg","pricing_plan_id":"cebpf4jnsgd1na2vs0mg"},{"bike_id":"9d002305-34e1-4768-871f-8e0ecc71f219","system_id":"levelo_inurba_marseille","lat":43.26026,"lon":5.37557,"is_reserved":false,"is_disabled":false,"rental_uris":{"android":"levelo://app?vid=9d002305-34e1-4768-871f-8e0ecc71f219","ios":"levelo://app?vid=9d002305-34e1-4768-871f-8e0ecc71f219"},"vehicle_type_id":"4","last_reported":1731331021,"current_range_meters":6400,"station_id":"ce4bhgh2rcd13ifvqfa0","pricing_plan_id":"cebpf4jnsgd1na2vs0mg"},{"bike_id":"0acccacb-5c5e-4293-af73-a3ca4b76801a","system_id":"levelo_inurba_marseille","lat":43.27951,"lon":5.41047,"is_reserved":false,"is_disabled":false,"rental_uris":{"android":"levelo://app?vid=0acccacb-5c5e-4293-af73-a3ca4b76801a","ios":"levelo://app?vid=0acccacb-5c5e-4293-af73-a3ca4b76801a"},"vehicle_type_id":"4","last_reported":1731331021,"current_range_meters":8800,"station_id":"ce4bhnp2rcd13ifvqh0g","pricing_plan_id":"cebpf4jnsgd1na2vs0mg"},{"bike_id":"426d1c2d-6cf1-467d-b35a-d906a9a5dd59","system_id":"levelo_inurba_marseille","lat":43.25504,"lon":5.37644,"is_reserved":false,"is_disabled":false,"rental_uris":{"android":"levelo://app?vid=426d1c2d-6cf1-467d-b35a-d906a9a5dd59","ios":"levelo://app?vid=426d1c2d-6cf1-467d-b35a-d906a9a5dd59"},"vehicle_type_id":"4","last_reported":1731331021,"current_range_meters":33200,"station_id":"ce4bhh12rcd13ifvqff0","pricing_plan_id":"cebpf4jnsgd1na2vs0mg"},{"bike_id":"034ba016-6715-4249-a358-5d5a5d22db28","system_id":"levelo_inurba_marseille","lat":43.27951,"lon":5.41047,"is_reserved":false,"is_disabled":false,"rental_uris":{"android":"levelo://app?vid=034ba016-6715-4249-a358-5d5a5d22db28","ios":"levelo://app?vid=034ba016-6715-4249-a358-5d5a5d22db28"},"vehicle_type_id":"4","last_reported":1731331021,"current_range_meters":17200,"station_id":"ce4bhnp2rcd13ifvqh0g","pricing_plan_id":"cebpf4jnsgd1na2vs0mg"},{"bike_id":"dcde0e06-b3db-4814-a1b9-58df6e1ceb9c","system_id":"levelo_inurba_marseille","lat":43.28275,"lon":5.35073,"is_reserved":false,"is_disabled":false,"rental_uris":{"android":"levelo://app?vid=dcde0e06-b3db-4814-a1b9-58df6e1ceb9c","ios":"levelo://app?vid=dcde0e06-b3db-4814-a1b9-58df6e1ceb9c"},"vehicle_type_id":"4","last_reported":1731331021,"current_range_meters":38800,"station_id":"ce4bhbp2rcd13ifvqerg","pricing_plan_id":"cebpf4jnsgd1na2vs0mg"},{"bike_id":"099b4713-533f-4885-990d-46711f582187","system_id":"levelo_inurba_marseille","lat":43.31721,"lon":5.42412,"is_reserved":false,"is_disabled":false,"rental_uris":{"android":"levelo://app?vid=099b4713-533f-4885-990d-46711f582187","ios":"levelo://app?vid=099b4713-533f-4885-990d-46711f582187"},"vehicle_type_id":"4","last_reported":1731331021,"current_range_meters":17600,"station_id":"ce4bhp92rcd13ifvqhbg","pricing_plan_id":"cebpf4jnsgd1na2vs0mg"},{"bike_id":"6fa90877-f6be-45c8-aee9-caf644627a1c","system_id":"levelo_inurba_marseille","lat":43.33293,"lon":5.39513,"is_reserved":false,"is_disabled":false,"rental_uris":{"android":"levelo://app?vid=6fa90877-f6be-45c8-aee9-caf644627a1c","ios":"levelo://app?vid=6fa90877-f6be-45c8-aee9-caf644627a1c"},"vehicle_type_id":"4","last_reported":1731331021,"current_range_meters":14800,"station_id":"","pricing_plan_id":"cebpf4jnsgd1na2vs0mg"},{"bike_id":"9cb9b5bf-adb4-47f4-bdb3-18767ae661d8","system_id":"levelo_inurba_marseille","lat":43.2894,"lon":5.36635,"is_reserved":false,"is_disabled":false,"rental_uris":{"android":"levelo://app?vid=9cb9b5bf-adb4-47f4-bdb3-18767ae661d8","ios":"levelo://app?vid=9cb9b5bf-adb4-47f4-bdb3-18767ae661d8"},"vehicle_type_id":"4","last_reported":1731331021,"current_range_meters":27200,"station_id":"ce4bhap2rcd13ifvqek0","pricing_plan_id":"cebpf4jnsgd1na2vs0mg"},{"bike_id":"3e05c183-aff2-4709-b66e-dda2cdfd8055","system_id":"levelo_inurba_marseille","lat":43.26785,"lon":5.39426,"is_reserved":false,"is_disabled":false,"rental_uris":{"android":"levelo://app?vid=3e05c183-aff2-4709-b66e-dda2cdfd8055","ios":"levelo://app?vid=3e05c183-aff2-4709-b66e-dda2cdfd8055"},"vehicle_type_id":"4","last_reported":1731331021,"current_range_meters":33200,"station_id":"ce4bhh12rcd13ifvqfg0","pricing_plan_id":"cebpf4jnsgd1na2vs0mg"},{"bike_id":"49fa01e6-5acd-4fb3-9c88-9499adb03ca9","system_id":"levelo_inurba_marseille","lat":43.2353,"lon":5.36048,"is_reserved":false,"is_disabled":false,"rental_uris":{"android":"levelo://app?vid=49fa01e6-5acd-4fb3-9c88-9499adb03ca9","ios":"levelo://app?vid=49fa01e6-5acd-4fb3-9c88-9499adb03ca9"},"vehicle_type_id":"4","last_reported":1731331021,"current_range_meters":19600,"station_id":"","pricing_plan_id":"cebpf4jnsgd1na2vs0mg"},{"bike_id":"658206a3-d24f-40a6-a698-4e299876a8e4","system_id":"levelo_inurba_marseille","lat":43.28938,"lon":5.39633,"is_reserved":false,"is_disabled":false,"rental_uris":{"android":"levelo://app?vid=658206a3-d24f-40a6-a698-4e299876a8e4","ios":"levelo://app?vid=658206a3-d24f-40a6-a698-4e299876a8e4"},"vehicle_type_id":"4","last_reported":1731331021,"current_range_meters":10800,"station_id":"ce4bh3h2rcd13ifvqdn0","pricing_plan_id":"cebpf4jnsgd1na2vs0mg"},{"bike_id":"2e953deb-b0ff-40a8-976e-9504b36c8ff3","system_id":"levelo_inurba_marseille","lat":43.33761,"lon":5.37473,"is_reserved":false,"is_disabled":false,"rental_uris":{"android":"levelo://app?vid=2e953deb-b0ff-40a8-976e-9504b36c8ff3","ios":"levelo://app?vid=2e953deb-b0ff-40a8-976e-9504b36c8ff3"},"vehicle_type_id":"4","last_reported":1731331021,"current_range_meters":9600,"station_id":"","pricing_plan_id":"cebpf4jnsgd1na2vs0mg"},{"bike_id":"919b8114-8455-4c55-ad8f-2d74f8ad5173","system_id":"levelo_inurba_marseille","lat":43.28268,"lon":5.35074,"is_reserved":false,"is_disabled":false,"rental_uris":{"android":"levelo://app?vid=919b8114-8455-4c55-ad8f-2d74f8ad5173","ios":"levelo://app?vid=919b8114-8455-4c55-ad8f-2d74f8ad5173"},"vehicle_type_id":"4","last_reported":1731331021,"current_range_meters":30000,"station_id":"ce4bhbp2rcd13ifvqerg","pricing_plan_id":"cebpf4jnsgd1na2vs0mg"},{"bike_id":"a06cedee-684e-46f0-8e6b-96ef7d667b77","system_id":"levelo_inurba_marseille","lat":43.28268,"lon":5.35082,"is_reserved":false,"is_disabled":false,"rental_uris":{"android":"levelo://app?vid=a06cedee-684e-46f0-8e6b-96ef7d667b77","ios":"levelo://app?vid=a06cedee-684e-46f0-8e6b-96ef7d667b77"},"vehicle_type_id":"4","last_reported":1731331021,"current_range_meters":10800,"station_id":"ce4bhbp2rcd13ifvqerg","pricing_plan_id":"cebpf4jnsgd1na2vs0mg"},{"bike_id":"ce56e011-3499-47a7-9be3-f3863f6a2003","system_id":"levelo_inurba_marseille","lat":43.3054,"lon":5.36695,"is_reserved":false,"is_disabled":false,"rental_uris":{"android":"levelo://app?vid=ce56e011-3499-47a7-9be3-f3863f6a2003","ios":"levelo://app?vid=ce56e011-3499-47a7-9be3-f3863f6a2003"},"vehicle_type_id":"4","last_reported":1731331021,"current_range_meters":25200,"station_id":"ce4bgrp2rcd13ifvqc9g","pricing_plan_id":"cebpf4jnsgd1na2vs0mg"},{"bike_id":"b98b2328-aeac-41ec-8dcd-b7b6355292c2","system_id":"levelo_inurba_marseille","lat":43.231781,"lon":5.399836,"is_reserved":false,"is_disabled":false,"rental_uris":{"android":"levelo://app?vid=b98b2328-aeac-41ec-8dcd-b7b6355292c2","ios":"levelo://app?vid=b98b2328-aeac-41ec-8dcd-b7b6355292c2"},"vehicle_type_id":"4","last_reported":1731331021,"current_range_meters":3200,"station_id":"ce4bhn12rcd13ifvqgqg","pricing_plan_id":"cebpf4jnsgd1na2vs0mg"},{"bike_id":"c5222783-c5ca-4f71-949e-7508f94952eb","system_id":"levelo_inurba_marseille","lat":43.28275,"lon":5.35062,"is_reserved":false,"is_disabled":false,"rental_uris":{"android":"levelo://app?vid=c5222783-c5ca-4f71-949e-7508f94952eb","ios":"levelo://app?vid=c5222783-c5ca-4f71-949e-7508f94952eb"},"vehicle_type_id":"4","last_reported":1731331021,"current_range_meters":38800,"station_id":"ce4bhbp2rcd13ifvqerg","pricing_plan_id":"cebpf4jnsgd1na2vs0mg"},{"bike_id":"be8d4783-5c7f-42e8-a5c2-d03bee020a7d","system_id":"levelo_inurba_marseille","lat":43.24385,"lon":5.37055,"is_reserved":false,"is_disabled":false,"rental_uris":{"android":"levelo://app?vid=be8d4783-5c7f-42e8-a5c2-d03bee020a7d","ios":"levelo://app?vid=be8d4783-5c7f-42e8-a5c2-d03bee020a7d"},"vehicle_type_id":"4","last_reported":1731331021,"current_range_meters":38800,"station_id":"ce4bhhh2rcd13ifvqfk0","pricing_plan_id":"cebpf4jnsgd1na2vs0mg"},{"bike_id":"d4a84b74-1db0-4b3d-a1a1-5e5049f76316","system_id":"levelo_inurba_marseille","lat":43.28265,"lon":5.35075,"is_reserved":false,"is_disabled":false,"rental_uris":{"android":"levelo://app?vid=d4a84b74-1db0-4b3d-a1a1-5e5049f76316","ios":"levelo://app?vid=d4a84b74-1db0-4b3d-a1a1-5e5049f76316"},"vehicle_type_id":"4","last_reported":1731331021,"current_range_meters":35600,"station_id":"ce4bhbp2rcd13ifvqerg","pricing_plan_id":"cebpf4jnsgd1na2vs0mg"},{"bike_id":"b2692077-0bc7-46b6-b249-44f47c8031c6","system_id":"levelo_inurba_marseille","lat":43.28271,"lon":5.35084,"is_reserved":false,"is_disabled":false,"rental_uris":{"android":"levelo://app?vid=b2692077-0bc7-46b6-b249-44f47c8031c6","ios":"levelo://app?vid=b2692077-0bc7-46b6-b249-44f47c8031c6"},"vehicle_type_id":"4","last_reported":1731331021,"current_range_meters":36800,"station_id":"ce4bhbp2rcd13ifvqerg","pricing_plan_id":"cebpf4jnsgd1na2vs0mg"},{"bike_id":"537256ee-18b9-4e44-8f63-02c6657718e5","system_id":"levelo_inurba_marseille","lat":43.34143,"lon":5.40897,"is_reserved":false,"is_disabled":false,"rental_uris":{"android":"levelo://app?vid=537256ee-18b9-4e44-8f63-02c6657718e5","ios":"levelo://app?vid=537256ee-18b9-4e44-8f63-02c6657718e5"},"vehicle_type_id":"4","last_reported":1731331021,"current_range_meters":38000,"station_id":"ce4bhqh2rcd13ifvqhlg","pricing_plan_id":"cebpf4jnsgd1na2vs0mg"},{"bike_id":"f54e6294-deca-4f60-bdb0-ef53b82be61c","system_id":"levelo_inurba_marseille","lat":43.29032,"lon":5.37557,"is_reserved":false,"is_disabled":false,"rental_uris":{"android":"levelo://app?vid=f54e6294-deca-4f60-bdb0-ef53b82be61c","ios":"levelo://app?vid=f54e6294-deca-4f60-bdb0-ef53b82be61c"},"vehicle_type_id":"4","last_reported":1731331021,"current_range_meters":32800,"station_id":"ce4bh692rcd13ifvqe90","pricing_plan_id":"cebpf4jnsgd1na2vs0mg"},{"bike_id":"91d27678-9fb5-4cf2-a1c3-8861feddf228","system_id":"levelo_inurba_marseille","lat":43.2319,"lon":5.35552,"is_reserved":false,"is_disabled":false,"rental_uris":{"android":"levelo://app?vid=91d27678-9fb5-4cf2-a1c3-8861feddf228","ios":"levelo://app?vid=91d27678-9fb5-4cf2-a1c3-8861feddf228"},"vehicle_type_id":"4","last_reported":1731331021,"current_range_meters":36800,"station_id":"ce4bhu92rcd13ifvqi70","pricing_plan_id":"cebpf4jnsgd1na2vs0mg"},{"bike_id":"b0002bbf-39c1-4653-b88c-0a84f9a5e005","system_id":"levelo_inurba_marseille","lat":43.32041,"lon":5.41558,"is_reserved":false,"is_disabled":false,"rental_uris":{"android":"levelo://app?vid=b0002bbf-39c1-4653-b88c-0a84f9a5e005","ios":"levelo://app?vid=b0002bbf-39c1-4653-b88c-0a84f9a5e005"},"vehicle_type_id":"4","last_reported":1731331021,"current_range_meters":38800,"station_id":"ce4bhq92rcd13ifvqhkg","pricing_plan_id":"cebpf4jnsgd1na2vs0mg"},{"bike_id":"2248b0df-9abc-4114-8c0c-dff063128507","system_id":"levelo_inurba_marseille","lat":43.28425,"lon":5.34984,"is_reserved":false,"is_disabled":false,"rental_uris":{"android":"levelo://app?vid=2248b0df-9abc-4114-8c0c-dff063128507","ios":"levelo://app?vid=2248b0df-9abc-4114-8c0c-dff063128507"},"vehicle_type_id":"4","last_reported":1731331021,"current_range_meters":39200,"station_id":"ce4bhbh2rcd13ifvqepg","pricing_plan_id":"cebpf4jnsgd1na2vs0mg"},{"bike_id":"a7eb5692-1f2b-48c6-af16-f2fe0b372124","system_id":"levelo_inurba_marseille","lat":43.3372,"lon":5.39179,"is_reserved":false,"is_disabled":false,"rental_uris":{"android":"levelo://app?vid=a7eb5692-1f2b-48c6-af16-f2fe0b372124","ios":"levelo://app?vid=a7eb5692-1f2b-48c6-af16-f2fe0b372124"},"vehicle_type_id":"4","last_reported":1731331021,"current_range_meters":39200,"station_id":"ce4bhr92rcd13ifvqhsg","pricing_plan_id":"cebpf4jnsgd1na2vs0mg"},{"bike_id":"42b53c41-ec66-41af-ad7e-0b4ee08761a2","system_id":"levelo_inurba_marseille","lat":43.30425,"lon":5.38893,"is_reserved":false,"is_disabled":false,"rental_uris":{"android":"levelo://app?vid=42b53c41-ec66-41af-ad7e-0b4ee08761a2","ios":"levelo://app?vid=42b53c41-ec66-41af-ad7e-0b4ee08761a2"},"vehicle_type_id":"4","last_reported":1731331021,"current_range_meters":30400,"station_id":"ce4bgk12rcd13ifvqbi0","pricing_plan_id":"cebpf4jnsgd1na2vs0mg"},{"bike_id":"4dc0e3bd-ab9c-461a-835f-d4784d7b8326","system_id":"levelo_inurba_marseille","lat":43.31322,"lon":5.42359,"is_reserved":false,"is_disabled":false,"rental_uris":{"android":"levelo://app?vid=4dc0e3bd-ab9c-461a-835f-d4784d7b8326","ios":"levelo://app?vid=4dc0e3bd-ab9c-461a-835f-d4784d7b8326"},"vehicle_type_id":"4","last_reported":1731331021,"current_range_meters":9200,"station_id":"ce4bhp92rcd13ifvqhcg","pricing_plan_id":"cebpf4jnsgd1na2vs0mg"},{"bike_id":"8e3d5b00-e559-4ba4-8506-b31b8a4e5008","system_id":"levelo_inurba_marseille","lat":43.284139,"lon":5.349772,"is_reserved":false,"is_disabled":false,"rental_uris":{"android":"levelo://app?vid=8e3d5b00-e559-4ba4-8506-b31b8a4e5008","ios":"levelo://app?vid=8e3d5b00-e559-4ba4-8506-b31b8a4e5008"},"vehicle_type_id":"4","last_reported":1731331021,"current_range_meters":39200,"station_id":"ce4bhbh2rcd13ifvqepg","pricing_plan_id":"cebpf4jnsgd1na2vs0mg"},{"bike_id":"52cbd37b-1529-4980-ae8a-b78e49fdebce","system_id":"levelo_inurba_marseille","lat":43.23955,"lon":5.36636,"is_reserved":false,"is_disabled":false,"rental_uris":{"android":"levelo://app?vid=52cbd37b-1529-4980-ae8a-b78e49fdebce","ios":"levelo://app?vid=52cbd37b-1529-4980-ae8a-b78e49fdebce"},"vehicle_type_id":"4","last_reported":1731331021,"current_range_meters":8000,"station_id":"ce4bhi12rcd13ifvqfp0","pricing_plan_id":"cebpf4jnsgd1na2vs0mg"},{"bike_id":"a1d465bc-6452-4465-9068-95636f960d2b","system_id":"levelo_inurba_marseille","lat":43.23144,"lon":5.43731,"is_reserved":false,"is_disabled":false,"rental_uris":{"android":"levelo://app?vid=a1d465bc-6452-4465-9068-95636f960d2b","ios":"levelo://app?vid=a1d465bc-6452-4465-9068-95636f960d2b"},"vehicle_type_id":"4","last_reported":1731331021,"current_range_meters":36800,"station_id":"ce4bhmp2rcd13ifvqgog","pricing_plan_id":"cebpf4jnsgd1na2vs0mg"},{"bike_id":"c30c7c17-b515-4143-9517-47b104debd66","system_id":"levelo_inurba_marseille","lat":43.337444,"lon":5.374475,"is_reserved":false,"is_disabled":false,"rental_uris":{"android":"levelo://app?vid=c30c7c17-b515-4143-9517-47b104debd66","ios":"levelo://app?vid=c30c7c17-b515-4143-9517-47b104debd66"},"vehicle_type_id":"4","last_reported":1731331021,"current_range_meters":10800,"station_id":"","pricing_plan_id":"cebpf4jnsgd1na2vs0mg"},{"bike_id":"10cea026-5fb0-4315-b430-3c700f659b9d","system_id":"levelo_inurba_marseille","lat":43.25861,"lon":5.39902,"is_reserved":false,"is_disabled":false,"rental_uris":{"android":"levelo://app?vid=10cea026-5fb0-4315-b430-3c700f659b9d","ios":"levelo://app?vid=10cea026-5fb0-4315-b430-3c700f659b9d"},"vehicle_type_id":"4","last_reported":1731331021,"current_range_meters":16000,"station_id":"ce4bhl92rcd13ifvqghg","pricing_plan_id":"cebpf4jnsgd1na2vs0mg"},{"bike_id":"a3737c00-2b24-45c7-87f6-a52becd1e5b4","system_id":"levelo_inurba_marseille","lat":43.27083,"lon":5.37992,"is_reserved":false,"is_disabled":false,"rental_uris":{"android":"levelo://app?vid=a3737c00-2b24-45c7-87f6-a52becd1e5b4","ios":"levelo://app?vid=a3737c00-2b24-45c7-87f6-a52becd1e5b4"},"vehicle_type_id":"4","last_reported":1731331021,"current_range_meters":31200,"station_id":"","pricing_plan_id":"cebpf4jnsgd1na2vs0mg"},{"bike_id":"1d2be291-e7bd-4203-8c56-e25289f5284d","system_id":"levelo_inurba_marseille","lat":43.2396,"lon":5.36631,"is_reserved":false,"is_disabled":false,"rental_uris":{"android":"levelo://app?vid=1d2be291-e7bd-4203-8c56-e25289f5284d","ios":"levelo://app?vid=1d2be291-e7bd-4203-8c56-e25289f5284d"},"vehicle_type_id":"4","last_reported":1731331021,"current_range_meters":28400,"station_id":"ce4bhi12rcd13ifvqfp0","pricing_plan_id":"cebpf4jnsgd1na2vs0mg"},{"bike_id":"1535e82a-fdee-4999-904d-6b56b6f682b2","system_id":"levelo_inurba_marseille","lat":43.23963,"lon":5.3663,"is_reserved":false,"is_disabled":false,"rental_uris":{"android":"levelo://app?vid=1535e82a-fdee-4999-904d-6b56b6f682b2","ios":"levelo://app?vid=1535e82a-fdee-4999-904d-6b56b6f682b2"},"vehicle_type_id":"4","last_reported":1731331021,"current_range_meters":16400,"station_id":"ce4bhi12rcd13ifvqfp0","pricing_plan_id":"cebpf4jnsgd1na2vs0mg"},{"bike_id":"411837cc-71c9-4190-9fad-d7aaffbacce8","system_id":"levelo_inurba_marseille","lat":43.28272,"lon":5.35073,"is_reserved":false,"is_disabled":false,"rental_uris":{"android":"levelo://app?vid=411837cc-71c9-4190-9fad-d7aaffbacce8","ios":"levelo://app?vid=411837cc-71c9-4190-9fad-d7aaffbacce8"},"vehicle_type_id":"4","last_reported":1731331021,"current_range_meters":38800,"station_id":"ce4bhbp2rcd13ifvqerg","pricing_plan_id":"cebpf4jnsgd1na2vs0mg"},