{"last_updated":1727377606,"ttl":60,"version":"2.2","data":{"bikes":[{"bike_id":"1949bde6-d10c-40a9-8005-655941700167","system_id":"levelo_inurba_marseille","lat":43.30792,"lon":5.43526,"is_reserved":false,"is_disabled":false,"rental_uris":{"android":"levelo://app?vid=1949bde6-d10c-40a9-8005-655941700167","ios":"levelo://app?vid=1949bde6-d10c-40a9-8005-655941700167"},"vehicle_type_id":"4","last_reported":1727377606,"current_range_meters":8000,"station_id":"ce4bhph2rcd13ifvqheg","pricing_plan_id":"cebpf4jnsgd1na2vs0mg"},{"bike_id":"3d1f9f6a-8959-486b-920a-daa83e76fcd8","system_id":"levelo_inurba_marseille","lat":43.312195,"lon":5.368483,"is_reserved":false,"is_disabled":false,"rental_uris":{"android":"levelo://app?vid=3d1f9f6a-8959-486b-920a-daa83e76fcd8","ios":"levelo://app?vid=3d1f9f6a-8959-486b-920a-daa83e76fcd8"},"vehicle_type_id":"4","last_reported":1727377606,"current_range_meters":2000,"station_id":"ce4bgl92rcd13ifvqbq0","pricing_plan_id":"cebpf4jnsgd1na2vs0mg"},{"bike_id":"28d0eaf3-09a0-4f64-a06e-645a192ee312","system_id":"levelo_inurba_marseille","lat":43.2848,"lon":5.38412,"is_reserved":false,"is_disabled":false,"rental_uris":{"android":"levelo://app?vid=28d0eaf3-09a0-4f64-a06e-645a192ee312","ios":"levelo://app?vid=28d0eaf3-09a0-4f64-a06e-645a192ee312"},"vehicle_type_id":"4","last_reported":1727377606,"current_range_meters":38800,"station_id":"ce4bh512rcd13ifvqe3g","pricing_plan_id":"cebpf4jnsgd1na2vs0mg"},{"bike_id":"41dab985-f799-4683-80f3-9616a6c44d35","system_id":"levelo_inurba_marseille","lat":43.31507,"lon":5.37266,"is_reserved":false,"is_disabled":false,"rental_uris":{"android":"levelo://app?vid=41dab985-f799-4683-80f3-9616a6c44d35","ios":"levelo://app?vid=41dab985-f799-4683-80f3-9616a6c44d35"},"vehicle_type_id":"4","last_reported":1727377606,"current_range_meters":16000,"station_id":"ce4bgt12rcd13ifvqcd0","pricing_plan_id":"cebpf4jnsgd1na2vs0mg"},{"bike_id":"9a593db0-19bc-4883-bc8e-f35d82d51490","system_id":"levelo_inurba_marseille","lat":43.31083,"lon":5.42431,"is_reserved":false,"is_disabled":false,"rental_uris":{"android":"levelo://app?vid=9a593db0-19bc-4883-bc8e-f35d82d51490","ios":"levelo://app?vid=9a593db0-19bc-4883-bc8e-f35d82d51490"},"vehicle_type_id":"4","last_reported":1727377606,"current_range_meters":6400,"station_id":"ce4bhp92rcd13ifvqhag","pricing_plan_id":"cebpf4jnsgd1na2vs0mg"},{"bike_id":"8ce479c9-6437-4b5d-a0e7-a4bbc691dbf4","system_id":"levelo_inurba_marseille","lat":43.2944,"lon":5.39748,"is_reserved":false,"is_disabled":false,"rental_uris":{"android":"levelo://app?vid=8ce479c9-6437-4b5d-a0e7-a4bbc691dbf4","ios":"levelo://app?vid=8ce479c9-6437-4b5d-a0e7-a4bbc691dbf4"},"vehicle_type_id":"4","last_reported":1727377606,"current_range_meters":38400,"station_id":"ce4bh3h2rcd13ifvqdo0","pricing_plan_id":"cebpf4jnsgd1na2vs0mg"},{"bike_id":"a9669d3a-c989-4bbf-988b-b787f6909497","system_id":"levelo_inurba_marseille","lat":43.32662,"lon":5.4099,"is_reserved":false,"is_disabled":false,"rental_uris":{"android":"levelo://app?vid=a9669d3a-c989-4bbf-988b-b787f6909497","ios":"levelo://app?vid=a9669d3a-c989-4bbf-988b-b787f6909497"},"vehicle_type_id":"4","last_reported":1727377606,"current_range_meters":38400,"station_id":"ce4bhpp2rcd13ifvqhgg","pricing_plan_id":"cebpf4jnsgd1na2vs0mg"},{"bike_id":"fec729f3-f4fc-4b3b-b7a3-4a0380081042","system_id":"levelo_inurba_marseille","lat":43.27557,"lon":5.38436,"is_reserved":false,"is_disabled":false,"rental_uris":{"android":"levelo://app?vid=fec729f3-f4fc-4b3b-b7a3-4a0380081042","ios":"levelo://app?vid=fec729f3-f4fc-4b3b-b7a3-4a0380081042"},"vehicle_type_id":"4","last_reported":1727377606,"current_range_meters":8000,"station_id":"ce4bhh92rcd13ifvqfi0","pricing_plan_id":"cebpf4jnsgd1na2vs0mg"},{"bike_id":"28d0364f-51ba-4e83-b500-87a9db28cafa","system_id":"levelo_inurba_marseille","lat":43.29718,"lon":5.366087,"is_reserved":false,"is_disabled":false,"rental_uris":{"android":"levelo://app?vid=28d0364f-51ba-4e83-b500-87a9db28cafa","ios":"levelo://app?vid=28d0364f-51ba-4e83-b500-87a9db28cafa"},"vehicle_type_id":"4","last_reported":1727377606,"current_range_meters":36400,"station_id":"ce4bgn12rcd13ifvqbt0","pricing_plan_id":"cebpf4jnsgd1na2vs0mg"},{"bike_id":"a17cc833-34e0-49cd-aed6-aafc54d2e30a","system_id":"levelo_inurba_marseille","lat":43.28933,"lon":5.36409,"is_reserved":false,"is_disabled":false,"rental_uris":{"android":"levelo://app?vid=a17cc833-34e0-49cd-aed6-aafc54d2e30a","ios":"levelo://app?vid=a17cc833-34e0-49cd-aed6-aafc54d2e30a"},"vehicle_type_id":"4","last_reported":1727377606,"current_range_meters":14400,"station_id":"ce4bhc92rcd13ifvqetg","pricing_plan_id":"cebpf4jnsgd1na2vs0mg"},{"bike_id":"55f4f50b-d6dd-4e12-86b3-1486da4af7d9","system_id":"levelo_inurba_marseille","lat":43.22933,"lon":5.35372,"is_reserved":false,"is_disabled":false,"rental_uris":{"android":"levelo://app?vid=55f4f50b-d6dd-4e12-86b3-1486da4af7d9","ios":"levelo://app?vid=55f4f50b-d6dd-4e12-86b3-1486da4af7d9"},"vehicle_type_id":"4","last_reported":1727377606,"current_range_meters":38800,"station_id":"cpo3532slgdg3j2ikp40","pricing_plan_id":"cebpf4jnsgd1na2vs0mg"},{"bike_id":"a8d525c2-4312-4c82-9cf6-9f5a1f6a8bbd","system_id":"levelo_inurba_marseille","lat":43.29507,"lon":5.3903,"is_reserved":false,"is_disabled":false,"rental_uris":{"android":"levelo://app?vid=a8d525c2-4312-4c82-9cf6-9f5a1f6a8bbd","ios":"levelo://app?vid=a8d525c2-4312-4c82-9cf6-9f5a1f6a8bbd"},"vehicle_type_id":"4","last_reported":1727377606,"current_range_meters":38400,"station_id":"ce4bh3p2rcd13ifvqdp0","pricing_plan_id":"cebpf4jnsgd1na2vs0mg"},{"bike_id":"46518533-a3f0-468c-a3d9-f7b8392f6bb8","system_id":"levelo_inurba_marseille","lat":43.28667,"lon":5.36356,"is_reserved":false,"is_disabled":false,"rental_uris":{"android":"levelo://app?vid=46518533-a3f0-468c-a3d9-f7b8392f6bb8","ios":"levelo://app?vid=46518533-a3f0-468c-a3d9-f7b8392f6bb8"},"vehicle_type_id":"4","last_reported":1727377606,"current_range_meters":38800,"station_id":"ce4bhah2rcd13ifvqej0","pricing_plan_id":"cebpf4jnsgd1na2vs0mg"},{"bike_id":"f6345aab-32aa-4696-aef5-f293b7c8f809","system_id":"levelo_inurba_marseille","lat":43.24796,"lon":5.37465,"is_reserved":false,"is_disabled":false,"rental_uris":{"android":"levelo://app?vid=f6345aab-32aa-4696-aef5-f293b7c8f809","ios":"levelo://app?vid=f6345aab-32aa-4696-aef5-f293b7c8f809"},"vehicle_type_id":"4","last_reported":1727377606,"current_range_meters":25200,"station_id":"ce4bhgh2rcd13ifvqfb0","pricing_plan_id":"cebpf4jnsgd1na2vs0mg"},{"bike_id":"3150806f-1e87-436f-8d31-00d2d9bd9596","system_id":"levelo_inurba_marseille","lat":43.27846,"lon":5.40709,"is_reserved":false,"is_disabled":false,"rental_uris":{"android":"levelo://app?vid=3150806f-1e87-436f-8d31-00d2d9bd9596","ios":"levelo://app?vid=3150806f-1e87-436f-8d31-00d2d9bd9596"},"vehicle_type_id":"4","last_reported":1727377606,"current_range_meters":38000,"station_id":"ce4bhnh2rcd13ifvqgtg","pricing_plan_id":"cebpf4jnsgd1na2vs0mg"},{"bike_id":"c4c41784-1b96-4dc1-8140-e7b21737ee82","system_id":"levelo_inurba_marseille","lat":43.32484,"lon":5.36563,"is_reserved":false,"is_disabled":false,"rental_uris":{"android":"levelo://app?vid=c4c41784-1b96-4dc1-8140-e7b21737ee82","ios":"levelo://app?vid=c4c41784-1b96-4dc1-8140-e7b21737ee82"},"vehicle_type_id":"4","last_reported":1727377606,"current_range_meters":8000,"station_id":"ce4bhs12rcd13ifvqhvg","pricing_plan_id":"cebpf4jnsgd1na2vs0mg"},{"bike_id":"2307bcfe-5897-4814-8199-be9f3d33c5fd","system_id":"levelo_inurba_marseille","lat":43.25576,"lon":5.38231,"is_reserved":false,"is_disabled":false,"rental_uris":{"android":"levelo://app?vid=2307bcfe-5897-4814-8199-be9f3d33c5fd","ios":"levelo://app?vid=2307bcfe-5897-4814-8199-be9f3d33c5fd"},"vehicle_type_id":"4","last_reported":1727377606,"current_range_meters":20000,"station_id":"ce4bhih2rcd13ifvqfs0","pricing_plan_id":"cebpf4jnsgd1na2vs0mg"},{"bike_id":"161f50c7-3de2-4116-a91e-3d856209631f","system_id":"levelo_inurba_marseille","lat":43.2846,"lon":5.35889,"is_reserved":false,"is_disabled":false,"rental_uris":{"android":"levelo://app?vid=161f50c7-3de2-4116-a91e-3d856209631f","ios":"levelo://app?vid=161f50c7-3de2-4116-a91e-3d856209631f"},"vehicle_type_id":"4","last_reported":1727377606,"current_range_meters":39200,"station_id":"ce4bhah2rcd13ifvqei0","pricing_plan_id":"cebpf4jnsgd1na2vs0mg"},{"bike_id":"c0768ab6-1b9e-4d83-b6a3-4e5c37f12967","system_id":"levelo_inurba_marseille","lat":43.28096,"lon":5.37835,"is_reserved":false,"is_disabled":false,"rental_uris":{"android":"levelo://app?vid=c0768ab6-1b9e-4d83-b6a3-4e5c37f12967","ios":"levelo://app?vid=c0768ab6-1b9e-4d83-b6a3-4e5c37f12967"},"vehicle_type_id":"4","last_reported":1727377606,"current_range_meters":4800,"station_id":"ce4bha12rcd13ifvqee0","pricing_plan_id":"cebpf4jnsgd1na2vs0mg"},{"bike_id":"7737b815-6daf-41f0-8354-4b28ba75917f","system_id":"levelo_inurba_marseille","lat":43.30191,"lon":5.39827,"is_reserved":false,"is_disabled":false,"rental_uris":{"android":"levelo://app?vid=7737b815-6daf-41f0-8354-4b28ba75917f","ios":"levelo://app?vid=7737b815-6daf-41f0-8354-4b28ba75917f"},"vehicle_type_id":"4","last_reported":1727377606,"current_range_meters":10000,"station_id":"ce4bgvp2rcd13ifvqct0","pricing_plan_id":"cebpf4jnsgd1na2vs0mg"},{"bike_id":"e290de4d-5084-4f99-9d88-072fab8bfaa7","system_id":"levelo_inurba_marseille","lat":43.29796,"lon":5.40398,"is_reserved":false,"is_disabled":false,"rental_uris":{"android":"levelo://app?vid=e290de4d-5084-4f99-9d88-072fab8bfaa7","ios":"levelo://app?vid=e290de4d-5084-4f99-9d88-072fab8bfaa7"},"vehicle_type_id":"4","last_reported":1727377606,"current_range_meters":23200,"station_id":"ce4bh112rcd13ifvqd90","pricing_plan_id":"cebpf4jnsgd1na2vs0mg"},{"bike_id":"88d037fc-0915-471f-96c9-f90498a9e1f6","system_id":"levelo_inurba_marseille","lat":43.27954,"lon":5.41047,"is_reserved":false,"is_disabled":false,"rental_uris":{"android":"levelo://app?vid=88d037fc-0915-471f-96c9-f90498a9e1f6","ios":"levelo://app?vid=88d037fc-0915-471f-96c9-f90498a9e1f6"},"vehicle_type_id":"4","last_reported":1727377606,"current_range_meters":6400,"station_id":"ce4bhnp2rcd13ifvqh0g","pricing_plan_id":"cebpf4jnsgd1na2vs0mg"},{"bike_id":"5a04d140-0123-4f77-97af-31a7f1de95e7","system_id":"levelo_inurba_marseille","lat":43.24666,"lon":5.38158,"is_reserved":false,"is_disabled":false,"rental_uris":{"android":"levelo://app?vid=5a04d140-0123-4f77-97af-31a7f1de95e7","ios":"levelo://app?vid=5a04d140-0123-4f77-97af-31a7f1de95e7"},"vehicle_type_id":"4","last_reported":1727377606,"current_range_meters":31200,"station_id":"ce4bhih2rcd13ifvqfr0","pricing_plan_id":"cebpf4jnsgd1na2vs0mg"},{"bike_id":"4a4903c7-ffbe-40b4-8008-c3ffec982396","system_id":"levelo_inurba_marseille","lat":43.31526,"lon":5.38034,"is_reserved":false,"is_disabled":false,"rental_uris":{"android":"levelo://app?vid=4a4903c7-ffbe-40b4-8008-c3ffec982396","ios":"levelo://app?vid=4a4903c7-ffbe-40b4-8008-c3ffec982396"},"vehicle_type_id":"4","last_reported":1727377606,"current_range_meters":24400,"station_id":"ce4bhsp2rcd13ifvqi50","pricing_plan_id":"cebpf4jnsgd1na2vs0mg"},{"bike_id":"6b18d179-f0b4-41fe-ac47-f38619f1fe44","system_id":"levelo_inurba_marseille","lat":43.27948,"lon":5.4105,"is_reserved":false,"is_disabled":false,"rental_uris":{"android":"levelo://app?vid=6b18d179-f0b4-41fe-ac47-f38619f1fe44","ios":"levelo://app?vid=6b18d179-f0b4-41fe-ac47-f38619f1fe44"},"vehicle_type_id":"4","last_reported":1727377606,"current_range_meters":4000,"station_id":"ce4bhnp2rcd13ifvqh0g","pricing_plan_id":"cebpf4jnsgd1na2vs0mg"},{"bike_id":"fd6c8269-3eee-4a06-ba2e-69dc1ba31abd","system_id":"levelo_inurba_marseille","lat":43.335691,"lon":5.410272,"is_reserved":false,"is_disabled":false,"rental_uris":{"android":"levelo://app?vid=fd6c8269-3eee-4a06-ba2e-69dc1ba31abd","ios":"levelo://app?vid=fd6c8269-3eee-4a06-ba2e-69dc1ba31abd"},"vehicle_type_id":"4","last_reported":1727377606,"current_range_meters":9600,"station_id":"ce4bhqh2rcd13ifvqhmg","pricing_plan_id":"cebpf4jnsgd1na2vs0mg"},{"bike_id":"b6daf4df-7c90-4c5e-b397-06a87d15013f","system_id":"levelo_inurba_marseille","lat":43.33752,"lon":5.37361,"is_reserved":false,"is_disabled":false,"rental_uris":{"android":"levelo://app?vid=b6daf4df-7c90-4c5e-b397-06a87d15013f","ios":"levelo://app?vid=b6daf4df-7c90-4c5e-b397-06a87d15013f"},"vehicle_type_id":"4","last_reported":1727377606,"current_range_meters":30400,"station_id":"","pricing_plan_id":"cebpf4jnsgd1na2vs0mg"},{"bike_id":"6f4d9edd-1ec7-4e22-95c2-c90fdfe14e83","system_id":"levelo_inurba_marseille","lat":43.29417,"lon":5.38629,"is_reserved":false,"is_disabled":false,"rental_uris":{"android":"levelo://app?vid=6f4d9edd-1ec7-4e22-95c2-c90fdfe14e83","ios":"levelo://app?vid=6f4d9edd-1ec7-4e22-95c2-c90fdfe14e83"},"vehicle_type_id":"4","last_reported":1727377606,"current_range_meters":38800,"station_id":"ce4bh2h2rcd13ifvqdh0","pricing_plan_id":"cebpf4jnsgd1na2vs0mg"},{"bike_id":"d0359957-af2a-4165-98d2-72a519c3add3","system_id":"levelo_inurba_marseille","lat":43.295148,"lon":5.389812,"is_reserved":false,"is_disabled":false,"rental_uris":{"android":"levelo://app?vid=d0359957-af2a-4165-98d2-72a519c3add3","ios":"levelo://app?vid=d0359957-af2a-4165-98d2-72a519c3add3"},"vehicle_type_id":"4","last_reported":1727377606,"current_range_meters":14800,"station_id":"ce4bh3p2rcd13ifvqdp0","pricing_plan_id":"cebpf4jnsgd1na2vs0mg"},{"bike_id":"77247b4e-c963-4fc9-8e34-5c475c153b49","system_id":"levelo_inurba_marseille","lat":43.27998,"lon":5.40018,"is_reserved":false,"is_disabled":false,"rental_uris":{"android":"levelo://app?vid=77247b4e-c963-4fc9-8e34-5c475c153b49","ios":"levelo://app?vid=77247b4e-c963-4fc9-8e34-5c475c153b49"},"vehicle_type_id":"4","last_reported":1727377606,"current_range_meters":38800,"station_id":"ce4bho92rcd13ifvqh4g","pricing_plan_id":"cebpf4jnsgd1na2vs0mg"},{"bike_id":"5fa95aa1-5c15-4904-8fe3-a4b8ed3fe7dc","system_id":"levelo_inurba_marseille","lat":43.3172,"lon":5.42395,"is_reserved":false,"is_disabled":false,"rental_uris":{"android":"levelo://app?vid=5fa95aa1-5c15-4904-8fe3-a4b8ed3fe7dc","ios":"levelo://app?vid=5fa95aa1-5c15-4904-8fe3-a4b8ed3fe7dc"},"vehicle_type_id":"4","last_reported":1727377606,"current_range_meters":12400,"station_id":"ce4bhp92rcd13ifvqhbg","pricing_plan_id":"cebpf4jnsgd1na2vs0mg"},{"bike_id":"e3c5fbbf-73cf-4f2d-b2d6-f67ffdb80c53","system_id":"levelo_inurba_marseille","lat":43.33021,"lon":5.39039,"is_reserved":false,"is_disabled":false,"rental_uris":{"android":"levelo://app?vid=e3c5fbbf-73cf-4f2d-b2d6-f67ffdb80c53","ios":"levelo://app?vid=e3c5fbbf-73cf-4f2d-b2d6-f67ffdb80c53"},"vehicle_type_id":"4","last_reported":1727377606,"current_range_meters":28000,"station_id":"ce4bhr92rcd13ifvqhrg","pricing_plan_id":"cebpf4jnsgd1na2vs0mg"},{"bike_id":"57bc1e84-e83e-4198-85b5-3e7f9c3f0b0b","system_id":"levelo_inurba_marseille","lat":43.24167,"lon":5.36392,"is_reserved":false,"is_disabled":false,"rental_uris":{"android":"levelo://app?vid=57bc1e84-e83e-4198-85b5-3e7f9c3f0b0b","ios":"levelo://app?vid=57bc1e84-e83e-4198-85b5-3e7f9c3f0b0b"},"vehicle_type_id":"4","last_reported":1727377606,"current_range_meters":26800,"station_id":"cpo36qri1sfpv3e86is0","pricing_plan_id":"cebpf4jnsgd1na2vs0mg"},{"bike_id":"7a8458d5-44ac-4f2e-abef-3f01eb31f7ca","system_id":"levelo_inurba_marseille","lat":43.337444,"lon":5.374475,"is_reserved":false,"is_disabled":false,"rental_uris":{"android":"levelo://app?vid=7a8458d5-44ac-4f2e-abef-3f01eb31f7ca","ios":"levelo://app?vid=7a8458d5-44ac-4f2e-abef-3f01eb31f7ca"},"vehicle_type_id":"4","last_reported":1727377606,"current_range_meters":20000,"station_id":"","pricing_plan_id":"cebpf4jnsgd1na2vs0mg"},{"bike_id":"6eeee8e0-5585-428d-aa78-8b1f110cd2ea","system_id":"levelo_inurba_marseille","lat":43.28154,"lon":5.42648,"is_reserved":false,"is_disabled":false,"rental_uris":{"android":"levelo://app?vid=6eeee8e0-5585-428d-aa78-8b1f110cd2ea","ios":"levelo://app?vid=6eeee8e0-5585-428d-aa78-8b1f110cd2ea"},"vehicle_type_id":"4","last_reported":1727377606,"current_range_meters":19200,"station_id":"ce4bhnh2rcd13ifvqgug","pricing_plan_id":"cebpf4jnsgd1na2vs0mg"},{"bike_id":"245322ad-98ce-4a03-920e-f8861ea4255a","system_id":"levelo_inurba_marseille","lat":43.23067,"lon":5.35491,"is_reserved":false,"is_disabled":false,"rental_uris":{"android":"levelo://app?vid=245322ad-98ce-4a03-920e-f8861ea4255a","ios":"levelo://app?vid=245322ad-98ce-4a03-920e-f8861ea4255a"},"vehicle_type_id":"4","last_reported":1727377606,"current_range_meters":38800,"station_id":"cpo3342slgdg3j2ifvpg","pricing_plan_id":"cebpf4jnsgd1na2vs0mg"},{"bike_id":"14753c26-020c-4fdf-a910-6bbc6904ea08","system_id":"levelo_inurba_marseille","lat":43.308868,"lon":5.396447,"is_reserved":false,"is_disabled":false,"rental_uris":{"android":"levelo://app?vid=14753c26-020c-4fdf-a910-6bbc6904ea08","ios":"levelo://app?vid=14753c26-020c-4fdf-a910-6bbc6904ea08"},"vehicle_type_id":"4","last_reported":1727377606,"current_range_meters":38800,"station_id":"ce4bh012rcd13ifvqcv0","pricing_plan_id":"cebpf4jnsgd1na2vs0mg"},{"bike_id":"9063de61-5746-4b72-a9c4-ebb2d686a0e8","system_id":"levelo_inurba_marseille","lat":43.30297,"lon":5.39218,"is_reserved":false,"is_disabled":false,"rental_uris":{"android":"levelo://app?vid=9063de61-5746-4b72-a9c4-ebb2d686a0e8","ios":"levelo://app?vid=9063de61-5746-4b72-a9c4-ebb2d686a0e8"},"vehicle_type_id":"4","last_reported":1727377606,"current_range_meters":6000,"station_id":"ce4bgkh2rcd13ifvqbk0","pricing_plan_id":"cebpf4jnsgd1na2vs0mg"},{"bike_id":"dfcecf59-0ff2-4ae4-a646-4b133ae29c1f","system_id":"levelo_inurba_marseille","lat":43.24545,"lon":5.3953,"is_reserved":false,"is_disabled":false,"rental_uris":{"android":"levelo://app?vid=dfcecf59-0ff2-4ae4-a646-4b133ae29c1f","ios":"levelo://app?vid=dfcecf59-0ff2-4ae4-a646-4b133ae29c1f"},"vehicle_type_id":"4","last_reported":1727377606,"current_range_meters":28400,"station_id":"ce4bhlp2rcd13ifvqgjg","pricing_plan_id":"cebpf4jnsgd1na2vs0mg"},{"bike_id":"50d4ec58-a42a-4450-844b-4e946465e51d","system_id":"levelo_inurba_marseille","lat":43.30801,"lon":5.43528,"is_reserved":false,"is_disabled":false,"rental_uris":{"android":"levelo://app?vid=50d4ec58-a42a-4450-844b-4e946465e51d","ios":"levelo://app?vid=50d4ec58-a42a-4450-844b-4e946465e51d"},"vehicle_type_id":"4","last_reported":1727377606,"current_range_meters":34000,"station_id":"ce4bhph2rcd13ifvqheg","pricing_plan_id":"cebpf4jnsgd1na2vs0mg"},{"bike_id":"97fa2318-b781-4fe7-8705-6a7a6ad39a2f","system_id":"levelo_inurba_marseille","lat":43.32292,"lon":5.41232,"is_reserved":false,"is_disabled":false,"rental_uris":{"android":"levelo://app?vid=97fa2318-b781-4fe7-8705-6a7a6ad39a2f","ios":"levelo://app?vid=97fa2318-b781-4fe7-8705-6a7a6ad39a2f"},"vehicle_type_id":"4","last_reported":1727377606,"current_range_meters":4000,"station_id":"","pricing_plan_id":"cebpf4jnsgd1na2vs0mg"},{"bike_id":"8d17f10b-cb18-4a62-9a7c-043318106e2d","system_id":"levelo_inurba_marseille","lat":43.30248,"lon":5.36648,"is_reserved":false,"is_disabled":false,"rental_uris":{"android":"levelo://app?vid=8d17f10b-cb18-4a62-9a7c-043318106e2d","ios":"levelo://app?vid=8d17f10b-cb18-4a62-9a7c-043318106e2d"},"vehicle_type_id":"4","last_reported":1727377606,"current_range_meters":6800,"station_id":"","pricing_plan_id":"cebpf4jnsgd1na2vs0mg"},{"bike_id":"790588e4-e173-42a4-84fc-bcca8ef506d6","system_id":"levelo_inurba_marseille","lat":43.28035,"lon":5.36951,"is_reserved":false,"is_disabled":false,"rental_uris":{"android":"levelo://app?vid=790588e4-e173-42a4-84fc-bcca8ef506d6","ios":"levelo://app?vid=790588e4-e173-42a4-84fc-bcca8ef506d6"},"vehicle_type_id":"4","last_reported":1727377606,"current_range_meters":10800,"station_id":"ce4bha12rcd13ifvqef0","pricing_plan_id":"cebpf4jnsgd1na2vs0mg"},{"bike_id":"1f0e702b-dd64-4782-bf67-1199f7eacb9b","system_id":"levelo_inurba_marseille","lat":43.28262,"lon":5.3509,"is_reserved":false,"is_disabled":false,"rental_uris":{"android":"levelo://app?vid=1f0e702b-dd64-4782-bf67-1199f7eacb9b","ios":"levelo://app?vid=1f0e702b-dd64-4782-bf67-1199f7eacb9b"},"vehicle_type_id":"4","last_reported":1727377606,"current_range_meters":2800,"station_id":"ce4bhbp2rcd13ifvqerg","pricing_plan_id":"cebpf4jnsgd1na2vs0mg"},{"bike_id":"cb4e0d5f-1b30-4669-b576-0b62bb1056aa","system_id":"levelo_inurba_marseille","lat":43.31079,"lon":5.42435,"is_reserved":false,"is_disabled":false,"rental_uris":{"android":"levelo://app?vid=cb4e0d5f-1b30-4669-b576-0b62bb1056aa","ios":"levelo://app?vid=cb4e0d5f-1b30-4669-b576-0b62bb1056aa"},"vehicle_type_id":"4","last_reported":1727377606,"current_range_meters":26000,"station_id":"ce4bhp92rcd13ifvqhag","pricing_plan_id":"cebpf4jnsgd1na2vs0mg"},{"bike_id":"dcad9e12-302d-492b-b59b-6b4bbade42f0","system_id":"levelo_inurba_marseille","lat":43.32479,"lon":5.36564,"is_reserved":false,"is_disabled":false,"rental_uris":{"android":"levelo://app?vid=dcad9e12-302d-492b-b59b-6b4bbade42f0","ios":"levelo://app?vid=dcad9e12-302d-492b-b59b-6b4bbade42f0"},"vehicle_type_id":"4","last_reported":1727377606,"current_range_meters":30800,"station_id":"ce4bhs12rcd13ifvqhvg","pricing_plan_id":"cebpf4jnsgd1na2vs0mg"},{"bike_id":"1b8278da-6656-4bba-b862-1c2591a86e93","system_id":"levelo_inurba_marseille","lat":43.27569,"lon":5.3844,"is_reserved":false,"is_disabled":false,"rental_uris":{"android":"levelo://app?vid=1b8278da-6656-4bba-b862-1c2591a86e93","ios":"levelo://app?vid=1b8278da-6656-4bba-b862-1c2591a86e93"},"vehicle_type_id":"4","last_reported":1727377606,"current_range_meters":38800,"station_id":"ce4bhh92rcd13ifvqfi0","pricing_plan_id":"cebpf4jnsgd1na2vs0mg"},{"bike_id":"3c6afdf7-67ea-4d82-aceb-813b791a20f5","system_id":"levelo_inurba_marseille","lat":43.29192,"lon":5.35807,"is_reserved":false,"is_disabled":false,"rental_uris":{"android":"levelo://app?vid=3c6afdf7-67ea-4d82-aceb-813b791a20f5","ios":"levelo://app?vid=3c6afdf7-67ea-4d82-aceb-813b791a20f5"},"vehicle_type_id":"4","last_reported":1727377606,"current_range_meters":34000,"station_id":"ce4bhb12rcd13ifvqel0","pricing_plan_id":"cebpf4jnsgd1na2vs0mg"},{"bike_id":"142c61c9-4063-40d3-8fe4-42c7c5816356","system_id":"levelo_inurba_marseille","lat":43.293021,"lon":5.385416,"is_reserved":false,"is_disabled":false,"rental_uris":{"android":"levelo://app?vid=142c61c9-4063-40d3-8fe4-42c7c5816356","ios":"levelo://app?vid=142c61c9-4063-40d3-8fe4-42c7c5816356"},"vehicle_type_id":"4","last_reported":1727377606,"current_range_meters":33600,"station_id":"chh1huq6cuj3fo74tm60","pricing_plan_id":"cebpf4jnsgd1na2vs0mg"},{"bike_id":"d5bbef54-0e76-4d64-bc8a-a1819238d1a7","system_id":"levelo_inurba_marseille","lat":43.23954,"lon":5.3663,"is_reserved":false,"is_disabled":false,"rental_uris":{"android":"levelo://app?vid=d5bbef54-0e76-4d64-bc8a-a1819238d1a7","ios":"levelo://app?vid=d5bbef54-0e76-4d64-bc8a-a1819238d1a7"},"vehicle_type_id":"4","last_reported":1727377606,"current_range_meters":38800,"station_id":"ce4bhi12rcd13ifvqfp0","pricing_plan_id":"cebpf4jnsgd1na2vs0mg"},{"bike_id":"fea2478c-b93f-4c17-8315-627fdeb5c6d5","system_id":"levelo_inurba_marseille","lat":43.30432,"lon":5.38889,"is_reserved":false,"is_disabled":false,"rental_uris":{"android":"levelo://app?vid=fea2478c-b93f-4c17-8315-627fdeb5c6d5","ios":"levelo://app?vid=fea2478c-b93f-4c17-8315-627fdeb5c6d5"},"vehicle_type_id":"4","last_reported":1727377606,"current_range_meters":32400,"station_id":"ce4bgk12rcd13ifvqbi0","pricing_plan_id":"cebpf4jnsgd1na2vs0mg"},{"bike_id":"f1195457-8e6e-43a9-b0d4-b55045aaf9cf","system_id":"levelo_inurba_marseille","lat":43.289642,"lon":5.364804,"is_reserved":false,"is_disabled":false,"rental_uris":{"android":"levelo://app?vid=f1195457-8e6e-43a9-b0d4-b55045aaf9cf","ios":"levelo://app?vid=f1195457-8e6e-43a9-b0d4-b55045aaf9cf"},"vehicle_type_id":"4","last_reported":1727377606,"current_range_meters":6400,"station_id":"ce4bhc92rcd13ifvqetg","pricing_plan_id":"cebpf4jnsgd1na2vs0mg"},{"bike_id":"79a05bb1-ccec-47f0-8ebd-1f95854549f8","system_id":"levelo_inurba_marseille","lat":43.31282,"lon":5.380327,"is_reserved":false,"is_disabled":false,"rental_uris":{"android":"levelo://app?vid=79a05bb1-ccec-47f0-8ebd-1f95854549f8","ios":"levelo://app?vid=79a05bb1-ccec-47f0-8ebd-1f95854549f8"},"vehicle_type_id":"4","last_reported":1727377606,"current_range_meters":6000,"station_id":"","pricing_plan_id":"cebpf4jnsgd1na2vs0mg"},{"bike_id":"861ba51c-6a6b-46a6-947c-51f003818291","system_id":"levelo_inurba_marseille","lat":43.32082,"lon":5.38539,"is_reserved":false,"is_disabled":false,"rental_uris":{"android":"levelo://app?vid=861ba51c-6a6b-46a6-947c-51f003818291","ios":"levelo://app?vid=861ba51c-6a6b-46a6-947c-51f003818291"},"vehicle_type_id":"4","last_reported":1727377606,"current_range_meters":10800,"station_id":"","pricing_plan_id":"cebpf4jnsgd1na2vs0mg"},{"bike_id":"761aa52a-9138-4b97-85bc-1796df08ee07","system_id":"levelo_inurba_marseille","lat":43.31758,"lon":5.3902,"is_reserved":false,"is_disabled":false,"rental_uris":{"android":"levelo://app?vid=761aa52a-9138-4b97-85bc-1796df08ee07","ios":"levelo://app?vid=761aa52a-9138-4b97-85bc-1796df08ee07"},"vehicle_type_id":"4","last_reported":1727377606,"current_range_meters":10800,"station_id":"ce4bhqp2rcd13ifvqhng","pricing_plan_id":"cebpf4jnsgd1na2vs0mg"},{"bike_id":"7d5c957f-7fee-4ce7-9710-a593bd8c2a30","system_id":"levelo_inurba_marseille","lat":43.26928,"lon":5.38921,"is_reserved":false,"is_disabled":false,"rental_uris":{"android":"levelo://app?vid=7d5c957f-7fee-4ce7-9710-a593bd8c2a30","ios":"levelo://app?vid=7d5c957f-7fee-4ce7-9710-a593bd8c2a30"},"vehicle_type_id":"4","last_reported":1727377606,"current_range_meters":7200,"station_id":"ce4bhhh2rcd13ifvqfl0","pricing_plan_id":"cebpf4jnsgd1na2vs0mg"},{"bike_id":"25c0cae3-0d97-411f-8458-53e10d5c2c92","system_id":"levelo_inurba_marseille","lat":43.29515,"lon":5.39042,"is_reserved":false,"is_disabled":false,"rental_uris":{"android":"levelo://app?vid=25c0cae3-0d97-411f-8458-53e10d5c2c92","ios":"levelo://app?vid=25c0cae3-0d97-411f-8458-53e10d5c2c92"},"vehicle_type_id":"4","last_reported":1727377606,"current_range_meters":4800,"station_id":"ce4bh3p2rcd13ifvqdp0","pricing_plan_id":"cebpf4jnsgd1na2vs0mg"},{"bike_id":"0282177c-4987-4507-8917-7ac400886d26","system_id":"levelo_inurba_marseille","lat":43.29413,"lon":5.38614,"is_reserved":false,"is_disabled":false,"rental_uris":{"android":"levelo://app?vid=0282177c-4987-4507-8917-7ac400886d26","ios":"levelo://app?vid=0282177c-4987-4507-8917-7ac400886d26"},"vehicle_type_id":"4","last_reported":1727377606,"current_range_meters":32400,"station_id":"ce4bh2h2rcd13ifvqdh0","pricing_plan_id":"cebpf4jnsgd1na2vs0mg"},{"bike_id":"cdc226b7-e58a-44f2-b998-80cfca37c1a0","system_id":"levelo_inurba_marseille","lat":43.31228,"lon":5.36856,"is_reserved":false,"is_disabled":false,"rental_uris":{"android":"levelo://app?vid=cdc226b7-e58a-44f2-b998-80cfca37c1a0","ios":"levelo://app?vid=cdc226b7-e58a-44f2-b998-80cfca37c1a0"},"vehicle_type_id":"4","last_reported":1727377606,"current_range_meters":28400,"station_id":"ce4bgl92rcd13ifvqbq0","pricing_plan_id":"cebpf4jnsgd1na2vs0mg"},{"bike_id":"8b8bc4ef-69bf-4b84-aa37-5bbfca53e4ac","system_id":"levelo_inurba_marseille","lat":43.323166,"lon":5.40636,"is_reserved":false,"is_disabled":false,"rental_uris":{"android":"levelo://app?vid=8b8bc4ef-69bf-4b84-aa37-5bbfca53e4ac","ios":"levelo://app?vid=8b8bc4ef-69bf-4b84-aa37-5bbfca53e4ac"},"vehicle_type_id":"4","last_reported":1727377606,"current_range_meters":38800,"station_id":"ce4bhq92rcd13ifvqhjg","pricing_plan_id":"cebpf4jnsgd1na2vs0mg"},{"bike_id":"b3988534-48b4-4085-8577-a04cc8fa7a7b","system_id":"levelo_inurba_marseille","lat":43.29512,"lon":5.39044,"is_reserved":false,"is_disabled":false,"rental_uris":{"android":"levelo://app?vid=b3988534-48b4-4085-8577-a04cc8fa7a7b","ios":"levelo://app?vid=b3988534-48b4-4085-8577-a04cc8fa7a7b"},"vehicle_type_id":"4","last_reported":1727377606,"current_range_meters":38800,"station_id":"ce4bh3p2rcd13ifvqdp0","pricing_plan_id":"cebpf4jnsgd1na2vs0mg"},{"bike_id":"3a2e2f3b-dc35-4a59-a736-8c191770979e","system_id":"levelo_inurba_marseille","lat":43.25102,"lon":5.40331,"is_reserved":false,"is_disabled":false,"rental_uris":{"android":"levelo://app?vid=3a2e2f3b-dc35-4a59-a736-8c191770979e","ios":"levelo://app?vid=3a2e2f3b-dc35-4a59-a736-8c191770979e"},"vehicle_type_id":"4","last_reported":1727377606,"current_range_meters":38000,"station_id":"ce4bhlh2rcd13ifvqgig","pricing_plan_id":"cebpf4jnsgd1na2vs0mg"},{"bike_id":"6c51c253-5200-4a47-a5ef-065ca30566a8","system_id":"levelo_inurba_marseille","lat":43.29515,"lon":5.39411,"is_reserved":false,"is_disabled":false,"rental_uris":{"android":"levelo://app?vid=6c51c253-5200-4a47-a5ef-065ca30566a8","ios":"levelo://app?vid=6c51c253-5200-4a47-a5ef-065ca30566a8"},"vehicle_type_id":"4","last_reported":1727377606,"current_range_meters":38000,"station_id":"ce4bh292rcd13ifvqdf0","pricing_plan_id":"cebpf4jnsgd1na2vs0mg"},{"bike_id":"8ea19e1d-542e-4c36-8ef4-1214facb9816","system_id":"levelo_inurba_marseille","lat":43.23959,"lon":5.36633,"is_reserved":false,"is_disabled":false,"rental_uris":{"android":"levelo://app?vid=8ea19e1d-542e-4c36-8ef4-1214facb9816","ios":"levelo://app?vid=8ea19e1d-542e-4c36-8ef4-1214facb9816"},"vehicle_type_id":"4","last_reported":1727377606,"current_range_meters":38800,"station_id":"ce4bhi12rcd13ifvqfp0","pricing_plan_id":"cebpf4jnsgd1na2vs0mg"},{"bike_id":"7f1370df-f39e-4ee4-8a1b-57e7005ec530","system_id":"levelo_inurba_marseille","lat":43.279073,"lon":5.395681,"is_reserved":false,"is_disabled":false,"rental_uris":{"android":"levelo://app?vid=7f1370df-f39e-4ee4-8a1b-57e7005ec530","ios":"levelo://app?vid=7f1370df-f39e-4ee4-8a1b-57e7005ec530"},"vehicle_type_id":"4","last_reported":1727377606,"current_range_meters":34000,"station_id":"ce4bhf92rcd13ifvqf40","pricing_plan_id":"cebpf4jnsgd1na2vs0mg"},{"bike_id":"79ab7e98-f1a8-4338-adae-1597d492bbd6","system_id":"levelo_inurba_marseille","lat":43.29529,"lon":5.38549,"is_reserved":false,"is_disabled":false,"rental_uris":{"android":"levelo://app?vid=79ab7e98-f1a8-4338-adae-1597d492bbd6","ios":"levelo://app?vid=79ab7e98-f1a8-4338-adae-1597d492bbd6"},"vehicle_type_id":"4","last_reported":1727377606,"current_range_meters":22800,"station_id":"ce4bgih2rcd13ifvqba0","pricing_plan_id":"cebpf4jnsgd1na2vs0mg"},{"bike_id":"f3bf7448-e739-4978-bd33-4a56cc415f41","system_id":"levelo_inurba_marseille","lat":43.37244,"lon":5.36785,"is_reserved":false,"is_disabled":false,"rental_uris":{"android":"levelo://app?vid=f3bf7448-e739-4978-bd33-4a56cc415f41","ios":"levelo://app?vid=f3bf7448-e739-4978-bd33-4a56cc415f41"},"vehicle_type_id":"4","last_reported":1727377606,"current_range_meters":24000,"station_id":"","pricing_plan_id":"cebpf4jnsgd1na2vs0mg"},{"bike_id":"afcce393-4271-4ec6-b7bd-9d5dce20ac5a","system_id":"levelo_inurba_marseille","lat":43.28996,"lon":5.35618,"is_reserved":false,"is_disabled":false,"rental_uris":{"android":"levelo://app?vid=afcce393-4271-4ec6-b7bd-9d5dce20ac5a","ios":"levelo://app?vid=afcce393-4271-4ec6-b7bd-9d5dce20ac5a"},"vehicle_type_id":"4","last_reported":1727377606,"current_range_meters":22400,"station_id":"ce4bhb92rcd13ifvqen0","pricing_plan_id":"cebpf4jnsgd1na2vs0mg"},{"bike_id":"a0b4e1dc-b2d5-4e1d-a6e2-2b1fa04ed91c","system_id":"levelo_inurba_marseille","lat":43.28033,"lon":5.36947,"is_reserved":false,"is_disabled":false,"rental_uris":{"android":"levelo://app?vid=a0b4e1dc-b2d5-4e1d-a6e2-2b1fa04ed91c","ios":"levelo://app?vid=a0b4e1dc-b2d5-4e1d-a6e2-2b1fa04ed91c"},"vehicle_type_id":"4","last_reported":1727377606,"current_range_meters":36400,"station_id":"ce4bha12rcd13ifvqef0","pricing_plan_id":"cebpf4jnsgd1na2vs0mg"},{"bike_id":"b18af000-8869-4b0c-b026-e32bf818d32f","system_id":"levelo_inurba_marseille","lat":43.25823,"lon":5.39438,"is_reserved":false,"is_disabled":false,"rental_uris":{"android":"levelo://app?vid=b18af000-8869-4b0c-b026-e32bf818d32f","ios":"levelo://app?vid=b18af000-8869-4b0c-b026-e32bf818d32f"},"vehicle_type_id":"4","last_reported":1727377606,"current_range_meters":37600,"station_id":"ce4bhip2rcd13ifvqft0","pricing_plan_id":"cebpf4jnsgd1na2vs0mg"},{"bike_id":"99f19225-6a8b-42bf-95a4-a800fe81202c","system_id":"levelo_inurba_marseille","lat":43.31079,"lon":5.42429,"is_reserved":false,"is_disabled":false,"rental_uris":{"android":"levelo://app?vid=99f19225-6a8b-42bf-95a4-a800fe81202c","ios":"levelo://app?vid=99f19225-6a8b-42bf-95a4-a800fe81202c"},"vehicle_type_id":"4","last_reported":1727377606,"current_range_meters":18000,"station_id":"ce4bhp92rcd13ifvqhag","pricing_plan_id":"cebpf4jnsgd1na2vs0mg"},{"bike_id":"49d333ae-18b7-434f-a99d-4a3f637da9f5","system_id":"levelo_inurba_marseille","lat":43.28041,"lon":5.36951,"is_reserved":false,"is_disabled":false,"rental_uris":{"android":"levelo://app?vid=49d333ae-18b7-434f-a99d-4a3f637da9f5","ios":"levelo://app?vid=49d333ae-18b7-434f-a99d-4a3f637da9f5"},"vehicle_type_id":"4","last_reported":1727377606,"current_range_meters":12000,"station_id":"ce4bha12rcd13ifvqef0","pricing_plan_id":"cebpf4jnsgd1na2vs0mg"},{"bike_id":"f92ca411-bebc-471e-8809-3e405c9804e7","system_id":"levelo_inurba_marseille","lat":43.29967,"lon":5.38497,"is_reserved":false,"is_disabled":false,"rental_uris":{"android":"levelo://app?vid=f92ca411-bebc-471e-8809-3e405c9804e7","ios":"levelo://app?vid=f92ca411-bebc-471e-8809-3e405c9804e7"},"vehicle_type_id":"4","last_reported":1727377606,"current_range_meters":8400,"station_id":"ce4bgj92rcd13ifvqbd0","pricing_plan_id":"cebpf4jnsgd1na2vs0mg"},{"bike_id":"39fa4c55-ba59-4795-b216-bdba84781c79","system_id":"levelo_inurba_marseille","lat":43.28461,"lon":5.35887,"is_reserved":false,"is_disabled":false,"rental_uris":{"android":"levelo://app?vid=39fa4c55-ba59-4795-b216-bdba84781c79","ios":"levelo://app?vid=39fa4c55-ba59-4795-b216-bdba84781c79"},"vehicle_type_id":"4","last_reported":1727377606,"current_range_meters":6400,"station_id":"ce4bhah2rcd13ifvqei0","pricing_plan_id":"cebpf4jnsgd1na2vs0mg"},{"bike_id":"b59f21eb-eec1-4035-b55e-7017d2289d0f","system_id":"levelo_inurba_marseille","lat":43.32334,"lon":5.4062,"is_reserved":false,"is_disabled":false,"rental_uris":{"android":"levelo://app?vid=b59f21eb-eec1-4035-b55e-7017d2289d0f","ios":"levelo://app?vid=b59f21eb-eec1-4035-b55e-7017d2289d0f"},"vehicle_type_id":"4","last_reported":1727377606,"current_range_meters":23200,"station_id":"ce4bhq92rcd13ifvqhjg","pricing_plan_id":"cebpf4jnsgd1na2vs0mg"},{"bike_id":"70acd5c0-9696-40e2-886a-cd10e0aba86d","system_id":"levelo_inurba_marseille","lat":43.25869,"lon":5.39895,"is_reserved":false,"is_disabled":false,"rental_uris":{"android":"levelo://app?vid=70acd5c0-9696-40e2-886a-cd10e0aba86d","ios":"levelo://app?vid=70acd5c0-9696-40e2-886a-cd10e0aba86d"},"vehicle_type_id":"4","last_reported":1727377606,"current_range_meters":4400,"station_id":"ce4bhl92rcd13ifvqghg","pricing_plan_id":"cebpf4jnsgd1na2vs0mg"},{"bike_id":"4815afab-f1b4-4152-90e3-b9fc5c00bd49","system_id":"levelo_inurba_marseille","lat":43.25002,"lon":5.38914,"is_reserved":false,"is_disabled":false,"rental_uris":{"android":"levelo://app?vid=4815afab-f1b4-4152-90e3-b9fc5c00bd49","ios":"levelo://app?vid=4815afab-f1b4-4152-90e3-b9fc5c00bd49"},"vehicle_type_id":"4","last_reported":1727377606,"current_range_meters":38800,"station_id":"ce4bhgp2rcd13ifvqfd0","pricing_plan_id":"cebpf4jnsgd1na2vs0mg"},{"bike_id":"7019cc62-e926-4458-9d07-ded9133cb481","system_id":"levelo_inurba_marseille","lat":43.23185,"lon":5.39985,"is_reserved":false,"is_disabled":false,"rental_uris":{"android":"levelo://app?vid=7019cc62-e926-4458-9d07-ded9133cb481","ios":"levelo://app?vid=7019cc62-e926-4458-9d07-ded9133cb481"},"vehicle_type_id":"4","last_reported":1727377606,"current_range_meters":38000,"station_id":"ce4bhn12rcd13ifvqgqg","pricing_plan_id":"cebpf4jnsgd1na2vs0mg"},{"bike_id":"3a518c25-e2d2-455e-8ede-174a1d882e6c","system_id":"levelo_inurba_marseille","lat":43.30894,"lon":5.37194,"is_reserved":false,"is_disabled":false,"rental_uris":{"android":"levelo://app?vid=3a518c25-e2d2-455e-8ede-174a1d882e6c","ios":"levelo://app?vid=3a518c25-e2d2-455e-8ede-174a1d882e6c"},"vehicle_type_id":"4","last_reported":1727377606,"current_range_meters":16000,"station_id":"ce4bguh2rcd13ifvqckg","pricing_plan_id":"cebpf4jnsgd1na2vs0mg"},{"bike_id":"a8c62283-9097-4c50-a79e-eb0c7e63eda1","system_id":"levelo_inurba_marseille","lat":43.27996,"lon":5.40008,"is_reserved":false,"is_disabled":false,"rental_uris":{"android":"levelo://app?vid=a8c62283-9097-4c50-a79e-eb0c7e63eda1","ios":"levelo://app?vid=a8c62283-9097-4c50-a79e-eb0c7e63eda1"},"vehicle_type_id":"4","last_reported":1727377606,"current_range_meters":33600,"station_id":"ce4bho92rcd13ifvqh4g","pricing_plan_id":"cebpf4jnsgd1na2vs0mg"},{"bike_id":"dc9a8f44-8a36-413b-bd20-9d3c124088fe","system_id":"levelo_inurba_marseille","lat":43.28936,"lon":5.36634,"is_reserved":false,"is_disabled":false,"rental_uris":{"android":"levelo://app?vid=dc9a8f44-8a36-413b-bd20-9d3c124088fe","ios":"levelo://app?vid=dc9a8f44-8a36-413b-bd20-9d3c124088fe"},"vehicle_type_id":"4","last_reported":1727377606,"current_range_meters":10000,"station_id":"ce4bhap2rcd13ifvqek0","pricing_plan_id":"cebpf4jnsgd1na2vs0mg"},{"bike_id":"d3adb14a-c98c-416b-9bb9-b0bb2efa1b16","system_id":"levelo_inurba_marseille","lat":43.24525,"lon":5.39541,"is_reserved":false,"is_disabled":false,"rental_uris":{"android":"levelo://app?vid=d3adb14a-c98c-416b-9bb9-b0bb2efa1b16","ios":"levelo://app?vid=d3adb14a-c98c-416b-9bb9-b0bb2efa1b16"},"vehicle_type_id":"4","last_reported":1727377606,"current_range_meters":22000,"station_id":"ce4bhlp2rcd13ifvqgjg","pricing_plan_id":"cebpf4jnsgd1na2vs0mg"},{"bike_id":"0ccab321-eef4-4f55-81d5-36b5b43e6876","system_id":"levelo_inurba_marseille","lat":43.287036,"lon":5.39981,"is_reserved":false,"is_disabled":false,"rental_uris":{"android":"levelo://app?vid=0ccab321-eef4-4f55-81d5-36b5b43e6876","ios":"levelo://app?vid=0ccab321-eef4-4f55-81d5-36b5b43e6876"},"vehicle_type_id":"4","last_reported":1727377606,"current_range_meters":3200,"station_id":"ce4bhh12rcd13ifvqfg0","pricing_plan_id":"cebpf4jnsgd1na2vs0mg"},{"bike_id":"e18b9017-6114-4389-91c5-b9440e466cf4","system_id":"levelo_inurba_marseille","lat":43.30647,"lon":5.40102,"is_reserved":false,"is_disabled":false,"rental_uris":{"android":"levelo://app?vid=e18b9017-6114-4389-91c5-b9440e466cf4","ios":"levelo://app?vid=e18b9017-6114-4389-91c5-b9440e466cf4"},"vehicle_type_id":"4","last_reported":1727377606,"current_range_meters":22400,"station_id":"ce4bh112rcd13ifvqda0","pricing_plan_id":"cebpf4jnsgd1na2vs0mg"},{"bike_id":"4053ea7b-4702-4339-9856-fc60d1ef6523","system_id":"levelo_inurba_marseille","lat":43.31369,"lon":5.38483,"is_reserved":false,"is_disabled":false,"rental_uris":{"android":"levelo://app?vid=4053ea7b-4702-4339-9856-fc60d1ef6523","ios":"levelo://app?vid=4053ea7b-4702-4339-9856-fc60d1ef6523"},"vehicle_type_id":"4","last_reported":1727377606,"current_range_meters":16800,"station_id":"ce4bgt92rcd13ifvqcf0","pricing_plan_id":"cebpf4jnsgd1na2vs0mg"},{"bike_id":"2ee02912-2d66-4cf6-b8c9-66628e403090","system_id":"levelo_inurba_marseille","lat":43.29269,"lon":5.36853,"is_reserved":false,"is_disabled":false,"rental_uris":{"android":"levelo://app?vid=2ee02912-2d66-4cf6-b8c9-66628e403090","ios":"levelo://app?vid=2ee02912-2d66-4cf6-b8c9-66628e403090"},"vehicle_type_id":"4","last_reported":1727377606,"current_range_meters":36800,"station_id":"ce4bhbp2rcd13ifvqesg","pricing_plan_id":"cebpf4jnsgd1na2vs0mg"},{"bike_id":"bb9d5f86-7b66-4bd5-ba98-eb52b9556f30","system_id":"levelo_inurba_marseille","lat":43.29517,"lon":5.39402,"is_reserved":false,"is_disabled":false,"rental_uris":{"android":"levelo://app?vid=bb9d5f86-7b66-4bd5-ba98-eb52b9556f30","ios":"levelo://app?vid=bb9d5f86-7b66-4bd5-ba98-eb52b9556f30"},"vehicle_type_id":"4","last_reported":1727377606,"current_range_meters":10800,"station_id":"ce4bh292rcd13ifvqdf0","pricing_plan_id":"cebpf4jnsgd1na2vs0mg"},{"bike_id":"12bb2fa0-def4-44f9-9009-061dd94ed221","system_id":"levelo_inurba_marseille","lat":43.24161,"lon":5.36396,"is_reserved":false,"is_disabled":false,"rental_uris":{"android":"levelo://app?vid=12bb2fa0-def4-44f9-9009-061dd94ed221","ios":"levelo://app?vid=12bb2fa0-def4-44f9-9009-061dd94ed221"},"vehicle_type_id":"4","last_reported":1727377606,"current_range_meters":7200,"station_id":"cpo36qri1sfpv3e86is0","pricing_plan_id":"cebpf4jnsgd1na2vs0mg"},{"bike_id":"a451d907-c1a3-4aae-a1e2-7d6cb385dd50","system_id":"levelo_inurba_marseille","lat":43.29252,"lon":5.40909,"is_reserved":false,"is_disabled":false,"rental_uris":{"android":"levelo://app?vid=a451d907-c1a3-4aae-a1e2-7d6cb385dd50","ios":"levelo://app?vid=a451d907-c1a3-4aae-a1e2-7d6cb385dd50"},"vehicle_type_id":"4","last_reported":1727377606,"current_range_meters":38800,"station_id":"ce4bh192rcd13ifvqdc0","pricing_plan_id":"cebpf4jnsgd1na2vs0mg"},{"bike_id":"726925fe-f680-4251-a8e7-69f3b4503bfa","system_id":"levelo_inurba_marseille","lat":43.26679,"lon":5.38274,"is_reserved":false,"is_disabled":false,"rental_uris":{"android":"levelo://app?vid=726925fe-f680-4251-a8e7-69f3b4503bfa","ios":"levelo://app?vid=726925fe-f680-4251-a8e7-69f3b4503bfa"},"vehicle_type_id":"4","last_reported":1727377606,"current_range_meters":31200,"station_id":"ce4bhg92rcd13ifvqf90","pricing_plan_id":"cebpf4jnsgd1na2vs0mg"},{"bike_id":"8d81af71-6ce9-4998-a349-96df7770a07b","system_id":"levelo_inurba_marseille","lat":43.28723,"lon":5.36087,"is_reserved":false,"is_disabled":false,"rental_uris":{"android":"levelo://app?vid=8d81af71-6ce9-4998-a349-96df7770a07b","ios":"levelo://app?vid=8d81af71-6ce9-4998-a349-96df7770a07b"},"vehicle_type_id":"4","last_reported":1727377606,"current_range_meters":30800,"station_id":"cki0cbj6b192h4jlfktg","pricing_plan_id":"cebpf4jnsgd1na2vs0mg"},{"bike_id":"c3361ebe-a725-47df-a28d-77e015746b5f","system_id":"levelo_inurba_marseille","lat":43.29003,"lon":5.35609,"is_reserved":false,"is_disabled":false,"rental_uris":{"android":"levelo://app?vid=c3361ebe-a725-47df-a28d-77e015746b5f","ios":"levelo://app?vid=c3361ebe-a725-47df-a28d-77e015746b5f"},"vehicle_type_id":"4","last_reported":1727377606,"current_range_meters":28800,"station_id":"ce4bhb92rcd13ifvqen0","pricing_plan_id":"cebpf4jnsgd1na2vs0mg"},{"bike_id":"6638bfbc-e341-409c-94ed-cb6318eaee99","system_id":"levelo_inurba_marseille","lat":43.27184,"lon":5.40996,"is_reserved":false,"is_disabled":false,"rental_uris":{"android":"levelo://app?vid=6638bfbc-e341-409c-94ed-cb6318eaee99","ios":"levelo://app?vid=6638bfbc-e341-409c-94ed-cb6318eaee99"},"vehicle_type_id":"4","last_reported":1727377606,"current_range_meters":8800,"station_id":"ce4bhl12rcd13ifvqgf0","pricing_plan_id":"cebpf4jnsgd1na2vs0mg"},{"bike_id":"637beff3-55bd-4f15-99c0-4cb53d5dddb9","system_id":"levelo_inurba_marseille","lat":43.30654,"lon":5.39535,"is_reserved":false,"is_disabled":false,"rental_uris":{"android":"levelo://app?vid=637beff3-55bd-4f15-99c0-4cb53d5dddb9","ios":"levelo://app?vid=637beff3-55bd-4f15-99c0-4cb53d5dddb9"},"vehicle_type_id":"4","last_reported":1727377606,"current_range_meters":36400,"station_id":"","pricing_plan_id":"cebpf4jnsgd1na2vs0mg"},{"bike_id":"54653d1d-24f9-4f0f-88f2-1287a4f76b93","system_id":"levelo_inurba_marseille","lat":43.30638,"lon":5.39959,"is_reserved":false,"is_disabled":false,"rental_uris":{"android":"levelo://app?vid=54653d1d-24f9-4f0f-88f2-1287a4f76b93","ios":"levelo://app?vid=54653d1d-24f9-4f0f-88f2-1287a4f76b93"},"vehicle_type_id":"4","last_reported":1727377606,"current_range_meters":26000,"station_id":"ce4bh0p2rcd13ifvqd80","pricing_plan_id":"cebpf4jnsgd1na2vs0mg"},{"bike_id":"cd251f17-8263-4fa7-beb5-919b7deeea6a","system_id":"levelo_inurba_marseille","lat":43.289307,"lon":5.366403,"is_reserved":false,"is_disabled":false,"rental_uris":{"android":"levelo://app?vid=cd251f17-8263-4fa7-beb5-919b7deeea6a","ios":"levelo://app?vid=cd251f17-8263-4fa7-beb5-919b7deeea6a"},"vehicle_type_id":"4","last_reported":1727377606,"current_range_meters":7200,"station_id":"ce4bh4p2rcd13ifvqe0g","pricing_plan_id":"cebpf4jnsgd1na2vs0mg"},{"bike_id":"ea70f84a-f5cd-43d9-b28a-787b1dce913e","system_id":"levelo_inurba_marseille","lat":43.29525,"lon":5.39396,"is_reserved":false,"is_disabled":false,"rental_uris":{"android":"levelo://app?vid=ea70f84a-f5cd-43d9-b28a-787b1dce913e","ios":"levelo://app?vid=ea70f84a-f5cd-43d9-b28a-787b1dce913e"},"vehicle_type_id":"4","last_reported":1727377606,"current_range_meters":4000,"station_id":"ce4bh292rcd13ifvqdf0","pricing_plan_id":"cebpf4jnsgd1na2vs0mg"},{"bike_id":"10177e0e-eda9-4f17-9654-d4e26439462d","system_id":"levelo_inurba_marseille","lat":43.31502,"lon":5.37309,"is_reserved":false,"is_disabled":false,"rental_uris":{"android":"levelo://app?vid=10177e0e-eda9-4f17-9654-d4e26439462d","ios":"levelo://app?vid=10177e0e-eda9-4f17-9654-d4e26439462d"},"vehicle_type_id":"4","last_reported":1727377606,"current_range_meters":16400,"station_id":"ce4bgt12rcd13ifvqcd0","pricing_plan_id":"cebpf4jnsgd1na2vs0mg"},{"bike_id":"b4af3c17-8f96-42b6-81fc-4b4c6daf0d83","system_id":"levelo_inurba_marseille","lat":43.29255,"lon":5.40913,"is_reserved":false,"is_disabled":false,"rental_uris":{"android":"levelo://app?vid=b4af3c17-8f96-42b6-81fc-4b4c6daf0d83","ios":"levelo://app?vid=b4af3c17-8f96-42b6-81fc-4b4c6daf0d83"},"vehicle_type_id":"4","last_reported":1727377606,"current_range_meters":28400,"station_id":"ce4bh192rcd13ifvqdc0","pricing_plan_id":"cebpf4jnsgd1na2vs0mg"},{"bike_id":"cc44d59f-3050-4b59-aa04-b59de0d2be76","system_id":"levelo_inurba_marseille","lat":43.29512,"lon":5.39407,"is_reserved":false,"is_disabled":false,"rental_uris":{"android":"levelo://app?vid=cc44d59f-3050-4b59-aa04-b59de0d2be76","ios":"levelo://app?vid=cc44d59f-3050-4b59-aa04-b59de0d2be76"},"vehicle_type_id":"4","last_reported":1727377606,"current_range_meters":13600,"station_id":"ce4bh292rcd13ifvqdf0","pricing_plan_id":"cebpf4jnsgd1na2vs0mg"},{"bike_id":"2cf2a79c-88ba-40d5-ae36-c6759ffe9414","system_id":"levelo_inurba_marseille","lat":43.28722,"lon":5.38491,"is_reserved":false,"is_disabled":false,"rental_uris":{"android":"levelo://app?vid=2cf2a79c-88ba-40d5-ae36-c6759ffe9414","ios":"levelo://app?vid=2cf2a79c-88ba-40d5-ae36-c6759ffe9414"},"vehicle_type_id":"4","last_reported":1727377606,"current_range_meters":9600,"station_id":"","pricing_plan_id":"cebpf4jnsgd1na2vs0mg"},{"bike_id":"9d4ef61a-4751-4599-b064-d8f1be0ee6ca","system_id":"levelo_inurba_marseille","lat":43.31057,"lon":5.40102,"is_reserved":false,"is_disabled":false,"rental_uris":{"android":"levelo://app?vid=9d4ef61a-4751-4599-b064-d8f1be0ee6ca","ios":"levelo://app?vid=9d4ef61a-4751-4599-b064-d8f1be0ee6ca"},"vehicle_type_id":"4","last_reported":1727377606,"current_range_meters":2800,"station_id":"","pricing_plan_id":"cebpf4jnsgd1na2vs0mg"},{"bike_id":"4fec9103-b71a-46de-8574-fb61a5235fc9","system_id":"levelo_inurba_marseille","lat":43.28931,"lon":5.36397,"is_reserved":false,"is_disabled":false,"rental_uris":{"android":"levelo://app?vid=4fec9103-b71a-46de-8574-fb61a5235fc9","ios":"levelo://app?vid=4fec9103-b71a-46de-8574-fb61a5235fc9"},"vehicle_type_id":"4","last_reported":1727377606,"current_range_meters":36800,"station_id":"ce4bhc92rcd13ifvqetg","pricing_plan_id":"cebpf4jnsgd1na2vs0mg"},{"bike_id":"303bc237-67af-41c9-af29-05f39f506a1f","system_id":"levelo_inurba_marseille","lat":43.28039,"lon":5.36942,"is_reserved":false,"is_disabled":false,"rental_uris":{"android":"levelo://app?vid=303bc237-67af-41c9-af29-05f39f506a1f","ios":"levelo://app?vid=303bc237-67af-41c9-af29-05f39f506a1f"},"vehicle_type_id":"4","last_reported":1727377606,"current_range_meters":38000,"station_id":"ce4bha12rcd13ifvqef0","pricing_plan_id":"cebpf4jnsgd1na2vs0mg"},{"bike_id":"bff25a0d-8a8c-4efb-8bcc-4c346ba48ffa","system_id":"levelo_inurba_marseille","lat":43.29707,"lon":5.37944,"is_reserved":false,"is_disabled":false,"rental_uris":{"android":"levelo://app?vid=bff25a0d-8a8c-4efb-8bcc-4c346ba48ffa","ios":"levelo://app?vid=bff25a0d-8a8c-4efb-8bcc-4c346ba48ffa"},"vehicle_type_id":"4","last_reported":1727377606,"current_range_meters":12400,"station_id":"","pricing_plan_id":"cebpf4jnsgd1na2vs0mg"},{"bike_id":"63ab599e-ecb4-470e-93e5-66554cc8a2ad","system_id":"levelo_inurba_marseille","lat":43.30302,"lon":5.36886,"is_reserved":false,"is_disabled":false,"rental_uris":{"android":"levelo://app?vid=63ab599e-ecb4-470e-93e5-66554cc8a2ad","ios":"levelo://app?vid=63ab599e-ecb4-470e-93e5-66554cc8a2ad"},"vehicle_type_id":"4","last_reported":1727377606,"current_range_meters":38800,"station_id":"ce4bgqh2rcd13ifvqc5g","pricing_plan_id":"cebpf4jnsgd1na2vs0mg"},{"bike_id":"858a30d8-d38f-4564-b35f-24a78d98d6f2","system_id":"levelo_inurba_marseille","lat":43.31361,"lon":5.38496,"is_reserved":false,"is_disabled":false,"rental_uris":{"android":"levelo://app?vid=858a30d8-d38f-4564-b35f-24a78d98d6f2","ios":"levelo://app?vid=858a30d8-d38f-4564-b35f-24a78d98d6f2"},"vehicle_type_id":"4","last_reported":1727377606,"current_range_meters":16800,"station_id":"ce4bgt92rcd13ifvqcf0","pricing_plan_id":"cebpf4jnsgd1na2vs0mg"},{"bike_id":"c0f0fd17-9f1e-4422-8c95-fb7875254724","system_id":"levelo_inurba_marseille","lat":43.308863,"lon":5.39654,"is_reserved":false,"is_disabled":false,"rental_uris":{"android":"levelo://app?vid=c0f0fd17-9f1e-4422-8c95-fb7875254724","ios":"levelo://app?vid=c0f0fd17-9f1e-4422-8c95-fb7875254724"},"vehicle_type_id":"4","last_reported":1727377606,"current_range_meters":4800,"station_id":"ce4bh012rcd13ifvqcv0","pricing_plan_id":"cebpf4jnsgd1na2vs0mg"},{"bike_id":"b3150030-5550-4ed5-b758-c358a8af9a21","system_id":"levelo_inurba_marseille","lat":43.30881,"lon":5.396605,"is_reserved":false,"is_disabled":false,"rental_uris":{"android":"levelo://app?vid=b3150030-5550-4ed5-b758-c358a8af9a21","ios":"levelo://app?vid=b3150030-5550-4ed5-b758-c358a8af9a21"},"vehicle_type_id":"4","last_reported":1727377606,"current_range_meters":28800,"station_id":"ce4bh012rcd13ifvqcv0","pricing_plan_id":"cebpf4jnsgd1na2vs0mg"},{"bike_id":"c3f0ad9d-cf46-41d3-96b2-5b940afe9c37","system_id":"levelo_inurba_marseille","lat":43.28849,"lon":5.35857,"is_reserved":false,"is_disabled":false,"rental_uris":{"android":"levelo://app?vid=c3f0ad9d-cf46-41d3-96b2-5b940afe9c37","ios":"levelo://app?vid=c3f0ad9d-cf46-41d3-96b2-5b940afe9c37"},"vehicle_type_id":"4","last_reported":1727377606,"current_range_meters":9200,"station_id":"ce4bhb12rcd13ifvqem0","pricing_plan_id":"cebpf4jnsgd1na2vs0mg"},{"bike_id":"aae4f977-38a1-41b5-8422-639b50017108","system_id":"levelo_inurba_marseille","lat":43.29705,"lon":5.36605,"is_reserved":false,"is_disabled":false,"rental_uris":{"android":"levelo://app?vid=aae4f977-38a1-41b5-8422-639b50017108","ios":"levelo://app?vid=aae4f977-38a1-41b5-8422-639b50017108"},"vehicle_type_id":"4","last_reported":1727377606,"current_range_meters":22400,"station_id":"ce4bgn12rcd13ifvqbt0","pricing_plan_id":"cebpf4jnsgd1na2vs0mg"},{"bike_id":"51363d7b-c8d8-48c3-aca5-57a8922e1c2c","system_id":"levelo_inurba_marseille","lat":43.24995,"lon":5.38935,"is_reserved":false,"is_disabled":false,"rental_uris":{"android":"levelo://app?vid=51363d7b-c8d8-48c3-aca5-57a8922e1c2c","ios":"levelo://app?vid=51363d7b-c8d8-48c3-aca5-57a8922e1c2c"},"vehicle_type_id":"4","last_reported":1727377606,"current_range_meters":24400,"station_id":"ce4bhgp2rcd13ifvqfd0","pricing_plan_id":"cebpf4jnsgd1na2vs0mg"},{"bike_id":"2afe1e35-e1da-46f4-b324-24f3f1a05644","system_id":"levelo_inurba_marseille","lat":43.29418,"lon":5.38634,"is_reserved":false,"is_disabled":false,"rental_uris":{"android":"levelo://app?vid=2afe1e35-e1da-46f4-b324-24f3f1a05644","ios":"levelo://app?vid=2afe1e35-e1da-46f4-b324-24f3f1a05644"},"vehicle_type_id":"4","last_reported":1727377606,"current_range_meters":38800,"station_id":"ce4bh2h2rcd13ifvqdh0","pricing_plan_id":"cebpf4jnsgd1na2vs0mg"},{"bike_id":"c419f4e8-fc0c-4376-be4e-721093a43fae","system_id":"levelo_inurba_marseille","lat":43.2869,"lon":5.37402,"is_reserved":false,"is_disabled":false,"rental_uris":{"android":"levelo://app?vid=c419f4e8-fc0c-4376-be4e-721093a43fae","ios":"levelo://app?vid=c419f4e8-fc0c-4376-be4e-721093a43fae"},"vehicle_type_id":"4","last_reported":1727377606,"current_range_meters":11200,"station_id":"ce4bh3p2rcd13ifvqdq0","pricing_plan_id":"cebpf4jnsgd1na2vs0mg"},{"bike_id":"8cb2762a-2f70-4f5c-8dad-b61e587dc46c","system_id":"levelo_inurba_marseille","lat":43.28698,"lon":5.39982,"is_reserved":false,"is_disabled":false,"rental_uris":{"android":"levelo://app?vid=8cb2762a-2f70-4f5c-8dad-b61e587dc46c","ios":"levelo://app?vid=8cb2762a-2f70-4f5c-8dad-b61e587dc46c"},"vehicle_type_id":"4","last_reported":1727377606,"current_range_meters":30400,"station_id":"ce4bho92rcd13ifvqh3g","pricing_plan_id":"cebpf4jnsgd1na2vs0mg"},{"bike_id":"b81fe54a-fcb4-4bb1-b639-fba9501fd855","system_id":"levelo_inurba_marseille","lat":43.2962,"lon":5.37718,"is_reserved":false,"is_disabled":false,"rental_uris":{"android":"levelo://app?vid=b81fe54a-fcb4-4bb1-b639-fba9501fd855","ios":"levelo://app?vid=b81fe54a-fcb4-4bb1-b639-fba9501fd855"},"vehicle_type_id":"4","last_reported":1727377606,"current_range_meters":24800,"station_id":"ce4bgi92rcd13ifvqb90","pricing_plan_id":"cebpf4jnsgd1na2vs0mg"},{"bike_id":"5c80bc22-5a1a-4209-b80e-ede5a896cc3c","system_id":"levelo_inurba_marseille","lat":43.276611,"lon":5.384105,"is_reserved":false,"is_disabled":false,"rental_uris":{"android":"levelo://app?vid=5c80bc22-5a1a-4209-b80e-ede5a896cc3c","ios":"levelo://app?vid=5c80bc22-5a1a-4209-b80e-ede5a896cc3c"},"vehicle_type_id":"4","last_reported":1727377606,"current_range_meters":30000,"station_id":"ce4bhh92rcd13ifvqfi0","pricing_plan_id":"cebpf4jnsgd1na2vs0mg"},{"bike_id":"80f58f28-d590-42e8-8f9c-a558fbe6991e","system_id":"levelo_inurba_marseille","lat":43.27811,"lon":5.40711,"is_reserved":false,"is_disabled":false,"rental_uris":{"android":"levelo://app?vid=80f58f28-d590-42e8-8f9c-a558fbe6991e","ios":"levelo://app?vid=80f58f28-d590-42e8-8f9c-a558fbe6991e"},"vehicle_type_id":"4","last_reported":1727377606,"current_range_meters":19200,"station_id":"ce4bhnh2rcd13ifvqgtg","pricing_plan_id":"cebpf4jnsgd1na2vs0mg"},{"bike_id":"e55b3cf7-bcce-4d7e-bbec-75840cb01bc1","system_id":"levelo_inurba_marseille","lat":43.27568,"lon":5.38423,"is_reserved":false,"is_disabled":false,"rental_uris":{"android":"levelo://app?vid=e55b3cf7-bcce-4d7e-bbec-75840cb01bc1","ios":"levelo://app?vid=e55b3cf7-bcce-4d7e-bbec-75840cb01bc1"},"vehicle_type_id":"4","last_reported":1727377606,"current_range_meters":6400,"station_id":"ce4bhh92rcd13ifvqfi0","pricing_plan_id":"cebpf4jnsgd1na2vs0mg"},{"bike_id":"8b372c65-4b32-44e2-b60f-bb2ceedb9bf4","system_id":"levelo_inurba_marseille","lat":43.25115,"lon":5.40323,"is_reserved":false,"is_disabled":false,"rental_uris":{"android":"levelo://app?vid=8b372c65-4b32-44e2-b60f-bb2ceedb9bf4","ios":"levelo://app?vid=8b372c65-4b32-44e2-b60f-bb2ceedb9bf4"},"vehicle_type_id":"4","last_reported":1727377606,"current_range_meters":15200,"station_id":"ce4bhlh2rcd13ifvqgig","pricing_plan_id":"cebpf4jnsgd1na2vs0mg"},{"bike_id":"5860d86a-5e03-4913-8798-da25baeb21be","system_id":"levelo_inurba_marseille","lat":43.27812,"lon":5.40707,"is_reserved":false,"is_disabled":false,"rental_uris":{"android":"levelo://app?vid=5860d86a-5e03-4913-8798-da25baeb21be","ios":"levelo://app?vid=5860d86a-5e03-4913-8798-da25baeb21be"},"vehicle_type_id":"4","last_reported":1727377606,"current_range_meters":6400,"station_id":"ce4bhnh2rcd13ifvqgtg","pricing_plan_id":"cebpf4jnsgd1na2vs0mg"},{"bike_id":"88520022-dcb9-470a-815c-397d3bbf4936","system_id":"levelo_inurba_marseille","lat":43.28093,"lon":5.3784,"is_reserved":false,"is_disabled":false,"rental_uris":{"android":"levelo://app?vid=88520022-dcb9-470a-815c-397d3bbf4936","ios":"levelo://app?vid=88520022-dcb9-470a-815c-397d3bbf4936"},"vehicle_type_id":"4","last_reported":1727377606,"current_range_meters":4400,"station_id":"ce4bha12rcd13ifvqee0","pricing_plan_id":"cebpf4jnsgd1na2vs0mg"},{"bike_id":"495ee292-2e3e-4419-a8b8-4e193b520454","system_id":"levelo_inurba_marseille","lat":43.27177,"lon":5.40999,"is_reserved":false,"is_disabled":false,"rental_uris":{"android":"levelo://app?vid=495ee292-2e3e-4419-a8b8-4e193b520454","ios":"levelo://app?vid=495ee292-2e3e-4419-a8b8-4e193b520454"},"vehicle_type_id":"4","last_reported":1727377606,"current_range_meters":22000,"station_id":"ce4bhl12rcd13ifvqgf0","pricing_plan_id":"cebpf4jnsgd1na2vs0mg"},{"bike_id":"2d397476-7b8a-4c89-aae1-ee71b1dec884","system_id":"levelo_inurba_marseille","lat":43.29259,"lon":5.38439,"is_reserved":false,"is_disabled":false,"rental_uris":{"android":"levelo://app?vid=2d397476-7b8a-4c89-aae1-ee71b1dec884","ios":"levelo://app?vid=2d397476-7b8a-4c89-aae1-ee71b1dec884"},"vehicle_type_id":"4","last_reported":1727377606,"current_range_meters":34800,"station_id":"ce4bh692rcd13ifvqea0","pricing_plan_id":"cebpf4jnsgd1na2vs0mg"},{"bike_id":"460d3f00-92b2-4bef-a5f5-60083aa77ed9","system_id":"levelo_inurba_marseille","lat":43.2893,"lon":5.36641,"is_reserved":false,"is_disabled":false,"rental_uris":{"android":"levelo://app?vid=460d3f00-92b2-4bef-a5f5-60083aa77ed9","ios":"levelo://app?vid=460d3f00-92b2-4bef-a5f5-60083aa77ed9"},"vehicle_type_id":"4","last_reported":1727377606,"current_range_meters":17200,"station_id":"ce4bhap2rcd13ifvqek0","pricing_plan_id":"cebpf4jnsgd1na2vs0mg"},{"bike_id":"7a221aff-a308-4e51-bd6c-3606a6928c42","system_id":"levelo_inurba_marseille","lat":43.28497,"lon":5.38977,"is_reserved":false,"is_disabled":false,"rental_uris":{"android":"levelo://app?vid=7a221aff-a308-4e51-bd6c-3606a6928c42","ios":"levelo://app?vid=7a221aff-a308-4e51-bd6c-3606a6928c42"},"vehicle_type_id":"4","last_reported":1727377606,"current_range_meters":38800,"station_id":"","pricing_plan_id":"cebpf4jnsgd1na2vs0mg"},{"bike_id":"549a884d-b7ef-45ae-82ca-a5e8d1708ec9","system_id":"levelo_inurba_marseille","lat":43.31215,"lon":5.36856,"is_reserved":false,"is_disabled":false,"rental_uris":{"android":"levelo://app?vid=549a884d-b7ef-45ae-82ca-a5e8d1708ec9","ios":"levelo://app?vid=549a884d-b7ef-45ae-82ca-a5e8d1708ec9"},"vehicle_type_id":"4","last_reported":1727377606,"current_range_meters":8800,"station_id":"ce4bgl92rcd13ifvqbq0","pricing_plan_id":"cebpf4jnsgd1na2vs0mg"},{"bike_id":"c77c91f6-96f8-482d-b20f-c36ca3fc312b","system_id":"levelo_inurba_marseille","lat":43.31994,"lon":5.38155,"is_reserved":false,"is_disabled":false,"rental_uris":{"android":"levelo://app?vid=c77c91f6-96f8-482d-b20f-c36ca3fc312b","ios":"levelo://app?vid=c77c91f6-96f8-482d-b20f-c36ca3fc312b"},"vehicle_type_id":"4","last_reported":1727377606,"current_range_meters":8400,"station_id":"ce4bhr12rcd13ifvqhpg","pricing_plan_id":"cebpf4jnsgd1na2vs0mg"},{"bike_id":"35ea8c68-3337-46ca-b3e6-aa61667870c7","system_id":"levelo_inurba_marseille","lat":43.28075,"lon":5.39663,"is_reserved":false,"is_disabled":false,"rental_uris":{"android":"levelo://app?vid=35ea8c68-3337-46ca-b3e6-aa61667870c7","ios":"levelo://app?vid=35ea8c68-3337-46ca-b3e6-aa61667870c7"},"vehicle_type_id":"4","last_reported":1727377606,"current_range_meters":32000,"station_id":"ce4bho12rcd13ifvqh2g","pricing_plan_id":"cebpf4jnsgd1na2vs0mg"},{"bike_id":"2ee18878-7eb5-452d-ad2f-597e161e641b","system_id":"levelo_inurba_marseille","lat":43.32473,"lon":5.36577,"is_reserved":false,"is_disabled":false,"rental_uris":{"android":"levelo://app?vid=2ee18878-7eb5-452d-ad2f-597e161e641b","ios":"levelo://app?vid=2ee18878-7eb5-452d-ad2f-597e161e641b"},"vehicle_type_id":"4","last_reported":1727377606,"current_range_meters":38400,"station_id":"ce4bhs12rcd13ifvqhvg","pricing_plan_id":"cebpf4jnsgd1na2vs0mg"},{"bike_id":"c2e5a81e-6912-4cb0-98ad-5f3df477fa43","system_id":"levelo_inurba_marseille","lat":43.28993,"lon":5.37592,"is_reserved":false,"is_disabled":false,"rental_uris":{"android":"levelo://app?vid=c2e5a81e-6912-4cb0-98ad-5f3df477fa43","ios":"levelo://app?vid=c2e5a81e-6912-4cb0-98ad-5f3df477fa43"},"vehicle_type_id":"4","last_reported":1727377606,"current_range_meters":36800,"station_id":"ce4bh692rcd13ifvqe90","pricing_plan_id":"cebpf4jnsgd1na2vs0mg"},{"bike_id":"eeb6dc1e-7585-4a4b-bc85-3f5b3525fe3b","system_id":"levelo_inurba_marseille","lat":43.24075,"lon":5.37759,"is_reserved":false,"is_disabled":false,"rental_uris":{"android":"levelo://app?vid=eeb6dc1e-7585-4a4b-bc85-3f5b3525fe3b","ios":"levelo://app?vid=eeb6dc1e-7585-4a4b-bc85-3f5b3525fe3b"},"vehicle_type_id":"4","last_reported":1727377606,"current_range_meters":25200,"station_id":"ce4bhnp2rcd13ifvqgvg","pricing_plan_id":"cebpf4jnsgd1na2vs0mg"},{"bike_id":"beb2b48a-7c60-4faf-a8ab-ab0546d0ef67","system_id":"levelo_inurba_marseille","lat":43.31754,"lon":5.39024,"is_reserved":false,"is_disabled":false,"rental_uris":{"android":"levelo://app?vid=beb2b48a-7c60-4faf-a8ab-ab0546d0ef67","ios":"levelo://app?vid=beb2b48a-7c60-4faf-a8ab-ab0546d0ef67"},"vehicle_type_id":"4","last_reported":1727377606,"current_range_meters":38800,"station_id":"ce4bhqp2rcd13ifvqhng","pricing_plan_id":"cebpf4jnsgd1na2vs0mg"},{"bike_id":"bf2d05c7-e426-428a-9deb-d9f9e1c3ffe4","system_id":"levelo_inurba_marseille","lat":43.30805,"lon":5.43522,"is_reserved":false,"is_disabled":false,"rental_uris":{"android":"levelo://app?vid=bf2d05c7-e426-428a-9deb-d9f9e1c3ffe4","ios":"levelo://app?vid=bf2d05c7-e426-428a-9deb-d9f9e1c3ffe4"},"vehicle_type_id":"4","last_reported":1727377606,"current_range_meters":12800,"station_id":"ce4bhph2rcd13ifvqheg","pricing_plan_id":"cebpf4jnsgd1na2vs0mg"},{"bike_id":"e68f2da7-da03-4d5a-812e-a4d0efdc0c84","system_id":"levelo_inurba_marseille","lat":43.30591,"lon":5.37242,"is_reserved":false,"is_disabled":false,"rental_uris":{"android":"levelo://app?vid=e68f2da7-da03-4d5a-812e-a4d0efdc0c84","ios":"levelo://app?vid=e68f2da7-da03-4d5a-812e-a4d0efdc0c84"},"vehicle_type_id":"4","last_reported":1727377606,"current_range_meters":38800,"station_id":"ce4bgqh2rcd13ifvqc4g","pricing_plan_id":"cebpf4jnsgd1na2vs0mg"},{"bike_id":"8c5dbd6a-cc9d-4021-b132-d5751493cf55","system_id":"levelo_inurba_marseille","lat":43.28038,"lon":5.36951,"is_reserved":false,"is_disabled":false,"rental_uris":{"android":"levelo://app?vid=8c5dbd6a-cc9d-4021-b132-d5751493cf55","ios":"levelo://app?vid=8c5dbd6a-cc9d-4021-b132-d5751493cf55"},"vehicle_type_id":"4","last_reported":1727377606,"current_range_meters":10000,"station_id":"ce4bha12rcd13ifvqef0","pricing_plan_id":"cebpf4jnsgd1na2vs0mg"},{"bike_id":"d89a6b44-b264-4a99-8b3c-f07b95bc3cb9","system_id":"levelo_inurba_marseille","lat":43.32293,"lon":5.38272,"is_reserved":false,"is_disabled":false,"rental_uris":{"android":"levelo://app?vid=d89a6b44-b264-4a99-8b3c-f07b95bc3cb9","ios":"levelo://app?vid=d89a6b44-b264-4a99-8b3c-f07b95bc3cb9"},"vehicle_type_id":"4","last_reported":1727377606,"current_range_meters":32400,"station_id":"ce4bhr12rcd13ifvqhqg","pricing_plan_id":"cebpf4jnsgd1na2vs0mg"},{"bike_id":"166c1671-16b4-4f48-a1fa-c4b11eb5c36e","system_id":"levelo_inurba_marseille","lat":43.29504,"lon":5.39401,"is_reserved":false,"is_disabled":false,"rental_uris":{"android":"levelo://app?vid=166c1671-16b4-4f48-a1fa-c4b11eb5c36e","ios":"levelo://app?vid=166c1671-16b4-4f48-a1fa-c4b11eb5c36e"},"vehicle_type_id":"4","last_reported":1727377606,"current_range_meters":38800,"station_id":"ce4bh292rcd13ifvqdf0","pricing_plan_id":"cebpf4jnsgd1na2vs0mg"},{"bike_id":"c7018fe4-7f2d-484f-9b31-0c958130e0a8","system_id":"levelo_inurba_marseille","lat":43.28154,"lon":5.42643,"is_reserved":false,"is_disabled":false,"rental_uris":{"android":"levelo://app?vid=c7018fe4-7f2d-484f-9b31-0c958130e0a8","ios":"levelo://app?vid=c7018fe4-7f2d-484f-9b31-0c958130e0a8"},"vehicle_type_id":"4","last_reported":1727377606,"current_range_meters":8400,"station_id":"ce4bhnh2rcd13ifvqgug","pricing_plan_id":"cebpf4jnsgd1na2vs0mg"},{"bike_id":"a1a1455b-8e19-4cbf-bccf-d9e85f088a04","system_id":"levelo_inurba_marseille","lat":43.25085,"lon":5.39524,"is_reserved":false,"is_disabled":false,"rental_uris":{"android":"levelo://app?vid=a1a1455b-8e19-4cbf-bccf-d9e85f088a04","ios":"levelo://app?vid=a1a1455b-8e19-4cbf-bccf-d9e85f088a04"},"vehicle_type_id":"4","last_reported":1727377606,"current_range_meters":30800,"station_id":"ce4bhm12rcd13ifvqgkg","pricing_plan_id":"cebpf4jnsgd1na2vs0mg"},{"bike_id":"1dd1232a-b83e-4382-b557-c7961002ab89","system_id":"levelo_inurba_marseille","lat":43.23175,"lon":5.39989,"is_reserved":false,"is_disabled":false,"rental_uris":{"android":"levelo://app?vid=1dd1232a-b83e-4382-b557-c7961002ab89","ios":"levelo://app?vid=1dd1232a-b83e-4382-b557-c7961002ab89"},"vehicle_type_id":"4","last_reported":1727377606,"current_range_meters":28000,"station_id":"ce4bhn12rcd13ifvqgqg","pricing_plan_id":"cebpf4jnsgd1na2vs0mg"},{"bike_id":"a7bca3df-0344-4204-86d7-b742d4769839","system_id":"levelo_inurba_marseille","lat":43.30863,"lon":5.3685,"is_reserved":false,"is_disabled":false,"rental_uris":{"android":"levelo://app?vid=a7bca3df-0344-4204-86d7-b742d4769839","ios":"levelo://app?vid=a7bca3df-0344-4204-86d7-b742d4769839"},"vehicle_type_id":"4","last_reported":1727377606,"current_range_meters":21600,"station_id":"ce4bgn92rcd13ifvqbvg","pricing_plan_id":"cebpf4jnsgd1na2vs0mg"},{"bike_id":"189a8e17-dc06-4f85-bbde-5afa18abad81","system_id":"levelo_inurba_marseille","lat":43.31749,"lon":5.39027,"is_reserved":false,"is_disabled":false,"rental_uris":{"android":"levelo://app?vid=189a8e17-dc06-4f85-bbde-5afa18abad81","ios":"levelo://app?vid=189a8e17-dc06-4f85-bbde-5afa18abad81"},"vehicle_type_id":"4","last_reported":1727377606,"current_range_meters":8400,"station_id":"ce4bhqp2rcd13ifvqhng","pricing_plan_id":"cebpf4jnsgd1na2vs0mg"},{"bike_id":"3c25da4a-8679-4bb1-9dab-62cae1920da8","system_id":"levelo_inurba_marseille","lat":43.33022,"lon":5.39038,"is_reserved":false,"is_disabled":false,"rental_uris":{"android":"levelo://app?vid=3c25da4a-8679-4bb1-9dab-62cae1920da8","ios":"levelo://app?vid=3c25da4a-8679-4bb1-9dab-62cae1920da8"},"vehicle_type_id":"4","last_reported":1727377606,"current_range_meters":13600,"station_id":"ce4bhr92rcd13ifvqhrg","pricing_plan_id":"cebpf4jnsgd1na2vs0mg"},{"bike_id":"f02957f0-eeef-4f62-a0e4-a22ac891c4e6","system_id":"levelo_inurba_marseille","lat":43.29197,"lon":5.39317,"is_reserved":false,"is_disabled":false,"rental_uris":{"android":"levelo://app?vid=f02957f0-eeef-4f62-a0e4-a22ac891c4e6","ios":"levelo://app?vid=f02957f0-eeef-4f62-a0e4-a22ac891c4e6"},"vehicle_type_id":"4","last_reported":1727377606,"current_range_meters":19200,"station_id":"ce4bh192rcd13ifvqdd0","pricing_plan_id":"cebpf4jnsgd1na2vs0mg"},{"bike_id":"fc725d6f-782f-4ce3-a557-e2575d53d79d","system_id":"levelo_inurba_marseille","lat":43.26059,"lon":5.39395,"is_reserved":false,"is_disabled":false,"rental_uris":{"android":"levelo://app?vid=fc725d6f-782f-4ce3-a557-e2575d53d79d","ios":"levelo://app?vid=fc725d6f-782f-4ce3-a557-e2575d53d79d"},"vehicle_type_id":"4","last_reported":1727377606,"current_range_meters":20400,"station_id":"ce4bhh92rcd13ifvqfj0","pricing_plan_id":"cebpf4jnsgd1na2vs0mg"},{"bike_id":"a6addce0-6b53-4ddf-bf9c-d50a96dd9e51","system_id":"levelo_inurba_marseille","lat":43.229396,"lon":5.353767,"is_reserved":false,"is_disabled":false,"rental_uris":{"android":"levelo://app?vid=a6addce0-6b53-4ddf-bf9c-d50a96dd9e51","ios":"levelo://app?vid=a6addce0-6b53-4ddf-bf9c-d50a96dd9e51"},"vehicle_type_id":"4","last_reported":1727377606,"current_range_meters":14400,"station_id":"cpo3532slgdg3j2ikp40","pricing_plan_id":"cebpf4jnsgd1na2vs0mg"},{"bike_id":"9606559a-1d81-422b-bdf6-4244db4869cf","system_id":"levelo_inurba_marseille","lat":43.24658,"lon":5.38161,"is_reserved":false,"is_disabled":false,"rental_uris":{"android":"levelo://app?vid=9606559a-1d81-422b-bdf6-4244db4869cf","ios":"levelo://app?vid=9606559a-1d81-422b-bdf6-4244db4869cf"},"vehicle_type_id":"4","last_reported":1727377606,"current_range_meters":19600,"station_id":"ce4bhih2rcd13ifvqfr0","pricing_plan_id":"cebpf4jnsgd1na2vs0mg"},{"bike_id":"5681877b-4769-4d04-8a31-0928ee9d56a2","system_id":"levelo_inurba_marseille","lat":43.32037,"lon":5.4155,"is_reserved":false,"is_disabled":false,"rental_uris":{"android":"levelo://app?vid=5681877b-4769-4d04-8a31-0928ee9d56a2","ios":"levelo://app?vid=5681877b-4769-4d04-8a31-0928ee9d56a2"},"vehicle_type_id":"4","last_reported":1727377606,"current_range_meters":32800,"station_id":"ce4bhq92rcd13ifvqhkg","pricing_plan_id":"cebpf4jnsgd1na2vs0mg"},{"bike_id":"b8d58f9f-4898-43b7-a04a-111b823bd18f","system_id":"levelo_inurba_marseille","lat":43.29695,"lon":5.36589,"is_reserved":false,"is_disabled":false,"rental_uris":{"android":"levelo://app?vid=b8d58f9f-4898-43b7-a04a-111b823bd18f","ios":"levelo://app?vid=b8d58f9f-4898-43b7-a04a-111b823bd18f"},"vehicle_type_id":"4","last_reported":1727377606,"current_range_meters":38800,"station_id":"ce4bgn12rcd13ifvqbt0","pricing_plan_id":"cebpf4jnsgd1na2vs0mg"},{"bike_id":"4a4bfd88-bdfc-4802-b3a8-e798e4274727","system_id":"levelo_inurba_marseille","lat":43.32289,"lon":5.38262,"is_reserved":false,"is_disabled":false,"rental_uris":{"android":"levelo://app?vid=4a4bfd88-bdfc-4802-b3a8-e798e4274727","ios":"levelo://app?vid=4a4bfd88-bdfc-4802-b3a8-e798e4274727"},"vehicle_type_id":"4","last_reported":1727377606,"current_range_meters":23200,"station_id":"ce4bhr12rcd13ifvqhqg","pricing_plan_id":"cebpf4jnsgd1na2vs0mg"},{"bike_id":"303e8f5e-8abb-4ccd-bc87-13da2c5a39f6","system_id":"levelo_inurba_marseille","lat":43.29271,"lon":5.36842,"is_reserved":false,"is_disabled":false,"rental_uris":{"android":"levelo://app?vid=303e8f5e-8abb-4ccd-bc87-13da2c5a39f6","ios":"levelo://app?vid=303e8f5e-8abb-4ccd-bc87-13da2c5a39f6"},"vehicle_type_id":"4","last_reported":1727377606,"current_range_meters":20000,"station_id":"ce4bhbp2rcd13ifvqesg","pricing_plan_id":"cebpf4jnsgd1na2vs0mg"},{"bike_id":"2ba09575-244f-487f-8743-7cdef664b4d1","system_id":"levelo_inurba_marseille","lat":43.299,"lon":5.43681,"is_reserved":false,"is_disabled":false,"rental_uris":{"android":"levelo://app?vid=2ba09575-244f-487f-8743-7cdef664b4d1","ios":"levelo://app?vid=2ba09575-244f-487f-8743-7cdef664b4d1"},"vehicle_type_id":"4","last_reported":1727377606,"current_range_meters":16800,"station_id":"ce4bhpp2rcd13ifvqhfg","pricing_plan_id":"cebpf4jnsgd1na2vs0mg"},{"bike_id":"4fd8dff2-4651-41d5-b48f-919eb059116d","system_id":"levelo_inurba_marseille","lat":43.29969,"lon":5.37179,"is_reserved":false,"is_disabled":false,"rental_uris":{"android":"levelo://app?vid=4fd8dff2-4651-41d5-b48f-919eb059116d","ios":"levelo://app?vid=4fd8dff2-4651-41d5-b48f-919eb059116d"},"vehicle_type_id":"4","last_reported":1727377606,"current_range_meters":37600,"station_id":"ce4bgr92rcd13ifvqc7g","pricing_plan_id":"cebpf4jnsgd1na2vs0mg"},{"bike_id":"b8d4cfe5-fa00-4798-bb3b-a5cd96b0fee5","system_id":"levelo_inurba_marseille","lat":43.24216,"lon":5.38438,"is_reserved":false,"is_disabled":false,"rental_uris":{"android":"levelo://app?vid=b8d4cfe5-fa00-4798-bb3b-a5cd96b0fee5","ios":"levelo://app?vid=b8d4cfe5-fa00-4798-bb3b-a5cd96b0fee5"},"vehicle_type_id":"4","last_reported":1727377606,"current_range_meters":7200,"station_id":"","pricing_plan_id":"cebpf4jnsgd1na2vs0mg"},{"bike_id":"2e9bc69c-e482-4f44-b1e1-5873e9caac7e","system_id":"levelo_inurba_marseille","lat":43.29254,"lon":5.38439,"is_reserved":false,"is_disabled":false,"rental_uris":{"android":"levelo://app?vid=2e9bc69c-e482-4f44-b1e1-5873e9caac7e","ios":"levelo://app?vid=2e9bc69c-e482-4f44-b1e1-5873e9caac7e"},"vehicle_type_id":"4","last_reported":1727377606,"current_range_meters":28400,"station_id":"ce4bh692rcd13ifvqea0","pricing_plan_id":"cebpf4jnsgd1na2vs0mg"},{"bike_id":"9aefde14-76b0-42f6-8a78-8708ac866293","system_id":"levelo_inurba_marseille","lat":43.309036,"lon":5.396675,"is_reserved":false,"is_disabled":false,"rental_uris":{"android":"levelo://app?vid=9aefde14-76b0-42f6-8a78-8708ac866293","ios":"levelo://app?vid=9aefde14-76b0-42f6-8a78-8708ac866293"},"vehicle_type_id":"4","last_reported":1727377606,"current_range_meters":38800,"station_id":"ce4bh012rcd13ifvqcv0","pricing_plan_id":"cebpf4jnsgd1na2vs0mg"},{"bike_id":"feb7f5ec-75fe-40a7-af65-128dd1624b91","system_id":"levelo_inurba_marseille","lat":43.28649,"lon":5.383,"is_reserved":false,"is_disabled":false,"rental_uris":{"android":"levelo://app?vid=feb7f5ec-75fe-40a7-af65-128dd1624b91","ios":"levelo://app?vid=feb7f5ec-75fe-40a7-af65-128dd1624b91"},"vehicle_type_id":"4","last_reported":1727377606,"current_range_meters":38000,"station_id":"ce4bh4p2rcd13ifvqe1g","pricing_plan_id":"cebpf4jnsgd1na2vs0mg"},{"bike_id":"19f852cb-7fa0-477a-91ec-9c88d066b56c","system_id":"levelo_inurba_marseille","lat":43.28154,"lon":5.42639,"is_reserved":false,"is_disabled":false,"rental_uris":{"android":"levelo://app?vid=19f852cb-7fa0-477a-91ec-9c88d066b56c","ios":"levelo://app?vid=19f852cb-7fa0-477a-91ec-9c88d066b56c"},"vehicle_type_id":"4","last_reported":1727377606,"current_range_meters":20400,"station_id":"ce4bhnh2rcd13ifvqgug","pricing_plan_id":"cebpf4jnsgd1na2vs0mg"},{"bike_id":"7be7c110-613e-418c-9775-8a467e455553","system_id":"levelo_inurba_marseille","lat":43.28459,"lon":5.35896,"is_reserved":false,"is_disabled":false,"rental_uris":{"android":"levelo://app?vid=7be7c110-613e-418c-9775-8a467e455553","ios":"levelo://app?vid=7be7c110-613e-418c-9775-8a467e455553"},"vehicle_type_id":"4","last_reported":1727377606,"current_range_meters":38800,"station_id":"ce4bhah2rcd13ifvqei0","pricing_plan_id":"cebpf4jnsgd1na2vs0mg"},{"bike_id":"e2a07823-9add-42a1-8638-b474147ebd53","system_id":"levelo_inurba_marseille","lat":43.30306,"lon":5.369183,"is_reserved":false,"is_disabled":false,"rental_uris":{"android":"levelo://app?vid=e2a07823-9add-42a1-8638-b474147ebd53","ios":"levelo://app?vid=e2a07823-9add-42a1-8638-b474147ebd53"},"vehicle_type_id":"4","last_reported":1727377606,"current_range_meters":38800,"station_id":"ce4bgqh2rcd13ifvqc5g","pricing_plan_id":"cebpf4jnsgd1na2vs0mg"},{"bike_id":"8e2f9f91-044d-4a2a-9a53-6e1eafa94751","system_id":"levelo_inurba_marseille","lat":43.31719,"lon":5.42399,"is_reserved":false,"is_disabled":false,"rental_uris":{"android":"levelo://app?vid=8e2f9f91-044d-4a2a-9a53-6e1eafa94751","ios":"levelo://app?vid=8e2f9f91-044d-4a2a-9a53-6e1eafa94751"},"vehicle_type_id":"4","last_reported":1727377606,"current_range_meters":10000,"station_id":"ce4bhp92rcd13ifvqhbg","pricing_plan_id":"cebpf4jnsgd1na2vs0mg"},{"bike_id":"9fb33d1e-1957-41e0-b867-8125c11aac07","system_id":"levelo_inurba_marseille","lat":43.29008,"lon":5.35611,"is_reserved":false,"is_disabled":false,"rental_uris":{"android":"levelo://app?vid=9fb33d1e-1957-41e0-b867-8125c11aac07","ios":"levelo://app?vid=9fb33d1e-1957-41e0-b867-8125c11aac07"},"vehicle_type_id":"4","last_reported":1727377606,"current_range_meters":14000,"station_id":"ce4bhb92rcd13ifvqen0","pricing_plan_id":"cebpf4jnsgd1na2vs0mg"},{"bike_id":"aeb05550-f878-4143-be2c-115d32951d7a","system_id":"levelo_inurba_marseille","lat":43.23153,"lon":5.43702,"is_reserved":false,"is_disabled":false,"rental_uris":{"android":"levelo://app?vid=aeb05550-f878-4143-be2c-115d32951d7a","ios":"levelo://app?vid=aeb05550-f878-4143-be2c-115d32951d7a"},"vehicle_type_id":"4","last_reported":1727377606,"current_range_meters":38000,"station_id":"ce4bhmp2rcd13ifvqgog","pricing_plan_id":"cebpf4jnsgd1na2vs0mg"},{"bike_id":"aafb247f-d74e-406a-a4b7-6c5025d15efd","system_id":"levelo_inurba_marseille","lat":43.29408,"lon":5.38632,"is_reserved":false,"is_disabled":false,"rental_uris":{"android":"levelo://app?vid=aafb247f-d74e-406a-a4b7-6c5025d15efd","ios":"levelo://app?vid=aafb247f-d74e-406a-a4b7-6c5025d15efd"},"vehicle_type_id":"4","last_reported":1727377606,"current_range_meters":10000,"station_id":"ce4bh2h2rcd13ifvqdh0","pricing_plan_id":"cebpf4jnsgd1na2vs0mg"},{"bike_id":"6746e421-2318-4cb2-b7b2-21ec885af87c","system_id":"levelo_inurba_marseille","lat":43.32654,"lon":5.40996,"is_reserved":false,"is_disabled":false,"rental_uris":{"android":"levelo://app?vid=6746e421-2318-4cb2-b7b2-21ec885af87c","ios":"levelo://app?vid=6746e421-2318-4cb2-b7b2-21ec885af87c"},"vehicle_type_id":"4","last_reported":1727377606,"current_range_meters":7200,"station_id":"ce4bhpp2rcd13ifvqhgg","pricing_plan_id":"cebpf4jnsgd1na2vs0mg"},{"bike_id":"c3b17e08-5d60-44b6-a410-2264aed46fac","system_id":"levelo_inurba_marseille","lat":43.29257,"lon":5.38436,"is_reserved":false,"is_disabled":false,"rental_uris":{"android":"levelo://app?vid=c3b17e08-5d60-44b6-a410-2264aed46fac","ios":"levelo://app?vid=c3b17e08-5d60-44b6-a410-2264aed46fac"},"vehicle_type_id":"4","last_reported":1727377606,"current_range_meters":11600,"station_id":"ce4bh692rcd13ifvqea0","pricing_plan_id":"cebpf4jnsgd1na2vs0mg"},{"bike_id":"69785fba-cc02-4902-a628-0411b4fb0e48","system_id":"levelo_inurba_marseille","lat":43.25114,"lon":5.40321,"is_reserved":false,"is_disabled":false,"rental_uris":{"android":"levelo://app?vid=69785fba-cc02-4902-a628-0411b4fb0e48","ios":"levelo://app?vid=69785fba-cc02-4902-a628-0411b4fb0e48"},"vehicle_type_id":"4","last_reported":1727377606,"current_range_meters":30800,"station_id":"ce4bhlh2rcd13ifvqgig","pricing_plan_id":"cebpf4jnsgd1na2vs0mg"},{"bike_id":"30ff597b-4112-446a-aa7a-1252b9fc2d70","system_id":"levelo_inurba_marseille","lat":43.25085,"lon":5.39519,"is_reserved":false,"is_disabled":false,"rental_uris":{"android":"levelo://app?vid=30ff597b-4112-446a-aa7a-1252b9fc2d70","ios":"levelo://app?vid=30ff597b-4112-446a-aa7a-1252b9fc2d70"},"vehicle_type_id":"4","last_reported":1727377606,"current_range_meters":24800,"station_id":"ce4bhm12rcd13ifvqgkg","pricing_plan_id":"cebpf4jnsgd1na2vs0mg"},{"bike_id":"823d808e-9b3b-4d5a-a0e5-45b1cd80b94f","system_id":"levelo_inurba_marseille","lat":43.29305,"lon":5.37445,"is_reserved":false,"is_disabled":false,"rental_uris":{"android":"levelo://app?vid=823d808e-9b3b-4d5a-a0e5-45b1cd80b94f","ios":"levelo://app?vid=823d808e-9b3b-4d5a-a0e5-45b1cd80b94f"},"vehicle_type_id":"4","last_reported":1727377606,"current_range_meters":11600,"station_id":"ce4bgi12rcd13ifvqb70","pricing_plan_id":"cebpf4jnsgd1na2vs0mg"},{"bike_id":"69b95856-baa5-4d56-8e93-4c46b24bf852","system_id":"levelo_inurba_marseille","lat":43.29913,"lon":5.38136,"is_reserved":false,"is_disabled":false,"rental_uris":{"android":"levelo://app?vid=69b95856-baa5-4d56-8e93-4c46b24bf852","ios":"levelo://app?vid=69b95856-baa5-4d56-8e93-4c46b24bf852"},"vehicle_type_id":"4","last_reported":1727377606,"current_range_meters":35600,"station_id":"ce4bgj12rcd13ifvqbc0","pricing_plan_id":"cebpf4jnsgd1na2vs0mg"},{"bike_id":"eee6d266-d969-459e-9def-2c03bdad6f10","system_id":"levelo_inurba_marseille","lat":43.31755,"lon":5.39021,"is_reserved":false,"is_disabled":false,"rental_uris":{"android":"levelo://app?vid=eee6d266-d969-459e-9def-2c03bdad6f10","ios":"levelo://app?vid=eee6d266-d969-459e-9def-2c03bdad6f10"},"vehicle_type_id":"4","last_reported":1727377606,"current_range_meters":22000,"station_id":"ce4bhqp2rcd13ifvqhng","pricing_plan_id":"cebpf4jnsgd1na2vs0mg"},{"bike_id":"571fa6cd-a052-481b-b24c-a851d2ae5be6","system_id":"levelo_inurba_marseille","lat":43.2997,"lon":5.38494,"is_reserved":false,"is_disabled":false,"rental_uris":{"android":"levelo://app?vid=571fa6cd-a052-481b-b24c-a851d2ae5be6","ios":"levelo://app?vid=571fa6cd-a052-481b-b24c-a851d2ae5be6"},"vehicle_type_id":"4","last_reported":1727377606,"current_range_meters":6800,"station_id":"ce4bgj92rcd13ifvqbd0","pricing_plan_id":"cebpf4jnsgd1na2vs0mg"},{"bike_id":"9ae170ae-7512-4ec2-afa7-9420f9493e21","system_id":"levelo_inurba_marseille","lat":43.29418,"lon":5.38624,"is_reserved":false,"is_disabled":false,"rental_uris":{"android":"levelo://app?vid=9ae170ae-7512-4ec2-afa7-9420f9493e21","ios":"levelo://app?vid=9ae170ae-7512-4ec2-afa7-9420f9493e21"},"vehicle_type_id":"4","last_reported":1727377606,"current_range_meters":21600,"station_id":"ce4bh2h2rcd13ifvqdh0","pricing_plan_id":"cebpf4jnsgd1na2vs0mg"},{"bike_id":"68402a0f-a2f6-4003-bce7-ef770c8dc95b","system_id":"levelo_inurba_marseille","lat":43.2799,"lon":5.41661,"is_reserved":false,"is_disabled":false,"rental_uris":{"android":"levelo://app?vid=68402a0f-a2f6-4003-bce7-ef770c8dc95b","ios":"levelo://app?vid=68402a0f-a2f6-4003-bce7-ef770c8dc95b"},"vehicle_type_id":"4","last_reported":1727377606,"current_range_meters":36800,"station_id":"ce4bho12rcd13ifvqh1g","pricing_plan_id":"cebpf4jnsgd1na2vs0mg"},{"bike_id":"2cb35dd4-5c52-49d8-b47f-4fd5f6521239","system_id":"levelo_inurba_marseille","lat":43.24068,"lon":5.37768,"is_reserved":false,"is_disabled":false,"rental_uris":{"android":"levelo://app?vid=2cb35dd4-5c52-49d8-b47f-4fd5f6521239","ios":"levelo://app?vid=2cb35dd4-5c52-49d8-b47f-4fd5f6521239"},"vehicle_type_id":"4","last_reported":1727377606,"current_range_meters":30400,"station_id":"ce4bhnp2rcd13ifvqgvg","pricing_plan_id":"cebpf4jnsgd1na2vs0mg"},{"bike_id":"fb9c9900-e88e-4767-8f6a-085518e1a0a4","system_id":"levelo_inurba_marseille","lat":43.30322,"lon":5.40447,"is_reserved":false,"is_disabled":false,"rental_uris":{"android":"levelo://app?vid=fb9c9900-e88e-4767-8f6a-085518e1a0a4","ios":"levelo://app?vid=fb9c9900-e88e-4767-8f6a-085518e1a0a4"},"vehicle_type_id":"4","last_reported":1727377606,"current_range_meters":24400,"station_id":"ce4bh012rcd13ifvqd10","pricing_plan_id":"cebpf4jnsgd1na2vs0mg"},{"bike_id":"6c1fda78-a27a-41ea-9d99-03a440f5f874","system_id":"levelo_inurba_marseille","lat":43.23064,"lon":5.35495,"is_reserved":false,"is_disabled":false,"rental_uris":{"android":"levelo://app?vid=6c1fda78-a27a-41ea-9d99-03a440f5f874","ios":"levelo://app?vid=6c1fda78-a27a-41ea-9d99-03a440f5f874"},"vehicle_type_id":"4","last_reported":1727377606,"current_range_meters":38800,"station_id":"cpo3342slgdg3j2ifvpg","pricing_plan_id":"cebpf4jnsgd1na2vs0mg"},{"bike_id":"9560daa0-c4e3-4ff9-8735-b7bf5fec25a2","system_id":"levelo_inurba_marseille","lat":43.3377,"lon":5.37479,"is_reserved":false,"is_disabled":false,"rental_uris":{"android":"levelo://app?vid=9560daa0-c4e3-4ff9-8735-b7bf5fec25a2","ios":"levelo://app?vid=9560daa0-c4e3-4ff9-8735-b7bf5fec25a2"},"vehicle_type_id":"4","last_reported":1727377606,"current_range_meters":7200,"station_id":"ce4bhg12rcd13ifvqf80","pricing_plan_id":"cebpf4jnsgd1na2vs0mg"},{"bike_id":"8af564d3-2d9a-457a-8923-339dc4619ac1","system_id":"levelo_inurba_marseille","lat":43.29507,"lon":5.39403,"is_reserved":false,"is_disabled":false,"rental_uris":{"android":"levelo://app?vid=8af564d3-2d9a-457a-8923-339dc4619ac1","ios":"levelo://app?vid=8af564d3-2d9a-457a-8923-339dc4619ac1"},"vehicle_type_id":"4","last_reported":1727377606,"current_range_meters":39200,"station_id":"ce4bh292rcd13ifvqdf0","pricing_plan_id":"cebpf4jnsgd1na2vs0mg"},{"bike_id":"90b1ec35-a7cd-442d-9d41-23a41b786be0","system_id":"levelo_inurba_marseille","lat":43.31536,"lon":5.3802,"is_reserved":false,"is_disabled":false,"rental_uris":{"android":"levelo://app?vid=90b1ec35-a7cd-442d-9d41-23a41b786be0","ios":"levelo://app?vid=90b1ec35-a7cd-442d-9d41-23a41b786be0"},"vehicle_type_id":"4","last_reported":1727377606,"current_range_meters":27600,"station_id":"ce4bhsp2rcd13ifvqi50","pricing_plan_id":"cebpf4jnsgd1na2vs0mg"},{"bike_id":"3fe849ab-91df-4225-8b99-b1426303e8e1","system_id":"levelo_inurba_marseille","lat":43.29299,"lon":5.3746,"is_reserved":false,"is_disabled":false,"rental_uris":{"android":"levelo://app?vid=3fe849ab-91df-4225-8b99-b1426303e8e1","ios":"levelo://app?vid=3fe849ab-91df-4225-8b99-b1426303e8e1"},"vehicle_type_id":"4","last_reported":1727377606,"current_range_meters":37600,"station_id":"ce4bgi12rcd13ifvqb70","pricing_plan_id":"cebpf4jnsgd1na2vs0mg"},{"bike_id":"3c29436d-dbf1-4fb3-a853-f9606e433a82","system_id":"levelo_inurba_marseille","lat":43.3176,"lon":5.3901,"is_reserved":false,"is_disabled":false,"rental_uris":{"android":"levelo://app?vid=3c29436d-dbf1-4fb3-a853-f9606e433a82","ios":"levelo://app?vid=3c29436d-dbf1-4fb3-a853-f9606e433a82"},"vehicle_type_id":"4","last_reported":1727377606,"current_range_meters":5600,"station_id":"ce4bhqp2rcd13ifvqhng","pricing_plan_id":"cebpf4jnsgd1na2vs0mg"},{"bike_id":"d112ff22-9436-44c4-a832-a4a92ce9f868","system_id":"levelo_inurba_marseille","lat":43.30527,"lon":5.38434,"is_reserved":false,"is_disabled":false,"rental_uris":{"android":"levelo://app?vid=d112ff22-9436-44c4-a832-a4a92ce9f868","ios":"levelo://app?vid=d112ff22-9436-44c4-a832-a4a92ce9f868"},"vehicle_type_id":"4","last_reported":1727377606,"current_range_meters":37600,"station_id":"ce4bgg92rcd13ifvqb30","pricing_plan_id":"cebpf4jnsgd1na2vs0mg"},{"bike_id":"7c55b763-63cc-40f9-97f3-5d33c44e1242","system_id":"levelo_inurba_marseille","lat":43.29583,"lon":5.36745,"is_reserved":false,"is_disabled":false,"rental_uris":{"android":"levelo://app?vid=7c55b763-63cc-40f9-97f3-5d33c44e1242","ios":"levelo://app?vid=7c55b763-63cc-40f9-97f3-5d33c44e1242"},"vehicle_type_id":"4","last_reported":1727377606,"current_range_meters":38800,"station_id":"ce4bgph2rcd13ifvqc2g","pricing_plan_id":"cebpf4jnsgd1na2vs0mg"},{"bike_id":"6703077d-bf06-4fe2-bdac-610d7f925cfd","system_id":"levelo_inurba_marseille","lat":43.29259,"lon":5.38446,"is_reserved":false,"is_disabled":false,"rental_uris":{"android":"levelo://app?vid=6703077d-bf06-4fe2-bdac-610d7f925cfd","ios":"levelo://app?vid=6703077d-bf06-4fe2-bdac-610d7f925cfd"},"vehicle_type_id":"4","last_reported":1727377606,"current_range_meters":28400,"station_id":"ce4bh692rcd13ifvqea0","pricing_plan_id":"cebpf4jnsgd1na2vs0mg"},{"bike_id":"7636de0d-24ac-43ef-b05f-eceb64c8b199","system_id":"levelo_inurba_marseille","lat":43.29195,"lon":5.35809,"is_reserved":false,"is_disabled":false,"rental_uris":{"android":"levelo://app?vid=7636de0d-24ac-43ef-b05f-eceb64c8b199","ios":"levelo://app?vid=7636de0d-24ac-43ef-b05f-eceb64c8b199"},"vehicle_type_id":"4","last_reported":1727377606,"current_range_meters":39200,"station_id":"ce4bhb12rcd13ifvqel0","pricing_plan_id":"cebpf4jnsgd1na2vs0mg"},{"bike_id":"264f5e1a-910c-402c-8387-641549ff797c","system_id":"levelo_inurba_marseille","lat":43.28455,"lon":5.35886,"is_reserved":false,"is_disabled":false,"rental_uris":{"android":"levelo://app?vid=264f5e1a-910c-402c-8387-641549ff797c","ios":"levelo://app?vid=264f5e1a-910c-402c-8387-641549ff797c"},"vehicle_type_id":"4","last_reported":1727377606,"current_range_meters":38800,"station_id":"ce4bhah2rcd13ifvqei0","pricing_plan_id":"cebpf4jnsgd1na2vs0mg"},{"bike_id":"9f8f13a3-d7e0-41ab-acd5-42d499c2354e","system_id":"levelo_inurba_marseille","lat":43.23805,"lon":5.36435,"is_reserved":false,"is_disabled":false,"rental_uris":{"android":"levelo://app?vid=9f8f13a3-d7e0-41ab-acd5-42d499c2354e","ios":"levelo://app?vid=9f8f13a3-d7e0-41ab-acd5-42d499c2354e"},"vehicle_type_id":"4","last_reported":1727377606,"current_range_meters":16400,"station_id":"","pricing_plan_id":"cebpf4jnsgd1na2vs0mg"},{"bike_id":"c7fc041f-294a-43fb-905b-72af72532df4","system_id":"levelo_inurba_marseille","lat":43.27918,"lon":5.39583,"is_reserved":false,"is_disabled":false,"rental_uris":{"android":"levelo://app?vid=c7fc041f-294a-43fb-905b-72af72532df4","ios":"levelo://app?vid=c7fc041f-294a-43fb-905b-72af72532df4"},"vehicle_type_id":"4","last_reported":1727377606,"current_range_meters":10800,"station_id":"ce4bhf92rcd13ifvqf40","pricing_plan_id":"cebpf4jnsgd1na2vs0mg"},{"bike_id":"64c31a54-935f-40ec-853e-e02c2f34f4e1","system_id":"levelo_inurba_marseille","lat":43.29263,"lon":5.40899,"is_reserved":false,"is_disabled":false,"rental_uris":{"android":"levelo://app?vid=64c31a54-935f-40ec-853e-e02c2f34f4e1","ios":"levelo://app?vid=64c31a54-935f-40ec-853e-e02c2f34f4e1"},"vehicle_type_id":"4","last_reported":1727377606,"current_range_meters":10000,"station_id":"ce4bh192rcd13ifvqdc0","pricing_plan_id":"cebpf4jnsgd1na2vs0mg"},{"bike_id":"d8a972d6-d818-4eb8-ae2e-0ffe5cf63438","system_id":"levelo_inurba_marseille","lat":43.31524,"lon":5.40364,"is_reserved":false,"is_disabled":false,"rental_uris":{"android":"levelo://app?vid=d8a972d6-d818-4eb8-ae2e-0ffe5cf63438","ios":"levelo://app?vid=d8a972d6-d818-4eb8-ae2e-0ffe5cf63438"},"vehicle_type_id":"4","last_reported":1727377606,"current_range_meters":5600,"station_id":"","pricing_plan_id":"cebpf4jnsgd1na2vs0mg"},{"bike_id":"07b79089-2fef-4bab-b032-a2b6d13bbbc2","system_id":"levelo_inurba_marseille","lat":43.30893,"lon":5.37188,"is_reserved":false,"is_disabled":false,"rental_uris":{"android":"levelo://app?vid=07b79089-2fef-4bab-b032-a2b6d13bbbc2","ios":"levelo://app?vid=07b79089-2fef-4bab-b032-a2b6d13bbbc2"},"vehicle_type_id":"4","last_reported":1727377606,"current_range_meters":30000,"station_id":"ce4bguh2rcd13ifvqckg","pricing_plan_id":"cebpf4jnsgd1na2vs0mg"},{"bike_id":"d6e0c4a3-9804-46b9-a295-0df9259f4e20","system_id":"levelo_inurba_marseille","lat":43.30783,"lon":5.3733,"is_reserved":false,"is_disabled":false,"rental_uris":{"android":"levelo://app?vid=d6e0c4a3-9804-46b9-a295-0df9259f4e20","ios":"levelo://app?vid=d6e0c4a3-9804-46b9-a295-0df9259f4e20"},"vehicle_type_id":"4","last_reported":1727377606,"current_range_meters":30800,"station_id":"","pricing_plan_id":"cebpf4jnsgd1na2vs0mg"},{"bike_id":"33e0a827-7824-44cf-becb-f8a9d658e6f0","system_id":"levelo_inurba_marseille","lat":43.27836,"lon":5.39205,"is_reserved":false,"is_disabled":false,"rental_uris":{"android":"levelo://app?vid=33e0a827-7824-44cf-becb-f8a9d658e6f0","ios":"levelo://app?vid=33e0a827-7824-44cf-becb-f8a9d658e6f0"},"vehicle_type_id":"4","last_reported":1727377606,"current_range_meters":31200,"station_id":"ce4bhjp2rcd13ifvqga0","pricing_plan_id":"cebpf4jnsgd1na2vs0mg"},{"bike_id":"6f0fd928-ae09-45de-b050-22e5b982a7f2","system_id":"levelo_inurba_marseille","lat":43.25724,"lon":5.41111,"is_reserved":false,"is_disabled":false,"rental_uris":{"android":"levelo://app?vid=6f0fd928-ae09-45de-b050-22e5b982a7f2","ios":"levelo://app?vid=6f0fd928-ae09-45de-b050-22e5b982a7f2"},"vehicle_type_id":"4","last_reported":1727377606,"current_range_meters":38800,"station_id":"ce4bhkp2rcd13ifvqgd0","pricing_plan_id":"cebpf4jnsgd1na2vs0mg"},{"bike_id":"91be5db2-aa00-40b1-9e07-1886ba1523e2","system_id":"levelo_inurba_marseille","lat":43.32656,"lon":5.40992,"is_reserved":false,"is_disabled":false,"rental_uris":{"android":"levelo://app?vid=91be5db2-aa00-40b1-9e07-1886ba1523e2","ios":"levelo://app?vid=91be5db2-aa00-40b1-9e07-1886ba1523e2"},"vehicle_type_id":"4","last_reported":1727377606,"current_range_meters":38800,"station_id":"ce4bhpp2rcd13ifvqhgg","pricing_plan_id":"cebpf4jnsgd1na2vs0mg"},{"bike_id":"29802541-fa0b-4fb3-a7ae-c6e77d85e6d2","system_id":"levelo_inurba_marseille","lat":43.309001,"lon":5.3966,"is_reserved":false,"is_disabled":false,"rental_uris":{"android":"levelo://app?vid=29802541-fa0b-4fb3-a7ae-c6e77d85e6d2","ios":"levelo://app?vid=29802541-fa0b-4fb3-a7ae-c6e77d85e6d2"},"vehicle_type_id":"4","last_reported":1727377606,"current_range_meters":38800,"station_id":"ce4bh012rcd13ifvqcv0","pricing_plan_id":"cebpf4jnsgd1na2vs0mg"},{"bike_id":"3001feff-93f1-47f6-9846-023cc5e95d5e","system_id":"levelo_inurba_marseille","lat":43.30118,"lon":5.39851,"is_reserved":false,"is_disabled":false,"rental_uris":{"android":"levelo://app?vid=3001feff-93f1-47f6-9846-023cc5e95d5e","ios":"levelo://app?vid=3001feff-93f1-47f6-9846-023cc5e95d5e"},"vehicle_type_id":"4","last_reported":1727377606,"current_range_meters":36000,"station_id":"ce4bh0h2rcd13ifvqd40","pricing_plan_id":"cebpf4jnsgd1na2vs0mg"},{"bike_id":"2bfa613d-41f7-4aa2-aea0-117d0ba5b9ce","system_id":"levelo_inurba_marseille","lat":43.29843,"lon":5.36276,"is_reserved":false,"is_disabled":false,"rental_uris":{"android":"levelo://app?vid=2bfa613d-41f7-4aa2-aea0-117d0ba5b9ce","ios":"levelo://app?vid=2bfa613d-41f7-4aa2-aea0-117d0ba5b9ce"},"vehicle_type_id":"4","last_reported":1727377606,"current_range_meters":10000,"station_id":"ce4bgpp2rcd13ifvqc3g","pricing_plan_id":"cebpf4jnsgd1na2vs0mg"},{"bike_id":"ec860119-380c-4f29-9f82-c0ee3c55121a","system_id":"levelo_inurba_marseille","lat":43.26496,"lon":5.3955,"is_reserved":false,"is_disabled":false,"rental_uris":{"android":"levelo://app?vid=ec860119-380c-4f29-9f82-c0ee3c55121a","ios":"levelo://app?vid=ec860119-380c-4f29-9f82-c0ee3c55121a"},"vehicle_type_id":"4","last_reported":1727377606,"current_range_meters":23200,"station_id":"ce4bhi12rcd13ifvqfq0","pricing_plan_id":"cebpf4jnsgd1na2vs0mg"},{"bike_id":"ee782f47-20d5-477a-88f7-f9eebcaf671f","system_id":"levelo_inurba_marseille","lat":43.24547,"lon":5.39524,"is_reserved":false,"is_disabled":false,"rental_uris":{"android":"levelo://app?vid=ee782f47-20d5-477a-88f7-f9eebcaf671f","ios":"levelo://app?vid=ee782f47-20d5-477a-88f7-f9eebcaf671f"},"vehicle_type_id":"4","last_reported":1727377606,"current_range_meters":38000,"station_id":"ce4bhlp2rcd13ifvqgjg","pricing_plan_id":"cebpf4jnsgd1na2vs0mg"},{"bike_id":"9e8fafec-04d4-4ca3-8373-7b9d775f4f05","system_id":"levelo_inurba_marseille","lat":43.30426,"lon":5.38882,"is_reserved":false,"is_disabled":false,"rental_uris":{"android":"levelo://app?vid=9e8fafec-04d4-4ca3-8373-7b9d775f4f05","ios":"levelo://app?vid=9e8fafec-04d4-4ca3-8373-7b9d775f4f05"},"vehicle_type_id":"4","last_reported":1727377606,"current_range_meters":38000,"station_id":"ce4bgk12rcd13ifvqbi0","pricing_plan_id":"cebpf4jnsgd1na2vs0mg"},{"bike_id":"293b21fa-4c54-44d6-a8d1-a41725594bc4","system_id":"levelo_inurba_marseille","lat":43.292792,"lon":5.401144,"is_reserved":false,"is_disabled":false,"rental_uris":{"android":"levelo://app?vid=293b21fa-4c54-44d6-a8d1-a41725594bc4","ios":"levelo://app?vid=293b21fa-4c54-44d6-a8d1-a41725594bc4"},"vehicle_type_id":"4","last_reported":1727377606,"current_range_meters":24800,"station_id":"ce4bh312rcd13ifvqdk0","pricing_plan_id":"cebpf4jnsgd1na2vs0mg"},{"bike_id":"53bc506d-19ef-4e6f-8df0-7089fd0329ba","system_id":"levelo_inurba_marseille","lat":43.29264,"lon":5.38443,"is_reserved":false,"is_disabled":false,"rental_uris":{"android":"levelo://app?vid=53bc506d-19ef-4e6f-8df0-7089fd0329ba","ios":"levelo://app?vid=53bc506d-19ef-4e6f-8df0-7089fd0329ba"},"vehicle_type_id":"4","last_reported":1727377606,"current_range_meters":32800,"station_id":"ce4bh692rcd13ifvqea0","pricing_plan_id":"cebpf4jnsgd1na2vs0mg"},{"bike_id":"7d7604c6-83e4-409c-959e-35b82f88dd3b","system_id":"levelo_inurba_marseille","lat":43.30133,"lon":5.38778,"is_reserved":false,"is_disabled":false,"rental_uris":{"android":"levelo://app?vid=7d7604c6-83e4-409c-959e-35b82f88dd3b","ios":"levelo://app?vid=7d7604c6-83e4-409c-959e-35b82f88dd3b"},"vehicle_type_id":"4","last_reported":1727377606,"current_range_meters":17200,"station_id":"ce4bghh2rcd13ifvqb60","pricing_plan_id":"cebpf4jnsgd1na2vs0mg"},{"bike_id":"c548acb0-876f-4c98-8bb3-760120a68714","system_id":"levelo_inurba_marseille","lat":43.32479,"lon":5.36568,"is_reserved":false,"is_disabled":false,"rental_uris":{"android":"levelo://app?vid=c548acb0-876f-4c98-8bb3-760120a68714","ios":"levelo://app?vid=c548acb0-876f-4c98-8bb3-760120a68714"},"vehicle_type_id":"4","last_reported":1727377606,"current_range_meters":20000,"station_id":"ce4bhs12rcd13ifvqhvg","pricing_plan_id":"cebpf4jnsgd1na2vs0mg"},{"bike_id":"cb213a3d-e791-4b09-b2e9-f0bcb32e44e6","system_id":"levelo_inurba_marseille","lat":43.291005,"lon":5.385704,"is_reserved":false,"is_disabled":false,"rental_uris":{"android":"levelo://app?vid=cb213a3d-e791-4b09-b2e9-f0bcb32e44e6","ios":"levelo://app?vid=cb213a3d-e791-4b09-b2e9-f0bcb32e44e6"},"vehicle_type_id":"4","last_reported":1727377606,"current_range_meters":16000,"station_id":"ce4bh4p2rcd13ifvqe0g","pricing_plan_id":"cebpf4jnsgd1na2vs0mg"},{"bike_id":"07030c9f-b220-4d67-b434-1d818d1c7394","system_id":"levelo_inurba_marseille","lat":43.29901,"lon":5.43669,"is_reserved":false,"is_disabled":false,"rental_uris":{"android":"levelo://app?vid=07030c9f-b220-4d67-b434-1d818d1c7394","ios":"levelo://app?vid=07030c9f-b220-4d67-b434-1d818d1c7394"},"vehicle_type_id":"4","last_reported":1727377606,"current_range_meters":36400,"station_id":"ce4bhpp2rcd13ifvqhfg","pricing_plan_id":"cebpf4jnsgd1na2vs0mg"},{"bike_id":"786a82cd-cd09-4f74-950a-0590240b5d6a","system_id":"levelo_inurba_marseille","lat":43.28371,"lon":5.38618,"is_reserved":false,"is_disabled":false,"rental_uris":{"android":"levelo://app?vid=786a82cd-cd09-4f74-950a-0590240b5d6a","ios":"levelo://app?vid=786a82cd-cd09-4f74-950a-0590240b5d6a"},"vehicle_type_id":"4","last_reported":1727377606,"current_range_meters":16400,"station_id":"ce4bh492rcd13ifvqdvg","pricing_plan_id":"cebpf4jnsgd1na2vs0mg"},{"bike_id":"f17dbafc-151f-485c-a428-c0c83c10c6c9","system_id":"levelo_inurba_marseille","lat":43.29155,"lon":5.4398,"is_reserved":false,"is_disabled":false,"rental_uris":{"android":"levelo://app?vid=f17dbafc-151f-485c-a428-c0c83c10c6c9","ios":"levelo://app?vid=f17dbafc-151f-485c-a428-c0c83c10c6c9"},"vehicle_type_id":"4","last_reported":1727377606,"current_range_meters":20400,"station_id":"","pricing_plan_id":"cebpf4jnsgd1na2vs0mg"},{"bike_id":"55caec12-1fa8-4c1e-bf85-ede42b91b473","system_id":"levelo_inurba_marseille","lat":43.31754,"lon":5.39023,"is_reserved":false,"is_disabled":false,"rental_uris":{"android":"levelo://app?vid=55caec12-1fa8-4c1e-bf85-ede42b91b473","ios":"levelo://app?vid=55caec12-1fa8-4c1e-bf85-ede42b91b473"},"vehicle_type_id":"4","last_reported":1727377606,"current_range_meters":14400,"station_id":"ce4bhqp2rcd13ifvqhng","pricing_plan_id":"cebpf4jnsgd1na2vs0mg"},{"bike_id":"fbd3c5b0-da81-42e8-9f22-5cd8cdeb391c","system_id":"levelo_inurba_marseille","lat":43.25116,"lon":5.40325,"is_reserved":false,"is_disabled":false,"rental_uris":{"android":"levelo://app?vid=fbd3c5b0-da81-42e8-9f22-5cd8cdeb391c","ios":"levelo://app?vid=fbd3c5b0-da81-42e8-9f22-5cd8cdeb391c"},"vehicle_type_id":"4","last_reported":1727377606,"current_range_meters":38800,"station_id":"ce4bhlh2rcd13ifvqgig","pricing_plan_id":"cebpf4jnsgd1na2vs0mg"},{"bike_id":"3c8e0ba9-2aa2-4c81-afa5-2f0c6b8a5be4","system_id":"levelo_inurba_marseille","lat":43.23181,"lon":5.39985,"is_reserved":false,"is_disabled":false,"rental_uris":{"android":"levelo://app?vid=3c8e0ba9-2aa2-4c81-afa5-2f0c6b8a5be4","ios":"levelo://app?vid=3c8e0ba9-2aa2-4c81-afa5-2f0c6b8a5be4"},"vehicle_type_id":"4","last_reported":1727377606,"current_range_meters":38800,"station_id":"ce4bhn12rcd13ifvqgqg","pricing_plan_id":"cebpf4jnsgd1na2vs0mg"},{"bike_id":"a16c70a6-125d-45e4-96e6-1d74d7a93289","system_id":"levelo_inurba_marseille","lat":43.28081,"lon":5.39663,"is_reserved":false,"is_disabled":false,"rental_uris":{"android":"levelo://app?vid=a16c70a6-125d-45e4-96e6-1d74d7a93289","ios":"levelo://app?vid=a16c70a6-125d-45e4-96e6-1d74d7a93289"},"vehicle_type_id":"4","last_reported":1727377606,"current_range_meters":14800,"station_id":"ce4bho12rcd13ifvqh2g","pricing_plan_id":"cebpf4jnsgd1na2vs0mg"},{"bike_id":"df7cdba6-ef6e-4e33-b6e5-3ae1fcc23c5a","system_id":"levelo_inurba_marseille","lat":43.24543,"lon":5.39524,"is_reserved":false,"is_disabled":false,"rental_uris":{"android":"levelo://app?vid=df7cdba6-ef6e-4e33-b6e5-3ae1fcc23c5a","ios":"levelo://app?vid=df7cdba6-ef6e-4e33-b6e5-3ae1fcc23c5a"},"vehicle_type_id":"4","last_reported":1727377606,"current_range_meters":34000,"station_id":"ce4bhlp2rcd13ifvqgjg","pricing_plan_id":"cebpf4jnsgd1na2vs0mg"},{"bike_id":"509a9e99-a4be-4095-8f32-746f51178a10","system_id":"levelo_inurba_marseille","lat":43.29276,"lon":5.36842,"is_reserved":false,"is_disabled":false,"rental_uris":{"android":"levelo://app?vid=509a9e99-a4be-4095-8f32-746f51178a10","ios":"levelo://app?vid=509a9e99-a4be-4095-8f32-746f51178a10"},"vehicle_type_id":"4","last_reported":1727377606,"current_range_meters":22400,"station_id":"ce4bhbp2rcd13ifvqesg","pricing_plan_id":"cebpf4jnsgd1na2vs0mg"},{"bike_id":"cc8e3e66-f69c-4251-8510-ff895225b55f","system_id":"levelo_inurba_marseille","lat":43.3414,"lon":5.40907,"is_reserved":false,"is_disabled":false,"rental_uris":{"android":"levelo://app?vid=cc8e3e66-f69c-4251-8510-ff895225b55f","ios":"levelo://app?vid=cc8e3e66-f69c-4251-8510-ff895225b55f"},"vehicle_type_id":"4","last_reported":1727377606,"current_range_meters":4800,"station_id":"ce4bhqh2rcd13ifvqhlg","pricing_plan_id":"cebpf4jnsgd1na2vs0mg"},{"bike_id":"d228d65b-732e-496b-9488-2d5d172698e2","system_id":"levelo_inurba_marseille","lat":43.24044,"lon":5.37779,"is_reserved":false,"is_disabled":false,"rental_uris":{"android":"levelo://app?vid=d228d65b-732e-496b-9488-2d5d172698e2","ios":"levelo://app?vid=d228d65b-732e-496b-9488-2d5d172698e2"},"vehicle_type_id":"4","last_reported":1727377606,"current_range_meters":4400,"station_id":"ce4bhnp2rcd13ifvqgvg","pricing_plan_id":"cebpf4jnsgd1na2vs0mg"},