{"last_updated":1685909176,"ttl":30,"version":"2.2","data":{"bikes":[{"bike_id":"46934921-2f43-44c9-8d14-a609d1760487","system_id":"levelo_inurba_marseille","lat":43.309076,"lon":5.368465,"is_reserved":false,"is_disabled":false,"rental_uris":{"android":"levelo://app?vid=46934921-2f43-44c9-8d14-a609d1760487","ios":"levelo://app?vid=46934921-2f43-44c9-8d14-a609d1760487"},"vehicle_type_id":"4","last_reported":1685909176,"current_range_meters":5200,"station_id":"ce4bgn92rcd13ifvqbvg","pricing_plan_id":"free"},{"bike_id":"f51b3cb8-f96d-4658-a3b4-0d41559754f9","system_id":"levelo_inurba_marseille","lat":43.30834,"lon":5.36978,"is_reserved":false,"is_disabled":false,"rental_uris":{"android":"levelo://app?vid=f51b3cb8-f96d-4658-a3b4-0d41559754f9","ios":"levelo://app?vid=f51b3cb8-f96d-4658-a3b4-0d41559754f9"},"vehicle_type_id":"4","last_reported":1685909176,"current_range_meters":27200,"station_id":"","pricing_plan_id":"free"},{"bike_id":"1ebd0928-1fba-4e6c-b794-31a38f27c067","system_id":"levelo_inurba_marseille","lat":43.30868,"lon":5.37064,"is_reserved":false,"is_disabled":false,"rental_uris":{"android":"levelo://app?vid=1ebd0928-1fba-4e6c-b794-31a38f27c067","ios":"levelo://app?vid=1ebd0928-1fba-4e6c-b794-31a38f27c067"},"vehicle_type_id":"4","last_reported":1685909176,"current_range_meters":23200,"station_id":"","pricing_plan_id":"free"},{"bike_id":"4d43e892-ec90-4fce-8475-f727fed3851f","system_id":"levelo_inurba_marseille","lat":43.31797,"lon":5.36821,"is_reserved":false,"is_disabled":false,"rental_uris":{"android":"levelo://app?vid=4d43e892-ec90-4fce-8475-f727fed3851f","ios":"levelo://app?vid=4d43e892-ec90-4fce-8475-f727fed3851f"},"vehicle_type_id":"4","last_reported":1685909176,"current_range_meters":0,"station_id":"","pricing_plan_id":"free"},{"bike_id":"a2bcefb7-d80b-474e-a9b3-abecb50796eb","system_id":"levelo_inurba_marseille","lat":43.30839,"lon":5.37181,"is_reserved":false,"is_disabled":false,"rental_uris":{"android":"levelo://app?vid=a2bcefb7-d80b-474e-a9b3-abecb50796eb","ios":"levelo://app?vid=a2bcefb7-d80b-474e-a9b3-abecb50796eb"},"vehicle_type_id":"4","last_reported":1685909176,"current_range_meters":28800,"station_id":"","pricing_plan_id":"free"},{"bike_id":"048be98a-d3e1-4397-bf58-9e37d125046f","system_id":"levelo_inurba_marseille","lat":43.3181,"lon":5.36927,"is_reserved":false,"is_disabled":false,"rental_uris":{"android":"levelo://app?vid=048be98a-d3e1-4397-bf58-9e37d125046f","ios":"levelo://app?vid=048be98a-d3e1-4397-bf58-9e37d125046f"},"vehicle_type_id":"4","last_reported":1685909176,"current_range_meters":9600,"station_id":"","pricing_plan_id":"free"},{"bike_id":"47dde2ea-5345-431b-8754-ad0a6f169f59","system_id":"levelo_inurba_marseille","lat":43.305368,"lon":5.367343,"is_reserved":false,"is_disabled":false,"rental_uris":{"android":"levelo://app?vid=47dde2ea-5345-431b-8754-ad0a6f169f59","ios":"levelo://app?vid=47dde2ea-5345-431b-8754-ad0a6f169f59"},"vehicle_type_id":"4","last_reported":1685909176,"current_range_meters":17600,"station_id":"ce4bgrp2rcd13ifvqc9g","pricing_plan_id":"free"},{"bike_id":"3c27a7eb-ece5-4790-837a-fa06622995d2","system_id":"levelo_inurba_marseille","lat":43.305989,"lon":5.37225,"is_reserved":false,"is_disabled":false,"rental_uris":{"android":"levelo://app?vid=3c27a7eb-ece5-4790-837a-fa06622995d2","ios":"levelo://app?vid=3c27a7eb-ece5-4790-837a-fa06622995d2"},"vehicle_type_id":"4","last_reported":1685909176,"current_range_meters":25600,"station_id":"ce4bgqh2rcd13ifvqc4g","pricing_plan_id":"free"},{"bike_id":"e91e9d3d-4be1-4088-9b07-7d3f10b598d6","system_id":"levelo_inurba_marseille","lat":43.31146,"lon":5.37775,"is_reserved":false,"is_disabled":false,"rental_uris":{"android":"levelo://app?vid=e91e9d3d-4be1-4088-9b07-7d3f10b598d6","ios":"levelo://app?vid=e91e9d3d-4be1-4088-9b07-7d3f10b598d6"},"vehicle_type_id":"4","last_reported":1685909176,"current_range_meters":6400,"station_id":"","pricing_plan_id":"free"},{"bike_id":"9b5d6a66-f06b-4c93-befb-1a2161dfb7a6","system_id":"levelo_inurba_marseille","lat":43.311175,"lon":5.377713,"is_reserved":false,"is_disabled":false,"rental_uris":{"android":"levelo://app?vid=9b5d6a66-f06b-4c93-befb-1a2161dfb7a6","ios":"levelo://app?vid=9b5d6a66-f06b-4c93-befb-1a2161dfb7a6"},"vehicle_type_id":"4","last_reported":1685909176,"current_range_meters":16400,"station_id":"","pricing_plan_id":"free"},{"bike_id":"732f00a7-92a2-43d5-ac7a-78b0dea6415c","system_id":"levelo_inurba_marseille","lat":43.315289,"lon":5.380349,"is_reserved":false,"is_disabled":false,"rental_uris":{"android":"levelo://app?vid=732f00a7-92a2-43d5-ac7a-78b0dea6415c","ios":"levelo://app?vid=732f00a7-92a2-43d5-ac7a-78b0dea6415c"},"vehicle_type_id":"4","last_reported":1685909176,"current_range_meters":8800,"station_id":"ce4bhsp2rcd13ifvqi50","pricing_plan_id":"free"},{"bike_id":"87f83aa8-51f7-4130-88bc-4e7d521dcc10","system_id":"levelo_inurba_marseille","lat":43.315289,"lon":5.380349,"is_reserved":false,"is_disabled":false,"rental_uris":{"android":"levelo://app?vid=87f83aa8-51f7-4130-88bc-4e7d521dcc10","ios":"levelo://app?vid=87f83aa8-51f7-4130-88bc-4e7d521dcc10"},"vehicle_type_id":"4","last_reported":1685909176,"current_range_meters":8000,"station_id":"ce4bhsp2rcd13ifvqi50","pricing_plan_id":"free"},{"bike_id":"ed285243-cf16-482b-bbf1-88e476e330ab","system_id":"levelo_inurba_marseille","lat":43.315289,"lon":5.380349,"is_reserved":false,"is_disabled":false,"rental_uris":{"android":"levelo://app?vid=ed285243-cf16-482b-bbf1-88e476e330ab","ios":"levelo://app?vid=ed285243-cf16-482b-bbf1-88e476e330ab"},"vehicle_type_id":"4","last_reported":1685909176,"current_range_meters":13600,"station_id":"ce4bhsp2rcd13ifvqi50","pricing_plan_id":"free"},{"bike_id":"aeb315eb-577d-4ba1-96dc-a658feccdeae","system_id":"levelo_inurba_marseille","lat":43.315289,"lon":5.380349,"is_reserved":false,"is_disabled":false,"rental_uris":{"android":"levelo://app?vid=aeb315eb-577d-4ba1-96dc-a658feccdeae","ios":"levelo://app?vid=aeb315eb-577d-4ba1-96dc-a658feccdeae"},"vehicle_type_id":"4","last_reported":1685909176,"current_range_meters":2400,"station_id":"ce4bhsp2rcd13ifvqi50","pricing_plan_id":"free"},{"bike_id":"222097d8-5fea-40e4-888f-25f9e6ce2577","system_id":"levelo_inurba_marseille","lat":43.315293,"lon":5.380349,"is_reserved":false,"is_disabled":false,"rental_uris":{"android":"levelo://app?vid=222097d8-5fea-40e4-888f-25f9e6ce2577","ios":"levelo://app?vid=222097d8-5fea-40e4-888f-25f9e6ce2577"},"vehicle_type_id":"4","last_reported":1685909176,"current_range_meters":26800,"station_id":"ce4bhsp2rcd13ifvqi50","pricing_plan_id":"free"},{"bike_id":"d431dc86-2832-485f-9fde-040385f63d87","system_id":"levelo_inurba_marseille","lat":43.308012,"lon":5.381511,"is_reserved":false,"is_disabled":false,"rental_uris":{"android":"levelo://app?vid=d431dc86-2832-485f-9fde-040385f63d87","ios":"levelo://app?vid=d431dc86-2832-485f-9fde-040385f63d87"},"vehicle_type_id":"4","last_reported":1685909176,"current_range_meters":25200,"station_id":"ce4bgt12rcd13ifvqce0","pricing_plan_id":"free"},{"bike_id":"35369de5-2325-46f5-91e2-654f2d5c1102","system_id":"levelo_inurba_marseille","lat":43.319935,"lon":5.381699,"is_reserved":false,"is_disabled":false,"rental_uris":{"android":"levelo://app?vid=35369de5-2325-46f5-91e2-654f2d5c1102","ios":"levelo://app?vid=35369de5-2325-46f5-91e2-654f2d5c1102"},"vehicle_type_id":"4","last_reported":1685909176,"current_range_meters":15600,"station_id":"ce4bhr12rcd13ifvqhpg","pricing_plan_id":"free"},{"bike_id":"994fd81e-6db6-4408-acc8-bec511d624f9","system_id":"levelo_inurba_marseille","lat":43.319935,"lon":5.381699,"is_reserved":false,"is_disabled":false,"rental_uris":{"android":"levelo://app?vid=994fd81e-6db6-4408-acc8-bec511d624f9","ios":"levelo://app?vid=994fd81e-6db6-4408-acc8-bec511d624f9"},"vehicle_type_id":"4","last_reported":1685909176,"current_range_meters":15600,"station_id":"ce4bhr12rcd13ifvqhpg","pricing_plan_id":"free"},{"bike_id":"1f1dc83b-8ccb-4689-a2db-9ce7e1fda49c","system_id":"levelo_inurba_marseille","lat":43.319935,"lon":5.381699,"is_reserved":false,"is_disabled":false,"rental_uris":{"android":"levelo://app?vid=1f1dc83b-8ccb-4689-a2db-9ce7e1fda49c","ios":"levelo://app?vid=1f1dc83b-8ccb-4689-a2db-9ce7e1fda49c"},"vehicle_type_id":"4","last_reported":1685909176,"current_range_meters":2000,"station_id":"ce4bhr12rcd13ifvqhpg","pricing_plan_id":"free"},{"bike_id":"7f296a06-238a-4357-bec7-1e7451d8c132","system_id":"levelo_inurba_marseille","lat":43.319935,"lon":5.381699,"is_reserved":false,"is_disabled":false,"rental_uris":{"android":"levelo://app?vid=7f296a06-238a-4357-bec7-1e7451d8c132","ios":"levelo://app?vid=7f296a06-238a-4357-bec7-1e7451d8c132"},"vehicle_type_id":"4","last_reported":1685909176,"current_range_meters":26400,"station_id":"ce4bhr12rcd13ifvqhpg","pricing_plan_id":"free"},{"bike_id":"4455b440-4c16-4419-a615-385d635d76e2","system_id":"levelo_inurba_marseille","lat":43.319935,"lon":5.381699,"is_reserved":false,"is_disabled":false,"rental_uris":{"android":"levelo://app?vid=4455b440-4c16-4419-a615-385d635d76e2","ios":"levelo://app?vid=4455b440-4c16-4419-a615-385d635d76e2"},"vehicle_type_id":"4","last_reported":1685909176,"current_range_meters":10000,"station_id":"ce4bhr12rcd13ifvqhpg","pricing_plan_id":"free"},{"bike_id":"36136d78-2be3-4b19-a90a-7711a04c3c3a","system_id":"levelo_inurba_marseille","lat":43.31369,"lon":5.38503,"is_reserved":false,"is_disabled":false,"rental_uris":{"android":"levelo://app?vid=36136d78-2be3-4b19-a90a-7711a04c3c3a","ios":"levelo://app?vid=36136d78-2be3-4b19-a90a-7711a04c3c3a"},"vehicle_type_id":"4","last_reported":1685909176,"current_range_meters":14400,"station_id":"","pricing_plan_id":"free"},{"bike_id":"30e52e73-694f-487c-88ec-2125ebc96fd4","system_id":"levelo_inurba_marseille","lat":43.2985,"lon":5.36282,"is_reserved":false,"is_disabled":false,"rental_uris":{"android":"levelo://app?vid=30e52e73-694f-487c-88ec-2125ebc96fd4","ios":"levelo://app?vid=30e52e73-694f-487c-88ec-2125ebc96fd4"},"vehicle_type_id":"4","last_reported":1685909176,"current_range_meters":16000,"station_id":"ce4bgpp2rcd13ifvqc3g","pricing_plan_id":"free"},{"bike_id":"cffd7553-ce47-4f0f-9100-078fcf9dad30","system_id":"levelo_inurba_marseille","lat":43.298433,"lon":5.362774,"is_reserved":false,"is_disabled":false,"rental_uris":{"android":"levelo://app?vid=cffd7553-ce47-4f0f-9100-078fcf9dad30","ios":"levelo://app?vid=cffd7553-ce47-4f0f-9100-078fcf9dad30"},"vehicle_type_id":"4","last_reported":1685909176,"current_range_meters":21200,"station_id":"ce4bgpp2rcd13ifvqc3g","pricing_plan_id":"free"},{"bike_id":"a06fc5b7-6e6a-4758-be53-08fd13c66301","system_id":"levelo_inurba_marseille","lat":43.305364,"lon":5.384119,"is_reserved":false,"is_disabled":false,"rental_uris":{"android":"levelo://app?vid=a06fc5b7-6e6a-4758-be53-08fd13c66301","ios":"levelo://app?vid=a06fc5b7-6e6a-4758-be53-08fd13c66301"},"vehicle_type_id":"4","last_reported":1685909176,"current_range_meters":0,"station_id":"ce4bgg92rcd13ifvqb30","pricing_plan_id":"free"},{"bike_id":"dbb83ea0-35a9-4fb5-af25-969123b9250d","system_id":"levelo_inurba_marseille","lat":43.298433,"lon":5.362774,"is_reserved":false,"is_disabled":false,"rental_uris":{"android":"levelo://app?vid=dbb83ea0-35a9-4fb5-af25-969123b9250d","ios":"levelo://app?vid=dbb83ea0-35a9-4fb5-af25-969123b9250d"},"vehicle_type_id":"4","last_reported":1685909176,"current_range_meters":400,"station_id":"ce4bgpp2rcd13ifvqc3g","pricing_plan_id":"free"},{"bike_id":"2d739552-4f9a-40fa-8b20-1d3f3b94a5d3","system_id":"levelo_inurba_marseille","lat":43.298433,"lon":5.362774,"is_reserved":false,"is_disabled":false,"rental_uris":{"android":"levelo://app?vid=2d739552-4f9a-40fa-8b20-1d3f3b94a5d3","ios":"levelo://app?vid=2d739552-4f9a-40fa-8b20-1d3f3b94a5d3"},"vehicle_type_id":"4","last_reported":1685909176,"current_range_meters":31200,"station_id":"ce4bgpp2rcd13ifvqc3g","pricing_plan_id":"free"},{"bike_id":"531d6e55-508f-411c-91b2-5fe710d32b13","system_id":"levelo_inurba_marseille","lat":43.311722,"lon":5.387247,"is_reserved":false,"is_disabled":false,"rental_uris":{"android":"levelo://app?vid=531d6e55-508f-411c-91b2-5fe710d32b13","ios":"levelo://app?vid=531d6e55-508f-411c-91b2-5fe710d32b13"},"vehicle_type_id":"4","last_reported":1685909176,"current_range_meters":23200,"station_id":"ce4bgv12rcd13ifvqcp0","pricing_plan_id":"free"},{"bike_id":"0d7a3e3e-fbd3-488b-a8ff-4e04679f05b4","system_id":"levelo_inurba_marseille","lat":43.31167,"lon":5.38727,"is_reserved":false,"is_disabled":false,"rental_uris":{"android":"levelo://app?vid=0d7a3e3e-fbd3-488b-a8ff-4e04679f05b4","ios":"levelo://app?vid=0d7a3e3e-fbd3-488b-a8ff-4e04679f05b4"},"vehicle_type_id":"4","last_reported":1685909176,"current_range_meters":20000,"station_id":"ce4bgv12rcd13ifvqcp0","pricing_plan_id":"free"},{"bike_id":"9cdfc76d-fefe-4e3f-886b-5d7fa5465a0e","system_id":"levelo_inurba_marseille","lat":43.32809,"lon":5.3668,"is_reserved":false,"is_disabled":false,"rental_uris":{"android":"levelo://app?vid=9cdfc76d-fefe-4e3f-886b-5d7fa5465a0e","ios":"levelo://app?vid=9cdfc76d-fefe-4e3f-886b-5d7fa5465a0e"},"vehicle_type_id":"4","last_reported":1685909176,"current_range_meters":1600,"station_id":"","pricing_plan_id":"free"},{"bike_id":"0a2644ee-3284-46a4-b383-c1008b4493c6","system_id":"levelo_inurba_marseille","lat":43.32822,"lon":5.36678,"is_reserved":false,"is_disabled":false,"rental_uris":{"android":"levelo://app?vid=0a2644ee-3284-46a4-b383-c1008b4493c6","ios":"levelo://app?vid=0a2644ee-3284-46a4-b383-c1008b4493c6"},"vehicle_type_id":"4","last_reported":1685909176,"current_range_meters":24800,"station_id":"ce4bhs92rcd13ifvqi0g","pricing_plan_id":"free"},{"bike_id":"5a3f0615-0d94-4a62-9eb9-c286b2b38d0f","system_id":"levelo_inurba_marseille","lat":43.328371,"lon":5.366909,"is_reserved":false,"is_disabled":false,"rental_uris":{"android":"levelo://app?vid=5a3f0615-0d94-4a62-9eb9-c286b2b38d0f","ios":"levelo://app?vid=5a3f0615-0d94-4a62-9eb9-c286b2b38d0f"},"vehicle_type_id":"4","last_reported":1685909176,"current_range_meters":24800,"station_id":"ce4bhs92rcd13ifvqi0g","pricing_plan_id":"free"},{"bike_id":"93fe580d-71c0-4856-a27e-71bfe60b8232","system_id":"levelo_inurba_marseille","lat":43.32829,"lon":5.36679,"is_reserved":false,"is_disabled":false,"rental_uris":{"android":"levelo://app?vid=93fe580d-71c0-4856-a27e-71bfe60b8232","ios":"levelo://app?vid=93fe580d-71c0-4856-a27e-71bfe60b8232"},"vehicle_type_id":"4","last_reported":1685909176,"current_range_meters":19600,"station_id":"ce4bhs92rcd13ifvqi0g","pricing_plan_id":"free"},{"bike_id":"c957c23a-5f71-48b3-920d-3eb9d16491cd","system_id":"levelo_inurba_marseille","lat":43.32831,"lon":5.36682,"is_reserved":false,"is_disabled":false,"rental_uris":{"android":"levelo://app?vid=c957c23a-5f71-48b3-920d-3eb9d16491cd","ios":"levelo://app?vid=c957c23a-5f71-48b3-920d-3eb9d16491cd"},"vehicle_type_id":"4","last_reported":1685909176,"current_range_meters":24800,"station_id":"ce4bhs92rcd13ifvqi0g","pricing_plan_id":"free"},{"bike_id":"0a8d8c78-668e-4bfd-b627-75e7821f9637","system_id":"levelo_inurba_marseille","lat":43.328371,"lon":5.366909,"is_reserved":false,"is_disabled":false,"rental_uris":{"android":"levelo://app?vid=0a8d8c78-668e-4bfd-b627-75e7821f9637","ios":"levelo://app?vid=0a8d8c78-668e-4bfd-b627-75e7821f9637"},"vehicle_type_id":"4","last_reported":1685909176,"current_range_meters":14000,"station_id":"ce4bhs92rcd13ifvqi0g","pricing_plan_id":"free"},{"bike_id":"fcfa8df2-9e76-4249-b61d-9fc48b640c7e","system_id":"levelo_inurba_marseille","lat":43.328371,"lon":5.366909,"is_reserved":false,"is_disabled":false,"rental_uris":{"android":"levelo://app?vid=fcfa8df2-9e76-4249-b61d-9fc48b640c7e","ios":"levelo://app?vid=fcfa8df2-9e76-4249-b61d-9fc48b640c7e"},"vehicle_type_id":"4","last_reported":1685909176,"current_range_meters":15600,"station_id":"ce4bhs92rcd13ifvqi0g","pricing_plan_id":"free"},{"bike_id":"b9cf6557-2db2-4828-97f1-13a369745ef6","system_id":"levelo_inurba_marseille","lat":43.32751,"lon":5.37473,"is_reserved":false,"is_disabled":false,"rental_uris":{"android":"levelo://app?vid=b9cf6557-2db2-4828-97f1-13a369745ef6","ios":"levelo://app?vid=b9cf6557-2db2-4828-97f1-13a369745ef6"},"vehicle_type_id":"4","last_reported":1685909176,"current_range_meters":3600,"station_id":"","pricing_plan_id":"free"},{"bike_id":"a17daf2a-3986-4fde-9bc4-4634fbc4f88a","system_id":"levelo_inurba_marseille","lat":43.296935,"lon":5.376544,"is_reserved":false,"is_disabled":false,"rental_uris":{"android":"levelo://app?vid=a17daf2a-3986-4fde-9bc4-4634fbc4f88a","ios":"levelo://app?vid=a17daf2a-3986-4fde-9bc4-4634fbc4f88a"},"vehicle_type_id":"4","last_reported":1685909176,"current_range_meters":25600,"station_id":"ce4bgkh2rcd13ifvqbl0","pricing_plan_id":"free"},{"bike_id":"8ade07da-1e9a-4ab6-8c45-005a8ccb3e36","system_id":"levelo_inurba_marseille","lat":43.309589,"lon":5.390258,"is_reserved":false,"is_disabled":false,"rental_uris":{"android":"levelo://app?vid=8ade07da-1e9a-4ab6-8c45-005a8ccb3e36","ios":"levelo://app?vid=8ade07da-1e9a-4ab6-8c45-005a8ccb3e36"},"vehicle_type_id":"4","last_reported":1685909176,"current_range_meters":20800,"station_id":"ce4bgup2rcd13ifvqco0","pricing_plan_id":"free"},{"bike_id":"ee331462-9f8a-4ff4-975f-640e5831c4d6","system_id":"levelo_inurba_marseille","lat":43.317557,"lon":5.390173,"is_reserved":false,"is_disabled":false,"rental_uris":{"android":"levelo://app?vid=ee331462-9f8a-4ff4-975f-640e5831c4d6","ios":"levelo://app?vid=ee331462-9f8a-4ff4-975f-640e5831c4d6"},"vehicle_type_id":"4","last_reported":1685909176,"current_range_meters":10800,"station_id":"ce4bhqp2rcd13ifvqhng","pricing_plan_id":"free"},{"bike_id":"07f62f98-919e-4b71-a429-5882e11679b6","system_id":"levelo_inurba_marseille","lat":43.317557,"lon":5.390173,"is_reserved":false,"is_disabled":false,"rental_uris":{"android":"levelo://app?vid=07f62f98-919e-4b71-a429-5882e11679b6","ios":"levelo://app?vid=07f62f98-919e-4b71-a429-5882e11679b6"},"vehicle_type_id":"4","last_reported":1685909176,"current_range_meters":25600,"station_id":"ce4bhqp2rcd13ifvqhng","pricing_plan_id":"free"},{"bike_id":"9a6a909a-6a4b-4135-9a83-293d841f554c","system_id":"levelo_inurba_marseille","lat":43.31752,"lon":5.39018,"is_reserved":false,"is_disabled":false,"rental_uris":{"android":"levelo://app?vid=9a6a909a-6a4b-4135-9a83-293d841f554c","ios":"levelo://app?vid=9a6a909a-6a4b-4135-9a83-293d841f554c"},"vehicle_type_id":"4","last_reported":1685909176,"current_range_meters":14000,"station_id":"ce4bhqp2rcd13ifvqhng","pricing_plan_id":"free"},{"bike_id":"1e4c8f72-ef69-4463-a29b-04a1ed1ba9ac","system_id":"levelo_inurba_marseille","lat":43.295748,"lon":5.37522,"is_reserved":false,"is_disabled":false,"rental_uris":{"android":"levelo://app?vid=1e4c8f72-ef69-4463-a29b-04a1ed1ba9ac","ios":"levelo://app?vid=1e4c8f72-ef69-4463-a29b-04a1ed1ba9ac"},"vehicle_type_id":"4","last_reported":1685909176,"current_range_meters":31200,"station_id":"ce4bgh92rcd13ifvqb50","pricing_plan_id":"free"},{"bike_id":"7b2d9598-c394-4de9-885e-7219f1bf0641","system_id":"levelo_inurba_marseille","lat":43.296263,"lon":5.377094,"is_reserved":false,"is_disabled":false,"rental_uris":{"android":"levelo://app?vid=7b2d9598-c394-4de9-885e-7219f1bf0641","ios":"levelo://app?vid=7b2d9598-c394-4de9-885e-7219f1bf0641"},"vehicle_type_id":"4","last_reported":1685909176,"current_range_meters":13600,"station_id":"ce4bgi92rcd13ifvqb90","pricing_plan_id":"free"},{"bike_id":"f34e9783-c386-404a-8f59-28b8412b3905","system_id":"levelo_inurba_marseille","lat":43.295295,"lon":5.375031,"is_reserved":false,"is_disabled":false,"rental_uris":{"android":"levelo://app?vid=f34e9783-c386-404a-8f59-28b8412b3905","ios":"levelo://app?vid=f34e9783-c386-404a-8f59-28b8412b3905"},"vehicle_type_id":"4","last_reported":1685909176,"current_range_meters":1600,"station_id":"ce4bhg12rcd13ifvqf70","pricing_plan_id":"free"},{"bike_id":"eb8e4412-a3fa-4a69-9d75-1a8b980ed125","system_id":"levelo_inurba_marseille","lat":43.29598,"lon":5.37793,"is_reserved":false,"is_disabled":false,"rental_uris":{"android":"levelo://app?vid=eb8e4412-a3fa-4a69-9d75-1a8b980ed125","ios":"levelo://app?vid=eb8e4412-a3fa-4a69-9d75-1a8b980ed125"},"vehicle_type_id":"4","last_reported":1685909176,"current_range_meters":25600,"station_id":"","pricing_plan_id":"free"},{"bike_id":"63c94b24-7ae0-4e9d-b7a3-29e66aca7ca2","system_id":"levelo_inurba_marseille","lat":43.29513,"lon":5.37509,"is_reserved":false,"is_disabled":false,"rental_uris":{"android":"levelo://app?vid=63c94b24-7ae0-4e9d-b7a3-29e66aca7ca2","ios":"levelo://app?vid=63c94b24-7ae0-4e9d-b7a3-29e66aca7ca2"},"vehicle_type_id":"4","last_reported":1685909176,"current_range_meters":31200,"station_id":"ce4bgkp2rcd13ifvqbmg","pricing_plan_id":"free"},{"bike_id":"7fe7d289-ac92-4ba9-be7d-6c298b53fba3","system_id":"levelo_inurba_marseille","lat":43.32367,"lon":5.388836,"is_reserved":false,"is_disabled":false,"rental_uris":{"android":"levelo://app?vid=7fe7d289-ac92-4ba9-be7d-6c298b53fba3","ios":"levelo://app?vid=7fe7d289-ac92-4ba9-be7d-6c298b53fba3"},"vehicle_type_id":"4","last_reported":1685909176,"current_range_meters":0,"station_id":"ce4bhqp2rcd13ifvqhog","pricing_plan_id":"free"},{"bike_id":"aeb5ead0-c09c-49ca-84ce-d23b7cb0491f","system_id":"levelo_inurba_marseille","lat":43.32367,"lon":5.388836,"is_reserved":false,"is_disabled":false,"rental_uris":{"android":"levelo://app?vid=aeb5ead0-c09c-49ca-84ce-d23b7cb0491f","ios":"levelo://app?vid=aeb5ead0-c09c-49ca-84ce-d23b7cb0491f"},"vehicle_type_id":"4","last_reported":1685909176,"current_range_meters":10000,"station_id":"ce4bhqp2rcd13ifvqhog","pricing_plan_id":"free"},{"bike_id":"66f8c606-ccf7-4b48-a7cf-8cb90cfbfb49","system_id":"levelo_inurba_marseille","lat":43.32367,"lon":5.388836,"is_reserved":false,"is_disabled":false,"rental_uris":{"android":"levelo://app?vid=66f8c606-ccf7-4b48-a7cf-8cb90cfbfb49","ios":"levelo://app?vid=66f8c606-ccf7-4b48-a7cf-8cb90cfbfb49"},"vehicle_type_id":"4","last_reported":1685909176,"current_range_meters":3600,"station_id":"ce4bhqp2rcd13ifvqhog","pricing_plan_id":"free"},{"bike_id":"0c8ee082-b1d8-491c-8484-cd2c8fa6c95d","system_id":"levelo_inurba_marseille","lat":43.29601,"lon":5.381084,"is_reserved":false,"is_disabled":false,"rental_uris":{"android":"levelo://app?vid=0c8ee082-b1d8-491c-8484-cd2c8fa6c95d","ios":"levelo://app?vid=0c8ee082-b1d8-491c-8484-cd2c8fa6c95d"},"vehicle_type_id":"4","last_reported":1685909176,"current_range_meters":0,"station_id":"ce4bgl12rcd13ifvqbo0","pricing_plan_id":"free"},{"bike_id":"1b6226ce-17e5-4dd0-9426-a161d2272a56","system_id":"levelo_inurba_marseille","lat":43.29598,"lon":5.38111,"is_reserved":false,"is_disabled":false,"rental_uris":{"android":"levelo://app?vid=1b6226ce-17e5-4dd0-9426-a161d2272a56","ios":"levelo://app?vid=1b6226ce-17e5-4dd0-9426-a161d2272a56"},"vehicle_type_id":"4","last_reported":1685909176,"current_range_meters":16000,"station_id":"ce4bgl12rcd13ifvqbo0","pricing_plan_id":"free"},{"bike_id":"9597da8a-e289-4892-9505-df0009c5fbba","system_id":"levelo_inurba_marseille","lat":43.292749,"lon":5.368398,"is_reserved":false,"is_disabled":false,"rental_uris":{"android":"levelo://app?vid=9597da8a-e289-4892-9505-df0009c5fbba","ios":"levelo://app?vid=9597da8a-e289-4892-9505-df0009c5fbba"},"vehicle_type_id":"4","last_reported":1685909176,"current_range_meters":6800,"station_id":"ce4bhbp2rcd13ifvqesg","pricing_plan_id":"free"},{"bike_id":"c0e909d4-2f0a-4117-83fb-340622d41029","system_id":"levelo_inurba_marseille","lat":43.305994,"lon":5.393687,"is_reserved":false,"is_disabled":false,"rental_uris":{"android":"levelo://app?vid=c0e909d4-2f0a-4117-83fb-340622d41029","ios":"levelo://app?vid=c0e909d4-2f0a-4117-83fb-340622d41029"},"vehicle_type_id":"4","last_reported":1685909176,"current_range_meters":1600,"station_id":"ce4bh0p2rcd13ifvqd80","pricing_plan_id":"free"},{"bike_id":"5eba0ca6-0d0a-48f9-80a6-dc5ba8865032","system_id":"levelo_inurba_marseille","lat":43.305994,"lon":5.393687,"is_reserved":false,"is_disabled":false,"rental_uris":{"android":"levelo://app?vid=5eba0ca6-0d0a-48f9-80a6-dc5ba8865032","ios":"levelo://app?vid=5eba0ca6-0d0a-48f9-80a6-dc5ba8865032"},"vehicle_type_id":"4","last_reported":1685909176,"current_range_meters":400,"station_id":"ce4bh0p2rcd13ifvqd80","pricing_plan_id":"free"},{"bike_id":"91f2800a-fc2c-40dd-ad96-7daadeb0bd56","system_id":"levelo_inurba_marseille","lat":43.30294,"lon":5.3921,"is_reserved":false,"is_disabled":false,"rental_uris":{"android":"levelo://app?vid=91f2800a-fc2c-40dd-ad96-7daadeb0bd56","ios":"levelo://app?vid=91f2800a-fc2c-40dd-ad96-7daadeb0bd56"},"vehicle_type_id":"4","last_reported":1685909176,"current_range_meters":3600,"station_id":"ce4bgkh2rcd13ifvqbk0","pricing_plan_id":"free"},{"bike_id":"8f1c3c1a-6b10-4075-bc45-3b116cc55112","system_id":"levelo_inurba_marseille","lat":43.2936,"lon":5.37835,"is_reserved":false,"is_disabled":false,"rental_uris":{"android":"levelo://app?vid=8f1c3c1a-6b10-4075-bc45-3b116cc55112","ios":"levelo://app?vid=8f1c3c1a-6b10-4075-bc45-3b116cc55112"},"vehicle_type_id":"4","last_reported":1685909176,"current_range_meters":3600,"station_id":"ce4bgjh2rcd13ifvqbf0","pricing_plan_id":"free"},{"bike_id":"254d727d-b97b-4da6-8ec6-9fc5e40315db","system_id":"levelo_inurba_marseille","lat":43.29368,"lon":5.37859,"is_reserved":false,"is_disabled":false,"rental_uris":{"android":"levelo://app?vid=254d727d-b97b-4da6-8ec6-9fc5e40315db","ios":"levelo://app?vid=254d727d-b97b-4da6-8ec6-9fc5e40315db"},"vehicle_type_id":"4","last_reported":1685909176,"current_range_meters":16400,"station_id":"","pricing_plan_id":"free"},{"bike_id":"6760cab7-99ae-44fa-9381-335b8aa91443","system_id":"levelo_inurba_marseille","lat":43.291671,"lon":5.371575,"is_reserved":false,"is_disabled":false,"rental_uris":{"android":"levelo://app?vid=6760cab7-99ae-44fa-9381-335b8aa91443","ios":"levelo://app?vid=6760cab7-99ae-44fa-9381-335b8aa91443"},"vehicle_type_id":"4","last_reported":1685909176,"current_range_meters":20400,"station_id":"ce4bha92rcd13ifvqeh0","pricing_plan_id":"free"},{"bike_id":"ad5c8421-479c-4225-82bc-8230892560db","system_id":"levelo_inurba_marseille","lat":43.309038,"lon":5.396546,"is_reserved":false,"is_disabled":false,"rental_uris":{"android":"levelo://app?vid=ad5c8421-479c-4225-82bc-8230892560db","ios":"levelo://app?vid=ad5c8421-479c-4225-82bc-8230892560db"},"vehicle_type_id":"4","last_reported":1685909176,"current_range_meters":10400,"station_id":"ce4bh012rcd13ifvqcv0","pricing_plan_id":"free"},{"bike_id":"1f4117e4-cad3-4776-8083-2f7adabc0464","system_id":"levelo_inurba_marseille","lat":43.309038,"lon":5.396546,"is_reserved":false,"is_disabled":false,"rental_uris":{"android":"levelo://app?vid=1f4117e4-cad3-4776-8083-2f7adabc0464","ios":"levelo://app?vid=1f4117e4-cad3-4776-8083-2f7adabc0464"},"vehicle_type_id":"4","last_reported":1685909176,"current_range_meters":5200,"station_id":"ce4bh012rcd13ifvqcv0","pricing_plan_id":"free"},{"bike_id":"76a00e3d-df75-4d49-bf57-4f8e7bcd19dd","system_id":"levelo_inurba_marseille","lat":43.291994,"lon":5.357886,"is_reserved":false,"is_disabled":false,"rental_uris":{"android":"levelo://app?vid=76a00e3d-df75-4d49-bf57-4f8e7bcd19dd","ios":"levelo://app?vid=76a00e3d-df75-4d49-bf57-4f8e7bcd19dd"},"vehicle_type_id":"4","last_reported":1685909176,"current_range_meters":27200,"station_id":"ce4bhb12rcd13ifvqel0","pricing_plan_id":"free"},{"bike_id":"58de0b32-4410-452b-8cef-824eb7bd9b43","system_id":"levelo_inurba_marseille","lat":43.313291,"lon":5.396838,"is_reserved":false,"is_disabled":false,"rental_uris":{"android":"levelo://app?vid=58de0b32-4410-452b-8cef-824eb7bd9b43","ios":"levelo://app?vid=58de0b32-4410-452b-8cef-824eb7bd9b43"},"vehicle_type_id":"4","last_reported":1685909176,"current_range_meters":13600,"station_id":"ce4bgvp2rcd13ifvqcu0","pricing_plan_id":"free"},{"bike_id":"6faff79f-90b4-4036-9672-5db4124ddb41","system_id":"levelo_inurba_marseille","lat":43.313291,"lon":5.396838,"is_reserved":false,"is_disabled":false,"rental_uris":{"android":"levelo://app?vid=6faff79f-90b4-4036-9672-5db4124ddb41","ios":"levelo://app?vid=6faff79f-90b4-4036-9672-5db4124ddb41"},"vehicle_type_id":"4","last_reported":1685909176,"current_range_meters":26400,"station_id":"ce4bgvp2rcd13ifvqcu0","pricing_plan_id":"free"},{"bike_id":"c42cf57b-b0cd-40ee-afd3-68f789a375a7","system_id":"levelo_inurba_marseille","lat":43.313291,"lon":5.396838,"is_reserved":false,"is_disabled":false,"rental_uris":{"android":"levelo://app?vid=c42cf57b-b0cd-40ee-afd3-68f789a375a7","ios":"levelo://app?vid=c42cf57b-b0cd-40ee-afd3-68f789a375a7"},"vehicle_type_id":"4","last_reported":1685909176,"current_range_meters":8400,"station_id":"ce4bgvp2rcd13ifvqcu0","pricing_plan_id":"free"},{"bike_id":"100d750c-fdc2-44ee-a29e-7ee417505009","system_id":"levelo_inurba_marseille","lat":43.309038,"lon":5.396546,"is_reserved":false,"is_disabled":false,"rental_uris":{"android":"levelo://app?vid=100d750c-fdc2-44ee-a29e-7ee417505009","ios":"levelo://app?vid=100d750c-fdc2-44ee-a29e-7ee417505009"},"vehicle_type_id":"4","last_reported":1685909176,"current_range_meters":8800,"station_id":"ce4bh012rcd13ifvqcv0","pricing_plan_id":"free"},{"bike_id":"82427903-211c-4764-93ba-084daf2bc475","system_id":"levelo_inurba_marseille","lat":43.309038,"lon":5.396546,"is_reserved":false,"is_disabled":false,"rental_uris":{"android":"levelo://app?vid=82427903-211c-4764-93ba-084daf2bc475","ios":"levelo://app?vid=82427903-211c-4764-93ba-084daf2bc475"},"vehicle_type_id":"4","last_reported":1685909176,"current_range_meters":4400,"station_id":"ce4bh012rcd13ifvqcv0","pricing_plan_id":"free"},{"bike_id":"fdbc5e23-ba41-4ce6-a6f4-bf5844aef6e4","system_id":"levelo_inurba_marseille","lat":43.313291,"lon":5.396838,"is_reserved":false,"is_disabled":false,"rental_uris":{"android":"levelo://app?vid=fdbc5e23-ba41-4ce6-a6f4-bf5844aef6e4","ios":"levelo://app?vid=fdbc5e23-ba41-4ce6-a6f4-bf5844aef6e4"},"vehicle_type_id":"4","last_reported":1685909176,"current_range_meters":28000,"station_id":"ce4bgvp2rcd13ifvqcu0","pricing_plan_id":"free"},{"bike_id":"65b07f62-8bc2-42ab-adbb-b99338c90d23","system_id":"levelo_inurba_marseille","lat":43.313291,"lon":5.396838,"is_reserved":false,"is_disabled":false,"rental_uris":{"android":"levelo://app?vid=65b07f62-8bc2-42ab-adbb-b99338c90d23","ios":"levelo://app?vid=65b07f62-8bc2-42ab-adbb-b99338c90d23"},"vehicle_type_id":"4","last_reported":1685909176,"current_range_meters":0,"station_id":"ce4bgvp2rcd13ifvqcu0","pricing_plan_id":"free"},{"bike_id":"d3fa399e-6880-43e5-a281-f8f3e72560c5","system_id":"levelo_inurba_marseille","lat":43.309038,"lon":5.396546,"is_reserved":false,"is_disabled":false,"rental_uris":{"android":"levelo://app?vid=d3fa399e-6880-43e5-a281-f8f3e72560c5","ios":"levelo://app?vid=d3fa399e-6880-43e5-a281-f8f3e72560c5"},"vehicle_type_id":"4","last_reported":1685909176,"current_range_meters":22000,"station_id":"ce4bh012rcd13ifvqcv0","pricing_plan_id":"free"},{"bike_id":"e590b2fb-237f-4659-9ceb-a32ea7e48e92","system_id":"levelo_inurba_marseille","lat":43.29178,"lon":5.35806,"is_reserved":false,"is_disabled":false,"rental_uris":{"android":"levelo://app?vid=e590b2fb-237f-4659-9ceb-a32ea7e48e92","ios":"levelo://app?vid=e590b2fb-237f-4659-9ceb-a32ea7e48e92"},"vehicle_type_id":"4","last_reported":1685909176,"current_range_meters":0,"station_id":"ce4bhb12rcd13ifvqel0","pricing_plan_id":"free"},{"bike_id":"b21b6343-c063-48b2-a144-9a057a64dce8","system_id":"levelo_inurba_marseille","lat":43.29529,"lon":5.385581,"is_reserved":false,"is_disabled":false,"rental_uris":{"android":"levelo://app?vid=b21b6343-c063-48b2-a144-9a057a64dce8","ios":"levelo://app?vid=b21b6343-c063-48b2-a144-9a057a64dce8"},"vehicle_type_id":"4","last_reported":1685909176,"current_range_meters":2400,"station_id":"ce4bgih2rcd13ifvqba0","pricing_plan_id":"free"},{"bike_id":"a6fa3092-b14e-42a8-a4fe-7a7329a94d21","system_id":"levelo_inurba_marseille","lat":43.29529,"lon":5.385581,"is_reserved":false,"is_disabled":false,"rental_uris":{"android":"levelo://app?vid=a6fa3092-b14e-42a8-a4fe-7a7329a94d21","ios":"levelo://app?vid=a6fa3092-b14e-42a8-a4fe-7a7329a94d21"},"vehicle_type_id":"4","last_reported":1685909176,"current_range_meters":22800,"station_id":"ce4bgih2rcd13ifvqba0","pricing_plan_id":"free"},{"bike_id":"5f4121d3-873a-4dd2-a302-53aec628d6ca","system_id":"levelo_inurba_marseille","lat":43.29529,"lon":5.385581,"is_reserved":false,"is_disabled":false,"rental_uris":{"android":"levelo://app?vid=5f4121d3-873a-4dd2-a302-53aec628d6ca","ios":"levelo://app?vid=5f4121d3-873a-4dd2-a302-53aec628d6ca"},"vehicle_type_id":"4","last_reported":1685909176,"current_range_meters":28000,"station_id":"ce4bgih2rcd13ifvqba0","pricing_plan_id":"free"},{"bike_id":"255c4b8e-8351-4250-a652-5004d8490d8a","system_id":"levelo_inurba_marseille","lat":43.29529,"lon":5.385581,"is_reserved":false,"is_disabled":false,"rental_uris":{"android":"levelo://app?vid=255c4b8e-8351-4250-a652-5004d8490d8a","ios":"levelo://app?vid=255c4b8e-8351-4250-a652-5004d8490d8a"},"vehicle_type_id":"4","last_reported":1685909176,"current_range_meters":31600,"station_id":"ce4bgih2rcd13ifvqba0","pricing_plan_id":"free"},{"bike_id":"dfacaa37-9b06-4d63-9bbb-46ea0116cbfd","system_id":"levelo_inurba_marseille","lat":43.290631,"lon":5.359244,"is_reserved":false,"is_disabled":false,"rental_uris":{"android":"levelo://app?vid=dfacaa37-9b06-4d63-9bbb-46ea0116cbfd","ios":"levelo://app?vid=dfacaa37-9b06-4d63-9bbb-46ea0116cbfd"},"vehicle_type_id":"4","last_reported":1685909176,"current_range_meters":4800,"station_id":"ce4bha92rcd13ifvqeg0","pricing_plan_id":"free"},{"bike_id":"cf9c10b3-7455-447f-811b-b1309700e082","system_id":"levelo_inurba_marseille","lat":43.290631,"lon":5.359244,"is_reserved":false,"is_disabled":false,"rental_uris":{"android":"levelo://app?vid=cf9c10b3-7455-447f-811b-b1309700e082","ios":"levelo://app?vid=cf9c10b3-7455-447f-811b-b1309700e082"},"vehicle_type_id":"4","last_reported":1685909176,"current_range_meters":30000,"station_id":"ce4bha92rcd13ifvqeg0","pricing_plan_id":"free"},{"bike_id":"6d9f940b-b655-4a40-a5d5-15ce2daa7354","system_id":"levelo_inurba_marseille","lat":43.290327,"lon":5.375711,"is_reserved":false,"is_disabled":false,"rental_uris":{"android":"levelo://app?vid=6d9f940b-b655-4a40-a5d5-15ce2daa7354","ios":"levelo://app?vid=6d9f940b-b655-4a40-a5d5-15ce2daa7354"},"vehicle_type_id":"4","last_reported":1685909176,"current_range_meters":22400,"station_id":"ce4bh692rcd13ifvqe90","pricing_plan_id":"free"},{"bike_id":"2bbadc8e-7606-44fa-8c07-34143026c74c","system_id":"levelo_inurba_marseille","lat":43.294162,"lon":5.386292,"is_reserved":false,"is_disabled":false,"rental_uris":{"android":"levelo://app?vid=2bbadc8e-7606-44fa-8c07-34143026c74c","ios":"levelo://app?vid=2bbadc8e-7606-44fa-8c07-34143026c74c"},"vehicle_type_id":"4","last_reported":1685909176,"current_range_meters":31200,"station_id":"ce4bh2h2rcd13ifvqdh0","pricing_plan_id":"free"},{"bike_id":"c9d67961-d00a-40a3-9d7a-41c527bf9da5","system_id":"levelo_inurba_marseille","lat":43.294162,"lon":5.386292,"is_reserved":false,"is_disabled":false,"rental_uris":{"android":"levelo://app?vid=c9d67961-d00a-40a3-9d7a-41c527bf9da5","ios":"levelo://app?vid=c9d67961-d00a-40a3-9d7a-41c527bf9da5"},"vehicle_type_id":"4","last_reported":1685909176,"current_range_meters":14800,"station_id":"ce4bh2h2rcd13ifvqdh0","pricing_plan_id":"free"},{"bike_id":"369f8804-0973-4c19-a30e-8d480675fedf","system_id":"levelo_inurba_marseille","lat":43.289184,"lon":5.366408,"is_reserved":false,"is_disabled":false,"rental_uris":{"android":"levelo://app?vid=369f8804-0973-4c19-a30e-8d480675fedf","ios":"levelo://app?vid=369f8804-0973-4c19-a30e-8d480675fedf"},"vehicle_type_id":"4","last_reported":1685909176,"current_range_meters":13600,"station_id":"ce4bhap2rcd13ifvqek0","pricing_plan_id":"free"},{"bike_id":"1ca6b6e3-eae4-4e7e-9338-895b892e1a61","system_id":"levelo_inurba_marseille","lat":43.292644,"lon":5.384257,"is_reserved":false,"is_disabled":false,"rental_uris":{"android":"levelo://app?vid=1ca6b6e3-eae4-4e7e-9338-895b892e1a61","ios":"levelo://app?vid=1ca6b6e3-eae4-4e7e-9338-895b892e1a61"},"vehicle_type_id":"4","last_reported":1685909176,"current_range_meters":8800,"station_id":"ce4bh692rcd13ifvqea0","pricing_plan_id":"free"},{"bike_id":"ae0644f6-fc74-4ee2-b43b-a6b751dc10db","system_id":"levelo_inurba_marseille","lat":43.292644,"lon":5.384257,"is_reserved":false,"is_disabled":false,"rental_uris":{"android":"levelo://app?vid=ae0644f6-fc74-4ee2-b43b-a6b751dc10db","ios":"levelo://app?vid=ae0644f6-fc74-4ee2-b43b-a6b751dc10db"},"vehicle_type_id":"4","last_reported":1685909176,"current_range_meters":7200,"station_id":"ce4bh692rcd13ifvqea0","pricing_plan_id":"free"},{"bike_id":"0a8aba60-b51b-427d-be66-8709066b23d1","system_id":"levelo_inurba_marseille","lat":43.33287,"lon":5.38445,"is_reserved":false,"is_disabled":false,"rental_uris":{"android":"levelo://app?vid=0a8aba60-b51b-427d-be66-8709066b23d1","ios":"levelo://app?vid=0a8aba60-b51b-427d-be66-8709066b23d1"},"vehicle_type_id":"4","last_reported":1685909176,"current_range_meters":24800,"station_id":"","pricing_plan_id":"free"},{"bike_id":"13fdadd1-1fdd-4c93-a157-b819803a3a1e","system_id":"levelo_inurba_marseille","lat":43.29257,"lon":5.38443,"is_reserved":false,"is_disabled":false,"rental_uris":{"android":"levelo://app?vid=13fdadd1-1fdd-4c93-a157-b819803a3a1e","ios":"levelo://app?vid=13fdadd1-1fdd-4c93-a157-b819803a3a1e"},"vehicle_type_id":"4","last_reported":1685909176,"current_range_meters":10400,"station_id":"ce4bh692rcd13ifvqea0","pricing_plan_id":"free"},{"bike_id":"e2b942e0-3901-4124-a71d-a8535684af38","system_id":"levelo_inurba_marseille","lat":43.33044,"lon":5.38916,"is_reserved":false,"is_disabled":false,"rental_uris":{"android":"levelo://app?vid=e2b942e0-3901-4124-a71d-a8535684af38","ios":"levelo://app?vid=e2b942e0-3901-4124-a71d-a8535684af38"},"vehicle_type_id":"4","last_reported":1685909176,"current_range_meters":25200,"station_id":"ce4bhr92rcd13ifvqhrg","pricing_plan_id":"free"},{"bike_id":"dcb00244-aef9-4eec-91cd-42ea75ebd82c","system_id":"levelo_inurba_marseille","lat":43.33056,"lon":5.3891,"is_reserved":false,"is_disabled":false,"rental_uris":{"android":"levelo://app?vid=dcb00244-aef9-4eec-91cd-42ea75ebd82c","ios":"levelo://app?vid=dcb00244-aef9-4eec-91cd-42ea75ebd82c"},"vehicle_type_id":"4","last_reported":1685909176,"current_range_meters":2800,"station_id":"ce4bhr92rcd13ifvqhrg","pricing_plan_id":"free"},{"bike_id":"b0e2c855-8a82-423b-b512-9fd0bc56b77a","system_id":"levelo_inurba_marseille","lat":43.290995,"lon":5.381361,"is_reserved":false,"is_disabled":false,"rental_uris":{"android":"levelo://app?vid=b0e2c855-8a82-423b-b512-9fd0bc56b77a","ios":"levelo://app?vid=b0e2c855-8a82-423b-b512-9fd0bc56b77a"},"vehicle_type_id":"4","last_reported":1685909176,"current_range_meters":28400,"station_id":"ce4bh512rcd13ifvqe2g","pricing_plan_id":"free"},{"bike_id":"df779faf-59c1-4f36-9875-0020a66056bf","system_id":"levelo_inurba_marseille","lat":43.290995,"lon":5.381361,"is_reserved":false,"is_disabled":false,"rental_uris":{"android":"levelo://app?vid=df779faf-59c1-4f36-9875-0020a66056bf","ios":"levelo://app?vid=df779faf-59c1-4f36-9875-0020a66056bf"},"vehicle_type_id":"4","last_reported":1685909176,"current_range_meters":0,"station_id":"ce4bh512rcd13ifvqe2g","pricing_plan_id":"free"},{"bike_id":"906c92d3-e27e-493a-a6d4-6f465d8a62b6","system_id":"levelo_inurba_marseille","lat":43.29019,"lon":5.38128,"is_reserved":false,"is_disabled":false,"rental_uris":{"android":"levelo://app?vid=906c92d3-e27e-493a-a6d4-6f465d8a62b6","ios":"levelo://app?vid=906c92d3-e27e-493a-a6d4-6f465d8a62b6"},"vehicle_type_id":"4","last_reported":1685909176,"current_range_meters":0,"station_id":"ce4bh4p2rcd13ifvqe1g","pricing_plan_id":"free"},{"bike_id":"57da526b-0952-4249-a379-e6f5262607a7","system_id":"levelo_inurba_marseille","lat":43.33751,"lon":5.37459,"is_reserved":false,"is_disabled":false,"rental_uris":{"android":"levelo://app?vid=57da526b-0952-4249-a379-e6f5262607a7","ios":"levelo://app?vid=57da526b-0952-4249-a379-e6f5262607a7"},"vehicle_type_id":"4","last_reported":1685909176,"current_range_meters":30400,"station_id":"","pricing_plan_id":"free"},{"bike_id":"675927e0-ab95-41a0-80be-7ee111a218f5","system_id":"levelo_inurba_marseille","lat":43.3375,"lon":5.37472,"is_reserved":false,"is_disabled":false,"rental_uris":{"android":"levelo://app?vid=675927e0-ab95-41a0-80be-7ee111a218f5","ios":"levelo://app?vid=675927e0-ab95-41a0-80be-7ee111a218f5"},"vehicle_type_id":"4","last_reported":1685909176,"current_range_meters":26800,"station_id":"","pricing_plan_id":"free"},{"bike_id":"9f734f8d-6742-49e3-b719-e370201dd880","system_id":"levelo_inurba_marseille","lat":43.306412,"lon":5.401035,"is_reserved":false,"is_disabled":false,"rental_uris":{"android":"levelo://app?vid=9f734f8d-6742-49e3-b719-e370201dd880","ios":"levelo://app?vid=9f734f8d-6742-49e3-b719-e370201dd880"},"vehicle_type_id":"4","last_reported":1685909176,"current_range_meters":0,"station_id":"ce4bh112rcd13ifvqda0","pricing_plan_id":"free"},{"bike_id":"cf0caa37-cec8-408b-98f7-37211a80813c","system_id":"levelo_inurba_marseille","lat":43.33781,"lon":5.37415,"is_reserved":false,"is_disabled":false,"rental_uris":{"android":"levelo://app?vid=cf0caa37-cec8-408b-98f7-37211a80813c","ios":"levelo://app?vid=cf0caa37-cec8-408b-98f7-37211a80813c"},"vehicle_type_id":"4","last_reported":1685909176,"current_range_meters":29600,"station_id":"","pricing_plan_id":"free"},{"bike_id":"91940b19-9cb8-476e-ab2f-057002efa683","system_id":"levelo_inurba_marseille","lat":43.286591,"lon":5.363346,"is_reserved":false,"is_disabled":false,"rental_uris":{"android":"levelo://app?vid=91940b19-9cb8-476e-ab2f-057002efa683","ios":"levelo://app?vid=91940b19-9cb8-476e-ab2f-057002efa683"},"vehicle_type_id":"4","last_reported":1685909176,"current_range_meters":16000,"station_id":"ce4bhah2rcd13ifvqej0","pricing_plan_id":"free"},{"bike_id":"25088032-83ce-4bc7-af7e-f682ead6132f","system_id":"levelo_inurba_marseille","lat":43.286591,"lon":5.363346,"is_reserved":false,"is_disabled":false,"rental_uris":{"android":"levelo://app?vid=25088032-83ce-4bc7-af7e-f682ead6132f","ios":"levelo://app?vid=25088032-83ce-4bc7-af7e-f682ead6132f"},"vehicle_type_id":"4","last_reported":1685909176,"current_range_meters":17600,"station_id":"ce4bhah2rcd13ifvqej0","pricing_plan_id":"free"},{"bike_id":"fbb041b0-2cb2-4463-95a3-2e261d455f20","system_id":"levelo_inurba_marseille","lat":43.286695,"lon":5.363704,"is_reserved":false,"is_disabled":false,"rental_uris":{"android":"levelo://app?vid=fbb041b0-2cb2-4463-95a3-2e261d455f20","ios":"levelo://app?vid=fbb041b0-2cb2-4463-95a3-2e261d455f20"},"vehicle_type_id":"4","last_reported":1685909176,"current_range_meters":12400,"station_id":"","pricing_plan_id":"free"},{"bike_id":"3f034842-de26-45f2-8daf-1f9e67468c5a","system_id":"levelo_inurba_marseille","lat":43.298681,"lon":5.397225,"is_reserved":false,"is_disabled":false,"rental_uris":{"android":"levelo://app?vid=3f034842-de26-45f2-8daf-1f9e67468c5a","ios":"levelo://app?vid=3f034842-de26-45f2-8daf-1f9e67468c5a"},"vehicle_type_id":"4","last_reported":1685909176,"current_range_meters":28400,"station_id":"ce4bh0h2rcd13ifvqd50","pricing_plan_id":"free"},{"bike_id":"07ed0adc-8a80-4a63-b606-08d0ed8655ca","system_id":"levelo_inurba_marseille","lat":43.286593,"lon":5.363346,"is_reserved":false,"is_disabled":false,"rental_uris":{"android":"levelo://app?vid=07ed0adc-8a80-4a63-b606-08d0ed8655ca","ios":"levelo://app?vid=07ed0adc-8a80-4a63-b606-08d0ed8655ca"},"vehicle_type_id":"4","last_reported":1685909176,"current_range_meters":24400,"station_id":"ce4bhah2rcd13ifvqej0","pricing_plan_id":"free"},{"bike_id":"62ed84c2-cb8b-4acf-8c00-7076fc44bf83","system_id":"levelo_inurba_marseille","lat":43.30418,"lon":5.40112,"is_reserved":false,"is_disabled":false,"rental_uris":{"android":"levelo://app?vid=62ed84c2-cb8b-4acf-8c00-7076fc44bf83","ios":"levelo://app?vid=62ed84c2-cb8b-4acf-8c00-7076fc44bf83"},"vehicle_type_id":"4","last_reported":1685909176,"current_range_meters":10800,"station_id":"","pricing_plan_id":"free"},{"bike_id":"b5809aeb-1031-4f41-82c1-93909c423141","system_id":"levelo_inurba_marseille","lat":43.295194,"lon":5.39397,"is_reserved":false,"is_disabled":false,"rental_uris":{"android":"levelo://app?vid=b5809aeb-1031-4f41-82c1-93909c423141","ios":"levelo://app?vid=b5809aeb-1031-4f41-82c1-93909c423141"},"vehicle_type_id":"4","last_reported":1685909176,"current_range_meters":27200,"station_id":"ce4bh292rcd13ifvqdf0","pricing_plan_id":"free"},{"bike_id":"ab517415-a147-426b-aff1-9251f1f2906f","system_id":"levelo_inurba_marseille","lat":43.302759,"lon":5.400793,"is_reserved":false,"is_disabled":false,"rental_uris":{"android":"levelo://app?vid=ab517415-a147-426b-aff1-9251f1f2906f","ios":"levelo://app?vid=ab517415-a147-426b-aff1-9251f1f2906f"},"vehicle_type_id":"4","last_reported":1685909176,"current_range_meters":18400,"station_id":"ce4bgvh2rcd13ifvqcs0","pricing_plan_id":"free"},{"bike_id":"c4f4c550-39d1-4851-9f37-ceef0c5779cf","system_id":"levelo_inurba_marseille","lat":43.290336,"lon":5.386425,"is_reserved":false,"is_disabled":false,"rental_uris":{"android":"levelo://app?vid=c4f4c550-39d1-4851-9f37-ceef0c5779cf","ios":"levelo://app?vid=c4f4c550-39d1-4851-9f37-ceef0c5779cf"},"vehicle_type_id":"4","last_reported":1685909176,"current_range_meters":4400,"station_id":"ce4bh4p2rcd13ifvqe0g","pricing_plan_id":"free"},{"bike_id":"7ad072f6-d7da-458b-b43d-406616bb4ebd","system_id":"levelo_inurba_marseille","lat":43.286039,"lon":5.370679,"is_reserved":false,"is_disabled":false,"rental_uris":{"android":"levelo://app?vid=7ad072f6-d7da-458b-b43d-406616bb4ebd","ios":"levelo://app?vid=7ad072f6-d7da-458b-b43d-406616bb4ebd"},"vehicle_type_id":"4","last_reported":1685909176,"current_range_meters":30000,"station_id":"ce4bht12rcd13ifvqi60","pricing_plan_id":"free"},{"bike_id":"c16c3e2d-258d-44fb-9594-35b9b1f1917d","system_id":"levelo_inurba_marseille","lat":43.286039,"lon":5.370681,"is_reserved":false,"is_disabled":false,"rental_uris":{"android":"levelo://app?vid=c16c3e2d-258d-44fb-9594-35b9b1f1917d","ios":"levelo://app?vid=c16c3e2d-258d-44fb-9594-35b9b1f1917d"},"vehicle_type_id":"4","last_reported":1685909176,"current_range_meters":3200,"station_id":"ce4bht12rcd13ifvqi60","pricing_plan_id":"free"},{"bike_id":"13f3f455-1756-4176-80b9-f9b7a1be8db2","system_id":"levelo_inurba_marseille","lat":43.287184,"lon":5.37937,"is_reserved":false,"is_disabled":false,"rental_uris":{"android":"levelo://app?vid=13f3f455-1756-4176-80b9-f9b7a1be8db2","ios":"levelo://app?vid=13f3f455-1756-4176-80b9-f9b7a1be8db2"},"vehicle_type_id":"4","last_reported":1685909176,"current_range_meters":11200,"station_id":"ce4bh9p2rcd13ifvqec0","pricing_plan_id":"free"},{"bike_id":"76279df4-e73d-4191-a78a-207ae0f5759d","system_id":"levelo_inurba_marseille","lat":43.287185,"lon":5.379373,"is_reserved":false,"is_disabled":false,"rental_uris":{"android":"levelo://app?vid=76279df4-e73d-4191-a78a-207ae0f5759d","ios":"levelo://app?vid=76279df4-e73d-4191-a78a-207ae0f5759d"},"vehicle_type_id":"4","last_reported":1685909176,"current_range_meters":16000,"station_id":"ce4bh9p2rcd13ifvqec0","pricing_plan_id":"free"},{"bike_id":"e6425da3-645a-4507-bb43-675dd274a495","system_id":"levelo_inurba_marseille","lat":43.287185,"lon":5.379373,"is_reserved":false,"is_disabled":false,"rental_uris":{"android":"levelo://app?vid=e6425da3-645a-4507-bb43-675dd274a495","ios":"levelo://app?vid=e6425da3-645a-4507-bb43-675dd274a495"},"vehicle_type_id":"4","last_reported":1685909176,"current_range_meters":28800,"station_id":"ce4bh9p2rcd13ifvqec0","pricing_plan_id":"free"},{"bike_id":"352cda39-cfb7-431c-9e24-0f094477f362","system_id":"levelo_inurba_marseille","lat":43.287184,"lon":5.37937,"is_reserved":false,"is_disabled":false,"rental_uris":{"android":"levelo://app?vid=352cda39-cfb7-431c-9e24-0f094477f362","ios":"levelo://app?vid=352cda39-cfb7-431c-9e24-0f094477f362"},"vehicle_type_id":"4","last_reported":1685909176,"current_range_meters":16000,"station_id":"ce4bh9p2rcd13ifvqec0","pricing_plan_id":"free"},{"bike_id":"81acaace-f8e9-47e0-9477-e28fe31ea516","system_id":"levelo_inurba_marseille","lat":43.30028,"lon":5.40103,"is_reserved":false,"is_disabled":false,"rental_uris":{"android":"levelo://app?vid=81acaace-f8e9-47e0-9477-e28fe31ea516","ios":"levelo://app?vid=81acaace-f8e9-47e0-9477-e28fe31ea516"},"vehicle_type_id":"4","last_reported":1685909176,"current_range_meters":5200,"station_id":"","pricing_plan_id":"free"},{"bike_id":"5ed828d1-6d0e-40ba-b9be-d15a7ac2035e","system_id":"levelo_inurba_marseille","lat":43.284534,"lon":5.358662,"is_reserved":false,"is_disabled":false,"rental_uris":{"android":"levelo://app?vid=5ed828d1-6d0e-40ba-b9be-d15a7ac2035e","ios":"levelo://app?vid=5ed828d1-6d0e-40ba-b9be-d15a7ac2035e"},"vehicle_type_id":"4","last_reported":1685909176,"current_range_meters":11600,"station_id":"ce4bhah2rcd13ifvqei0","pricing_plan_id":"free"},{"bike_id":"1b6a7e66-a1fe-4b69-b9df-d048dd6e26d4","system_id":"levelo_inurba_marseille","lat":43.284534,"lon":5.358662,"is_reserved":false,"is_disabled":false,"rental_uris":{"android":"levelo://app?vid=1b6a7e66-a1fe-4b69-b9df-d048dd6e26d4","ios":"levelo://app?vid=1b6a7e66-a1fe-4b69-b9df-d048dd6e26d4"},"vehicle_type_id":"4","last_reported":1685909176,"current_range_meters":27200,"station_id":"ce4bhah2rcd13ifvqei0","pricing_plan_id":"free"},{"bike_id":"4acd5544-7d62-4b70-93f1-18359525e294","system_id":"levelo_inurba_marseille","lat":43.28977,"lon":5.39069,"is_reserved":false,"is_disabled":false,"rental_uris":{"android":"levelo://app?vid=4acd5544-7d62-4b70-93f1-18359525e294","ios":"levelo://app?vid=4acd5544-7d62-4b70-93f1-18359525e294"},"vehicle_type_id":"4","last_reported":1685909176,"current_range_meters":26400,"station_id":"","pricing_plan_id":"free"},{"bike_id":"6be19690-cf5c-4119-820e-cf31ce24d5cf","system_id":"levelo_inurba_marseille","lat":43.284534,"lon":5.358662,"is_reserved":false,"is_disabled":false,"rental_uris":{"android":"levelo://app?vid=6be19690-cf5c-4119-820e-cf31ce24d5cf","ios":"levelo://app?vid=6be19690-cf5c-4119-820e-cf31ce24d5cf"},"vehicle_type_id":"4","last_reported":1685909176,"current_range_meters":20400,"station_id":"ce4bhah2rcd13ifvqei0","pricing_plan_id":"free"},{"bike_id":"6a9826a0-2832-4722-9ef8-05316a12d3da","system_id":"levelo_inurba_marseille","lat":43.295713,"lon":5.399639,"is_reserved":false,"is_disabled":false,"rental_uris":{"android":"levelo://app?vid=6a9826a0-2832-4722-9ef8-05316a12d3da","ios":"levelo://app?vid=6a9826a0-2832-4722-9ef8-05316a12d3da"},"vehicle_type_id":"4","last_reported":1685909176,"current_range_meters":24400,"station_id":"ce4bh312rcd13ifvqdj0","pricing_plan_id":"free"},{"bike_id":"a0b9f175-7edd-4367-bb9a-2cbb1d9d664d","system_id":"levelo_inurba_marseille","lat":43.295713,"lon":5.399639,"is_reserved":false,"is_disabled":false,"rental_uris":{"android":"levelo://app?vid=a0b9f175-7edd-4367-bb9a-2cbb1d9d664d","ios":"levelo://app?vid=a0b9f175-7edd-4367-bb9a-2cbb1d9d664d"},"vehicle_type_id":"4","last_reported":1685909176,"current_range_meters":8800,"station_id":"ce4bh312rcd13ifvqdj0","pricing_plan_id":"free"},{"bike_id":"92a07740-6b91-43ae-9621-6bcbd8a51c87","system_id":"levelo_inurba_marseille","lat":43.295713,"lon":5.399639,"is_reserved":false,"is_disabled":false,"rental_uris":{"android":"levelo://app?vid=92a07740-6b91-43ae-9621-6bcbd8a51c87","ios":"levelo://app?vid=92a07740-6b91-43ae-9621-6bcbd8a51c87"},"vehicle_type_id":"4","last_reported":1685909176,"current_range_meters":24800,"station_id":"ce4bh312rcd13ifvqdj0","pricing_plan_id":"free"},{"bike_id":"859c5d63-9d3a-4122-9dad-6f402d0dac2a","system_id":"levelo_inurba_marseille","lat":43.295713,"lon":5.399639,"is_reserved":false,"is_disabled":false,"rental_uris":{"android":"levelo://app?vid=859c5d63-9d3a-4122-9dad-6f402d0dac2a","ios":"levelo://app?vid=859c5d63-9d3a-4122-9dad-6f402d0dac2a"},"vehicle_type_id":"4","last_reported":1685909176,"current_range_meters":16400,"station_id":"ce4bh312rcd13ifvqdj0","pricing_plan_id":"free"},{"bike_id":"b2d7fa99-0c25-4311-89c7-2429ec931f0a","system_id":"levelo_inurba_marseille","lat":43.286595,"lon":5.386795,"is_reserved":false,"is_disabled":false,"rental_uris":{"android":"levelo://app?vid=b2d7fa99-0c25-4311-89c7-2429ec931f0a","ios":"levelo://app?vid=b2d7fa99-0c25-4311-89c7-2429ec931f0a"},"vehicle_type_id":"4","last_reported":1685909176,"current_range_meters":9600,"station_id":"ce4bh492rcd13ifvqdug","pricing_plan_id":"free"},{"bike_id":"d3fcddc3-da99-4749-babe-9c44e0da430f","system_id":"levelo_inurba_marseille","lat":43.2906,"lon":5.39449,"is_reserved":false,"is_disabled":false,"rental_uris":{"android":"levelo://app?vid=d3fcddc3-da99-4749-babe-9c44e0da430f","ios":"levelo://app?vid=d3fcddc3-da99-4749-babe-9c44e0da430f"},"vehicle_type_id":"4","last_reported":1685909176,"current_range_meters":20800,"station_id":"","pricing_plan_id":"free"},{"bike_id":"b205e703-9cc6-479d-b47b-dcec15459f4d","system_id":"levelo_inurba_marseille","lat":43.32653,"lon":5.40368,"is_reserved":false,"is_disabled":false,"rental_uris":{"android":"levelo://app?vid=b205e703-9cc6-479d-b47b-dcec15459f4d","ios":"levelo://app?vid=b205e703-9cc6-479d-b47b-dcec15459f4d"},"vehicle_type_id":"4","last_reported":1685909176,"current_range_meters":12000,"station_id":"","pricing_plan_id":"free"},{"bike_id":"bb330107-55f8-4854-817a-4f7a89810033","system_id":"levelo_inurba_marseille","lat":43.323464,"lon":5.406297,"is_reserved":false,"is_disabled":false,"rental_uris":{"android":"levelo://app?vid=bb330107-55f8-4854-817a-4f7a89810033","ios":"levelo://app?vid=bb330107-55f8-4854-817a-4f7a89810033"},"vehicle_type_id":"4","last_reported":1685909176,"current_range_meters":25600,"station_id":"ce4bhq92rcd13ifvqhjg","pricing_plan_id":"free"},{"bike_id":"52cb4169-9f28-44f5-868b-c472ed5840ad","system_id":"levelo_inurba_marseille","lat":43.323464,"lon":5.406297,"is_reserved":false,"is_disabled":false,"rental_uris":{"android":"levelo://app?vid=52cb4169-9f28-44f5-868b-c472ed5840ad","ios":"levelo://app?vid=52cb4169-9f28-44f5-868b-c472ed5840ad"},"vehicle_type_id":"4","last_reported":1685909176,"current_range_meters":13600,"station_id":"ce4bhq92rcd13ifvqhjg","pricing_plan_id":"free"},{"bike_id":"ca308f8d-733f-499e-85e9-b84978d8a7ba","system_id":"levelo_inurba_marseille","lat":43.323464,"lon":5.406297,"is_reserved":false,"is_disabled":false,"rental_uris":{"android":"levelo://app?vid=ca308f8d-733f-499e-85e9-b84978d8a7ba","ios":"levelo://app?vid=ca308f8d-733f-499e-85e9-b84978d8a7ba"},"vehicle_type_id":"4","last_reported":1685909176,"current_range_meters":15200,"station_id":"ce4bhq92rcd13ifvqhjg","pricing_plan_id":"free"},{"bike_id":"8171c6c1-be1e-421a-aaec-cf03a0fdba91","system_id":"levelo_inurba_marseille","lat":43.28354,"lon":5.38103,"is_reserved":false,"is_disabled":false,"rental_uris":{"android":"levelo://app?vid=8171c6c1-be1e-421a-aaec-cf03a0fdba91","ios":"levelo://app?vid=8171c6c1-be1e-421a-aaec-cf03a0fdba91"},"vehicle_type_id":"4","last_reported":1685909176,"current_range_meters":20400,"station_id":"ce4bh412rcd13ifvqdr0","pricing_plan_id":"free"},{"bike_id":"40a85854-0be0-455f-b55c-1d3aff9a0476","system_id":"levelo_inurba_marseille","lat":43.283494,"lon":5.380945,"is_reserved":false,"is_disabled":false,"rental_uris":{"android":"levelo://app?vid=40a85854-0be0-455f-b55c-1d3aff9a0476","ios":"levelo://app?vid=40a85854-0be0-455f-b55c-1d3aff9a0476"},"vehicle_type_id":"4","last_reported":1685909176,"current_range_meters":7600,"station_id":"ce4bh412rcd13ifvqdr0","pricing_plan_id":"free"},{"bike_id":"12534ff0-901f-4ad5-ae27-56b51d745162","system_id":"levelo_inurba_marseille","lat":43.284219,"lon":5.3497,"is_reserved":false,"is_disabled":false,"rental_uris":{"android":"levelo://app?vid=12534ff0-901f-4ad5-ae27-56b51d745162","ios":"levelo://app?vid=12534ff0-901f-4ad5-ae27-56b51d745162"},"vehicle_type_id":"4","last_reported":1685909176,"current_range_meters":24400,"station_id":"ce4bhbh2rcd13ifvqepg","pricing_plan_id":"free"},{"bike_id":"f22b645e-9664-4751-b4aa-a7986d323397","system_id":"levelo_inurba_marseille","lat":43.2928,"lon":5.4012,"is_reserved":false,"is_disabled":false,"rental_uris":{"android":"levelo://app?vid=f22b645e-9664-4751-b4aa-a7986d323397","ios":"levelo://app?vid=f22b645e-9664-4751-b4aa-a7986d323397"},"vehicle_type_id":"4","last_reported":1685909176,"current_range_meters":18000,"station_id":"ce4bh312rcd13ifvqdk0","pricing_plan_id":"free"},{"bike_id":"bd5b74f0-aefd-4778-badd-601ef5a321cd","system_id":"levelo_inurba_marseille","lat":43.29275,"lon":5.4012,"is_reserved":false,"is_disabled":false,"rental_uris":{"android":"levelo://app?vid=bd5b74f0-aefd-4778-badd-601ef5a321cd","ios":"levelo://app?vid=bd5b74f0-aefd-4778-badd-601ef5a321cd"},"vehicle_type_id":"4","last_reported":1685909176,"current_range_meters":4000,"station_id":"ce4bh312rcd13ifvqdk0","pricing_plan_id":"free"},{"bike_id":"ab544491-3555-4c13-9ba5-e5a7d405c722","system_id":"levelo_inurba_marseille","lat":43.282744,"lon":5.350533,"is_reserved":false,"is_disabled":false,"rental_uris":{"android":"levelo://app?vid=ab544491-3555-4c13-9ba5-e5a7d405c722","ios":"levelo://app?vid=ab544491-3555-4c13-9ba5-e5a7d405c722"},"vehicle_type_id":"4","last_reported":1685909176,"current_range_meters":23600,"station_id":"ce4bhbp2rcd13ifvqerg","pricing_plan_id":"free"},{"bike_id":"8ec633f5-b48c-4ad4-8234-b6a9e33abd44","system_id":"levelo_inurba_marseille","lat":43.28032,"lon":5.36949,"is_reserved":false,"is_disabled":false,"rental_uris":{"android":"levelo://app?vid=8ec633f5-b48c-4ad4-8234-b6a9e33abd44","ios":"levelo://app?vid=8ec633f5-b48c-4ad4-8234-b6a9e33abd44"},"vehicle_type_id":"4","last_reported":1685909176,"current_range_meters":12800,"station_id":"ce4bha12rcd13ifvqef0","pricing_plan_id":"free"},{"bike_id":"7003f1f1-7e7d-4c88-bbde-bd54a2779e7c","system_id":"levelo_inurba_marseille","lat":43.29036,"lon":5.39945,"is_reserved":false,"is_disabled":false,"rental_uris":{"android":"levelo://app?vid=7003f1f1-7e7d-4c88-bbde-bd54a2779e7c","ios":"levelo://app?vid=7003f1f1-7e7d-4c88-bbde-bd54a2779e7c"},"vehicle_type_id":"4","last_reported":1685909176,"current_range_meters":18800,"station_id":"ce4bh392rcd13ifvqdm0","pricing_plan_id":"free"},{"bike_id":"386799f1-ce70-4ed7-85cc-aef5a77e6fad","system_id":"levelo_inurba_marseille","lat":43.29045,"lon":5.39967,"is_reserved":false,"is_disabled":false,"rental_uris":{"android":"levelo://app?vid=386799f1-ce70-4ed7-85cc-aef5a77e6fad","ios":"levelo://app?vid=386799f1-ce70-4ed7-85cc-aef5a77e6fad"},"vehicle_type_id":"4","last_reported":1685909176,"current_range_meters":0,"station_id":"ce4bh392rcd13ifvqdm0","pricing_plan_id":"free"},{"bike_id":"79a0f57b-eb40-42e3-8d4f-98c5c0c93839","system_id":"levelo_inurba_marseille","lat":43.29036,"lon":5.3996,"is_reserved":false,"is_disabled":false,"rental_uris":{"android":"levelo://app?vid=79a0f57b-eb40-42e3-8d4f-98c5c0c93839","ios":"levelo://app?vid=79a0f57b-eb40-42e3-8d4f-98c5c0c93839"},"vehicle_type_id":"4","last_reported":1685909176,"current_range_meters":22400,"station_id":"ce4bh392rcd13ifvqdm0","pricing_plan_id":"free"},{"bike_id":"66e8a480-c39e-4a92-bb8e-b0a62198509d","system_id":"levelo_inurba_marseille","lat":43.29041,"lon":5.399634,"is_reserved":false,"is_disabled":false,"rental_uris":{"android":"levelo://app?vid=66e8a480-c39e-4a92-bb8e-b0a62198509d","ios":"levelo://app?vid=66e8a480-c39e-4a92-bb8e-b0a62198509d"},"vehicle_type_id":"4","last_reported":1685909176,"current_range_meters":27200,"station_id":"ce4bh392rcd13ifvqdm0","pricing_plan_id":"free"},{"bike_id":"ccae4552-7fd2-4cc5-b1fb-e50cfed3f259","system_id":"levelo_inurba_marseille","lat":43.29041,"lon":5.399634,"is_reserved":false,"is_disabled":false,"rental_uris":{"android":"levelo://app?vid=ccae4552-7fd2-4cc5-b1fb-e50cfed3f259","ios":"levelo://app?vid=ccae4552-7fd2-4cc5-b1fb-e50cfed3f259"},"vehicle_type_id":"4","last_reported":1685909176,"current_range_meters":24000,"station_id":"ce4bh392rcd13ifvqdm0","pricing_plan_id":"free"},{"bike_id":"b1e0fe6a-e444-4b21-94d1-6e1b0c07898b","system_id":"levelo_inurba_marseille","lat":43.29032,"lon":5.3997,"is_reserved":false,"is_disabled":false,"rental_uris":{"android":"levelo://app?vid=b1e0fe6a-e444-4b21-94d1-6e1b0c07898b","ios":"levelo://app?vid=b1e0fe6a-e444-4b21-94d1-6e1b0c07898b"},"vehicle_type_id":"4","last_reported":1685909176,"current_range_meters":4400,"station_id":"ce4bh392rcd13ifvqdm0","pricing_plan_id":"free"},{"bike_id":"a955cfa0-aad2-4d18-95ac-f2cd04a37dc6","system_id":"levelo_inurba_marseille","lat":43.2904,"lon":5.39981,"is_reserved":false,"is_disabled":false,"rental_uris":{"android":"levelo://app?vid=a955cfa0-aad2-4d18-95ac-f2cd04a37dc6","ios":"levelo://app?vid=a955cfa0-aad2-4d18-95ac-f2cd04a37dc6"},"vehicle_type_id":"4","last_reported":1685909176,"current_range_meters":12000,"station_id":"ce4bh392rcd13ifvqdm0","pricing_plan_id":"free"},{"bike_id":"b1db7ae9-6e30-4b12-817b-35b19498039e","system_id":"levelo_inurba_marseille","lat":43.281044,"lon":5.378308,"is_reserved":false,"is_disabled":false,"rental_uris":{"android":"levelo://app?vid=b1db7ae9-6e30-4b12-817b-35b19498039e","ios":"levelo://app?vid=b1db7ae9-6e30-4b12-817b-35b19498039e"},"vehicle_type_id":"4","last_reported":1685909176,"current_range_meters":20400,"station_id":"ce4bha12rcd13ifvqee0","pricing_plan_id":"free"},{"bike_id":"599f3de2-de94-484f-877d-14427809c64d","system_id":"levelo_inurba_marseille","lat":43.281044,"lon":5.378308,"is_reserved":false,"is_disabled":false,"rental_uris":{"android":"levelo://app?vid=599f3de2-de94-484f-877d-14427809c64d","ios":"levelo://app?vid=599f3de2-de94-484f-877d-14427809c64d"},"vehicle_type_id":"4","last_reported":1685909176,"current_range_meters":6800,"station_id":"ce4bha12rcd13ifvqee0","pricing_plan_id":"free"},{"bike_id":"aac237f6-39da-4ee5-944a-fdd18691f12c","system_id":"levelo_inurba_marseille","lat":43.284462,"lon":5.392121,"is_reserved":false,"is_disabled":false,"rental_uris":{"android":"levelo://app?vid=aac237f6-39da-4ee5-944a-fdd18691f12c","ios":"levelo://app?vid=aac237f6-39da-4ee5-944a-fdd18691f12c"},"vehicle_type_id":"4","last_reported":1685909176,"current_range_meters":29600,"station_id":"ce4bhoh2rcd13ifvqh5g","pricing_plan_id":"free"},{"bike_id":"db770889-841e-4da3-a06a-b49d371e26e1","system_id":"levelo_inurba_marseille","lat":43.284462,"lon":5.392121,"is_reserved":false,"is_disabled":false,"rental_uris":{"android":"levelo://app?vid=db770889-841e-4da3-a06a-b49d371e26e1","ios":"levelo://app?vid=db770889-841e-4da3-a06a-b49d371e26e1"},"vehicle_type_id":"4","last_reported":1685909176,"current_range_meters":29200,"station_id":"ce4bhoh2rcd13ifvqh5g","pricing_plan_id":"free"},{"bike_id":"659a5b53-1945-4fa2-bdaf-bf20093a6fae","system_id":"levelo_inurba_marseille","lat":43.284462,"lon":5.392121,"is_reserved":false,"is_disabled":false,"rental_uris":{"android":"levelo://app?vid=659a5b53-1945-4fa2-bdaf-bf20093a6fae","ios":"levelo://app?vid=659a5b53-1945-4fa2-bdaf-bf20093a6fae"},"vehicle_type_id":"4","last_reported":1685909176,"current_range_meters":12800,"station_id":"ce4bhoh2rcd13ifvqh5g","pricing_plan_id":"free"},{"bike_id":"c5ea5bd8-a4b4-408c-8e1f-f995f17a4c45","system_id":"levelo_inurba_marseille","lat":43.284462,"lon":5.392121,"is_reserved":false,"is_disabled":false,"rental_uris":{"android":"levelo://app?vid=c5ea5bd8-a4b4-408c-8e1f-f995f17a4c45","ios":"levelo://app?vid=c5ea5bd8-a4b4-408c-8e1f-f995f17a4c45"},"vehicle_type_id":"4","last_reported":1685909176,"current_range_meters":2800,"station_id":"ce4bhoh2rcd13ifvqh5g","pricing_plan_id":"free"},{"bike_id":"abd0cdb1-c01b-463d-ad2d-0572b6117400","system_id":"levelo_inurba_marseille","lat":43.285742,"lon":5.395004,"is_reserved":false,"is_disabled":false,"rental_uris":{"android":"levelo://app?vid=abd0cdb1-c01b-463d-ad2d-0572b6117400","ios":"levelo://app?vid=abd0cdb1-c01b-463d-ad2d-0572b6117400"},"vehicle_type_id":"4","last_reported":1685909176,"current_range_meters":19600,"station_id":"ce4bh292rcd13ifvqdg0","pricing_plan_id":"free"},{"bike_id":"aa655c6d-1429-48fd-8ede-7a4e7910975d","system_id":"levelo_inurba_marseille","lat":43.28573,"lon":5.394992,"is_reserved":false,"is_disabled":false,"rental_uris":{"android":"levelo://app?vid=aa655c6d-1429-48fd-8ede-7a4e7910975d","ios":"levelo://app?vid=aa655c6d-1429-48fd-8ede-7a4e7910975d"},"vehicle_type_id":"4","last_reported":1685909176,"current_range_meters":23600,"station_id":"ce4bh292rcd13ifvqdg0","pricing_plan_id":"free"},{"bike_id":"9fcb47be-8cc3-476e-ac3d-a7680864dc81","system_id":"levelo_inurba_marseille","lat":43.285742,"lon":5.395004,"is_reserved":false,"is_disabled":false,"rental_uris":{"android":"levelo://app?vid=9fcb47be-8cc3-476e-ac3d-a7680864dc81","ios":"levelo://app?vid=9fcb47be-8cc3-476e-ac3d-a7680864dc81"},"vehicle_type_id":"4","last_reported":1685909176,"current_range_meters":22000,"station_id":"ce4bh292rcd13ifvqdg0","pricing_plan_id":"free"},{"bike_id":"cd64c398-67c1-49b7-a2fe-5e7627b2a379","system_id":"levelo_inurba_marseille","lat":43.27903,"lon":5.38009,"is_reserved":false,"is_disabled":false,"rental_uris":{"android":"levelo://app?vid=cd64c398-67c1-49b7-a2fe-5e7627b2a379","ios":"levelo://app?vid=cd64c398-67c1-49b7-a2fe-5e7627b2a379"},"vehicle_type_id":"4","last_reported":1685909176,"current_range_meters":4000,"station_id":"","pricing_plan_id":"free"},{"bike_id":"a1087086-74df-49f8-ba06-0ad48a59311c","system_id":"levelo_inurba_marseille","lat":43.287154,"lon":5.399979,"is_reserved":false,"is_disabled":false,"rental_uris":{"android":"levelo://app?vid=a1087086-74df-49f8-ba06-0ad48a59311c","ios":"levelo://app?vid=a1087086-74df-49f8-ba06-0ad48a59311c"},"vehicle_type_id":"4","last_reported":1685909176,"current_range_meters":27200,"station_id":"ce4bho92rcd13ifvqh3g","pricing_plan_id":"free"},{"bike_id":"6802c24e-90cb-46e6-a2fe-8a6fc78c6a6a","system_id":"levelo_inurba_marseille","lat":43.287154,"lon":5.399979,"is_reserved":false,"is_disabled":false,"rental_uris":{"android":"levelo://app?vid=6802c24e-90cb-46e6-a2fe-8a6fc78c6a6a","ios":"levelo://app?vid=6802c24e-90cb-46e6-a2fe-8a6fc78c6a6a"},"vehicle_type_id":"4","last_reported":1685909176,"current_range_meters":14000,"station_id":"ce4bho92rcd13ifvqh3g","pricing_plan_id":"free"},{"bike_id":"0a980422-efd7-4b9c-aa3b-6d1e7ea34709","system_id":"levelo_inurba_marseille","lat":43.287154,"lon":5.399979,"is_reserved":false,"is_disabled":false,"rental_uris":{"android":"levelo://app?vid=0a980422-efd7-4b9c-aa3b-6d1e7ea34709","ios":"levelo://app?vid=0a980422-efd7-4b9c-aa3b-6d1e7ea34709"},"vehicle_type_id":"4","last_reported":1685909176,"current_range_meters":29600,"station_id":"ce4bho92rcd13ifvqh3g","pricing_plan_id":"free"},{"bike_id":"26f96591-54b0-49ac-bb10-bfe7fd3b3189","system_id":"levelo_inurba_marseille","lat":43.287154,"lon":5.399979,"is_reserved":false,"is_disabled":false,"rental_uris":{"android":"levelo://app?vid=26f96591-54b0-49ac-bb10-bfe7fd3b3189","ios":"levelo://app?vid=26f96591-54b0-49ac-bb10-bfe7fd3b3189"},"vehicle_type_id":"4","last_reported":1685909176,"current_range_meters":12800,"station_id":"ce4bho92rcd13ifvqh3g","pricing_plan_id":"free"},{"bike_id":"ddaf8132-bb6d-4239-8ce3-ceee64b7c727","system_id":"levelo_inurba_marseille","lat":43.287154,"lon":5.399979,"is_reserved":false,"is_disabled":false,"rental_uris":{"android":"levelo://app?vid=ddaf8132-bb6d-4239-8ce3-ceee64b7c727","ios":"levelo://app?vid=ddaf8132-bb6d-4239-8ce3-ceee64b7c727"},"vehicle_type_id":"4","last_reported":1685909176,"current_range_meters":24000,"station_id":"ce4bho92rcd13ifvqh3g","pricing_plan_id":"free"},{"bike_id":"f0b0f2a6-3c08-4051-aeaa-de03bf98adbe","system_id":"levelo_inurba_marseille","lat":43.287154,"lon":5.399979,"is_reserved":false,"is_disabled":false,"rental_uris":{"android":"levelo://app?vid=f0b0f2a6-3c08-4051-aeaa-de03bf98adbe","ios":"levelo://app?vid=f0b0f2a6-3c08-4051-aeaa-de03bf98adbe"},"vehicle_type_id":"4","last_reported":1685909176,"current_range_meters":15200,"station_id":"ce4bho92rcd13ifvqh3g","pricing_plan_id":"free"},{"bike_id":"f9641fbd-8e3e-4de1-af90-12b5d1293d70","system_id":"levelo_inurba_marseille","lat":43.287154,"lon":5.399979,"is_reserved":false,"is_disabled":false,"rental_uris":{"android":"levelo://app?vid=f9641fbd-8e3e-4de1-af90-12b5d1293d70","ios":"levelo://app?vid=f9641fbd-8e3e-4de1-af90-12b5d1293d70"},"vehicle_type_id":"4","last_reported":1685909176,"current_range_meters":4000,"station_id":"ce4bho92rcd13ifvqh3g","pricing_plan_id":"free"},{"bike_id":"781b2f7b-81ba-4c34-9163-b045dafe359c","system_id":"levelo_inurba_marseille","lat":43.32031,"lon":5.41561,"is_reserved":false,"is_disabled":false,"rental_uris":{"android":"levelo://app?vid=781b2f7b-81ba-4c34-9163-b045dafe359c","ios":"levelo://app?vid=781b2f7b-81ba-4c34-9163-b045dafe359c"},"vehicle_type_id":"4","last_reported":1685909176,"current_range_meters":30800,"station_id":"","pricing_plan_id":"free"},{"bike_id":"0c739346-4d08-4d79-a607-c879a11b59ec","system_id":"levelo_inurba_marseille","lat":43.3204,"lon":5.4156,"is_reserved":false,"is_disabled":false,"rental_uris":{"android":"levelo://app?vid=0c739346-4d08-4d79-a607-c879a11b59ec","ios":"levelo://app?vid=0c739346-4d08-4d79-a607-c879a11b59ec"},"vehicle_type_id":"4","last_reported":1685909176,"current_range_meters":29200,"station_id":"","pricing_plan_id":"free"},{"bike_id":"bc4dc0e7-b26e-44c4-b47d-2893123703b2","system_id":"levelo_inurba_marseille","lat":43.32028,"lon":5.41567,"is_reserved":false,"is_disabled":false,"rental_uris":{"android":"levelo://app?vid=bc4dc0e7-b26e-44c4-b47d-2893123703b2","ios":"levelo://app?vid=bc4dc0e7-b26e-44c4-b47d-2893123703b2"},"vehicle_type_id":"4","last_reported":1685909176,"current_range_meters":31600,"station_id":"","pricing_plan_id":"free"},{"bike_id":"ae6cf5cf-9fd5-42c0-8466-eb012fc96d25","system_id":"levelo_inurba_marseille","lat":43.32041,"lon":5.41573,"is_reserved":false,"is_disabled":false,"rental_uris":{"android":"levelo://app?vid=ae6cf5cf-9fd5-42c0-8466-eb012fc96d25","ios":"levelo://app?vid=ae6cf5cf-9fd5-42c0-8466-eb012fc96d25"},"vehicle_type_id":"4","last_reported":1685909176,"current_range_meters":31600,"station_id":"","pricing_plan_id":"free"},{"bike_id":"15292a35-debd-4d55-ab66-e14fe147b2b9","system_id":"levelo_inurba_marseille","lat":43.32045,"lon":5.41574,"is_reserved":false,"is_disabled":false,"rental_uris":{"android":"levelo://app?vid=15292a35-debd-4d55-ab66-e14fe147b2b9","ios":"levelo://app?vid=15292a35-debd-4d55-ab66-e14fe147b2b9"},"vehicle_type_id":"4","last_reported":1685909176,"current_range_meters":31600,"station_id":"","pricing_plan_id":"free"},{"bike_id":"85080033-a16e-4ce2-a186-35d0563746cb","system_id":"levelo_inurba_marseille","lat":43.32037,"lon":5.41577,"is_reserved":false,"is_disabled":false,"rental_uris":{"android":"levelo://app?vid=85080033-a16e-4ce2-a186-35d0563746cb","ios":"levelo://app?vid=85080033-a16e-4ce2-a186-35d0563746cb"},"vehicle_type_id":"4","last_reported":1685909176,"current_range_meters":29600,"station_id":"","pricing_plan_id":"free"},{"bike_id":"48222cf3-0b74-42d2-97ba-c10a4fafb0a5","system_id":"levelo_inurba_marseille","lat":43.325233,"lon":5.414318,"is_reserved":false,"is_disabled":false,"rental_uris":{"android":"levelo://app?vid=48222cf3-0b74-42d2-97ba-c10a4fafb0a5","ios":"levelo://app?vid=48222cf3-0b74-42d2-97ba-c10a4fafb0a5"},"vehicle_type_id":"4","last_reported":1685909176,"current_range_meters":27200,"station_id":"ce4bhq12rcd13ifvqhhg","pricing_plan_id":"free"},{"bike_id":"051f63df-91d4-4d07-b1c9-b8f8a04a872a","system_id":"levelo_inurba_marseille","lat":43.292569,"lon":5.409107,"is_reserved":false,"is_disabled":false,"rental_uris":{"android":"levelo://app?vid=051f63df-91d4-4d07-b1c9-b8f8a04a872a","ios":"levelo://app?vid=051f63df-91d4-4d07-b1c9-b8f8a04a872a"},"vehicle_type_id":"4","last_reported":1685909176,"current_range_meters":400,"station_id":"ce4bh192rcd13ifvqdc0","pricing_plan_id":"free"},{"bike_id":"b81bb189-f832-4d89-b6fc-c090d5608f89","system_id":"levelo_inurba_marseille","lat":43.27618,"lon":5.361009,"is_reserved":false,"is_disabled":false,"rental_uris":{"android":"levelo://app?vid=b81bb189-f832-4d89-b6fc-c090d5608f89","ios":"levelo://app?vid=b81bb189-f832-4d89-b6fc-c090d5608f89"},"vehicle_type_id":"4","last_reported":1685909176,"current_range_meters":8000,"station_id":"ce4bgj92rcd13ifvqbe0","pricing_plan_id":"free"},{"bike_id":"a6712b89-d487-4a8e-8db7-a8c40dcbf8b0","system_id":"levelo_inurba_marseille","lat":43.276179,"lon":5.361009,"is_reserved":false,"is_disabled":false,"rental_uris":{"android":"levelo://app?vid=a6712b89-d487-4a8e-8db7-a8c40dcbf8b0","ios":"levelo://app?vid=a6712b89-d487-4a8e-8db7-a8c40dcbf8b0"},"vehicle_type_id":"4","last_reported":1685909176,"current_range_meters":6800,"station_id":"ce4bgj92rcd13ifvqbe0","pricing_plan_id":"free"},{"bike_id":"3d50f876-29dc-4806-a2a3-f9022c193e37","system_id":"levelo_inurba_marseille","lat":43.280784,"lon":5.396622,"is_reserved":false,"is_disabled":false,"rental_uris":{"android":"levelo://app?vid=3d50f876-29dc-4806-a2a3-f9022c193e37","ios":"levelo://app?vid=3d50f876-29dc-4806-a2a3-f9022c193e37"},"vehicle_type_id":"4","last_reported":1685909176,"current_range_meters":25600,"station_id":"ce4bho12rcd13ifvqh2g","pricing_plan_id":"free"},{"bike_id":"4530ed75-080f-4210-a66b-f3cba387678d","system_id":"levelo_inurba_marseille","lat":43.280784,"lon":5.396622,"is_reserved":false,"is_disabled":false,"rental_uris":{"android":"levelo://app?vid=4530ed75-080f-4210-a66b-f3cba387678d","ios":"levelo://app?vid=4530ed75-080f-4210-a66b-f3cba387678d"},"vehicle_type_id":"4","last_reported":1685909176,"current_range_meters":0,"station_id":"ce4bho12rcd13ifvqh2g","pricing_plan_id":"free"},{"bike_id":"487f7800-7051-4a56-89c8-e5e16e3785a7","system_id":"levelo_inurba_marseille","lat":43.30355,"lon":5.41882,"is_reserved":false,"is_disabled":false,"rental_uris":{"android":"levelo://app?vid=487f7800-7051-4a56-89c8-e5e16e3785a7","ios":"levelo://app?vid=487f7800-7051-4a56-89c8-e5e16e3785a7"},"vehicle_type_id":"4","last_reported":1685909176,"current_range_meters":24000,"station_id":"","pricing_plan_id":"free"},{"bike_id":"ac5c4eb6-4a88-41a2-8d7e-c5704e7b7d38","system_id":"levelo_inurba_marseille","lat":43.273613,"lon":5.362705,"is_reserved":false,"is_disabled":false,"rental_uris":{"android":"levelo://app?vid=ac5c4eb6-4a88-41a2-8d7e-c5704e7b7d38","ios":"levelo://app?vid=ac5c4eb6-4a88-41a2-8d7e-c5704e7b7d38"},"vehicle_type_id":"4","last_reported":1685909176,"current_range_meters":18000,"station_id":"ce4bhbh2rcd13ifvqeo0","pricing_plan_id":"free"},{"bike_id":"ca37dd23-a978-484d-906d-31db028c6619","system_id":"levelo_inurba_marseille","lat":43.33612,"lon":5.410321,"is_reserved":false,"is_disabled":false,"rental_uris":{"android":"levelo://app?vid=ca37dd23-a978-484d-906d-31db028c6619","ios":"levelo://app?vid=ca37dd23-a978-484d-906d-31db028c6619"},"vehicle_type_id":"4","last_reported":1685909176,"current_range_meters":29200,"station_id":"ce4bhqh2rcd13ifvqhmg","pricing_plan_id":"free"},{"bike_id":"1e31b915-8e8a-4e54-b8ca-ebb05e21c605","system_id":"levelo_inurba_marseille","lat":43.33612,"lon":5.410321,"is_reserved":false,"is_disabled":false,"rental_uris":{"android":"levelo://app?vid=1e31b915-8e8a-4e54-b8ca-ebb05e21c605","ios":"levelo://app?vid=1e31b915-8e8a-4e54-b8ca-ebb05e21c605"},"vehicle_type_id":"4","last_reported":1685909176,"current_range_meters":31200,"station_id":"ce4bhqh2rcd13ifvqhmg","pricing_plan_id":"free"},{"bike_id":"a0ce69b6-2a99-41d3-9b06-0c60601ba64d","system_id":"levelo_inurba_marseille","lat":43.33612,"lon":5.410321,"is_reserved":false,"is_disabled":false,"rental_uris":{"android":"levelo://app?vid=a0ce69b6-2a99-41d3-9b06-0c60601ba64d","ios":"levelo://app?vid=a0ce69b6-2a99-41d3-9b06-0c60601ba64d"},"vehicle_type_id":"4","last_reported":1685909176,"current_range_meters":27200,"station_id":"ce4bhqh2rcd13ifvqhmg","pricing_plan_id":"free"},{"bike_id":"093e169f-be2b-4cfd-b5aa-3bd3b613db04","system_id":"levelo_inurba_marseille","lat":43.336134,"lon":5.410341,"is_reserved":false,"is_disabled":false,"rental_uris":{"android":"levelo://app?vid=093e169f-be2b-4cfd-b5aa-3bd3b613db04","ios":"levelo://app?vid=093e169f-be2b-4cfd-b5aa-3bd3b613db04"},"vehicle_type_id":"4","last_reported":1685909176,"current_range_meters":17200,"station_id":"ce4bhqh2rcd13ifvqhmg","pricing_plan_id":"free"},{"bike_id":"40cf1e56-6019-4564-96eb-6e9ed445ba7c","system_id":"levelo_inurba_marseille","lat":43.336134,"lon":5.410341,"is_reserved":false,"is_disabled":false,"rental_uris":{"android":"levelo://app?vid=40cf1e56-6019-4564-96eb-6e9ed445ba7c","ios":"levelo://app?vid=40cf1e56-6019-4564-96eb-6e9ed445ba7c"},"vehicle_type_id":"4","last_reported":1685909176,"current_range_meters":24800,"station_id":"ce4bhqh2rcd13ifvqhmg","pricing_plan_id":"free"},{"bike_id":"4c1181ed-ab27-4a52-bc6a-0abba062fb72","system_id":"levelo_inurba_marseille","lat":43.336134,"lon":5.410341,"is_reserved":false,"is_disabled":false,"rental_uris":{"android":"levelo://app?vid=4c1181ed-ab27-4a52-bc6a-0abba062fb72","ios":"levelo://app?vid=4c1181ed-ab27-4a52-bc6a-0abba062fb72"},"vehicle_type_id":"4","last_reported":1685909176,"current_range_meters":30000,"station_id":"ce4bhqh2rcd13ifvqhmg","pricing_plan_id":"free"},{"bike_id":"a247455c-0c98-49b1-ac71-b4521489bdba","system_id":"levelo_inurba_marseille","lat":43.336134,"lon":5.410341,"is_reserved":false,"is_disabled":false,"rental_uris":{"android":"levelo://app?vid=a247455c-0c98-49b1-ac71-b4521489bdba","ios":"levelo://app?vid=a247455c-0c98-49b1-ac71-b4521489bdba"},"vehicle_type_id":"4","last_reported":1685909176,"current_range_meters":23600,"station_id":"ce4bhqh2rcd13ifvqhmg","pricing_plan_id":"free"},{"bike_id":"d468aecf-0ebc-4bca-857e-c7c7eac1f876","system_id":"levelo_inurba_marseille","lat":43.275243,"lon":5.384237,"is_reserved":false,"is_disabled":false,"rental_uris":{"android":"levelo://app?vid=d468aecf-0ebc-4bca-857e-c7c7eac1f876","ios":"levelo://app?vid=d468aecf-0ebc-4bca-857e-c7c7eac1f876"},"vehicle_type_id":"4","last_reported":1685909176,"current_range_meters":0,"station_id":"","pricing_plan_id":"free"},{"bike_id":"ca64bed7-0455-4a75-9384-6f4bb75fe4ac","system_id":"levelo_inurba_marseille","lat":43.31083,"lon":5.42421,"is_reserved":false,"is_disabled":false,"rental_uris":{"android":"levelo://app?vid=ca64bed7-0455-4a75-9384-6f4bb75fe4ac","ios":"levelo://app?vid=ca64bed7-0455-4a75-9384-6f4bb75fe4ac"},"vehicle_type_id":"4","last_reported":1685909176,"current_range_meters":19200,"station_id":"ce4bhp92rcd13ifvqhag","pricing_plan_id":"free"},{"bike_id":"ab6d6429-fa78-47e2-adf7-46b46f942428","system_id":"levelo_inurba_marseille","lat":43.317121,"lon":5.423936,"is_reserved":false,"is_disabled":false,"rental_uris":{"android":"levelo://app?vid=ab6d6429-fa78-47e2-adf7-46b46f942428","ios":"levelo://app?vid=ab6d6429-fa78-47e2-adf7-46b46f942428"},"vehicle_type_id":"4","last_reported":1685909176,"current_range_meters":29600,"station_id":"ce4bhp92rcd13ifvqhbg","pricing_plan_id":"free"},{"bike_id":"9db9545d-f63d-42be-a674-9c25625f916b","system_id":"levelo_inurba_marseille","lat":43.29398,"lon":5.4193,"is_reserved":false,"is_disabled":false,"rental_uris":{"android":"levelo://app?vid=9db9545d-f63d-42be-a674-9c25625f916b","ios":"levelo://app?vid=9db9545d-f63d-42be-a674-9c25625f916b"},"vehicle_type_id":"4","last_reported":1685909176,"current_range_meters":6800,"station_id":"","pricing_plan_id":"free"},{"bike_id":"91eae25d-e648-46e8-b7e9-cedfd0bab9be","system_id":"levelo_inurba_marseille","lat":43.27421,"lon":5.39412,"is_reserved":false,"is_disabled":false,"rental_uris":{"android":"levelo://app?vid=91eae25d-e648-46e8-b7e9-cedfd0bab9be","ios":"levelo://app?vid=91eae25d-e648-46e8-b7e9-cedfd0bab9be"},"vehicle_type_id":"4","last_reported":1685909176,"current_range_meters":7600,"station_id":"","pricing_plan_id":"free"},{"bike_id":"e5a2e4eb-2037-48bf-a497-bb45ae596a04","system_id":"levelo_inurba_marseille","lat":43.304096,"lon":5.425385,"is_reserved":false,"is_disabled":false,"rental_uris":{"android":"levelo://app?vid=e5a2e4eb-2037-48bf-a497-bb45ae596a04","ios":"levelo://app?vid=e5a2e4eb-2037-48bf-a497-bb45ae596a04"},"vehicle_type_id":"4","last_reported":1685909176,"current_range_meters":22800,"station_id":"ce4bhoh2rcd13ifvqh6g","pricing_plan_id":"free"},{"bike_id":"4d80717c-1ab1-4ff1-8e16-4b8981f90281","system_id":"levelo_inurba_marseille","lat":43.32707,"lon":5.42344,"is_reserved":false,"is_disabled":false,"rental_uris":{"android":"levelo://app?vid=4d80717c-1ab1-4ff1-8e16-4b8981f90281","ios":"levelo://app?vid=4d80717c-1ab1-4ff1-8e16-4b8981f90281"},"vehicle_type_id":"4","last_reported":1685909176,"current_range_meters":25200,"station_id":"","pricing_plan_id":"free"},{"bike_id":"12e32508-d087-4fb5-b483-3b2a5b65861e","system_id":"levelo_inurba_marseille","lat":43.27121,"lon":5.38718,"is_reserved":false,"is_disabled":false,"rental_uris":{"android":"levelo://app?vid=12e32508-d087-4fb5-b483-3b2a5b65861e","ios":"levelo://app?vid=12e32508-d087-4fb5-b483-3b2a5b65861e"},"vehicle_type_id":"4","last_reported":1685909176,"current_range_meters":28400,"station_id":"","pricing_plan_id":"free"},{"bike_id":"629ddbd0-7d9b-4dc0-a7eb-09e1d9540a47","system_id":"levelo_inurba_marseille","lat":43.27123,"lon":5.38732,"is_reserved":false,"is_disabled":false,"rental_uris":{"android":"levelo://app?vid=629ddbd0-7d9b-4dc0-a7eb-09e1d9540a47","ios":"levelo://app?vid=629ddbd0-7d9b-4dc0-a7eb-09e1d9540a47"},"vehicle_type_id":"4","last_reported":1685909176,"current_range_meters":19200,"station_id":"","pricing_plan_id":"free"},{"bike_id":"2eafccb8-077c-497e-a302-a75a1d03ef07","system_id":"levelo_inurba_marseille","lat":43.295523,"lon":5.422926,"is_reserved":false,"is_disabled":false,"rental_uris":{"android":"levelo://app?vid=2eafccb8-077c-497e-a302-a75a1d03ef07","ios":"levelo://app?vid=2eafccb8-077c-497e-a302-a75a1d03ef07"},"vehicle_type_id":"4","last_reported":1685909176,"current_range_meters":14000,"station_id":"ce4bhph2rcd13ifvqhdg","pricing_plan_id":"free"},{"bike_id":"351ae20f-251c-4019-86fa-d22e047e5940","system_id":"levelo_inurba_marseille","lat":43.295511,"lon":5.422926,"is_reserved":false,"is_disabled":false,"rental_uris":{"android":"levelo://app?vid=351ae20f-251c-4019-86fa-d22e047e5940","ios":"levelo://app?vid=351ae20f-251c-4019-86fa-d22e047e5940"},"vehicle_type_id":"4","last_reported":1685909176,"current_range_meters":11600,"station_id":"ce4bhph2rcd13ifvqhdg","pricing_plan_id":"free"},{"bike_id":"d575bf42-fc5d-4033-8521-8521072afc91","system_id":"levelo_inurba_marseille","lat":43.269467,"lon":5.386439,"is_reserved":false,"is_disabled":false,"rental_uris":{"android":"levelo://app?vid=d575bf42-fc5d-4033-8521-8521072afc91","ios":"levelo://app?vid=d575bf42-fc5d-4033-8521-8521072afc91"},"vehicle_type_id":"4","last_reported":1685909176,"current_range_meters":13200,"station_id":"ce4bhh92rcd13ifvqfh0","pricing_plan_id":"free"},{"bike_id":"236ecc8f-313c-47df-a503-2aecdae1f0b7","system_id":"levelo_inurba_marseille","lat":43.269467,"lon":5.386439,"is_reserved":false,"is_disabled":false,"rental_uris":{"android":"levelo://app?vid=236ecc8f-313c-47df-a503-2aecdae1f0b7","ios":"levelo://app?vid=236ecc8f-313c-47df-a503-2aecdae1f0b7"},"vehicle_type_id":"4","last_reported":1685909176,"current_range_meters":21200,"station_id":"ce4bhh92rcd13ifvqfh0","pricing_plan_id":"free"},{"bike_id":"aef134ce-2d17-45e0-a859-c3414435b01c","system_id":"levelo_inurba_marseille","lat":43.269319,"lon":5.389397,"is_reserved":false,"is_disabled":false,"rental_uris":{"android":"levelo://app?vid=aef134ce-2d17-45e0-a859-c3414435b01c","ios":"levelo://app?vid=aef134ce-2d17-45e0-a859-c3414435b01c"},"vehicle_type_id":"4","last_reported":1685909176,"current_range_meters":19200,"station_id":"ce4bhhh2rcd13ifvqfl0","pricing_plan_id":"free"},{"bike_id":"539b6c49-e8d5-4bd4-a92b-4935127bd849","system_id":"levelo_inurba_marseille","lat":43.26681,"lon":5.382694,"is_reserved":false,"is_disabled":false,"rental_uris":{"android":"levelo://app?vid=539b6c49-e8d5-4bd4-a92b-4935127bd849","ios":"levelo://app?vid=539b6c49-e8d5-4bd4-a92b-4935127bd849"},"vehicle_type_id":"4","last_reported":1685909176,"current_range_meters":22000,"station_id":"ce4bhg92rcd13ifvqf90","pricing_plan_id":"free"},{"bike_id":"477c9b24-a1bd-4af2-9e3a-7a10b9af13d1","system_id":"levelo_inurba_marseille","lat":43.31705,"lon":5.43325,"is_reserved":false,"is_disabled":false,"rental_uris":{"android":"levelo://app?vid=477c9b24-a1bd-4af2-9e3a-7a10b9af13d1","ios":"levelo://app?vid=477c9b24-a1bd-4af2-9e3a-7a10b9af13d1"},"vehicle_type_id":"4","last_reported":1685909176,"current_range_meters":0,"station_id":"","pricing_plan_id":"free"},{"bike_id":"9c349348-3b18-435c-be9a-77fde3af9355","system_id":"levelo_inurba_marseille","lat":43.27996,"lon":5.416624,"is_reserved":false,"is_disabled":false,"rental_uris":{"android":"levelo://app?vid=9c349348-3b18-435c-be9a-77fde3af9355","ios":"levelo://app?vid=9c349348-3b18-435c-be9a-77fde3af9355"},"vehicle_type_id":"4","last_reported":1685909176,"current_range_meters":15600,"station_id":"ce4bho12rcd13ifvqh1g","pricing_plan_id":"free"},{"bike_id":"49b21e3a-5ba5-44b4-a97e-addecb9cc27b","system_id":"levelo_inurba_marseille","lat":43.27996,"lon":5.416624,"is_reserved":false,"is_disabled":false,"rental_uris":{"android":"levelo://app?vid=49b21e3a-5ba5-44b4-a97e-addecb9cc27b","ios":"levelo://app?vid=49b21e3a-5ba5-44b4-a97e-addecb9cc27b"},"vehicle_type_id":"4","last_reported":1685909176,"current_range_meters":29600,"station_id":"ce4bho12rcd13ifvqh1g","pricing_plan_id":"free"},{"bike_id":"74f1e9f7-a5aa-4929-abf0-a6906e5ab818","system_id":"levelo_inurba_marseille","lat":43.27996,"lon":5.416624,"is_reserved":false,"is_disabled":false,"rental_uris":{"android":"levelo://app?vid=74f1e9f7-a5aa-4929-abf0-a6906e5ab818","ios":"levelo://app?vid=74f1e9f7-a5aa-4929-abf0-a6906e5ab818"},"vehicle_type_id":"4","last_reported":1685909176,"current_range_meters":15600,"station_id":"ce4bho12rcd13ifvqh1g","pricing_plan_id":"free"},{"bike_id":"57143554-6bd2-4ac3-a9a3-581bc0ed1a91","system_id":"levelo_inurba_marseille","lat":43.27996,"lon":5.416624,"is_reserved":false,"is_disabled":false,"rental_uris":{"android":"levelo://app?vid=57143554-6bd2-4ac3-a9a3-581bc0ed1a91","ios":"levelo://app?vid=57143554-6bd2-4ac3-a9a3-581bc0ed1a91"},"vehicle_type_id":"4","last_reported":1685909176,"current_range_meters":25200,"station_id":"ce4bho12rcd13ifvqh1g","pricing_plan_id":"free"},{"bike_id":"40e05c92-1e4d-4252-816e-fff9d0094978","system_id":"levelo_inurba_marseille","lat":43.265789,"lon":5.389963,"is_reserved":false,"is_disabled":false,"rental_uris":{"android":"levelo://app?vid=40e05c92-1e4d-4252-816e-fff9d0094978","ios":"levelo://app?vid=40e05c92-1e4d-4252-816e-fff9d0094978"},"vehicle_type_id":"4","last_reported":1685909176,"current_range_meters":28000,"station_id":"","pricing_plan_id":"free"},{"bike_id":"cad3f61b-aff3-47d9-81dc-aaa133128c0f","system_id":"levelo_inurba_marseille","lat":43.26565,"lon":5.39001,"is_reserved":false,"is_disabled":false,"rental_uris":{"android":"levelo://app?vid=cad3f61b-aff3-47d9-81dc-aaa133128c0f","ios":"levelo://app?vid=cad3f61b-aff3-47d9-81dc-aaa133128c0f"},"vehicle_type_id":"4","last_reported":1685909176,"current_range_meters":22000,"station_id":"ce4bhe12rcd13ifvqf30","pricing_plan_id":"free"},{"bike_id":"f5236276-e859-4218-87e7-aabdce2e73d3","system_id":"levelo_inurba_marseille","lat":43.26209,"lon":5.37046,"is_reserved":false,"is_disabled":false,"rental_uris":{"android":"levelo://app?vid=f5236276-e859-4218-87e7-aabdce2e73d3","ios":"levelo://app?vid=f5236276-e859-4218-87e7-aabdce2e73d3"},"vehicle_type_id":"4","last_reported":1685909176,"current_range_meters":8800,"station_id":"","pricing_plan_id":"free"},{"bike_id":"2a48043e-0223-418b-bf9b-d91374083f1f","system_id":"levelo_inurba_marseille","lat":43.317104,"lon":5.436818,"is_reserved":false,"is_disabled":false,"rental_uris":{"android":"levelo://app?vid=2a48043e-0223-418b-bf9b-d91374083f1f","ios":"levelo://app?vid=2a48043e-0223-418b-bf9b-d91374083f1f"},"vehicle_type_id":"4","last_reported":1685909176,"current_range_meters":24000,"station_id":"ce4bhp92rcd13ifvqhcg","pricing_plan_id":"free"},{"bike_id":"e86061b1-ba0b-4f58-a772-bccac4df96f4","system_id":"levelo_inurba_marseille","lat":43.317104,"lon":5.436818,"is_reserved":false,"is_disabled":false,"rental_uris":{"android":"levelo://app?vid=e86061b1-ba0b-4f58-a772-bccac4df96f4","ios":"levelo://app?vid=e86061b1-ba0b-4f58-a772-bccac4df96f4"},"vehicle_type_id":"4","last_reported":1685909176,"current_range_meters":18800,"station_id":"ce4bhp92rcd13ifvqhcg","pricing_plan_id":"free"},{"bike_id":"c2b397fb-dd16-4a5f-9688-8c8813307451","system_id":"levelo_inurba_marseille","lat":43.317104,"lon":5.436818,"is_reserved":false,"is_disabled":false,"rental_uris":{"android":"levelo://app?vid=c2b397fb-dd16-4a5f-9688-8c8813307451","ios":"levelo://app?vid=c2b397fb-dd16-4a5f-9688-8c8813307451"},"vehicle_type_id":"4","last_reported":1685909176,"current_range_meters":31600,"station_id":"ce4bhp92rcd13ifvqhcg","pricing_plan_id":"free"},{"bike_id":"4a0360a4-aea3-4627-8ba5-026f41514ca5","system_id":"levelo_inurba_marseille","lat":43.267959,"lon":5.402685,"is_reserved":false,"is_disabled":false,"rental_uris":{"android":"levelo://app?vid=4a0360a4-aea3-4627-8ba5-026f41514ca5","ios":"levelo://app?vid=4a0360a4-aea3-4627-8ba5-026f41514ca5"},"vehicle_type_id":"4","last_reported":1685909176,"current_range_meters":12800,"station_id":"ce501612rcd8frsf0b60","pricing_plan_id":"free"},{"bike_id":"6c3aba5a-9bd9-4645-8fde-1b923c089b7d","system_id":"levelo_inurba_marseille","lat":43.267959,"lon":5.402685,"is_reserved":false,"is_disabled":false,"rental_uris":{"android":"levelo://app?vid=6c3aba5a-9bd9-4645-8fde-1b923c089b7d","ios":"levelo://app?vid=6c3aba5a-9bd9-4645-8fde-1b923c089b7d"},"vehicle_type_id":"4","last_reported":1685909176,"current_range_meters":4000,"station_id":"ce501612rcd8frsf0b60","pricing_plan_id":"free"},{"bike_id":"d8c37772-ff72-438b-bc5b-9dc4f9de9647","system_id":"levelo_inurba_marseille","lat":43.267959,"lon":5.402685,"is_reserved":false,"is_disabled":false,"rental_uris":{"android":"levelo://app?vid=d8c37772-ff72-438b-bc5b-9dc4f9de9647","ios":"levelo://app?vid=d8c37772-ff72-438b-bc5b-9dc4f9de9647"},"vehicle_type_id":"4","last_reported":1685909176,"current_range_meters":18400,"station_id":"ce501612rcd8frsf0b60","pricing_plan_id":"free"},{"bike_id":"285b7d8c-aa2a-41e2-b83f-c6fc642ee70c","system_id":"levelo_inurba_marseille","lat":43.267959,"lon":5.402685,"is_reserved":false,"is_disabled":false,"rental_uris":{"android":"levelo://app?vid=285b7d8c-aa2a-41e2-b83f-c6fc642ee70c","ios":"levelo://app?vid=285b7d8c-aa2a-41e2-b83f-c6fc642ee70c"},"vehicle_type_id":"4","last_reported":1685909176,"current_range_meters":30400,"station_id":"ce501612rcd8frsf0b60","pricing_plan_id":"free"},{"bike_id":"9a260f6b-6a8c-46e6-8f18-8f5948ada270","system_id":"levelo_inurba_marseille","lat":43.267959,"lon":5.402685,"is_reserved":false,"is_disabled":false,"rental_uris":{"android":"levelo://app?vid=9a260f6b-6a8c-46e6-8f18-8f5948ada270","ios":"levelo://app?vid=9a260f6b-6a8c-46e6-8f18-8f5948ada270"},"vehicle_type_id":"4","last_reported":1685909176,"current_range_meters":16000,"station_id":"ce501612rcd8frsf0b60","pricing_plan_id":"free"},{"bike_id":"9162717f-cbf7-4939-82c1-12563212bda6","system_id":"levelo_inurba_marseille","lat":43.267959,"lon":5.402685,"is_reserved":false,"is_disabled":false,"rental_uris":{"android":"levelo://app?vid=9162717f-cbf7-4939-82c1-12563212bda6","ios":"levelo://app?vid=9162717f-cbf7-4939-82c1-12563212bda6"},"vehicle_type_id":"4","last_reported":1685909176,"current_range_meters":22000,"station_id":"ce501612rcd8frsf0b60","pricing_plan_id":"free"},{"bike_id":"0c7e68e6-250b-4b17-b40b-cc0cd1c552fc","system_id":"levelo_inurba_marseille","lat":43.298768,"lon":5.43643,"is_reserved":false,"is_disabled":false,"rental_uris":{"android":"levelo://app?vid=0c7e68e6-250b-4b17-b40b-cc0cd1c552fc","ios":"levelo://app?vid=0c7e68e6-250b-4b17-b40b-cc0cd1c552fc"},"vehicle_type_id":"4","last_reported":1685909176,"current_range_meters":15200,"station_id":"ce4bhpp2rcd13ifvqhfg","pricing_plan_id":"free"},{"bike_id":"a4846944-1054-48ec-96ae-e0c636e0ac4f","system_id":"levelo_inurba_marseille","lat":43.298768,"lon":5.43643,"is_reserved":false,"is_disabled":false,"rental_uris":{"android":"levelo://app?vid=a4846944-1054-48ec-96ae-e0c636e0ac4f","ios":"levelo://app?vid=a4846944-1054-48ec-96ae-e0c636e0ac4f"},"vehicle_type_id":"4","last_reported":1685909176,"current_range_meters":1200,"station_id":"ce4bhpp2rcd13ifvqhfg","pricing_plan_id":"free"},{"bike_id":"4856bc1f-3f57-4f2c-864d-936564af673b","system_id":"levelo_inurba_marseille","lat":43.2607,"lon":5.393983,"is_reserved":false,"is_disabled":false,"rental_uris":{"android":"levelo://app?vid=4856bc1f-3f57-4f2c-864d-936564af673b","ios":"levelo://app?vid=4856bc1f-3f57-4f2c-864d-936564af673b"},"vehicle_type_id":"4","last_reported":1685909176,"current_range_meters":14800,"station_id":"ce4bhh92rcd13ifvqfj0","pricing_plan_id":"free"},{"bike_id":"aeee3528-6c91-4919-aa9d-d496751b62e0","system_id":"levelo_inurba_marseille","lat":43.317104,"lon":5.436818,"is_reserved":false,"is_disabled":false,"rental_uris":{"android":"levelo://app?vid=aeee3528-6c91-4919-aa9d-d496751b62e0","ios":"levelo://app?vid=aeee3528-6c91-4919-aa9d-d496751b62e0"},"vehicle_type_id":"4","last_reported":1685909176,"current_range_meters":20800,"station_id":"ce4bhp92rcd13ifvqhcg","pricing_plan_id":"free"},{"bike_id":"9fa4bea2-c552-4074-bef0-ba0ca07cd80c","system_id":"levelo_inurba_marseille","lat":43.260912,"lon":5.397584,"is_reserved":false,"is_disabled":false,"rental_uris":{"android":"levelo://app?vid=9fa4bea2-c552-4074-bef0-ba0ca07cd80c","ios":"levelo://app?vid=9fa4bea2-c552-4074-bef0-ba0ca07cd80c"},"vehicle_type_id":"4","last_reported":1685909176,"current_range_meters":7200,"station_id":"ce4bhi12rcd13ifvqfq0","pricing_plan_id":"free"},{"bike_id":"8f87b84b-9bce-42d0-b2f6-5811a0549e80","system_id":"levelo_inurba_marseille","lat":43.27072,"lon":5.42274,"is_reserved":false,"is_disabled":false,"rental_uris":{"android":"levelo://app?vid=8f87b84b-9bce-42d0-b2f6-5811a0549e80","ios":"levelo://app?vid=8f87b84b-9bce-42d0-b2f6-5811a0549e80"},"vehicle_type_id":"4","last_reported":1685909176,"current_range_meters":28800,"station_id":"ce4bhk92rcd13ifvqgb0","pricing_plan_id":"free"},{"bike_id":"aaab906e-9935-40a6-b90b-1415de55e044","system_id":"levelo_inurba_marseille","lat":43.27072,"lon":5.42277,"is_reserved":false,"is_disabled":false,"rental_uris":{"android":"levelo://app?vid=aaab906e-9935-40a6-b90b-1415de55e044","ios":"levelo://app?vid=aaab906e-9935-40a6-b90b-1415de55e044"},"vehicle_type_id":"4","last_reported":1685909176,"current_range_meters":28800,"station_id":"ce4bhk92rcd13ifvqgb0","pricing_plan_id":"free"},{"bike_id":"77d0cbfe-6d79-44d3-a6cb-6a7978c04ef5","system_id":"levelo_inurba_marseille","lat":43.270721,"lon":5.422764,"is_reserved":false,"is_disabled":false,"rental_uris":{"android":"levelo://app?vid=77d0cbfe-6d79-44d3-a6cb-6a7978c04ef5","ios":"levelo://app?vid=77d0cbfe-6d79-44d3-a6cb-6a7978c04ef5"},"vehicle_type_id":"4","last_reported":1685909176,"current_range_meters":15200,"station_id":"ce4bhk92rcd13ifvqgb0","pricing_plan_id":"free"},{"bike_id":"3a29b695-70e3-46dc-9a8f-e3fd7a75d65b","system_id":"levelo_inurba_marseille","lat":43.258658,"lon":5.398935,"is_reserved":false,"is_disabled":false,"rental_uris":{"android":"levelo://app?vid=3a29b695-70e3-46dc-9a8f-e3fd7a75d65b","ios":"levelo://app?vid=3a29b695-70e3-46dc-9a8f-e3fd7a75d65b"},"vehicle_type_id":"4","last_reported":1685909176,"current_range_meters":17600,"station_id":"ce4bhl92rcd13ifvqghg","pricing_plan_id":"free"},{"bike_id":"06210bb0-1c2f-44c9-a2f5-d6b247a20695","system_id":"levelo_inurba_marseille","lat":43.33318,"lon":5.44288,"is_reserved":false,"is_disabled":false,"rental_uris":{"android":"levelo://app?vid=06210bb0-1c2f-44c9-a2f5-d6b247a20695","ios":"levelo://app?vid=06210bb0-1c2f-44c9-a2f5-d6b247a20695"},"vehicle_type_id":"4","last_reported":1685909176,"current_range_meters":28400,"station_id":"","pricing_plan_id":"free"},{"bike_id":"8a065f1c-914c-4e39-9a27-b733ec5a900d","system_id":"levelo_inurba_marseille","lat":43.25293,"lon":5.37872,"is_reserved":false,"is_disabled":false,"rental_uris":{"android":"levelo://app?vid=8a065f1c-914c-4e39-9a27-b733ec5a900d","ios":"levelo://app?vid=8a065f1c-914c-4e39-9a27-b733ec5a900d"},"vehicle_type_id":"4","last_reported":1685909176,"current_range_meters":21600,"station_id":"","pricing_plan_id":"free"},{"bike_id":"1f83756e-58a3-4c8a-8892-56b251548a96","system_id":"levelo_inurba_marseille","lat":43.259013,"lon":5.409301,"is_reserved":false,"is_disabled":false,"rental_uris":{"android":"levelo://app?vid=1f83756e-58a3-4c8a-8892-56b251548a96","ios":"levelo://app?vid=1f83756e-58a3-4c8a-8892-56b251548a96"},"vehicle_type_id":"4","last_reported":1685909176,"current_range_meters":8000,"station_id":"ce4bhm92rcd13ifvqglg","pricing_plan_id":"free"},{"bike_id":"392d0f2f-0cfa-42a0-904e-ed7ce32d7b89","system_id":"levelo_inurba_marseille","lat":43.250023,"lon":5.38919,"is_reserved":false,"is_disabled":false,"rental_uris":{"android":"levelo://app?vid=392d0f2f-0cfa-42a0-904e-ed7ce32d7b89","ios":"levelo://app?vid=392d0f2f-0cfa-42a0-904e-ed7ce32d7b89"},"vehicle_type_id":"4","last_reported":1685909176,"current_range_meters":6000,"station_id":"ce4bhgp2rcd13ifvqfd0","pricing_plan_id":"free"},{"bike_id":"4f74759f-6f7e-4485-be8b-518774f81572","system_id":"levelo_inurba_marseille","lat":43.250009,"lon":5.389195,"is_reserved":false,"is_disabled":false,"rental_uris":{"android":"levelo://app?vid=4f74759f-6f7e-4485-be8b-518774f81572","ios":"levelo://app?vid=4f74759f-6f7e-4485-be8b-518774f81572"},"vehicle_type_id":"4","last_reported":1685909176,"current_range_meters":22000,"station_id":"ce4bhgp2rcd13ifvqfd0","pricing_plan_id":"free"},{"bike_id":"a0a5e8e3-015d-46a6-ba0a-834ebf706b18","system_id":"levelo_inurba_marseille","lat":43.24812,"lon":5.37453,"is_reserved":false,"is_disabled":false,"rental_uris":{"android":"levelo://app?vid=a0a5e8e3-015d-46a6-ba0a-834ebf706b18","ios":"levelo://app?vid=a0a5e8e3-015d-46a6-ba0a-834ebf706b18"},"vehicle_type_id":"4","last_reported":1685909176,"current_range_meters":2800,"station_id":"ce4bhgh2rcd13ifvqfb0","pricing_plan_id":"free"},{"bike_id":"8e92b759-e687-4bab-9c06-b625bf0e206f","system_id":"levelo_inurba_marseille","lat":43.24806,"lon":5.37449,"is_reserved":false,"is_disabled":false,"rental_uris":{"android":"levelo://app?vid=8e92b759-e687-4bab-9c06-b625bf0e206f","ios":"levelo://app?vid=8e92b759-e687-4bab-9c06-b625bf0e206f"},"vehicle_type_id":"4","last_reported":1685909176,"current_range_meters":10000,"station_id":"ce4bhgh2rcd13ifvqfb0","pricing_plan_id":"free"},{"bike_id":"058d48de-be8f-4a3d-bb83-388d1cf547e0","system_id":"levelo_inurba_marseille","lat":43.24805,"lon":5.3746,"is_reserved":false,"is_disabled":false,"rental_uris":{"android":"levelo://app?vid=058d48de-be8f-4a3d-bb83-388d1cf547e0","ios":"levelo://app?vid=058d48de-be8f-4a3d-bb83-388d1cf547e0"},"vehicle_type_id":"4","last_reported":1685909176,"current_range_meters":0,"station_id":"ce4bhgh2rcd13ifvqfb0","pricing_plan_id":"free"},{"bike_id":"5938e8ce-c35b-449a-bc78-d646c4492ccd","system_id":"levelo_inurba_marseille","lat":43.250966,"lon":5.395186,"is_reserved":false,"is_disabled":false,"rental_uris":{"android":"levelo://app?vid=5938e8ce-c35b-449a-bc78-d646c4492ccd","ios":"levelo://app?vid=5938e8ce-c35b-449a-bc78-d646c4492ccd"},"vehicle_type_id":"4","last_reported":1685909176,"current_range_meters":25600,"station_id":"ce4bhm12rcd13ifvqgkg","pricing_plan_id":"free"},{"bike_id":"43ba46cc-f835-44f3-a520-c290aa96d6c1","system_id":"levelo_inurba_marseille","lat":43.250966,"lon":5.395186,"is_reserved":false,"is_disabled":false,"rental_uris":{"android":"levelo://app?vid=43ba46cc-f835-44f3-a520-c290aa96d6c1","ios":"levelo://app?vid=43ba46cc-f835-44f3-a520-c290aa96d6c1"},"vehicle_type_id":"4","last_reported":1685909176,"current_range_meters":21600,"station_id":"ce4bhm12rcd13ifvqgkg","pricing_plan_id":"free"},{"bike_id":"ed1f625e-6f8a-486a-95f5-0e82d6633078","system_id":"levelo_inurba_marseille","lat":43.250966,"lon":5.395186,"is_reserved":false,"is_disabled":false,"rental_uris":{"android":"levelo://app?vid=ed1f625e-6f8a-486a-95f5-0e82d6633078","ios":"levelo://app?vid=ed1f625e-6f8a-486a-95f5-0e82d6633078"},"vehicle_type_id":"4","last_reported":1685909176,"current_range_meters":28800,"station_id":"ce4bhm12rcd13ifvqgkg","pricing_plan_id":"free"},