{"last_updated":1768288631,"ttl":60,"version":"2.2","data":{"bikes":[{"bike_id":"8c4e7e32-a39f-4449-88b1-69941cb755fd","system_id":"levelo_inurba_marseille","lat":43.27816,"lon":5.40718,"is_reserved":false,"is_disabled":false,"rental_uris":{"android":"levelo://app?vid=8c4e7e32-a39f-4449-88b1-69941cb755fd","ios":"levelo://app?vid=8c4e7e32-a39f-4449-88b1-69941cb755fd"},"vehicle_type_id":"4","last_reported":1768288632,"current_range_meters":2800,"station_id":"ce4bhnh2rcd13ifvqgtg","pricing_plan_id":"cebpf4jnsgd1na2vs0mg"},{"bike_id":"7c2a7247-1757-4f73-86d7-4e2145cd68ac","system_id":"levelo_inurba_marseille","lat":43.2907,"lon":5.37203,"is_reserved":false,"is_disabled":false,"rental_uris":{"android":"levelo://app?vid=7c2a7247-1757-4f73-86d7-4e2145cd68ac","ios":"levelo://app?vid=7c2a7247-1757-4f73-86d7-4e2145cd68ac"},"vehicle_type_id":"4","last_reported":1768288632,"current_range_meters":2800,"station_id":"ce4bh5p2rcd13ifvqe4g","pricing_plan_id":"cebpf4jnsgd1na2vs0mg"},{"bike_id":"eb9a9176-f9a7-487b-849a-a6826b1f0ee1","system_id":"levelo_inurba_marseille","lat":43.305532,"lon":5.384421,"is_reserved":false,"is_disabled":false,"rental_uris":{"android":"levelo://app?vid=eb9a9176-f9a7-487b-849a-a6826b1f0ee1","ios":"levelo://app?vid=eb9a9176-f9a7-487b-849a-a6826b1f0ee1"},"vehicle_type_id":"4","last_reported":1768288632,"current_range_meters":2800,"station_id":"ce4bgg92rcd13ifvqb30","pricing_plan_id":"cebpf4jnsgd1na2vs0mg"},{"bike_id":"2c79ba8b-e186-4531-bb05-ea95004575af","system_id":"levelo_inurba_marseille","lat":43.30187,"lon":5.38065,"is_reserved":false,"is_disabled":false,"rental_uris":{"android":"levelo://app?vid=2c79ba8b-e186-4531-bb05-ea95004575af","ios":"levelo://app?vid=2c79ba8b-e186-4531-bb05-ea95004575af"},"vehicle_type_id":"4","last_reported":1768288632,"current_range_meters":2800,"station_id":"","pricing_plan_id":"cebpf4jnsgd1na2vs0mg"},{"bike_id":"0b89e391-f907-49b3-821c-11a35132660a","system_id":"levelo_inurba_marseille","lat":43.25335,"lon":5.42176,"is_reserved":false,"is_disabled":false,"rental_uris":{"android":"levelo://app?vid=0b89e391-f907-49b3-821c-11a35132660a","ios":"levelo://app?vid=0b89e391-f907-49b3-821c-11a35132660a"},"vehicle_type_id":"4","last_reported":1768288632,"current_range_meters":2800,"station_id":"st_d2m65c5bi1j21697t3ng","pricing_plan_id":"cebpf4jnsgd1na2vs0mg"},{"bike_id":"56f33d1a-63a6-44cd-9b0f-4476e7b7806c","system_id":"levelo_inurba_marseille","lat":43.24067,"lon":5.37757,"is_reserved":false,"is_disabled":false,"rental_uris":{"android":"levelo://app?vid=56f33d1a-63a6-44cd-9b0f-4476e7b7806c","ios":"levelo://app?vid=56f33d1a-63a6-44cd-9b0f-4476e7b7806c"},"vehicle_type_id":"4","last_reported":1768288632,"current_range_meters":2800,"station_id":"ce4bhnp2rcd13ifvqgvg","pricing_plan_id":"cebpf4jnsgd1na2vs0mg"},{"bike_id":"fae57e34-d123-4b5d-b549-b5483c41b8c0","system_id":"levelo_inurba_marseille","lat":43.2914,"lon":5.37676,"is_reserved":false,"is_disabled":false,"rental_uris":{"android":"levelo://app?vid=fae57e34-d123-4b5d-b549-b5483c41b8c0","ios":"levelo://app?vid=fae57e34-d123-4b5d-b549-b5483c41b8c0"},"vehicle_type_id":"4","last_reported":1768288632,"current_range_meters":2800,"station_id":"","pricing_plan_id":"cebpf4jnsgd1na2vs0mg"},{"bike_id":"dbad2cff-9661-422b-a29b-69069add4417","system_id":"levelo_inurba_marseille","lat":43.22932,"lon":5.35377,"is_reserved":false,"is_disabled":false,"rental_uris":{"android":"levelo://app?vid=dbad2cff-9661-422b-a29b-69069add4417","ios":"levelo://app?vid=dbad2cff-9661-422b-a29b-69069add4417"},"vehicle_type_id":"4","last_reported":1768288632,"current_range_meters":2800,"station_id":"cpo3532slgdg3j2ikp40","pricing_plan_id":"cebpf4jnsgd1na2vs0mg"},{"bike_id":"8bdcf316-ddb9-4fba-b0cc-f1d452415712","system_id":"levelo_inurba_marseille","lat":43.27804,"lon":5.40698,"is_reserved":false,"is_disabled":false,"rental_uris":{"android":"levelo://app?vid=8bdcf316-ddb9-4fba-b0cc-f1d452415712","ios":"levelo://app?vid=8bdcf316-ddb9-4fba-b0cc-f1d452415712"},"vehicle_type_id":"4","last_reported":1768288632,"current_range_meters":2800,"station_id":"ce4bhnh2rcd13ifvqgtg","pricing_plan_id":"cebpf4jnsgd1na2vs0mg"},{"bike_id":"321455cb-98fd-4d73-9d6b-fb4bf1c21bad","system_id":"levelo_inurba_marseille","lat":43.29793,"lon":5.38103,"is_reserved":false,"is_disabled":false,"rental_uris":{"android":"levelo://app?vid=321455cb-98fd-4d73-9d6b-fb4bf1c21bad","ios":"levelo://app?vid=321455cb-98fd-4d73-9d6b-fb4bf1c21bad"},"vehicle_type_id":"4","last_reported":1768288632,"current_range_meters":2800,"station_id":"ce4bgip2rcd13ifvqbb0","pricing_plan_id":"cebpf4jnsgd1na2vs0mg"},{"bike_id":"886f6a48-d8c9-4f03-9c08-fa6700bc8f85","system_id":"levelo_inurba_marseille","lat":43.22933,"lon":5.35373,"is_reserved":false,"is_disabled":false,"rental_uris":{"android":"levelo://app?vid=886f6a48-d8c9-4f03-9c08-fa6700bc8f85","ios":"levelo://app?vid=886f6a48-d8c9-4f03-9c08-fa6700bc8f85"},"vehicle_type_id":"4","last_reported":1768288632,"current_range_meters":2800,"station_id":"cpo3532slgdg3j2ikp40","pricing_plan_id":"cebpf4jnsgd1na2vs0mg"},{"bike_id":"9f2a1fd3-ffc5-4586-95af-377ff8c15230","system_id":"levelo_inurba_marseille","lat":43.2494,"lon":5.40488,"is_reserved":false,"is_disabled":false,"rental_uris":{"android":"levelo://app?vid=9f2a1fd3-ffc5-4586-95af-377ff8c15230","ios":"levelo://app?vid=9f2a1fd3-ffc5-4586-95af-377ff8c15230"},"vehicle_type_id":"4","last_reported":1768288632,"current_range_meters":2800,"station_id":"st_d2ngiaodas8pm72gd1h0","pricing_plan_id":"cebpf4jnsgd1na2vs0mg"},{"bike_id":"18959285-a787-476c-a26f-440113181d13","system_id":"levelo_inurba_marseille","lat":43.28515,"lon":5.38429,"is_reserved":false,"is_disabled":true,"rental_uris":{"android":"levelo://app?vid=18959285-a787-476c-a26f-440113181d13","ios":"levelo://app?vid=18959285-a787-476c-a26f-440113181d13"},"vehicle_type_id":"4","last_reported":1768288632,"current_range_meters":3200,"station_id":"ce4bh512rcd13ifvqe3g","pricing_plan_id":"cebpf4jnsgd1na2vs0mg"},{"bike_id":"a16392da-5207-4df7-9429-2df19a8a41ee","system_id":"levelo_inurba_marseille","lat":43.329493,"lon":5.390492,"is_reserved":false,"is_disabled":false,"rental_uris":{"android":"levelo://app?vid=a16392da-5207-4df7-9429-2df19a8a41ee","ios":"levelo://app?vid=a16392da-5207-4df7-9429-2df19a8a41ee"},"vehicle_type_id":"4","last_reported":1768288632,"current_range_meters":3200,"station_id":"","pricing_plan_id":"cebpf4jnsgd1na2vs0mg"},{"bike_id":"a10cebfe-81dc-4dff-bad4-c25d976b2067","system_id":"levelo_inurba_marseille","lat":43.28412,"lon":5.34977,"is_reserved":false,"is_disabled":false,"rental_uris":{"android":"levelo://app?vid=a10cebfe-81dc-4dff-bad4-c25d976b2067","ios":"levelo://app?vid=a10cebfe-81dc-4dff-bad4-c25d976b2067"},"vehicle_type_id":"4","last_reported":1768288632,"current_range_meters":3200,"station_id":"ce4bhbh2rcd13ifvqepg","pricing_plan_id":"cebpf4jnsgd1na2vs0mg"},{"bike_id":"cf7ff780-5cc1-488c-bf59-2cc02d1f230b","system_id":"levelo_inurba_marseille","lat":43.23773,"lon":5.36637,"is_reserved":false,"is_disabled":false,"rental_uris":{"android":"levelo://app?vid=cf7ff780-5cc1-488c-bf59-2cc02d1f230b","ios":"levelo://app?vid=cf7ff780-5cc1-488c-bf59-2cc02d1f230b"},"vehicle_type_id":"4","last_reported":1768288632,"current_range_meters":3200,"station_id":"st_d3nk18o9ro0c73en2l3g","pricing_plan_id":"cebpf4jnsgd1na2vs0mg"},{"bike_id":"b0d8414b-9ec4-4d2d-ada4-4b5a508ba76c","system_id":"levelo_inurba_marseille","lat":43.259314,"lon":5.409094,"is_reserved":false,"is_disabled":false,"rental_uris":{"android":"levelo://app?vid=b0d8414b-9ec4-4d2d-ada4-4b5a508ba76c","ios":"levelo://app?vid=b0d8414b-9ec4-4d2d-ada4-4b5a508ba76c"},"vehicle_type_id":"4","last_reported":1768288632,"current_range_meters":3200,"station_id":"ce4bhm92rcd13ifvqglg","pricing_plan_id":"cebpf4jnsgd1na2vs0mg"},{"bike_id":"dd67a0b3-d5e0-4276-b1a4-1926be74a790","system_id":"levelo_inurba_marseille","lat":43.30014,"lon":5.37637,"is_reserved":false,"is_disabled":false,"rental_uris":{"android":"levelo://app?vid=dd67a0b3-d5e0-4276-b1a4-1926be74a790","ios":"levelo://app?vid=dd67a0b3-d5e0-4276-b1a4-1926be74a790"},"vehicle_type_id":"4","last_reported":1768288632,"current_range_meters":3200,"station_id":"","pricing_plan_id":"cebpf4jnsgd1na2vs0mg"},{"bike_id":"bce5bef6-66c0-48f9-9494-83e46be9a229","system_id":"levelo_inurba_marseille","lat":43.32361,"lon":5.36776,"is_reserved":false,"is_disabled":false,"rental_uris":{"android":"levelo://app?vid=bce5bef6-66c0-48f9-9494-83e46be9a229","ios":"levelo://app?vid=bce5bef6-66c0-48f9-9494-83e46be9a229"},"vehicle_type_id":"4","last_reported":1768288632,"current_range_meters":3200,"station_id":"ce4bhsh2rcd13ifvqi2g","pricing_plan_id":"cebpf4jnsgd1na2vs0mg"},{"bike_id":"24f0a2da-aa1b-495a-8bd2-5db4872b3634","system_id":"levelo_inurba_marseille","lat":43.22576,"lon":5.41619,"is_reserved":false,"is_disabled":false,"rental_uris":{"android":"levelo://app?vid=24f0a2da-aa1b-495a-8bd2-5db4872b3634","ios":"levelo://app?vid=24f0a2da-aa1b-495a-8bd2-5db4872b3634"},"vehicle_type_id":"4","last_reported":1768288632,"current_range_meters":3200,"station_id":"st_d2o4gvlbi1j2169b742g","pricing_plan_id":"cebpf4jnsgd1na2vs0mg"},{"bike_id":"6cfafae2-24e3-4bb5-9336-a15339de06af","system_id":"levelo_inurba_marseille","lat":43.23781,"lon":5.3663,"is_reserved":false,"is_disabled":false,"rental_uris":{"android":"levelo://app?vid=6cfafae2-24e3-4bb5-9336-a15339de06af","ios":"levelo://app?vid=6cfafae2-24e3-4bb5-9336-a15339de06af"},"vehicle_type_id":"4","last_reported":1768288632,"current_range_meters":3600,"station_id":"st_d3nk18o9ro0c73en2l3g","pricing_plan_id":"cebpf4jnsgd1na2vs0mg"},{"bike_id":"682a25db-2229-438e-a91a-bd8e0ed43f7f","system_id":"levelo_inurba_marseille","lat":43.30183,"lon":5.37068,"is_reserved":false,"is_disabled":false,"rental_uris":{"android":"levelo://app?vid=682a25db-2229-438e-a91a-bd8e0ed43f7f","ios":"levelo://app?vid=682a25db-2229-438e-a91a-bd8e0ed43f7f"},"vehicle_type_id":"4","last_reported":1768288632,"current_range_meters":3600,"station_id":"","pricing_plan_id":"cebpf4jnsgd1na2vs0mg"},{"bike_id":"35254f06-efb2-4d00-b949-89c11838f9ec","system_id":"levelo_inurba_marseille","lat":43.23197,"lon":5.35541,"is_reserved":false,"is_disabled":false,"rental_uris":{"android":"levelo://app?vid=35254f06-efb2-4d00-b949-89c11838f9ec","ios":"levelo://app?vid=35254f06-efb2-4d00-b949-89c11838f9ec"},"vehicle_type_id":"4","last_reported":1768288632,"current_range_meters":3600,"station_id":"ce4bhu92rcd13ifvqi70","pricing_plan_id":"cebpf4jnsgd1na2vs0mg"},{"bike_id":"857213d5-7353-4d98-a3cc-a303673faf43","system_id":"levelo_inurba_marseille","lat":43.25569,"lon":5.38237,"is_reserved":false,"is_disabled":true,"rental_uris":{"android":"levelo://app?vid=857213d5-7353-4d98-a3cc-a303673faf43","ios":"levelo://app?vid=857213d5-7353-4d98-a3cc-a303673faf43"},"vehicle_type_id":"4","last_reported":1768288632,"current_range_meters":3600,"station_id":"ce4bhih2rcd13ifvqfs0","pricing_plan_id":"cebpf4jnsgd1na2vs0mg"},{"bike_id":"0f54686d-84c1-4f5b-987e-452996540277","system_id":"levelo_inurba_marseille","lat":43.26366,"lon":5.41087,"is_reserved":false,"is_disabled":false,"rental_uris":{"android":"levelo://app?vid=0f54686d-84c1-4f5b-987e-452996540277","ios":"levelo://app?vid=0f54686d-84c1-4f5b-987e-452996540277"},"vehicle_type_id":"4","last_reported":1768288632,"current_range_meters":3600,"station_id":"st_d4e5ca6na9uc73bfl5fg","pricing_plan_id":"cebpf4jnsgd1na2vs0mg"},{"bike_id":"5b74f76c-7655-4a1b-bf0f-ee1d1ac9b692","system_id":"levelo_inurba_marseille","lat":43.3138,"lon":5.36807,"is_reserved":false,"is_disabled":false,"rental_uris":{"android":"levelo://app?vid=5b74f76c-7655-4a1b-bf0f-ee1d1ac9b692","ios":"levelo://app?vid=5b74f76c-7655-4a1b-bf0f-ee1d1ac9b692"},"vehicle_type_id":"4","last_reported":1768288632,"current_range_meters":3600,"station_id":"","pricing_plan_id":"cebpf4jnsgd1na2vs0mg"},{"bike_id":"d09f6bda-7c74-4aeb-aa68-aecbccafb22f","system_id":"levelo_inurba_marseille","lat":43.25939,"lon":5.40905,"is_reserved":false,"is_disabled":false,"rental_uris":{"android":"levelo://app?vid=d09f6bda-7c74-4aeb-aa68-aecbccafb22f","ios":"levelo://app?vid=d09f6bda-7c74-4aeb-aa68-aecbccafb22f"},"vehicle_type_id":"4","last_reported":1768288632,"current_range_meters":3600,"station_id":"ce4bhm92rcd13ifvqglg","pricing_plan_id":"cebpf4jnsgd1na2vs0mg"},{"bike_id":"eebd70f2-6f12-4ff1-962d-5316ef45045d","system_id":"levelo_inurba_marseille","lat":43.30158,"lon":5.38091,"is_reserved":false,"is_disabled":false,"rental_uris":{"android":"levelo://app?vid=eebd70f2-6f12-4ff1-962d-5316ef45045d","ios":"levelo://app?vid=eebd70f2-6f12-4ff1-962d-5316ef45045d"},"vehicle_type_id":"4","last_reported":1768288632,"current_range_meters":3600,"station_id":"ce4bgjp2rcd13ifvqbh0","pricing_plan_id":"cebpf4jnsgd1na2vs0mg"},{"bike_id":"0225b592-a655-4dbd-a4a2-29c3d2aa4252","system_id":"levelo_inurba_marseille","lat":43.29609,"lon":5.37741,"is_reserved":false,"is_disabled":false,"rental_uris":{"android":"levelo://app?vid=0225b592-a655-4dbd-a4a2-29c3d2aa4252","ios":"levelo://app?vid=0225b592-a655-4dbd-a4a2-29c3d2aa4252"},"vehicle_type_id":"4","last_reported":1768288632,"current_range_meters":3600,"station_id":"ce4bgi92rcd13ifvqb90","pricing_plan_id":"cebpf4jnsgd1na2vs0mg"},{"bike_id":"bd6756f7-511c-452a-8ef8-3b85fe093b5c","system_id":"levelo_inurba_marseille","lat":43.284365,"lon":5.382683,"is_reserved":false,"is_disabled":false,"rental_uris":{"android":"levelo://app?vid=bd6756f7-511c-452a-8ef8-3b85fe093b5c","ios":"levelo://app?vid=bd6756f7-511c-452a-8ef8-3b85fe093b5c"},"vehicle_type_id":"4","last_reported":1768288632,"current_range_meters":3600,"station_id":"ce4bh412rcd13ifvqdr0","pricing_plan_id":"cebpf4jnsgd1na2vs0mg"},{"bike_id":"cddcf2c2-04b5-4843-b385-219618c4a20f","system_id":"levelo_inurba_marseille","lat":43.28615,"lon":5.351,"is_reserved":false,"is_disabled":false,"rental_uris":{"android":"levelo://app?vid=cddcf2c2-04b5-4843-b385-219618c4a20f","ios":"levelo://app?vid=cddcf2c2-04b5-4843-b385-219618c4a20f"},"vehicle_type_id":"4","last_reported":1768288632,"current_range_meters":3600,"station_id":"ce4bhch2rcd13ifvqeug","pricing_plan_id":"cebpf4jnsgd1na2vs0mg"},{"bike_id":"f2105464-0910-4b23-927b-e71ae0adf2b7","system_id":"levelo_inurba_marseille","lat":43.25711,"lon":5.41112,"is_reserved":false,"is_disabled":false,"rental_uris":{"android":"levelo://app?vid=f2105464-0910-4b23-927b-e71ae0adf2b7","ios":"levelo://app?vid=f2105464-0910-4b23-927b-e71ae0adf2b7"},"vehicle_type_id":"4","last_reported":1768288632,"current_range_meters":3600,"station_id":"ce4bhkp2rcd13ifvqgd0","pricing_plan_id":"cebpf4jnsgd1na2vs0mg"},{"bike_id":"f6dd8e80-5d58-4dd7-b7ed-7c52e4ac4267","system_id":"levelo_inurba_marseille","lat":43.27917,"lon":5.395855,"is_reserved":false,"is_disabled":false,"rental_uris":{"android":"levelo://app?vid=f6dd8e80-5d58-4dd7-b7ed-7c52e4ac4267","ios":"levelo://app?vid=f6dd8e80-5d58-4dd7-b7ed-7c52e4ac4267"},"vehicle_type_id":"4","last_reported":1768288632,"current_range_meters":3600,"station_id":"ce4bhf92rcd13ifvqf40","pricing_plan_id":"cebpf4jnsgd1na2vs0mg"},{"bike_id":"2e02cc71-3e50-4a35-806f-7e9a5398a999","system_id":"levelo_inurba_marseille","lat":43.29224,"lon":5.36265,"is_reserved":false,"is_disabled":true,"rental_uris":{"android":"levelo://app?vid=2e02cc71-3e50-4a35-806f-7e9a5398a999","ios":"levelo://app?vid=2e02cc71-3e50-4a35-806f-7e9a5398a999"},"vehicle_type_id":"4","last_reported":1768288632,"current_range_meters":4000,"station_id":"","pricing_plan_id":"cebpf4jnsgd1na2vs0mg"},{"bike_id":"21f594df-8489-4ed1-9833-71f4d7d5f3e6","system_id":"levelo_inurba_marseille","lat":43.27618,"lon":5.36105,"is_reserved":false,"is_disabled":false,"rental_uris":{"android":"levelo://app?vid=21f594df-8489-4ed1-9833-71f4d7d5f3e6","ios":"levelo://app?vid=21f594df-8489-4ed1-9833-71f4d7d5f3e6"},"vehicle_type_id":"4","last_reported":1768288632,"current_range_meters":4000,"station_id":"ce4bgj92rcd13ifvqbe0","pricing_plan_id":"cebpf4jnsgd1na2vs0mg"},{"bike_id":"63a8ad53-0407-4bea-a09c-eee796fd0c2b","system_id":"levelo_inurba_marseille","lat":43.27827,"lon":5.40701,"is_reserved":false,"is_disabled":false,"rental_uris":{"android":"levelo://app?vid=63a8ad53-0407-4bea-a09c-eee796fd0c2b","ios":"levelo://app?vid=63a8ad53-0407-4bea-a09c-eee796fd0c2b"},"vehicle_type_id":"4","last_reported":1768288632,"current_range_meters":4000,"station_id":"ce4bhnh2rcd13ifvqgtg","pricing_plan_id":"cebpf4jnsgd1na2vs0mg"},{"bike_id":"2587eba2-f80d-4b3a-88e3-bb85d27a199d","system_id":"levelo_inurba_marseille","lat":43.22556,"lon":5.41639,"is_reserved":false,"is_disabled":false,"rental_uris":{"android":"levelo://app?vid=2587eba2-f80d-4b3a-88e3-bb85d27a199d","ios":"levelo://app?vid=2587eba2-f80d-4b3a-88e3-bb85d27a199d"},"vehicle_type_id":"4","last_reported":1768288632,"current_range_meters":4000,"station_id":"st_d2o4gvlbi1j2169b742g","pricing_plan_id":"cebpf4jnsgd1na2vs0mg"},{"bike_id":"b0efd0f2-bc5c-4dff-bc29-9743c461b4d7","system_id":"levelo_inurba_marseille","lat":43.24072,"lon":5.37759,"is_reserved":false,"is_disabled":false,"rental_uris":{"android":"levelo://app?vid=b0efd0f2-bc5c-4dff-bc29-9743c461b4d7","ios":"levelo://app?vid=b0efd0f2-bc5c-4dff-bc29-9743c461b4d7"},"vehicle_type_id":"4","last_reported":1768288632,"current_range_meters":4000,"station_id":"ce4bhnp2rcd13ifvqgvg","pricing_plan_id":"cebpf4jnsgd1na2vs0mg"},{"bike_id":"8fadb16c-f49e-4001-96df-0a0b58d4f5f4","system_id":"levelo_inurba_marseille","lat":43.33146,"lon":5.37691,"is_reserved":false,"is_disabled":false,"rental_uris":{"android":"levelo://app?vid=8fadb16c-f49e-4001-96df-0a0b58d4f5f4","ios":"levelo://app?vid=8fadb16c-f49e-4001-96df-0a0b58d4f5f4"},"vehicle_type_id":"4","last_reported":1768288632,"current_range_meters":4000,"station_id":"st_d46cu089ee8s73dldbu0","pricing_plan_id":"cebpf4jnsgd1na2vs0mg"},{"bike_id":"f2f6879c-c6f8-4aad-a64c-976ab5b32f9c","system_id":"levelo_inurba_marseille","lat":43.24046,"lon":5.37747,"is_reserved":false,"is_disabled":false,"rental_uris":{"android":"levelo://app?vid=f2f6879c-c6f8-4aad-a64c-976ab5b32f9c","ios":"levelo://app?vid=f2f6879c-c6f8-4aad-a64c-976ab5b32f9c"},"vehicle_type_id":"4","last_reported":1768288632,"current_range_meters":4000,"station_id":"ce4bhnp2rcd13ifvqgvg","pricing_plan_id":"cebpf4jnsgd1na2vs0mg"},{"bike_id":"8049ab61-e378-4478-bef4-ac0f529d7d1a","system_id":"levelo_inurba_marseille","lat":43.23188,"lon":5.35558,"is_reserved":false,"is_disabled":false,"rental_uris":{"android":"levelo://app?vid=8049ab61-e378-4478-bef4-ac0f529d7d1a","ios":"levelo://app?vid=8049ab61-e378-4478-bef4-ac0f529d7d1a"},"vehicle_type_id":"4","last_reported":1768288632,"current_range_meters":4000,"station_id":"ce4bhu92rcd13ifvqi70","pricing_plan_id":"cebpf4jnsgd1na2vs0mg"},{"bike_id":"824e0100-c6fc-4a0d-bafe-328ab4a682ff","system_id":"levelo_inurba_marseille","lat":43.32356,"lon":5.36745,"is_reserved":false,"is_disabled":false,"rental_uris":{"android":"levelo://app?vid=824e0100-c6fc-4a0d-bafe-328ab4a682ff","ios":"levelo://app?vid=824e0100-c6fc-4a0d-bafe-328ab4a682ff"},"vehicle_type_id":"4","last_reported":1768288632,"current_range_meters":4000,"station_id":"ce4bhsh2rcd13ifvqi2g","pricing_plan_id":"cebpf4jnsgd1na2vs0mg"},{"bike_id":"b81a771e-796c-40e5-98d5-2c3857393d80","system_id":"levelo_inurba_marseille","lat":43.284786,"lon":5.483965,"is_reserved":false,"is_disabled":false,"rental_uris":{"android":"levelo://app?vid=b81a771e-796c-40e5-98d5-2c3857393d80","ios":"levelo://app?vid=b81a771e-796c-40e5-98d5-2c3857393d80"},"vehicle_type_id":"4","last_reported":1768288632,"current_range_meters":4000,"station_id":"st_d3svhcjqgbts73a3dn0g","pricing_plan_id":"cebpf4jnsgd1na2vs0mg"},{"bike_id":"d4c76a3c-be64-4255-845b-8ccc9f87b7d9","system_id":"levelo_inurba_marseille","lat":43.30008,"lon":5.3735,"is_reserved":false,"is_disabled":false,"rental_uris":{"android":"levelo://app?vid=d4c76a3c-be64-4255-845b-8ccc9f87b7d9","ios":"levelo://app?vid=d4c76a3c-be64-4255-845b-8ccc9f87b7d9"},"vehicle_type_id":"4","last_reported":1768288632,"current_range_meters":4000,"station_id":"","pricing_plan_id":"cebpf4jnsgd1na2vs0mg"},{"bike_id":"8f9c5fef-eb25-471f-abc7-43f55327e6a6","system_id":"levelo_inurba_marseille","lat":43.27804,"lon":5.4071,"is_reserved":false,"is_disabled":false,"rental_uris":{"android":"levelo://app?vid=8f9c5fef-eb25-471f-abc7-43f55327e6a6","ios":"levelo://app?vid=8f9c5fef-eb25-471f-abc7-43f55327e6a6"},"vehicle_type_id":"4","last_reported":1768288632,"current_range_meters":4400,"station_id":"ce4bhnh2rcd13ifvqgtg","pricing_plan_id":"cebpf4jnsgd1na2vs0mg"},{"bike_id":"7b6f12be-65ff-469f-954c-5bc823eb23e6","system_id":"levelo_inurba_marseille","lat":43.32477,"lon":5.36434,"is_reserved":false,"is_disabled":false,"rental_uris":{"android":"levelo://app?vid=7b6f12be-65ff-469f-954c-5bc823eb23e6","ios":"levelo://app?vid=7b6f12be-65ff-469f-954c-5bc823eb23e6"},"vehicle_type_id":"4","last_reported":1768288632,"current_range_meters":4400,"station_id":"","pricing_plan_id":"cebpf4jnsgd1na2vs0mg"},{"bike_id":"d195700f-dd48-4a4d-8da2-ab1e15e93935","system_id":"levelo_inurba_marseille","lat":43.29521,"lon":5.37511,"is_reserved":false,"is_disabled":false,"rental_uris":{"android":"levelo://app?vid=d195700f-dd48-4a4d-8da2-ab1e15e93935","ios":"levelo://app?vid=d195700f-dd48-4a4d-8da2-ab1e15e93935"},"vehicle_type_id":"4","last_reported":1768288632,"current_range_meters":4400,"station_id":"ce4bgkp2rcd13ifvqbmg","pricing_plan_id":"cebpf4jnsgd1na2vs0mg"},{"bike_id":"b79fc6ee-bba5-426a-af09-3aef9f5e561c","system_id":"levelo_inurba_marseille","lat":43.25569,"lon":5.38235,"is_reserved":false,"is_disabled":false,"rental_uris":{"android":"levelo://app?vid=b79fc6ee-bba5-426a-af09-3aef9f5e561c","ios":"levelo://app?vid=b79fc6ee-bba5-426a-af09-3aef9f5e561c"},"vehicle_type_id":"4","last_reported":1768288632,"current_range_meters":4400,"station_id":"ce4bhih2rcd13ifvqfs0","pricing_plan_id":"cebpf4jnsgd1na2vs0mg"},{"bike_id":"53618e4a-40bf-4379-907b-a2f4312bdf01","system_id":"levelo_inurba_marseille","lat":43.278341,"lon":5.392085,"is_reserved":false,"is_disabled":false,"rental_uris":{"android":"levelo://app?vid=53618e4a-40bf-4379-907b-a2f4312bdf01","ios":"levelo://app?vid=53618e4a-40bf-4379-907b-a2f4312bdf01"},"vehicle_type_id":"4","last_reported":1768288632,"current_range_meters":4400,"station_id":"ce4bhjp2rcd13ifvqga0","pricing_plan_id":"cebpf4jnsgd1na2vs0mg"},{"bike_id":"d4e448ef-1fe0-4a95-8364-c8d8662a9864","system_id":"levelo_inurba_marseille","lat":43.290362,"lon":5.399628,"is_reserved":false,"is_disabled":false,"rental_uris":{"android":"levelo://app?vid=d4e448ef-1fe0-4a95-8364-c8d8662a9864","ios":"levelo://app?vid=d4e448ef-1fe0-4a95-8364-c8d8662a9864"},"vehicle_type_id":"4","last_reported":1768288632,"current_range_meters":4400,"station_id":"ce4bh392rcd13ifvqdm0","pricing_plan_id":"cebpf4jnsgd1na2vs0mg"},{"bike_id":"a3f3494b-36e9-4174-8440-301e7e4b95f5","system_id":"levelo_inurba_marseille","lat":43.29966,"lon":5.3849,"is_reserved":false,"is_disabled":false,"rental_uris":{"android":"levelo://app?vid=a3f3494b-36e9-4174-8440-301e7e4b95f5","ios":"levelo://app?vid=a3f3494b-36e9-4174-8440-301e7e4b95f5"},"vehicle_type_id":"4","last_reported":1768288632,"current_range_meters":4400,"station_id":"ce4bgj92rcd13ifvqbd0","pricing_plan_id":"cebpf4jnsgd1na2vs0mg"},{"bike_id":"cd0221e4-8d5e-4481-a072-4408c503f646","system_id":"levelo_inurba_marseille","lat":43.27995,"lon":5.41669,"is_reserved":false,"is_disabled":false,"rental_uris":{"android":"levelo://app?vid=cd0221e4-8d5e-4481-a072-4408c503f646","ios":"levelo://app?vid=cd0221e4-8d5e-4481-a072-4408c503f646"},"vehicle_type_id":"4","last_reported":1768288632,"current_range_meters":4400,"station_id":"ce4bho12rcd13ifvqh1g","pricing_plan_id":"cebpf4jnsgd1na2vs0mg"},{"bike_id":"3e9f6f76-2cc1-4a8f-893d-69062c076f77","system_id":"levelo_inurba_marseille","lat":43.30488,"lon":5.39019,"is_reserved":false,"is_disabled":false,"rental_uris":{"android":"levelo://app?vid=3e9f6f76-2cc1-4a8f-893d-69062c076f77","ios":"levelo://app?vid=3e9f6f76-2cc1-4a8f-893d-69062c076f77"},"vehicle_type_id":"4","last_reported":1768288632,"current_range_meters":4400,"station_id":"","pricing_plan_id":"cebpf4jnsgd1na2vs0mg"},{"bike_id":"a220aa57-9942-4e78-8e5c-ca8bbd2226fa","system_id":"levelo_inurba_marseille","lat":43.30941,"lon":5.40133,"is_reserved":false,"is_disabled":false,"rental_uris":{"android":"levelo://app?vid=a220aa57-9942-4e78-8e5c-ca8bbd2226fa","ios":"levelo://app?vid=a220aa57-9942-4e78-8e5c-ca8bbd2226fa"},"vehicle_type_id":"4","last_reported":1768288632,"current_range_meters":4400,"station_id":"ce4bgvp2rcd13ifvqct0","pricing_plan_id":"cebpf4jnsgd1na2vs0mg"},{"bike_id":"283ff7ca-d750-4cd5-915a-58dd7bb8049d","system_id":"levelo_inurba_marseille","lat":43.33607,"lon":5.41032,"is_reserved":false,"is_disabled":false,"rental_uris":{"android":"levelo://app?vid=283ff7ca-d750-4cd5-915a-58dd7bb8049d","ios":"levelo://app?vid=283ff7ca-d750-4cd5-915a-58dd7bb8049d"},"vehicle_type_id":"4","last_reported":1768288632,"current_range_meters":4400,"station_id":"ce4bhqh2rcd13ifvqhmg","pricing_plan_id":"cebpf4jnsgd1na2vs0mg"},{"bike_id":"6f95f21a-dc4c-4ea5-8d4a-361157f8ffdb","system_id":"levelo_inurba_marseille","lat":43.305998,"lon":5.393663,"is_reserved":false,"is_disabled":false,"rental_uris":{"android":"levelo://app?vid=6f95f21a-dc4c-4ea5-8d4a-361157f8ffdb","ios":"levelo://app?vid=6f95f21a-dc4c-4ea5-8d4a-361157f8ffdb"},"vehicle_type_id":"4","last_reported":1768288632,"current_range_meters":4800,"station_id":"ce4bh0p2rcd13ifvqd80","pricing_plan_id":"cebpf4jnsgd1na2vs0mg"},{"bike_id":"48e0d58e-bd7e-4b90-92d4-898fdf7abd39","system_id":"levelo_inurba_marseille","lat":43.30862,"lon":5.40594,"is_reserved":false,"is_disabled":false,"rental_uris":{"android":"levelo://app?vid=48e0d58e-bd7e-4b90-92d4-898fdf7abd39","ios":"levelo://app?vid=48e0d58e-bd7e-4b90-92d4-898fdf7abd39"},"vehicle_type_id":"4","last_reported":1768288632,"current_range_meters":4800,"station_id":"","pricing_plan_id":"cebpf4jnsgd1na2vs0mg"},{"bike_id":"a0750e8b-6f08-4dec-ad7b-75931873cace","system_id":"levelo_inurba_marseille","lat":43.30139,"lon":5.37403,"is_reserved":false,"is_disabled":false,"rental_uris":{"android":"levelo://app?vid=a0750e8b-6f08-4dec-ad7b-75931873cace","ios":"levelo://app?vid=a0750e8b-6f08-4dec-ad7b-75931873cace"},"vehicle_type_id":"4","last_reported":1768288632,"current_range_meters":4800,"station_id":"ce4bgs92rcd13ifvqcc0","pricing_plan_id":"cebpf4jnsgd1na2vs0mg"},{"bike_id":"d84786fe-606f-4cea-8819-113abea8f013","system_id":"levelo_inurba_marseille","lat":43.288643,"lon":5.425178,"is_reserved":false,"is_disabled":false,"rental_uris":{"android":"levelo://app?vid=d84786fe-606f-4cea-8819-113abea8f013","ios":"levelo://app?vid=d84786fe-606f-4cea-8819-113abea8f013"},"vehicle_type_id":"4","last_reported":1768288632,"current_range_meters":4800,"station_id":"st_d3b462108ojc7389ooeg","pricing_plan_id":"cebpf4jnsgd1na2vs0mg"},{"bike_id":"a3b66a73-aef3-42a6-bf24-ef2935218f23","system_id":"levelo_inurba_marseille","lat":43.32352,"lon":5.36767,"is_reserved":false,"is_disabled":false,"rental_uris":{"android":"levelo://app?vid=a3b66a73-aef3-42a6-bf24-ef2935218f23","ios":"levelo://app?vid=a3b66a73-aef3-42a6-bf24-ef2935218f23"},"vehicle_type_id":"4","last_reported":1768288632,"current_range_meters":4800,"station_id":"ce4bhsh2rcd13ifvqi2g","pricing_plan_id":"cebpf4jnsgd1na2vs0mg"},{"bike_id":"38d076d2-a3a0-46d0-b800-0eaafad476d4","system_id":"levelo_inurba_marseille","lat":43.2821,"lon":5.40373,"is_reserved":false,"is_disabled":false,"rental_uris":{"android":"levelo://app?vid=38d076d2-a3a0-46d0-b800-0eaafad476d4","ios":"levelo://app?vid=38d076d2-a3a0-46d0-b800-0eaafad476d4"},"vehicle_type_id":"4","last_reported":1768288632,"current_range_meters":4800,"station_id":"","pricing_plan_id":"cebpf4jnsgd1na2vs0mg"},{"bike_id":"5f2874b2-b16d-4ad9-ada9-339423441eb0","system_id":"levelo_inurba_marseille","lat":43.341431,"lon":5.409164,"is_reserved":false,"is_disabled":false,"rental_uris":{"android":"levelo://app?vid=5f2874b2-b16d-4ad9-ada9-339423441eb0","ios":"levelo://app?vid=5f2874b2-b16d-4ad9-ada9-339423441eb0"},"vehicle_type_id":"4","last_reported":1768288632,"current_range_meters":4800,"station_id":"","pricing_plan_id":"cebpf4jnsgd1na2vs0mg"},{"bike_id":"f984a5c8-b4f0-4ca0-8b12-faccee1f74d4","system_id":"levelo_inurba_marseille","lat":43.24813,"lon":5.37465,"is_reserved":false,"is_disabled":false,"rental_uris":{"android":"levelo://app?vid=f984a5c8-b4f0-4ca0-8b12-faccee1f74d4","ios":"levelo://app?vid=f984a5c8-b4f0-4ca0-8b12-faccee1f74d4"},"vehicle_type_id":"4","last_reported":1768288632,"current_range_meters":4800,"station_id":"ce4bhgh2rcd13ifvqfb0","pricing_plan_id":"cebpf4jnsgd1na2vs0mg"},{"bike_id":"d1d7ed20-2fc0-4bb0-b335-bddc0f061a5f","system_id":"levelo_inurba_marseille","lat":43.31028,"lon":5.37168,"is_reserved":false,"is_disabled":false,"rental_uris":{"android":"levelo://app?vid=d1d7ed20-2fc0-4bb0-b335-bddc0f061a5f","ios":"levelo://app?vid=d1d7ed20-2fc0-4bb0-b335-bddc0f061a5f"},"vehicle_type_id":"4","last_reported":1768288632,"current_range_meters":4800,"station_id":"st_d4kl2rp97mjs73e7tdfg","pricing_plan_id":"cebpf4jnsgd1na2vs0mg"},{"bike_id":"952412d5-8359-4eb6-9ee8-294a4128a280","system_id":"levelo_inurba_marseille","lat":43.29282,"lon":5.37325,"is_reserved":false,"is_disabled":false,"rental_uris":{"android":"levelo://app?vid=952412d5-8359-4eb6-9ee8-294a4128a280","ios":"levelo://app?vid=952412d5-8359-4eb6-9ee8-294a4128a280"},"vehicle_type_id":"4","last_reported":1768288632,"current_range_meters":4800,"station_id":"","pricing_plan_id":"cebpf4jnsgd1na2vs0mg"},{"bike_id":"9a072ce7-daff-4f94-9862-60dd298095f5","system_id":"levelo_inurba_marseille","lat":43.24946,"lon":5.40496,"is_reserved":false,"is_disabled":false,"rental_uris":{"android":"levelo://app?vid=9a072ce7-daff-4f94-9862-60dd298095f5","ios":"levelo://app?vid=9a072ce7-daff-4f94-9862-60dd298095f5"},"vehicle_type_id":"4","last_reported":1768288632,"current_range_meters":4800,"station_id":"st_d2ngiaodas8pm72gd1h0","pricing_plan_id":"cebpf4jnsgd1na2vs0mg"},{"bike_id":"7d685810-6742-41f8-be5c-e1978be9f1f0","system_id":"levelo_inurba_marseille","lat":43.29911,"lon":5.38133,"is_reserved":false,"is_disabled":false,"rental_uris":{"android":"levelo://app?vid=7d685810-6742-41f8-be5c-e1978be9f1f0","ios":"levelo://app?vid=7d685810-6742-41f8-be5c-e1978be9f1f0"},"vehicle_type_id":"4","last_reported":1768288632,"current_range_meters":5600,"station_id":"ce4bgj12rcd13ifvqbc0","pricing_plan_id":"cebpf4jnsgd1na2vs0mg"},{"bike_id":"a38bcbb1-c226-4bc2-8672-2e7d0273da8d","system_id":"levelo_inurba_marseille","lat":43.32345,"lon":5.36745,"is_reserved":false,"is_disabled":false,"rental_uris":{"android":"levelo://app?vid=a38bcbb1-c226-4bc2-8672-2e7d0273da8d","ios":"levelo://app?vid=a38bcbb1-c226-4bc2-8672-2e7d0273da8d"},"vehicle_type_id":"4","last_reported":1768288632,"current_range_meters":5600,"station_id":"ce4bhsh2rcd13ifvqi2g","pricing_plan_id":"cebpf4jnsgd1na2vs0mg"},{"bike_id":"c5cacf13-0b9c-41b5-94a2-55e05bf702f3","system_id":"levelo_inurba_marseille","lat":43.29715,"lon":5.37864,"is_reserved":false,"is_disabled":false,"rental_uris":{"android":"levelo://app?vid=c5cacf13-0b9c-41b5-94a2-55e05bf702f3","ios":"levelo://app?vid=c5cacf13-0b9c-41b5-94a2-55e05bf702f3"},"vehicle_type_id":"4","last_reported":1768288632,"current_range_meters":5600,"station_id":"","pricing_plan_id":"cebpf4jnsgd1na2vs0mg"},{"bike_id":"bad9d05b-2efd-4707-af1a-d48b0eeaba21","system_id":"levelo_inurba_marseille","lat":43.24464,"lon":5.42554,"is_reserved":false,"is_disabled":false,"rental_uris":{"android":"levelo://app?vid=bad9d05b-2efd-4707-af1a-d48b0eeaba21","ios":"levelo://app?vid=bad9d05b-2efd-4707-af1a-d48b0eeaba21"},"vehicle_type_id":"4","last_reported":1768288632,"current_range_meters":5600,"station_id":"st_d4a3vfp97mjs738cd8kg","pricing_plan_id":"cebpf4jnsgd1na2vs0mg"},{"bike_id":"e7a967c4-30ba-4134-849d-a52ee76a439d","system_id":"levelo_inurba_marseille","lat":43.293,"lon":5.37437,"is_reserved":false,"is_disabled":false,"rental_uris":{"android":"levelo://app?vid=e7a967c4-30ba-4134-849d-a52ee76a439d","ios":"levelo://app?vid=e7a967c4-30ba-4134-849d-a52ee76a439d"},"vehicle_type_id":"4","last_reported":1768288632,"current_range_meters":5600,"station_id":"ce4bgi12rcd13ifvqb70","pricing_plan_id":"cebpf4jnsgd1na2vs0mg"},{"bike_id":"7fb0d18d-87f0-4490-ac9a-259338a041dc","system_id":"levelo_inurba_marseille","lat":43.23512,"lon":5.35963,"is_reserved":false,"is_disabled":false,"rental_uris":{"android":"levelo://app?vid=7fb0d18d-87f0-4490-ac9a-259338a041dc","ios":"levelo://app?vid=7fb0d18d-87f0-4490-ac9a-259338a041dc"},"vehicle_type_id":"4","last_reported":1768288632,"current_range_meters":5600,"station_id":"","pricing_plan_id":"cebpf4jnsgd1na2vs0mg"},{"bike_id":"f2feb58b-2e1d-410d-a362-6a4d0a6ad00a","system_id":"levelo_inurba_marseille","lat":43.26944,"lon":5.40264,"is_reserved":false,"is_disabled":false,"rental_uris":{"android":"levelo://app?vid=f2feb58b-2e1d-410d-a362-6a4d0a6ad00a","ios":"levelo://app?vid=f2feb58b-2e1d-410d-a362-6a4d0a6ad00a"},"vehicle_type_id":"4","last_reported":1768288632,"current_range_meters":5600,"station_id":"cjm6bp8fraef2m0cb0m0","pricing_plan_id":"cebpf4jnsgd1na2vs0mg"},{"bike_id":"16945599-a8b0-427a-bfa0-436fe89b6d82","system_id":"levelo_inurba_marseille","lat":43.31051,"lon":5.3718,"is_reserved":false,"is_disabled":false,"rental_uris":{"android":"levelo://app?vid=16945599-a8b0-427a-bfa0-436fe89b6d82","ios":"levelo://app?vid=16945599-a8b0-427a-bfa0-436fe89b6d82"},"vehicle_type_id":"4","last_reported":1768288632,"current_range_meters":5600,"station_id":"st_d4kl2rp97mjs73e7tdfg","pricing_plan_id":"cebpf4jnsgd1na2vs0mg"},{"bike_id":"2455333c-abb5-40b2-83d1-6df58226f70a","system_id":"levelo_inurba_marseille","lat":43.32892,"lon":5.3894,"is_reserved":false,"is_disabled":false,"rental_uris":{"android":"levelo://app?vid=2455333c-abb5-40b2-83d1-6df58226f70a","ios":"levelo://app?vid=2455333c-abb5-40b2-83d1-6df58226f70a"},"vehicle_type_id":"4","last_reported":1768288632,"current_range_meters":5600,"station_id":"","pricing_plan_id":"cebpf4jnsgd1na2vs0mg"},{"bike_id":"fd5c22af-551e-4b5c-a587-8bd6f93a7d5e","system_id":"levelo_inurba_marseille","lat":43.27945,"lon":5.41031,"is_reserved":false,"is_disabled":false,"rental_uris":{"android":"levelo://app?vid=fd5c22af-551e-4b5c-a587-8bd6f93a7d5e","ios":"levelo://app?vid=fd5c22af-551e-4b5c-a587-8bd6f93a7d5e"},"vehicle_type_id":"4","last_reported":1768288632,"current_range_meters":5600,"station_id":"","pricing_plan_id":"cebpf4jnsgd1na2vs0mg"},{"bike_id":"95d1a547-8b14-44f2-9976-03f9cf0f6b77","system_id":"levelo_inurba_marseille","lat":43.26028,"lon":5.39403,"is_reserved":false,"is_disabled":false,"rental_uris":{"android":"levelo://app?vid=95d1a547-8b14-44f2-9976-03f9cf0f6b77","ios":"levelo://app?vid=95d1a547-8b14-44f2-9976-03f9cf0f6b77"},"vehicle_type_id":"4","last_reported":1768288632,"current_range_meters":5600,"station_id":"ce4bhh92rcd13ifvqfj0","pricing_plan_id":"cebpf4jnsgd1na2vs0mg"},{"bike_id":"4202e215-6f29-4f58-ace8-2e6289f05e81","system_id":"levelo_inurba_marseille","lat":43.23956,"lon":5.36626,"is_reserved":false,"is_disabled":false,"rental_uris":{"android":"levelo://app?vid=4202e215-6f29-4f58-ace8-2e6289f05e81","ios":"levelo://app?vid=4202e215-6f29-4f58-ace8-2e6289f05e81"},"vehicle_type_id":"4","last_reported":1768288632,"current_range_meters":5600,"station_id":"ce4bhi12rcd13ifvqfp0","pricing_plan_id":"cebpf4jnsgd1na2vs0mg"},{"bike_id":"90dfc0c4-0044-4337-8331-b045fdb00361","system_id":"levelo_inurba_marseille","lat":43.33142,"lon":5.37676,"is_reserved":false,"is_disabled":false,"rental_uris":{"android":"levelo://app?vid=90dfc0c4-0044-4337-8331-b045fdb00361","ios":"levelo://app?vid=90dfc0c4-0044-4337-8331-b045fdb00361"},"vehicle_type_id":"4","last_reported":1768288632,"current_range_meters":5600,"station_id":"st_d46cu089ee8s73dldbu0","pricing_plan_id":"cebpf4jnsgd1na2vs0mg"},{"bike_id":"b33058a5-965d-42d9-8ef7-f1a2eb3333b9","system_id":"levelo_inurba_marseille","lat":43.29026,"lon":5.38641,"is_reserved":false,"is_disabled":false,"rental_uris":{"android":"levelo://app?vid=b33058a5-965d-42d9-8ef7-f1a2eb3333b9","ios":"levelo://app?vid=b33058a5-965d-42d9-8ef7-f1a2eb3333b9"},"vehicle_type_id":"4","last_reported":1768288632,"current_range_meters":5600,"station_id":"ce4bh4p2rcd13ifvqe0g","pricing_plan_id":"cebpf4jnsgd1na2vs0mg"},{"bike_id":"f49b5bee-e2f5-416e-ae69-8940360ec155","system_id":"levelo_inurba_marseille","lat":43.30144,"lon":5.38077,"is_reserved":false,"is_disabled":false,"rental_uris":{"android":"levelo://app?vid=f49b5bee-e2f5-416e-ae69-8940360ec155","ios":"levelo://app?vid=f49b5bee-e2f5-416e-ae69-8940360ec155"},"vehicle_type_id":"4","last_reported":1768288632,"current_range_meters":5600,"station_id":"ce4bgjp2rcd13ifvqbh0","pricing_plan_id":"cebpf4jnsgd1na2vs0mg"},{"bike_id":"e5a3ec84-3306-487e-9f3f-64e1da9bd3e6","system_id":"levelo_inurba_marseille","lat":43.246281,"lon":5.431459,"is_reserved":false,"is_disabled":false,"rental_uris":{"android":"levelo://app?vid=e5a3ec84-3306-487e-9f3f-64e1da9bd3e6","ios":"levelo://app?vid=e5a3ec84-3306-487e-9f3f-64e1da9bd3e6"},"vehicle_type_id":"4","last_reported":1768288632,"current_range_meters":5600,"station_id":"st_d2m6c4gdas8pm72e190g","pricing_plan_id":"cebpf4jnsgd1na2vs0mg"},{"bike_id":"32b1abe2-c3eb-4fbe-b346-34f5779df386","system_id":"levelo_inurba_marseille","lat":43.26202,"lon":5.37925,"is_reserved":false,"is_disabled":false,"rental_uris":{"android":"levelo://app?vid=32b1abe2-c3eb-4fbe-b346-34f5779df386","ios":"levelo://app?vid=32b1abe2-c3eb-4fbe-b346-34f5779df386"},"vehicle_type_id":"4","last_reported":1768288632,"current_range_meters":5600,"station_id":"ce4bhjp2rcd13ifvqg90","pricing_plan_id":"cebpf4jnsgd1na2vs0mg"},{"bike_id":"9f295e7a-65c6-4272-9043-5a3d89670383","system_id":"levelo_inurba_marseille","lat":43.24809,"lon":5.37466,"is_reserved":false,"is_disabled":false,"rental_uris":{"android":"levelo://app?vid=9f295e7a-65c6-4272-9043-5a3d89670383","ios":"levelo://app?vid=9f295e7a-65c6-4272-9043-5a3d89670383"},"vehicle_type_id":"4","last_reported":1768288632,"current_range_meters":5600,"station_id":"ce4bhgh2rcd13ifvqfb0","pricing_plan_id":"cebpf4jnsgd1na2vs0mg"},{"bike_id":"4b7e622a-4d92-44a0-b6d5-24d6b5445f5c","system_id":"levelo_inurba_marseille","lat":43.3268,"lon":5.39556,"is_reserved":false,"is_disabled":false,"rental_uris":{"android":"levelo://app?vid=4b7e622a-4d92-44a0-b6d5-24d6b5445f5c","ios":"levelo://app?vid=4b7e622a-4d92-44a0-b6d5-24d6b5445f5c"},"vehicle_type_id":"4","last_reported":1768288632,"current_range_meters":5600,"station_id":"","pricing_plan_id":"cebpf4jnsgd1na2vs0mg"},{"bike_id":"42b6dfec-3e09-4e3a-9a6d-1e9fb82fbfba","system_id":"levelo_inurba_marseille","lat":43.27047,"lon":5.40257,"is_reserved":false,"is_disabled":false,"rental_uris":{"android":"levelo://app?vid=42b6dfec-3e09-4e3a-9a6d-1e9fb82fbfba","ios":"levelo://app?vid=42b6dfec-3e09-4e3a-9a6d-1e9fb82fbfba"},"vehicle_type_id":"4","last_reported":1768288632,"current_range_meters":5600,"station_id":"ce4bhk92rcd13ifvqgc0","pricing_plan_id":"cebpf4jnsgd1na2vs0mg"},{"bike_id":"f4d56beb-17a4-43ae-a1b7-ece3f3acf3f9","system_id":"levelo_inurba_marseille","lat":43.279937,"lon":5.416574,"is_reserved":false,"is_disabled":false,"rental_uris":{"android":"levelo://app?vid=f4d56beb-17a4-43ae-a1b7-ece3f3acf3f9","ios":"levelo://app?vid=f4d56beb-17a4-43ae-a1b7-ece3f3acf3f9"},"vehicle_type_id":"4","last_reported":1768288632,"current_range_meters":5600,"station_id":"ce4bho12rcd13ifvqh1g","pricing_plan_id":"cebpf4jnsgd1na2vs0mg"},{"bike_id":"47fa8c07-02d3-44db-8c89-106a6ddb4f66","system_id":"levelo_inurba_marseille","lat":43.2954,"lon":5.3854,"is_reserved":false,"is_disabled":false,"rental_uris":{"android":"levelo://app?vid=47fa8c07-02d3-44db-8c89-106a6ddb4f66","ios":"levelo://app?vid=47fa8c07-02d3-44db-8c89-106a6ddb4f66"},"vehicle_type_id":"4","last_reported":1768288632,"current_range_meters":6000,"station_id":"ce4bgih2rcd13ifvqba0","pricing_plan_id":"cebpf4jnsgd1na2vs0mg"},{"bike_id":"e17a9c82-8846-45df-b367-7545f106e168","system_id":"levelo_inurba_marseille","lat":43.31329,"lon":5.38424,"is_reserved":false,"is_disabled":false,"rental_uris":{"android":"levelo://app?vid=e17a9c82-8846-45df-b367-7545f106e168","ios":"levelo://app?vid=e17a9c82-8846-45df-b367-7545f106e168"},"vehicle_type_id":"4","last_reported":1768288632,"current_range_meters":6000,"station_id":"","pricing_plan_id":"cebpf4jnsgd1na2vs0mg"},{"bike_id":"d57094ce-7af8-428e-9753-4201f05f4a86","system_id":"levelo_inurba_marseille","lat":43.2481,"lon":5.37475,"is_reserved":false,"is_disabled":false,"rental_uris":{"android":"levelo://app?vid=d57094ce-7af8-428e-9753-4201f05f4a86","ios":"levelo://app?vid=d57094ce-7af8-428e-9753-4201f05f4a86"},"vehicle_type_id":"4","last_reported":1768288632,"current_range_meters":6000,"station_id":"ce4bhgh2rcd13ifvqfb0","pricing_plan_id":"cebpf4jnsgd1na2vs0mg"},{"bike_id":"c5b0e4e4-c0dd-441f-992f-a632a50a9951","system_id":"levelo_inurba_marseille","lat":43.27619,"lon":5.36108,"is_reserved":false,"is_disabled":false,"rental_uris":{"android":"levelo://app?vid=c5b0e4e4-c0dd-441f-992f-a632a50a9951","ios":"levelo://app?vid=c5b0e4e4-c0dd-441f-992f-a632a50a9951"},"vehicle_type_id":"4","last_reported":1768288632,"current_range_meters":6000,"station_id":"ce4bgj92rcd13ifvqbe0","pricing_plan_id":"cebpf4jnsgd1na2vs0mg"},{"bike_id":"1bc4dd22-8b42-4ae1-b96e-ede97fc223cf","system_id":"levelo_inurba_marseille","lat":43.29898,"lon":5.37797,"is_reserved":false,"is_disabled":false,"rental_uris":{"android":"levelo://app?vid=1bc4dd22-8b42-4ae1-b96e-ede97fc223cf","ios":"levelo://app?vid=1bc4dd22-8b42-4ae1-b96e-ede97fc223cf"},"vehicle_type_id":"4","last_reported":1768288632,"current_range_meters":6000,"station_id":"","pricing_plan_id":"cebpf4jnsgd1na2vs0mg"},{"bike_id":"62a6a880-8c2f-4973-954e-dca5b666173d","system_id":"levelo_inurba_marseille","lat":43.299589,"lon":5.373481,"is_reserved":false,"is_disabled":false,"rental_uris":{"android":"levelo://app?vid=62a6a880-8c2f-4973-954e-dca5b666173d","ios":"levelo://app?vid=62a6a880-8c2f-4973-954e-dca5b666173d"},"vehicle_type_id":"4","last_reported":1768288632,"current_range_meters":6000,"station_id":"","pricing_plan_id":"cebpf4jnsgd1na2vs0mg"},{"bike_id":"9bd81498-1c2d-46cc-b134-62e2c3cd9ba1","system_id":"levelo_inurba_marseille","lat":43.28851,"lon":5.42524,"is_reserved":false,"is_disabled":false,"rental_uris":{"android":"levelo://app?vid=9bd81498-1c2d-46cc-b134-62e2c3cd9ba1","ios":"levelo://app?vid=9bd81498-1c2d-46cc-b134-62e2c3cd9ba1"},"vehicle_type_id":"4","last_reported":1768288632,"current_range_meters":6000,"station_id":"st_d3b462108ojc7389ooeg","pricing_plan_id":"cebpf4jnsgd1na2vs0mg"},{"bike_id":"bb872cf3-111a-4da5-8326-64266a28cac2","system_id":"levelo_inurba_marseille","lat":43.26067,"lon":5.39393,"is_reserved":false,"is_disabled":false,"rental_uris":{"android":"levelo://app?vid=bb872cf3-111a-4da5-8326-64266a28cac2","ios":"levelo://app?vid=bb872cf3-111a-4da5-8326-64266a28cac2"},"vehicle_type_id":"4","last_reported":1768288632,"current_range_meters":6000,"station_id":"ce4bhh92rcd13ifvqfj0","pricing_plan_id":"cebpf4jnsgd1na2vs0mg"},{"bike_id":"1a745114-6eb5-493c-9fc0-5206d65391e2","system_id":"levelo_inurba_marseille","lat":43.28932,"lon":5.3664,"is_reserved":false,"is_disabled":false,"rental_uris":{"android":"levelo://app?vid=1a745114-6eb5-493c-9fc0-5206d65391e2","ios":"levelo://app?vid=1a745114-6eb5-493c-9fc0-5206d65391e2"},"vehicle_type_id":"4","last_reported":1768288632,"current_range_meters":6000,"station_id":"ce4bhap2rcd13ifvqek0","pricing_plan_id":"cebpf4jnsgd1na2vs0mg"},{"bike_id":"ca6c5b5b-a9ad-467b-8916-3c5ac8e065da","system_id":"levelo_inurba_marseille","lat":43.29936,"lon":5.36547,"is_reserved":false,"is_disabled":false,"rental_uris":{"android":"levelo://app?vid=ca6c5b5b-a9ad-467b-8916-3c5ac8e065da","ios":"levelo://app?vid=ca6c5b5b-a9ad-467b-8916-3c5ac8e065da"},"vehicle_type_id":"4","last_reported":1768288632,"current_range_meters":6000,"station_id":"ce4bgm92rcd13ifvqbr0","pricing_plan_id":"cebpf4jnsgd1na2vs0mg"},{"bike_id":"1fab451c-a69a-44ca-b2c3-fe8939fd9580","system_id":"levelo_inurba_marseille","lat":43.3151,"lon":5.41391,"is_reserved":false,"is_disabled":false,"rental_uris":{"android":"levelo://app?vid=1fab451c-a69a-44ca-b2c3-fe8939fd9580","ios":"levelo://app?vid=1fab451c-a69a-44ca-b2c3-fe8939fd9580"},"vehicle_type_id":"4","last_reported":1768288632,"current_range_meters":6000,"station_id":"","pricing_plan_id":"cebpf4jnsgd1na2vs0mg"},{"bike_id":"553df91d-759a-40f3-aecc-e7d8f1d7d794","system_id":"levelo_inurba_marseille","lat":43.31992,"lon":5.38164,"is_reserved":false,"is_disabled":false,"rental_uris":{"android":"levelo://app?vid=553df91d-759a-40f3-aecc-e7d8f1d7d794","ios":"levelo://app?vid=553df91d-759a-40f3-aecc-e7d8f1d7d794"},"vehicle_type_id":"4","last_reported":1768288632,"current_range_meters":6000,"station_id":"ce4bhr12rcd13ifvqhpg","pricing_plan_id":"cebpf4jnsgd1na2vs0mg"},{"bike_id":"a27f6a61-689d-49de-951e-01c7ddaa0581","system_id":"levelo_inurba_marseille","lat":43.2417,"lon":5.36399,"is_reserved":false,"is_disabled":false,"rental_uris":{"android":"levelo://app?vid=a27f6a61-689d-49de-951e-01c7ddaa0581","ios":"levelo://app?vid=a27f6a61-689d-49de-951e-01c7ddaa0581"},"vehicle_type_id":"4","last_reported":1768288632,"current_range_meters":6400,"station_id":"cpo36qri1sfpv3e86is0","pricing_plan_id":"cebpf4jnsgd1na2vs0mg"},{"bike_id":"73995964-5fd9-40f3-be62-12151c415e47","system_id":"levelo_inurba_marseille","lat":43.25,"lon":5.38945,"is_reserved":false,"is_disabled":false,"rental_uris":{"android":"levelo://app?vid=73995964-5fd9-40f3-be62-12151c415e47","ios":"levelo://app?vid=73995964-5fd9-40f3-be62-12151c415e47"},"vehicle_type_id":"4","last_reported":1768288632,"current_range_meters":6400,"station_id":"ce4bhgp2rcd13ifvqfd0","pricing_plan_id":"cebpf4jnsgd1na2vs0mg"},{"bike_id":"724de0f9-0a1e-4ba0-a5b2-659a4663c10c","system_id":"levelo_inurba_marseille","lat":43.25067,"lon":5.39489,"is_reserved":false,"is_disabled":false,"rental_uris":{"android":"levelo://app?vid=724de0f9-0a1e-4ba0-a5b2-659a4663c10c","ios":"levelo://app?vid=724de0f9-0a1e-4ba0-a5b2-659a4663c10c"},"vehicle_type_id":"4","last_reported":1768288632,"current_range_meters":6400,"station_id":"ce4bhm12rcd13ifvqgkg","pricing_plan_id":"cebpf4jnsgd1na2vs0mg"},{"bike_id":"c9aa61c2-bf79-4eea-867a-5fdf9f19baaf","system_id":"levelo_inurba_marseille","lat":43.25522,"lon":5.37643,"is_reserved":false,"is_disabled":false,"rental_uris":{"android":"levelo://app?vid=c9aa61c2-bf79-4eea-867a-5fdf9f19baaf","ios":"levelo://app?vid=c9aa61c2-bf79-4eea-867a-5fdf9f19baaf"},"vehicle_type_id":"4","last_reported":1768288632,"current_range_meters":6400,"station_id":"ce4bhh12rcd13ifvqff0","pricing_plan_id":"cebpf4jnsgd1na2vs0mg"},{"bike_id":"c4fcc189-751d-4eb2-af69-d5ccf6bfb543","system_id":"levelo_inurba_marseille","lat":43.284739,"lon":5.48399,"is_reserved":false,"is_disabled":false,"rental_uris":{"android":"levelo://app?vid=c4fcc189-751d-4eb2-af69-d5ccf6bfb543","ios":"levelo://app?vid=c4fcc189-751d-4eb2-af69-d5ccf6bfb543"},"vehicle_type_id":"4","last_reported":1768288632,"current_range_meters":6400,"station_id":"st_d3svhcjqgbts73a3dn0g","pricing_plan_id":"cebpf4jnsgd1na2vs0mg"},{"bike_id":"7b7c4d5a-48b0-4253-8d68-ce9bdb9244be","system_id":"levelo_inurba_marseille","lat":43.2654,"lon":5.3729,"is_reserved":false,"is_disabled":false,"rental_uris":{"android":"levelo://app?vid=7b7c4d5a-48b0-4253-8d68-ce9bdb9244be","ios":"levelo://app?vid=7b7c4d5a-48b0-4253-8d68-ce9bdb9244be"},"vehicle_type_id":"4","last_reported":1768288632,"current_range_meters":6400,"station_id":"ce4bhg12rcd13ifvqf70","pricing_plan_id":"cebpf4jnsgd1na2vs0mg"},{"bike_id":"aa71df00-ac67-458a-bb07-9f22d4867495","system_id":"levelo_inurba_marseille","lat":43.24394,"lon":5.37071,"is_reserved":false,"is_disabled":false,"rental_uris":{"android":"levelo://app?vid=aa71df00-ac67-458a-bb07-9f22d4867495","ios":"levelo://app?vid=aa71df00-ac67-458a-bb07-9f22d4867495"},"vehicle_type_id":"4","last_reported":1768288632,"current_range_meters":6400,"station_id":"ce4bhhh2rcd13ifvqfk0","pricing_plan_id":"cebpf4jnsgd1na2vs0mg"},{"bike_id":"889365ac-dd9e-4bc8-95c4-120ab5729ad1","system_id":"levelo_inurba_marseille","lat":43.25574,"lon":5.38252,"is_reserved":false,"is_disabled":false,"rental_uris":{"android":"levelo://app?vid=889365ac-dd9e-4bc8-95c4-120ab5729ad1","ios":"levelo://app?vid=889365ac-dd9e-4bc8-95c4-120ab5729ad1"},"vehicle_type_id":"4","last_reported":1768288632,"current_range_meters":6400,"station_id":"ce4bhih2rcd13ifvqfs0","pricing_plan_id":"cebpf4jnsgd1na2vs0mg"},{"bike_id":"c68e5b51-42cb-4a64-aebf-ab50b3da91bd","system_id":"levelo_inurba_marseille","lat":43.28097,"lon":5.37837,"is_reserved":false,"is_disabled":true,"rental_uris":{"android":"levelo://app?vid=c68e5b51-42cb-4a64-aebf-ab50b3da91bd","ios":"levelo://app?vid=c68e5b51-42cb-4a64-aebf-ab50b3da91bd"},"vehicle_type_id":"4","last_reported":1768288632,"current_range_meters":6400,"station_id":"ce4bha12rcd13ifvqee0","pricing_plan_id":"cebpf4jnsgd1na2vs0mg"},{"bike_id":"ba9aa4b5-9ae3-4347-ba16-0b79f803aee5","system_id":"levelo_inurba_marseille","lat":43.29864,"lon":5.40911,"is_reserved":false,"is_disabled":false,"rental_uris":{"android":"levelo://app?vid=ba9aa4b5-9ae3-4347-ba16-0b79f803aee5","ios":"levelo://app?vid=ba9aa4b5-9ae3-4347-ba16-0b79f803aee5"},"vehicle_type_id":"4","last_reported":1768288632,"current_range_meters":6400,"station_id":"","pricing_plan_id":"cebpf4jnsgd1na2vs0mg"},{"bike_id":"c4719649-1dbc-4c5a-b782-8fce65146957","system_id":"levelo_inurba_marseille","lat":43.28552,"lon":5.44078,"is_reserved":false,"is_disabled":false,"rental_uris":{"android":"levelo://app?vid=c4719649-1dbc-4c5a-b782-8fce65146957","ios":"levelo://app?vid=c4719649-1dbc-4c5a-b782-8fce65146957"},"vehicle_type_id":"4","last_reported":1768288632,"current_range_meters":6400,"station_id":"st_d3j3df2ikq2c7380ej80","pricing_plan_id":"cebpf4jnsgd1na2vs0mg"},{"bike_id":"fbaef028-ec74-4c9f-8bef-75df8753715b","system_id":"levelo_inurba_marseille","lat":43.29012,"lon":5.37106,"is_reserved":false,"is_disabled":false,"rental_uris":{"android":"levelo://app?vid=fbaef028-ec74-4c9f-8bef-75df8753715b","ios":"levelo://app?vid=fbaef028-ec74-4c9f-8bef-75df8753715b"},"vehicle_type_id":"4","last_reported":1768288632,"current_range_meters":6400,"station_id":"","pricing_plan_id":"cebpf4jnsgd1na2vs0mg"},{"bike_id":"6ab62250-5818-43ed-b656-9cf3ea931848","system_id":"levelo_inurba_marseille","lat":43.28264,"lon":5.35053,"is_reserved":false,"is_disabled":false,"rental_uris":{"android":"levelo://app?vid=6ab62250-5818-43ed-b656-9cf3ea931848","ios":"levelo://app?vid=6ab62250-5818-43ed-b656-9cf3ea931848"},"vehicle_type_id":"4","last_reported":1768288632,"current_range_meters":6400,"station_id":"ce4bhbp2rcd13ifvqerg","pricing_plan_id":"cebpf4jnsgd1na2vs0mg"},{"bike_id":"9c6ac982-85bd-4de8-bac0-c36b3d884f3d","system_id":"levelo_inurba_marseille","lat":43.32116,"lon":5.36784,"is_reserved":false,"is_disabled":false,"rental_uris":{"android":"levelo://app?vid=9c6ac982-85bd-4de8-bac0-c36b3d884f3d","ios":"levelo://app?vid=9c6ac982-85bd-4de8-bac0-c36b3d884f3d"},"vehicle_type_id":"4","last_reported":1768288632,"current_range_meters":6400,"station_id":"ce4bhrh2rcd13ifvqhug","pricing_plan_id":"cebpf4jnsgd1na2vs0mg"},{"bike_id":"63b1856a-5e73-4949-8313-642a7aae66aa","system_id":"levelo_inurba_marseille","lat":43.229202,"lon":5.353807,"is_reserved":false,"is_disabled":false,"rental_uris":{"android":"levelo://app?vid=63b1856a-5e73-4949-8313-642a7aae66aa","ios":"levelo://app?vid=63b1856a-5e73-4949-8313-642a7aae66aa"},"vehicle_type_id":"4","last_reported":1768288632,"current_range_meters":6400,"station_id":"cpo3532slgdg3j2ikp40","pricing_plan_id":"cebpf4jnsgd1na2vs0mg"},{"bike_id":"a5fdd8c3-d5e0-4c98-a5d1-c952389257b2","system_id":"levelo_inurba_marseille","lat":43.24625,"lon":5.43144,"is_reserved":false,"is_disabled":false,"rental_uris":{"android":"levelo://app?vid=a5fdd8c3-d5e0-4c98-a5d1-c952389257b2","ios":"levelo://app?vid=a5fdd8c3-d5e0-4c98-a5d1-c952389257b2"},"vehicle_type_id":"4","last_reported":1768288632,"current_range_meters":6400,"station_id":"st_d2m6c4gdas8pm72e190g","pricing_plan_id":"cebpf4jnsgd1na2vs0mg"},{"bike_id":"1b1a670a-fcf4-4828-aa79-e1b72cfec18c","system_id":"levelo_inurba_marseille","lat":43.2319,"lon":5.35533,"is_reserved":false,"is_disabled":false,"rental_uris":{"android":"levelo://app?vid=1b1a670a-fcf4-4828-aa79-e1b72cfec18c","ios":"levelo://app?vid=1b1a670a-fcf4-4828-aa79-e1b72cfec18c"},"vehicle_type_id":"4","last_reported":1768288632,"current_range_meters":6400,"station_id":"ce4bhu92rcd13ifvqi70","pricing_plan_id":"cebpf4jnsgd1na2vs0mg"},{"bike_id":"b659a5a2-a6de-438e-b560-ec4a8dc93085","system_id":"levelo_inurba_marseille","lat":43.26236,"lon":5.40464,"is_reserved":false,"is_disabled":false,"rental_uris":{"android":"levelo://app?vid=b659a5a2-a6de-438e-b560-ec4a8dc93085","ios":"levelo://app?vid=b659a5a2-a6de-438e-b560-ec4a8dc93085"},"vehicle_type_id":"4","last_reported":1768288632,"current_range_meters":6400,"station_id":"ce4bhmh2rcd13ifvqgmg","pricing_plan_id":"cebpf4jnsgd1na2vs0mg"},{"bike_id":"cdb7f885-d79c-4a7f-be8b-87d7e51ae524","system_id":"levelo_inurba_marseille","lat":43.30652,"lon":5.40508,"is_reserved":false,"is_disabled":false,"rental_uris":{"android":"levelo://app?vid=cdb7f885-d79c-4a7f-be8b-87d7e51ae524","ios":"levelo://app?vid=cdb7f885-d79c-4a7f-be8b-87d7e51ae524"},"vehicle_type_id":"4","last_reported":1768288632,"current_range_meters":6400,"station_id":"ce4bh112rcd13ifvqda0","pricing_plan_id":"cebpf4jnsgd1na2vs0mg"},{"bike_id":"1dcef9c8-b5e1-451d-b0a1-2086b37251e4","system_id":"levelo_inurba_marseille","lat":43.2705,"lon":5.40262,"is_reserved":false,"is_disabled":false,"rental_uris":{"android":"levelo://app?vid=1dcef9c8-b5e1-451d-b0a1-2086b37251e4","ios":"levelo://app?vid=1dcef9c8-b5e1-451d-b0a1-2086b37251e4"},"vehicle_type_id":"4","last_reported":1768288632,"current_range_meters":6800,"station_id":"ce4bhk92rcd13ifvqgc0","pricing_plan_id":"cebpf4jnsgd1na2vs0mg"},{"bike_id":"c52a3b2e-2d80-494e-a251-95eca3abe920","system_id":"levelo_inurba_marseille","lat":43.308758,"lon":5.371957,"is_reserved":false,"is_disabled":false,"rental_uris":{"android":"levelo://app?vid=c52a3b2e-2d80-494e-a251-95eca3abe920","ios":"levelo://app?vid=c52a3b2e-2d80-494e-a251-95eca3abe920"},"vehicle_type_id":"4","last_reported":1768288632,"current_range_meters":6800,"station_id":"ce4bguh2rcd13ifvqckg","pricing_plan_id":"cebpf4jnsgd1na2vs0mg"},{"bike_id":"3131342a-e8d7-4b61-a752-64517a314409","system_id":"levelo_inurba_marseille","lat":43.24075,"lon":5.37758,"is_reserved":false,"is_disabled":false,"rental_uris":{"android":"levelo://app?vid=3131342a-e8d7-4b61-a752-64517a314409","ios":"levelo://app?vid=3131342a-e8d7-4b61-a752-64517a314409"},"vehicle_type_id":"4","last_reported":1768288632,"current_range_meters":6800,"station_id":"ce4bhnp2rcd13ifvqgvg","pricing_plan_id":"cebpf4jnsgd1na2vs0mg"},{"bike_id":"0fafc9bc-eab3-4497-b4de-e36867104d5a","system_id":"levelo_inurba_marseille","lat":43.26067,"lon":5.39394,"is_reserved":false,"is_disabled":false,"rental_uris":{"android":"levelo://app?vid=0fafc9bc-eab3-4497-b4de-e36867104d5a","ios":"levelo://app?vid=0fafc9bc-eab3-4497-b4de-e36867104d5a"},"vehicle_type_id":"4","last_reported":1768288632,"current_range_meters":6800,"station_id":"ce4bhh92rcd13ifvqfj0","pricing_plan_id":"cebpf4jnsgd1na2vs0mg"},{"bike_id":"bfadf7fc-bcf2-4c99-861d-86f2295e307b","system_id":"levelo_inurba_marseille","lat":43.29043,"lon":5.39943,"is_reserved":false,"is_disabled":false,"rental_uris":{"android":"levelo://app?vid=bfadf7fc-bcf2-4c99-861d-86f2295e307b","ios":"levelo://app?vid=bfadf7fc-bcf2-4c99-861d-86f2295e307b"},"vehicle_type_id":"4","last_reported":1768288632,"current_range_meters":6800,"station_id":"ce4bh392rcd13ifvqdm0","pricing_plan_id":"cebpf4jnsgd1na2vs0mg"},{"bike_id":"15b21ccb-bd0e-47c3-8259-e27d2855772d","system_id":"levelo_inurba_marseille","lat":43.24602,"lon":5.38379,"is_reserved":false,"is_disabled":false,"rental_uris":{"android":"levelo://app?vid=15b21ccb-bd0e-47c3-8259-e27d2855772d","ios":"levelo://app?vid=15b21ccb-bd0e-47c3-8259-e27d2855772d"},"vehicle_type_id":"4","last_reported":1768288632,"current_range_meters":6800,"station_id":"","pricing_plan_id":"cebpf4jnsgd1na2vs0mg"},{"bike_id":"0fccdfe4-16bf-4a0e-a9a6-49fb9e17b3b5","system_id":"levelo_inurba_marseille","lat":43.27915,"lon":5.39577,"is_reserved":false,"is_disabled":false,"rental_uris":{"android":"levelo://app?vid=0fccdfe4-16bf-4a0e-a9a6-49fb9e17b3b5","ios":"levelo://app?vid=0fccdfe4-16bf-4a0e-a9a6-49fb9e17b3b5"},"vehicle_type_id":"4","last_reported":1768288632,"current_range_meters":6800,"station_id":"ce4bhf92rcd13ifvqf40","pricing_plan_id":"cebpf4jnsgd1na2vs0mg"},{"bike_id":"4fcf8939-d9e5-44a3-8f16-b04dcd32071a","system_id":"levelo_inurba_marseille","lat":43.24154,"lon":5.36417,"is_reserved":false,"is_disabled":false,"rental_uris":{"android":"levelo://app?vid=4fcf8939-d9e5-44a3-8f16-b04dcd32071a","ios":"levelo://app?vid=4fcf8939-d9e5-44a3-8f16-b04dcd32071a"},"vehicle_type_id":"4","last_reported":1768288632,"current_range_meters":6800,"station_id":"cpo36qri1sfpv3e86is0","pricing_plan_id":"cebpf4jnsgd1na2vs0mg"},{"bike_id":"f177f7bc-1ed5-42e0-a608-82886412a4e4","system_id":"levelo_inurba_marseille","lat":43.23963,"lon":5.36623,"is_reserved":false,"is_disabled":false,"rental_uris":{"android":"levelo://app?vid=f177f7bc-1ed5-42e0-a608-82886412a4e4","ios":"levelo://app?vid=f177f7bc-1ed5-42e0-a608-82886412a4e4"},"vehicle_type_id":"4","last_reported":1768288632,"current_range_meters":6800,"station_id":"ce4bhi12rcd13ifvqfp0","pricing_plan_id":"cebpf4jnsgd1na2vs0mg"},{"bike_id":"2f585226-4a85-4b93-975d-09a83b1505be","system_id":"levelo_inurba_marseille","lat":43.28696,"lon":5.39982,"is_reserved":false,"is_disabled":false,"rental_uris":{"android":"levelo://app?vid=2f585226-4a85-4b93-975d-09a83b1505be","ios":"levelo://app?vid=2f585226-4a85-4b93-975d-09a83b1505be"},"vehicle_type_id":"4","last_reported":1768288632,"current_range_meters":6800,"station_id":"ce4bho92rcd13ifvqh3g","pricing_plan_id":"cebpf4jnsgd1na2vs0mg"},{"bike_id":"e0390093-e93c-4352-a447-1922bd291a25","system_id":"levelo_inurba_marseille","lat":43.241593,"lon":5.364043,"is_reserved":false,"is_disabled":false,"rental_uris":{"android":"levelo://app?vid=e0390093-e93c-4352-a447-1922bd291a25","ios":"levelo://app?vid=e0390093-e93c-4352-a447-1922bd291a25"},"vehicle_type_id":"4","last_reported":1768288632,"current_range_meters":6800,"station_id":"cpo36qri1sfpv3e86is0","pricing_plan_id":"cebpf4jnsgd1na2vs0mg"},{"bike_id":"1845d2fb-0859-467f-95df-07e0e08fe2cf","system_id":"levelo_inurba_marseille","lat":43.2794,"lon":5.38687,"is_reserved":false,"is_disabled":false,"rental_uris":{"android":"levelo://app?vid=1845d2fb-0859-467f-95df-07e0e08fe2cf","ios":"levelo://app?vid=1845d2fb-0859-467f-95df-07e0e08fe2cf"},"vehicle_type_id":"4","last_reported":1768288632,"current_range_meters":6800,"station_id":"","pricing_plan_id":"cebpf4jnsgd1na2vs0mg"},{"bike_id":"63fc7043-c019-4251-abc3-87e8519908fa","system_id":"levelo_inurba_marseille","lat":43.26691,"lon":5.38277,"is_reserved":false,"is_disabled":true,"rental_uris":{"android":"levelo://app?vid=63fc7043-c019-4251-abc3-87e8519908fa","ios":"levelo://app?vid=63fc7043-c019-4251-abc3-87e8519908fa"},"vehicle_type_id":"4","last_reported":1768288632,"current_range_meters":6800,"station_id":"ce4bhg92rcd13ifvqf90","pricing_plan_id":"cebpf4jnsgd1na2vs0mg"},{"bike_id":"60a04adb-0657-47e5-b533-ab4951f6402e","system_id":"levelo_inurba_marseille","lat":43.30453,"lon":5.37919,"is_reserved":false,"is_disabled":false,"rental_uris":{"android":"levelo://app?vid=60a04adb-0657-47e5-b533-ab4951f6402e","ios":"levelo://app?vid=60a04adb-0657-47e5-b533-ab4951f6402e"},"vehicle_type_id":"4","last_reported":1768288632,"current_range_meters":6800,"station_id":"ce4bgup2rcd13ifvqcn0","pricing_plan_id":"cebpf4jnsgd1na2vs0mg"},{"bike_id":"a714f418-ed3b-4b59-9c3d-b14acbf5c7c6","system_id":"levelo_inurba_marseille","lat":43.25075,"lon":5.39521,"is_reserved":false,"is_disabled":false,"rental_uris":{"android":"levelo://app?vid=a714f418-ed3b-4b59-9c3d-b14acbf5c7c6","ios":"levelo://app?vid=a714f418-ed3b-4b59-9c3d-b14acbf5c7c6"},"vehicle_type_id":"4","last_reported":1768288632,"current_range_meters":6800,"station_id":"ce4bhm12rcd13ifvqgkg","pricing_plan_id":"cebpf4jnsgd1na2vs0mg"},{"bike_id":"e7f880b9-9ced-4dbf-8dbc-b70fe3a8fb49","system_id":"levelo_inurba_marseille","lat":43.32356,"lon":5.36731,"is_reserved":false,"is_disabled":false,"rental_uris":{"android":"levelo://app?vid=e7f880b9-9ced-4dbf-8dbc-b70fe3a8fb49","ios":"levelo://app?vid=e7f880b9-9ced-4dbf-8dbc-b70fe3a8fb49"},"vehicle_type_id":"4","last_reported":1768288632,"current_range_meters":6800,"station_id":"ce4bhsh2rcd13ifvqi2g","pricing_plan_id":"cebpf4jnsgd1na2vs0mg"},{"bike_id":"312681fa-4d84-401f-8387-2d987d0df7e0","system_id":"levelo_inurba_marseille","lat":43.32339,"lon":5.36733,"is_reserved":false,"is_disabled":false,"rental_uris":{"android":"levelo://app?vid=312681fa-4d84-401f-8387-2d987d0df7e0","ios":"levelo://app?vid=312681fa-4d84-401f-8387-2d987d0df7e0"},"vehicle_type_id":"4","last_reported":1768288632,"current_range_meters":6800,"station_id":"ce4bhsh2rcd13ifvqi2g","pricing_plan_id":"cebpf4jnsgd1na2vs0mg"},{"bike_id":"2cc9db73-43c9-4a56-a963-4c4c6878c41f","system_id":"levelo_inurba_marseille","lat":43.23842,"lon":5.36647,"is_reserved":false,"is_disabled":false,"rental_uris":{"android":"levelo://app?vid=2cc9db73-43c9-4a56-a963-4c4c6878c41f","ios":"levelo://app?vid=2cc9db73-43c9-4a56-a963-4c4c6878c41f"},"vehicle_type_id":"4","last_reported":1768288632,"current_range_meters":6800,"station_id":"","pricing_plan_id":"cebpf4jnsgd1na2vs0mg"},{"bike_id":"8b08bb50-6a89-4b43-8d1d-7b39db0febba","system_id":"levelo_inurba_marseille","lat":43.239665,"lon":5.366309,"is_reserved":false,"is_disabled":false,"rental_uris":{"android":"levelo://app?vid=8b08bb50-6a89-4b43-8d1d-7b39db0febba","ios":"levelo://app?vid=8b08bb50-6a89-4b43-8d1d-7b39db0febba"},"vehicle_type_id":"4","last_reported":1768288632,"current_range_meters":6800,"station_id":"ce4bhi12rcd13ifvqfp0","pricing_plan_id":"cebpf4jnsgd1na2vs0mg"},{"bike_id":"a688a9d6-b634-47f6-95e7-c19e106a31e3","system_id":"levelo_inurba_marseille","lat":43.28656,"lon":5.3635,"is_reserved":false,"is_disabled":false,"rental_uris":{"android":"levelo://app?vid=a688a9d6-b634-47f6-95e7-c19e106a31e3","ios":"levelo://app?vid=a688a9d6-b634-47f6-95e7-c19e106a31e3"},"vehicle_type_id":"4","last_reported":1768288632,"current_range_meters":6800,"station_id":"","pricing_plan_id":"cebpf4jnsgd1na2vs0mg"},{"bike_id":"c982d76b-7fd6-451c-9063-ebda7a233a9e","system_id":"levelo_inurba_marseille","lat":43.26967,"lon":5.40309,"is_reserved":false,"is_disabled":false,"rental_uris":{"android":"levelo://app?vid=c982d76b-7fd6-451c-9063-ebda7a233a9e","ios":"levelo://app?vid=c982d76b-7fd6-451c-9063-ebda7a233a9e"},"vehicle_type_id":"4","last_reported":1768288632,"current_range_meters":6800,"station_id":"cjm6bp8fraef2m0cb0m0","pricing_plan_id":"cebpf4jnsgd1na2vs0mg"},{"bike_id":"b60c8777-50a1-4187-b012-61c8b2392d61","system_id":"levelo_inurba_marseille","lat":43.24161,"lon":5.36403,"is_reserved":false,"is_disabled":false,"rental_uris":{"android":"levelo://app?vid=b60c8777-50a1-4187-b012-61c8b2392d61","ios":"levelo://app?vid=b60c8777-50a1-4187-b012-61c8b2392d61"},"vehicle_type_id":"4","last_reported":1768288632,"current_range_meters":6800,"station_id":"cpo36qri1sfpv3e86is0","pricing_plan_id":"cebpf4jnsgd1na2vs0mg"},{"bike_id":"73159171-0e70-4889-87e6-07eac0d40625","system_id":"levelo_inurba_marseille","lat":43.22574,"lon":5.41721,"is_reserved":false,"is_disabled":false,"rental_uris":{"android":"levelo://app?vid=73159171-0e70-4889-87e6-07eac0d40625","ios":"levelo://app?vid=73159171-0e70-4889-87e6-07eac0d40625"},"vehicle_type_id":"4","last_reported":1768288632,"current_range_meters":6800,"station_id":"st_d2o4gvlbi1j2169b742g","pricing_plan_id":"cebpf4jnsgd1na2vs0mg"},{"bike_id":"b563b9ee-f431-483e-9b3a-89ae67e2e8da","system_id":"levelo_inurba_marseille","lat":43.261985,"lon":5.379319,"is_reserved":false,"is_disabled":false,"rental_uris":{"android":"levelo://app?vid=b563b9ee-f431-483e-9b3a-89ae67e2e8da","ios":"levelo://app?vid=b563b9ee-f431-483e-9b3a-89ae67e2e8da"},"vehicle_type_id":"4","last_reported":1768288632,"current_range_meters":7200,"station_id":"ce4bhjp2rcd13ifvqg90","pricing_plan_id":"cebpf4jnsgd1na2vs0mg"},{"bike_id":"af0b862d-1b21-408c-b115-209a492a88a8","system_id":"levelo_inurba_marseille","lat":43.32359,"lon":5.36763,"is_reserved":false,"is_disabled":false,"rental_uris":{"android":"levelo://app?vid=af0b862d-1b21-408c-b115-209a492a88a8","ios":"levelo://app?vid=af0b862d-1b21-408c-b115-209a492a88a8"},"vehicle_type_id":"4","last_reported":1768288632,"current_range_meters":7200,"station_id":"ce4bhsh2rcd13ifvqi2g","pricing_plan_id":"cebpf4jnsgd1na2vs0mg"},{"bike_id":"50df1513-8882-4403-8f50-7facfcd0de34","system_id":"levelo_inurba_marseille","lat":43.24168,"lon":5.36399,"is_reserved":false,"is_disabled":false,"rental_uris":{"android":"levelo://app?vid=50df1513-8882-4403-8f50-7facfcd0de34","ios":"levelo://app?vid=50df1513-8882-4403-8f50-7facfcd0de34"},"vehicle_type_id":"4","last_reported":1768288632,"current_range_meters":7200,"station_id":"cpo36qri1sfpv3e86is0","pricing_plan_id":"cebpf4jnsgd1na2vs0mg"},{"bike_id":"ce421665-3c26-4baa-b8ec-61eb8aef5e07","system_id":"levelo_inurba_marseille","lat":43.28077,"lon":5.40748,"is_reserved":false,"is_disabled":false,"rental_uris":{"android":"levelo://app?vid=ce421665-3c26-4baa-b8ec-61eb8aef5e07","ios":"levelo://app?vid=ce421665-3c26-4baa-b8ec-61eb8aef5e07"},"vehicle_type_id":"4","last_reported":1768288632,"current_range_meters":7200,"station_id":"","pricing_plan_id":"cebpf4jnsgd1na2vs0mg"},{"bike_id":"d21624bd-c474-47d2-a770-cf5d5a2cb126","system_id":"levelo_inurba_marseille","lat":43.24461,"lon":5.42537,"is_reserved":false,"is_disabled":false,"rental_uris":{"android":"levelo://app?vid=d21624bd-c474-47d2-a770-cf5d5a2cb126","ios":"levelo://app?vid=d21624bd-c474-47d2-a770-cf5d5a2cb126"},"vehicle_type_id":"4","last_reported":1768288632,"current_range_meters":7200,"station_id":"st_d4a3vfp97mjs738cd8kg","pricing_plan_id":"cebpf4jnsgd1na2vs0mg"},{"bike_id":"bd095c77-3b3c-4587-bfa7-4c836cba65c9","system_id":"levelo_inurba_marseille","lat":43.27201,"lon":5.39183,"is_reserved":false,"is_disabled":false,"rental_uris":{"android":"levelo://app?vid=bd095c77-3b3c-4587-bfa7-4c836cba65c9","ios":"levelo://app?vid=bd095c77-3b3c-4587-bfa7-4c836cba65c9"},"vehicle_type_id":"4","last_reported":1768288632,"current_range_meters":7200,"station_id":"ce4bhhp2rcd13ifvqfm0","pricing_plan_id":"cebpf4jnsgd1na2vs0mg"},{"bike_id":"378babbb-f455-4392-b7b1-63d0b2114d6f","system_id":"levelo_inurba_marseille","lat":43.27614,"lon":5.36109,"is_reserved":false,"is_disabled":false,"rental_uris":{"android":"levelo://app?vid=378babbb-f455-4392-b7b1-63d0b2114d6f","ios":"levelo://app?vid=378babbb-f455-4392-b7b1-63d0b2114d6f"},"vehicle_type_id":"4","last_reported":1768288632,"current_range_meters":7200,"station_id":"ce4bgj92rcd13ifvqbe0","pricing_plan_id":"cebpf4jnsgd1na2vs0mg"},{"bike_id":"4ac165b0-4fef-444a-a077-b229bbec7f81","system_id":"levelo_inurba_marseille","lat":43.283982,"lon":5.375072,"is_reserved":false,"is_disabled":false,"rental_uris":{"android":"levelo://app?vid=4ac165b0-4fef-444a-a077-b229bbec7f81","ios":"levelo://app?vid=4ac165b0-4fef-444a-a077-b229bbec7f81"},"vehicle_type_id":"4","last_reported":1768288632,"current_range_meters":7200,"station_id":"ce4bh412rcd13ifvqds0","pricing_plan_id":"cebpf4jnsgd1na2vs0mg"},{"bike_id":"54e3878d-bcb6-4cc9-8446-e62a75e67dcb","system_id":"levelo_inurba_marseille","lat":43.231849,"lon":5.399691,"is_reserved":false,"is_disabled":false,"rental_uris":{"android":"levelo://app?vid=54e3878d-bcb6-4cc9-8446-e62a75e67dcb","ios":"levelo://app?vid=54e3878d-bcb6-4cc9-8446-e62a75e67dcb"},"vehicle_type_id":"4","last_reported":1768288632,"current_range_meters":7200,"station_id":"ce4bhn12rcd13ifvqgqg","pricing_plan_id":"cebpf4jnsgd1na2vs0mg"},{"bike_id":"636c408f-078d-4afa-b7c7-0f0d08d9dff6","system_id":"levelo_inurba_marseille","lat":43.32476,"lon":5.36574,"is_reserved":false,"is_disabled":false,"rental_uris":{"android":"levelo://app?vid=636c408f-078d-4afa-b7c7-0f0d08d9dff6","ios":"levelo://app?vid=636c408f-078d-4afa-b7c7-0f0d08d9dff6"},"vehicle_type_id":"4","last_reported":1768288632,"current_range_meters":7200,"station_id":"ce4bhs12rcd13ifvqhvg","pricing_plan_id":"cebpf4jnsgd1na2vs0mg"},{"bike_id":"98381cda-b3a9-4a41-913e-3012641b7216","system_id":"levelo_inurba_marseille","lat":43.29831,"lon":5.37655,"is_reserved":false,"is_disabled":false,"rental_uris":{"android":"levelo://app?vid=98381cda-b3a9-4a41-913e-3012641b7216","ios":"levelo://app?vid=98381cda-b3a9-4a41-913e-3012641b7216"},"vehicle_type_id":"4","last_reported":1768288632,"current_range_meters":7200,"station_id":"","pricing_plan_id":"cebpf4jnsgd1na2vs0mg"},{"bike_id":"f72a0330-2774-442c-a3bd-2da9f092a731","system_id":"levelo_inurba_marseille","lat":43.32359,"lon":5.36761,"is_reserved":false,"is_disabled":false,"rental_uris":{"android":"levelo://app?vid=f72a0330-2774-442c-a3bd-2da9f092a731","ios":"levelo://app?vid=f72a0330-2774-442c-a3bd-2da9f092a731"},"vehicle_type_id":"4","last_reported":1768288632,"current_range_meters":7200,"station_id":"ce4bhsh2rcd13ifvqi2g","pricing_plan_id":"cebpf4jnsgd1na2vs0mg"},{"bike_id":"c07b2509-7bf4-4660-ac84-a23bb9f415fc","system_id":"levelo_inurba_marseille","lat":43.31125,"lon":5.37769,"is_reserved":false,"is_disabled":false,"rental_uris":{"android":"levelo://app?vid=c07b2509-7bf4-4660-ac84-a23bb9f415fc","ios":"levelo://app?vid=c07b2509-7bf4-4660-ac84-a23bb9f415fc"},"vehicle_type_id":"4","last_reported":1768288632,"current_range_meters":7200,"station_id":"ce4bgt92rcd13ifvqcg0","pricing_plan_id":"cebpf4jnsgd1na2vs0mg"},{"bike_id":"a4823af4-6999-4ba7-aa85-1cd4fb5c8479","system_id":"levelo_inurba_marseille","lat":43.27498,"lon":5.42452,"is_reserved":false,"is_disabled":false,"rental_uris":{"android":"levelo://app?vid=a4823af4-6999-4ba7-aa85-1cd4fb5c8479","ios":"levelo://app?vid=a4823af4-6999-4ba7-aa85-1cd4fb5c8479"},"vehicle_type_id":"4","last_reported":1768288632,"current_range_meters":7200,"station_id":"ce4bhn92rcd13ifvqgrg","pricing_plan_id":"cebpf4jnsgd1na2vs0mg"},{"bike_id":"573219be-8449-4b0b-914b-5825e3035243","system_id":"levelo_inurba_marseille","lat":43.23204,"lon":5.35546,"is_reserved":false,"is_disabled":false,"rental_uris":{"android":"levelo://app?vid=573219be-8449-4b0b-914b-5825e3035243","ios":"levelo://app?vid=573219be-8449-4b0b-914b-5825e3035243"},"vehicle_type_id":"4","last_reported":1768288632,"current_range_meters":7200,"station_id":"ce4bhu92rcd13ifvqi70","pricing_plan_id":"cebpf4jnsgd1na2vs0mg"},{"bike_id":"6846db8e-90fb-4e30-93fa-8789900d77b9","system_id":"levelo_inurba_marseille","lat":43.25939,"lon":5.40891,"is_reserved":false,"is_disabled":false,"rental_uris":{"android":"levelo://app?vid=6846db8e-90fb-4e30-93fa-8789900d77b9","ios":"levelo://app?vid=6846db8e-90fb-4e30-93fa-8789900d77b9"},"vehicle_type_id":"4","last_reported":1768288632,"current_range_meters":8000,"station_id":"ce4bhm92rcd13ifvqglg","pricing_plan_id":"cebpf4jnsgd1na2vs0mg"},{"bike_id":"d06fb8ff-b65e-46fe-ba3f-114fbfe14af3","system_id":"levelo_inurba_marseille","lat":43.26694,"lon":5.39943,"is_reserved":false,"is_disabled":false,"rental_uris":{"android":"levelo://app?vid=d06fb8ff-b65e-46fe-ba3f-114fbfe14af3","ios":"levelo://app?vid=d06fb8ff-b65e-46fe-ba3f-114fbfe14af3"},"vehicle_type_id":"4","last_reported":1768288632,"current_range_meters":8000,"station_id":"","pricing_plan_id":"cebpf4jnsgd1na2vs0mg"},{"bike_id":"51e89195-8b4b-4f5e-a89d-fb7217b1f1c1","system_id":"levelo_inurba_marseille","lat":43.30562,"lon":5.38394,"is_reserved":false,"is_disabled":false,"rental_uris":{"android":"levelo://app?vid=51e89195-8b4b-4f5e-a89d-fb7217b1f1c1","ios":"levelo://app?vid=51e89195-8b4b-4f5e-a89d-fb7217b1f1c1"},"vehicle_type_id":"4","last_reported":1768288632,"current_range_meters":8000,"station_id":"ce4bgg92rcd13ifvqb30","pricing_plan_id":"cebpf4jnsgd1na2vs0mg"},{"bike_id":"92e70edc-70bb-4233-9ca1-29ef20450b65","system_id":"levelo_inurba_marseille","lat":43.29793,"lon":5.38098,"is_reserved":false,"is_disabled":false,"rental_uris":{"android":"levelo://app?vid=92e70edc-70bb-4233-9ca1-29ef20450b65","ios":"levelo://app?vid=92e70edc-70bb-4233-9ca1-29ef20450b65"},"vehicle_type_id":"4","last_reported":1768288632,"current_range_meters":8000,"station_id":"ce4bgip2rcd13ifvqbb0","pricing_plan_id":"cebpf4jnsgd1na2vs0mg"},{"bike_id":"d3d19adc-b45e-4447-85e5-f8c0941e5b6e","system_id":"levelo_inurba_marseille","lat":43.28215,"lon":5.39067,"is_reserved":false,"is_disabled":false,"rental_uris":{"android":"levelo://app?vid=d3d19adc-b45e-4447-85e5-f8c0941e5b6e","ios":"levelo://app?vid=d3d19adc-b45e-4447-85e5-f8c0941e5b6e"},"vehicle_type_id":"4","last_reported":1768288632,"current_range_meters":8000,"station_id":"ce4bhn92rcd13ifvqgsg","pricing_plan_id":"cebpf4jnsgd1na2vs0mg"},{"bike_id":"f7d36b9d-bf7c-43f6-b8d1-8e54d4f4e01e","system_id":"levelo_inurba_marseille","lat":43.315151,"lon":5.380328,"is_reserved":false,"is_disabled":false,"rental_uris":{"android":"levelo://app?vid=f7d36b9d-bf7c-43f6-b8d1-8e54d4f4e01e","ios":"levelo://app?vid=f7d36b9d-bf7c-43f6-b8d1-8e54d4f4e01e"},"vehicle_type_id":"4","last_reported":1768288632,"current_range_meters":8000,"station_id":"ce4bghh2rcd13ifvqb60","pricing_plan_id":"cebpf4jnsgd1na2vs0mg"},{"bike_id":"22bd3aa4-6a09-4e15-b76b-1206c0918c27","system_id":"levelo_inurba_marseille","lat":43.29729,"lon":5.3769,"is_reserved":false,"is_disabled":false,"rental_uris":{"android":"levelo://app?vid=22bd3aa4-6a09-4e15-b76b-1206c0918c27","ios":"levelo://app?vid=22bd3aa4-6a09-4e15-b76b-1206c0918c27"},"vehicle_type_id":"4","last_reported":1768288632,"current_range_meters":8000,"station_id":"ce4bgkh2rcd13ifvqbl0","pricing_plan_id":"cebpf4jnsgd1na2vs0mg"},{"bike_id":"dc2113b1-2f8d-4c2f-ab99-e0406a41f773","system_id":"levelo_inurba_marseille","lat":43.248107,"lon":5.374584,"is_reserved":false,"is_disabled":false,"rental_uris":{"android":"levelo://app?vid=dc2113b1-2f8d-4c2f-ab99-e0406a41f773","ios":"levelo://app?vid=dc2113b1-2f8d-4c2f-ab99-e0406a41f773"},"vehicle_type_id":"4","last_reported":1768288632,"current_range_meters":8000,"station_id":"ce4bhgh2rcd13ifvqfb0","pricing_plan_id":"cebpf4jnsgd1na2vs0mg"},{"bike_id":"29b1656a-cfc4-41bd-94a0-2dce72db0285","system_id":"levelo_inurba_marseille","lat":43.31369,"lon":5.38498,"is_reserved":false,"is_disabled":false,"rental_uris":{"android":"levelo://app?vid=29b1656a-cfc4-41bd-94a0-2dce72db0285","ios":"levelo://app?vid=29b1656a-cfc4-41bd-94a0-2dce72db0285"},"vehicle_type_id":"4","last_reported":1768288632,"current_range_meters":8000,"station_id":"ce4bgt92rcd13ifvqcf0","pricing_plan_id":"cebpf4jnsgd1na2vs0mg"},{"bike_id":"0d6ce8d3-c7df-42f1-9a86-ed0f9419410a","system_id":"levelo_inurba_marseille","lat":43.27916,"lon":5.39595,"is_reserved":false,"is_disabled":false,"rental_uris":{"android":"levelo://app?vid=0d6ce8d3-c7df-42f1-9a86-ed0f9419410a","ios":"levelo://app?vid=0d6ce8d3-c7df-42f1-9a86-ed0f9419410a"},"vehicle_type_id":"4","last_reported":1768288632,"current_range_meters":8000,"station_id":"ce4bhf92rcd13ifvqf40","pricing_plan_id":"cebpf4jnsgd1na2vs0mg"},{"bike_id":"b088ad58-7f41-4ab8-80da-21ba2cb9e467","system_id":"levelo_inurba_marseille","lat":43.2255,"lon":5.41627,"is_reserved":false,"is_disabled":false,"rental_uris":{"android":"levelo://app?vid=b088ad58-7f41-4ab8-80da-21ba2cb9e467","ios":"levelo://app?vid=b088ad58-7f41-4ab8-80da-21ba2cb9e467"},"vehicle_type_id":"4","last_reported":1768288632,"current_range_meters":8000,"station_id":"st_d2o4gvlbi1j2169b742g","pricing_plan_id":"cebpf4jnsgd1na2vs0mg"},{"bike_id":"cb7933d8-d861-42e2-9166-370355de4b93","system_id":"levelo_inurba_marseille","lat":43.25715,"lon":5.41105,"is_reserved":false,"is_disabled":false,"rental_uris":{"android":"levelo://app?vid=cb7933d8-d861-42e2-9166-370355de4b93","ios":"levelo://app?vid=cb7933d8-d861-42e2-9166-370355de4b93"},"vehicle_type_id":"4","last_reported":1768288632,"current_range_meters":8000,"station_id":"ce4bhkp2rcd13ifvqgd0","pricing_plan_id":"cebpf4jnsgd1na2vs0mg"},{"bike_id":"40a5f518-4ec1-4f9c-ada8-7bc0d6856aa5","system_id":"levelo_inurba_marseille","lat":43.241733,"lon":5.363981,"is_reserved":false,"is_disabled":false,"rental_uris":{"android":"levelo://app?vid=40a5f518-4ec1-4f9c-ada8-7bc0d6856aa5","ios":"levelo://app?vid=40a5f518-4ec1-4f9c-ada8-7bc0d6856aa5"},"vehicle_type_id":"4","last_reported":1768288632,"current_range_meters":8000,"station_id":"cpo36qri1sfpv3e86is0","pricing_plan_id":"cebpf4jnsgd1na2vs0mg"},{"bike_id":"7d7fc69f-a6ff-4c94-86d3-d46b84e4a351","system_id":"levelo_inurba_marseille","lat":43.28933,"lon":5.36639,"is_reserved":false,"is_disabled":false,"rental_uris":{"android":"levelo://app?vid=7d7fc69f-a6ff-4c94-86d3-d46b84e4a351","ios":"levelo://app?vid=7d7fc69f-a6ff-4c94-86d3-d46b84e4a351"},"vehicle_type_id":"4","last_reported":1768288632,"current_range_meters":8000,"station_id":"ce4bhap2rcd13ifvqek0","pricing_plan_id":"cebpf4jnsgd1na2vs0mg"},{"bike_id":"a5e4775c-fe09-4d93-916a-5022170bcc25","system_id":"levelo_inurba_marseille","lat":43.241651,"lon":5.363952,"is_reserved":false,"is_disabled":false,"rental_uris":{"android":"levelo://app?vid=a5e4775c-fe09-4d93-916a-5022170bcc25","ios":"levelo://app?vid=a5e4775c-fe09-4d93-916a-5022170bcc25"},"vehicle_type_id":"4","last_reported":1768288632,"current_range_meters":8000,"station_id":"cpo36qri1sfpv3e86is0","pricing_plan_id":"cebpf4jnsgd1na2vs0mg"},{"bike_id":"c6cca8bd-6771-47b8-9eda-a7f16f109e49","system_id":"levelo_inurba_marseille","lat":43.28849,"lon":5.42515,"is_reserved":false,"is_disabled":false,"rental_uris":{"android":"levelo://app?vid=c6cca8bd-6771-47b8-9eda-a7f16f109e49","ios":"levelo://app?vid=c6cca8bd-6771-47b8-9eda-a7f16f109e49"},"vehicle_type_id":"4","last_reported":1768288632,"current_range_meters":8000,"station_id":"st_d3b462108ojc7389ooeg","pricing_plan_id":"cebpf4jnsgd1na2vs0mg"},{"bike_id":"33f0f946-aabd-47fa-9718-116e4f60aaeb","system_id":"levelo_inurba_marseille","lat":43.31325,"lon":5.39703,"is_reserved":false,"is_disabled":false,"rental_uris":{"android":"levelo://app?vid=33f0f946-aabd-47fa-9718-116e4f60aaeb","ios":"levelo://app?vid=33f0f946-aabd-47fa-9718-116e4f60aaeb"},"vehicle_type_id":"4","last_reported":1768288632,"current_range_meters":8400,"station_id":"ce4bgvp2rcd13ifvqcu0","pricing_plan_id":"cebpf4jnsgd1na2vs0mg"},{"bike_id":"6ad2ac5d-0d69-4ff0-8680-3b5339e0db0c","system_id":"levelo_inurba_marseille","lat":43.26686,"lon":5.38269,"is_reserved":false,"is_disabled":true,"rental_uris":{"android":"levelo://app?vid=6ad2ac5d-0d69-4ff0-8680-3b5339e0db0c","ios":"levelo://app?vid=6ad2ac5d-0d69-4ff0-8680-3b5339e0db0c"},"vehicle_type_id":"4","last_reported":1768288632,"current_range_meters":8400,"station_id":"ce4bhg92rcd13ifvqf90","pricing_plan_id":"cebpf4jnsgd1na2vs0mg"},{"bike_id":"5f8fee54-d2a5-449a-bb41-fb1b767b5315","system_id":"levelo_inurba_marseille","lat":43.26544,"lon":5.37289,"is_reserved":false,"is_disabled":false,"rental_uris":{"android":"levelo://app?vid=5f8fee54-d2a5-449a-bb41-fb1b767b5315","ios":"levelo://app?vid=5f8fee54-d2a5-449a-bb41-fb1b767b5315"},"vehicle_type_id":"4","last_reported":1768288632,"current_range_meters":8400,"station_id":"ce4bhg12rcd13ifvqf70","pricing_plan_id":"cebpf4jnsgd1na2vs0mg"},{"bike_id":"d3b801a7-a321-4c0e-9d17-d7d38e6bbae6","system_id":"levelo_inurba_marseille","lat":43.27969,"lon":5.38644,"is_reserved":false,"is_disabled":false,"rental_uris":{"android":"levelo://app?vid=d3b801a7-a321-4c0e-9d17-d7d38e6bbae6","ios":"levelo://app?vid=d3b801a7-a321-4c0e-9d17-d7d38e6bbae6"},"vehicle_type_id":"4","last_reported":1768288632,"current_range_meters":8400,"station_id":"","pricing_plan_id":"cebpf4jnsgd1na2vs0mg"},{"bike_id":"9b1adbdc-a09f-4c2c-967f-18b3146ce981","system_id":"levelo_inurba_marseille","lat":43.27616,"lon":5.36104,"is_reserved":false,"is_disabled":false,"rental_uris":{"android":"levelo://app?vid=9b1adbdc-a09f-4c2c-967f-18b3146ce981","ios":"levelo://app?vid=9b1adbdc-a09f-4c2c-967f-18b3146ce981"},"vehicle_type_id":"4","last_reported":1768288632,"current_range_meters":8400,"station_id":"ce4bgj92rcd13ifvqbe0","pricing_plan_id":"cebpf4jnsgd1na2vs0mg"},{"bike_id":"8125e88c-461b-4905-b86d-3923932af4fb","system_id":"levelo_inurba_marseille","lat":43.27987,"lon":5.40029,"is_reserved":false,"is_disabled":false,"rental_uris":{"android":"levelo://app?vid=8125e88c-461b-4905-b86d-3923932af4fb","ios":"levelo://app?vid=8125e88c-461b-4905-b86d-3923932af4fb"},"vehicle_type_id":"4","last_reported":1768288632,"current_range_meters":8400,"station_id":"ce4bho92rcd13ifvqh4g","pricing_plan_id":"cebpf4jnsgd1na2vs0mg"},{"bike_id":"1a410dc3-ec66-418e-b61d-e6ababbd00ea","system_id":"levelo_inurba_marseille","lat":43.2551,"lon":5.37632,"is_reserved":false,"is_disabled":false,"rental_uris":{"android":"levelo://app?vid=1a410dc3-ec66-418e-b61d-e6ababbd00ea","ios":"levelo://app?vid=1a410dc3-ec66-418e-b61d-e6ababbd00ea"},"vehicle_type_id":"4","last_reported":1768288632,"current_range_meters":8400,"station_id":"ce4bhh12rcd13ifvqff0","pricing_plan_id":"cebpf4jnsgd1na2vs0mg"},{"bike_id":"6f05d05b-9aa2-4de3-a791-483aba4ef9c4","system_id":"levelo_inurba_marseille","lat":43.24542,"lon":5.39524,"is_reserved":false,"is_disabled":false,"rental_uris":{"android":"levelo://app?vid=6f05d05b-9aa2-4de3-a791-483aba4ef9c4","ios":"levelo://app?vid=6f05d05b-9aa2-4de3-a791-483aba4ef9c4"},"vehicle_type_id":"4","last_reported":1768288632,"current_range_meters":8400,"station_id":"ce4bhlp2rcd13ifvqgjg","pricing_plan_id":"cebpf4jnsgd1na2vs0mg"},{"bike_id":"dbca4029-d08e-4725-b682-eaca4b614f30","system_id":"levelo_inurba_marseille","lat":43.32356,"lon":5.36679,"is_reserved":false,"is_disabled":false,"rental_uris":{"android":"levelo://app?vid=dbca4029-d08e-4725-b682-eaca4b614f30","ios":"levelo://app?vid=dbca4029-d08e-4725-b682-eaca4b614f30"},"vehicle_type_id":"4","last_reported":1768288632,"current_range_meters":8400,"station_id":"","pricing_plan_id":"cebpf4jnsgd1na2vs0mg"},{"bike_id":"9b5af17d-963d-4337-ba4a-df5a54e9cf3a","system_id":"levelo_inurba_marseille","lat":43.32499,"lon":5.38297,"is_reserved":false,"is_disabled":false,"rental_uris":{"android":"levelo://app?vid=9b5af17d-963d-4337-ba4a-df5a54e9cf3a","ios":"levelo://app?vid=9b5af17d-963d-4337-ba4a-df5a54e9cf3a"},"vehicle_type_id":"4","last_reported":1768288632,"current_range_meters":8400,"station_id":"st_d4asgbiv49dc73anf9m0","pricing_plan_id":"cebpf4jnsgd1na2vs0mg"},{"bike_id":"857c9c30-a9bc-4fa8-acdf-5957074843d8","system_id":"levelo_inurba_marseille","lat":43.30144,"lon":5.38083,"is_reserved":false,"is_disabled":false,"rental_uris":{"android":"levelo://app?vid=857c9c30-a9bc-4fa8-acdf-5957074843d8","ios":"levelo://app?vid=857c9c30-a9bc-4fa8-acdf-5957074843d8"},"vehicle_type_id":"4","last_reported":1768288632,"current_range_meters":8400,"station_id":"ce4bgjp2rcd13ifvqbh0","pricing_plan_id":"cebpf4jnsgd1na2vs0mg"},{"bike_id":"4decab12-4aea-443b-993f-b32cadac6871","system_id":"levelo_inurba_marseille","lat":43.239527,"lon":5.366333,"is_reserved":false,"is_disabled":false,"rental_uris":{"android":"levelo://app?vid=4decab12-4aea-443b-993f-b32cadac6871","ios":"levelo://app?vid=4decab12-4aea-443b-993f-b32cadac6871"},"vehicle_type_id":"4","last_reported":1768288632,"current_range_meters":8400,"station_id":"ce4bhi12rcd13ifvqfp0","pricing_plan_id":"cebpf4jnsgd1na2vs0mg"},{"bike_id":"88de65bc-f1ab-4009-9187-4c5979b992e7","system_id":"levelo_inurba_marseille","lat":43.28987,"lon":5.39046,"is_reserved":false,"is_disabled":false,"rental_uris":{"android":"levelo://app?vid=88de65bc-f1ab-4009-9187-4c5979b992e7","ios":"levelo://app?vid=88de65bc-f1ab-4009-9187-4c5979b992e7"},"vehicle_type_id":"4","last_reported":1768288632,"current_range_meters":8400,"station_id":"","pricing_plan_id":"cebpf4jnsgd1na2vs0mg"},{"bike_id":"b44ee856-07c9-4ed0-9501-486001eddb65","system_id":"levelo_inurba_marseille","lat":43.24077,"lon":5.3776,"is_reserved":false,"is_disabled":false,"rental_uris":{"android":"levelo://app?vid=b44ee856-07c9-4ed0-9501-486001eddb65","ios":"levelo://app?vid=b44ee856-07c9-4ed0-9501-486001eddb65"},"vehicle_type_id":"4","last_reported":1768288632,"current_range_meters":8400,"station_id":"ce4bhnp2rcd13ifvqgvg","pricing_plan_id":"cebpf4jnsgd1na2vs0mg"},{"bike_id":"e171e7e2-3bd5-4df8-ba94-8c663077fc99","system_id":"levelo_inurba_marseille","lat":43.32525,"lon":5.36874,"is_reserved":false,"is_disabled":false,"rental_uris":{"android":"levelo://app?vid=e171e7e2-3bd5-4df8-ba94-8c663077fc99","ios":"levelo://app?vid=e171e7e2-3bd5-4df8-ba94-8c663077fc99"},"vehicle_type_id":"4","last_reported":1768288632,"current_range_meters":8400,"station_id":"","pricing_plan_id":"cebpf4jnsgd1na2vs0mg"},{"bike_id":"24ed2218-ac15-4b34-8944-518112198ea0","system_id":"levelo_inurba_marseille","lat":43.30473,"lon":5.37918,"is_reserved":false,"is_disabled":false,"rental_uris":{"android":"levelo://app?vid=24ed2218-ac15-4b34-8944-518112198ea0","ios":"levelo://app?vid=24ed2218-ac15-4b34-8944-518112198ea0"},"vehicle_type_id":"4","last_reported":1768288632,"current_range_meters":8400,"station_id":"ce4bgup2rcd13ifvqcn0","pricing_plan_id":"cebpf4jnsgd1na2vs0mg"},{"bike_id":"36fda397-099f-46c2-bc35-b98dc0fc4bfa","system_id":"levelo_inurba_marseille","lat":43.34139,"lon":5.40903,"is_reserved":false,"is_disabled":false,"rental_uris":{"android":"levelo://app?vid=36fda397-099f-46c2-bc35-b98dc0fc4bfa","ios":"levelo://app?vid=36fda397-099f-46c2-bc35-b98dc0fc4bfa"},"vehicle_type_id":"4","last_reported":1768288632,"current_range_meters":8400,"station_id":"ce4bhqh2rcd13ifvqhlg","pricing_plan_id":"cebpf4jnsgd1na2vs0mg"},{"bike_id":"725558b1-3a15-4f38-8c18-ee0a96f9ef90","system_id":"levelo_inurba_marseille","lat":43.31221,"lon":5.38168,"is_reserved":false,"is_disabled":false,"rental_uris":{"android":"levelo://app?vid=725558b1-3a15-4f38-8c18-ee0a96f9ef90","ios":"levelo://app?vid=725558b1-3a15-4f38-8c18-ee0a96f9ef90"},"vehicle_type_id":"4","last_reported":1768288632,"current_range_meters":8400,"station_id":"","pricing_plan_id":"cebpf4jnsgd1na2vs0mg"},{"bike_id":"352c9ae4-be27-46f4-b169-0b6057cefca1","system_id":"levelo_inurba_marseille","lat":43.26556,"lon":5.40339,"is_reserved":false,"is_disabled":false,"rental_uris":{"android":"levelo://app?vid=352c9ae4-be27-46f4-b169-0b6057cefca1","ios":"levelo://app?vid=352c9ae4-be27-46f4-b169-0b6057cefca1"},"vehicle_type_id":"4","last_reported":1768288632,"current_range_meters":8400,"station_id":"ce4bhmp2rcd13ifvqgng","pricing_plan_id":"cebpf4jnsgd1na2vs0mg"},{"bike_id":"3881337f-ef7f-4b7c-be0b-974709680e52","system_id":"levelo_inurba_marseille","lat":43.30261,"lon":5.3691,"is_reserved":false,"is_disabled":false,"rental_uris":{"android":"levelo://app?vid=3881337f-ef7f-4b7c-be0b-974709680e52","ios":"levelo://app?vid=3881337f-ef7f-4b7c-be0b-974709680e52"},"vehicle_type_id":"4","last_reported":1768288632,"current_range_meters":8800,"station_id":"","pricing_plan_id":"cebpf4jnsgd1na2vs0mg"},{"bike_id":"b99a9135-a609-4f31-8229-5031d5c53d46","system_id":"levelo_inurba_marseille","lat":43.29751,"lon":5.4278,"is_reserved":false,"is_disabled":false,"rental_uris":{"android":"levelo://app?vid=b99a9135-a609-4f31-8229-5031d5c53d46","ios":"levelo://app?vid=b99a9135-a609-4f31-8229-5031d5c53d46"},"vehicle_type_id":"4","last_reported":1768288632,"current_range_meters":8800,"station_id":"st_d3md5207bmas73dh9klg","pricing_plan_id":"cebpf4jnsgd1na2vs0mg"},{"bike_id":"dda038f7-07c0-4d6c-8466-8d667f6d8821","system_id":"levelo_inurba_marseille","lat":43.248151,"lon":5.374624,"is_reserved":false,"is_disabled":false,"rental_uris":{"android":"levelo://app?vid=dda038f7-07c0-4d6c-8466-8d667f6d8821","ios":"levelo://app?vid=dda038f7-07c0-4d6c-8466-8d667f6d8821"},"vehicle_type_id":"4","last_reported":1768288632,"current_range_meters":8800,"station_id":"ce4bhgh2rcd13ifvqfb0","pricing_plan_id":"cebpf4jnsgd1na2vs0mg"},{"bike_id":"459ceeec-6531-408e-af1d-7d8585dacaef","system_id":"levelo_inurba_marseille","lat":43.25508,"lon":5.376479,"is_reserved":false,"is_disabled":false,"rental_uris":{"android":"levelo://app?vid=459ceeec-6531-408e-af1d-7d8585dacaef","ios":"levelo://app?vid=459ceeec-6531-408e-af1d-7d8585dacaef"},"vehicle_type_id":"4","last_reported":1768288632,"current_range_meters":8800,"station_id":"ce4bhh12rcd13ifvqff0","pricing_plan_id":"cebpf4jnsgd1na2vs0mg"},{"bike_id":"31a380eb-4621-4d35-a10b-7ca54c0a3d6e","system_id":"levelo_inurba_marseille","lat":43.31222,"lon":5.36852,"is_reserved":false,"is_disabled":false,"rental_uris":{"android":"levelo://app?vid=31a380eb-4621-4d35-a10b-7ca54c0a3d6e","ios":"levelo://app?vid=31a380eb-4621-4d35-a10b-7ca54c0a3d6e"},"vehicle_type_id":"4","last_reported":1768288632,"current_range_meters":8800,"station_id":"ce4bgl92rcd13ifvqbq0","pricing_plan_id":"cebpf4jnsgd1na2vs0mg"},{"bike_id":"fbb443ba-d4a2-4f9d-bd37-9f8aee7fe810","system_id":"levelo_inurba_marseille","lat":43.30535,"lon":5.38399,"is_reserved":false,"is_disabled":false,"rental_uris":{"android":"levelo://app?vid=fbb443ba-d4a2-4f9d-bd37-9f8aee7fe810","ios":"levelo://app?vid=fbb443ba-d4a2-4f9d-bd37-9f8aee7fe810"},"vehicle_type_id":"4","last_reported":1768288632,"current_range_meters":8800,"station_id":"ce4bgg92rcd13ifvqb30","pricing_plan_id":"cebpf4jnsgd1na2vs0mg"},{"bike_id":"9e0f785f-1125-4cfa-ad3a-7a61a055cda6","system_id":"levelo_inurba_marseille","lat":43.30953,"lon":5.39046,"is_reserved":false,"is_disabled":false,"rental_uris":{"android":"levelo://app?vid=9e0f785f-1125-4cfa-ad3a-7a61a055cda6","ios":"levelo://app?vid=9e0f785f-1125-4cfa-ad3a-7a61a055cda6"},"vehicle_type_id":"4","last_reported":1768288632,"current_range_meters":8800,"station_id":"ce4bgup2rcd13ifvqco0","pricing_plan_id":"cebpf4jnsgd1na2vs0mg"},{"bike_id":"dc2e72fe-caf4-4d2f-991e-42441efcbc35","system_id":"levelo_inurba_marseille","lat":43.24464,"lon":5.42541,"is_reserved":false,"is_disabled":false,"rental_uris":{"android":"levelo://app?vid=dc2e72fe-caf4-4d2f-991e-42441efcbc35","ios":"levelo://app?vid=dc2e72fe-caf4-4d2f-991e-42441efcbc35"},"vehicle_type_id":"4","last_reported":1768288632,"current_range_meters":8800,"station_id":"st_d4a3vfp97mjs738cd8kg","pricing_plan_id":"cebpf4jnsgd1na2vs0mg"},{"bike_id":"99475782-9f22-4001-a2ed-de835e3c7087","system_id":"levelo_inurba_marseille","lat":43.292596,"lon":5.409251,"is_reserved":false,"is_disabled":true,"rental_uris":{"android":"levelo://app?vid=99475782-9f22-4001-a2ed-de835e3c7087","ios":"levelo://app?vid=99475782-9f22-4001-a2ed-de835e3c7087"},"vehicle_type_id":"4","last_reported":1768288632,"current_range_meters":8800,"station_id":"ce4bh192rcd13ifvqdc0","pricing_plan_id":"cebpf4jnsgd1na2vs0mg"},{"bike_id":"a0b7b981-3bec-4da2-b144-abbdd1055425","system_id":"levelo_inurba_marseille","lat":43.25577,"lon":5.3823,"is_reserved":false,"is_disabled":false,"rental_uris":{"android":"levelo://app?vid=a0b7b981-3bec-4da2-b144-abbdd1055425","ios":"levelo://app?vid=a0b7b981-3bec-4da2-b144-abbdd1055425"},"vehicle_type_id":"4","last_reported":1768288632,"current_range_meters":8800,"station_id":"ce4bhih2rcd13ifvqfs0","pricing_plan_id":"cebpf4jnsgd1na2vs0mg"},{"bike_id":"0d6861ac-ec4e-4d10-98d8-4b15db17966f","system_id":"levelo_inurba_marseille","lat":43.290218,"lon":5.368963,"is_reserved":false,"is_disabled":false,"rental_uris":{"android":"levelo://app?vid=0d6861ac-ec4e-4d10-98d8-4b15db17966f","ios":"levelo://app?vid=0d6861ac-ec4e-4d10-98d8-4b15db17966f"},"vehicle_type_id":"4","last_reported":1768288632,"current_range_meters":8800,"station_id":"ce4bhgp2rcd13ifvqfe0","pricing_plan_id":"cebpf4jnsgd1na2vs0mg"},{"bike_id":"35ec3b8e-e652-4929-aab7-9563a05529be","system_id":"levelo_inurba_marseille","lat":43.3012,"lon":5.37439,"is_reserved":false,"is_disabled":false,"rental_uris":{"android":"levelo://app?vid=35ec3b8e-e652-4929-aab7-9563a05529be","ios":"levelo://app?vid=35ec3b8e-e652-4929-aab7-9563a05529be"},"vehicle_type_id":"4","last_reported":1768288632,"current_range_meters":8800,"station_id":"ce4bgs92rcd13ifvqcc0","pricing_plan_id":"cebpf4jnsgd1na2vs0mg"},{"bike_id":"0370ac79-1828-4467-96ef-863fdd111ae7","system_id":"levelo_inurba_marseille","lat":43.28932,"lon":5.39616,"is_reserved":false,"is_disabled":false,"rental_uris":{"android":"levelo://app?vid=0370ac79-1828-4467-96ef-863fdd111ae7","ios":"levelo://app?vid=0370ac79-1828-4467-96ef-863fdd111ae7"},"vehicle_type_id":"4","last_reported":1768288632,"current_range_meters":8800,"station_id":"ce4bh3h2rcd13ifvqdn0","pricing_plan_id":"cebpf4jnsgd1na2vs0mg"},{"bike_id":"b37acded-2f54-4e10-8343-d2dcbb1634c8","system_id":"levelo_inurba_marseille","lat":43.29267,"lon":5.36845,"is_reserved":false,"is_disabled":false,"rental_uris":{"android":"levelo://app?vid=b37acded-2f54-4e10-8343-d2dcbb1634c8","ios":"levelo://app?vid=b37acded-2f54-4e10-8343-d2dcbb1634c8"},"vehicle_type_id":"4","last_reported":1768288632,"current_range_meters":8800,"station_id":"ce4bhbp2rcd13ifvqesg","pricing_plan_id":"cebpf4jnsgd1na2vs0mg"},{"bike_id":"a701274b-baae-4465-83b6-97b2b3f97e3e","system_id":"levelo_inurba_marseille","lat":43.284831,"lon":5.483868,"is_reserved":false,"is_disabled":false,"rental_uris":{"android":"levelo://app?vid=a701274b-baae-4465-83b6-97b2b3f97e3e","ios":"levelo://app?vid=a701274b-baae-4465-83b6-97b2b3f97e3e"},"vehicle_type_id":"4","last_reported":1768288632,"current_range_meters":8800,"station_id":"st_d3svhcjqgbts73a3dn0g","pricing_plan_id":"cebpf4jnsgd1na2vs0mg"},{"bike_id":"f4e4cc98-6d73-4e55-997c-015b897d88fe","system_id":"levelo_inurba_marseille","lat":43.27205,"lon":5.39154,"is_reserved":false,"is_disabled":false,"rental_uris":{"android":"levelo://app?vid=f4e4cc98-6d73-4e55-997c-015b897d88fe","ios":"levelo://app?vid=f4e4cc98-6d73-4e55-997c-015b897d88fe"},"vehicle_type_id":"4","last_reported":1768288632,"current_range_meters":8800,"station_id":"ce4bhhp2rcd13ifvqfm0","pricing_plan_id":"cebpf4jnsgd1na2vs0mg"},{"bike_id":"8dd1de03-db4d-4ee0-a83c-49af5a854fab","system_id":"levelo_inurba_marseille","lat":43.28829,"lon":5.42638,"is_reserved":false,"is_disabled":false,"rental_uris":{"android":"levelo://app?vid=8dd1de03-db4d-4ee0-a83c-49af5a854fab","ios":"levelo://app?vid=8dd1de03-db4d-4ee0-a83c-49af5a854fab"},"vehicle_type_id":"4","last_reported":1768288632,"current_range_meters":8800,"station_id":"","pricing_plan_id":"cebpf4jnsgd1na2vs0mg"},{"bike_id":"49855ede-7ef3-4411-9146-daebebb4cdd6","system_id":"levelo_inurba_marseille","lat":43.30243,"lon":5.40067,"is_reserved":false,"is_disabled":false,"rental_uris":{"android":"levelo://app?vid=49855ede-7ef3-4411-9146-daebebb4cdd6","ios":"levelo://app?vid=49855ede-7ef3-4411-9146-daebebb4cdd6"},"vehicle_type_id":"4","last_reported":1768288632,"current_range_meters":8800,"station_id":"ce4bgvh2rcd13ifvqcs0","pricing_plan_id":"cebpf4jnsgd1na2vs0mg"},{"bike_id":"22e07c03-7cc2-4f12-9e49-6993b190163f","system_id":"levelo_inurba_marseille","lat":43.298957,"lon":5.396691,"is_reserved":false,"is_disabled":false,"rental_uris":{"android":"levelo://app?vid=22e07c03-7cc2-4f12-9e49-6993b190163f","ios":"levelo://app?vid=22e07c03-7cc2-4f12-9e49-6993b190163f"},"vehicle_type_id":"4","last_reported":1768288632,"current_range_meters":8800,"station_id":"","pricing_plan_id":"cebpf4jnsgd1na2vs0mg"},{"bike_id":"00629d5b-9d11-4440-8947-cdc93c251cc6","system_id":"levelo_inurba_marseille","lat":43.28353,"lon":5.38101,"is_reserved":false,"is_disabled":false,"rental_uris":{"android":"levelo://app?vid=00629d5b-9d11-4440-8947-cdc93c251cc6","ios":"levelo://app?vid=00629d5b-9d11-4440-8947-cdc93c251cc6"},"vehicle_type_id":"4","last_reported":1768288632,"current_range_meters":8800,"station_id":"ce4bh412rcd13ifvqdr0","pricing_plan_id":"cebpf4jnsgd1na2vs0mg"},{"bike_id":"97ab96cf-33a7-4d4a-accb-f53c1ef3e0be","system_id":"levelo_inurba_marseille","lat":43.31485,"lon":5.37317,"is_reserved":false,"is_disabled":false,"rental_uris":{"android":"levelo://app?vid=97ab96cf-33a7-4d4a-accb-f53c1ef3e0be","ios":"levelo://app?vid=97ab96cf-33a7-4d4a-accb-f53c1ef3e0be"},"vehicle_type_id":"4","last_reported":1768288632,"current_range_meters":8800,"station_id":"ce4bgt12rcd13ifvqcd0","pricing_plan_id":"cebpf4jnsgd1na2vs0mg"},{"bike_id":"94d55ad1-df2a-4464-8082-c30dde836fb0","system_id":"levelo_inurba_marseille","lat":43.23778,"lon":5.36628,"is_reserved":false,"is_disabled":false,"rental_uris":{"android":"levelo://app?vid=94d55ad1-df2a-4464-8082-c30dde836fb0","ios":"levelo://app?vid=94d55ad1-df2a-4464-8082-c30dde836fb0"},"vehicle_type_id":"4","last_reported":1768288632,"current_range_meters":8800,"station_id":"st_d3nk18o9ro0c73en2l3g","pricing_plan_id":"cebpf4jnsgd1na2vs0mg"},{"bike_id":"d837fa6c-222e-496d-8553-222c58e024bd","system_id":"levelo_inurba_marseille","lat":43.22915,"lon":5.35416,"is_reserved":false,"is_disabled":false,"rental_uris":{"android":"levelo://app?vid=d837fa6c-222e-496d-8553-222c58e024bd","ios":"levelo://app?vid=d837fa6c-222e-496d-8553-222c58e024bd"},"vehicle_type_id":"4","last_reported":1768288632,"current_range_meters":8800,"station_id":"cpo3532slgdg3j2ikp40","pricing_plan_id":"cebpf4jnsgd1na2vs0mg"},{"bike_id":"1d3fbf1d-a76a-465a-a604-cdd87585b5c4","system_id":"levelo_inurba_marseille","lat":43.28532,"lon":5.44098,"is_reserved":false,"is_disabled":false,"rental_uris":{"android":"levelo://app?vid=1d3fbf1d-a76a-465a-a604-cdd87585b5c4","ios":"levelo://app?vid=1d3fbf1d-a76a-465a-a604-cdd87585b5c4"},"vehicle_type_id":"4","last_reported":1768288632,"current_range_meters":8800,"station_id":"st_d3j3df2ikq2c7380ej80","pricing_plan_id":"cebpf4jnsgd1na2vs0mg"},{"bike_id":"a2b8e70d-5dfb-4230-ae5a-24f06aba12a3","system_id":"levelo_inurba_marseille","lat":43.28473,"lon":5.48386,"is_reserved":false,"is_disabled":false,"rental_uris":{"android":"levelo://app?vid=a2b8e70d-5dfb-4230-ae5a-24f06aba12a3","ios":"levelo://app?vid=a2b8e70d-5dfb-4230-ae5a-24f06aba12a3"},"vehicle_type_id":"4","last_reported":1768288632,"current_range_meters":8800,"station_id":"","pricing_plan_id":"cebpf4jnsgd1na2vs0mg"},{"bike_id":"64e147a8-1bbb-419c-b69b-662d9db7e72a","system_id":"levelo_inurba_marseille","lat":43.25885,"lon":5.39923,"is_reserved":false,"is_disabled":true,"rental_uris":{"android":"levelo://app?vid=64e147a8-1bbb-419c-b69b-662d9db7e72a","ios":"levelo://app?vid=64e147a8-1bbb-419c-b69b-662d9db7e72a"},"vehicle_type_id":"4","last_reported":1768288632,"current_range_meters":9200,"station_id":"ce4bhl92rcd13ifvqghg","pricing_plan_id":"cebpf4jnsgd1na2vs0mg"},{"bike_id":"eaa12c7d-9ceb-4fcf-8441-5efb65234d28","system_id":"levelo_inurba_marseille","lat":43.24804,"lon":5.37467,"is_reserved":false,"is_disabled":false,"rental_uris":{"android":"levelo://app?vid=eaa12c7d-9ceb-4fcf-8441-5efb65234d28","ios":"levelo://app?vid=eaa12c7d-9ceb-4fcf-8441-5efb65234d28"},"vehicle_type_id":"4","last_reported":1768288632,"current_range_meters":9200,"station_id":"ce4bhgh2rcd13ifvqfb0","pricing_plan_id":"cebpf4jnsgd1na2vs0mg"},{"bike_id":"65565dd8-9a5e-4580-a2c2-22f04b62de03","system_id":"levelo_inurba_marseille","lat":43.29522,"lon":5.38543,"is_reserved":false,"is_disabled":false,"rental_uris":{"android":"levelo://app?vid=65565dd8-9a5e-4580-a2c2-22f04b62de03","ios":"levelo://app?vid=65565dd8-9a5e-4580-a2c2-22f04b62de03"},"vehicle_type_id":"4","last_reported":1768288632,"current_range_meters":9200,"station_id":"ce4bgih2rcd13ifvqba0","pricing_plan_id":"cebpf4jnsgd1na2vs0mg"},{"bike_id":"5b027b49-ddf4-41e2-96f1-1cc8b60b6d10","system_id":"levelo_inurba_marseille","lat":43.22533,"lon":5.34832,"is_reserved":false,"is_disabled":false,"rental_uris":{"android":"levelo://app?vid=5b027b49-ddf4-41e2-96f1-1cc8b60b6d10","ios":"levelo://app?vid=5b027b49-ddf4-41e2-96f1-1cc8b60b6d10"},"vehicle_type_id":"4","last_reported":1768288632,"current_range_meters":9200,"station_id":"st_cvj5dfep6f1abm77gieg","pricing_plan_id":"cebpf4jnsgd1na2vs0mg"},{"bike_id":"9a14d189-1477-4059-bd92-10dee77ad1a4","system_id":"levelo_inurba_marseille","lat":43.2495,"lon":5.40497,"is_reserved":false,"is_disabled":false,"rental_uris":{"android":"levelo://app?vid=9a14d189-1477-4059-bd92-10dee77ad1a4","ios":"levelo://app?vid=9a14d189-1477-4059-bd92-10dee77ad1a4"},