{"last_updated":1720462253,"ttl":30,"version":"2.2","data":{"bikes":[{"bike_id":"9b99b0a6-d9c9-46e1-af33-3ddf593f7f5e","system_id":"levelo_inurba_marseille","lat":43.312239,"lon":5.368562,"is_reserved":false,"is_disabled":false,"rental_uris":{"android":"levelo://app?vid=9b99b0a6-d9c9-46e1-af33-3ddf593f7f5e","ios":"levelo://app?vid=9b99b0a6-d9c9-46e1-af33-3ddf593f7f5e"},"vehicle_type_id":"4","last_reported":1720462253,"current_range_meters":0,"station_id":"ce4bgl92rcd13ifvqbq0","pricing_plan_id":"cebpf4jnsgd1na2vs0mg"},{"bike_id":"9ca26b04-bab7-45de-a042-eb048a4779dc","system_id":"levelo_inurba_marseille","lat":43.31497,"lon":5.37306,"is_reserved":false,"is_disabled":false,"rental_uris":{"android":"levelo://app?vid=9ca26b04-bab7-45de-a042-eb048a4779dc","ios":"levelo://app?vid=9ca26b04-bab7-45de-a042-eb048a4779dc"},"vehicle_type_id":"4","last_reported":1720462253,"current_range_meters":31600,"station_id":"ce4bgt12rcd13ifvqcd0","pricing_plan_id":"cebpf4jnsgd1na2vs0mg"},{"bike_id":"bbf0a617-a1ba-4369-8e35-cb47cf26cc55","system_id":"levelo_inurba_marseille","lat":43.31462,"lon":5.37383,"is_reserved":false,"is_disabled":false,"rental_uris":{"android":"levelo://app?vid=bbf0a617-a1ba-4369-8e35-cb47cf26cc55","ios":"levelo://app?vid=bbf0a617-a1ba-4369-8e35-cb47cf26cc55"},"vehicle_type_id":"4","last_reported":1720462253,"current_range_meters":11200,"station_id":"","pricing_plan_id":"cebpf4jnsgd1na2vs0mg"},{"bike_id":"d7dcfa04-e8a5-4a24-8b07-13194d60b74a","system_id":"levelo_inurba_marseille","lat":43.313514,"lon":5.37455,"is_reserved":false,"is_disabled":false,"rental_uris":{"android":"levelo://app?vid=d7dcfa04-e8a5-4a24-8b07-13194d60b74a","ios":"levelo://app?vid=d7dcfa04-e8a5-4a24-8b07-13194d60b74a"},"vehicle_type_id":"4","last_reported":1720462253,"current_range_meters":0,"station_id":"","pricing_plan_id":"cebpf4jnsgd1na2vs0mg"},{"bike_id":"2de91101-7772-4e29-bced-6e15eab32268","system_id":"levelo_inurba_marseille","lat":43.31689,"lon":5.37358,"is_reserved":false,"is_disabled":false,"rental_uris":{"android":"levelo://app?vid=2de91101-7772-4e29-bced-6e15eab32268","ios":"levelo://app?vid=2de91101-7772-4e29-bced-6e15eab32268"},"vehicle_type_id":"4","last_reported":1720462253,"current_range_meters":29600,"station_id":"","pricing_plan_id":"cebpf4jnsgd1na2vs0mg"},{"bike_id":"8fda6daf-1188-4e88-9409-da9f732354e7","system_id":"levelo_inurba_marseille","lat":43.31693,"lon":5.37382,"is_reserved":false,"is_disabled":false,"rental_uris":{"android":"levelo://app?vid=8fda6daf-1188-4e88-9409-da9f732354e7","ios":"levelo://app?vid=8fda6daf-1188-4e88-9409-da9f732354e7"},"vehicle_type_id":"4","last_reported":1720462253,"current_range_meters":12800,"station_id":"","pricing_plan_id":"cebpf4jnsgd1na2vs0mg"},{"bike_id":"189bad21-60ac-472e-abbc-f53947339b78","system_id":"levelo_inurba_marseille","lat":43.31456,"lon":5.37573,"is_reserved":false,"is_disabled":false,"rental_uris":{"android":"levelo://app?vid=189bad21-60ac-472e-abbc-f53947339b78","ios":"levelo://app?vid=189bad21-60ac-472e-abbc-f53947339b78"},"vehicle_type_id":"4","last_reported":1720462253,"current_range_meters":0,"station_id":"","pricing_plan_id":"cebpf4jnsgd1na2vs0mg"},{"bike_id":"8c7c93ca-eee3-4ce0-be2f-4b740987cd66","system_id":"levelo_inurba_marseille","lat":43.30534,"lon":5.36661,"is_reserved":false,"is_disabled":false,"rental_uris":{"android":"levelo://app?vid=8c7c93ca-eee3-4ce0-be2f-4b740987cd66","ios":"levelo://app?vid=8c7c93ca-eee3-4ce0-be2f-4b740987cd66"},"vehicle_type_id":"4","last_reported":1720462253,"current_range_meters":24000,"station_id":"","pricing_plan_id":"cebpf4jnsgd1na2vs0mg"},{"bike_id":"f726d919-4b0e-4076-b65f-230966075bc0","system_id":"levelo_inurba_marseille","lat":43.311131,"lon":5.377651,"is_reserved":false,"is_disabled":false,"rental_uris":{"android":"levelo://app?vid=f726d919-4b0e-4076-b65f-230966075bc0","ios":"levelo://app?vid=f726d919-4b0e-4076-b65f-230966075bc0"},"vehicle_type_id":"4","last_reported":1720462253,"current_range_meters":6800,"station_id":"ce4bgt92rcd13ifvqcg0","pricing_plan_id":"cebpf4jnsgd1na2vs0mg"},{"bike_id":"9043503d-484a-4bb4-9c7b-60bef5da5363","system_id":"levelo_inurba_marseille","lat":43.307945,"lon":5.376487,"is_reserved":false,"is_disabled":false,"rental_uris":{"android":"levelo://app?vid=9043503d-484a-4bb4-9c7b-60bef5da5363","ios":"levelo://app?vid=9043503d-484a-4bb4-9c7b-60bef5da5363"},"vehicle_type_id":"4","last_reported":1720462253,"current_range_meters":7200,"station_id":"ce4bgv92rcd13ifvqcq0","pricing_plan_id":"cebpf4jnsgd1na2vs0mg"},{"bike_id":"b2c09a00-159e-4413-b668-67eb6c33f28c","system_id":"levelo_inurba_marseille","lat":43.317075,"lon":5.377367,"is_reserved":false,"is_disabled":false,"rental_uris":{"android":"levelo://app?vid=b2c09a00-159e-4413-b668-67eb6c33f28c","ios":"levelo://app?vid=b2c09a00-159e-4413-b668-67eb6c33f28c"},"vehicle_type_id":"4","last_reported":1720462253,"current_range_meters":24800,"station_id":"ce4bgth2rcd13ifvqch0","pricing_plan_id":"cebpf4jnsgd1na2vs0mg"},{"bike_id":"d17c1a92-a905-4b1e-bb4a-0b41973b1256","system_id":"levelo_inurba_marseille","lat":43.317075,"lon":5.377367,"is_reserved":false,"is_disabled":false,"rental_uris":{"android":"levelo://app?vid=d17c1a92-a905-4b1e-bb4a-0b41973b1256","ios":"levelo://app?vid=d17c1a92-a905-4b1e-bb4a-0b41973b1256"},"vehicle_type_id":"4","last_reported":1720462253,"current_range_meters":2000,"station_id":"ce4bgth2rcd13ifvqch0","pricing_plan_id":"cebpf4jnsgd1na2vs0mg"},{"bike_id":"96db404a-520c-4783-a3de-8930b3a2a2a4","system_id":"levelo_inurba_marseille","lat":43.317075,"lon":5.377367,"is_reserved":false,"is_disabled":false,"rental_uris":{"android":"levelo://app?vid=96db404a-520c-4783-a3de-8930b3a2a2a4","ios":"levelo://app?vid=96db404a-520c-4783-a3de-8930b3a2a2a4"},"vehicle_type_id":"4","last_reported":1720462253,"current_range_meters":31200,"station_id":"ce4bgth2rcd13ifvqch0","pricing_plan_id":"cebpf4jnsgd1na2vs0mg"},{"bike_id":"db52436d-dc59-4465-8289-5dbd9c23e4ac","system_id":"levelo_inurba_marseille","lat":43.317075,"lon":5.377367,"is_reserved":false,"is_disabled":false,"rental_uris":{"android":"levelo://app?vid=db52436d-dc59-4465-8289-5dbd9c23e4ac","ios":"levelo://app?vid=db52436d-dc59-4465-8289-5dbd9c23e4ac"},"vehicle_type_id":"4","last_reported":1720462253,"current_range_meters":1600,"station_id":"ce4bgth2rcd13ifvqch0","pricing_plan_id":"cebpf4jnsgd1na2vs0mg"},{"bike_id":"bac940e2-3d8d-49d3-8f7a-5b1e8f1d3efb","system_id":"levelo_inurba_marseille","lat":43.31753,"lon":5.37773,"is_reserved":false,"is_disabled":false,"rental_uris":{"android":"levelo://app?vid=bac940e2-3d8d-49d3-8f7a-5b1e8f1d3efb","ios":"levelo://app?vid=bac940e2-3d8d-49d3-8f7a-5b1e8f1d3efb"},"vehicle_type_id":"4","last_reported":1720462253,"current_range_meters":21200,"station_id":"","pricing_plan_id":"cebpf4jnsgd1na2vs0mg"},{"bike_id":"83ec9001-5964-477c-a995-6a1d3cd2a586","system_id":"levelo_inurba_marseille","lat":43.303046,"lon":5.368981,"is_reserved":false,"is_disabled":false,"rental_uris":{"android":"levelo://app?vid=83ec9001-5964-477c-a995-6a1d3cd2a586","ios":"levelo://app?vid=83ec9001-5964-477c-a995-6a1d3cd2a586"},"vehicle_type_id":"4","last_reported":1720462253,"current_range_meters":0,"station_id":"ce4bgqh2rcd13ifvqc5g","pricing_plan_id":"cebpf4jnsgd1na2vs0mg"},{"bike_id":"7f77f36f-4f97-437c-96bf-1c12b0cd8c3a","system_id":"levelo_inurba_marseille","lat":43.315293,"lon":5.380349,"is_reserved":false,"is_disabled":false,"rental_uris":{"android":"levelo://app?vid=7f77f36f-4f97-437c-96bf-1c12b0cd8c3a","ios":"levelo://app?vid=7f77f36f-4f97-437c-96bf-1c12b0cd8c3a"},"vehicle_type_id":"4","last_reported":1720462253,"current_range_meters":12000,"station_id":"ce4bhsp2rcd13ifvqi50","pricing_plan_id":"cebpf4jnsgd1na2vs0mg"},{"bike_id":"b002fede-79ce-4139-bb55-6a87446cf623","system_id":"levelo_inurba_marseille","lat":43.30207,"lon":5.36774,"is_reserved":false,"is_disabled":false,"rental_uris":{"android":"levelo://app?vid=b002fede-79ce-4139-bb55-6a87446cf623","ios":"levelo://app?vid=b002fede-79ce-4139-bb55-6a87446cf623"},"vehicle_type_id":"4","last_reported":1720462253,"current_range_meters":24800,"station_id":"","pricing_plan_id":"cebpf4jnsgd1na2vs0mg"},{"bike_id":"8ab56057-6051-41c6-b461-3e6960707f70","system_id":"levelo_inurba_marseille","lat":43.308012,"lon":5.381511,"is_reserved":false,"is_disabled":false,"rental_uris":{"android":"levelo://app?vid=8ab56057-6051-41c6-b461-3e6960707f70","ios":"levelo://app?vid=8ab56057-6051-41c6-b461-3e6960707f70"},"vehicle_type_id":"4","last_reported":1720462253,"current_range_meters":16400,"station_id":"ce4bgt12rcd13ifvqce0","pricing_plan_id":"cebpf4jnsgd1na2vs0mg"},{"bike_id":"10547e81-fc8d-4808-b367-a784008cf1cb","system_id":"levelo_inurba_marseille","lat":43.301008,"lon":5.368712,"is_reserved":false,"is_disabled":false,"rental_uris":{"android":"levelo://app?vid=10547e81-fc8d-4808-b367-a784008cf1cb","ios":"levelo://app?vid=10547e81-fc8d-4808-b367-a784008cf1cb"},"vehicle_type_id":"4","last_reported":1720462253,"current_range_meters":11200,"station_id":"","pricing_plan_id":"cebpf4jnsgd1na2vs0mg"},{"bike_id":"e9f581c0-f781-4499-8fc4-a5bc32e8edb1","system_id":"levelo_inurba_marseille","lat":43.324811,"lon":5.365688,"is_reserved":false,"is_disabled":false,"rental_uris":{"android":"levelo://app?vid=e9f581c0-f781-4499-8fc4-a5bc32e8edb1","ios":"levelo://app?vid=e9f581c0-f781-4499-8fc4-a5bc32e8edb1"},"vehicle_type_id":"4","last_reported":1720462253,"current_range_meters":22000,"station_id":"ce4bhs12rcd13ifvqhvg","pricing_plan_id":"cebpf4jnsgd1na2vs0mg"},{"bike_id":"9fd9b59a-5da4-4134-b647-b99f24518221","system_id":"levelo_inurba_marseille","lat":43.324842,"lon":5.365699,"is_reserved":false,"is_disabled":false,"rental_uris":{"android":"levelo://app?vid=9fd9b59a-5da4-4134-b647-b99f24518221","ios":"levelo://app?vid=9fd9b59a-5da4-4134-b647-b99f24518221"},"vehicle_type_id":"4","last_reported":1720462253,"current_range_meters":22800,"station_id":"ce4bhs12rcd13ifvqhvg","pricing_plan_id":"cebpf4jnsgd1na2vs0mg"},{"bike_id":"4501fb02-015c-4902-b78b-53bc4746f442","system_id":"levelo_inurba_marseille","lat":43.32485,"lon":5.36571,"is_reserved":false,"is_disabled":false,"rental_uris":{"android":"levelo://app?vid=4501fb02-015c-4902-b78b-53bc4746f442","ios":"levelo://app?vid=4501fb02-015c-4902-b78b-53bc4746f442"},"vehicle_type_id":"4","last_reported":1720462253,"current_range_meters":18800,"station_id":"ce4bhs12rcd13ifvqhvg","pricing_plan_id":"cebpf4jnsgd1na2vs0mg"},{"bike_id":"3237f52b-a4e3-48fd-b51b-50a85dc47cc3","system_id":"levelo_inurba_marseille","lat":43.324771,"lon":5.36557,"is_reserved":false,"is_disabled":false,"rental_uris":{"android":"levelo://app?vid=3237f52b-a4e3-48fd-b51b-50a85dc47cc3","ios":"levelo://app?vid=3237f52b-a4e3-48fd-b51b-50a85dc47cc3"},"vehicle_type_id":"4","last_reported":1720462253,"current_range_meters":24000,"station_id":"ce4bhs12rcd13ifvqhvg","pricing_plan_id":"cebpf4jnsgd1na2vs0mg"},{"bike_id":"53f41f08-9ebe-4743-9c64-53f3d0ac2a2f","system_id":"levelo_inurba_marseille","lat":43.32487,"lon":5.36572,"is_reserved":false,"is_disabled":false,"rental_uris":{"android":"levelo://app?vid=53f41f08-9ebe-4743-9c64-53f3d0ac2a2f","ios":"levelo://app?vid=53f41f08-9ebe-4743-9c64-53f3d0ac2a2f"},"vehicle_type_id":"4","last_reported":1720462253,"current_range_meters":28000,"station_id":"ce4bhs12rcd13ifvqhvg","pricing_plan_id":"cebpf4jnsgd1na2vs0mg"},{"bike_id":"422ee5b8-f5d5-4e29-84c3-28895fd2253d","system_id":"levelo_inurba_marseille","lat":43.324771,"lon":5.36557,"is_reserved":false,"is_disabled":false,"rental_uris":{"android":"levelo://app?vid=422ee5b8-f5d5-4e29-84c3-28895fd2253d","ios":"levelo://app?vid=422ee5b8-f5d5-4e29-84c3-28895fd2253d"},"vehicle_type_id":"4","last_reported":1720462253,"current_range_meters":10400,"station_id":"ce4bhs12rcd13ifvqhvg","pricing_plan_id":"cebpf4jnsgd1na2vs0mg"},{"bike_id":"bfbac28e-ca61-49be-a138-f21128ab9ef8","system_id":"levelo_inurba_marseille","lat":43.324771,"lon":5.36557,"is_reserved":false,"is_disabled":false,"rental_uris":{"android":"levelo://app?vid=bfbac28e-ca61-49be-a138-f21128ab9ef8","ios":"levelo://app?vid=bfbac28e-ca61-49be-a138-f21128ab9ef8"},"vehicle_type_id":"4","last_reported":1720462253,"current_range_meters":26800,"station_id":"ce4bhs12rcd13ifvqhvg","pricing_plan_id":"cebpf4jnsgd1na2vs0mg"},{"bike_id":"02240c89-7cd2-4508-a4dc-4e4f5fdefb0d","system_id":"levelo_inurba_marseille","lat":43.31073,"lon":5.38349,"is_reserved":false,"is_disabled":false,"rental_uris":{"android":"levelo://app?vid=02240c89-7cd2-4508-a4dc-4e4f5fdefb0d","ios":"levelo://app?vid=02240c89-7cd2-4508-a4dc-4e4f5fdefb0d"},"vehicle_type_id":"4","last_reported":1720462253,"current_range_meters":4000,"station_id":"ce4bgv92rcd13ifvqcr0","pricing_plan_id":"cebpf4jnsgd1na2vs0mg"},{"bike_id":"fe2c1f6d-6552-41b3-aad7-e76b08a9694f","system_id":"levelo_inurba_marseille","lat":43.324771,"lon":5.36557,"is_reserved":false,"is_disabled":false,"rental_uris":{"android":"levelo://app?vid=fe2c1f6d-6552-41b3-aad7-e76b08a9694f","ios":"levelo://app?vid=fe2c1f6d-6552-41b3-aad7-e76b08a9694f"},"vehicle_type_id":"4","last_reported":1720462253,"current_range_meters":13200,"station_id":"ce4bhs12rcd13ifvqhvg","pricing_plan_id":"cebpf4jnsgd1na2vs0mg"},{"bike_id":"1a085809-5b7c-43a4-93c1-b0a9e2be1be9","system_id":"levelo_inurba_marseille","lat":43.302784,"lon":5.377158,"is_reserved":false,"is_disabled":false,"rental_uris":{"android":"levelo://app?vid=1a085809-5b7c-43a4-93c1-b0a9e2be1be9","ios":"levelo://app?vid=1a085809-5b7c-43a4-93c1-b0a9e2be1be9"},"vehicle_type_id":"4","last_reported":1720462253,"current_range_meters":5200,"station_id":"ce4bguh2rcd13ifvqcj0","pricing_plan_id":"cebpf4jnsgd1na2vs0mg"},{"bike_id":"d931222f-66d6-4c0a-8cd1-80b22dff606c","system_id":"levelo_inurba_marseille","lat":43.31955,"lon":5.381429,"is_reserved":false,"is_disabled":false,"rental_uris":{"android":"levelo://app?vid=d931222f-66d6-4c0a-8cd1-80b22dff606c","ios":"levelo://app?vid=d931222f-66d6-4c0a-8cd1-80b22dff606c"},"vehicle_type_id":"4","last_reported":1720462253,"current_range_meters":0,"station_id":"","pricing_plan_id":"cebpf4jnsgd1na2vs0mg"},{"bike_id":"f8eba197-5c28-4c02-bc25-b36cc6caaad8","system_id":"levelo_inurba_marseille","lat":43.302784,"lon":5.377158,"is_reserved":false,"is_disabled":false,"rental_uris":{"android":"levelo://app?vid=f8eba197-5c28-4c02-bc25-b36cc6caaad8","ios":"levelo://app?vid=f8eba197-5c28-4c02-bc25-b36cc6caaad8"},"vehicle_type_id":"4","last_reported":1720462253,"current_range_meters":10000,"station_id":"ce4bguh2rcd13ifvqcj0","pricing_plan_id":"cebpf4jnsgd1na2vs0mg"},{"bike_id":"a7dd91ad-18e9-4d19-b8b2-c076a582d7ac","system_id":"levelo_inurba_marseille","lat":43.32002,"lon":5.38154,"is_reserved":false,"is_disabled":false,"rental_uris":{"android":"levelo://app?vid=a7dd91ad-18e9-4d19-b8b2-c076a582d7ac","ios":"levelo://app?vid=a7dd91ad-18e9-4d19-b8b2-c076a582d7ac"},"vehicle_type_id":"4","last_reported":1720462253,"current_range_meters":28000,"station_id":"ce4bhr12rcd13ifvqhpg","pricing_plan_id":"cebpf4jnsgd1na2vs0mg"},{"bike_id":"c666e821-818c-465b-a4fb-6c774a6c4dbc","system_id":"levelo_inurba_marseille","lat":43.313571,"lon":5.384829,"is_reserved":false,"is_disabled":false,"rental_uris":{"android":"levelo://app?vid=c666e821-818c-465b-a4fb-6c774a6c4dbc","ios":"levelo://app?vid=c666e821-818c-465b-a4fb-6c774a6c4dbc"},"vehicle_type_id":"4","last_reported":1720462253,"current_range_meters":5600,"station_id":"ce4bgt92rcd13ifvqcf0","pricing_plan_id":"cebpf4jnsgd1na2vs0mg"},{"bike_id":"d4296a13-3771-4570-984e-1b63bf1d364f","system_id":"levelo_inurba_marseille","lat":43.299222,"lon":5.365554,"is_reserved":false,"is_disabled":false,"rental_uris":{"android":"levelo://app?vid=d4296a13-3771-4570-984e-1b63bf1d364f","ios":"levelo://app?vid=d4296a13-3771-4570-984e-1b63bf1d364f"},"vehicle_type_id":"4","last_reported":1720462253,"current_range_meters":31200,"station_id":"ce4bgm92rcd13ifvqbr0","pricing_plan_id":"cebpf4jnsgd1na2vs0mg"},{"bike_id":"abdd3d83-8f96-4fcd-8420-384a767e816a","system_id":"levelo_inurba_marseille","lat":43.299222,"lon":5.365554,"is_reserved":false,"is_disabled":false,"rental_uris":{"android":"levelo://app?vid=abdd3d83-8f96-4fcd-8420-384a767e816a","ios":"levelo://app?vid=abdd3d83-8f96-4fcd-8420-384a767e816a"},"vehicle_type_id":"4","last_reported":1720462253,"current_range_meters":31200,"station_id":"ce4bgm92rcd13ifvqbr0","pricing_plan_id":"cebpf4jnsgd1na2vs0mg"},{"bike_id":"bfd061e2-ae0a-4deb-96fc-a55807f4aba9","system_id":"levelo_inurba_marseille","lat":43.299222,"lon":5.365554,"is_reserved":false,"is_disabled":false,"rental_uris":{"android":"levelo://app?vid=bfd061e2-ae0a-4deb-96fc-a55807f4aba9","ios":"levelo://app?vid=bfd061e2-ae0a-4deb-96fc-a55807f4aba9"},"vehicle_type_id":"4","last_reported":1720462253,"current_range_meters":6400,"station_id":"ce4bgm92rcd13ifvqbr0","pricing_plan_id":"cebpf4jnsgd1na2vs0mg"},{"bike_id":"f758c284-ba57-4710-968b-6e115d21c167","system_id":"levelo_inurba_marseille","lat":43.299724,"lon":5.371829,"is_reserved":false,"is_disabled":false,"rental_uris":{"android":"levelo://app?vid=f758c284-ba57-4710-968b-6e115d21c167","ios":"levelo://app?vid=f758c284-ba57-4710-968b-6e115d21c167"},"vehicle_type_id":"4","last_reported":1720462253,"current_range_meters":2400,"station_id":"ce4bgr92rcd13ifvqc7g","pricing_plan_id":"cebpf4jnsgd1na2vs0mg"},{"bike_id":"a8608496-a298-4e65-acf3-359130cbce0e","system_id":"levelo_inurba_marseille","lat":43.299209,"lon":5.365547,"is_reserved":false,"is_disabled":false,"rental_uris":{"android":"levelo://app?vid=a8608496-a298-4e65-acf3-359130cbce0e","ios":"levelo://app?vid=a8608496-a298-4e65-acf3-359130cbce0e"},"vehicle_type_id":"4","last_reported":1720462253,"current_range_meters":28800,"station_id":"ce4bgm92rcd13ifvqbr0","pricing_plan_id":"cebpf4jnsgd1na2vs0mg"},{"bike_id":"78f2dbf3-c342-4126-b9ef-9dcc56210757","system_id":"levelo_inurba_marseille","lat":43.299724,"lon":5.371829,"is_reserved":false,"is_disabled":false,"rental_uris":{"android":"levelo://app?vid=78f2dbf3-c342-4126-b9ef-9dcc56210757","ios":"levelo://app?vid=78f2dbf3-c342-4126-b9ef-9dcc56210757"},"vehicle_type_id":"4","last_reported":1720462253,"current_range_meters":29600,"station_id":"ce4bgr92rcd13ifvqc7g","pricing_plan_id":"cebpf4jnsgd1na2vs0mg"},{"bike_id":"e4c38eb2-5035-4e61-bd10-ea9f5632dae6","system_id":"levelo_inurba_marseille","lat":43.29843,"lon":5.36415,"is_reserved":false,"is_disabled":false,"rental_uris":{"android":"levelo://app?vid=e4c38eb2-5035-4e61-bd10-ea9f5632dae6","ios":"levelo://app?vid=e4c38eb2-5035-4e61-bd10-ea9f5632dae6"},"vehicle_type_id":"4","last_reported":1720462253,"current_range_meters":17600,"station_id":"","pricing_plan_id":"cebpf4jnsgd1na2vs0mg"},{"bike_id":"baf5e6ea-c861-4e67-9587-3d8102591528","system_id":"levelo_inurba_marseille","lat":43.30539,"lon":5.38427,"is_reserved":false,"is_disabled":false,"rental_uris":{"android":"levelo://app?vid=baf5e6ea-c861-4e67-9587-3d8102591528","ios":"levelo://app?vid=baf5e6ea-c861-4e67-9587-3d8102591528"},"vehicle_type_id":"4","last_reported":1720462253,"current_range_meters":9200,"station_id":"ce4bgg92rcd13ifvqb30","pricing_plan_id":"cebpf4jnsgd1na2vs0mg"},{"bike_id":"c9f83aca-e812-4031-9dcc-cab9e87da66f","system_id":"levelo_inurba_marseille","lat":43.299243,"lon":5.374807,"is_reserved":false,"is_disabled":false,"rental_uris":{"android":"levelo://app?vid=c9f83aca-e812-4031-9dcc-cab9e87da66f","ios":"levelo://app?vid=c9f83aca-e812-4031-9dcc-cab9e87da66f"},"vehicle_type_id":"4","last_reported":1720462253,"current_range_meters":1600,"station_id":"ce4bgjh2rcd13ifvqbg0","pricing_plan_id":"cebpf4jnsgd1na2vs0mg"},{"bike_id":"b243f2af-69e2-479d-b7d7-19e65811bdce","system_id":"levelo_inurba_marseille","lat":43.311722,"lon":5.387247,"is_reserved":false,"is_disabled":false,"rental_uris":{"android":"levelo://app?vid=b243f2af-69e2-479d-b7d7-19e65811bdce","ios":"levelo://app?vid=b243f2af-69e2-479d-b7d7-19e65811bdce"},"vehicle_type_id":"4","last_reported":1720462253,"current_range_meters":24000,"station_id":"ce4bgv12rcd13ifvqcp0","pricing_plan_id":"cebpf4jnsgd1na2vs0mg"},{"bike_id":"ecf00e16-4a4c-4c0e-a185-347a0f3c1e62","system_id":"levelo_inurba_marseille","lat":43.311722,"lon":5.387247,"is_reserved":false,"is_disabled":false,"rental_uris":{"android":"levelo://app?vid=ecf00e16-4a4c-4c0e-a185-347a0f3c1e62","ios":"levelo://app?vid=ecf00e16-4a4c-4c0e-a185-347a0f3c1e62"},"vehicle_type_id":"4","last_reported":1720462253,"current_range_meters":26000,"station_id":"ce4bgv12rcd13ifvqcp0","pricing_plan_id":"cebpf4jnsgd1na2vs0mg"},{"bike_id":"4ae5e4c0-0edc-43dc-8a34-e089db1a6476","system_id":"levelo_inurba_marseille","lat":43.311722,"lon":5.387247,"is_reserved":false,"is_disabled":false,"rental_uris":{"android":"levelo://app?vid=4ae5e4c0-0edc-43dc-8a34-e089db1a6476","ios":"levelo://app?vid=4ae5e4c0-0edc-43dc-8a34-e089db1a6476"},"vehicle_type_id":"4","last_reported":1720462253,"current_range_meters":10400,"station_id":"ce4bgv12rcd13ifvqcp0","pricing_plan_id":"cebpf4jnsgd1na2vs0mg"},{"bike_id":"1e92e62b-b8b2-4b84-a44c-ac0086b6e39c","system_id":"levelo_inurba_marseille","lat":43.299243,"lon":5.37481,"is_reserved":false,"is_disabled":false,"rental_uris":{"android":"levelo://app?vid=1e92e62b-b8b2-4b84-a44c-ac0086b6e39c","ios":"levelo://app?vid=1e92e62b-b8b2-4b84-a44c-ac0086b6e39c"},"vehicle_type_id":"4","last_reported":1720462253,"current_range_meters":8400,"station_id":"ce4bgjh2rcd13ifvqbg0","pricing_plan_id":"cebpf4jnsgd1na2vs0mg"},{"bike_id":"ab20f38a-9568-4700-a136-c68ec98621f6","system_id":"levelo_inurba_marseille","lat":43.29938,"lon":5.37566,"is_reserved":false,"is_disabled":false,"rental_uris":{"android":"levelo://app?vid=ab20f38a-9568-4700-a136-c68ec98621f6","ios":"levelo://app?vid=ab20f38a-9568-4700-a136-c68ec98621f6"},"vehicle_type_id":"4","last_reported":1720462253,"current_range_meters":0,"station_id":"","pricing_plan_id":"cebpf4jnsgd1na2vs0mg"},{"bike_id":"69085457-2960-4053-901c-61af52c41e66","system_id":"levelo_inurba_marseille","lat":43.322872,"lon":5.382756,"is_reserved":false,"is_disabled":false,"rental_uris":{"android":"levelo://app?vid=69085457-2960-4053-901c-61af52c41e66","ios":"levelo://app?vid=69085457-2960-4053-901c-61af52c41e66"},"vehicle_type_id":"4","last_reported":1720462253,"current_range_meters":30400,"station_id":"ce4bhr12rcd13ifvqhqg","pricing_plan_id":"cebpf4jnsgd1na2vs0mg"},{"bike_id":"978c87f2-78e4-4e89-8dbb-23d0ba867ded","system_id":"levelo_inurba_marseille","lat":43.322872,"lon":5.382756,"is_reserved":false,"is_disabled":false,"rental_uris":{"android":"levelo://app?vid=978c87f2-78e4-4e89-8dbb-23d0ba867ded","ios":"levelo://app?vid=978c87f2-78e4-4e89-8dbb-23d0ba867ded"},"vehicle_type_id":"4","last_reported":1720462253,"current_range_meters":27200,"station_id":"ce4bhr12rcd13ifvqhqg","pricing_plan_id":"cebpf4jnsgd1na2vs0mg"},{"bike_id":"577cf315-b45d-43d0-801e-6b82857d529d","system_id":"levelo_inurba_marseille","lat":43.322872,"lon":5.382756,"is_reserved":false,"is_disabled":false,"rental_uris":{"android":"levelo://app?vid=577cf315-b45d-43d0-801e-6b82857d529d","ios":"levelo://app?vid=577cf315-b45d-43d0-801e-6b82857d529d"},"vehicle_type_id":"4","last_reported":1720462253,"current_range_meters":11200,"station_id":"ce4bhr12rcd13ifvqhqg","pricing_plan_id":"cebpf4jnsgd1na2vs0mg"},{"bike_id":"34226f78-2895-4a3c-80ea-d630a526946e","system_id":"levelo_inurba_marseille","lat":43.297163,"lon":5.365866,"is_reserved":false,"is_disabled":false,"rental_uris":{"android":"levelo://app?vid=34226f78-2895-4a3c-80ea-d630a526946e","ios":"levelo://app?vid=34226f78-2895-4a3c-80ea-d630a526946e"},"vehicle_type_id":"4","last_reported":1720462253,"current_range_meters":26000,"station_id":"ce4bgn12rcd13ifvqbt0","pricing_plan_id":"cebpf4jnsgd1na2vs0mg"},{"bike_id":"526ec0c8-d630-4b49-88de-248ec5eaf035","system_id":"levelo_inurba_marseille","lat":43.297163,"lon":5.365866,"is_reserved":false,"is_disabled":false,"rental_uris":{"android":"levelo://app?vid=526ec0c8-d630-4b49-88de-248ec5eaf035","ios":"levelo://app?vid=526ec0c8-d630-4b49-88de-248ec5eaf035"},"vehicle_type_id":"4","last_reported":1720462253,"current_range_meters":3600,"station_id":"ce4bgn12rcd13ifvqbt0","pricing_plan_id":"cebpf4jnsgd1na2vs0mg"},{"bike_id":"db306bb5-b15e-4086-9692-2703007520ac","system_id":"levelo_inurba_marseille","lat":43.29707,"lon":5.366172,"is_reserved":false,"is_disabled":false,"rental_uris":{"android":"levelo://app?vid=db306bb5-b15e-4086-9692-2703007520ac","ios":"levelo://app?vid=db306bb5-b15e-4086-9692-2703007520ac"},"vehicle_type_id":"4","last_reported":1720462253,"current_range_meters":27600,"station_id":"","pricing_plan_id":"cebpf4jnsgd1na2vs0mg"},{"bike_id":"9521df26-d561-453f-8ed4-6cd5292a59b5","system_id":"levelo_inurba_marseille","lat":43.311722,"lon":5.387247,"is_reserved":false,"is_disabled":false,"rental_uris":{"android":"levelo://app?vid=9521df26-d561-453f-8ed4-6cd5292a59b5","ios":"levelo://app?vid=9521df26-d561-453f-8ed4-6cd5292a59b5"},"vehicle_type_id":"4","last_reported":1720462253,"current_range_meters":5200,"station_id":"ce4bgv12rcd13ifvqcp0","pricing_plan_id":"cebpf4jnsgd1na2vs0mg"},{"bike_id":"897bf193-702e-45dd-86fb-cfda8529a371","system_id":"levelo_inurba_marseille","lat":43.3266,"lon":5.37873,"is_reserved":false,"is_disabled":false,"rental_uris":{"android":"levelo://app?vid=897bf193-702e-45dd-86fb-cfda8529a371","ios":"levelo://app?vid=897bf193-702e-45dd-86fb-cfda8529a371"},"vehicle_type_id":"4","last_reported":1720462253,"current_range_meters":0,"station_id":"","pricing_plan_id":"cebpf4jnsgd1na2vs0mg"},{"bike_id":"a928fcb3-ada8-4e70-a559-9eeec8a789f4","system_id":"levelo_inurba_marseille","lat":43.29723,"lon":5.37683,"is_reserved":false,"is_disabled":false,"rental_uris":{"android":"levelo://app?vid=a928fcb3-ada8-4e70-a559-9eeec8a789f4","ios":"levelo://app?vid=a928fcb3-ada8-4e70-a559-9eeec8a789f4"},"vehicle_type_id":"4","last_reported":1720462253,"current_range_meters":31600,"station_id":"ce4bgkh2rcd13ifvqbl0","pricing_plan_id":"cebpf4jnsgd1na2vs0mg"},{"bike_id":"51ef9391-e960-4e20-b96a-f5883127ca53","system_id":"levelo_inurba_marseille","lat":43.31759,"lon":5.39017,"is_reserved":false,"is_disabled":false,"rental_uris":{"android":"levelo://app?vid=51ef9391-e960-4e20-b96a-f5883127ca53","ios":"levelo://app?vid=51ef9391-e960-4e20-b96a-f5883127ca53"},"vehicle_type_id":"4","last_reported":1720462253,"current_range_meters":0,"station_id":"ce4bhqp2rcd13ifvqhng","pricing_plan_id":"cebpf4jnsgd1na2vs0mg"},{"bike_id":"d1688aca-39b2-4d6a-b9d6-78db7420e3ae","system_id":"levelo_inurba_marseille","lat":43.29583,"lon":5.37515,"is_reserved":false,"is_disabled":false,"rental_uris":{"android":"levelo://app?vid=d1688aca-39b2-4d6a-b9d6-78db7420e3ae","ios":"levelo://app?vid=d1688aca-39b2-4d6a-b9d6-78db7420e3ae"},"vehicle_type_id":"4","last_reported":1720462253,"current_range_meters":22800,"station_id":"ce4bgh92rcd13ifvqb50","pricing_plan_id":"cebpf4jnsgd1na2vs0mg"},{"bike_id":"81c82a66-9ffb-4118-8861-99a976dd250a","system_id":"levelo_inurba_marseille","lat":43.295748,"lon":5.37522,"is_reserved":false,"is_disabled":false,"rental_uris":{"android":"levelo://app?vid=81c82a66-9ffb-4118-8861-99a976dd250a","ios":"levelo://app?vid=81c82a66-9ffb-4118-8861-99a976dd250a"},"vehicle_type_id":"4","last_reported":1720462253,"current_range_meters":8800,"station_id":"ce4bgh92rcd13ifvqb50","pricing_plan_id":"cebpf4jnsgd1na2vs0mg"},{"bike_id":"efd9f749-9507-443b-9172-75af22e090f4","system_id":"levelo_inurba_marseille","lat":43.2955,"lon":5.37411,"is_reserved":false,"is_disabled":false,"rental_uris":{"android":"levelo://app?vid=efd9f749-9507-443b-9172-75af22e090f4","ios":"levelo://app?vid=efd9f749-9507-443b-9172-75af22e090f4"},"vehicle_type_id":"4","last_reported":1720462253,"current_range_meters":30000,"station_id":"","pricing_plan_id":"cebpf4jnsgd1na2vs0mg"},{"bike_id":"5c10543b-53e6-4e32-ae65-a71bb0dba4ee","system_id":"levelo_inurba_marseille","lat":43.29551,"lon":5.37432,"is_reserved":false,"is_disabled":false,"rental_uris":{"android":"levelo://app?vid=5c10543b-53e6-4e32-ae65-a71bb0dba4ee","ios":"levelo://app?vid=5c10543b-53e6-4e32-ae65-a71bb0dba4ee"},"vehicle_type_id":"4","last_reported":1720462253,"current_range_meters":20800,"station_id":"","pricing_plan_id":"cebpf4jnsgd1na2vs0mg"},{"bike_id":"816c5330-9fab-4ff3-ae68-508eed347213","system_id":"levelo_inurba_marseille","lat":43.304278,"lon":5.388868,"is_reserved":false,"is_disabled":false,"rental_uris":{"android":"levelo://app?vid=816c5330-9fab-4ff3-ae68-508eed347213","ios":"levelo://app?vid=816c5330-9fab-4ff3-ae68-508eed347213"},"vehicle_type_id":"4","last_reported":1720462253,"current_range_meters":11600,"station_id":"ce4bgk12rcd13ifvqbi0","pricing_plan_id":"cebpf4jnsgd1na2vs0mg"},{"bike_id":"ba0d16ce-8539-4a04-8cd6-2eeb3e453ad2","system_id":"levelo_inurba_marseille","lat":43.304274,"lon":5.388873,"is_reserved":false,"is_disabled":false,"rental_uris":{"android":"levelo://app?vid=ba0d16ce-8539-4a04-8cd6-2eeb3e453ad2","ios":"levelo://app?vid=ba0d16ce-8539-4a04-8cd6-2eeb3e453ad2"},"vehicle_type_id":"4","last_reported":1720462253,"current_range_meters":3200,"station_id":"ce4bgk12rcd13ifvqbi0","pricing_plan_id":"cebpf4jnsgd1na2vs0mg"},{"bike_id":"258ec780-1a8f-48d0-9345-f3621fabca36","system_id":"levelo_inurba_marseille","lat":43.30436,"lon":5.38892,"is_reserved":false,"is_disabled":false,"rental_uris":{"android":"levelo://app?vid=258ec780-1a8f-48d0-9345-f3621fabca36","ios":"levelo://app?vid=258ec780-1a8f-48d0-9345-f3621fabca36"},"vehicle_type_id":"4","last_reported":1720462253,"current_range_meters":0,"station_id":"ce4bgk12rcd13ifvqbi0","pricing_plan_id":"cebpf4jnsgd1na2vs0mg"},{"bike_id":"49699af7-6e29-416a-b0b7-20bf125b2f02","system_id":"levelo_inurba_marseille","lat":43.296277,"lon":5.377108,"is_reserved":false,"is_disabled":false,"rental_uris":{"android":"levelo://app?vid=49699af7-6e29-416a-b0b7-20bf125b2f02","ios":"levelo://app?vid=49699af7-6e29-416a-b0b7-20bf125b2f02"},"vehicle_type_id":"4","last_reported":1720462253,"current_range_meters":17200,"station_id":"ce4bgi92rcd13ifvqb90","pricing_plan_id":"cebpf4jnsgd1na2vs0mg"},{"bike_id":"4bd6da5e-5978-4923-97a6-820fb5d3e365","system_id":"levelo_inurba_marseille","lat":43.30427,"lon":5.38886,"is_reserved":false,"is_disabled":false,"rental_uris":{"android":"levelo://app?vid=4bd6da5e-5978-4923-97a6-820fb5d3e365","ios":"levelo://app?vid=4bd6da5e-5978-4923-97a6-820fb5d3e365"},"vehicle_type_id":"4","last_reported":1720462253,"current_range_meters":0,"station_id":"ce4bgk12rcd13ifvqbi0","pricing_plan_id":"cebpf4jnsgd1na2vs0mg"},{"bike_id":"75f3503b-1e48-4fc7-864e-79a620e6b2be","system_id":"levelo_inurba_marseille","lat":43.304278,"lon":5.388868,"is_reserved":false,"is_disabled":false,"rental_uris":{"android":"levelo://app?vid=75f3503b-1e48-4fc7-864e-79a620e6b2be","ios":"levelo://app?vid=75f3503b-1e48-4fc7-864e-79a620e6b2be"},"vehicle_type_id":"4","last_reported":1720462253,"current_range_meters":0,"station_id":"ce4bgk12rcd13ifvqbi0","pricing_plan_id":"cebpf4jnsgd1na2vs0mg"},{"bike_id":"1cf4b92f-b3ea-4599-9ac1-10b8fbf5193f","system_id":"levelo_inurba_marseille","lat":43.304274,"lon":5.388873,"is_reserved":false,"is_disabled":false,"rental_uris":{"android":"levelo://app?vid=1cf4b92f-b3ea-4599-9ac1-10b8fbf5193f","ios":"levelo://app?vid=1cf4b92f-b3ea-4599-9ac1-10b8fbf5193f"},"vehicle_type_id":"4","last_reported":1720462253,"current_range_meters":6800,"station_id":"ce4bgk12rcd13ifvqbi0","pricing_plan_id":"cebpf4jnsgd1na2vs0mg"},{"bike_id":"5a60a7b8-346f-438c-98ef-60ceea5fe55f","system_id":"levelo_inurba_marseille","lat":43.304278,"lon":5.388868,"is_reserved":false,"is_disabled":false,"rental_uris":{"android":"levelo://app?vid=5a60a7b8-346f-438c-98ef-60ceea5fe55f","ios":"levelo://app?vid=5a60a7b8-346f-438c-98ef-60ceea5fe55f"},"vehicle_type_id":"4","last_reported":1720462253,"current_range_meters":1200,"station_id":"ce4bgk12rcd13ifvqbi0","pricing_plan_id":"cebpf4jnsgd1na2vs0mg"},{"bike_id":"25a561c0-f98c-4e9f-926f-a994b4ec1abc","system_id":"levelo_inurba_marseille","lat":43.29618,"lon":5.37714,"is_reserved":false,"is_disabled":false,"rental_uris":{"android":"levelo://app?vid=25a561c0-f98c-4e9f-926f-a994b4ec1abc","ios":"levelo://app?vid=25a561c0-f98c-4e9f-926f-a994b4ec1abc"},"vehicle_type_id":"4","last_reported":1720462253,"current_range_meters":23600,"station_id":"ce4bgi92rcd13ifvqb90","pricing_plan_id":"cebpf4jnsgd1na2vs0mg"},{"bike_id":"ceaca9c0-2c83-434e-ae98-b52f5fef4121","system_id":"levelo_inurba_marseille","lat":43.296263,"lon":5.377094,"is_reserved":false,"is_disabled":false,"rental_uris":{"android":"levelo://app?vid=ceaca9c0-2c83-434e-ae98-b52f5fef4121","ios":"levelo://app?vid=ceaca9c0-2c83-434e-ae98-b52f5fef4121"},"vehicle_type_id":"4","last_reported":1720462253,"current_range_meters":10800,"station_id":"ce4bgi92rcd13ifvqb90","pricing_plan_id":"cebpf4jnsgd1na2vs0mg"},{"bike_id":"c505d69f-8ef8-421e-b8cf-fa00fbf28ec6","system_id":"levelo_inurba_marseille","lat":43.296263,"lon":5.377094,"is_reserved":false,"is_disabled":false,"rental_uris":{"android":"levelo://app?vid=c505d69f-8ef8-421e-b8cf-fa00fbf28ec6","ios":"levelo://app?vid=c505d69f-8ef8-421e-b8cf-fa00fbf28ec6"},"vehicle_type_id":"4","last_reported":1720462253,"current_range_meters":14000,"station_id":"ce4bgi92rcd13ifvqb90","pricing_plan_id":"cebpf4jnsgd1na2vs0mg"},{"bike_id":"abf70f05-1d57-443f-b04f-e51fcbc1fdc5","system_id":"levelo_inurba_marseille","lat":43.295279,"lon":5.375048,"is_reserved":false,"is_disabled":false,"rental_uris":{"android":"levelo://app?vid=abf70f05-1d57-443f-b04f-e51fcbc1fdc5","ios":"levelo://app?vid=abf70f05-1d57-443f-b04f-e51fcbc1fdc5"},"vehicle_type_id":"4","last_reported":1720462253,"current_range_meters":14000,"station_id":"ce4bgkp2rcd13ifvqbmg","pricing_plan_id":"cebpf4jnsgd1na2vs0mg"},{"bike_id":"ec23645d-0d4c-4aa0-bd7f-9753767c54d3","system_id":"levelo_inurba_marseille","lat":43.295279,"lon":5.375048,"is_reserved":false,"is_disabled":false,"rental_uris":{"android":"levelo://app?vid=ec23645d-0d4c-4aa0-bd7f-9753767c54d3","ios":"levelo://app?vid=ec23645d-0d4c-4aa0-bd7f-9753767c54d3"},"vehicle_type_id":"4","last_reported":1720462253,"current_range_meters":19600,"station_id":"ce4bgkp2rcd13ifvqbmg","pricing_plan_id":"cebpf4jnsgd1na2vs0mg"},{"bike_id":"7c18accb-386c-454a-8669-d202ed6996ac","system_id":"levelo_inurba_marseille","lat":43.299724,"lon":5.384848,"is_reserved":false,"is_disabled":false,"rental_uris":{"android":"levelo://app?vid=7c18accb-386c-454a-8669-d202ed6996ac","ios":"levelo://app?vid=7c18accb-386c-454a-8669-d202ed6996ac"},"vehicle_type_id":"4","last_reported":1720462253,"current_range_meters":31200,"station_id":"ce4bgj92rcd13ifvqbd0","pricing_plan_id":"cebpf4jnsgd1na2vs0mg"},{"bike_id":"6832377d-852a-4846-aca8-44961567f427","system_id":"levelo_inurba_marseille","lat":43.299724,"lon":5.384848,"is_reserved":false,"is_disabled":false,"rental_uris":{"android":"levelo://app?vid=6832377d-852a-4846-aca8-44961567f427","ios":"levelo://app?vid=6832377d-852a-4846-aca8-44961567f427"},"vehicle_type_id":"4","last_reported":1720462253,"current_range_meters":6000,"station_id":"ce4bgj92rcd13ifvqbd0","pricing_plan_id":"cebpf4jnsgd1na2vs0mg"},{"bike_id":"dd1c39e0-e3c2-4f89-a06b-c6d9c41374ac","system_id":"levelo_inurba_marseille","lat":43.301396,"lon":5.387812,"is_reserved":false,"is_disabled":false,"rental_uris":{"android":"levelo://app?vid=dd1c39e0-e3c2-4f89-a06b-c6d9c41374ac","ios":"levelo://app?vid=dd1c39e0-e3c2-4f89-a06b-c6d9c41374ac"},"vehicle_type_id":"4","last_reported":1720462253,"current_range_meters":5200,"station_id":"ce4bghh2rcd13ifvqb60","pricing_plan_id":"cebpf4jnsgd1na2vs0mg"},{"bike_id":"7efff8ce-0db7-48f4-bc8f-6a8de41642cb","system_id":"levelo_inurba_marseille","lat":43.29602,"lon":5.381084,"is_reserved":false,"is_disabled":false,"rental_uris":{"android":"levelo://app?vid=7efff8ce-0db7-48f4-bc8f-6a8de41642cb","ios":"levelo://app?vid=7efff8ce-0db7-48f4-bc8f-6a8de41642cb"},"vehicle_type_id":"4","last_reported":1720462253,"current_range_meters":31200,"station_id":"ce4bgl12rcd13ifvqbo0","pricing_plan_id":"cebpf4jnsgd1na2vs0mg"},{"bike_id":"cc0194cf-5c4a-4f72-ad7b-55161649e741","system_id":"levelo_inurba_marseille","lat":43.29602,"lon":5.381084,"is_reserved":false,"is_disabled":false,"rental_uris":{"android":"levelo://app?vid=cc0194cf-5c4a-4f72-ad7b-55161649e741","ios":"levelo://app?vid=cc0194cf-5c4a-4f72-ad7b-55161649e741"},"vehicle_type_id":"4","last_reported":1720462253,"current_range_meters":31200,"station_id":"ce4bgl12rcd13ifvqbo0","pricing_plan_id":"cebpf4jnsgd1na2vs0mg"},{"bike_id":"97e018c9-7cb6-4319-9392-351851fa9beb","system_id":"levelo_inurba_marseille","lat":43.29602,"lon":5.381084,"is_reserved":false,"is_disabled":false,"rental_uris":{"android":"levelo://app?vid=97e018c9-7cb6-4319-9392-351851fa9beb","ios":"levelo://app?vid=97e018c9-7cb6-4319-9392-351851fa9beb"},"vehicle_type_id":"4","last_reported":1720462253,"current_range_meters":28400,"station_id":"ce4bgl12rcd13ifvqbo0","pricing_plan_id":"cebpf4jnsgd1na2vs0mg"},{"bike_id":"522ad495-56dd-4304-a418-b3681504fc4b","system_id":"levelo_inurba_marseille","lat":43.29602,"lon":5.381084,"is_reserved":false,"is_disabled":false,"rental_uris":{"android":"levelo://app?vid=522ad495-56dd-4304-a418-b3681504fc4b","ios":"levelo://app?vid=522ad495-56dd-4304-a418-b3681504fc4b"},"vehicle_type_id":"4","last_reported":1720462253,"current_range_meters":31200,"station_id":"ce4bgl12rcd13ifvqbo0","pricing_plan_id":"cebpf4jnsgd1na2vs0mg"},{"bike_id":"4486f853-4da4-4493-aa69-fe09128f2155","system_id":"levelo_inurba_marseille","lat":43.29602,"lon":5.381084,"is_reserved":false,"is_disabled":false,"rental_uris":{"android":"levelo://app?vid=4486f853-4da4-4493-aa69-fe09128f2155","ios":"levelo://app?vid=4486f853-4da4-4493-aa69-fe09128f2155"},"vehicle_type_id":"4","last_reported":1720462253,"current_range_meters":31200,"station_id":"ce4bgl12rcd13ifvqbo0","pricing_plan_id":"cebpf4jnsgd1na2vs0mg"},{"bike_id":"50750d53-269e-4e04-9213-e2715e3a8bd7","system_id":"levelo_inurba_marseille","lat":43.29602,"lon":5.381084,"is_reserved":false,"is_disabled":false,"rental_uris":{"android":"levelo://app?vid=50750d53-269e-4e04-9213-e2715e3a8bd7","ios":"levelo://app?vid=50750d53-269e-4e04-9213-e2715e3a8bd7"},"vehicle_type_id":"4","last_reported":1720462253,"current_range_meters":10000,"station_id":"ce4bgl12rcd13ifvqbo0","pricing_plan_id":"cebpf4jnsgd1na2vs0mg"},{"bike_id":"d49b6fc8-74cf-478a-8012-f1fea835aac6","system_id":"levelo_inurba_marseille","lat":43.29602,"lon":5.381084,"is_reserved":false,"is_disabled":false,"rental_uris":{"android":"levelo://app?vid=d49b6fc8-74cf-478a-8012-f1fea835aac6","ios":"levelo://app?vid=d49b6fc8-74cf-478a-8012-f1fea835aac6"},"vehicle_type_id":"4","last_reported":1720462253,"current_range_meters":27200,"station_id":"ce4bgl12rcd13ifvqbo0","pricing_plan_id":"cebpf4jnsgd1na2vs0mg"},{"bike_id":"fda49088-b028-4259-8334-2e4f4e1b3057","system_id":"levelo_inurba_marseille","lat":43.293259,"lon":5.371586,"is_reserved":false,"is_disabled":false,"rental_uris":{"android":"levelo://app?vid=fda49088-b028-4259-8334-2e4f4e1b3057","ios":"levelo://app?vid=fda49088-b028-4259-8334-2e4f4e1b3057"},"vehicle_type_id":"4","last_reported":1720462253,"current_range_meters":0,"station_id":"ce4bgh92rcd13ifvqb40","pricing_plan_id":"cebpf4jnsgd1na2vs0mg"},{"bike_id":"03fc097f-708e-4eb1-8558-e52389843f4c","system_id":"levelo_inurba_marseille","lat":43.293259,"lon":5.371586,"is_reserved":false,"is_disabled":false,"rental_uris":{"android":"levelo://app?vid=03fc097f-708e-4eb1-8558-e52389843f4c","ios":"levelo://app?vid=03fc097f-708e-4eb1-8558-e52389843f4c"},"vehicle_type_id":"4","last_reported":1720462253,"current_range_meters":0,"station_id":"ce4bgh92rcd13ifvqb40","pricing_plan_id":"cebpf4jnsgd1na2vs0mg"},{"bike_id":"44be9c98-b0f0-411d-99ba-755985e936ae","system_id":"levelo_inurba_marseille","lat":43.29305,"lon":5.37177,"is_reserved":false,"is_disabled":false,"rental_uris":{"android":"levelo://app?vid=44be9c98-b0f0-411d-99ba-755985e936ae","ios":"levelo://app?vid=44be9c98-b0f0-411d-99ba-755985e936ae"},"vehicle_type_id":"4","last_reported":1720462253,"current_range_meters":0,"station_id":"ce4bgh92rcd13ifvqb40","pricing_plan_id":"cebpf4jnsgd1na2vs0mg"},{"bike_id":"86fa4518-0e5e-4371-94ba-7837c1be5198","system_id":"levelo_inurba_marseille","lat":43.29303,"lon":5.37456,"is_reserved":false,"is_disabled":false,"rental_uris":{"android":"levelo://app?vid=86fa4518-0e5e-4371-94ba-7837c1be5198","ios":"levelo://app?vid=86fa4518-0e5e-4371-94ba-7837c1be5198"},"vehicle_type_id":"4","last_reported":1720462253,"current_range_meters":0,"station_id":"ce4bgi12rcd13ifvqb70","pricing_plan_id":"cebpf4jnsgd1na2vs0mg"},{"bike_id":"030826ea-0217-4d9e-b270-546a0150877f","system_id":"levelo_inurba_marseille","lat":43.293009,"lon":5.374584,"is_reserved":false,"is_disabled":false,"rental_uris":{"android":"levelo://app?vid=030826ea-0217-4d9e-b270-546a0150877f","ios":"levelo://app?vid=030826ea-0217-4d9e-b270-546a0150877f"},"vehicle_type_id":"4","last_reported":1720462253,"current_range_meters":0,"station_id":"ce4bgi12rcd13ifvqb70","pricing_plan_id":"cebpf4jnsgd1na2vs0mg"},{"bike_id":"b106c8ec-8ea1-461e-b100-c45412dba7a1","system_id":"levelo_inurba_marseille","lat":43.293009,"lon":5.374584,"is_reserved":false,"is_disabled":false,"rental_uris":{"android":"levelo://app?vid=b106c8ec-8ea1-461e-b100-c45412dba7a1","ios":"levelo://app?vid=b106c8ec-8ea1-461e-b100-c45412dba7a1"},"vehicle_type_id":"4","last_reported":1720462253,"current_range_meters":0,"station_id":"ce4bgi12rcd13ifvqb70","pricing_plan_id":"cebpf4jnsgd1na2vs0mg"},{"bike_id":"07b49bc6-63ef-48d6-a54b-76023144ab81","system_id":"levelo_inurba_marseille","lat":43.293009,"lon":5.374584,"is_reserved":false,"is_disabled":false,"rental_uris":{"android":"levelo://app?vid=07b49bc6-63ef-48d6-a54b-76023144ab81","ios":"levelo://app?vid=07b49bc6-63ef-48d6-a54b-76023144ab81"},"vehicle_type_id":"4","last_reported":1720462253,"current_range_meters":0,"station_id":"ce4bgi12rcd13ifvqb70","pricing_plan_id":"cebpf4jnsgd1na2vs0mg"},{"bike_id":"0b6715d2-ab27-4e84-a5bb-74e2a7ef72be","system_id":"levelo_inurba_marseille","lat":43.305994,"lon":5.393687,"is_reserved":false,"is_disabled":false,"rental_uris":{"android":"levelo://app?vid=0b6715d2-ab27-4e84-a5bb-74e2a7ef72be","ios":"levelo://app?vid=0b6715d2-ab27-4e84-a5bb-74e2a7ef72be"},"vehicle_type_id":"4","last_reported":1720462253,"current_range_meters":14800,"station_id":"ce4bh0p2rcd13ifvqd80","pricing_plan_id":"cebpf4jnsgd1na2vs0mg"},{"bike_id":"07a26384-a2f0-4944-bccf-d8322de4daa2","system_id":"levelo_inurba_marseille","lat":43.305994,"lon":5.393687,"is_reserved":false,"is_disabled":false,"rental_uris":{"android":"levelo://app?vid=07a26384-a2f0-4944-bccf-d8322de4daa2","ios":"levelo://app?vid=07a26384-a2f0-4944-bccf-d8322de4daa2"},"vehicle_type_id":"4","last_reported":1720462253,"current_range_meters":17200,"station_id":"ce4bh0p2rcd13ifvqd80","pricing_plan_id":"cebpf4jnsgd1na2vs0mg"},{"bike_id":"6c88b4c3-eb2b-4d6d-9ad3-a525f9b81bba","system_id":"levelo_inurba_marseille","lat":43.293009,"lon":5.374584,"is_reserved":false,"is_disabled":false,"rental_uris":{"android":"levelo://app?vid=6c88b4c3-eb2b-4d6d-9ad3-a525f9b81bba","ios":"levelo://app?vid=6c88b4c3-eb2b-4d6d-9ad3-a525f9b81bba"},"vehicle_type_id":"4","last_reported":1720462253,"current_range_meters":0,"station_id":"ce4bgi12rcd13ifvqb70","pricing_plan_id":"cebpf4jnsgd1na2vs0mg"},{"bike_id":"f2adac7e-4f53-49b6-88fd-e48c7c6c3fa5","system_id":"levelo_inurba_marseille","lat":43.292311,"lon":5.360731,"is_reserved":false,"is_disabled":false,"rental_uris":{"android":"levelo://app?vid=f2adac7e-4f53-49b6-88fd-e48c7c6c3fa5","ios":"levelo://app?vid=f2adac7e-4f53-49b6-88fd-e48c7c6c3fa5"},"vehicle_type_id":"4","last_reported":1720462253,"current_range_meters":6800,"station_id":"ce4bhbh2rcd13ifvqeqg","pricing_plan_id":"cebpf4jnsgd1na2vs0mg"},{"bike_id":"5fb85767-a742-4d49-9421-b4f07f3513af","system_id":"levelo_inurba_marseille","lat":43.292311,"lon":5.360731,"is_reserved":false,"is_disabled":false,"rental_uris":{"android":"levelo://app?vid=5fb85767-a742-4d49-9421-b4f07f3513af","ios":"levelo://app?vid=5fb85767-a742-4d49-9421-b4f07f3513af"},"vehicle_type_id":"4","last_reported":1720462253,"current_range_meters":10000,"station_id":"ce4bhbh2rcd13ifvqeqg","pricing_plan_id":"cebpf4jnsgd1na2vs0mg"},{"bike_id":"a627efa3-64f9-4dd3-a222-7d2d32be8091","system_id":"levelo_inurba_marseille","lat":43.30085,"lon":5.390856,"is_reserved":false,"is_disabled":false,"rental_uris":{"android":"levelo://app?vid=a627efa3-64f9-4dd3-a222-7d2d32be8091","ios":"levelo://app?vid=a627efa3-64f9-4dd3-a222-7d2d32be8091"},"vehicle_type_id":"4","last_reported":1720462253,"current_range_meters":0,"station_id":"ce4bh192rcd13ifvqdb0","pricing_plan_id":"cebpf4jnsgd1na2vs0mg"},{"bike_id":"1e8fb18f-6ac4-4f22-b495-187e8dc68986","system_id":"levelo_inurba_marseille","lat":43.29229,"lon":5.36051,"is_reserved":false,"is_disabled":false,"rental_uris":{"android":"levelo://app?vid=1e8fb18f-6ac4-4f22-b495-187e8dc68986","ios":"levelo://app?vid=1e8fb18f-6ac4-4f22-b495-187e8dc68986"},"vehicle_type_id":"4","last_reported":1720462253,"current_range_meters":7200,"station_id":"ce4bhbh2rcd13ifvqeqg","pricing_plan_id":"cebpf4jnsgd1na2vs0mg"},{"bike_id":"471fb78e-e9cb-4a72-bb3c-22493d9893e3","system_id":"levelo_inurba_marseille","lat":43.29227,"lon":5.36048,"is_reserved":false,"is_disabled":false,"rental_uris":{"android":"levelo://app?vid=471fb78e-e9cb-4a72-bb3c-22493d9893e3","ios":"levelo://app?vid=471fb78e-e9cb-4a72-bb3c-22493d9893e3"},"vehicle_type_id":"4","last_reported":1720462253,"current_range_meters":28400,"station_id":"ce4bhbh2rcd13ifvqeqg","pricing_plan_id":"cebpf4jnsgd1na2vs0mg"},{"bike_id":"a9684b05-da30-4314-b1ee-582ecb487ef0","system_id":"levelo_inurba_marseille","lat":43.292239,"lon":5.360565,"is_reserved":false,"is_disabled":false,"rental_uris":{"android":"levelo://app?vid=a9684b05-da30-4314-b1ee-582ecb487ef0","ios":"levelo://app?vid=a9684b05-da30-4314-b1ee-582ecb487ef0"},"vehicle_type_id":"4","last_reported":1720462253,"current_range_meters":0,"station_id":"ce4bhbh2rcd13ifvqeqg","pricing_plan_id":"cebpf4jnsgd1na2vs0mg"},{"bike_id":"1b3ff88a-b939-4b80-b7ae-98ee6eaec9b3","system_id":"levelo_inurba_marseille","lat":43.29217,"lon":5.36053,"is_reserved":false,"is_disabled":false,"rental_uris":{"android":"levelo://app?vid=1b3ff88a-b939-4b80-b7ae-98ee6eaec9b3","ios":"levelo://app?vid=1b3ff88a-b939-4b80-b7ae-98ee6eaec9b3"},"vehicle_type_id":"4","last_reported":1720462253,"current_range_meters":31200,"station_id":"ce4bhbh2rcd13ifvqeqg","pricing_plan_id":"cebpf4jnsgd1na2vs0mg"},{"bike_id":"ef38bbd8-69d5-4a7d-b2cb-55f9cb226c17","system_id":"levelo_inurba_marseille","lat":43.29216,"lon":5.36049,"is_reserved":false,"is_disabled":false,"rental_uris":{"android":"levelo://app?vid=ef38bbd8-69d5-4a7d-b2cb-55f9cb226c17","ios":"levelo://app?vid=ef38bbd8-69d5-4a7d-b2cb-55f9cb226c17"},"vehicle_type_id":"4","last_reported":1720462253,"current_range_meters":30800,"station_id":"ce4bhbh2rcd13ifvqeqg","pricing_plan_id":"cebpf4jnsgd1na2vs0mg"},{"bike_id":"535ff237-8764-4aa2-a38c-487039cde68d","system_id":"levelo_inurba_marseille","lat":43.298764,"lon":5.388973,"is_reserved":false,"is_disabled":false,"rental_uris":{"android":"levelo://app?vid=535ff237-8764-4aa2-a38c-487039cde68d","ios":"levelo://app?vid=535ff237-8764-4aa2-a38c-487039cde68d"},"vehicle_type_id":"4","last_reported":1720462253,"current_range_meters":16000,"station_id":"ce4bh392rcd13ifvqdl0","pricing_plan_id":"cebpf4jnsgd1na2vs0mg"},{"bike_id":"2e5fe119-0275-4348-8bfa-1b09eadf39e3","system_id":"levelo_inurba_marseille","lat":43.298764,"lon":5.388973,"is_reserved":false,"is_disabled":false,"rental_uris":{"android":"levelo://app?vid=2e5fe119-0275-4348-8bfa-1b09eadf39e3","ios":"levelo://app?vid=2e5fe119-0275-4348-8bfa-1b09eadf39e3"},"vehicle_type_id":"4","last_reported":1720462253,"current_range_meters":400,"station_id":"ce4bh392rcd13ifvqdl0","pricing_plan_id":"cebpf4jnsgd1na2vs0mg"},{"bike_id":"0d92053f-2954-4b61-8897-67715b5a1115","system_id":"levelo_inurba_marseille","lat":43.298764,"lon":5.388973,"is_reserved":false,"is_disabled":false,"rental_uris":{"android":"levelo://app?vid=0d92053f-2954-4b61-8897-67715b5a1115","ios":"levelo://app?vid=0d92053f-2954-4b61-8897-67715b5a1115"},"vehicle_type_id":"4","last_reported":1720462253,"current_range_meters":13600,"station_id":"ce4bh392rcd13ifvqdl0","pricing_plan_id":"cebpf4jnsgd1na2vs0mg"},{"bike_id":"2e1d0258-ca6d-43c8-854c-193fa0c60bdd","system_id":"levelo_inurba_marseille","lat":43.291671,"lon":5.371575,"is_reserved":false,"is_disabled":false,"rental_uris":{"android":"levelo://app?vid=2e1d0258-ca6d-43c8-854c-193fa0c60bdd","ios":"levelo://app?vid=2e1d0258-ca6d-43c8-854c-193fa0c60bdd"},"vehicle_type_id":"4","last_reported":1720462253,"current_range_meters":0,"station_id":"ce4bha92rcd13ifvqeh0","pricing_plan_id":"cebpf4jnsgd1na2vs0mg"},{"bike_id":"25b46c49-e63b-46fd-bb83-65ea1f653b8d","system_id":"levelo_inurba_marseille","lat":43.291671,"lon":5.371575,"is_reserved":false,"is_disabled":false,"rental_uris":{"android":"levelo://app?vid=25b46c49-e63b-46fd-bb83-65ea1f653b8d","ios":"levelo://app?vid=25b46c49-e63b-46fd-bb83-65ea1f653b8d"},"vehicle_type_id":"4","last_reported":1720462253,"current_range_meters":5600,"station_id":"ce4bha92rcd13ifvqeh0","pricing_plan_id":"cebpf4jnsgd1na2vs0mg"},{"bike_id":"6bc2b15c-e290-4ce3-a934-1161ead40df4","system_id":"levelo_inurba_marseille","lat":43.291671,"lon":5.371575,"is_reserved":false,"is_disabled":false,"rental_uris":{"android":"levelo://app?vid=6bc2b15c-e290-4ce3-a934-1161ead40df4","ios":"levelo://app?vid=6bc2b15c-e290-4ce3-a934-1161ead40df4"},"vehicle_type_id":"4","last_reported":1720462253,"current_range_meters":0,"station_id":"ce4bha92rcd13ifvqeh0","pricing_plan_id":"cebpf4jnsgd1na2vs0mg"},{"bike_id":"3b6149e0-ada6-466a-bccc-f89dcf67b676","system_id":"levelo_inurba_marseille","lat":43.291675,"lon":5.371583,"is_reserved":false,"is_disabled":false,"rental_uris":{"android":"levelo://app?vid=3b6149e0-ada6-466a-bccc-f89dcf67b676","ios":"levelo://app?vid=3b6149e0-ada6-466a-bccc-f89dcf67b676"},"vehicle_type_id":"4","last_reported":1720462253,"current_range_meters":0,"station_id":"ce4bha92rcd13ifvqeh0","pricing_plan_id":"cebpf4jnsgd1na2vs0mg"},{"bike_id":"fa1166a3-9922-49d9-b1db-a26ce7801e09","system_id":"levelo_inurba_marseille","lat":43.313291,"lon":5.396838,"is_reserved":false,"is_disabled":false,"rental_uris":{"android":"levelo://app?vid=fa1166a3-9922-49d9-b1db-a26ce7801e09","ios":"levelo://app?vid=fa1166a3-9922-49d9-b1db-a26ce7801e09"},"vehicle_type_id":"4","last_reported":1720462253,"current_range_meters":17600,"station_id":"ce4bgvp2rcd13ifvqcu0","pricing_plan_id":"cebpf4jnsgd1na2vs0mg"},{"bike_id":"7ef0665d-f18f-4deb-9637-1a70effb3d70","system_id":"levelo_inurba_marseille","lat":43.292005,"lon":5.357875,"is_reserved":false,"is_disabled":false,"rental_uris":{"android":"levelo://app?vid=7ef0665d-f18f-4deb-9637-1a70effb3d70","ios":"levelo://app?vid=7ef0665d-f18f-4deb-9637-1a70effb3d70"},"vehicle_type_id":"4","last_reported":1720462253,"current_range_meters":12800,"station_id":"ce4bhb12rcd13ifvqel0","pricing_plan_id":"cebpf4jnsgd1na2vs0mg"},{"bike_id":"a1c8667c-5fb6-4b7e-a240-5f449d6bb7c2","system_id":"levelo_inurba_marseille","lat":43.291994,"lon":5.357886,"is_reserved":false,"is_disabled":false,"rental_uris":{"android":"levelo://app?vid=a1c8667c-5fb6-4b7e-a240-5f449d6bb7c2","ios":"levelo://app?vid=a1c8667c-5fb6-4b7e-a240-5f449d6bb7c2"},"vehicle_type_id":"4","last_reported":1720462253,"current_range_meters":1200,"station_id":"ce4bhb12rcd13ifvqel0","pricing_plan_id":"cebpf4jnsgd1na2vs0mg"},{"bike_id":"1ec2af5b-fe4a-4d8a-91af-435549528949","system_id":"levelo_inurba_marseille","lat":43.289741,"lon":5.378306,"is_reserved":false,"is_disabled":false,"rental_uris":{"android":"levelo://app?vid=1ec2af5b-fe4a-4d8a-91af-435549528949","ios":"levelo://app?vid=1ec2af5b-fe4a-4d8a-91af-435549528949"},"vehicle_type_id":"4","last_reported":1720462253,"current_range_meters":1600,"station_id":"ce4bh9p2rcd13ifvqed0","pricing_plan_id":"cebpf4jnsgd1na2vs0mg"},{"bike_id":"9a153e31-bffb-4e00-b9b1-9115af066e26","system_id":"levelo_inurba_marseille","lat":43.29194,"lon":5.35797,"is_reserved":false,"is_disabled":false,"rental_uris":{"android":"levelo://app?vid=9a153e31-bffb-4e00-b9b1-9115af066e26","ios":"levelo://app?vid=9a153e31-bffb-4e00-b9b1-9115af066e26"},"vehicle_type_id":"4","last_reported":1720462253,"current_range_meters":0,"station_id":"ce4bhb12rcd13ifvqel0","pricing_plan_id":"cebpf4jnsgd1na2vs0mg"},{"bike_id":"a528df29-e466-488b-a09b-c1509d714d64","system_id":"levelo_inurba_marseille","lat":43.313291,"lon":5.396838,"is_reserved":false,"is_disabled":false,"rental_uris":{"android":"levelo://app?vid=a528df29-e466-488b-a09b-c1509d714d64","ios":"levelo://app?vid=a528df29-e466-488b-a09b-c1509d714d64"},"vehicle_type_id":"4","last_reported":1720462253,"current_range_meters":31200,"station_id":"ce4bgvp2rcd13ifvqcu0","pricing_plan_id":"cebpf4jnsgd1na2vs0mg"},{"bike_id":"1c5bda11-b4f1-4062-b90c-2c88c6ed597f","system_id":"levelo_inurba_marseille","lat":43.309038,"lon":5.396546,"is_reserved":false,"is_disabled":false,"rental_uris":{"android":"levelo://app?vid=1c5bda11-b4f1-4062-b90c-2c88c6ed597f","ios":"levelo://app?vid=1c5bda11-b4f1-4062-b90c-2c88c6ed597f"},"vehicle_type_id":"4","last_reported":1720462253,"current_range_meters":31200,"station_id":"ce4bh012rcd13ifvqcv0","pricing_plan_id":"cebpf4jnsgd1na2vs0mg"},{"bike_id":"792fceb9-5c4c-486b-9b7e-e8d8d4d97947","system_id":"levelo_inurba_marseille","lat":43.31336,"lon":5.39693,"is_reserved":false,"is_disabled":false,"rental_uris":{"android":"levelo://app?vid=792fceb9-5c4c-486b-9b7e-e8d8d4d97947","ios":"levelo://app?vid=792fceb9-5c4c-486b-9b7e-e8d8d4d97947"},"vehicle_type_id":"4","last_reported":1720462253,"current_range_meters":8400,"station_id":"ce4bgvp2rcd13ifvqcu0","pricing_plan_id":"cebpf4jnsgd1na2vs0mg"},{"bike_id":"a911f7e7-6aad-4c4c-afa5-1503ad0671e2","system_id":"levelo_inurba_marseille","lat":43.309038,"lon":5.396546,"is_reserved":false,"is_disabled":false,"rental_uris":{"android":"levelo://app?vid=a911f7e7-6aad-4c4c-afa5-1503ad0671e2","ios":"levelo://app?vid=a911f7e7-6aad-4c4c-afa5-1503ad0671e2"},"vehicle_type_id":"4","last_reported":1720462253,"current_range_meters":0,"station_id":"ce4bh012rcd13ifvqcv0","pricing_plan_id":"cebpf4jnsgd1na2vs0mg"},{"bike_id":"3b848146-3ef6-4849-9f55-805dacfd73e6","system_id":"levelo_inurba_marseille","lat":43.313291,"lon":5.396838,"is_reserved":false,"is_disabled":false,"rental_uris":{"android":"levelo://app?vid=3b848146-3ef6-4849-9f55-805dacfd73e6","ios":"levelo://app?vid=3b848146-3ef6-4849-9f55-805dacfd73e6"},"vehicle_type_id":"4","last_reported":1720462253,"current_range_meters":6000,"station_id":"ce4bgvp2rcd13ifvqcu0","pricing_plan_id":"cebpf4jnsgd1na2vs0mg"},{"bike_id":"8594dd09-dad9-4647-b567-2b40cb06c6a0","system_id":"levelo_inurba_marseille","lat":43.31329,"lon":5.39696,"is_reserved":false,"is_disabled":false,"rental_uris":{"android":"levelo://app?vid=8594dd09-dad9-4647-b567-2b40cb06c6a0","ios":"levelo://app?vid=8594dd09-dad9-4647-b567-2b40cb06c6a0"},"vehicle_type_id":"4","last_reported":1720462253,"current_range_meters":4000,"station_id":"ce4bgvp2rcd13ifvqcu0","pricing_plan_id":"cebpf4jnsgd1na2vs0mg"},{"bike_id":"075a8111-9330-4392-a72a-cf9208377623","system_id":"levelo_inurba_marseille","lat":43.309038,"lon":5.396546,"is_reserved":false,"is_disabled":false,"rental_uris":{"android":"levelo://app?vid=075a8111-9330-4392-a72a-cf9208377623","ios":"levelo://app?vid=075a8111-9330-4392-a72a-cf9208377623"},"vehicle_type_id":"4","last_reported":1720462253,"current_range_meters":0,"station_id":"ce4bh012rcd13ifvqcv0","pricing_plan_id":"cebpf4jnsgd1na2vs0mg"},{"bike_id":"1d3d5a9c-d6ea-4b77-9740-7fe3c5d20a49","system_id":"levelo_inurba_marseille","lat":43.309038,"lon":5.396546,"is_reserved":false,"is_disabled":false,"rental_uris":{"android":"levelo://app?vid=1d3d5a9c-d6ea-4b77-9740-7fe3c5d20a49","ios":"levelo://app?vid=1d3d5a9c-d6ea-4b77-9740-7fe3c5d20a49"},"vehicle_type_id":"4","last_reported":1720462253,"current_range_meters":0,"station_id":"ce4bh012rcd13ifvqcv0","pricing_plan_id":"cebpf4jnsgd1na2vs0mg"},{"bike_id":"d4a37ac6-cb61-47a7-85d8-b3fa7124bf03","system_id":"levelo_inurba_marseille","lat":43.29529,"lon":5.385581,"is_reserved":false,"is_disabled":false,"rental_uris":{"android":"levelo://app?vid=d4a37ac6-cb61-47a7-85d8-b3fa7124bf03","ios":"levelo://app?vid=d4a37ac6-cb61-47a7-85d8-b3fa7124bf03"},"vehicle_type_id":"4","last_reported":1720462253,"current_range_meters":28800,"station_id":"ce4bgih2rcd13ifvqba0","pricing_plan_id":"cebpf4jnsgd1na2vs0mg"},{"bike_id":"0ebbd997-9998-4b94-a695-e2d85a8609e6","system_id":"levelo_inurba_marseille","lat":43.29529,"lon":5.385581,"is_reserved":false,"is_disabled":false,"rental_uris":{"android":"levelo://app?vid=0ebbd997-9998-4b94-a695-e2d85a8609e6","ios":"levelo://app?vid=0ebbd997-9998-4b94-a695-e2d85a8609e6"},"vehicle_type_id":"4","last_reported":1720462253,"current_range_meters":5600,"station_id":"ce4bgih2rcd13ifvqba0","pricing_plan_id":"cebpf4jnsgd1na2vs0mg"},{"bike_id":"dff41c24-4ee5-4da9-b572-e2e16f56b46f","system_id":"levelo_inurba_marseille","lat":43.29529,"lon":5.385581,"is_reserved":false,"is_disabled":false,"rental_uris":{"android":"levelo://app?vid=dff41c24-4ee5-4da9-b572-e2e16f56b46f","ios":"levelo://app?vid=dff41c24-4ee5-4da9-b572-e2e16f56b46f"},"vehicle_type_id":"4","last_reported":1720462253,"current_range_meters":27200,"station_id":"ce4bgih2rcd13ifvqba0","pricing_plan_id":"cebpf4jnsgd1na2vs0mg"},{"bike_id":"d142d841-f3fa-4f14-9082-6de5fe55247a","system_id":"levelo_inurba_marseille","lat":43.290779,"lon":5.371482,"is_reserved":false,"is_disabled":false,"rental_uris":{"android":"levelo://app?vid=d142d841-f3fa-4f14-9082-6de5fe55247a","ios":"levelo://app?vid=d142d841-f3fa-4f14-9082-6de5fe55247a"},"vehicle_type_id":"4","last_reported":1720462253,"current_range_meters":11200,"station_id":"ce4bh5p2rcd13ifvqe4g","pricing_plan_id":"cebpf4jnsgd1na2vs0mg"},{"bike_id":"b67ad4d4-f37b-4412-80d4-f3ed7ee7a9ca","system_id":"levelo_inurba_marseille","lat":43.290779,"lon":5.371482,"is_reserved":false,"is_disabled":false,"rental_uris":{"android":"levelo://app?vid=b67ad4d4-f37b-4412-80d4-f3ed7ee7a9ca","ios":"levelo://app?vid=b67ad4d4-f37b-4412-80d4-f3ed7ee7a9ca"},"vehicle_type_id":"4","last_reported":1720462253,"current_range_meters":0,"station_id":"ce4bh5p2rcd13ifvqe4g","pricing_plan_id":"cebpf4jnsgd1na2vs0mg"},{"bike_id":"4176f6e5-251c-46b8-94c3-850d47e671d9","system_id":"levelo_inurba_marseille","lat":43.290624,"lon":5.359245,"is_reserved":false,"is_disabled":false,"rental_uris":{"android":"levelo://app?vid=4176f6e5-251c-46b8-94c3-850d47e671d9","ios":"levelo://app?vid=4176f6e5-251c-46b8-94c3-850d47e671d9"},"vehicle_type_id":"4","last_reported":1720462253,"current_range_meters":1600,"station_id":"ce4bha92rcd13ifvqeg0","pricing_plan_id":"cebpf4jnsgd1na2vs0mg"},{"bike_id":"c6faa10b-5067-4871-b215-519bdaa85358","system_id":"levelo_inurba_marseille","lat":43.290624,"lon":5.359245,"is_reserved":false,"is_disabled":false,"rental_uris":{"android":"levelo://app?vid=c6faa10b-5067-4871-b215-519bdaa85358","ios":"levelo://app?vid=c6faa10b-5067-4871-b215-519bdaa85358"},"vehicle_type_id":"4","last_reported":1720462253,"current_range_meters":27200,"station_id":"ce4bha92rcd13ifvqeg0","pricing_plan_id":"cebpf4jnsgd1na2vs0mg"},{"bike_id":"db3253b7-c276-499f-8c88-01d73cbc955b","system_id":"levelo_inurba_marseille","lat":43.294153,"lon":5.386305,"is_reserved":false,"is_disabled":false,"rental_uris":{"android":"levelo://app?vid=db3253b7-c276-499f-8c88-01d73cbc955b","ios":"levelo://app?vid=db3253b7-c276-499f-8c88-01d73cbc955b"},"vehicle_type_id":"4","last_reported":1720462253,"current_range_meters":18800,"station_id":"ce4bh2h2rcd13ifvqdh0","pricing_plan_id":"cebpf4jnsgd1na2vs0mg"},{"bike_id":"6704f561-854c-4f38-a09e-a2b0e277ddca","system_id":"levelo_inurba_marseille","lat":43.294153,"lon":5.386305,"is_reserved":false,"is_disabled":false,"rental_uris":{"android":"levelo://app?vid=6704f561-854c-4f38-a09e-a2b0e277ddca","ios":"levelo://app?vid=6704f561-854c-4f38-a09e-a2b0e277ddca"},"vehicle_type_id":"4","last_reported":1720462253,"current_range_meters":13600,"station_id":"ce4bh2h2rcd13ifvqdh0","pricing_plan_id":"cebpf4jnsgd1na2vs0mg"},{"bike_id":"525a0eb3-b8d4-499e-b1aa-151cfac9b003","system_id":"levelo_inurba_marseille","lat":43.294153,"lon":5.386305,"is_reserved":false,"is_disabled":false,"rental_uris":{"android":"levelo://app?vid=525a0eb3-b8d4-499e-b1aa-151cfac9b003","ios":"levelo://app?vid=525a0eb3-b8d4-499e-b1aa-151cfac9b003"},"vehicle_type_id":"4","last_reported":1720462253,"current_range_meters":30000,"station_id":"ce4bh2h2rcd13ifvqdh0","pricing_plan_id":"cebpf4jnsgd1na2vs0mg"},{"bike_id":"954de93b-4f92-45cc-ae56-361553c8118b","system_id":"levelo_inurba_marseille","lat":43.294153,"lon":5.386305,"is_reserved":false,"is_disabled":false,"rental_uris":{"android":"levelo://app?vid=954de93b-4f92-45cc-ae56-361553c8118b","ios":"levelo://app?vid=954de93b-4f92-45cc-ae56-361553c8118b"},"vehicle_type_id":"4","last_reported":1720462253,"current_range_meters":22400,"station_id":"ce4bh2h2rcd13ifvqdh0","pricing_plan_id":"cebpf4jnsgd1na2vs0mg"},{"bike_id":"8d472dca-ba41-43f3-8183-6e9454008461","system_id":"levelo_inurba_marseille","lat":43.294162,"lon":5.386292,"is_reserved":false,"is_disabled":false,"rental_uris":{"android":"levelo://app?vid=8d472dca-ba41-43f3-8183-6e9454008461","ios":"levelo://app?vid=8d472dca-ba41-43f3-8183-6e9454008461"},"vehicle_type_id":"4","last_reported":1720462253,"current_range_meters":28400,"station_id":"ce4bh2h2rcd13ifvqdh0","pricing_plan_id":"cebpf4jnsgd1na2vs0mg"},{"bike_id":"fb0536b2-2308-4f1a-a225-b5eaf349e1c7","system_id":"levelo_inurba_marseille","lat":43.294153,"lon":5.386305,"is_reserved":false,"is_disabled":false,"rental_uris":{"android":"levelo://app?vid=fb0536b2-2308-4f1a-a225-b5eaf349e1c7","ios":"levelo://app?vid=fb0536b2-2308-4f1a-a225-b5eaf349e1c7"},"vehicle_type_id":"4","last_reported":1720462253,"current_range_meters":12400,"station_id":"ce4bh2h2rcd13ifvqdh0","pricing_plan_id":"cebpf4jnsgd1na2vs0mg"},{"bike_id":"facf4c33-fb71-46fa-a5b1-98ece1f049e0","system_id":"levelo_inurba_marseille","lat":43.289184,"lon":5.366408,"is_reserved":false,"is_disabled":false,"rental_uris":{"android":"levelo://app?vid=facf4c33-fb71-46fa-a5b1-98ece1f049e0","ios":"levelo://app?vid=facf4c33-fb71-46fa-a5b1-98ece1f049e0"},"vehicle_type_id":"4","last_reported":1720462253,"current_range_meters":2400,"station_id":"ce4bhap2rcd13ifvqek0","pricing_plan_id":"cebpf4jnsgd1na2vs0mg"},{"bike_id":"1e2babae-6c5d-4052-a637-de7406c27b8a","system_id":"levelo_inurba_marseille","lat":43.294162,"lon":5.386292,"is_reserved":false,"is_disabled":false,"rental_uris":{"android":"levelo://app?vid=1e2babae-6c5d-4052-a637-de7406c27b8a","ios":"levelo://app?vid=1e2babae-6c5d-4052-a637-de7406c27b8a"},"vehicle_type_id":"4","last_reported":1720462253,"current_range_meters":6800,"station_id":"ce4bh2h2rcd13ifvqdh0","pricing_plan_id":"cebpf4jnsgd1na2vs0mg"},{"bike_id":"bfd17abe-7320-4e8b-8f83-34a21f21808a","system_id":"levelo_inurba_marseille","lat":43.289468,"lon":5.363719,"is_reserved":false,"is_disabled":false,"rental_uris":{"android":"levelo://app?vid=bfd17abe-7320-4e8b-8f83-34a21f21808a","ios":"levelo://app?vid=bfd17abe-7320-4e8b-8f83-34a21f21808a"},"vehicle_type_id":"4","last_reported":1720462253,"current_range_meters":12800,"station_id":"ce4bhc92rcd13ifvqetg","pricing_plan_id":"cebpf4jnsgd1na2vs0mg"},{"bike_id":"02d29453-672f-45c6-a09f-4aaaee3037fa","system_id":"levelo_inurba_marseille","lat":43.289184,"lon":5.366408,"is_reserved":false,"is_disabled":false,"rental_uris":{"android":"levelo://app?vid=02d29453-672f-45c6-a09f-4aaaee3037fa","ios":"levelo://app?vid=02d29453-672f-45c6-a09f-4aaaee3037fa"},"vehicle_type_id":"4","last_reported":1720462253,"current_range_meters":20400,"station_id":"ce4bhap2rcd13ifvqek0","pricing_plan_id":"cebpf4jnsgd1na2vs0mg"},{"bike_id":"8f6b500d-90cc-484c-87fd-81995029066f","system_id":"levelo_inurba_marseille","lat":43.294162,"lon":5.386292,"is_reserved":false,"is_disabled":false,"rental_uris":{"android":"levelo://app?vid=8f6b500d-90cc-484c-87fd-81995029066f","ios":"levelo://app?vid=8f6b500d-90cc-484c-87fd-81995029066f"},"vehicle_type_id":"4","last_reported":1720462253,"current_range_meters":19200,"station_id":"ce4bh2h2rcd13ifvqdh0","pricing_plan_id":"cebpf4jnsgd1na2vs0mg"},{"bike_id":"1ddfb46e-017f-4e4a-85ad-b159b7c5a348","system_id":"levelo_inurba_marseille","lat":43.289184,"lon":5.366408,"is_reserved":false,"is_disabled":false,"rental_uris":{"android":"levelo://app?vid=1ddfb46e-017f-4e4a-85ad-b159b7c5a348","ios":"levelo://app?vid=1ddfb46e-017f-4e4a-85ad-b159b7c5a348"},"vehicle_type_id":"4","last_reported":1720462253,"current_range_meters":4800,"station_id":"ce4bhap2rcd13ifvqek0","pricing_plan_id":"cebpf4jnsgd1na2vs0mg"},{"bike_id":"5754b2b3-9766-4d9d-80bd-362f3b4f97a5","system_id":"levelo_inurba_marseille","lat":43.289184,"lon":5.366408,"is_reserved":false,"is_disabled":false,"rental_uris":{"android":"levelo://app?vid=5754b2b3-9766-4d9d-80bd-362f3b4f97a5","ios":"levelo://app?vid=5754b2b3-9766-4d9d-80bd-362f3b4f97a5"},"vehicle_type_id":"4","last_reported":1720462253,"current_range_meters":12000,"station_id":"ce4bhap2rcd13ifvqek0","pricing_plan_id":"cebpf4jnsgd1na2vs0mg"},{"bike_id":"567a6590-a778-46fb-8b58-4a6698f0d5ab","system_id":"levelo_inurba_marseille","lat":43.289184,"lon":5.366408,"is_reserved":false,"is_disabled":false,"rental_uris":{"android":"levelo://app?vid=567a6590-a778-46fb-8b58-4a6698f0d5ab","ios":"levelo://app?vid=567a6590-a778-46fb-8b58-4a6698f0d5ab"},"vehicle_type_id":"4","last_reported":1720462253,"current_range_meters":29600,"station_id":"ce4bhap2rcd13ifvqek0","pricing_plan_id":"cebpf4jnsgd1na2vs0mg"},{"bike_id":"13f3670d-258b-4886-9195-00b07ce3e105","system_id":"levelo_inurba_marseille","lat":43.289184,"lon":5.366408,"is_reserved":false,"is_disabled":false,"rental_uris":{"android":"levelo://app?vid=13f3670d-258b-4886-9195-00b07ce3e105","ios":"levelo://app?vid=13f3670d-258b-4886-9195-00b07ce3e105"},"vehicle_type_id":"4","last_reported":1720462253,"current_range_meters":18800,"station_id":"ce4bhap2rcd13ifvqek0","pricing_plan_id":"cebpf4jnsgd1na2vs0mg"},{"bike_id":"355a3152-c3da-4102-bc09-c42fe36df273","system_id":"levelo_inurba_marseille","lat":43.289184,"lon":5.366408,"is_reserved":false,"is_disabled":false,"rental_uris":{"android":"levelo://app?vid=355a3152-c3da-4102-bc09-c42fe36df273","ios":"levelo://app?vid=355a3152-c3da-4102-bc09-c42fe36df273"},"vehicle_type_id":"4","last_reported":1720462253,"current_range_meters":3600,"station_id":"ce4bhap2rcd13ifvqek0","pricing_plan_id":"cebpf4jnsgd1na2vs0mg"},{"bike_id":"68464e77-e31e-4f54-ad1b-c3ae587b9b14","system_id":"levelo_inurba_marseille","lat":43.289468,"lon":5.363719,"is_reserved":false,"is_disabled":false,"rental_uris":{"android":"levelo://app?vid=68464e77-e31e-4f54-ad1b-c3ae587b9b14","ios":"levelo://app?vid=68464e77-e31e-4f54-ad1b-c3ae587b9b14"},"vehicle_type_id":"4","last_reported":1720462253,"current_range_meters":29200,"station_id":"ce4bhc92rcd13ifvqetg","pricing_plan_id":"cebpf4jnsgd1na2vs0mg"},{"bike_id":"4ac031f7-a5d3-4947-bc85-e331628511b8","system_id":"levelo_inurba_marseille","lat":43.289184,"lon":5.366408,"is_reserved":false,"is_disabled":false,"rental_uris":{"android":"levelo://app?vid=4ac031f7-a5d3-4947-bc85-e331628511b8","ios":"levelo://app?vid=4ac031f7-a5d3-4947-bc85-e331628511b8"},"vehicle_type_id":"4","last_reported":1720462253,"current_range_meters":0,"station_id":"ce4bhap2rcd13ifvqek0","pricing_plan_id":"cebpf4jnsgd1na2vs0mg"},{"bike_id":"0df2de2c-de82-4c9a-88f9-1896f8371b17","system_id":"levelo_inurba_marseille","lat":43.289184,"lon":5.366408,"is_reserved":false,"is_disabled":false,"rental_uris":{"android":"levelo://app?vid=0df2de2c-de82-4c9a-88f9-1896f8371b17","ios":"levelo://app?vid=0df2de2c-de82-4c9a-88f9-1896f8371b17"},"vehicle_type_id":"4","last_reported":1720462253,"current_range_meters":6000,"station_id":"ce4bhap2rcd13ifvqek0","pricing_plan_id":"cebpf4jnsgd1na2vs0mg"},{"bike_id":"ba13a6b4-69a6-4e20-bddf-963c365d4f96","system_id":"levelo_inurba_marseille","lat":43.28933,"lon":5.36628,"is_reserved":false,"is_disabled":false,"rental_uris":{"android":"levelo://app?vid=ba13a6b4-69a6-4e20-bddf-963c365d4f96","ios":"levelo://app?vid=ba13a6b4-69a6-4e20-bddf-963c365d4f96"},"vehicle_type_id":"4","last_reported":1720462253,"current_range_meters":0,"station_id":"ce4bhap2rcd13ifvqek0","pricing_plan_id":"cebpf4jnsgd1na2vs0mg"},{"bike_id":"5f7534c6-05e3-4f2c-adaa-50908f7670a3","system_id":"levelo_inurba_marseille","lat":43.294162,"lon":5.386292,"is_reserved":false,"is_disabled":false,"rental_uris":{"android":"levelo://app?vid=5f7534c6-05e3-4f2c-adaa-50908f7670a3","ios":"levelo://app?vid=5f7534c6-05e3-4f2c-adaa-50908f7670a3"},"vehicle_type_id":"4","last_reported":1720462253,"current_range_meters":22000,"station_id":"ce4bh2h2rcd13ifvqdh0","pricing_plan_id":"cebpf4jnsgd1na2vs0mg"},{"bike_id":"cec9eda2-1406-495c-95ef-3916b958c819","system_id":"levelo_inurba_marseille","lat":43.292642,"lon":5.384254,"is_reserved":false,"is_disabled":false,"rental_uris":{"android":"levelo://app?vid=cec9eda2-1406-495c-95ef-3916b958c819","ios":"levelo://app?vid=cec9eda2-1406-495c-95ef-3916b958c819"},"vehicle_type_id":"4","last_reported":1720462253,"current_range_meters":0,"station_id":"ce4bh692rcd13ifvqea0","pricing_plan_id":"cebpf4jnsgd1na2vs0mg"},{"bike_id":"3c88cbb4-4bb4-4339-9fcf-a3edca208336","system_id":"levelo_inurba_marseille","lat":43.291944,"lon":5.382852,"is_reserved":false,"is_disabled":false,"rental_uris":{"android":"levelo://app?vid=3c88cbb4-4bb4-4339-9fcf-a3edca208336","ios":"levelo://app?vid=3c88cbb4-4bb4-4339-9fcf-a3edca208336"},"vehicle_type_id":"4","last_reported":1720462253,"current_range_meters":0,"station_id":"","pricing_plan_id":"cebpf4jnsgd1na2vs0mg"},{"bike_id":"a2cbdf59-50fc-4e2c-b6b5-af9719dd5e19","system_id":"levelo_inurba_marseille","lat":43.290104,"lon":5.356111,"is_reserved":false,"is_disabled":false,"rental_uris":{"android":"levelo://app?vid=a2cbdf59-50fc-4e2c-b6b5-af9719dd5e19","ios":"levelo://app?vid=a2cbdf59-50fc-4e2c-b6b5-af9719dd5e19"},"vehicle_type_id":"4","last_reported":1720462253,"current_range_meters":18400,"station_id":"ce4bhb92rcd13ifvqen0","pricing_plan_id":"cebpf4jnsgd1na2vs0mg"},{"bike_id":"e710bcd1-eedf-4e6d-8220-016a6f2fa31f","system_id":"levelo_inurba_marseille","lat":43.290104,"lon":5.356111,"is_reserved":false,"is_disabled":false,"rental_uris":{"android":"levelo://app?vid=e710bcd1-eedf-4e6d-8220-016a6f2fa31f","ios":"levelo://app?vid=e710bcd1-eedf-4e6d-8220-016a6f2fa31f"},"vehicle_type_id":"4","last_reported":1720462253,"current_range_meters":20000,"station_id":"ce4bhb92rcd13ifvqen0","pricing_plan_id":"cebpf4jnsgd1na2vs0mg"},{"bike_id":"bba7dcaf-69a5-4ee3-bc7a-cc638d84e369","system_id":"levelo_inurba_marseille","lat":43.290104,"lon":5.356111,"is_reserved":false,"is_disabled":false,"rental_uris":{"android":"levelo://app?vid=bba7dcaf-69a5-4ee3-bc7a-cc638d84e369","ios":"levelo://app?vid=bba7dcaf-69a5-4ee3-bc7a-cc638d84e369"},"vehicle_type_id":"4","last_reported":1720462253,"current_range_meters":4800,"station_id":"ce4bhb92rcd13ifvqen0","pricing_plan_id":"cebpf4jnsgd1na2vs0mg"},{"bike_id":"bab1ec45-e467-4e7b-a43f-ad8f9938d961","system_id":"levelo_inurba_marseille","lat":43.290104,"lon":5.356111,"is_reserved":false,"is_disabled":false,"rental_uris":{"android":"levelo://app?vid=bab1ec45-e467-4e7b-a43f-ad8f9938d961","ios":"levelo://app?vid=bab1ec45-e467-4e7b-a43f-ad8f9938d961"},"vehicle_type_id":"4","last_reported":1720462253,"current_range_meters":4000,"station_id":"ce4bhb92rcd13ifvqen0","pricing_plan_id":"cebpf4jnsgd1na2vs0mg"},{"bike_id":"db21ff23-16cc-49a0-84d1-742edad2c454","system_id":"levelo_inurba_marseille","lat":43.29006,"lon":5.35615,"is_reserved":false,"is_disabled":false,"rental_uris":{"android":"levelo://app?vid=db21ff23-16cc-49a0-84d1-742edad2c454","ios":"levelo://app?vid=db21ff23-16cc-49a0-84d1-742edad2c454"},"vehicle_type_id":"4","last_reported":1720462253,"current_range_meters":30800,"station_id":"ce4bhb92rcd13ifvqen0","pricing_plan_id":"cebpf4jnsgd1na2vs0mg"},{"bike_id":"d3615a8d-7de6-4621-b8dd-52175862f1bf","system_id":"levelo_inurba_marseille","lat":43.29006,"lon":5.35614,"is_reserved":false,"is_disabled":false,"rental_uris":{"android":"levelo://app?vid=d3615a8d-7de6-4621-b8dd-52175862f1bf","ios":"levelo://app?vid=d3615a8d-7de6-4621-b8dd-52175862f1bf"},"vehicle_type_id":"4","last_reported":1720462253,"current_range_meters":8800,"station_id":"ce4bhb92rcd13ifvqen0","pricing_plan_id":"cebpf4jnsgd1na2vs0mg"},{"bike_id":"9f860ad3-d948-4b4f-9048-acfe9c5571ad","system_id":"levelo_inurba_marseille","lat":43.29007,"lon":5.35607,"is_reserved":false,"is_disabled":false,"rental_uris":{"android":"levelo://app?vid=9f860ad3-d948-4b4f-9048-acfe9c5571ad","ios":"levelo://app?vid=9f860ad3-d948-4b4f-9048-acfe9c5571ad"},"vehicle_type_id":"4","last_reported":1720462253,"current_range_meters":0,"station_id":"ce4bhb92rcd13ifvqen0","pricing_plan_id":"cebpf4jnsgd1na2vs0mg"},{"bike_id":"1eb8d2b3-7cb8-4ce7-ad29-a655b0c8fe54","system_id":"levelo_inurba_marseille","lat":43.29003,"lon":5.35613,"is_reserved":false,"is_disabled":false,"rental_uris":{"android":"levelo://app?vid=1eb8d2b3-7cb8-4ce7-ad29-a655b0c8fe54","ios":"levelo://app?vid=1eb8d2b3-7cb8-4ce7-ad29-a655b0c8fe54"},"vehicle_type_id":"4","last_reported":1720462253,"current_range_meters":31200,"station_id":"ce4bhb92rcd13ifvqen0","pricing_plan_id":"cebpf4jnsgd1na2vs0mg"},{"bike_id":"7a67e1ff-1817-436f-908a-cd507691497a","system_id":"levelo_inurba_marseille","lat":43.29003,"lon":5.35612,"is_reserved":false,"is_disabled":false,"rental_uris":{"android":"levelo://app?vid=7a67e1ff-1817-436f-908a-cd507691497a","ios":"levelo://app?vid=7a67e1ff-1817-436f-908a-cd507691497a"},"vehicle_type_id":"4","last_reported":1720462253,"current_range_meters":0,"station_id":"ce4bhb92rcd13ifvqen0","pricing_plan_id":"cebpf4jnsgd1na2vs0mg"},{"bike_id":"994fd2a3-004f-478c-a22c-974e21f1b8cb","system_id":"levelo_inurba_marseille","lat":43.290104,"lon":5.356111,"is_reserved":false,"is_disabled":false,"rental_uris":{"android":"levelo://app?vid=994fd2a3-004f-478c-a22c-974e21f1b8cb","ios":"levelo://app?vid=994fd2a3-004f-478c-a22c-974e21f1b8cb"},"vehicle_type_id":"4","last_reported":1720462253,"current_range_meters":22400,"station_id":"ce4bhb92rcd13ifvqen0","pricing_plan_id":"cebpf4jnsgd1na2vs0mg"},{"bike_id":"6a7f33ba-2235-45ee-9874-ffe9320465f3","system_id":"levelo_inurba_marseille","lat":43.29113,"lon":5.38139,"is_reserved":false,"is_disabled":false,"rental_uris":{"android":"levelo://app?vid=6a7f33ba-2235-45ee-9874-ffe9320465f3","ios":"levelo://app?vid=6a7f33ba-2235-45ee-9874-ffe9320465f3"},"vehicle_type_id":"4","last_reported":1720462253,"current_range_meters":0,"station_id":"ce4bh512rcd13ifvqe2g","pricing_plan_id":"cebpf4jnsgd1na2vs0mg"},{"bike_id":"f87caa94-4038-4651-adcf-fdc7a614121f","system_id":"levelo_inurba_marseille","lat":43.290103,"lon":5.356114,"is_reserved":false,"is_disabled":false,"rental_uris":{"android":"levelo://app?vid=f87caa94-4038-4651-adcf-fdc7a614121f","ios":"levelo://app?vid=f87caa94-4038-4651-adcf-fdc7a614121f"},"vehicle_type_id":"4","last_reported":1720462253,"current_range_meters":22000,"station_id":"ce4bhb92rcd13ifvqen0","pricing_plan_id":"cebpf4jnsgd1na2vs0mg"},{"bike_id":"d4450466-fbc7-495b-bae1-7d43d2ed1d62","system_id":"levelo_inurba_marseille","lat":43.28999,"lon":5.35613,"is_reserved":false,"is_disabled":false,"rental_uris":{"android":"levelo://app?vid=d4450466-fbc7-495b-bae1-7d43d2ed1d62","ios":"levelo://app?vid=d4450466-fbc7-495b-bae1-7d43d2ed1d62"},"vehicle_type_id":"4","last_reported":1720462253,"current_range_meters":31600,"station_id":"ce4bhb92rcd13ifvqen0","pricing_plan_id":"cebpf4jnsgd1na2vs0mg"},{"bike_id":"9722a6cd-bf9d-4cb5-83da-3082612174ef","system_id":"levelo_inurba_marseille","lat":43.29092,"lon":5.38122,"is_reserved":false,"is_disabled":false,"rental_uris":{"android":"levelo://app?vid=9722a6cd-bf9d-4cb5-83da-3082612174ef","ios":"levelo://app?vid=9722a6cd-bf9d-4cb5-83da-3082612174ef"},"vehicle_type_id":"4","last_reported":1720462253,"current_range_meters":19600,"station_id":"ce4bh512rcd13ifvqe2g","pricing_plan_id":"cebpf4jnsgd1na2vs0mg"},{"bike_id":"66144f46-1c25-4f83-b664-7b5a18c53750","system_id":"levelo_inurba_marseille","lat":43.290995,"lon":5.381361,"is_reserved":false,"is_disabled":false,"rental_uris":{"android":"levelo://app?vid=66144f46-1c25-4f83-b664-7b5a18c53750","ios":"levelo://app?vid=66144f46-1c25-4f83-b664-7b5a18c53750"},"vehicle_type_id":"4","last_reported":1720462253,"current_range_meters":400,"station_id":"ce4bh512rcd13ifvqe2g","pricing_plan_id":"cebpf4jnsgd1na2vs0mg"},{"bike_id":"ec6a8b71-4769-46b2-8843-3984d79d201e","system_id":"levelo_inurba_marseille","lat":43.290995,"lon":5.381361,"is_reserved":false,"is_disabled":false,"rental_uris":{"android":"levelo://app?vid=ec6a8b71-4769-46b2-8843-3984d79d201e","ios":"levelo://app?vid=ec6a8b71-4769-46b2-8843-3984d79d201e"},"vehicle_type_id":"4","last_reported":1720462253,"current_range_meters":13200,"station_id":"ce4bh512rcd13ifvqe2g","pricing_plan_id":"cebpf4jnsgd1na2vs0mg"},{"bike_id":"60bc4100-09ff-4b88-a036-d46a63df7729","system_id":"levelo_inurba_marseille","lat":43.289468,"lon":5.363719,"is_reserved":false,"is_disabled":false,"rental_uris":{"android":"levelo://app?vid=60bc4100-09ff-4b88-a036-d46a63df7729","ios":"levelo://app?vid=60bc4100-09ff-4b88-a036-d46a63df7729"},"vehicle_type_id":"4","last_reported":1720462253,"current_range_meters":0,"station_id":"ce4bhc92rcd13ifvqetg","pricing_plan_id":"cebpf4jnsgd1na2vs0mg"},{"bike_id":"5406b9eb-eb2a-43f2-9e84-fa473cf8c06d","system_id":"levelo_inurba_marseille","lat":43.29529,"lon":5.39042,"is_reserved":false,"is_disabled":false,"rental_uris":{"android":"levelo://app?vid=5406b9eb-eb2a-43f2-9e84-fa473cf8c06d","ios":"levelo://app?vid=5406b9eb-eb2a-43f2-9e84-fa473cf8c06d"},"vehicle_type_id":"4","last_reported":1720462253,"current_range_meters":0,"station_id":"ce4bh3p2rcd13ifvqdp0","pricing_plan_id":"cebpf4jnsgd1na2vs0mg"},{"bike_id":"e2ef798e-bb3d-4424-ba55-444207c9c3b8","system_id":"levelo_inurba_marseille","lat":43.289756,"lon":5.378386,"is_reserved":false,"is_disabled":false,"rental_uris":{"android":"levelo://app?vid=e2ef798e-bb3d-4424-ba55-444207c9c3b8","ios":"levelo://app?vid=e2ef798e-bb3d-4424-ba55-444207c9c3b8"},"vehicle_type_id":"4","last_reported":1720462253,"current_range_meters":0,"station_id":"ce4bh9p2rcd13ifvqed0","pricing_plan_id":"cebpf4jnsgd1na2vs0mg"},{"bike_id":"6e632c2f-4413-480e-bbbe-fe6e6871d05d","system_id":"levelo_inurba_marseille","lat":43.295169,"lon":5.390426,"is_reserved":false,"is_disabled":false,"rental_uris":{"android":"levelo://app?vid=6e632c2f-4413-480e-bbbe-fe6e6871d05d","ios":"levelo://app?vid=6e632c2f-4413-480e-bbbe-fe6e6871d05d"},"vehicle_type_id":"4","last_reported":1720462253,"current_range_meters":3200,"station_id":"ce4bh3p2rcd13ifvqdp0","pricing_plan_id":"cebpf4jnsgd1na2vs0mg"},{"bike_id":"325a8550-97fd-4320-bb45-be78c410b82f","system_id":"levelo_inurba_marseille","lat":43.295169,"lon":5.390426,"is_reserved":false,"is_disabled":false,"rental_uris":{"android":"levelo://app?vid=325a8550-97fd-4320-bb45-be78c410b82f","ios":"levelo://app?vid=325a8550-97fd-4320-bb45-be78c410b82f"},"vehicle_type_id":"4","last_reported":1720462253,"current_range_meters":1200,"station_id":"ce4bh3p2rcd13ifvqdp0","pricing_plan_id":"cebpf4jnsgd1na2vs0mg"},{"bike_id":"063323be-2666-4792-83f3-76ed7d5db295","system_id":"levelo_inurba_marseille","lat":43.28856,"lon":5.358371,"is_reserved":false,"is_disabled":false,"rental_uris":{"android":"levelo://app?vid=063323be-2666-4792-83f3-76ed7d5db295","ios":"levelo://app?vid=063323be-2666-4792-83f3-76ed7d5db295"},"vehicle_type_id":"4","last_reported":1720462253,"current_range_meters":0,"station_id":"ce4bhb12rcd13ifvqem0","pricing_plan_id":"cebpf4jnsgd1na2vs0mg"},{"bike_id":"770e24ba-2a68-42b0-a397-2c2c2c15749b","system_id":"levelo_inurba_marseille","lat":43.28862,"lon":5.35844,"is_reserved":false,"is_disabled":false,"rental_uris":{"android":"levelo://app?vid=770e24ba-2a68-42b0-a397-2c2c2c15749b","ios":"levelo://app?vid=770e24ba-2a68-42b0-a397-2c2c2c15749b"},"vehicle_type_id":"4","last_reported":1720462253,"current_range_meters":0,"station_id":"ce4bhb12rcd13ifvqem0","pricing_plan_id":"cebpf4jnsgd1na2vs0mg"},{"bike_id":"d6535dcc-d691-48a4-afda-3f4e015fe426","system_id":"levelo_inurba_marseille","lat":43.28849,"lon":5.35834,"is_reserved":false,"is_disabled":false,"rental_uris":{"android":"levelo://app?vid=d6535dcc-d691-48a4-afda-3f4e015fe426","ios":"levelo://app?vid=d6535dcc-d691-48a4-afda-3f4e015fe426"},"vehicle_type_id":"4","last_reported":1720462253,"current_range_meters":25600,"station_id":"","pricing_plan_id":"cebpf4jnsgd1na2vs0mg"},{"bike_id":"27822084-c1be-45dd-9170-641041ed1d2e","system_id":"levelo_inurba_marseille","lat":43.309371,"lon":5.401449,"is_reserved":false,"is_disabled":false,"rental_uris":{"android":"levelo://app?vid=27822084-c1be-45dd-9170-641041ed1d2e","ios":"levelo://app?vid=27822084-c1be-45dd-9170-641041ed1d2e"},"vehicle_type_id":"4","last_reported":1720462253,"current_range_meters":0,"station_id":"ce4bgvp2rcd13ifvqct0","pricing_plan_id":"cebpf4jnsgd1na2vs0mg"},{"bike_id":"e15d6196-37b7-4095-97e1-3c751f068824","system_id":"levelo_inurba_marseille","lat":43.309371,"lon":5.401449,"is_reserved":false,"is_disabled":false,"rental_uris":{"android":"levelo://app?vid=e15d6196-37b7-4095-97e1-3c751f068824","ios":"levelo://app?vid=e15d6196-37b7-4095-97e1-3c751f068824"},"vehicle_type_id":"4","last_reported":1720462253,"current_range_meters":13600,"station_id":"ce4bgvp2rcd13ifvqct0","pricing_plan_id":"cebpf4jnsgd1na2vs0mg"},{"bike_id":"6d9e19f4-cf47-44a6-8abe-e22035f0cba8","system_id":"levelo_inurba_marseille","lat":43.309371,"lon":5.401449,"is_reserved":false,"is_disabled":false,"rental_uris":{"android":"levelo://app?vid=6d9e19f4-cf47-44a6-8abe-e22035f0cba8","ios":"levelo://app?vid=6d9e19f4-cf47-44a6-8abe-e22035f0cba8"},"vehicle_type_id":"4","last_reported":1720462253,"current_range_meters":18800,"station_id":"ce4bgvp2rcd13ifvqct0","pricing_plan_id":"cebpf4jnsgd1na2vs0mg"},{"bike_id":"92bb3302-cd5f-4991-a1c7-f6de355173c8","system_id":"levelo_inurba_marseille","lat":43.309371,"lon":5.401449,"is_reserved":false,"is_disabled":false,"rental_uris":{"android":"levelo://app?vid=92bb3302-cd5f-4991-a1c7-f6de355173c8","ios":"levelo://app?vid=92bb3302-cd5f-4991-a1c7-f6de355173c8"},"vehicle_type_id":"4","last_reported":1720462253,"current_range_meters":24800,"station_id":"ce4bgvp2rcd13ifvqct0","pricing_plan_id":"cebpf4jnsgd1na2vs0mg"},{"bike_id":"9366f619-009b-45e5-ba62-de7bc50d4da0","system_id":"levelo_inurba_marseille","lat":43.3375,"lon":5.37479,"is_reserved":false,"is_disabled":false,"rental_uris":{"android":"levelo://app?vid=9366f619-009b-45e5-ba62-de7bc50d4da0","ios":"levelo://app?vid=9366f619-009b-45e5-ba62-de7bc50d4da0"},"vehicle_type_id":"4","last_reported":1720462253,"current_range_meters":27600,"station_id":"","pricing_plan_id":"cebpf4jnsgd1na2vs0mg"},{"bike_id":"68725b5e-c67f-4872-aea0-d953d4ac3881","system_id":"levelo_inurba_marseille","lat":43.30644,"lon":5.4009,"is_reserved":false,"is_disabled":false,"rental_uris":{"android":"levelo://app?vid=68725b5e-c67f-4872-aea0-d953d4ac3881","ios":"levelo://app?vid=68725b5e-c67f-4872-aea0-d953d4ac3881"},"vehicle_type_id":"4","last_reported":1720462253,"current_range_meters":20400,"station_id":"ce4bh112rcd13ifvqda0","pricing_plan_id":"cebpf4jnsgd1na2vs0mg"},{"bike_id":"aebb537c-93e0-44ae-9e1f-23e4cf7d7a32","system_id":"levelo_inurba_marseille","lat":43.3377,"lon":5.37462,"is_reserved":false,"is_disabled":false,"rental_uris":{"android":"levelo://app?vid=aebb537c-93e0-44ae-9e1f-23e4cf7d7a32","ios":"levelo://app?vid=aebb537c-93e0-44ae-9e1f-23e4cf7d7a32"},"vehicle_type_id":"4","last_reported":1720462253,"current_range_meters":10000,"station_id":"","pricing_plan_id":"cebpf4jnsgd1na2vs0mg"},{"bike_id":"75625dee-227e-4ffc-a8db-530bd096b88f","system_id":"levelo_inurba_marseille","lat":43.3014,"lon":5.39877,"is_reserved":false,"is_disabled":false,"rental_uris":{"android":"levelo://app?vid=75625dee-227e-4ffc-a8db-530bd096b88f","ios":"levelo://app?vid=75625dee-227e-4ffc-a8db-530bd096b88f"},"vehicle_type_id":"4","last_reported":1720462253,"current_range_meters":12800,"station_id":"ce4bh0h2rcd13ifvqd40","pricing_plan_id":"cebpf4jnsgd1na2vs0mg"},{"bike_id":"ff24c229-b245-4d69-a83a-9ba278d3a8b8","system_id":"levelo_inurba_marseille","lat":43.28727,"lon":5.36078,"is_reserved":false,"is_disabled":false,"rental_uris":{"android":"levelo://app?vid=ff24c229-b245-4d69-a83a-9ba278d3a8b8","ios":"levelo://app?vid=ff24c229-b245-4d69-a83a-9ba278d3a8b8"},"vehicle_type_id":"4","last_reported":1720462253,"current_range_meters":8400,"station_id":"cki0cbj6b192h4jlfktg","pricing_plan_id":"cebpf4jnsgd1na2vs0mg"},{"bike_id":"82ff9f34-762f-4cc9-8e07-82b2dc98f375","system_id":"levelo_inurba_marseille","lat":43.29933,"lon":5.39727,"is_reserved":false,"is_disabled":false,"rental_uris":{"android":"levelo://app?vid=82ff9f34-762f-4cc9-8e07-82b2dc98f375","ios":"levelo://app?vid=82ff9f34-762f-4cc9-8e07-82b2dc98f375"},"vehicle_type_id":"4","last_reported":1720462253,"current_range_meters":3600,"station_id":"","pricing_plan_id":"cebpf4jnsgd1na2vs0mg"},{"bike_id":"4d3a187a-6060-4853-bda1-e536ac0122d4","system_id":"levelo_inurba_marseille","lat":43.28727,"lon":5.36078,"is_reserved":false,"is_disabled":false,"rental_uris":{"android":"levelo://app?vid=4d3a187a-6060-4853-bda1-e536ac0122d4","ios":"levelo://app?vid=4d3a187a-6060-4853-bda1-e536ac0122d4"},"vehicle_type_id":"4","last_reported":1720462253,"current_range_meters":13200,"station_id":"cki0cbj6b192h4jlfktg","pricing_plan_id":"cebpf4jnsgd1na2vs0mg"},{"bike_id":"ec01ba18-2c43-4518-ac17-ab29d634a7a1","system_id":"levelo_inurba_marseille","lat":43.28727,"lon":5.36078,"is_reserved":false,"is_disabled":false,"rental_uris":{"android":"levelo://app?vid=ec01ba18-2c43-4518-ac17-ab29d634a7a1","ios":"levelo://app?vid=ec01ba18-2c43-4518-ac17-ab29d634a7a1"},"vehicle_type_id":"4","last_reported":1720462253,"current_range_meters":6400,"station_id":"cki0cbj6b192h4jlfktg","pricing_plan_id":"cebpf4jnsgd1na2vs0mg"},{"bike_id":"4705cce9-a5da-4aa9-b07c-c47ab43e4917","system_id":"levelo_inurba_marseille","lat":43.289307,"lon":5.38406,"is_reserved":false,"is_disabled":false,"rental_uris":{"android":"levelo://app?vid=4705cce9-a5da-4aa9-b07c-c47ab43e4917","ios":"levelo://app?vid=4705cce9-a5da-4aa9-b07c-c47ab43e4917"},"vehicle_type_id":"4","last_reported":1720462253,"current_range_meters":7600,"station_id":"ce4bh612rcd13ifvqe6g","pricing_plan_id":"cebpf4jnsgd1na2vs0mg"},{"bike_id":"5dae0ba6-5b43-47b9-a442-7093c8c64a53","system_id":"levelo_inurba_marseille","lat":43.298681,"lon":5.397225,"is_reserved":false,"is_disabled":false,"rental_uris":{"android":"levelo://app?vid=5dae0ba6-5b43-47b9-a442-7093c8c64a53","ios":"levelo://app?vid=5dae0ba6-5b43-47b9-a442-7093c8c64a53"},"vehicle_type_id":"4","last_reported":1720462253,"current_range_meters":31600,"station_id":"ce4bh0h2rcd13ifvqd50","pricing_plan_id":"cebpf4jnsgd1na2vs0mg"},{"bike_id":"5f8f3d05-198f-4d4b-aa73-eeef845f5d62","system_id":"levelo_inurba_marseille","lat":43.298681,"lon":5.397225,"is_reserved":false,"is_disabled":false,"rental_uris":{"android":"levelo://app?vid=5f8f3d05-198f-4d4b-aa73-eeef845f5d62","ios":"levelo://app?vid=5f8f3d05-198f-4d4b-aa73-eeef845f5d62"},"vehicle_type_id":"4","last_reported":1720462253,"current_range_meters":4400,"station_id":"ce4bh0h2rcd13ifvqd50","pricing_plan_id":"cebpf4jnsgd1na2vs0mg"},{"bike_id":"a6cfb7b3-14db-4cc1-89d8-9be85ebf09c3","system_id":"levelo_inurba_marseille","lat":43.286591,"lon":5.363346,"is_reserved":false,"is_disabled":false,"rental_uris":{"android":"levelo://app?vid=a6cfb7b3-14db-4cc1-89d8-9be85ebf09c3","ios":"levelo://app?vid=a6cfb7b3-14db-4cc1-89d8-9be85ebf09c3"},"vehicle_type_id":"4","last_reported":1720462253,"current_range_meters":1600,"station_id":"ce4bhah2rcd13ifvqej0","pricing_plan_id":"cebpf4jnsgd1na2vs0mg"},{"bike_id":"4887e240-5178-49b7-87f7-6c74e397258d","system_id":"levelo_inurba_marseille","lat":43.286591,"lon":5.363346,"is_reserved":false,"is_disabled":false,"rental_uris":{"android":"levelo://app?vid=4887e240-5178-49b7-87f7-6c74e397258d","ios":"levelo://app?vid=4887e240-5178-49b7-87f7-6c74e397258d"},"vehicle_type_id":"4","last_reported":1720462253,"current_range_meters":3200,"station_id":"ce4bhah2rcd13ifvqej0","pricing_plan_id":"cebpf4jnsgd1na2vs0mg"},{"bike_id":"fcf899d1-ca24-4127-b82c-21005b26599a","system_id":"levelo_inurba_marseille","lat":43.286591,"lon":5.363346,"is_reserved":false,"is_disabled":false,"rental_uris":{"android":"levelo://app?vid=fcf899d1-ca24-4127-b82c-21005b26599a","ios":"levelo://app?vid=fcf899d1-ca24-4127-b82c-21005b26599a"},"vehicle_type_id":"4","last_reported":1720462253,"current_range_meters":4000,"station_id":"ce4bhah2rcd13ifvqej0","pricing_plan_id":"cebpf4jnsgd1na2vs0mg"},{"bike_id":"c3e417a7-7381-4a1d-8ecc-806bd7f403e3","system_id":"levelo_inurba_marseille","lat":43.286593,"lon":5.363346,"is_reserved":false,"is_disabled":false,"rental_uris":{"android":"levelo://app?vid=c3e417a7-7381-4a1d-8ecc-806bd7f403e3","ios":"levelo://app?vid=c3e417a7-7381-4a1d-8ecc-806bd7f403e3"},"vehicle_type_id":"4","last_reported":1720462253,"current_range_meters":0,"station_id":"ce4bhah2rcd13ifvqej0","pricing_plan_id":"cebpf4jnsgd1na2vs0mg"},{"bike_id":"0c100388-d480-45ee-a699-0717b7f3c86f","system_id":"levelo_inurba_marseille","lat":43.298714,"lon":5.397406,"is_reserved":false,"is_disabled":false,"rental_uris":{"android":"levelo://app?vid=0c100388-d480-45ee-a699-0717b7f3c86f","ios":"levelo://app?vid=0c100388-d480-45ee-a699-0717b7f3c86f"},"vehicle_type_id":"4","last_reported":1720462253,"current_range_meters":0,"station_id":"ce4bh0h2rcd13ifvqd50","pricing_plan_id":"cebpf4jnsgd1na2vs0mg"},{"bike_id":"ea6fb3ec-fa77-41ec-9fa2-7fbe97e64e90","system_id":"levelo_inurba_marseille","lat":43.286593,"lon":5.363346,"is_reserved":false,"is_disabled":false,"rental_uris":{"android":"levelo://app?vid=ea6fb3ec-fa77-41ec-9fa2-7fbe97e64e90","ios":"levelo://app?vid=ea6fb3ec-fa77-41ec-9fa2-7fbe97e64e90"},"vehicle_type_id":"4","last_reported":1720462253,"current_range_meters":6400,"station_id":"ce4bhah2rcd13ifvqej0","pricing_plan_id":"cebpf4jnsgd1na2vs0mg"},{"bike_id":"85de5d30-089f-46b4-95a0-c502e9fa6d6b","system_id":"levelo_inurba_marseille","lat":43.289307,"lon":5.38406,"is_reserved":false,"is_disabled":false,"rental_uris":{"android":"levelo://app?vid=85de5d30-089f-46b4-95a0-c502e9fa6d6b","ios":"levelo://app?vid=85de5d30-089f-46b4-95a0-c502e9fa6d6b"},"vehicle_type_id":"4","last_reported":1720462253,"current_range_meters":0,"station_id":"ce4bh612rcd13ifvqe6g","pricing_plan_id":"cebpf4jnsgd1na2vs0mg"},{"bike_id":"195f2b0e-90a7-4b03-a234-32a7e537720c","system_id":"levelo_inurba_marseille","lat":43.302759,"lon":5.400793,"is_reserved":false,"is_disabled":false,"rental_uris":{"android":"levelo://app?vid=195f2b0e-90a7-4b03-a234-32a7e537720c","ios":"levelo://app?vid=195f2b0e-90a7-4b03-a234-32a7e537720c"},"vehicle_type_id":"4","last_reported":1720462253,"current_range_meters":16800,"station_id":"ce4bgvh2rcd13ifvqcs0","pricing_plan_id":"cebpf4jnsgd1na2vs0mg"},{"bike_id":"b2178216-4a2a-4f37-b751-c88e4fd7b039","system_id":"levelo_inurba_marseille","lat":43.302759,"lon":5.400793,"is_reserved":false,"is_disabled":false,"rental_uris":{"android":"levelo://app?vid=b2178216-4a2a-4f37-b751-c88e4fd7b039","ios":"levelo://app?vid=b2178216-4a2a-4f37-b751-c88e4fd7b039"},"vehicle_type_id":"4","last_reported":1720462253,"current_range_meters":1200,"station_id":"ce4bgvh2rcd13ifvqcs0","pricing_plan_id":"cebpf4jnsgd1na2vs0mg"},{"bike_id":"633ba3f3-3501-4bac-80aa-36b93b409fff","system_id":"levelo_inurba_marseille","lat":43.302759,"lon":5.400793,"is_reserved":false,"is_disabled":false,"rental_uris":{"android":"levelo://app?vid=633ba3f3-3501-4bac-80aa-36b93b409fff","ios":"levelo://app?vid=633ba3f3-3501-4bac-80aa-36b93b409fff"},"vehicle_type_id":"4","last_reported":1720462253,"current_range_meters":23200,"station_id":"ce4bgvh2rcd13ifvqcs0","pricing_plan_id":"cebpf4jnsgd1na2vs0mg"},{"bike_id":"3940cc22-8e3a-458a-b607-891dbe961ea6","system_id":"levelo_inurba_marseille","lat":43.286039,"lon":5.370679,"is_reserved":false,"is_disabled":false,"rental_uris":{"android":"levelo://app?vid=3940cc22-8e3a-458a-b607-891dbe961ea6","ios":"levelo://app?vid=3940cc22-8e3a-458a-b607-891dbe961ea6"},"vehicle_type_id":"4","last_reported":1720462253,"current_range_meters":2800,"station_id":"ce4bht12rcd13ifvqi60","pricing_plan_id":"cebpf4jnsgd1na2vs0mg"},{"bike_id":"47f20204-7b66-498a-80ad-a5ce4e6dbfa9","system_id":"levelo_inurba_marseille","lat":43.286039,"lon":5.370679,"is_reserved":false,"is_disabled":false,"rental_uris":{"android":"levelo://app?vid=47f20204-7b66-498a-80ad-a5ce4e6dbfa9","ios":"levelo://app?vid=47f20204-7b66-498a-80ad-a5ce4e6dbfa9"},"vehicle_type_id":"4","last_reported":1720462253,"current_range_meters":14000,"station_id":"ce4bht12rcd13ifvqi60","pricing_plan_id":"cebpf4jnsgd1na2vs0mg"},{"bike_id":"e5a8506c-d39e-4b92-b283-6c900248a461","system_id":"levelo_inurba_marseille","lat":43.286039,"lon":5.370679,"is_reserved":false,"is_disabled":false,"rental_uris":{"android":"levelo://app?vid=e5a8506c-d39e-4b92-b283-6c900248a461","ios":"levelo://app?vid=e5a8506c-d39e-4b92-b283-6c900248a461"},"vehicle_type_id":"4","last_reported":1720462253,"current_range_meters":6000,"station_id":"ce4bht12rcd13ifvqi60","pricing_plan_id":"cebpf4jnsgd1na2vs0mg"},{"bike_id":"ba68d87a-f978-461c-b8ec-7c2cdaa0b958","system_id":"levelo_inurba_marseille","lat":43.28614,"lon":5.37062,"is_reserved":false,"is_disabled":false,"rental_uris":{"android":"levelo://app?vid=ba68d87a-f978-461c-b8ec-7c2cdaa0b958","ios":"levelo://app?vid=ba68d87a-f978-461c-b8ec-7c2cdaa0b958"},"vehicle_type_id":"4","last_reported":1720462253,"current_range_meters":800,"station_id":"ce4bht12rcd13ifvqi60","pricing_plan_id":"cebpf4jnsgd1na2vs0mg"},{"bike_id":"ffb81d58-476c-4b6d-859d-bc06d5692ad2","system_id":"levelo_inurba_marseille","lat":43.286039,"lon":5.370681,"is_reserved":false,"is_disabled":false,"rental_uris":{"android":"levelo://app?vid=ffb81d58-476c-4b6d-859d-bc06d5692ad2","ios":"levelo://app?vid=ffb81d58-476c-4b6d-859d-bc06d5692ad2"},"vehicle_type_id":"4","last_reported":1720462253,"current_range_meters":22400,"station_id":"ce4bht12rcd13ifvqi60","pricing_plan_id":"cebpf4jnsgd1na2vs0mg"},{"bike_id":"66657a6b-955f-4732-9380-035c26f99e9d","system_id":"levelo_inurba_marseille","lat":43.286039,"lon":5.370681,"is_reserved":false,"is_disabled":false,"rental_uris":{"android":"levelo://app?vid=66657a6b-955f-4732-9380-035c26f99e9d","ios":"levelo://app?vid=66657a6b-955f-4732-9380-035c26f99e9d"},"vehicle_type_id":"4","last_reported":1720462253,"current_range_meters":19200,"station_id":"ce4bht12rcd13ifvqi60","pricing_plan_id":"cebpf4jnsgd1na2vs0mg"},{"bike_id":"db81dc3d-35c3-436f-a0d5-95c96e1e6fce","system_id":"levelo_inurba_marseille","lat":43.286039,"lon":5.370681,"is_reserved":false,"is_disabled":false,"rental_uris":{"android":"levelo://app?vid=db81dc3d-35c3-436f-a0d5-95c96e1e6fce","ios":"levelo://app?vid=db81dc3d-35c3-436f-a0d5-95c96e1e6fce"},"vehicle_type_id":"4","last_reported":1720462253,"current_range_meters":24800,"station_id":"ce4bht12rcd13ifvqi60","pricing_plan_id":"cebpf4jnsgd1na2vs0mg"},{"bike_id":"bc8bd3e4-53b8-496b-a2b2-2c7421982eba","system_id":"levelo_inurba_marseille","lat":43.286039,"lon":5.370681,"is_reserved":false,"is_disabled":false,"rental_uris":{"android":"levelo://app?vid=bc8bd3e4-53b8-496b-a2b2-2c7421982eba","ios":"levelo://app?vid=bc8bd3e4-53b8-496b-a2b2-2c7421982eba"},"vehicle_type_id":"4","last_reported":1720462253,"current_range_meters":13600,"station_id":"ce4bht12rcd13ifvqi60","pricing_plan_id":"cebpf4jnsgd1na2vs0mg"},{"bike_id":"3f82ad14-5ff3-48c4-bc7a-c1ee55e223c0","system_id":"levelo_inurba_marseille","lat":43.287184,"lon":5.37937,"is_reserved":false,"is_disabled":false,"rental_uris":{"android":"levelo://app?vid=3f82ad14-5ff3-48c4-bc7a-c1ee55e223c0","ios":"levelo://app?vid=3f82ad14-5ff3-48c4-bc7a-c1ee55e223c0"},"vehicle_type_id":"4","last_reported":1720462253,"current_range_meters":0,"station_id":"ce4bh9p2rcd13ifvqec0","pricing_plan_id":"cebpf4jnsgd1na2vs0mg"},{"bike_id":"5a3d95ce-5bc7-429f-8036-74b29dc2019c","system_id":"levelo_inurba_marseille","lat":43.28717,"lon":5.37941,"is_reserved":false,"is_disabled":false,"rental_uris":{"android":"levelo://app?vid=5a3d95ce-5bc7-429f-8036-74b29dc2019c","ios":"levelo://app?vid=5a3d95ce-5bc7-429f-8036-74b29dc2019c"},"vehicle_type_id":"4","last_reported":1720462253,"current_range_meters":0,"station_id":"ce4bh9p2rcd13ifvqec0","pricing_plan_id":"cebpf4jnsgd1na2vs0mg"},{"bike_id":"ad027d4c-6f8f-4dd9-99ed-f33cb7b453e9","system_id":"levelo_inurba_marseille","lat":43.287096,"lon":5.379244,"is_reserved":false,"is_disabled":false,"rental_uris":{"android":"levelo://app?vid=ad027d4c-6f8f-4dd9-99ed-f33cb7b453e9","ios":"levelo://app?vid=ad027d4c-6f8f-4dd9-99ed-f33cb7b453e9"},"vehicle_type_id":"4","last_reported":1720462253,"current_range_meters":0,"station_id":"ce4bh9p2rcd13ifvqec0","pricing_plan_id":"cebpf4jnsgd1na2vs0mg"},{"bike_id":"91327e22-419e-4fa6-b056-0a3a271f4820","system_id":"levelo_inurba_marseille","lat":43.31687,"lon":5.4047,"is_reserved":false,"is_disabled":false,"rental_uris":{"android":"levelo://app?vid=91327e22-419e-4fa6-b056-0a3a271f4820","ios":"levelo://app?vid=91327e22-419e-4fa6-b056-0a3a271f4820"},"vehicle_type_id":"4","last_reported":1720462253,"current_range_meters":31200,"station_id":"ce4bh012rcd13ifvqd00","pricing_plan_id":"cebpf4jnsgd1na2vs0mg"},{"bike_id":"d3e77984-04a1-478a-b003-373a4308b261","system_id":"levelo_inurba_marseille","lat":43.3169,"lon":5.4047,"is_reserved":false,"is_disabled":false,"rental_uris":{"android":"levelo://app?vid=d3e77984-04a1-478a-b003-373a4308b261","ios":"levelo://app?vid=d3e77984-04a1-478a-b003-373a4308b261"},"vehicle_type_id":"4","last_reported":1720462253,"current_range_meters":0,"station_id":"ce4bh012rcd13ifvqd00","pricing_plan_id":"cebpf4jnsgd1na2vs0mg"},{"bike_id":"99369754-f552-4b88-8df0-fd165c27667c","system_id":"levelo_inurba_marseille","lat":43.291994,"lon":5.392907,"is_reserved":false,"is_disabled":false,"rental_uris":{"android":"levelo://app?vid=99369754-f552-4b88-8df0-fd165c27667c","ios":"levelo://app?vid=99369754-f552-4b88-8df0-fd165c27667c"},"vehicle_type_id":"4","last_reported":1720462253,"current_range_meters":9600,"station_id":"ce4bh192rcd13ifvqdd0","pricing_plan_id":"cebpf4jnsgd1na2vs0mg"},{"bike_id":"f2f5795b-03b7-4c7d-b070-7f198c567292","system_id":"levelo_inurba_marseille","lat":43.291994,"lon":5.392907,"is_reserved":false,"is_disabled":false,"rental_uris":{"android":"levelo://app?vid=f2f5795b-03b7-4c7d-b070-7f198c567292","ios":"levelo://app?vid=f2f5795b-03b7-4c7d-b070-7f198c567292"},"vehicle_type_id":"4","last_reported":1720462253,"current_range_meters":8400,"station_id":"ce4bh192rcd13ifvqdd0","pricing_plan_id":"cebpf4jnsgd1na2vs0mg"},{"bike_id":"56be7798-2689-4cbf-9ef4-b1a99507b411","system_id":"levelo_inurba_marseille","lat":43.291994,"lon":5.392907,"is_reserved":false,"is_disabled":false,"rental_uris":{"android":"levelo://app?vid=56be7798-2689-4cbf-9ef4-b1a99507b411","ios":"levelo://app?vid=56be7798-2689-4cbf-9ef4-b1a99507b411"},"vehicle_type_id":"4","last_reported":1720462253,"current_range_meters":26400,"station_id":"ce4bh192rcd13ifvqdd0","pricing_plan_id":"cebpf4jnsgd1na2vs0mg"},{"bike_id":"a4b4d46e-fcc9-481e-9507-7c85f214db35","system_id":"levelo_inurba_marseille","lat":43.291994,"lon":5.392907,"is_reserved":false,"is_disabled":false,"rental_uris":{"android":"levelo://app?vid=a4b4d46e-fcc9-481e-9507-7c85f214db35","ios":"levelo://app?vid=a4b4d46e-fcc9-481e-9507-7c85f214db35"},"vehicle_type_id":"4","last_reported":1720462253,"current_range_meters":25600,"station_id":"ce4bh192rcd13ifvqdd0","pricing_plan_id":"cebpf4jnsgd1na2vs0mg"},