{"last_updated":1743660865,"ttl":60,"version":"2.2","data":{"bikes":[{"bike_id":"d68df660-592c-41cf-bea8-2d6532ea83c6","system_id":"levelo_inurba_marseille","lat":43.25825,"lon":5.39438,"is_reserved":false,"is_disabled":false,"rental_uris":{"android":"levelo://app?vid=d68df660-592c-41cf-bea8-2d6532ea83c6","ios":"levelo://app?vid=d68df660-592c-41cf-bea8-2d6532ea83c6"},"vehicle_type_id":"4","last_reported":1743660866,"current_range_meters":2800,"station_id":"ce4bhip2rcd13ifvqft0","pricing_plan_id":"cebpf4jnsgd1na2vs0mg"},{"bike_id":"72a59223-7fbc-4af7-a727-ebdf00595f3e","system_id":"levelo_inurba_marseille","lat":43.24165,"lon":5.36449,"is_reserved":false,"is_disabled":false,"rental_uris":{"android":"levelo://app?vid=72a59223-7fbc-4af7-a727-ebdf00595f3e","ios":"levelo://app?vid=72a59223-7fbc-4af7-a727-ebdf00595f3e"},"vehicle_type_id":"4","last_reported":1743660866,"current_range_meters":2800,"station_id":"cpo36qri1sfpv3e86is0","pricing_plan_id":"cebpf4jnsgd1na2vs0mg"},{"bike_id":"0a3a1ba4-b012-4a1f-a2ce-379d15963bda","system_id":"levelo_inurba_marseille","lat":43.28401,"lon":5.37524,"is_reserved":false,"is_disabled":false,"rental_uris":{"android":"levelo://app?vid=0a3a1ba4-b012-4a1f-a2ce-379d15963bda","ios":"levelo://app?vid=0a3a1ba4-b012-4a1f-a2ce-379d15963bda"},"vehicle_type_id":"4","last_reported":1743660866,"current_range_meters":2800,"station_id":"ce4bh412rcd13ifvqds0","pricing_plan_id":"cebpf4jnsgd1na2vs0mg"},{"bike_id":"818efc3b-22d0-47f9-b540-74a78659d265","system_id":"levelo_inurba_marseille","lat":43.3047,"lon":5.37917,"is_reserved":false,"is_disabled":false,"rental_uris":{"android":"levelo://app?vid=818efc3b-22d0-47f9-b540-74a78659d265","ios":"levelo://app?vid=818efc3b-22d0-47f9-b540-74a78659d265"},"vehicle_type_id":"4","last_reported":1743660866,"current_range_meters":2800,"station_id":"ce4bgup2rcd13ifvqcn0","pricing_plan_id":"cebpf4jnsgd1na2vs0mg"},{"bike_id":"d41ba67a-921a-435b-84d8-54dae7cbe088","system_id":"levelo_inurba_marseille","lat":43.27492,"lon":5.42449,"is_reserved":false,"is_disabled":false,"rental_uris":{"android":"levelo://app?vid=d41ba67a-921a-435b-84d8-54dae7cbe088","ios":"levelo://app?vid=d41ba67a-921a-435b-84d8-54dae7cbe088"},"vehicle_type_id":"4","last_reported":1743660866,"current_range_meters":3200,"station_id":"ce4bhn92rcd13ifvqgrg","pricing_plan_id":"cebpf4jnsgd1na2vs0mg"},{"bike_id":"e47bc61d-df2d-41b3-b26b-dd94e6e5e301","system_id":"levelo_inurba_marseille","lat":43.26268,"lon":5.42149,"is_reserved":false,"is_disabled":false,"rental_uris":{"android":"levelo://app?vid=e47bc61d-df2d-41b3-b26b-dd94e6e5e301","ios":"levelo://app?vid=e47bc61d-df2d-41b3-b26b-dd94e6e5e301"},"vehicle_type_id":"4","last_reported":1743660866,"current_range_meters":3200,"station_id":"","pricing_plan_id":"cebpf4jnsgd1na2vs0mg"},{"bike_id":"e84bef4c-cced-4cd0-b180-0053717ac75e","system_id":"levelo_inurba_marseille","lat":43.28712,"lon":5.39999,"is_reserved":false,"is_disabled":true,"rental_uris":{"android":"levelo://app?vid=e84bef4c-cced-4cd0-b180-0053717ac75e","ios":"levelo://app?vid=e84bef4c-cced-4cd0-b180-0053717ac75e"},"vehicle_type_id":"4","last_reported":1743660866,"current_range_meters":3200,"station_id":"ce4bho92rcd13ifvqh3g","pricing_plan_id":"cebpf4jnsgd1na2vs0mg"},{"bike_id":"f3ef51fd-6211-4184-8e36-c2ff591db078","system_id":"levelo_inurba_marseille","lat":43.2904,"lon":5.39975,"is_reserved":false,"is_disabled":false,"rental_uris":{"android":"levelo://app?vid=f3ef51fd-6211-4184-8e36-c2ff591db078","ios":"levelo://app?vid=f3ef51fd-6211-4184-8e36-c2ff591db078"},"vehicle_type_id":"4","last_reported":1743660866,"current_range_meters":3200,"station_id":"ce4bh392rcd13ifvqdm0","pricing_plan_id":"cebpf4jnsgd1na2vs0mg"},{"bike_id":"66a6759f-f104-404f-ba35-7dd5d87e6d0b","system_id":"levelo_inurba_marseille","lat":43.3012,"lon":5.37704,"is_reserved":false,"is_disabled":false,"rental_uris":{"android":"levelo://app?vid=66a6759f-f104-404f-ba35-7dd5d87e6d0b","ios":"levelo://app?vid=66a6759f-f104-404f-ba35-7dd5d87e6d0b"},"vehicle_type_id":"4","last_reported":1743660866,"current_range_meters":3200,"station_id":"","pricing_plan_id":"cebpf4jnsgd1na2vs0mg"},{"bike_id":"909695c0-8f62-4792-b8e2-e80205e97ddd","system_id":"levelo_inurba_marseille","lat":43.30457,"lon":5.37909,"is_reserved":false,"is_disabled":false,"rental_uris":{"android":"levelo://app?vid=909695c0-8f62-4792-b8e2-e80205e97ddd","ios":"levelo://app?vid=909695c0-8f62-4792-b8e2-e80205e97ddd"},"vehicle_type_id":"4","last_reported":1743660866,"current_range_meters":3600,"station_id":"ce4bgup2rcd13ifvqcn0","pricing_plan_id":"cebpf4jnsgd1na2vs0mg"},{"bike_id":"8dd59c1b-0099-418f-9b93-35fc591d4892","system_id":"levelo_inurba_marseille","lat":43.29586,"lon":5.38698,"is_reserved":false,"is_disabled":false,"rental_uris":{"android":"levelo://app?vid=8dd59c1b-0099-418f-9b93-35fc591d4892","ios":"levelo://app?vid=8dd59c1b-0099-418f-9b93-35fc591d4892"},"vehicle_type_id":"4","last_reported":1743660866,"current_range_meters":3600,"station_id":"","pricing_plan_id":"cebpf4jnsgd1na2vs0mg"},{"bike_id":"963d154d-f941-4a63-a7ab-a6986505f188","system_id":"levelo_inurba_marseille","lat":43.24077,"lon":5.37752,"is_reserved":false,"is_disabled":false,"rental_uris":{"android":"levelo://app?vid=963d154d-f941-4a63-a7ab-a6986505f188","ios":"levelo://app?vid=963d154d-f941-4a63-a7ab-a6986505f188"},"vehicle_type_id":"4","last_reported":1743660866,"current_range_meters":3600,"station_id":"ce4bhnp2rcd13ifvqgvg","pricing_plan_id":"cebpf4jnsgd1na2vs0mg"},{"bike_id":"f19d09c0-c570-4160-b74e-ebb29dd15cfa","system_id":"levelo_inurba_marseille","lat":43.30613,"lon":5.3932,"is_reserved":false,"is_disabled":false,"rental_uris":{"android":"levelo://app?vid=f19d09c0-c570-4160-b74e-ebb29dd15cfa","ios":"levelo://app?vid=f19d09c0-c570-4160-b74e-ebb29dd15cfa"},"vehicle_type_id":"4","last_reported":1743660866,"current_range_meters":3600,"station_id":"ce4bh0p2rcd13ifvqd80","pricing_plan_id":"cebpf4jnsgd1na2vs0mg"},{"bike_id":"073f5d1a-5a78-4a02-8067-3e88e81ab3a3","system_id":"levelo_inurba_marseille","lat":43.23134,"lon":5.43736,"is_reserved":false,"is_disabled":false,"rental_uris":{"android":"levelo://app?vid=073f5d1a-5a78-4a02-8067-3e88e81ab3a3","ios":"levelo://app?vid=073f5d1a-5a78-4a02-8067-3e88e81ab3a3"},"vehicle_type_id":"4","last_reported":1743660866,"current_range_meters":3600,"station_id":"ce4bhmp2rcd13ifvqgog","pricing_plan_id":"cebpf4jnsgd1na2vs0mg"},{"bike_id":"3d6f2038-488c-4d69-9fe8-8b7bbbbfcfda","system_id":"levelo_inurba_marseille","lat":43.28928,"lon":5.36634,"is_reserved":false,"is_disabled":false,"rental_uris":{"android":"levelo://app?vid=3d6f2038-488c-4d69-9fe8-8b7bbbbfcfda","ios":"levelo://app?vid=3d6f2038-488c-4d69-9fe8-8b7bbbbfcfda"},"vehicle_type_id":"4","last_reported":1743660866,"current_range_meters":3600,"station_id":"ce4bhap2rcd13ifvqek0","pricing_plan_id":"cebpf4jnsgd1na2vs0mg"},{"bike_id":"907c6b69-44a0-43de-8d18-fd15aff0b4d2","system_id":"levelo_inurba_marseille","lat":43.28385,"lon":5.38034,"is_reserved":false,"is_disabled":false,"rental_uris":{"android":"levelo://app?vid=907c6b69-44a0-43de-8d18-fd15aff0b4d2","ios":"levelo://app?vid=907c6b69-44a0-43de-8d18-fd15aff0b4d2"},"vehicle_type_id":"4","last_reported":1743660866,"current_range_meters":3600,"station_id":"","pricing_plan_id":"cebpf4jnsgd1na2vs0mg"},{"bike_id":"3f35212e-e8e0-46f0-b913-3f98f04fdac6","system_id":"levelo_inurba_marseille","lat":43.30251,"lon":5.40069,"is_reserved":false,"is_disabled":false,"rental_uris":{"android":"levelo://app?vid=3f35212e-e8e0-46f0-b913-3f98f04fdac6","ios":"levelo://app?vid=3f35212e-e8e0-46f0-b913-3f98f04fdac6"},"vehicle_type_id":"4","last_reported":1743660866,"current_range_meters":3600,"station_id":"ce4bgvh2rcd13ifvqcs0","pricing_plan_id":"cebpf4jnsgd1na2vs0mg"},{"bike_id":"7bdf0d60-3026-4723-ac07-ebb25b9cf79f","system_id":"levelo_inurba_marseille","lat":43.28788,"lon":5.38681,"is_reserved":false,"is_disabled":false,"rental_uris":{"android":"levelo://app?vid=7bdf0d60-3026-4723-ac07-ebb25b9cf79f","ios":"levelo://app?vid=7bdf0d60-3026-4723-ac07-ebb25b9cf79f"},"vehicle_type_id":"4","last_reported":1743660866,"current_range_meters":3600,"station_id":"","pricing_plan_id":"cebpf4jnsgd1na2vs0mg"},{"bike_id":"fdd74cea-2420-4f5e-97f2-a48b67190c4e","system_id":"levelo_inurba_marseille","lat":43.337444,"lon":5.374475,"is_reserved":false,"is_disabled":true,"rental_uris":{"android":"levelo://app?vid=fdd74cea-2420-4f5e-97f2-a48b67190c4e","ios":"levelo://app?vid=fdd74cea-2420-4f5e-97f2-a48b67190c4e"},"vehicle_type_id":"4","last_reported":1743660866,"current_range_meters":4000,"station_id":"","pricing_plan_id":"cebpf4jnsgd1na2vs0mg"},{"bike_id":"c6364f6c-be2a-40c6-9da6-32bc1c038bed","system_id":"levelo_inurba_marseille","lat":43.26931,"lon":5.3893,"is_reserved":false,"is_disabled":false,"rental_uris":{"android":"levelo://app?vid=c6364f6c-be2a-40c6-9da6-32bc1c038bed","ios":"levelo://app?vid=c6364f6c-be2a-40c6-9da6-32bc1c038bed"},"vehicle_type_id":"4","last_reported":1743660866,"current_range_meters":4000,"station_id":"ce4bhhh2rcd13ifvqfl0","pricing_plan_id":"cebpf4jnsgd1na2vs0mg"},{"bike_id":"0ef9b485-3b9c-419b-842a-20c5d6158d65","system_id":"levelo_inurba_marseille","lat":43.31503,"lon":5.37271,"is_reserved":false,"is_disabled":false,"rental_uris":{"android":"levelo://app?vid=0ef9b485-3b9c-419b-842a-20c5d6158d65","ios":"levelo://app?vid=0ef9b485-3b9c-419b-842a-20c5d6158d65"},"vehicle_type_id":"4","last_reported":1743660866,"current_range_meters":4400,"station_id":"ce4bgt12rcd13ifvqcd0","pricing_plan_id":"cebpf4jnsgd1na2vs0mg"},{"bike_id":"4f1fb305-fdac-49af-98f8-e5ebaa4429a4","system_id":"levelo_inurba_marseille","lat":43.22932,"lon":5.35392,"is_reserved":false,"is_disabled":false,"rental_uris":{"android":"levelo://app?vid=4f1fb305-fdac-49af-98f8-e5ebaa4429a4","ios":"levelo://app?vid=4f1fb305-fdac-49af-98f8-e5ebaa4429a4"},"vehicle_type_id":"4","last_reported":1743660866,"current_range_meters":4400,"station_id":"cpo3532slgdg3j2ikp40","pricing_plan_id":"cebpf4jnsgd1na2vs0mg"},{"bike_id":"f06067fe-c409-49ce-b995-b28658dd37fb","system_id":"levelo_inurba_marseille","lat":43.28675,"lon":5.37394,"is_reserved":false,"is_disabled":true,"rental_uris":{"android":"levelo://app?vid=f06067fe-c409-49ce-b995-b28658dd37fb","ios":"levelo://app?vid=f06067fe-c409-49ce-b995-b28658dd37fb"},"vehicle_type_id":"4","last_reported":1743660866,"current_range_meters":4800,"station_id":"ce4bh3p2rcd13ifvqdq0","pricing_plan_id":"cebpf4jnsgd1na2vs0mg"},{"bike_id":"808b92be-2e08-422c-8257-ee6a6dbfde0b","system_id":"levelo_inurba_marseille","lat":43.28411,"lon":5.34974,"is_reserved":false,"is_disabled":false,"rental_uris":{"android":"levelo://app?vid=808b92be-2e08-422c-8257-ee6a6dbfde0b","ios":"levelo://app?vid=808b92be-2e08-422c-8257-ee6a6dbfde0b"},"vehicle_type_id":"4","last_reported":1743660866,"current_range_meters":4800,"station_id":"ce4bhbh2rcd13ifvqepg","pricing_plan_id":"cebpf4jnsgd1na2vs0mg"},{"bike_id":"8259a860-1538-45ee-b3d8-f4b46b26eafa","system_id":"levelo_inurba_marseille","lat":43.23152,"lon":5.43713,"is_reserved":false,"is_disabled":false,"rental_uris":{"android":"levelo://app?vid=8259a860-1538-45ee-b3d8-f4b46b26eafa","ios":"levelo://app?vid=8259a860-1538-45ee-b3d8-f4b46b26eafa"},"vehicle_type_id":"4","last_reported":1743660866,"current_range_meters":4800,"station_id":"ce4bhmp2rcd13ifvqgog","pricing_plan_id":"cebpf4jnsgd1na2vs0mg"},{"bike_id":"ff42135b-10ff-470e-83ab-bdd8bc43bd8e","system_id":"levelo_inurba_marseille","lat":43.24073,"lon":5.37761,"is_reserved":false,"is_disabled":false,"rental_uris":{"android":"levelo://app?vid=ff42135b-10ff-470e-83ab-bdd8bc43bd8e","ios":"levelo://app?vid=ff42135b-10ff-470e-83ab-bdd8bc43bd8e"},"vehicle_type_id":"4","last_reported":1743660866,"current_range_meters":4800,"station_id":"ce4bhnp2rcd13ifvqgvg","pricing_plan_id":"cebpf4jnsgd1na2vs0mg"},{"bike_id":"7c982aed-1723-4218-8a75-5852d6bde0df","system_id":"levelo_inurba_marseille","lat":43.276745,"lon":5.361557,"is_reserved":false,"is_disabled":false,"rental_uris":{"android":"levelo://app?vid=7c982aed-1723-4218-8a75-5852d6bde0df","ios":"levelo://app?vid=7c982aed-1723-4218-8a75-5852d6bde0df"},"vehicle_type_id":"4","last_reported":1743660866,"current_range_meters":5600,"station_id":"ce4bha12rcd13ifvqef0","pricing_plan_id":"cebpf4jnsgd1na2vs0mg"},{"bike_id":"7a81ad93-33bb-48ae-a8df-651c7f3997b7","system_id":"levelo_inurba_marseille","lat":43.28555,"lon":5.395,"is_reserved":false,"is_disabled":false,"rental_uris":{"android":"levelo://app?vid=7a81ad93-33bb-48ae-a8df-651c7f3997b7","ios":"levelo://app?vid=7a81ad93-33bb-48ae-a8df-651c7f3997b7"},"vehicle_type_id":"4","last_reported":1743660866,"current_range_meters":5600,"station_id":"ce4bh292rcd13ifvqdg0","pricing_plan_id":"cebpf4jnsgd1na2vs0mg"},{"bike_id":"48302313-0890-44fb-97d4-f7f3b5d44fd5","system_id":"levelo_inurba_marseille","lat":43.33089,"lon":5.40004,"is_reserved":false,"is_disabled":false,"rental_uris":{"android":"levelo://app?vid=48302313-0890-44fb-97d4-f7f3b5d44fd5","ios":"levelo://app?vid=48302313-0890-44fb-97d4-f7f3b5d44fd5"},"vehicle_type_id":"4","last_reported":1743660866,"current_range_meters":5600,"station_id":"","pricing_plan_id":"cebpf4jnsgd1na2vs0mg"},{"bike_id":"695c8290-d280-4637-a551-cff4f68c5fbc","system_id":"levelo_inurba_marseille","lat":43.23151,"lon":5.43718,"is_reserved":false,"is_disabled":false,"rental_uris":{"android":"levelo://app?vid=695c8290-d280-4637-a551-cff4f68c5fbc","ios":"levelo://app?vid=695c8290-d280-4637-a551-cff4f68c5fbc"},"vehicle_type_id":"4","last_reported":1743660866,"current_range_meters":5600,"station_id":"ce4bhmp2rcd13ifvqgog","pricing_plan_id":"cebpf4jnsgd1na2vs0mg"},{"bike_id":"1331c791-6775-4642-afd5-40465ecccfa5","system_id":"levelo_inurba_marseille","lat":43.2408,"lon":5.37751,"is_reserved":false,"is_disabled":false,"rental_uris":{"android":"levelo://app?vid=1331c791-6775-4642-afd5-40465ecccfa5","ios":"levelo://app?vid=1331c791-6775-4642-afd5-40465ecccfa5"},"vehicle_type_id":"4","last_reported":1743660866,"current_range_meters":5600,"station_id":"ce4bhnp2rcd13ifvqgvg","pricing_plan_id":"cebpf4jnsgd1na2vs0mg"},{"bike_id":"24fef5dd-6279-4bfa-a4c2-134a33ba5232","system_id":"levelo_inurba_marseille","lat":43.30433,"lon":5.3888,"is_reserved":false,"is_disabled":false,"rental_uris":{"android":"levelo://app?vid=24fef5dd-6279-4bfa-a4c2-134a33ba5232","ios":"levelo://app?vid=24fef5dd-6279-4bfa-a4c2-134a33ba5232"},"vehicle_type_id":"4","last_reported":1743660866,"current_range_meters":6000,"station_id":"ce4bgk12rcd13ifvqbi0","pricing_plan_id":"cebpf4jnsgd1na2vs0mg"},{"bike_id":"a5f5d261-84ab-4f39-92d4-5a932009234b","system_id":"levelo_inurba_marseille","lat":43.30953,"lon":5.39031,"is_reserved":false,"is_disabled":false,"rental_uris":{"android":"levelo://app?vid=a5f5d261-84ab-4f39-92d4-5a932009234b","ios":"levelo://app?vid=a5f5d261-84ab-4f39-92d4-5a932009234b"},"vehicle_type_id":"4","last_reported":1743660866,"current_range_meters":6000,"station_id":"ce4bgup2rcd13ifvqco0","pricing_plan_id":"cebpf4jnsgd1na2vs0mg"},{"bike_id":"84beeef9-a37b-4d61-a8ce-83bcec91a2d6","system_id":"levelo_inurba_marseille","lat":43.29039,"lon":5.39981,"is_reserved":false,"is_disabled":false,"rental_uris":{"android":"levelo://app?vid=84beeef9-a37b-4d61-a8ce-83bcec91a2d6","ios":"levelo://app?vid=84beeef9-a37b-4d61-a8ce-83bcec91a2d6"},"vehicle_type_id":"4","last_reported":1743660866,"current_range_meters":6000,"station_id":"ce4bh392rcd13ifvqdm0","pricing_plan_id":"cebpf4jnsgd1na2vs0mg"},{"bike_id":"8978e549-1024-4aec-8750-f063b8aa260f","system_id":"levelo_inurba_marseille","lat":43.30279,"lon":5.37702,"is_reserved":false,"is_disabled":false,"rental_uris":{"android":"levelo://app?vid=8978e549-1024-4aec-8750-f063b8aa260f","ios":"levelo://app?vid=8978e549-1024-4aec-8750-f063b8aa260f"},"vehicle_type_id":"4","last_reported":1743660866,"current_range_meters":5600,"station_id":"ce4bguh2rcd13ifvqcj0","pricing_plan_id":"cebpf4jnsgd1na2vs0mg"},{"bike_id":"2828a043-0062-47a2-bc36-8769134c8804","system_id":"levelo_inurba_marseille","lat":43.287119,"lon":5.379296,"is_reserved":false,"is_disabled":false,"rental_uris":{"android":"levelo://app?vid=2828a043-0062-47a2-bc36-8769134c8804","ios":"levelo://app?vid=2828a043-0062-47a2-bc36-8769134c8804"},"vehicle_type_id":"4","last_reported":1743660866,"current_range_meters":6000,"station_id":"","pricing_plan_id":"cebpf4jnsgd1na2vs0mg"},{"bike_id":"3e5329f3-c0cd-422c-afb1-2f46242590da","system_id":"levelo_inurba_marseille","lat":43.31901,"lon":5.37543,"is_reserved":false,"is_disabled":false,"rental_uris":{"android":"levelo://app?vid=3e5329f3-c0cd-422c-afb1-2f46242590da","ios":"levelo://app?vid=3e5329f3-c0cd-422c-afb1-2f46242590da"},"vehicle_type_id":"4","last_reported":1743660866,"current_range_meters":6000,"station_id":"","pricing_plan_id":"cebpf4jnsgd1na2vs0mg"},{"bike_id":"3b948fbe-ea54-4e7f-8a80-214f816bc66c","system_id":"levelo_inurba_marseille","lat":43.2419,"lon":5.39717,"is_reserved":false,"is_disabled":false,"rental_uris":{"android":"levelo://app?vid=3b948fbe-ea54-4e7f-8a80-214f816bc66c","ios":"levelo://app?vid=3b948fbe-ea54-4e7f-8a80-214f816bc66c"},"vehicle_type_id":"4","last_reported":1743660866,"current_range_meters":6400,"station_id":"ce4bhn12rcd13ifvqgpg","pricing_plan_id":"cebpf4jnsgd1na2vs0mg"},{"bike_id":"e53f9db2-d75c-4594-8157-2926a2062b6f","system_id":"levelo_inurba_marseille","lat":43.28444,"lon":5.39181,"is_reserved":false,"is_disabled":true,"rental_uris":{"android":"levelo://app?vid=e53f9db2-d75c-4594-8157-2926a2062b6f","ios":"levelo://app?vid=e53f9db2-d75c-4594-8157-2926a2062b6f"},"vehicle_type_id":"4","last_reported":1743660866,"current_range_meters":6400,"station_id":"ce4bhoh2rcd13ifvqh5g","pricing_plan_id":"cebpf4jnsgd1na2vs0mg"},{"bike_id":"a37ba079-4ccc-43bf-b918-b876a550e8db","system_id":"levelo_inurba_marseille","lat":43.2558,"lon":5.382371,"is_reserved":false,"is_disabled":false,"rental_uris":{"android":"levelo://app?vid=a37ba079-4ccc-43bf-b918-b876a550e8db","ios":"levelo://app?vid=a37ba079-4ccc-43bf-b918-b876a550e8db"},"vehicle_type_id":"4","last_reported":1743660866,"current_range_meters":6400,"station_id":"ce4bhih2rcd13ifvqfs0","pricing_plan_id":"cebpf4jnsgd1na2vs0mg"},{"bike_id":"f55695a6-b65f-4a30-99ab-94b2bfa63268","system_id":"levelo_inurba_marseille","lat":43.2318,"lon":5.35555,"is_reserved":false,"is_disabled":false,"rental_uris":{"android":"levelo://app?vid=f55695a6-b65f-4a30-99ab-94b2bfa63268","ios":"levelo://app?vid=f55695a6-b65f-4a30-99ab-94b2bfa63268"},"vehicle_type_id":"4","last_reported":1743660866,"current_range_meters":6400,"station_id":"ce4bhu92rcd13ifvqi70","pricing_plan_id":"cebpf4jnsgd1na2vs0mg"},{"bike_id":"fe402d4f-69b5-430c-add5-1fe1e8091789","system_id":"levelo_inurba_marseille","lat":43.29032,"lon":5.39976,"is_reserved":false,"is_disabled":false,"rental_uris":{"android":"levelo://app?vid=fe402d4f-69b5-430c-add5-1fe1e8091789","ios":"levelo://app?vid=fe402d4f-69b5-430c-add5-1fe1e8091789"},"vehicle_type_id":"4","last_reported":1743660866,"current_range_meters":6400,"station_id":"ce4bh392rcd13ifvqdm0","pricing_plan_id":"cebpf4jnsgd1na2vs0mg"},{"bike_id":"b3d12f1b-4fc1-435b-9288-15db892a7dd2","system_id":"levelo_inurba_marseille","lat":43.30903,"lon":5.369,"is_reserved":false,"is_disabled":false,"rental_uris":{"android":"levelo://app?vid=b3d12f1b-4fc1-435b-9288-15db892a7dd2","ios":"levelo://app?vid=b3d12f1b-4fc1-435b-9288-15db892a7dd2"},"vehicle_type_id":"4","last_reported":1743660866,"current_range_meters":6000,"station_id":"ce4bgn92rcd13ifvqbvg","pricing_plan_id":"cebpf4jnsgd1na2vs0mg"},{"bike_id":"4f1c00e5-a79d-4f0b-ab4e-3bd2b06e7d2e","system_id":"levelo_inurba_marseille","lat":43.230592,"lon":5.355146,"is_reserved":false,"is_disabled":false,"rental_uris":{"android":"levelo://app?vid=4f1c00e5-a79d-4f0b-ab4e-3bd2b06e7d2e","ios":"levelo://app?vid=4f1c00e5-a79d-4f0b-ab4e-3bd2b06e7d2e"},"vehicle_type_id":"4","last_reported":1743660866,"current_range_meters":6400,"station_id":"cpo3342slgdg3j2ifvpg","pricing_plan_id":"cebpf4jnsgd1na2vs0mg"},{"bike_id":"a8f68bb3-93d5-4e8f-b698-b0cf332cdff9","system_id":"levelo_inurba_marseille","lat":43.23149,"lon":5.43713,"is_reserved":false,"is_disabled":false,"rental_uris":{"android":"levelo://app?vid=a8f68bb3-93d5-4e8f-b698-b0cf332cdff9","ios":"levelo://app?vid=a8f68bb3-93d5-4e8f-b698-b0cf332cdff9"},"vehicle_type_id":"4","last_reported":1743660866,"current_range_meters":6000,"station_id":"ce4bhmp2rcd13ifvqgog","pricing_plan_id":"cebpf4jnsgd1na2vs0mg"},{"bike_id":"d6c81a00-cf24-47bc-81aa-99e15d303460","system_id":"levelo_inurba_marseille","lat":43.27179,"lon":5.40991,"is_reserved":false,"is_disabled":false,"rental_uris":{"android":"levelo://app?vid=d6c81a00-cf24-47bc-81aa-99e15d303460","ios":"levelo://app?vid=d6c81a00-cf24-47bc-81aa-99e15d303460"},"vehicle_type_id":"4","last_reported":1743660866,"current_range_meters":6400,"station_id":"ce4bhl12rcd13ifvqgf0","pricing_plan_id":"cebpf4jnsgd1na2vs0mg"},{"bike_id":"1c7ea303-0f0b-477c-a6b0-56cc00a9de10","system_id":"levelo_inurba_marseille","lat":43.32364,"lon":5.388996,"is_reserved":false,"is_disabled":false,"rental_uris":{"android":"levelo://app?vid=1c7ea303-0f0b-477c-a6b0-56cc00a9de10","ios":"levelo://app?vid=1c7ea303-0f0b-477c-a6b0-56cc00a9de10"},"vehicle_type_id":"4","last_reported":1743660866,"current_range_meters":6400,"station_id":"ce4bhqp2rcd13ifvqhog","pricing_plan_id":"cebpf4jnsgd1na2vs0mg"},{"bike_id":"9aa2396c-cf44-4f57-b912-002230e52c07","system_id":"levelo_inurba_marseille","lat":43.27637,"lon":5.3957,"is_reserved":false,"is_disabled":false,"rental_uris":{"android":"levelo://app?vid=9aa2396c-cf44-4f57-b912-002230e52c07","ios":"levelo://app?vid=9aa2396c-cf44-4f57-b912-002230e52c07"},"vehicle_type_id":"4","last_reported":1743660866,"current_range_meters":6400,"station_id":"","pricing_plan_id":"cebpf4jnsgd1na2vs0mg"},{"bike_id":"a0832530-2cf9-4f19-a63d-c5be278c0831","system_id":"levelo_inurba_marseille","lat":43.33609,"lon":5.41025,"is_reserved":false,"is_disabled":false,"rental_uris":{"android":"levelo://app?vid=a0832530-2cf9-4f19-a63d-c5be278c0831","ios":"levelo://app?vid=a0832530-2cf9-4f19-a63d-c5be278c0831"},"vehicle_type_id":"4","last_reported":1743660866,"current_range_meters":6400,"station_id":"ce4bhqh2rcd13ifvqhmg","pricing_plan_id":"cebpf4jnsgd1na2vs0mg"},{"bike_id":"f9673cab-6059-41ca-ac23-c7c79ef400b8","system_id":"levelo_inurba_marseille","lat":43.265693,"lon":5.390038,"is_reserved":false,"is_disabled":false,"rental_uris":{"android":"levelo://app?vid=f9673cab-6059-41ca-ac23-c7c79ef400b8","ios":"levelo://app?vid=f9673cab-6059-41ca-ac23-c7c79ef400b8"},"vehicle_type_id":"4","last_reported":1743660866,"current_range_meters":6800,"station_id":"ce4bhe12rcd13ifvqf30","pricing_plan_id":"cebpf4jnsgd1na2vs0mg"},{"bike_id":"2296170f-d0ab-4f4e-9cf5-48eaa902fad7","system_id":"levelo_inurba_marseille","lat":43.30431,"lon":5.38892,"is_reserved":false,"is_disabled":false,"rental_uris":{"android":"levelo://app?vid=2296170f-d0ab-4f4e-9cf5-48eaa902fad7","ios":"levelo://app?vid=2296170f-d0ab-4f4e-9cf5-48eaa902fad7"},"vehicle_type_id":"4","last_reported":1743660866,"current_range_meters":6800,"station_id":"ce4bgk12rcd13ifvqbi0","pricing_plan_id":"cebpf4jnsgd1na2vs0mg"},{"bike_id":"81c6efaf-c596-4789-b7ab-7e96a7381205","system_id":"levelo_inurba_marseille","lat":43.28479,"lon":5.38418,"is_reserved":false,"is_disabled":false,"rental_uris":{"android":"levelo://app?vid=81c6efaf-c596-4789-b7ab-7e96a7381205","ios":"levelo://app?vid=81c6efaf-c596-4789-b7ab-7e96a7381205"},"vehicle_type_id":"4","last_reported":1743660866,"current_range_meters":8400,"station_id":"ce4bh512rcd13ifvqe3g","pricing_plan_id":"cebpf4jnsgd1na2vs0mg"},{"bike_id":"960029c6-9bde-4546-91a5-39871f35f020","system_id":"levelo_inurba_marseille","lat":43.30183,"lon":5.36641,"is_reserved":false,"is_disabled":false,"rental_uris":{"android":"levelo://app?vid=960029c6-9bde-4546-91a5-39871f35f020","ios":"levelo://app?vid=960029c6-9bde-4546-91a5-39871f35f020"},"vehicle_type_id":"4","last_reported":1743660866,"current_range_meters":6800,"station_id":"ce4bgrh2rcd13ifvqc8g","pricing_plan_id":"cebpf4jnsgd1na2vs0mg"},{"bike_id":"8e0fc6fe-ed18-4d64-b406-c686c0140155","system_id":"levelo_inurba_marseille","lat":43.26567,"lon":5.3901,"is_reserved":false,"is_disabled":false,"rental_uris":{"android":"levelo://app?vid=8e0fc6fe-ed18-4d64-b406-c686c0140155","ios":"levelo://app?vid=8e0fc6fe-ed18-4d64-b406-c686c0140155"},"vehicle_type_id":"4","last_reported":1743660866,"current_range_meters":6800,"station_id":"ce4bhe12rcd13ifvqf30","pricing_plan_id":"cebpf4jnsgd1na2vs0mg"},{"bike_id":"8d5b971e-28a3-40d2-975a-686cbf6dfadd","system_id":"levelo_inurba_marseille","lat":43.29543,"lon":5.42306,"is_reserved":false,"is_disabled":false,"rental_uris":{"android":"levelo://app?vid=8d5b971e-28a3-40d2-975a-686cbf6dfadd","ios":"levelo://app?vid=8d5b971e-28a3-40d2-975a-686cbf6dfadd"},"vehicle_type_id":"4","last_reported":1743660866,"current_range_meters":6800,"station_id":"ce4bhph2rcd13ifvqhdg","pricing_plan_id":"cebpf4jnsgd1na2vs0mg"},{"bike_id":"a7d11798-7eaf-4f99-80ac-c9438018c0f0","system_id":"levelo_inurba_marseille","lat":43.24082,"lon":5.37745,"is_reserved":false,"is_disabled":false,"rental_uris":{"android":"levelo://app?vid=a7d11798-7eaf-4f99-80ac-c9438018c0f0","ios":"levelo://app?vid=a7d11798-7eaf-4f99-80ac-c9438018c0f0"},"vehicle_type_id":"4","last_reported":1743660866,"current_range_meters":6800,"station_id":"ce4bhnp2rcd13ifvqgvg","pricing_plan_id":"cebpf4jnsgd1na2vs0mg"},{"bike_id":"2cf61775-cb21-4b86-a7af-7925ef8f8bd8","system_id":"levelo_inurba_marseille","lat":43.2293,"lon":5.35391,"is_reserved":false,"is_disabled":false,"rental_uris":{"android":"levelo://app?vid=2cf61775-cb21-4b86-a7af-7925ef8f8bd8","ios":"levelo://app?vid=2cf61775-cb21-4b86-a7af-7925ef8f8bd8"},"vehicle_type_id":"4","last_reported":1743660866,"current_range_meters":6800,"station_id":"cpo3532slgdg3j2ikp40","pricing_plan_id":"cebpf4jnsgd1na2vs0mg"},{"bike_id":"4b44f39c-5bb2-424a-891d-855ab4adfcfa","system_id":"levelo_inurba_marseille","lat":43.30117,"lon":5.38802,"is_reserved":false,"is_disabled":true,"rental_uris":{"android":"levelo://app?vid=4b44f39c-5bb2-424a-891d-855ab4adfcfa","ios":"levelo://app?vid=4b44f39c-5bb2-424a-891d-855ab4adfcfa"},"vehicle_type_id":"4","last_reported":1743660866,"current_range_meters":6800,"station_id":"ce4bghh2rcd13ifvqb60","pricing_plan_id":"cebpf4jnsgd1na2vs0mg"},{"bike_id":"d3345442-2654-4ddc-b869-fce22decea38","system_id":"levelo_inurba_marseille","lat":43.23046,"lon":5.35513,"is_reserved":false,"is_disabled":false,"rental_uris":{"android":"levelo://app?vid=d3345442-2654-4ddc-b869-fce22decea38","ios":"levelo://app?vid=d3345442-2654-4ddc-b869-fce22decea38"},"vehicle_type_id":"4","last_reported":1743660866,"current_range_meters":6800,"station_id":"cpo3342slgdg3j2ifvpg","pricing_plan_id":"cebpf4jnsgd1na2vs0mg"},{"bike_id":"249d9c4c-d204-4c88-b810-3e2ec60384b0","system_id":"levelo_inurba_marseille","lat":43.30605,"lon":5.39342,"is_reserved":false,"is_disabled":false,"rental_uris":{"android":"levelo://app?vid=249d9c4c-d204-4c88-b810-3e2ec60384b0","ios":"levelo://app?vid=249d9c4c-d204-4c88-b810-3e2ec60384b0"},"vehicle_type_id":"4","last_reported":1743660866,"current_range_meters":7200,"station_id":"ce4bh0p2rcd13ifvqd80","pricing_plan_id":"cebpf4jnsgd1na2vs0mg"},{"bike_id":"b80ee275-2592-4659-b2e9-175feb839700","system_id":"levelo_inurba_marseille","lat":43.232019,"lon":5.355609,"is_reserved":false,"is_disabled":false,"rental_uris":{"android":"levelo://app?vid=b80ee275-2592-4659-b2e9-175feb839700","ios":"levelo://app?vid=b80ee275-2592-4659-b2e9-175feb839700"},"vehicle_type_id":"4","last_reported":1743660866,"current_range_meters":7200,"station_id":"ce4bhu92rcd13ifvqi70","pricing_plan_id":"cebpf4jnsgd1na2vs0mg"},{"bike_id":"d157a8ac-f1ea-480a-a1ee-9ac00962bb01","system_id":"levelo_inurba_marseille","lat":43.29548,"lon":5.42286,"is_reserved":false,"is_disabled":false,"rental_uris":{"android":"levelo://app?vid=d157a8ac-f1ea-480a-a1ee-9ac00962bb01","ios":"levelo://app?vid=d157a8ac-f1ea-480a-a1ee-9ac00962bb01"},"vehicle_type_id":"4","last_reported":1743660866,"current_range_meters":7200,"station_id":"ce4bhph2rcd13ifvqhdg","pricing_plan_id":"cebpf4jnsgd1na2vs0mg"},{"bike_id":"7bc507c4-187b-4cb2-a5ef-07322f924baf","system_id":"levelo_inurba_marseille","lat":43.22932,"lon":5.35388,"is_reserved":false,"is_disabled":false,"rental_uris":{"android":"levelo://app?vid=7bc507c4-187b-4cb2-a5ef-07322f924baf","ios":"levelo://app?vid=7bc507c4-187b-4cb2-a5ef-07322f924baf"},"vehicle_type_id":"4","last_reported":1743660866,"current_range_meters":7200,"station_id":"cpo3532slgdg3j2ikp40","pricing_plan_id":"cebpf4jnsgd1na2vs0mg"},{"bike_id":"f60c6b4a-d625-4480-8968-c6d2b93bf70e","system_id":"levelo_inurba_marseille","lat":43.28451,"lon":5.3589,"is_reserved":false,"is_disabled":false,"rental_uris":{"android":"levelo://app?vid=f60c6b4a-d625-4480-8968-c6d2b93bf70e","ios":"levelo://app?vid=f60c6b4a-d625-4480-8968-c6d2b93bf70e"},"vehicle_type_id":"4","last_reported":1743660866,"current_range_meters":7200,"station_id":"ce4bhah2rcd13ifvqei0","pricing_plan_id":"cebpf4jnsgd1na2vs0mg"},{"bike_id":"1bf4a72f-168a-4a92-980e-4bdc109c902f","system_id":"levelo_inurba_marseille","lat":43.28133,"lon":5.37817,"is_reserved":false,"is_disabled":false,"rental_uris":{"android":"levelo://app?vid=1bf4a72f-168a-4a92-980e-4bdc109c902f","ios":"levelo://app?vid=1bf4a72f-168a-4a92-980e-4bdc109c902f"},"vehicle_type_id":"4","last_reported":1743660866,"current_range_meters":7200,"station_id":"ce4bha12rcd13ifvqee0","pricing_plan_id":"cebpf4jnsgd1na2vs0mg"},{"bike_id":"1e56f8b0-0569-43fd-956b-7c3d45c8ba02","system_id":"levelo_inurba_marseille","lat":43.29319,"lon":5.41155,"is_reserved":false,"is_disabled":false,"rental_uris":{"android":"levelo://app?vid=1e56f8b0-0569-43fd-956b-7c3d45c8ba02","ios":"levelo://app?vid=1e56f8b0-0569-43fd-956b-7c3d45c8ba02"},"vehicle_type_id":"4","last_reported":1743660866,"current_range_meters":7200,"station_id":"","pricing_plan_id":"cebpf4jnsgd1na2vs0mg"},{"bike_id":"07b948fd-0b7e-4b47-9d1d-a7a5dd7bb21b","system_id":"levelo_inurba_marseille","lat":43.26188,"lon":5.37445,"is_reserved":false,"is_disabled":false,"rental_uris":{"android":"levelo://app?vid=07b948fd-0b7e-4b47-9d1d-a7a5dd7bb21b","ios":"levelo://app?vid=07b948fd-0b7e-4b47-9d1d-a7a5dd7bb21b"},"vehicle_type_id":"4","last_reported":1743660866,"current_range_meters":7200,"station_id":"ce4bhgp2rcd13ifvqfc0","pricing_plan_id":"cebpf4jnsgd1na2vs0mg"},{"bike_id":"91c7bfb6-21f8-485e-af20-a7fb2b72d379","system_id":"levelo_inurba_marseille","lat":43.24078,"lon":5.37753,"is_reserved":false,"is_disabled":false,"rental_uris":{"android":"levelo://app?vid=91c7bfb6-21f8-485e-af20-a7fb2b72d379","ios":"levelo://app?vid=91c7bfb6-21f8-485e-af20-a7fb2b72d379"},"vehicle_type_id":"4","last_reported":1743660866,"current_range_meters":7200,"station_id":"ce4bhnp2rcd13ifvqgvg","pricing_plan_id":"cebpf4jnsgd1na2vs0mg"},{"bike_id":"bedb9418-da38-4799-a541-d6651335dd1d","system_id":"levelo_inurba_marseille","lat":43.27165,"lon":5.40995,"is_reserved":false,"is_disabled":false,"rental_uris":{"android":"levelo://app?vid=bedb9418-da38-4799-a541-d6651335dd1d","ios":"levelo://app?vid=bedb9418-da38-4799-a541-d6651335dd1d"},"vehicle_type_id":"4","last_reported":1743660866,"current_range_meters":7200,"station_id":"ce4bhl12rcd13ifvqgf0","pricing_plan_id":"cebpf4jnsgd1na2vs0mg"},{"bike_id":"049c3675-6419-4de4-b9b0-23cbc3178a91","system_id":"levelo_inurba_marseille","lat":43.29598,"lon":5.381,"is_reserved":false,"is_disabled":false,"rental_uris":{"android":"levelo://app?vid=049c3675-6419-4de4-b9b0-23cbc3178a91","ios":"levelo://app?vid=049c3675-6419-4de4-b9b0-23cbc3178a91"},"vehicle_type_id":"4","last_reported":1743660866,"current_range_meters":7200,"station_id":"ce4bgl12rcd13ifvqbo0","pricing_plan_id":"cebpf4jnsgd1na2vs0mg"},{"bike_id":"ad0701ee-14d6-40ee-9cc0-de39a686153f","system_id":"levelo_inurba_marseille","lat":43.28711,"lon":5.3999,"is_reserved":false,"is_disabled":false,"rental_uris":{"android":"levelo://app?vid=ad0701ee-14d6-40ee-9cc0-de39a686153f","ios":"levelo://app?vid=ad0701ee-14d6-40ee-9cc0-de39a686153f"},"vehicle_type_id":"4","last_reported":1743660866,"current_range_meters":7200,"station_id":"ce4bho92rcd13ifvqh3g","pricing_plan_id":"cebpf4jnsgd1na2vs0mg"},{"bike_id":"620ba5da-f370-42b9-a07c-a3aa9a4ecc81","system_id":"levelo_inurba_marseille","lat":43.28408,"lon":5.37533,"is_reserved":false,"is_disabled":false,"rental_uris":{"android":"levelo://app?vid=620ba5da-f370-42b9-a07c-a3aa9a4ecc81","ios":"levelo://app?vid=620ba5da-f370-42b9-a07c-a3aa9a4ecc81"},"vehicle_type_id":"4","last_reported":1743660866,"current_range_meters":7200,"station_id":"ce4bh412rcd13ifvqds0","pricing_plan_id":"cebpf4jnsgd1na2vs0mg"},{"bike_id":"4863f73f-1240-42e9-847e-7edd4ccf4fea","system_id":"levelo_inurba_marseille","lat":43.30149,"lon":5.38091,"is_reserved":false,"is_disabled":false,"rental_uris":{"android":"levelo://app?vid=4863f73f-1240-42e9-847e-7edd4ccf4fea","ios":"levelo://app?vid=4863f73f-1240-42e9-847e-7edd4ccf4fea"},"vehicle_type_id":"4","last_reported":1743660866,"current_range_meters":7200,"station_id":"ce4bgjp2rcd13ifvqbh0","pricing_plan_id":"cebpf4jnsgd1na2vs0mg"},{"bike_id":"a82137ec-04ab-4cc9-a220-d6c9d53db615","system_id":"levelo_inurba_marseille","lat":43.307882,"lon":5.37637,"is_reserved":false,"is_disabled":false,"rental_uris":{"android":"levelo://app?vid=a82137ec-04ab-4cc9-a220-d6c9d53db615","ios":"levelo://app?vid=a82137ec-04ab-4cc9-a220-d6c9d53db615"},"vehicle_type_id":"4","last_reported":1743660866,"current_range_meters":8000,"station_id":"ce4bgv92rcd13ifvqcq0","pricing_plan_id":"cebpf4jnsgd1na2vs0mg"},{"bike_id":"04556df8-715f-45d8-b288-9c8fd51282f9","system_id":"levelo_inurba_marseille","lat":43.23191,"lon":5.355599,"is_reserved":false,"is_disabled":false,"rental_uris":{"android":"levelo://app?vid=04556df8-715f-45d8-b288-9c8fd51282f9","ios":"levelo://app?vid=04556df8-715f-45d8-b288-9c8fd51282f9"},"vehicle_type_id":"4","last_reported":1743660866,"current_range_meters":8000,"station_id":"ce4bhu92rcd13ifvqi70","pricing_plan_id":"cebpf4jnsgd1na2vs0mg"},{"bike_id":"988a4b2a-1fca-4561-9342-57ad8b6adb1c","system_id":"levelo_inurba_marseille","lat":43.22928,"lon":5.35387,"is_reserved":false,"is_disabled":false,"rental_uris":{"android":"levelo://app?vid=988a4b2a-1fca-4561-9342-57ad8b6adb1c","ios":"levelo://app?vid=988a4b2a-1fca-4561-9342-57ad8b6adb1c"},"vehicle_type_id":"4","last_reported":1743660866,"current_range_meters":8000,"station_id":"cpo3532slgdg3j2ikp40","pricing_plan_id":"cebpf4jnsgd1na2vs0mg"},{"bike_id":"0ade3eff-c700-456a-9363-c519687574dd","system_id":"levelo_inurba_marseille","lat":43.28656,"lon":5.386712,"is_reserved":false,"is_disabled":false,"rental_uris":{"android":"levelo://app?vid=0ade3eff-c700-456a-9363-c519687574dd","ios":"levelo://app?vid=0ade3eff-c700-456a-9363-c519687574dd"},"vehicle_type_id":"4","last_reported":1743660866,"current_range_meters":8000,"station_id":"ce4bh012rcd13ifvqcv0","pricing_plan_id":"cebpf4jnsgd1na2vs0mg"},{"bike_id":"f87e996c-206a-47d9-8697-84a2d463fdc3","system_id":"levelo_inurba_marseille","lat":43.23189,"lon":5.35554,"is_reserved":false,"is_disabled":false,"rental_uris":{"android":"levelo://app?vid=f87e996c-206a-47d9-8697-84a2d463fdc3","ios":"levelo://app?vid=f87e996c-206a-47d9-8697-84a2d463fdc3"},"vehicle_type_id":"4","last_reported":1743660866,"current_range_meters":8000,"station_id":"ce4bhu92rcd13ifvqi70","pricing_plan_id":"cebpf4jnsgd1na2vs0mg"},{"bike_id":"920f6ca0-0606-4d4f-8258-619f9f19df50","system_id":"levelo_inurba_marseille","lat":43.289176,"lon":5.383997,"is_reserved":false,"is_disabled":true,"rental_uris":{"android":"levelo://app?vid=920f6ca0-0606-4d4f-8258-619f9f19df50","ios":"levelo://app?vid=920f6ca0-0606-4d4f-8258-619f9f19df50"},"vehicle_type_id":"4","last_reported":1743660866,"current_range_meters":8000,"station_id":"ce4bh612rcd13ifvqe6g","pricing_plan_id":"cebpf4jnsgd1na2vs0mg"},{"bike_id":"fe147b08-794f-4cc8-a62c-e589ca5791a1","system_id":"levelo_inurba_marseille","lat":43.25932,"lon":5.40915,"is_reserved":false,"is_disabled":false,"rental_uris":{"android":"levelo://app?vid=fe147b08-794f-4cc8-a62c-e589ca5791a1","ios":"levelo://app?vid=fe147b08-794f-4cc8-a62c-e589ca5791a1"},"vehicle_type_id":"4","last_reported":1743660866,"current_range_meters":8000,"station_id":"ce4bhm92rcd13ifvqglg","pricing_plan_id":"cebpf4jnsgd1na2vs0mg"},{"bike_id":"a112ce08-6f4e-41f2-873e-94895f2e1506","system_id":"levelo_inurba_marseille","lat":43.27682,"lon":5.38937,"is_reserved":false,"is_disabled":true,"rental_uris":{"android":"levelo://app?vid=a112ce08-6f4e-41f2-873e-94895f2e1506","ios":"levelo://app?vid=a112ce08-6f4e-41f2-873e-94895f2e1506"},"vehicle_type_id":"4","last_reported":1743660866,"current_range_meters":8000,"station_id":"ce4bhi12rcd13ifvqfo0","pricing_plan_id":"cebpf4jnsgd1na2vs0mg"},{"bike_id":"49428efe-bbd8-4963-9aaf-ed822fd5c61b","system_id":"levelo_inurba_marseille","lat":43.29191,"lon":5.44375,"is_reserved":false,"is_disabled":false,"rental_uris":{"android":"levelo://app?vid=49428efe-bbd8-4963-9aaf-ed822fd5c61b","ios":"levelo://app?vid=49428efe-bbd8-4963-9aaf-ed822fd5c61b"},"vehicle_type_id":"4","last_reported":1743660866,"current_range_meters":8000,"station_id":"","pricing_plan_id":"cebpf4jnsgd1na2vs0mg"},{"bike_id":"546380d0-0813-4737-817f-a21e056e8d2e","system_id":"levelo_inurba_marseille","lat":43.3236,"lon":5.3676,"is_reserved":false,"is_disabled":false,"rental_uris":{"android":"levelo://app?vid=546380d0-0813-4737-817f-a21e056e8d2e","ios":"levelo://app?vid=546380d0-0813-4737-817f-a21e056e8d2e"},"vehicle_type_id":"4","last_reported":1743660866,"current_range_meters":8000,"station_id":"ce4bhsh2rcd13ifvqi2g","pricing_plan_id":"cebpf4jnsgd1na2vs0mg"},{"bike_id":"f103e6d0-67b4-446b-a81f-9e09dc680270","system_id":"levelo_inurba_marseille","lat":43.28094,"lon":5.37865,"is_reserved":false,"is_disabled":false,"rental_uris":{"android":"levelo://app?vid=f103e6d0-67b4-446b-a81f-9e09dc680270","ios":"levelo://app?vid=f103e6d0-67b4-446b-a81f-9e09dc680270"},"vehicle_type_id":"4","last_reported":1743660866,"current_range_meters":8000,"station_id":"ce4bha12rcd13ifvqee0","pricing_plan_id":"cebpf4jnsgd1na2vs0mg"},{"bike_id":"63bb044e-fd05-4a43-97e1-effab21e1a61","system_id":"levelo_inurba_marseille","lat":43.26551,"lon":5.37293,"is_reserved":false,"is_disabled":false,"rental_uris":{"android":"levelo://app?vid=63bb044e-fd05-4a43-97e1-effab21e1a61","ios":"levelo://app?vid=63bb044e-fd05-4a43-97e1-effab21e1a61"},"vehicle_type_id":"4","last_reported":1743660866,"current_range_meters":8000,"station_id":"ce4bhg12rcd13ifvqf70","pricing_plan_id":"cebpf4jnsgd1na2vs0mg"},{"bike_id":"2e1d0491-8046-4a1c-910c-6d230f4ca468","system_id":"levelo_inurba_marseille","lat":43.306648,"lon":5.373759,"is_reserved":false,"is_disabled":false,"rental_uris":{"android":"levelo://app?vid=2e1d0491-8046-4a1c-910c-6d230f4ca468","ios":"levelo://app?vid=2e1d0491-8046-4a1c-910c-6d230f4ca468"},"vehicle_type_id":"4","last_reported":1743660866,"current_range_meters":8000,"station_id":"","pricing_plan_id":"cebpf4jnsgd1na2vs0mg"},{"bike_id":"7f7c87e7-a9a6-4c07-9446-85f1b5f7525b","system_id":"levelo_inurba_marseille","lat":43.27295,"lon":5.39084,"is_reserved":false,"is_disabled":false,"rental_uris":{"android":"levelo://app?vid=7f7c87e7-a9a6-4c07-9446-85f1b5f7525b","ios":"levelo://app?vid=7f7c87e7-a9a6-4c07-9446-85f1b5f7525b"},"vehicle_type_id":"4","last_reported":1743660866,"current_range_meters":8000,"station_id":"ce4bhgp2rcd13ifvqfe0","pricing_plan_id":"cebpf4jnsgd1na2vs0mg"},{"bike_id":"1aff6b34-2de5-409e-acb1-12114a2a43e3","system_id":"levelo_inurba_marseille","lat":43.28142,"lon":5.42646,"is_reserved":false,"is_disabled":false,"rental_uris":{"android":"levelo://app?vid=1aff6b34-2de5-409e-acb1-12114a2a43e3","ios":"levelo://app?vid=1aff6b34-2de5-409e-acb1-12114a2a43e3"},"vehicle_type_id":"4","last_reported":1743660866,"current_range_meters":8400,"station_id":"ce4bhnh2rcd13ifvqgug","pricing_plan_id":"cebpf4jnsgd1na2vs0mg"},{"bike_id":"6e6a66e5-58ca-4db1-9695-b46ed5c28827","system_id":"levelo_inurba_marseille","lat":43.31808,"lon":5.36848,"is_reserved":false,"is_disabled":false,"rental_uris":{"android":"levelo://app?vid=6e6a66e5-58ca-4db1-9695-b46ed5c28827","ios":"levelo://app?vid=6e6a66e5-58ca-4db1-9695-b46ed5c28827"},"vehicle_type_id":"4","last_reported":1743660866,"current_range_meters":8400,"station_id":"","pricing_plan_id":"cebpf4jnsgd1na2vs0mg"},{"bike_id":"d97c6895-9a58-42bd-9edc-053f218b5b60","system_id":"levelo_inurba_marseille","lat":43.29504,"lon":5.3638,"is_reserved":false,"is_disabled":false,"rental_uris":{"android":"levelo://app?vid=d97c6895-9a58-42bd-9edc-053f218b5b60","ios":"levelo://app?vid=d97c6895-9a58-42bd-9edc-053f218b5b60"},"vehicle_type_id":"4","last_reported":1743660866,"current_range_meters":8400,"station_id":"","pricing_plan_id":"cebpf4jnsgd1na2vs0mg"},{"bike_id":"9f4fb0ac-b07c-43ba-b203-5931f9b2963b","system_id":"levelo_inurba_marseille","lat":43.30454,"lon":5.37917,"is_reserved":false,"is_disabled":false,"rental_uris":{"android":"levelo://app?vid=9f4fb0ac-b07c-43ba-b203-5931f9b2963b","ios":"levelo://app?vid=9f4fb0ac-b07c-43ba-b203-5931f9b2963b"},"vehicle_type_id":"4","last_reported":1743660866,"current_range_meters":8400,"station_id":"ce4bgup2rcd13ifvqcn0","pricing_plan_id":"cebpf4jnsgd1na2vs0mg"},{"bike_id":"c13962cb-474e-4e8e-b6f2-e3bb01716342","system_id":"levelo_inurba_marseille","lat":43.30538,"lon":5.36548,"is_reserved":false,"is_disabled":false,"rental_uris":{"android":"levelo://app?vid=c13962cb-474e-4e8e-b6f2-e3bb01716342","ios":"levelo://app?vid=c13962cb-474e-4e8e-b6f2-e3bb01716342"},"vehicle_type_id":"4","last_reported":1743660866,"current_range_meters":8400,"station_id":"ce4bgs12rcd13ifvqcag","pricing_plan_id":"cebpf4jnsgd1na2vs0mg"},{"bike_id":"8d2c5831-5cdd-4f87-8589-2d34f0df351b","system_id":"levelo_inurba_marseille","lat":43.32995,"lon":5.39061,"is_reserved":false,"is_disabled":false,"rental_uris":{"android":"levelo://app?vid=8d2c5831-5cdd-4f87-8589-2d34f0df351b","ios":"levelo://app?vid=8d2c5831-5cdd-4f87-8589-2d34f0df351b"},"vehicle_type_id":"4","last_reported":1743660866,"current_range_meters":8400,"station_id":"ce4bhr92rcd13ifvqhrg","pricing_plan_id":"cebpf4jnsgd1na2vs0mg"},{"bike_id":"19ac9638-906b-4a9c-9252-de49633c3e89","system_id":"levelo_inurba_marseille","lat":43.272644,"lon":5.411622,"is_reserved":false,"is_disabled":false,"rental_uris":{"android":"levelo://app?vid=19ac9638-906b-4a9c-9252-de49633c3e89","ios":"levelo://app?vid=19ac9638-906b-4a9c-9252-de49633c3e89"},"vehicle_type_id":"4","last_reported":1743660866,"current_range_meters":8400,"station_id":"ce4bhk92rcd13ifvqgb0","pricing_plan_id":"cebpf4jnsgd1na2vs0mg"},{"bike_id":"7ba67d0a-4dd2-434e-9233-c217be617343","system_id":"levelo_inurba_marseille","lat":43.3377,"lon":5.37461,"is_reserved":false,"is_disabled":false,"rental_uris":{"android":"levelo://app?vid=7ba67d0a-4dd2-434e-9233-c217be617343","ios":"levelo://app?vid=7ba67d0a-4dd2-434e-9233-c217be617343"},"vehicle_type_id":"4","last_reported":1743660866,"current_range_meters":8800,"station_id":"","pricing_plan_id":"cebpf4jnsgd1na2vs0mg"},{"bike_id":"5ce0a5d2-5312-4774-85e5-8a712dba0920","system_id":"levelo_inurba_marseille","lat":43.29579,"lon":5.38108,"is_reserved":false,"is_disabled":false,"rental_uris":{"android":"levelo://app?vid=5ce0a5d2-5312-4774-85e5-8a712dba0920","ios":"levelo://app?vid=5ce0a5d2-5312-4774-85e5-8a712dba0920"},"vehicle_type_id":"4","last_reported":1743660866,"current_range_meters":8800,"station_id":"ce4bgl12rcd13ifvqbo0","pricing_plan_id":"cebpf4jnsgd1na2vs0mg"},{"bike_id":"a4d6c0ce-d5fd-4ac9-98cc-4bef6acfd763","system_id":"levelo_inurba_marseille","lat":43.30879,"lon":5.39613,"is_reserved":false,"is_disabled":false,"rental_uris":{"android":"levelo://app?vid=a4d6c0ce-d5fd-4ac9-98cc-4bef6acfd763","ios":"levelo://app?vid=a4d6c0ce-d5fd-4ac9-98cc-4bef6acfd763"},"vehicle_type_id":"4","last_reported":1743660866,"current_range_meters":8800,"station_id":"ce4bh012rcd13ifvqcv0","pricing_plan_id":"cebpf4jnsgd1na2vs0mg"},{"bike_id":"32a978e0-d0c2-43d4-9b03-19a5c41c27de","system_id":"levelo_inurba_marseille","lat":43.31056,"lon":5.38348,"is_reserved":false,"is_disabled":true,"rental_uris":{"android":"levelo://app?vid=32a978e0-d0c2-43d4-9b03-19a5c41c27de","ios":"levelo://app?vid=32a978e0-d0c2-43d4-9b03-19a5c41c27de"},"vehicle_type_id":"4","last_reported":1743660866,"current_range_meters":8800,"station_id":"ce4bgv92rcd13ifvqcr0","pricing_plan_id":"cebpf4jnsgd1na2vs0mg"},{"bike_id":"c7bcfcce-85fd-402f-9f72-d5775fbcd6d4","system_id":"levelo_inurba_marseille","lat":43.2846,"lon":5.35885,"is_reserved":false,"is_disabled":false,"rental_uris":{"android":"levelo://app?vid=c7bcfcce-85fd-402f-9f72-d5775fbcd6d4","ios":"levelo://app?vid=c7bcfcce-85fd-402f-9f72-d5775fbcd6d4"},"vehicle_type_id":"4","last_reported":1743660866,"current_range_meters":8800,"station_id":"ce4bhah2rcd13ifvqei0","pricing_plan_id":"cebpf4jnsgd1na2vs0mg"},{"bike_id":"f8dc6029-025c-47cd-8921-5ce023e19c20","system_id":"levelo_inurba_marseille","lat":43.319923,"lon":5.381624,"is_reserved":false,"is_disabled":false,"rental_uris":{"android":"levelo://app?vid=f8dc6029-025c-47cd-8921-5ce023e19c20","ios":"levelo://app?vid=f8dc6029-025c-47cd-8921-5ce023e19c20"},"vehicle_type_id":"4","last_reported":1743660866,"current_range_meters":8800,"station_id":"ce4bhr12rcd13ifvqhpg","pricing_plan_id":"cebpf4jnsgd1na2vs0mg"},{"bike_id":"f4b3c781-c46b-42d3-9ff9-fac436734dd4","system_id":"levelo_inurba_marseille","lat":43.30886,"lon":5.39642,"is_reserved":false,"is_disabled":false,"rental_uris":{"android":"levelo://app?vid=f4b3c781-c46b-42d3-9ff9-fac436734dd4","ios":"levelo://app?vid=f4b3c781-c46b-42d3-9ff9-fac436734dd4"},"vehicle_type_id":"4","last_reported":1743660866,"current_range_meters":8800,"station_id":"ce4bh012rcd13ifvqcv0","pricing_plan_id":"cebpf4jnsgd1na2vs0mg"},{"bike_id":"b6c83da9-b3c4-4843-9a1d-36871e12515b","system_id":"levelo_inurba_marseille","lat":43.26112,"lon":5.41473,"is_reserved":false,"is_disabled":false,"rental_uris":{"android":"levelo://app?vid=b6c83da9-b3c4-4843-9a1d-36871e12515b","ios":"levelo://app?vid=b6c83da9-b3c4-4843-9a1d-36871e12515b"},"vehicle_type_id":"4","last_reported":1743660866,"current_range_meters":8800,"station_id":"","pricing_plan_id":"cebpf4jnsgd1na2vs0mg"},{"bike_id":"ea464bc9-6baf-477f-8592-2d7142958a22","system_id":"levelo_inurba_marseille","lat":43.26691,"lon":5.38275,"is_reserved":false,"is_disabled":true,"rental_uris":{"android":"levelo://app?vid=ea464bc9-6baf-477f-8592-2d7142958a22","ios":"levelo://app?vid=ea464bc9-6baf-477f-8592-2d7142958a22"},"vehicle_type_id":"4","last_reported":1743660866,"current_range_meters":8800,"station_id":"ce4bhg92rcd13ifvqf90","pricing_plan_id":"cebpf4jnsgd1na2vs0mg"},{"bike_id":"75dae32f-059a-4b5b-a5e8-963c6eda2f66","system_id":"levelo_inurba_marseille","lat":43.27517,"lon":5.41006,"is_reserved":false,"is_disabled":false,"rental_uris":{"android":"levelo://app?vid=75dae32f-059a-4b5b-a5e8-963c6eda2f66","ios":"levelo://app?vid=75dae32f-059a-4b5b-a5e8-963c6eda2f66"},"vehicle_type_id":"4","last_reported":1743660866,"current_range_meters":8800,"station_id":"","pricing_plan_id":"cebpf4jnsgd1na2vs0mg"},{"bike_id":"47ca9333-aa29-46ac-917c-802b1a3c3702","system_id":"levelo_inurba_marseille","lat":43.24074,"lon":5.3776,"is_reserved":false,"is_disabled":false,"rental_uris":{"android":"levelo://app?vid=47ca9333-aa29-46ac-917c-802b1a3c3702","ios":"levelo://app?vid=47ca9333-aa29-46ac-917c-802b1a3c3702"},"vehicle_type_id":"4","last_reported":1743660866,"current_range_meters":9200,"station_id":"ce4bhnp2rcd13ifvqgvg","pricing_plan_id":"cebpf4jnsgd1na2vs0mg"},{"bike_id":"c2e6881a-04a3-4a38-9cc0-75cacf165e78","system_id":"levelo_inurba_marseille","lat":43.28832,"lon":5.364645,"is_reserved":false,"is_disabled":false,"rental_uris":{"android":"levelo://app?vid=c2e6881a-04a3-4a38-9cc0-75cacf165e78","ios":"levelo://app?vid=c2e6881a-04a3-4a38-9cc0-75cacf165e78"},"vehicle_type_id":"4","last_reported":1743660866,"current_range_meters":9200,"station_id":"","pricing_plan_id":"cebpf4jnsgd1na2vs0mg"},{"bike_id":"7e518bd1-a3c5-4718-b257-c0d50b977d20","system_id":"levelo_inurba_marseille","lat":43.25861,"lon":5.39897,"is_reserved":false,"is_disabled":true,"rental_uris":{"android":"levelo://app?vid=7e518bd1-a3c5-4718-b257-c0d50b977d20","ios":"levelo://app?vid=7e518bd1-a3c5-4718-b257-c0d50b977d20"},"vehicle_type_id":"4","last_reported":1743660866,"current_range_meters":9200,"station_id":"ce4bhl92rcd13ifvqghg","pricing_plan_id":"cebpf4jnsgd1na2vs0mg"},{"bike_id":"75d539a7-27d8-4b69-a620-5911b9e2046e","system_id":"levelo_inurba_marseille","lat":43.28708,"lon":5.37942,"is_reserved":false,"is_disabled":false,"rental_uris":{"android":"levelo://app?vid=75d539a7-27d8-4b69-a620-5911b9e2046e","ios":"levelo://app?vid=75d539a7-27d8-4b69-a620-5911b9e2046e"},"vehicle_type_id":"4","last_reported":1743660866,"current_range_meters":9200,"station_id":"ce4bh9p2rcd13ifvqec0","pricing_plan_id":"cebpf4jnsgd1na2vs0mg"},{"bike_id":"cf1e53ae-b855-4ff1-83cf-4764ba2133f9","system_id":"levelo_inurba_marseille","lat":43.28858,"lon":5.35885,"is_reserved":false,"is_disabled":false,"rental_uris":{"android":"levelo://app?vid=cf1e53ae-b855-4ff1-83cf-4764ba2133f9","ios":"levelo://app?vid=cf1e53ae-b855-4ff1-83cf-4764ba2133f9"},"vehicle_type_id":"4","last_reported":1743660866,"current_range_meters":9200,"station_id":"ce4bhb12rcd13ifvqem0","pricing_plan_id":"cebpf4jnsgd1na2vs0mg"},{"bike_id":"b5fa61b4-55c0-4d0f-b518-f0583e71aca3","system_id":"levelo_inurba_marseille","lat":43.2292,"lon":5.35392,"is_reserved":false,"is_disabled":false,"rental_uris":{"android":"levelo://app?vid=b5fa61b4-55c0-4d0f-b518-f0583e71aca3","ios":"levelo://app?vid=b5fa61b4-55c0-4d0f-b518-f0583e71aca3"},"vehicle_type_id":"4","last_reported":1743660866,"current_range_meters":9200,"station_id":"cpo3532slgdg3j2ikp40","pricing_plan_id":"cebpf4jnsgd1na2vs0mg"},{"bike_id":"7514852b-340a-4392-a4d2-9a84e0d03998","system_id":"levelo_inurba_marseille","lat":43.33283,"lon":5.39687,"is_reserved":false,"is_disabled":false,"rental_uris":{"android":"levelo://app?vid=7514852b-340a-4392-a4d2-9a84e0d03998","ios":"levelo://app?vid=7514852b-340a-4392-a4d2-9a84e0d03998"},"vehicle_type_id":"4","last_reported":1743660866,"current_range_meters":9200,"station_id":"","pricing_plan_id":"cebpf4jnsgd1na2vs0mg"},{"bike_id":"4066b0af-d68a-484c-8724-3a2ea58a4704","system_id":"levelo_inurba_marseille","lat":43.29796,"lon":5.38105,"is_reserved":false,"is_disabled":false,"rental_uris":{"android":"levelo://app?vid=4066b0af-d68a-484c-8724-3a2ea58a4704","ios":"levelo://app?vid=4066b0af-d68a-484c-8724-3a2ea58a4704"},"vehicle_type_id":"4","last_reported":1743660866,"current_range_meters":9200,"station_id":"ce4bgip2rcd13ifvqbb0","pricing_plan_id":"cebpf4jnsgd1na2vs0mg"},{"bike_id":"82be00d7-07cd-447f-a119-c8efb6be13a1","system_id":"levelo_inurba_marseille","lat":43.323643,"lon":5.388884,"is_reserved":false,"is_disabled":false,"rental_uris":{"android":"levelo://app?vid=82be00d7-07cd-447f-a119-c8efb6be13a1","ios":"levelo://app?vid=82be00d7-07cd-447f-a119-c8efb6be13a1"},"vehicle_type_id":"4","last_reported":1743660866,"current_range_meters":9200,"station_id":"ce4bhqp2rcd13ifvqhog","pricing_plan_id":"cebpf4jnsgd1na2vs0mg"},{"bike_id":"6fd3d18f-c3b5-4d07-8160-12fc5c26448c","system_id":"levelo_inurba_marseille","lat":43.32333,"lon":5.3885,"is_reserved":false,"is_disabled":false,"rental_uris":{"android":"levelo://app?vid=6fd3d18f-c3b5-4d07-8160-12fc5c26448c","ios":"levelo://app?vid=6fd3d18f-c3b5-4d07-8160-12fc5c26448c"},"vehicle_type_id":"4","last_reported":1743660866,"current_range_meters":9200,"station_id":"ce4bhqp2rcd13ifvqhog","pricing_plan_id":"cebpf4jnsgd1na2vs0mg"},{"bike_id":"e1b03b21-5eb0-483c-b4ac-ea8a29304382","system_id":"levelo_inurba_marseille","lat":43.23055,"lon":5.35508,"is_reserved":false,"is_disabled":false,"rental_uris":{"android":"levelo://app?vid=e1b03b21-5eb0-483c-b4ac-ea8a29304382","ios":"levelo://app?vid=e1b03b21-5eb0-483c-b4ac-ea8a29304382"},"vehicle_type_id":"4","last_reported":1743660866,"current_range_meters":9600,"station_id":"cpo3342slgdg3j2ifvpg","pricing_plan_id":"cebpf4jnsgd1na2vs0mg"},{"bike_id":"915a352d-4bee-44a6-acdd-d714f3d678fb","system_id":"levelo_inurba_marseille","lat":43.27507,"lon":5.42436,"is_reserved":false,"is_disabled":false,"rental_uris":{"android":"levelo://app?vid=915a352d-4bee-44a6-acdd-d714f3d678fb","ios":"levelo://app?vid=915a352d-4bee-44a6-acdd-d714f3d678fb"},"vehicle_type_id":"4","last_reported":1743660866,"current_range_meters":9600,"station_id":"ce4bhn92rcd13ifvqgrg","pricing_plan_id":"cebpf4jnsgd1na2vs0mg"},{"bike_id":"13a2f3b9-6f14-4d73-a8cc-fe9cf612b146","system_id":"levelo_inurba_marseille","lat":43.30458,"lon":5.37925,"is_reserved":false,"is_disabled":false,"rental_uris":{"android":"levelo://app?vid=13a2f3b9-6f14-4d73-a8cc-fe9cf612b146","ios":"levelo://app?vid=13a2f3b9-6f14-4d73-a8cc-fe9cf612b146"},"vehicle_type_id":"4","last_reported":1743660866,"current_range_meters":9600,"station_id":"ce4bgup2rcd13ifvqcn0","pricing_plan_id":"cebpf4jnsgd1na2vs0mg"},{"bike_id":"403d4df5-4ee0-477c-81ff-c96924d51bf3","system_id":"levelo_inurba_marseille","lat":43.2923,"lon":5.36499,"is_reserved":false,"is_disabled":false,"rental_uris":{"android":"levelo://app?vid=403d4df5-4ee0-477c-81ff-c96924d51bf3","ios":"levelo://app?vid=403d4df5-4ee0-477c-81ff-c96924d51bf3"},"vehicle_type_id":"4","last_reported":1743660866,"current_range_meters":9600,"station_id":"ce4bgjp2rcd13ifvqbh0","pricing_plan_id":"cebpf4jnsgd1na2vs0mg"},{"bike_id":"09a8a7dc-25ab-48a6-ac8b-5ee88a884479","system_id":"levelo_inurba_marseille","lat":43.28553,"lon":5.38386,"is_reserved":false,"is_disabled":false,"rental_uris":{"android":"levelo://app?vid=09a8a7dc-25ab-48a6-ac8b-5ee88a884479","ios":"levelo://app?vid=09a8a7dc-25ab-48a6-ac8b-5ee88a884479"},"vehicle_type_id":"4","last_reported":1743660866,"current_range_meters":9600,"station_id":"","pricing_plan_id":"cebpf4jnsgd1na2vs0mg"},{"bike_id":"cd83c8ac-ed09-4369-9279-b6f36f2bbd3c","system_id":"levelo_inurba_marseille","lat":43.30805,"lon":5.38234,"is_reserved":false,"is_disabled":false,"rental_uris":{"android":"levelo://app?vid=cd83c8ac-ed09-4369-9279-b6f36f2bbd3c","ios":"levelo://app?vid=cd83c8ac-ed09-4369-9279-b6f36f2bbd3c"},"vehicle_type_id":"4","last_reported":1743660866,"current_range_meters":10000,"station_id":"","pricing_plan_id":"cebpf4jnsgd1na2vs0mg"},{"bike_id":"0041eaab-0241-4f25-bdce-66a405256e07","system_id":"levelo_inurba_marseille","lat":43.26553,"lon":5.39004,"is_reserved":false,"is_disabled":false,"rental_uris":{"android":"levelo://app?vid=0041eaab-0241-4f25-bdce-66a405256e07","ios":"levelo://app?vid=0041eaab-0241-4f25-bdce-66a405256e07"},"vehicle_type_id":"4","last_reported":1743660866,"current_range_meters":10000,"station_id":"ce4bhe12rcd13ifvqf30","pricing_plan_id":"cebpf4jnsgd1na2vs0mg"},{"bike_id":"7d49898d-4c6e-4131-9fdb-37de62f2c79c","system_id":"levelo_inurba_marseille","lat":43.288964,"lon":5.371283,"is_reserved":false,"is_disabled":false,"rental_uris":{"android":"levelo://app?vid=7d49898d-4c6e-4131-9fdb-37de62f2c79c","ios":"levelo://app?vid=7d49898d-4c6e-4131-9fdb-37de62f2c79c"},"vehicle_type_id":"4","last_reported":1743660866,"current_range_meters":10000,"station_id":"","pricing_plan_id":"cebpf4jnsgd1na2vs0mg"},{"bike_id":"2f755ed7-02ae-4465-a223-ac013586f7c9","system_id":"levelo_inurba_marseille","lat":43.33601,"lon":5.41022,"is_reserved":false,"is_disabled":false,"rental_uris":{"android":"levelo://app?vid=2f755ed7-02ae-4465-a223-ac013586f7c9","ios":"levelo://app?vid=2f755ed7-02ae-4465-a223-ac013586f7c9"},"vehicle_type_id":"4","last_reported":1743660866,"current_range_meters":10000,"station_id":"ce4bhqh2rcd13ifvqhmg","pricing_plan_id":"cebpf4jnsgd1na2vs0mg"},{"bike_id":"56a72aaa-efb7-401f-919a-daa88347a789","system_id":"levelo_inurba_marseille","lat":43.306902,"lon":5.395019,"is_reserved":false,"is_disabled":false,"rental_uris":{"android":"levelo://app?vid=56a72aaa-efb7-401f-919a-daa88347a789","ios":"levelo://app?vid=56a72aaa-efb7-401f-919a-daa88347a789"},"vehicle_type_id":"4","last_reported":1743660866,"current_range_meters":9600,"station_id":"ce4bgvp2rcd13ifvqcu0","pricing_plan_id":"cebpf4jnsgd1na2vs0mg"},{"bike_id":"806f15f5-826d-41fe-94bf-7198bfd375b1","system_id":"levelo_inurba_marseille","lat":43.231507,"lon":5.437204,"is_reserved":false,"is_disabled":false,"rental_uris":{"android":"levelo://app?vid=806f15f5-826d-41fe-94bf-7198bfd375b1","ios":"levelo://app?vid=806f15f5-826d-41fe-94bf-7198bfd375b1"},"vehicle_type_id":"4","last_reported":1743660866,"current_range_meters":10000,"station_id":"ce4bhmp2rcd13ifvqgog","pricing_plan_id":"cebpf4jnsgd1na2vs0mg"},{"bike_id":"c3d031ab-6924-4d90-987b-e9712512a57f","system_id":"levelo_inurba_marseille","lat":43.30561,"lon":5.367381,"is_reserved":false,"is_disabled":false,"rental_uris":{"android":"levelo://app?vid=c3d031ab-6924-4d90-987b-e9712512a57f","ios":"levelo://app?vid=c3d031ab-6924-4d90-987b-e9712512a57f"},"vehicle_type_id":"4","last_reported":1743660866,"current_range_meters":9600,"station_id":"ce4bgrp2rcd13ifvqc9g","pricing_plan_id":"cebpf4jnsgd1na2vs0mg"},{"bike_id":"b0b9043f-ee2a-42fd-b9e9-fdb51c34c8ca","system_id":"levelo_inurba_marseille","lat":43.30475,"lon":5.37918,"is_reserved":false,"is_disabled":false,"rental_uris":{"android":"levelo://app?vid=b0b9043f-ee2a-42fd-b9e9-fdb51c34c8ca","ios":"levelo://app?vid=b0b9043f-ee2a-42fd-b9e9-fdb51c34c8ca"},"vehicle_type_id":"4","last_reported":1743660866,"current_range_meters":10000,"station_id":"ce4bgup2rcd13ifvqcn0","pricing_plan_id":"cebpf4jnsgd1na2vs0mg"},{"bike_id":"bbe1cc98-f129-434e-b6ca-6f7fe6d70d0c","system_id":"levelo_inurba_marseille","lat":43.29276,"lon":5.40118,"is_reserved":false,"is_disabled":false,"rental_uris":{"android":"levelo://app?vid=bbe1cc98-f129-434e-b6ca-6f7fe6d70d0c","ios":"levelo://app?vid=bbe1cc98-f129-434e-b6ca-6f7fe6d70d0c"},"vehicle_type_id":"4","last_reported":1743660866,"current_range_meters":10800,"station_id":"ce4bh312rcd13ifvqdk0","pricing_plan_id":"cebpf4jnsgd1na2vs0mg"},{"bike_id":"b86b5b87-f029-48ac-aa00-3a50d7e2c1d2","system_id":"levelo_inurba_marseille","lat":43.32351,"lon":5.36681,"is_reserved":false,"is_disabled":true,"rental_uris":{"android":"levelo://app?vid=b86b5b87-f029-48ac-aa00-3a50d7e2c1d2","ios":"levelo://app?vid=b86b5b87-f029-48ac-aa00-3a50d7e2c1d2"},"vehicle_type_id":"4","last_reported":1743660866,"current_range_meters":10800,"station_id":"ce4bhsh2rcd13ifvqi2g","pricing_plan_id":"cebpf4jnsgd1na2vs0mg"},{"bike_id":"49b888c2-915c-4269-bb91-c9c80d883f56","system_id":"levelo_inurba_marseille","lat":43.289716,"lon":5.365621,"is_reserved":false,"is_disabled":false,"rental_uris":{"android":"levelo://app?vid=49b888c2-915c-4269-bb91-c9c80d883f56","ios":"levelo://app?vid=49b888c2-915c-4269-bb91-c9c80d883f56"},"vehicle_type_id":"4","last_reported":1743660866,"current_range_meters":10800,"station_id":"ce4bhc92rcd13ifvqetg","pricing_plan_id":"cebpf4jnsgd1na2vs0mg"},{"bike_id":"3f963879-f377-429e-ad0d-fb2891869682","system_id":"levelo_inurba_marseille","lat":43.28342,"lon":5.38094,"is_reserved":false,"is_disabled":false,"rental_uris":{"android":"levelo://app?vid=3f963879-f377-429e-ad0d-fb2891869682","ios":"levelo://app?vid=3f963879-f377-429e-ad0d-fb2891869682"},"vehicle_type_id":"4","last_reported":1743660866,"current_range_meters":11200,"station_id":"ce4bh412rcd13ifvqdr0","pricing_plan_id":"cebpf4jnsgd1na2vs0mg"},{"bike_id":"87cd5f39-f045-4072-a7a3-1a7ce96ef977","system_id":"levelo_inurba_marseille","lat":43.31271,"lon":5.40167,"is_reserved":false,"is_disabled":false,"rental_uris":{"android":"levelo://app?vid=87cd5f39-f045-4072-a7a3-1a7ce96ef977","ios":"levelo://app?vid=87cd5f39-f045-4072-a7a3-1a7ce96ef977"},"vehicle_type_id":"4","last_reported":1743660866,"current_range_meters":11200,"station_id":"ce4bh092rcd13ifvqd30","pricing_plan_id":"cebpf4jnsgd1na2vs0mg"},{"bike_id":"d01ad428-f89b-4b6e-92e4-6189b7063b26","system_id":"levelo_inurba_marseille","lat":43.24546,"lon":5.39522,"is_reserved":false,"is_disabled":false,"rental_uris":{"android":"levelo://app?vid=d01ad428-f89b-4b6e-92e4-6189b7063b26","ios":"levelo://app?vid=d01ad428-f89b-4b6e-92e4-6189b7063b26"},"vehicle_type_id":"4","last_reported":1743660866,"current_range_meters":11200,"station_id":"ce4bhlp2rcd13ifvqgjg","pricing_plan_id":"cebpf4jnsgd1na2vs0mg"},{"bike_id":"2635283e-ffd4-4c1f-b9e8-1b146ac4c8cc","system_id":"levelo_inurba_marseille","lat":43.30198,"lon":5.41925,"is_reserved":false,"is_disabled":false,"rental_uris":{"android":"levelo://app?vid=2635283e-ffd4-4c1f-b9e8-1b146ac4c8cc","ios":"levelo://app?vid=2635283e-ffd4-4c1f-b9e8-1b146ac4c8cc"},"vehicle_type_id":"4","last_reported":1743660866,"current_range_meters":11200,"station_id":"","pricing_plan_id":"cebpf4jnsgd1na2vs0mg"},{"bike_id":"e5a192f8-e3bf-4543-87f4-413cedbb21aa","system_id":"levelo_inurba_marseille","lat":43.30528,"lon":5.36558,"is_reserved":false,"is_disabled":false,"rental_uris":{"android":"levelo://app?vid=e5a192f8-e3bf-4543-87f4-413cedbb21aa","ios":"levelo://app?vid=e5a192f8-e3bf-4543-87f4-413cedbb21aa"},"vehicle_type_id":"4","last_reported":1743660866,"current_range_meters":10800,"station_id":"ce4bgs12rcd13ifvqcag","pricing_plan_id":"cebpf4jnsgd1na2vs0mg"},{"bike_id":"e56a79fc-2683-44df-b3ee-0e8cbb5e69ca","system_id":"levelo_inurba_marseille","lat":43.3153,"lon":5.38029,"is_reserved":false,"is_disabled":false,"rental_uris":{"android":"levelo://app?vid=e56a79fc-2683-44df-b3ee-0e8cbb5e69ca","ios":"levelo://app?vid=e56a79fc-2683-44df-b3ee-0e8cbb5e69ca"},"vehicle_type_id":"4","last_reported":1743660866,"current_range_meters":11600,"station_id":"ce4bhsp2rcd13ifvqi50","pricing_plan_id":"cebpf4jnsgd1na2vs0mg"},{"bike_id":"2b7563bf-72ce-4546-bdfe-0681f54925e9","system_id":"levelo_inurba_marseille","lat":43.29247,"lon":5.3843,"is_reserved":false,"is_disabled":true,"rental_uris":{"android":"levelo://app?vid=2b7563bf-72ce-4546-bdfe-0681f54925e9","ios":"levelo://app?vid=2b7563bf-72ce-4546-bdfe-0681f54925e9"},"vehicle_type_id":"4","last_reported":1743660866,"current_range_meters":11600,"station_id":"ce4bh692rcd13ifvqea0","pricing_plan_id":"cebpf4jnsgd1na2vs0mg"},{"bike_id":"052a0b9b-af79-4ca5-a4e5-32ff1b87172b","system_id":"levelo_inurba_marseille","lat":43.29934,"lon":5.3748,"is_reserved":false,"is_disabled":false,"rental_uris":{"android":"levelo://app?vid=052a0b9b-af79-4ca5-a4e5-32ff1b87172b","ios":"levelo://app?vid=052a0b9b-af79-4ca5-a4e5-32ff1b87172b"},"vehicle_type_id":"4","last_reported":1743660866,"current_range_meters":11600,"station_id":"ce4bgjh2rcd13ifvqbg0","pricing_plan_id":"cebpf4jnsgd1na2vs0mg"},{"bike_id":"a856deab-91df-4753-be7b-6a4d646902aa","system_id":"levelo_inurba_marseille","lat":43.28448,"lon":5.35888,"is_reserved":false,"is_disabled":false,"rental_uris":{"android":"levelo://app?vid=a856deab-91df-4753-be7b-6a4d646902aa","ios":"levelo://app?vid=a856deab-91df-4753-be7b-6a4d646902aa"},"vehicle_type_id":"4","last_reported":1743660866,"current_range_meters":11600,"station_id":"ce4bhah2rcd13ifvqei0","pricing_plan_id":"cebpf4jnsgd1na2vs0mg"},{"bike_id":"e6f02e74-383c-4bae-b8c4-037430863270","system_id":"levelo_inurba_marseille","lat":43.23051,"lon":5.3551,"is_reserved":false,"is_disabled":false,"rental_uris":{"android":"levelo://app?vid=e6f02e74-383c-4bae-b8c4-037430863270","ios":"levelo://app?vid=e6f02e74-383c-4bae-b8c4-037430863270"},"vehicle_type_id":"4","last_reported":1743660866,"current_range_meters":11600,"station_id":"cpo3342slgdg3j2ifvpg","pricing_plan_id":"cebpf4jnsgd1na2vs0mg"},{"bike_id":"22bcfedc-fd1a-42ef-b4ce-f8cb0c81bc99","system_id":"levelo_inurba_marseille","lat":43.30139,"lon":5.38794,"is_reserved":false,"is_disabled":true,"rental_uris":{"android":"levelo://app?vid=22bcfedc-fd1a-42ef-b4ce-f8cb0c81bc99","ios":"levelo://app?vid=22bcfedc-fd1a-42ef-b4ce-f8cb0c81bc99"},"vehicle_type_id":"4","last_reported":1743660866,"current_range_meters":11600,"station_id":"ce4bghh2rcd13ifvqb60","pricing_plan_id":"cebpf4jnsgd1na2vs0mg"},{"bike_id":"c13336a2-47ce-488c-b5b6-77c01a3ac1d1","system_id":"levelo_inurba_marseille","lat":43.31882,"lon":5.40755,"is_reserved":false,"is_disabled":true,"rental_uris":{"android":"levelo://app?vid=c13336a2-47ce-488c-b5b6-77c01a3ac1d1","ios":"levelo://app?vid=c13336a2-47ce-488c-b5b6-77c01a3ac1d1"},"vehicle_type_id":"4","last_reported":1743660866,"current_range_meters":11600,"station_id":"ce4bhq12rcd13ifvqhig","pricing_plan_id":"cebpf4jnsgd1na2vs0mg"},{"bike_id":"acf392c3-6da7-4fe1-b4fe-d464c1eabe11","system_id":"levelo_inurba_marseille","lat":43.30586,"lon":5.39359,"is_reserved":false,"is_disabled":false,"rental_uris":{"android":"levelo://app?vid=acf392c3-6da7-4fe1-b4fe-d464c1eabe11","ios":"levelo://app?vid=acf392c3-6da7-4fe1-b4fe-d464c1eabe11"},"vehicle_type_id":"4","last_reported":1743660866,"current_range_meters":11600,"station_id":"ce4bh0p2rcd13ifvqd80","pricing_plan_id":"cebpf4jnsgd1na2vs0mg"},{"bike_id":"43705df6-dad5-49b0-ba8b-f4f32b11172b","system_id":"levelo_inurba_marseille","lat":43.2871,"lon":5.37939,"is_reserved":false,"is_disabled":true,"rental_uris":{"android":"levelo://app?vid=43705df6-dad5-49b0-ba8b-f4f32b11172b","ios":"levelo://app?vid=43705df6-dad5-49b0-ba8b-f4f32b11172b"},"vehicle_type_id":"4","last_reported":1743660866,"current_range_meters":11600,"station_id":"ce4bh9p2rcd13ifvqec0","pricing_plan_id":"cebpf4jnsgd1na2vs0mg"},{"bike_id":"384f202a-7732-4988-a5b4-8ed5c9f6a786","system_id":"levelo_inurba_marseille","lat":43.24077,"lon":5.37756,"is_reserved":false,"is_disabled":false,"rental_uris":{"android":"levelo://app?vid=384f202a-7732-4988-a5b4-8ed5c9f6a786","ios":"levelo://app?vid=384f202a-7732-4988-a5b4-8ed5c9f6a786"},"vehicle_type_id":"4","last_reported":1743660866,"current_range_meters":12000,"station_id":"ce4bhnp2rcd13ifvqgvg","pricing_plan_id":"cebpf4jnsgd1na2vs0mg"},{"bike_id":"6a304e84-8a11-4c01-b207-12564d6e4360","system_id":"levelo_inurba_marseille","lat":43.33598,"lon":5.41036,"is_reserved":false,"is_disabled":false,"rental_uris":{"android":"levelo://app?vid=6a304e84-8a11-4c01-b207-12564d6e4360","ios":"levelo://app?vid=6a304e84-8a11-4c01-b207-12564d6e4360"},"vehicle_type_id":"4","last_reported":1743660866,"current_range_meters":11600,"station_id":"ce4bhqh2rcd13ifvqhmg","pricing_plan_id":"cebpf4jnsgd1na2vs0mg"},{"bike_id":"e3a29d38-a611-4b12-87ef-2fb8a21c41d5","system_id":"levelo_inurba_marseille","lat":43.229328,"lon":5.353711,"is_reserved":false,"is_disabled":false,"rental_uris":{"android":"levelo://app?vid=e3a29d38-a611-4b12-87ef-2fb8a21c41d5","ios":"levelo://app?vid=e3a29d38-a611-4b12-87ef-2fb8a21c41d5"},"vehicle_type_id":"4","last_reported":1743660866,"current_range_meters":12000,"station_id":"cpo3532slgdg3j2ikp40","pricing_plan_id":"cebpf4jnsgd1na2vs0mg"},{"bike_id":"c1c63035-c83b-4419-8cbf-133778d95125","system_id":"levelo_inurba_marseille","lat":43.297961,"lon":5.393496,"is_reserved":false,"is_disabled":true,"rental_uris":{"android":"levelo://app?vid=c1c63035-c83b-4419-8cbf-133778d95125","ios":"levelo://app?vid=c1c63035-c83b-4419-8cbf-133778d95125"},"vehicle_type_id":"4","last_reported":1743660866,"current_range_meters":12000,"station_id":"chh1huq6cuj3fo74tm60","pricing_plan_id":"cebpf4jnsgd1na2vs0mg"},{"bike_id":"70e5b39f-29e3-4ea9-aa83-5a60a8eec6f8","system_id":"levelo_inurba_marseille","lat":43.250518,"lon":5.416995,"is_reserved":false,"is_disabled":false,"rental_uris":{"android":"levelo://app?vid=70e5b39f-29e3-4ea9-aa83-5a60a8eec6f8","ios":"levelo://app?vid=70e5b39f-29e3-4ea9-aa83-5a60a8eec6f8"},"vehicle_type_id":"4","last_reported":1743660866,"current_range_meters":12000,"station_id":"","pricing_plan_id":"cebpf4jnsgd1na2vs0mg"},{"bike_id":"f8c62789-a6b7-4539-b99c-e6c73b69ae5e","system_id":"levelo_inurba_marseille","lat":43.30309,"lon":5.40438,"is_reserved":false,"is_disabled":true,"rental_uris":{"android":"levelo://app?vid=f8c62789-a6b7-4539-b99c-e6c73b69ae5e","ios":"levelo://app?vid=f8c62789-a6b7-4539-b99c-e6c73b69ae5e"},"vehicle_type_id":"4","last_reported":1743660866,"current_range_meters":12400,"station_id":"ce4bh012rcd13ifvqd10","pricing_plan_id":"cebpf4jnsgd1na2vs0mg"},{"bike_id":"efddeda7-6eb2-4c14-868d-fa0ce0b35ef3","system_id":"levelo_inurba_marseille","lat":43.31297,"lon":5.38297,"is_reserved":false,"is_disabled":false,"rental_uris":{"android":"levelo://app?vid=efddeda7-6eb2-4c14-868d-fa0ce0b35ef3","ios":"levelo://app?vid=efddeda7-6eb2-4c14-868d-fa0ce0b35ef3"},"vehicle_type_id":"4","last_reported":1743660866,"current_range_meters":12400,"station_id":"","pricing_plan_id":"cebpf4jnsgd1na2vs0mg"},{"bike_id":"bb745ff7-e372-47cd-8e7a-5658e3435a0c","system_id":"levelo_inurba_marseille","lat":43.30261,"lon":5.400794,"is_reserved":false,"is_disabled":true,"rental_uris":{"android":"levelo://app?vid=bb745ff7-e372-47cd-8e7a-5658e3435a0c","ios":"levelo://app?vid=bb745ff7-e372-47cd-8e7a-5658e3435a0c"},"vehicle_type_id":"4","last_reported":1743660866,"current_range_meters":12400,"station_id":"","pricing_plan_id":"cebpf4jnsgd1na2vs0mg"},{"bike_id":"bd3790b2-de01-409f-986d-d88a8a90008e","system_id":"levelo_inurba_marseille","lat":43.28449,"lon":5.35894,"is_reserved":false,"is_disabled":false,"rental_uris":{"android":"levelo://app?vid=bd3790b2-de01-409f-986d-d88a8a90008e","ios":"levelo://app?vid=bd3790b2-de01-409f-986d-d88a8a90008e"},"vehicle_type_id":"4","last_reported":1743660866,"current_range_meters":12400,"station_id":"ce4bhah2rcd13ifvqei0","pricing_plan_id":"cebpf4jnsgd1na2vs0mg"},{"bike_id":"b61a33fe-6372-4bd4-9589-3bc407f2f2e1","system_id":"levelo_inurba_marseille","lat":43.29304,"lon":5.37431,"is_reserved":false,"is_disabled":true,"rental_uris":{"android":"levelo://app?vid=b61a33fe-6372-4bd4-9589-3bc407f2f2e1","ios":"levelo://app?vid=b61a33fe-6372-4bd4-9589-3bc407f2f2e1"},"vehicle_type_id":"4","last_reported":1743660866,"current_range_meters":12400,"station_id":"ce4bgi12rcd13ifvqb70","pricing_plan_id":"cebpf4jnsgd1na2vs0mg"},{"bike_id":"99157455-2e1b-4fa3-bbb4-be612ca1c83a","system_id":"levelo_inurba_marseille","lat":43.29878,"lon":5.39742,"is_reserved":false,"is_disabled":false,"rental_uris":{"android":"levelo://app?vid=99157455-2e1b-4fa3-bbb4-be612ca1c83a","ios":"levelo://app?vid=99157455-2e1b-4fa3-bbb4-be612ca1c83a"},"vehicle_type_id":"4","last_reported":1743660866,"current_range_meters":12800,"station_id":"ce4bh0h2rcd13ifvqd50","pricing_plan_id":"cebpf4jnsgd1na2vs0mg"},{"bike_id":"6d0975c8-94b6-45bc-8952-e3cfa585babc","system_id":"levelo_inurba_marseille","lat":43.271787,"lon":5.409969,"is_reserved":false,"is_disabled":false,"rental_uris":{"android":"levelo://app?vid=6d0975c8-94b6-45bc-8952-e3cfa585babc","ios":"levelo://app?vid=6d0975c8-94b6-45bc-8952-e3cfa585babc"},"vehicle_type_id":"4","last_reported":1743660866,"current_range_meters":12800,"station_id":"ce4bh192rcd13ifvqdc0","pricing_plan_id":"cebpf4jnsgd1na2vs0mg"},{"bike_id":"1bd4c5e9-3479-4a34-bfb9-e556a3bbe8ed","system_id":"levelo_inurba_marseille","lat":43.23058,"lon":5.35514,"is_reserved":false,"is_disabled":false,"rental_uris":{"android":"levelo://app?vid=1bd4c5e9-3479-4a34-bfb9-e556a3bbe8ed","ios":"levelo://app?vid=1bd4c5e9-3479-4a34-bfb9-e556a3bbe8ed"},"vehicle_type_id":"4","last_reported":1743660866,"current_range_meters":12800,"station_id":"cpo3342slgdg3j2ifvpg","pricing_plan_id":"cebpf4jnsgd1na2vs0mg"},{"bike_id":"97dc81a2-98fa-40da-abb7-3bd5a63f2f0b","system_id":"levelo_inurba_marseille","lat":43.31498,"lon":5.37309,"is_reserved":false,"is_disabled":false,"rental_uris":{"android":"levelo://app?vid=97dc81a2-98fa-40da-abb7-3bd5a63f2f0b","ios":"levelo://app?vid=97dc81a2-98fa-40da-abb7-3bd5a63f2f0b"},"vehicle_type_id":"4","last_reported":1743660866,"current_range_meters":13600,"station_id":"","pricing_plan_id":"cebpf4jnsgd1na2vs0mg"},{"bike_id":"58f76937-f801-47fd-a8d9-96b84fc18ac2","system_id":"levelo_inurba_marseille","lat":43.29612,"lon":5.38102,"is_reserved":false,"is_disabled":false,"rental_uris":{"android":"levelo://app?vid=58f76937-f801-47fd-a8d9-96b84fc18ac2","ios":"levelo://app?vid=58f76937-f801-47fd-a8d9-96b84fc18ac2"},"vehicle_type_id":"4","last_reported":1743660866,"current_range_meters":12800,"station_id":"ce4bgl12rcd13ifvqbo0","pricing_plan_id":"cebpf4jnsgd1na2vs0mg"},{"bike_id":"2be94212-600c-4c4f-ba3b-fe750ec2d558","system_id":"levelo_inurba_marseille","lat":43.28102,"lon":5.37832,"is_reserved":false,"is_disabled":false,"rental_uris":{"android":"levelo://app?vid=2be94212-600c-4c4f-ba3b-fe750ec2d558","ios":"levelo://app?vid=2be94212-600c-4c4f-ba3b-fe750ec2d558"},"vehicle_type_id":"4","last_reported":1743660866,"current_range_meters":13600,"station_id":"ce4bha12rcd13ifvqee0","pricing_plan_id":"cebpf4jnsgd1na2vs0mg"},{"bike_id":"06672b07-330e-431c-bcbe-eb28c04beb47","system_id":"levelo_inurba_marseille","lat":43.29057,"lon":5.39952,"is_reserved":false,"is_disabled":true,"rental_uris":{"android":"levelo://app?vid=06672b07-330e-431c-bcbe-eb28c04beb47","ios":"levelo://app?vid=06672b07-330e-431c-bcbe-eb28c04beb47"},"vehicle_type_id":"4","last_reported":1743660866,"current_range_meters":13600,"station_id":"ce4bh392rcd13ifvqdm0","pricing_plan_id":"cebpf4jnsgd1na2vs0mg"},{"bike_id":"8018dd8d-b1f9-4c6f-90c6-3f8309567662","system_id":"levelo_inurba_marseille","lat":43.28716,"lon":5.37937,"is_reserved":false,"is_disabled":false,"rental_uris":{"android":"levelo://app?vid=8018dd8d-b1f9-4c6f-90c6-3f8309567662","ios":"levelo://app?vid=8018dd8d-b1f9-4c6f-90c6-3f8309567662"},"vehicle_type_id":"4","last_reported":1743660866,"current_range_meters":13600,"station_id":"ce4bh9p2rcd13ifvqec0","pricing_plan_id":"cebpf4jnsgd1na2vs0mg"},{"bike_id":"10dba690-16cc-4e3a-8cf1-837f9f6eb283","system_id":"levelo_inurba_marseille","lat":43.30147,"lon":5.37416,"is_reserved":false,"is_disabled":false,"rental_uris":{"android":"levelo://app?vid=10dba690-16cc-4e3a-8cf1-837f9f6eb283","ios":"levelo://app?vid=10dba690-16cc-4e3a-8cf1-837f9f6eb283"},"vehicle_type_id":"4","last_reported":1743660866,"current_range_meters":16800,"station_id":"ce4bgs92rcd13ifvqcc0","pricing_plan_id":"cebpf4jnsgd1na2vs0mg"},{"bike_id":"0df0e7a9-81b2-41f8-8fc9-9278b36af5a7","system_id":"levelo_inurba_marseille","lat":43.25079,"lon":5.39519,"is_reserved":false,"is_disabled":false,"rental_uris":{"android":"levelo://app?vid=0df0e7a9-81b2-41f8-8fc9-9278b36af5a7","ios":"levelo://app?vid=0df0e7a9-81b2-41f8-8fc9-9278b36af5a7"},"vehicle_type_id":"4","last_reported":1743660866,"current_range_meters":13600,"station_id":"ce4bhm12rcd13ifvqgkg","pricing_plan_id":"cebpf4jnsgd1na2vs0mg"},{"bike_id":"005283db-9aca-49eb-ae41-cbf0dc140b6c","system_id":"levelo_inurba_marseille","lat":43.3013,"lon":5.37278,"is_reserved":false,"is_disabled":false,"rental_uris":{"android":"levelo://app?vid=005283db-9aca-49eb-ae41-cbf0dc140b6c","ios":"levelo://app?vid=005283db-9aca-49eb-ae41-cbf0dc140b6c"},"vehicle_type_id":"4","last_reported":1743660866,"current_range_meters":14000,"station_id":"","pricing_plan_id":"cebpf4jnsgd1na2vs0mg"},{"bike_id":"6a460605-a1a5-4a46-a586-c3b768b3064f","system_id":"levelo_inurba_marseille","lat":43.2749,"lon":5.42459,"is_reserved":false,"is_disabled":false,"rental_uris":{"android":"levelo://app?vid=6a460605-a1a5-4a46-a586-c3b768b3064f","ios":"levelo://app?vid=6a460605-a1a5-4a46-a586-c3b768b3064f"},"vehicle_type_id":"4","last_reported":1743660866,"current_range_meters":14000,"station_id":"ce4bhn92rcd13ifvqgrg","pricing_plan_id":"cebpf4jnsgd1na2vs0mg"},{"bike_id":"f88cdea8-f6f7-42dd-8067-42c3c697a2c7","system_id":"levelo_inurba_marseille","lat":43.28324,"lon":5.43083,"is_reserved":false,"is_disabled":false,"rental_uris":{"android":"levelo://app?vid=f88cdea8-f6f7-42dd-8067-42c3c697a2c7","ios":"levelo://app?vid=f88cdea8-f6f7-42dd-8067-42c3c697a2c7"},"vehicle_type_id":"4","last_reported":1743660866,"current_range_meters":14400,"station_id":"","pricing_plan_id":"cebpf4jnsgd1na2vs0mg"},{"bike_id":"a0d323f6-6b2a-4606-8ec6-acec22bbce11","system_id":"levelo_inurba_marseille","lat":43.30144,"lon":5.37412,"is_reserved":false,"is_disabled":false,"rental_uris":{"android":"levelo://app?vid=a0d323f6-6b2a-4606-8ec6-acec22bbce11","ios":"levelo://app?vid=a0d323f6-6b2a-4606-8ec6-acec22bbce11"},"vehicle_type_id":"4","last_reported":1743660866,"current_range_meters":14400,"station_id":"ce4bgs92rcd13ifvqcc0","pricing_plan_id":"cebpf4jnsgd1na2vs0mg"},{"bike_id":"c8bb0dee-c705-48ea-a16d-727e707a2f80","system_id":"levelo_inurba_marseille","lat":43.28413,"lon":5.37525,"is_reserved":false,"is_disabled":false,"rental_uris":{"android":"levelo://app?vid=c8bb0dee-c705-48ea-a16d-727e707a2f80","ios":"levelo://app?vid=c8bb0dee-c705-48ea-a16d-727e707a2f80"},"vehicle_type_id":"4","last_reported":1743660866,"current_range_meters":14400,"station_id":"ce4bh412rcd13ifvqds0","pricing_plan_id":"cebpf4jnsgd1na2vs0mg"},{"bike_id":"8e2424bb-8c50-4583-b41b-a7e00143b6c2","system_id":"levelo_inurba_marseille","lat":43.240664,"lon":5.377618,"is_reserved":false,"is_disabled":false,"rental_uris":{"android":"levelo://app?vid=8e2424bb-8c50-4583-b41b-a7e00143b6c2","ios":"levelo://app?vid=8e2424bb-8c50-4583-b41b-a7e00143b6c2"},"vehicle_type_id":"4","last_reported":1743660866,"current_range_meters":14400,"station_id":"ce4bhnp2rcd13ifvqgvg","pricing_plan_id":"cebpf4jnsgd1na2vs0mg"},{"bike_id":"a095eb29-6920-4d45-980a-143c25be8e8c","system_id":"levelo_inurba_marseille","lat":43.28094,"lon":5.37844,"is_reserved":false,"is_disabled":false,"rental_uris":{"android":"levelo://app?vid=a095eb29-6920-4d45-980a-143c25be8e8c","ios":"levelo://app?vid=a095eb29-6920-4d45-980a-143c25be8e8c"},"vehicle_type_id":"4","last_reported":1743660866,"current_range_meters":14400,"station_id":"ce4bha12rcd13ifvqee0","pricing_plan_id":"cebpf4jnsgd1na2vs0mg"},{"bike_id":"c3299699-5b30-44df-83ef-c0a2b5ae4a69","system_id":"levelo_inurba_marseille","lat":43.29205,"lon":5.44158,"is_reserved":false,"is_disabled":false,"rental_uris":{"android":"levelo://app?vid=c3299699-5b30-44df-83ef-c0a2b5ae4a69","ios":"levelo://app?vid=c3299699-5b30-44df-83ef-c0a2b5ae4a69"},"vehicle_type_id":"4","last_reported":1743660866,"current_range_meters":14400,"station_id":"","pricing_plan_id":"cebpf4jnsgd1na2vs0mg"},{"bike_id":"06307859-e835-4f7a-ae59-019181da312f","system_id":"levelo_inurba_marseille","lat":43.30196,"lon":5.36623,"is_reserved":false,"is_disabled":false,"rental_uris":{"android":"levelo://app?vid=06307859-e835-4f7a-ae59-019181da312f","ios":"levelo://app?vid=06307859-e835-4f7a-ae59-019181da312f"},"vehicle_type_id":"4","last_reported":1743660866,"current_range_meters":14400,"station_id":"ce4bgrh2rcd13ifvqc8g","pricing_plan_id":"cebpf4jnsgd1na2vs0mg"},{"bike_id":"46c1ed18-965d-442f-94cd-0fd5dad1fd10","system_id":"levelo_inurba_marseille","lat":43.28986,"lon":5.38646,"is_reserved":false,"is_disabled":false,"rental_uris":{"android":"levelo://app?vid=46c1ed18-965d-442f-94cd-0fd5dad1fd10","ios":"levelo://app?vid=46c1ed18-965d-442f-94cd-0fd5dad1fd10"},"vehicle_type_id":"4","last_reported":1743660866,"current_range_meters":14400,"station_id":"ce4bh4p2rcd13ifvqe0g","pricing_plan_id":"cebpf4jnsgd1na2vs0mg"},{"bike_id":"d004abc5-8dad-4d4f-9166-95d1343cdb9a","system_id":"levelo_inurba_marseille","lat":43.30537,"lon":5.3672,"is_reserved":false,"is_disabled":false,"rental_uris":{"android":"levelo://app?vid=d004abc5-8dad-4d4f-9166-95d1343cdb9a","ios":"levelo://app?vid=d004abc5-8dad-4d4f-9166-95d1343cdb9a"},"vehicle_type_id":"4","last_reported":1743660866,"current_range_meters":14400,"station_id":"ce4bgrp2rcd13ifvqc9g","pricing_plan_id":"cebpf4jnsgd1na2vs0mg"},{"bike_id":"13a24fcc-8048-441c-b975-f73376da5d57","system_id":"levelo_inurba_marseille","lat":43.28719,"lon":5.37936,"is_reserved":false,"is_disabled":false,"rental_uris":{"android":"levelo://app?vid=13a24fcc-8048-441c-b975-f73376da5d57","ios":"levelo://app?vid=13a24fcc-8048-441c-b975-f73376da5d57"},"vehicle_type_id":"4","last_reported":1743660866,"current_range_meters":14800,"station_id":"ce4bh9p2rcd13ifvqec0","pricing_plan_id":"cebpf4jnsgd1na2vs0mg"},{"bike_id":"22b8702c-0dfe-451a-841a-e968657038a3","system_id":"levelo_inurba_marseille","lat":43.3246,"lon":5.36582,"is_reserved":false,"is_disabled":false,"rental_uris":{"android":"levelo://app?vid=22b8702c-0dfe-451a-841a-e968657038a3","ios":"levelo://app?vid=22b8702c-0dfe-451a-841a-e968657038a3"},"vehicle_type_id":"4","last_reported":1743660866,"current_range_meters":14800,"station_id":"ce4bhs12rcd13ifvqhvg","pricing_plan_id":"cebpf4jnsgd1na2vs0mg"},{"bike_id":"841946bd-6940-4794-9af4-41cbe287891a","system_id":"levelo_inurba_marseille","lat":43.27355,"lon":5.36245,"is_reserved":false,"is_disabled":false,"rental_uris":{"android":"levelo://app?vid=841946bd-6940-4794-9af4-41cbe287891a","ios":"levelo://app?vid=841946bd-6940-4794-9af4-41cbe287891a"},"vehicle_type_id":"4","last_reported":1743660866,"current_range_meters":14800,"station_id":"ce4bhbh2rcd13ifvqeo0","pricing_plan_id":"cebpf4jnsgd1na2vs0mg"},{"bike_id":"63139285-137c-4e8d-8e95-6c2a275f8333","system_id":"levelo_inurba_marseille","lat":43.32062,"lon":5.36824,"is_reserved":false,"is_disabled":false,"rental_uris":{"android":"levelo://app?vid=63139285-137c-4e8d-8e95-6c2a275f8333","ios":"levelo://app?vid=63139285-137c-4e8d-8e95-6c2a275f8333"},"vehicle_type_id":"4","last_reported":1743660866,"current_range_meters":14800,"station_id":"ce4bhrh2rcd13ifvqhug","pricing_plan_id":"cebpf4jnsgd1na2vs0mg"},{"bike_id":"4dc2e017-2338-4c8e-8c49-115d78626747","system_id":"levelo_inurba_marseille","lat":43.307439,"lon":5.4244,"is_reserved":false,"is_disabled":false,"rental_uris":{"android":"levelo://app?vid=4dc2e017-2338-4c8e-8c49-115d78626747","ios":"levelo://app?vid=4dc2e017-2338-4c8e-8c49-115d78626747"},"vehicle_type_id":"4","last_reported":1743660866,"current_range_meters":14800,"station_id":"st_cvj6ca6bvosntc0bfgr0","pricing_plan_id":"cebpf4jnsgd1na2vs0mg"},{"bike_id":"c89a2250-663c-4df1-b70a-e96153cd67e6","system_id":"levelo_inurba_marseille","lat":43.28849,"lon":5.35841,"is_reserved":false,"is_disabled":false,"rental_uris":{"android":"levelo://app?vid=c89a2250-663c-4df1-b70a-e96153cd67e6","ios":"levelo://app?vid=c89a2250-663c-4df1-b70a-e96153cd67e6"},"vehicle_type_id":"4","last_reported":1743660866,"current_range_meters":14800,"station_id":"ce4bhb12rcd13ifvqem0","pricing_plan_id":"cebpf4jnsgd1na2vs0mg"},{"bike_id":"154b9f38-44ba-4b7f-868a-3ffc9dc63f9c","system_id":"levelo_inurba_marseille","lat":43.298635,"lon":5.397328,"is_reserved":false,"is_disabled":false,"rental_uris":{"android":"levelo://app?vid=154b9f38-44ba-4b7f-868a-3ffc9dc63f9c","ios":"levelo://app?vid=154b9f38-44ba-4b7f-868a-3ffc9dc63f9c"},"vehicle_type_id":"4","last_reported":1743660866,"current_range_meters":15200,"station_id":"ce4bh0h2rcd13ifvqd50","pricing_plan_id":"cebpf4jnsgd1na2vs0mg"},{"bike_id":"6435cf14-518f-4ad3-baa1-0926f98513b3","system_id":"levelo_inurba_marseille","lat":43.30595,"lon":5.39357,"is_reserved":false,"is_disabled":false,"rental_uris":{"android":"levelo://app?vid=6435cf14-518f-4ad3-baa1-0926f98513b3","ios":"levelo://app?vid=6435cf14-518f-4ad3-baa1-0926f98513b3"},"vehicle_type_id":"4","last_reported":1743660866,"current_range_meters":15200,"station_id":"ce4bh0p2rcd13ifvqd80","pricing_plan_id":"cebpf4jnsgd1na2vs0mg"},{"bike_id":"846ce779-dc94-4dce-b6fc-2b5bdabca155","system_id":"levelo_inurba_marseille","lat":43.241039,"lon":5.378271,"is_reserved":false,"is_disabled":false,"rental_uris":{"android":"levelo://app?vid=846ce779-dc94-4dce-b6fc-2b5bdabca155","ios":"levelo://app?vid=846ce779-dc94-4dce-b6fc-2b5bdabca155"},"vehicle_type_id":"4","last_reported":1743660866,"current_range_meters":15200,"station_id":"ce4bhnp2rcd13ifvqgvg","pricing_plan_id":"cebpf4jnsgd1na2vs0mg"},{"bike_id":"a6303451-5b45-435c-bf0e-748f94cc010d","system_id":"levelo_inurba_marseille","lat":43.2318,"lon":5.35557,"is_reserved":false,"is_disabled":false,"rental_uris":{"android":"levelo://app?vid=a6303451-5b45-435c-bf0e-748f94cc010d","ios":"levelo://app?vid=a6303451-5b45-435c-bf0e-748f94cc010d"},"vehicle_type_id":"4","last_reported":1743660866,"current_range_meters":15200,"station_id":"ce4bhu92rcd13ifvqi70","pricing_plan_id":"cebpf4jnsgd1na2vs0mg"},{"bike_id":"575cc4c9-8511-4037-9ea6-8c165089755d","system_id":"levelo_inurba_marseille","lat":43.24643,"lon":5.38903,"is_reserved":false,"is_disabled":false,"rental_uris":{"android":"levelo://app?vid=575cc4c9-8511-4037-9ea6-8c165089755d","ios":"levelo://app?vid=575cc4c9-8511-4037-9ea6-8c165089755d"},"vehicle_type_id":"4","last_reported":1743660866,"current_range_meters":15200,"station_id":"ce4bhg12rcd13ifvqf60","pricing_plan_id":"cebpf4jnsgd1na2vs0mg"},{"bike_id":"dcb844d7-0299-4861-813c-aa91eb67efa8","system_id":"levelo_inurba_marseille","lat":43.24071,"lon":5.37766,"is_reserved":false,"is_disabled":false,"rental_uris":{"android":"levelo://app?vid=dcb844d7-0299-4861-813c-aa91eb67efa8","ios":"levelo://app?vid=dcb844d7-0299-4861-813c-aa91eb67efa8"},"vehicle_type_id":"4","last_reported":1743660866,"current_range_meters":15200,"station_id":"ce4bhnp2rcd13ifvqgvg","pricing_plan_id":"cebpf4jnsgd1na2vs0mg"},{"bike_id":"2bb52abf-bce1-42cc-b098-b0033579c531","system_id":"levelo_inurba_marseille","lat":43.27496,"lon":5.42452,"is_reserved":false,"is_disabled":false,"rental_uris":{"android":"levelo://app?vid=2bb52abf-bce1-42cc-b098-b0033579c531","ios":"levelo://app?vid=2bb52abf-bce1-42cc-b098-b0033579c531"},"vehicle_type_id":"4","last_reported":1743660866,"current_range_meters":15200,"station_id":"ce4bhn92rcd13ifvqgrg","pricing_plan_id":"cebpf4jnsgd1na2vs0mg"},{"bike_id":"f1e5f20d-e5bb-4349-9a72-f7ab8a004414","system_id":"levelo_inurba_marseille","lat":43.30292,"lon":5.40445,"is_reserved":false,"is_disabled":true,"rental_uris":{"android":"levelo://app?vid=f1e5f20d-e5bb-4349-9a72-f7ab8a004414","ios":"levelo://app?vid=f1e5f20d-e5bb-4349-9a72-f7ab8a004414"},"vehicle_type_id":"4","last_reported":1743660866,"current_range_meters":15200,"station_id":"ce4bh012rcd13ifvqd10","pricing_plan_id":"cebpf4jnsgd1na2vs0mg"},{"bike_id":"5f46717b-05d1-4f34-a220-8087932d755b","system_id":"levelo_inurba_marseille","lat":43.30089,"lon":5.36944,"is_reserved":false,"is_disabled":false,"rental_uris":{"android":"levelo://app?vid=5f46717b-05d1-4f34-a220-8087932d755b","ios":"levelo://app?vid=5f46717b-05d1-4f34-a220-8087932d755b"},"vehicle_type_id":"4","last_reported":1743660866,"current_range_meters":15200,"station_id":"","pricing_plan_id":"cebpf4jnsgd1na2vs0mg"},{"bike_id":"4c5af6eb-9f3a-429a-a9a5-908f23088311","system_id":"levelo_inurba_marseille","lat":43.27367,"lon":5.3628,"is_reserved":false,"is_disabled":false,"rental_uris":{"android":"levelo://app?vid=4c5af6eb-9f3a-429a-a9a5-908f23088311","ios":"levelo://app?vid=4c5af6eb-9f3a-429a-a9a5-908f23088311"},"vehicle_type_id":"4","last_reported":1743660866,"current_range_meters":16000,"station_id":"ce4bhbh2rcd13ifvqeo0","pricing_plan_id":"cebpf4jnsgd1na2vs0mg"},{"bike_id":"93cbb798-f822-4f3d-aae2-19ec45d0ddc0","system_id":"levelo_inurba_marseille","lat":43.32287,"lon":5.38256,"is_reserved":false,"is_disabled":false,"rental_uris":{"android":"levelo://app?vid=93cbb798-f822-4f3d-aae2-19ec45d0ddc0","ios":"levelo://app?vid=93cbb798-f822-4f3d-aae2-19ec45d0ddc0"},"vehicle_type_id":"4","last_reported":1743660866,"current_range_meters":16000,"station_id":"ce4bhr12rcd13ifvqhqg","pricing_plan_id":"cebpf4jnsgd1na2vs0mg"},{"bike_id":"d09e3e87-c6d8-47d2-bd90-bffdaaaa50f2","system_id":"levelo_inurba_marseille","lat":43.314907,"lon":5.373107,"is_reserved":false,"is_disabled":false,"rental_uris":{"android":"levelo://app?vid=d09e3e87-c6d8-47d2-bd90-bffdaaaa50f2","ios":"levelo://app?vid=d09e3e87-c6d8-47d2-bd90-bffdaaaa50f2"},"vehicle_type_id":"4","last_reported":1743660866,"current_range_meters":15200,"station_id":"ce4bgt12rcd13ifvqcd0","pricing_plan_id":"cebpf4jnsgd1na2vs0mg"},{"bike_id":"e9947125-e4b1-4977-bee9-fb031515997e","system_id":"levelo_inurba_marseille","lat":43.24535,"lon":5.39522,"is_reserved":false,"is_disabled":false,"rental_uris":{"android":"levelo://app?vid=e9947125-e4b1-4977-bee9-fb031515997e","ios":"levelo://app?vid=e9947125-e4b1-4977-bee9-fb031515997e"},"vehicle_type_id":"4","last_reported":1743660866,"current_range_meters":16000,"station_id":"ce4bhlp2rcd13ifvqgjg","pricing_plan_id":"cebpf4jnsgd1na2vs0mg"},{"bike_id":"a24c9f8e-385e-4174-be15-3b7ce293d1b7","system_id":"levelo_inurba_marseille","lat":43.309298,"lon":5.401476,"is_reserved":false,"is_disabled":true,"rental_uris":{"android":"levelo://app?vid=a24c9f8e-385e-4174-be15-3b7ce293d1b7","ios":"levelo://app?vid=a24c9f8e-385e-4174-be15-3b7ce293d1b7"},"vehicle_type_id":"4","last_reported":1743660866,"current_range_meters":16000,"station_id":"ce4bgvp2rcd13ifvqct0","pricing_plan_id":"cebpf4jnsgd1na2vs0mg"},{"bike_id":"1f85c684-a9d6-4c0e-865e-78294d8e8355","system_id":"levelo_inurba_marseille","lat":43.29034,"lon":5.39964,"is_reserved":false,"is_disabled":false,"rental_uris":{"android":"levelo://app?vid=1f85c684-a9d6-4c0e-865e-78294d8e8355","ios":"levelo://app?vid=1f85c684-a9d6-4c0e-865e-78294d8e8355"},"vehicle_type_id":"4","last_reported":1743660866,"current_range_meters":16000,"station_id":"ce4bh392rcd13ifvqdm0","pricing_plan_id":"cebpf4jnsgd1na2vs0mg"},{"bike_id":"a3d66c70-b3b5-4fda-90f2-1f5e24b91519","system_id":"levelo_inurba_marseille","lat":43.26956,"lon":5.38646,"is_reserved":false,"is_disabled":false,"rental_uris":{"android":"levelo://app?vid=a3d66c70-b3b5-4fda-90f2-1f5e24b91519","ios":"levelo://app?vid=a3d66c70-b3b5-4fda-90f2-1f5e24b91519"},"vehicle_type_id":"4","last_reported":1743660866,"current_range_meters":16000,"station_id":"ce4bhh92rcd13ifvqfh0","pricing_plan_id":"cebpf4jnsgd1na2vs0mg"},{"bike_id":"6d0e4a92-8d8c-4adf-bfb4-1ee7fc7406b8","system_id":"levelo_inurba_marseille","lat":43.30449,"lon":5.37924,"is_reserved":false,"is_disabled":false,"rental_uris":{"android":"levelo://app?vid=6d0e4a92-8d8c-4adf-bfb4-1ee7fc7406b8","ios":"levelo://app?vid=6d0e4a92-8d8c-4adf-bfb4-1ee7fc7406b8"},"vehicle_type_id":"4","last_reported":1743660866,"current_range_meters":16000,"station_id":"ce4bgup2rcd13ifvqcn0","pricing_plan_id":"cebpf4jnsgd1na2vs0mg"},{"bike_id":"a50ace2d-e999-4f31-812f-fa1237ed2e21","system_id":"levelo_inurba_marseille","lat":43.309193,"lon":5.401553,"is_reserved":false,"is_disabled":false,"rental_uris":{"android":"levelo://app?vid=a50ace2d-e999-4f31-812f-fa1237ed2e21","ios":"levelo://app?vid=a50ace2d-e999-4f31-812f-fa1237ed2e21"},"vehicle_type_id":"4","last_reported":1743660866,"current_range_meters":16000,"station_id":"ce4bgvp2rcd13ifvqct0","pricing_plan_id":"cebpf4jnsgd1na2vs0mg"},{"bike_id":"0da307f0-a737-4f3f-8786-4dd451d57e79","system_id":"levelo_inurba_marseille","lat":43.30823,"lon":5.36793,"is_reserved":false,"is_disabled":false,"rental_uris":{"android":"levelo://app?vid=0da307f0-a737-4f3f-8786-4dd451d57e79","ios":"levelo://app?vid=0da307f0-a737-4f3f-8786-4dd451d57e79"},"vehicle_type_id":"4","last_reported":1743660866,"current_range_meters":16400,"station_id":"","pricing_plan_id":"cebpf4jnsgd1na2vs0mg"},{"bike_id":"911887f9-af40-484f-b1c7-4ba2097422cf","system_id":"levelo_inurba_marseille","lat":43.31819,"lon":5.3691,"is_reserved":false,"is_disabled":false,"rental_uris":{"android":"levelo://app?vid=911887f9-af40-484f-b1c7-4ba2097422cf","ios":"levelo://app?vid=911887f9-af40-484f-b1c7-4ba2097422cf"},"vehicle_type_id":"4","last_reported":1743660866,"current_range_meters":16400,"station_id":"","pricing_plan_id":"cebpf4jnsgd1na2vs0mg"},{"bike_id":"2966be98-a2e8-435f-9b59-399affed8550","system_id":"levelo_inurba_marseille","lat":43.30589,"lon":5.39339,"is_reserved":false,"is_disabled":false,"rental_uris":{"android":"levelo://app?vid=2966be98-a2e8-435f-9b59-399affed8550","ios":"levelo://app?vid=2966be98-a2e8-435f-9b59-399affed8550"},"vehicle_type_id":"4","last_reported":1743660866,"current_range_meters":16400,"station_id":"ce4bh0p2rcd13ifvqd80","pricing_plan_id":"cebpf4jnsgd1na2vs0mg"},{"bike_id":"0ce365e9-190c-4da1-97d4-bbc095d5dcc2","system_id":"levelo_inurba_marseille","lat":43.31338,"lon":5.36707,"is_reserved":false,"is_disabled":false,"rental_uris":{"android":"levelo://app?vid=0ce365e9-190c-4da1-97d4-bbc095d5dcc2","ios":"levelo://app?vid=0ce365e9-190c-4da1-97d4-bbc095d5dcc2"},"vehicle_type_id":"4","last_reported":1743660866,"current_range_meters":16400,"station_id":"ce4bgr92rcd13ifvqc6g","pricing_plan_id":"cebpf4jnsgd1na2vs0mg"},{"bike_id":"f7933b9f-d69d-4478-8f0f-9719ff49ac5f","system_id":"levelo_inurba_marseille","lat":43.26228,"lon":5.4214,"is_reserved":false,"is_disabled":false,"rental_uris":{"android":"levelo://app?vid=f7933b9f-d69d-4478-8f0f-9719ff49ac5f","ios":"levelo://app?vid=f7933b9f-d69d-4478-8f0f-9719ff49ac5f"},"vehicle_type_id":"4","last_reported":1743660866,"current_range_meters":16400,"station_id":"","pricing_plan_id":"cebpf4jnsgd1na2vs0mg"},{"bike_id":"704d09f1-37d1-4c7c-b83b-d9079afff1ad","system_id":"levelo_inurba_marseille","lat":43.28653,"lon":5.36364,"is_reserved":false,"is_disabled":false,"rental_uris":{"android":"levelo://app?vid=704d09f1-37d1-4c7c-b83b-d9079afff1ad","ios":"levelo://app?vid=704d09f1-37d1-4c7c-b83b-d9079afff1ad"},"vehicle_type_id":"4","last_reported":1743660866,"current_range_meters":16000,"station_id":"ce4bhah2rcd13ifvqej0","pricing_plan_id":"cebpf4jnsgd1na2vs0mg"},{"bike_id":"6f0b2285-ecad-46fa-be6a-007f4eae2b71","system_id":"levelo_inurba_marseille","lat":43.24069,"lon":5.37765,"is_reserved":false,"is_disabled":false,"rental_uris":{"android":"levelo://app?vid=6f0b2285-ecad-46fa-be6a-007f4eae2b71","ios":"levelo://app?vid=6f0b2285-ecad-46fa-be6a-007f4eae2b71"},"vehicle_type_id":"4","last_reported":1743660866,"current_range_meters":16800,"station_id":"ce4bhnp2rcd13ifvqgvg","pricing_plan_id":"cebpf4jnsgd1na2vs0mg"},{"bike_id":"6338e279-040c-41b7-8997-baa00fa4bc7b","system_id":"levelo_inurba_marseille","lat":43.2849,"lon":5.38565,"is_reserved":false,"is_disabled":false,"rental_uris":{"android":"levelo://app?vid=6338e279-040c-41b7-8997-baa00fa4bc7b","ios":"levelo://app?vid=6338e279-040c-41b7-8997-baa00fa4bc7b"},"vehicle_type_id":"4","last_reported":1743660866,"current_range_meters":16800,"station_id":"ce4bh8p2rcd13ifvqeb0","pricing_plan_id":"cebpf4jnsgd1na2vs0mg"},{"bike_id":"dcdfe266-54b1-4def-96a6-469df11218c2","system_id":"levelo_inurba_marseille","lat":43.24075,"lon":5.37756,"is_reserved":false,"is_disabled":false,"rental_uris":{"android":"levelo://app?vid=dcdfe266-54b1-4def-96a6-469df11218c2","ios":"levelo://app?vid=dcdfe266-54b1-4def-96a6-469df11218c2"},"vehicle_type_id":"4","last_reported":1743660866,"current_range_meters":16800,"station_id":"ce4bhnp2rcd13ifvqgvg","pricing_plan_id":"cebpf4jnsgd1na2vs0mg"},{"bike_id":"11b4cfb3-f050-4609-bf5a-8f0b078f8eb2","system_id":"levelo_inurba_marseille","lat":43.2954,"lon":5.4229,"is_reserved":false,"is_disabled":false,"rental_uris":{"android":"levelo://app?vid=11b4cfb3-f050-4609-bf5a-8f0b078f8eb2","ios":"levelo://app?vid=11b4cfb3-f050-4609-bf5a-8f0b078f8eb2"},"vehicle_type_id":"4","last_reported":1743660866,"current_range_meters":16800,"station_id":"ce4bhph2rcd13ifvqhdg","pricing_plan_id":"cebpf4jnsgd1na2vs0mg"},{"bike_id":"9d7b4579-2f49-4625-9d98-42fe0dd225fc","system_id":"levelo_inurba_marseille","lat":43.30195,"lon":5.41938,"is_reserved":false,"is_disabled":false,"rental_uris":{"android":"levelo://app?vid=9d7b4579-2f49-4625-9d98-42fe0dd225fc","ios":"levelo://app?vid=9d7b4579-2f49-4625-9d98-42fe0dd225fc"},"vehicle_type_id":"4","last_reported":1743660866,"current_range_meters":16800,"station_id":"","pricing_plan_id":"cebpf4jnsgd1na2vs0mg"},{"bike_id":"53f6d37a-6e0d-4f1f-ad74-0b4afa0b3ba5","system_id":"levelo_inurba_marseille","lat":43.304295,"lon":5.388991,"is_reserved":false,"is_disabled":false,"rental_uris":{"android":"levelo://app?vid=53f6d37a-6e0d-4f1f-ad74-0b4afa0b3ba5","ios":"levelo://app?vid=53f6d37a-6e0d-4f1f-ad74-0b4afa0b3ba5"},"vehicle_type_id":"4","last_reported":1743660866,"current_range_meters":16800,"station_id":"ce4bgk12rcd13ifvqbi0","pricing_plan_id":"cebpf4jnsgd1na2vs0mg"},{"bike_id":"7bc35aa7-0894-4939-b0b1-3c33e432c446","system_id":"levelo_inurba_marseille","lat":43.32202,"lon":5.38773,"is_reserved":false,"is_disabled":false,"rental_uris":{"android":"levelo://app?vid=7bc35aa7-0894-4939-b0b1-3c33e432c446","ios":"levelo://app?vid=7bc35aa7-0894-4939-b0b1-3c33e432c446"},"vehicle_type_id":"4","last_reported":1743660866,"current_range_meters":16800,"station_id":"","pricing_plan_id":"cebpf4jnsgd1na2vs0mg"},{"bike_id":"b2b416c5-6260-4ff0-9c05-fe5166afdaed","system_id":"levelo_inurba_marseille","lat":43.27492,"lon":5.42452,"is_reserved":false,"is_disabled":false,"rental_uris":{"android":"levelo://app?vid=b2b416c5-6260-4ff0-9c05-fe5166afdaed","ios":"levelo://app?vid=b2b416c5-6260-4ff0-9c05-fe5166afdaed"},"vehicle_type_id":"4","last_reported":1743660866,"current_range_meters":16800,"station_id":"ce4bhn92rcd13ifvqgrg","pricing_plan_id":"cebpf4jnsgd1na2vs0mg"},{"bike_id":"65c86302-8ef0-46f4-ab6e-bac7149a2865","system_id":"levelo_inurba_marseille","lat":43.32097,"lon":5.36786,"is_reserved":false,"is_disabled":false,"rental_uris":{"android":"levelo://app?vid=65c86302-8ef0-46f4-ab6e-bac7149a2865","ios":"levelo://app?vid=65c86302-8ef0-46f4-ab6e-bac7149a2865"},"vehicle_type_id":"4","last_reported":1743660866,"current_range_meters":16800,"station_id":"ce4bhrh2rcd13ifvqhug","pricing_plan_id":"cebpf4jnsgd1na2vs0mg"},{"bike_id":"f2ed867e-408b-4438-bf39-69b7b83fb995","system_id":"levelo_inurba_marseille","lat":43.283406,"lon":5.381111,"is_reserved":false,"is_disabled":true,"rental_uris":{"android":"levelo://app?vid=f2ed867e-408b-4438-bf39-69b7b83fb995","ios":"levelo://app?vid=f2ed867e-408b-4438-bf39-69b7b83fb995"},"vehicle_type_id":"4","last_reported":1743660866,"current_range_meters":16800,"station_id":"ce4bh412rcd13ifvqdr0","pricing_plan_id":"cebpf4jnsgd1na2vs0mg"},{"bike_id":"9999b3d5-14dd-4f55-942a-1ac07fd3ea21","system_id":"levelo_inurba_marseille","lat":43.28349,"lon":5.38101,"is_reserved":false,"is_disabled":false,"rental_uris":{"android":"levelo://app?vid=9999b3d5-14dd-4f55-942a-1ac07fd3ea21","ios":"levelo://app?vid=9999b3d5-14dd-4f55-942a-1ac07fd3ea21"},"vehicle_type_id":"4","last_reported":1743660866,"current_range_meters":16800,"station_id":"ce4bh412rcd13ifvqdr0","pricing_plan_id":"cebpf4jnsgd1na2vs0mg"},{"bike_id":"87476203-6555-4943-a84b-9742265e9f28","system_id":"levelo_inurba_marseille","lat":43.28924,"lon":5.38416,"is_reserved":false,"is_disabled":false,"rental_uris":{"android":"levelo://app?vid=87476203-6555-4943-a84b-9742265e9f28","ios":"levelo://app?vid=87476203-6555-4943-a84b-9742265e9f28"},"vehicle_type_id":"4","last_reported":1743660866,"current_range_meters":16800,"station_id":"ce4bh612rcd13ifvqe6g","pricing_plan_id":"cebpf4jnsgd1na2vs0mg"},{"bike_id":"1c38fa09-2324-4762-adff-186bba50f365","system_id":"levelo_inurba_marseille","lat":43.30421,"lon":5.38892,"is_reserved":false,"is_disabled":false,"rental_uris":{"android":"levelo://app?vid=1c38fa09-2324-4762-adff-186bba50f365","ios":"levelo://app?vid=1c38fa09-2324-4762-adff-186bba50f365"},"vehicle_type_id":"4","last_reported":1743660866,"current_range_meters":16800,"station_id":"ce4bgk12rcd13ifvqbi0","pricing_plan_id":"cebpf4jnsgd1na2vs0mg"},{"bike_id":"e6b69cd2-f965-4a12-9e02-6f28a269f9f9","system_id":"levelo_inurba_marseille","lat":43.23048,"lon":5.3549,"is_reserved":false,"is_disabled":false,"rental_uris":{"android":"levelo://app?vid=e6b69cd2-f965-4a12-9e02-6f28a269f9f9","ios":"levelo://app?vid=e6b69cd2-f965-4a12-9e02-6f28a269f9f9"},"vehicle_type_id":"4","last_reported":1743660866,"current_range_meters":17200,"station_id":"cpo3342slgdg3j2ifvpg","pricing_plan_id":"cebpf4jnsgd1na2vs0mg"},{"bike_id":"fb348b09-6abb-47a4-a266-91f2eeaee291","system_id":"levelo_inurba_marseille","lat":43.32107,"lon":5.36768,"is_reserved":false,"is_disabled":false,"rental_uris":{"android":"levelo://app?vid=fb348b09-6abb-47a4-a266-91f2eeaee291","ios":"levelo://app?vid=fb348b09-6abb-47a4-a266-91f2eeaee291"},"vehicle_type_id":"4","last_reported":1743660866,"current_range_meters":17200,"station_id":"ce4bhrh2rcd13ifvqhug","pricing_plan_id":"cebpf4jnsgd1na2vs0mg"},