{"last_updated":1757931081,"ttl":60,"version":"2.2","data":{"bikes":[{"bike_id":"a24c4696-920b-4645-847f-87e0b46915a6","system_id":"levelo_inurba_marseille","lat":43.32442,"lon":5.42516,"is_reserved":false,"is_disabled":false,"rental_uris":{"android":"levelo://app?vid=a24c4696-920b-4645-847f-87e0b46915a6","ios":"levelo://app?vid=a24c4696-920b-4645-847f-87e0b46915a6"},"vehicle_type_id":"4","last_reported":1757931081,"current_range_meters":3200,"station_id":"","pricing_plan_id":"cebpf4jnsgd1na2vs0mg"},{"bike_id":"e95570e5-96e2-4511-a4dd-d5ea07815bd1","system_id":"levelo_inurba_marseille","lat":43.29864,"lon":5.39748,"is_reserved":false,"is_disabled":false,"rental_uris":{"android":"levelo://app?vid=e95570e5-96e2-4511-a4dd-d5ea07815bd1","ios":"levelo://app?vid=e95570e5-96e2-4511-a4dd-d5ea07815bd1"},"vehicle_type_id":"4","last_reported":1757931081,"current_range_meters":3200,"station_id":"ce4bh0h2rcd13ifvqd50","pricing_plan_id":"cebpf4jnsgd1na2vs0mg"},{"bike_id":"0b5e7908-675a-4dd8-8db0-2307e1b5163d","system_id":"levelo_inurba_marseille","lat":43.32532,"lon":5.41449,"is_reserved":false,"is_disabled":false,"rental_uris":{"android":"levelo://app?vid=0b5e7908-675a-4dd8-8db0-2307e1b5163d","ios":"levelo://app?vid=0b5e7908-675a-4dd8-8db0-2307e1b5163d"},"vehicle_type_id":"4","last_reported":1757931081,"current_range_meters":3200,"station_id":"ce4bhq12rcd13ifvqhhg","pricing_plan_id":"cebpf4jnsgd1na2vs0mg"},{"bike_id":"2b95d1b6-596a-4276-9845-89711ed212b3","system_id":"levelo_inurba_marseille","lat":43.25936,"lon":5.40881,"is_reserved":false,"is_disabled":false,"rental_uris":{"android":"levelo://app?vid=2b95d1b6-596a-4276-9845-89711ed212b3","ios":"levelo://app?vid=2b95d1b6-596a-4276-9845-89711ed212b3"},"vehicle_type_id":"4","last_reported":1757931081,"current_range_meters":3200,"station_id":"ce4bhm92rcd13ifvqglg","pricing_plan_id":"cebpf4jnsgd1na2vs0mg"},{"bike_id":"ce37aee0-3f8f-45f8-8d6a-47d71be3dfa6","system_id":"levelo_inurba_marseille","lat":43.29229,"lon":5.36053,"is_reserved":false,"is_disabled":false,"rental_uris":{"android":"levelo://app?vid=ce37aee0-3f8f-45f8-8d6a-47d71be3dfa6","ios":"levelo://app?vid=ce37aee0-3f8f-45f8-8d6a-47d71be3dfa6"},"vehicle_type_id":"4","last_reported":1757931081,"current_range_meters":3600,"station_id":"ce4bhbh2rcd13ifvqeqg","pricing_plan_id":"cebpf4jnsgd1na2vs0mg"},{"bike_id":"84be000e-b186-4e60-8aaa-b7a0f42a7175","system_id":"levelo_inurba_marseille","lat":43.337639,"lon":5.374332,"is_reserved":false,"is_disabled":false,"rental_uris":{"android":"levelo://app?vid=84be000e-b186-4e60-8aaa-b7a0f42a7175","ios":"levelo://app?vid=84be000e-b186-4e60-8aaa-b7a0f42a7175"},"vehicle_type_id":"4","last_reported":1757931081,"current_range_meters":3600,"station_id":"","pricing_plan_id":"cebpf4jnsgd1na2vs0mg"},{"bike_id":"8a1c985d-8abf-4ba0-95d4-d11dd91d05c0","system_id":"levelo_inurba_marseille","lat":43.29578,"lon":5.375254,"is_reserved":false,"is_disabled":false,"rental_uris":{"android":"levelo://app?vid=8a1c985d-8abf-4ba0-95d4-d11dd91d05c0","ios":"levelo://app?vid=8a1c985d-8abf-4ba0-95d4-d11dd91d05c0"},"vehicle_type_id":"4","last_reported":1757931081,"current_range_meters":3600,"station_id":"","pricing_plan_id":"cebpf4jnsgd1na2vs0mg"},{"bike_id":"2fdf41fd-4138-42bd-8ad7-de8ebd121677","system_id":"levelo_inurba_marseille","lat":43.30543,"lon":5.36533,"is_reserved":false,"is_disabled":false,"rental_uris":{"android":"levelo://app?vid=2fdf41fd-4138-42bd-8ad7-de8ebd121677","ios":"levelo://app?vid=2fdf41fd-4138-42bd-8ad7-de8ebd121677"},"vehicle_type_id":"4","last_reported":1757931081,"current_range_meters":3600,"station_id":"ce4bgs12rcd13ifvqcag","pricing_plan_id":"cebpf4jnsgd1na2vs0mg"},{"bike_id":"4139ccef-c91b-4cf8-9bc3-346a6d084323","system_id":"levelo_inurba_marseille","lat":43.30453,"lon":5.37895,"is_reserved":false,"is_disabled":true,"rental_uris":{"android":"levelo://app?vid=4139ccef-c91b-4cf8-9bc3-346a6d084323","ios":"levelo://app?vid=4139ccef-c91b-4cf8-9bc3-346a6d084323"},"vehicle_type_id":"4","last_reported":1757931081,"current_range_meters":4000,"station_id":"ce4bgup2rcd13ifvqcn0","pricing_plan_id":"cebpf4jnsgd1na2vs0mg"},{"bike_id":"acad0b0b-5349-4514-8edc-1e81ad21cfbe","system_id":"levelo_inurba_marseille","lat":43.28929,"lon":5.38404,"is_reserved":false,"is_disabled":false,"rental_uris":{"android":"levelo://app?vid=acad0b0b-5349-4514-8edc-1e81ad21cfbe","ios":"levelo://app?vid=acad0b0b-5349-4514-8edc-1e81ad21cfbe"},"vehicle_type_id":"4","last_reported":1757931081,"current_range_meters":4000,"station_id":"ce4bh612rcd13ifvqe6g","pricing_plan_id":"cebpf4jnsgd1na2vs0mg"},{"bike_id":"90b6c2c8-4803-4cbe-ac55-7b11770052b2","system_id":"levelo_inurba_marseille","lat":43.30294,"lon":5.376952,"is_reserved":false,"is_disabled":true,"rental_uris":{"android":"levelo://app?vid=90b6c2c8-4803-4cbe-ac55-7b11770052b2","ios":"levelo://app?vid=90b6c2c8-4803-4cbe-ac55-7b11770052b2"},"vehicle_type_id":"4","last_reported":1757931081,"current_range_meters":4000,"station_id":"ce4bguh2rcd13ifvqcj0","pricing_plan_id":"cebpf4jnsgd1na2vs0mg"},{"bike_id":"ccfa4765-7b68-4a02-83fa-194bd24e0c67","system_id":"levelo_inurba_marseille","lat":43.24664,"lon":5.38166,"is_reserved":false,"is_disabled":false,"rental_uris":{"android":"levelo://app?vid=ccfa4765-7b68-4a02-83fa-194bd24e0c67","ios":"levelo://app?vid=ccfa4765-7b68-4a02-83fa-194bd24e0c67"},"vehicle_type_id":"4","last_reported":1757931081,"current_range_meters":3600,"station_id":"ce4bhih2rcd13ifvqfr0","pricing_plan_id":"cebpf4jnsgd1na2vs0mg"},{"bike_id":"e03bd15c-c472-4f08-bc2f-c1b8a57b70fb","system_id":"levelo_inurba_marseille","lat":43.31085,"lon":5.40105,"is_reserved":false,"is_disabled":true,"rental_uris":{"android":"levelo://app?vid=e03bd15c-c472-4f08-bc2f-c1b8a57b70fb","ios":"levelo://app?vid=e03bd15c-c472-4f08-bc2f-c1b8a57b70fb"},"vehicle_type_id":"4","last_reported":1757931081,"current_range_meters":4000,"station_id":"","pricing_plan_id":"cebpf4jnsgd1na2vs0mg"},{"bike_id":"38f9d0cc-e140-482f-baa1-bef39983948f","system_id":"levelo_inurba_marseille","lat":43.25087,"lon":5.39527,"is_reserved":false,"is_disabled":false,"rental_uris":{"android":"levelo://app?vid=38f9d0cc-e140-482f-baa1-bef39983948f","ios":"levelo://app?vid=38f9d0cc-e140-482f-baa1-bef39983948f"},"vehicle_type_id":"4","last_reported":1757931081,"current_range_meters":4400,"station_id":"ce4bhm12rcd13ifvqgkg","pricing_plan_id":"cebpf4jnsgd1na2vs0mg"},{"bike_id":"46abccb2-8643-462f-83c6-11d19b9f7030","system_id":"levelo_inurba_marseille","lat":43.28066,"lon":5.38825,"is_reserved":false,"is_disabled":false,"rental_uris":{"android":"levelo://app?vid=46abccb2-8643-462f-83c6-11d19b9f7030","ios":"levelo://app?vid=46abccb2-8643-462f-83c6-11d19b9f7030"},"vehicle_type_id":"4","last_reported":1757931081,"current_range_meters":4400,"station_id":"","pricing_plan_id":"cebpf4jnsgd1na2vs0mg"},{"bike_id":"2b133b0a-562f-4d78-80ef-a5763fd06224","system_id":"levelo_inurba_marseille","lat":43.28011,"lon":5.36949,"is_reserved":false,"is_disabled":false,"rental_uris":{"android":"levelo://app?vid=2b133b0a-562f-4d78-80ef-a5763fd06224","ios":"levelo://app?vid=2b133b0a-562f-4d78-80ef-a5763fd06224"},"vehicle_type_id":"4","last_reported":1757931081,"current_range_meters":4800,"station_id":"ce4bha12rcd13ifvqef0","pricing_plan_id":"cebpf4jnsgd1na2vs0mg"},{"bike_id":"4891d751-b66c-4a3d-89d5-78926b795844","system_id":"levelo_inurba_marseille","lat":43.337444,"lon":5.374475,"is_reserved":false,"is_disabled":false,"rental_uris":{"android":"levelo://app?vid=4891d751-b66c-4a3d-89d5-78926b795844","ios":"levelo://app?vid=4891d751-b66c-4a3d-89d5-78926b795844"},"vehicle_type_id":"4","last_reported":1757931081,"current_range_meters":4800,"station_id":"","pricing_plan_id":"cebpf4jnsgd1na2vs0mg"},{"bike_id":"9a45254c-c77a-469d-8fa3-a3fa05a580ba","system_id":"levelo_inurba_marseille","lat":43.271703,"lon":5.386752,"is_reserved":false,"is_disabled":false,"rental_uris":{"android":"levelo://app?vid=9a45254c-c77a-469d-8fa3-a3fa05a580ba","ios":"levelo://app?vid=9a45254c-c77a-469d-8fa3-a3fa05a580ba"},"vehicle_type_id":"4","last_reported":1757931081,"current_range_meters":4800,"station_id":"","pricing_plan_id":"cebpf4jnsgd1na2vs0mg"},{"bike_id":"f12aa8de-e3ea-4af9-afc4-66f8bc0789e4","system_id":"levelo_inurba_marseille","lat":43.26947,"lon":5.38633,"is_reserved":false,"is_disabled":false,"rental_uris":{"android":"levelo://app?vid=f12aa8de-e3ea-4af9-afc4-66f8bc0789e4","ios":"levelo://app?vid=f12aa8de-e3ea-4af9-afc4-66f8bc0789e4"},"vehicle_type_id":"4","last_reported":1757931081,"current_range_meters":5600,"station_id":"ce4bhh92rcd13ifvqfh0","pricing_plan_id":"cebpf4jnsgd1na2vs0mg"},{"bike_id":"484bffae-1a3b-4bc3-9591-800118c9dc4a","system_id":"levelo_inurba_marseille","lat":43.30133,"lon":5.39867,"is_reserved":false,"is_disabled":false,"rental_uris":{"android":"levelo://app?vid=484bffae-1a3b-4bc3-9591-800118c9dc4a","ios":"levelo://app?vid=484bffae-1a3b-4bc3-9591-800118c9dc4a"},"vehicle_type_id":"4","last_reported":1757931081,"current_range_meters":5600,"station_id":"","pricing_plan_id":"cebpf4jnsgd1na2vs0mg"},{"bike_id":"02dbb44c-70e3-4a7a-b86e-6159cc35ba47","system_id":"levelo_inurba_marseille","lat":43.29587,"lon":5.38689,"is_reserved":false,"is_disabled":false,"rental_uris":{"android":"levelo://app?vid=02dbb44c-70e3-4a7a-b86e-6159cc35ba47","ios":"levelo://app?vid=02dbb44c-70e3-4a7a-b86e-6159cc35ba47"},"vehicle_type_id":"4","last_reported":1757931081,"current_range_meters":5600,"station_id":"ce4bgih2rcd13ifvqba0","pricing_plan_id":"cebpf4jnsgd1na2vs0mg"},{"bike_id":"55d59e02-f5a5-4e1a-9360-556e842fa2a4","system_id":"levelo_inurba_marseille","lat":43.33764,"lon":5.37496,"is_reserved":false,"is_disabled":false,"rental_uris":{"android":"levelo://app?vid=55d59e02-f5a5-4e1a-9360-556e842fa2a4","ios":"levelo://app?vid=55d59e02-f5a5-4e1a-9360-556e842fa2a4"},"vehicle_type_id":"4","last_reported":1757931081,"current_range_meters":6000,"station_id":"","pricing_plan_id":"cebpf4jnsgd1na2vs0mg"},{"bike_id":"182289c1-d8ed-492c-a287-70c8f4e5e1b2","system_id":"levelo_inurba_marseille","lat":43.32402,"lon":5.38931,"is_reserved":false,"is_disabled":false,"rental_uris":{"android":"levelo://app?vid=182289c1-d8ed-492c-a287-70c8f4e5e1b2","ios":"levelo://app?vid=182289c1-d8ed-492c-a287-70c8f4e5e1b2"},"vehicle_type_id":"4","last_reported":1757931081,"current_range_meters":6000,"station_id":"","pricing_plan_id":"cebpf4jnsgd1na2vs0mg"},{"bike_id":"2363ca6e-9861-422c-b8f3-df0fe96cba05","system_id":"levelo_inurba_marseille","lat":43.30963,"lon":5.39025,"is_reserved":false,"is_disabled":true,"rental_uris":{"android":"levelo://app?vid=2363ca6e-9861-422c-b8f3-df0fe96cba05","ios":"levelo://app?vid=2363ca6e-9861-422c-b8f3-df0fe96cba05"},"vehicle_type_id":"4","last_reported":1757931081,"current_range_meters":6000,"station_id":"ce4bgup2rcd13ifvqco0","pricing_plan_id":"cebpf4jnsgd1na2vs0mg"},{"bike_id":"d5c98035-fc72-4062-a3ec-13203f68e8ed","system_id":"levelo_inurba_marseille","lat":43.288587,"lon":5.425117,"is_reserved":false,"is_disabled":false,"rental_uris":{"android":"levelo://app?vid=d5c98035-fc72-4062-a3ec-13203f68e8ed","ios":"levelo://app?vid=d5c98035-fc72-4062-a3ec-13203f68e8ed"},"vehicle_type_id":"4","last_reported":1757931081,"current_range_meters":6000,"station_id":"","pricing_plan_id":"cebpf4jnsgd1na2vs0mg"},{"bike_id":"40f2ca12-b632-413b-909a-a7ca1ca2cf23","system_id":"levelo_inurba_marseille","lat":43.231526,"lon":5.437148,"is_reserved":false,"is_disabled":false,"rental_uris":{"android":"levelo://app?vid=40f2ca12-b632-413b-909a-a7ca1ca2cf23","ios":"levelo://app?vid=40f2ca12-b632-413b-909a-a7ca1ca2cf23"},"vehicle_type_id":"4","last_reported":1757931081,"current_range_meters":6000,"station_id":"ce4bhmp2rcd13ifvqgog","pricing_plan_id":"cebpf4jnsgd1na2vs0mg"},{"bike_id":"94f8f3c8-694c-4de5-bb92-6664103a4b84","system_id":"levelo_inurba_marseille","lat":43.286635,"lon":5.38661,"is_reserved":false,"is_disabled":false,"rental_uris":{"android":"levelo://app?vid=94f8f3c8-694c-4de5-bb92-6664103a4b84","ios":"levelo://app?vid=94f8f3c8-694c-4de5-bb92-6664103a4b84"},"vehicle_type_id":"4","last_reported":1757931081,"current_range_meters":6000,"station_id":"ce4bh492rcd13ifvqdug","pricing_plan_id":"cebpf4jnsgd1na2vs0mg"},{"bike_id":"86c64498-b9fa-4367-8d60-0b77515d2d23","system_id":"levelo_inurba_marseille","lat":43.30162,"lon":5.37403,"is_reserved":false,"is_disabled":false,"rental_uris":{"android":"levelo://app?vid=86c64498-b9fa-4367-8d60-0b77515d2d23","ios":"levelo://app?vid=86c64498-b9fa-4367-8d60-0b77515d2d23"},"vehicle_type_id":"4","last_reported":1757931081,"current_range_meters":6400,"station_id":"ce4bgs92rcd13ifvqcc0","pricing_plan_id":"cebpf4jnsgd1na2vs0mg"},{"bike_id":"04950526-7822-42a4-9a6c-61a8b32ae3f4","system_id":"levelo_inurba_marseille","lat":43.24388,"lon":5.37058,"is_reserved":false,"is_disabled":false,"rental_uris":{"android":"levelo://app?vid=04950526-7822-42a4-9a6c-61a8b32ae3f4","ios":"levelo://app?vid=04950526-7822-42a4-9a6c-61a8b32ae3f4"},"vehicle_type_id":"4","last_reported":1757931081,"current_range_meters":6400,"station_id":"ce4bhhh2rcd13ifvqfk0","pricing_plan_id":"cebpf4jnsgd1na2vs0mg"},{"bike_id":"78f84639-56f9-4c15-8768-49ed5cee722d","system_id":"levelo_inurba_marseille","lat":43.26029,"lon":5.37551,"is_reserved":false,"is_disabled":false,"rental_uris":{"android":"levelo://app?vid=78f84639-56f9-4c15-8768-49ed5cee722d","ios":"levelo://app?vid=78f84639-56f9-4c15-8768-49ed5cee722d"},"vehicle_type_id":"4","last_reported":1757931081,"current_range_meters":6400,"station_id":"ce4bhgh2rcd13ifvqfa0","pricing_plan_id":"cebpf4jnsgd1na2vs0mg"},{"bike_id":"64fd3338-9664-4eab-9d69-526a809f8c3c","system_id":"levelo_inurba_marseille","lat":43.33801,"lon":5.36706,"is_reserved":false,"is_disabled":false,"rental_uris":{"android":"levelo://app?vid=64fd3338-9664-4eab-9d69-526a809f8c3c","ios":"levelo://app?vid=64fd3338-9664-4eab-9d69-526a809f8c3c"},"vehicle_type_id":"4","last_reported":1757931081,"current_range_meters":6400,"station_id":"","pricing_plan_id":"cebpf4jnsgd1na2vs0mg"},{"bike_id":"bf06ccf3-b27b-40d6-a92e-f06682c80827","system_id":"levelo_inurba_marseille","lat":43.26551,"lon":5.37282,"is_reserved":false,"is_disabled":false,"rental_uris":{"android":"levelo://app?vid=bf06ccf3-b27b-40d6-a92e-f06682c80827","ios":"levelo://app?vid=bf06ccf3-b27b-40d6-a92e-f06682c80827"},"vehicle_type_id":"4","last_reported":1757931081,"current_range_meters":6400,"station_id":"ce4bhg12rcd13ifvqf70","pricing_plan_id":"cebpf4jnsgd1na2vs0mg"},{"bike_id":"ce8efc2d-f16b-42b6-a4f0-a0fda97faff9","system_id":"levelo_inurba_marseille","lat":43.2993,"lon":5.36538,"is_reserved":false,"is_disabled":false,"rental_uris":{"android":"levelo://app?vid=ce8efc2d-f16b-42b6-a4f0-a0fda97faff9","ios":"levelo://app?vid=ce8efc2d-f16b-42b6-a4f0-a0fda97faff9"},"vehicle_type_id":"4","last_reported":1757931081,"current_range_meters":6400,"station_id":"ce4bgm92rcd13ifvqbr0","pricing_plan_id":"cebpf4jnsgd1na2vs0mg"},{"bike_id":"c5cba6d7-e282-4417-a818-5fc0802dcb08","system_id":"levelo_inurba_marseille","lat":43.33761,"lon":5.3745,"is_reserved":false,"is_disabled":false,"rental_uris":{"android":"levelo://app?vid=c5cba6d7-e282-4417-a818-5fc0802dcb08","ios":"levelo://app?vid=c5cba6d7-e282-4417-a818-5fc0802dcb08"},"vehicle_type_id":"4","last_reported":1757931081,"current_range_meters":6800,"station_id":"","pricing_plan_id":"cebpf4jnsgd1na2vs0mg"},{"bike_id":"406f6607-363d-4cf0-95ae-26829ed0307c","system_id":"levelo_inurba_marseille","lat":43.26222,"lon":5.40452,"is_reserved":false,"is_disabled":true,"rental_uris":{"android":"levelo://app?vid=406f6607-363d-4cf0-95ae-26829ed0307c","ios":"levelo://app?vid=406f6607-363d-4cf0-95ae-26829ed0307c"},"vehicle_type_id":"4","last_reported":1757931081,"current_range_meters":6800,"station_id":"ce4bhmh2rcd13ifvqgmg","pricing_plan_id":"cebpf4jnsgd1na2vs0mg"},{"bike_id":"aae26b68-ac9b-41e3-ab25-706a4c23c054","system_id":"levelo_inurba_marseille","lat":43.2962,"lon":5.3771,"is_reserved":false,"is_disabled":false,"rental_uris":{"android":"levelo://app?vid=aae26b68-ac9b-41e3-ab25-706a4c23c054","ios":"levelo://app?vid=aae26b68-ac9b-41e3-ab25-706a4c23c054"},"vehicle_type_id":"4","last_reported":1757931081,"current_range_meters":7200,"station_id":"ce4bgi92rcd13ifvqb90","pricing_plan_id":"cebpf4jnsgd1na2vs0mg"},{"bike_id":"bdaa3a29-0b66-461e-b99a-91ad94b507e6","system_id":"levelo_inurba_marseille","lat":43.295288,"lon":5.385383,"is_reserved":false,"is_disabled":false,"rental_uris":{"android":"levelo://app?vid=bdaa3a29-0b66-461e-b99a-91ad94b507e6","ios":"levelo://app?vid=bdaa3a29-0b66-461e-b99a-91ad94b507e6"},"vehicle_type_id":"4","last_reported":1757931081,"current_range_meters":7200,"station_id":"ce4bgih2rcd13ifvqba0","pricing_plan_id":"cebpf4jnsgd1na2vs0mg"},{"bike_id":"8fb0cde1-1836-42cd-b726-842dc9510beb","system_id":"levelo_inurba_marseille","lat":43.29283,"lon":5.36845,"is_reserved":false,"is_disabled":false,"rental_uris":{"android":"levelo://app?vid=8fb0cde1-1836-42cd-b726-842dc9510beb","ios":"levelo://app?vid=8fb0cde1-1836-42cd-b726-842dc9510beb"},"vehicle_type_id":"4","last_reported":1757931081,"current_range_meters":7200,"station_id":"ce4bhbp2rcd13ifvqesg","pricing_plan_id":"cebpf4jnsgd1na2vs0mg"},{"bike_id":"d9c11a94-d122-4240-b95b-24fdee8810ac","system_id":"levelo_inurba_marseille","lat":43.282766,"lon":5.399019,"is_reserved":false,"is_disabled":false,"rental_uris":{"android":"levelo://app?vid=d9c11a94-d122-4240-b95b-24fdee8810ac","ios":"levelo://app?vid=d9c11a94-d122-4240-b95b-24fdee8810ac"},"vehicle_type_id":"4","last_reported":1757931081,"current_range_meters":7200,"station_id":"","pricing_plan_id":"cebpf4jnsgd1na2vs0mg"},{"bike_id":"717bdd81-738e-48ac-95e1-5cbc88faa4c3","system_id":"levelo_inurba_marseille","lat":43.21742,"lon":5.34601,"is_reserved":false,"is_disabled":false,"rental_uris":{"android":"levelo://app?vid=717bdd81-738e-48ac-95e1-5cbc88faa4c3","ios":"levelo://app?vid=717bdd81-738e-48ac-95e1-5cbc88faa4c3"},"vehicle_type_id":"4","last_reported":1757931081,"current_range_meters":7200,"station_id":"st_cvj6r9ubvosntc0bgbag","pricing_plan_id":"cebpf4jnsgd1na2vs0mg"},{"bike_id":"974e0192-4f9e-4803-b6bc-e5f6e12940e1","system_id":"levelo_inurba_marseille","lat":43.31068,"lon":5.40093,"is_reserved":false,"is_disabled":false,"rental_uris":{"android":"levelo://app?vid=974e0192-4f9e-4803-b6bc-e5f6e12940e1","ios":"levelo://app?vid=974e0192-4f9e-4803-b6bc-e5f6e12940e1"},"vehicle_type_id":"4","last_reported":1757931081,"current_range_meters":8000,"station_id":"","pricing_plan_id":"cebpf4jnsgd1na2vs0mg"},{"bike_id":"046ba709-b940-4fa3-9690-1d81db536e4b","system_id":"levelo_inurba_marseille","lat":43.22548,"lon":5.41628,"is_reserved":false,"is_disabled":false,"rental_uris":{"android":"levelo://app?vid=046ba709-b940-4fa3-9690-1d81db536e4b","ios":"levelo://app?vid=046ba709-b940-4fa3-9690-1d81db536e4b"},"vehicle_type_id":"4","last_reported":1757931081,"current_range_meters":8000,"station_id":"st_d2o4gvlbi1j2169b742g","pricing_plan_id":"cebpf4jnsgd1na2vs0mg"},{"bike_id":"d5d141cd-0866-4d4d-9588-dcd1d951deee","system_id":"levelo_inurba_marseille","lat":43.31722,"lon":5.42404,"is_reserved":false,"is_disabled":false,"rental_uris":{"android":"levelo://app?vid=d5d141cd-0866-4d4d-9588-dcd1d951deee","ios":"levelo://app?vid=d5d141cd-0866-4d4d-9588-dcd1d951deee"},"vehicle_type_id":"4","last_reported":1757931081,"current_range_meters":8000,"station_id":"ce4bhp92rcd13ifvqhbg","pricing_plan_id":"cebpf4jnsgd1na2vs0mg"},{"bike_id":"30e85da9-4a4e-420a-bc64-cfe1eeea89eb","system_id":"levelo_inurba_marseille","lat":43.283534,"lon":5.376369,"is_reserved":false,"is_disabled":false,"rental_uris":{"android":"levelo://app?vid=30e85da9-4a4e-420a-bc64-cfe1eeea89eb","ios":"levelo://app?vid=30e85da9-4a4e-420a-bc64-cfe1eeea89eb"},"vehicle_type_id":"4","last_reported":1757931081,"current_range_meters":8000,"station_id":"","pricing_plan_id":"cebpf4jnsgd1na2vs0mg"},{"bike_id":"5c1e55d9-decd-426f-89d8-b98a558f3809","system_id":"levelo_inurba_marseille","lat":43.31688,"lon":5.4048,"is_reserved":false,"is_disabled":true,"rental_uris":{"android":"levelo://app?vid=5c1e55d9-decd-426f-89d8-b98a558f3809","ios":"levelo://app?vid=5c1e55d9-decd-426f-89d8-b98a558f3809"},"vehicle_type_id":"4","last_reported":1757931081,"current_range_meters":8400,"station_id":"ce4bh012rcd13ifvqd00","pricing_plan_id":"cebpf4jnsgd1na2vs0mg"},{"bike_id":"4f9bd625-ea72-423e-9234-f59f397dfa3c","system_id":"levelo_inurba_marseille","lat":43.21192,"lon":5.35071,"is_reserved":false,"is_disabled":false,"rental_uris":{"android":"levelo://app?vid=4f9bd625-ea72-423e-9234-f59f397dfa3c","ios":"levelo://app?vid=4f9bd625-ea72-423e-9234-f59f397dfa3c"},"vehicle_type_id":"4","last_reported":1757931081,"current_range_meters":8400,"station_id":"st_cvj6sg6p6f1abm77japg","pricing_plan_id":"cebpf4jnsgd1na2vs0mg"},{"bike_id":"ff949fa1-87e5-4a21-a995-ca420156a14d","system_id":"levelo_inurba_marseille","lat":43.30924,"lon":5.37163,"is_reserved":false,"is_disabled":false,"rental_uris":{"android":"levelo://app?vid=ff949fa1-87e5-4a21-a995-ca420156a14d","ios":"levelo://app?vid=ff949fa1-87e5-4a21-a995-ca420156a14d"},"vehicle_type_id":"4","last_reported":1757931081,"current_range_meters":8400,"station_id":"ce4bguh2rcd13ifvqckg","pricing_plan_id":"cebpf4jnsgd1na2vs0mg"},{"bike_id":"90b99ccf-2b3c-4d75-9e45-7dd3a550aac1","system_id":"levelo_inurba_marseille","lat":43.23569,"lon":5.39891,"is_reserved":false,"is_disabled":true,"rental_uris":{"android":"levelo://app?vid=90b99ccf-2b3c-4d75-9e45-7dd3a550aac1","ios":"levelo://app?vid=90b99ccf-2b3c-4d75-9e45-7dd3a550aac1"},"vehicle_type_id":"4","last_reported":1757931081,"current_range_meters":8400,"station_id":"","pricing_plan_id":"cebpf4jnsgd1na2vs0mg"},{"bike_id":"4825b592-3cfc-4a25-b737-ac971dce26a9","system_id":"levelo_inurba_marseille","lat":43.292273,"lon":5.360666,"is_reserved":false,"is_disabled":false,"rental_uris":{"android":"levelo://app?vid=4825b592-3cfc-4a25-b737-ac971dce26a9","ios":"levelo://app?vid=4825b592-3cfc-4a25-b737-ac971dce26a9"},"vehicle_type_id":"4","last_reported":1757931081,"current_range_meters":8400,"station_id":"ce4bhbh2rcd13ifvqeqg","pricing_plan_id":"cebpf4jnsgd1na2vs0mg"},{"bike_id":"0207a7ca-9ace-413e-a652-241035071055","system_id":"levelo_inurba_marseille","lat":43.22928,"lon":5.35373,"is_reserved":false,"is_disabled":false,"rental_uris":{"android":"levelo://app?vid=0207a7ca-9ace-413e-a652-241035071055","ios":"levelo://app?vid=0207a7ca-9ace-413e-a652-241035071055"},"vehicle_type_id":"4","last_reported":1757931081,"current_range_meters":8400,"station_id":"cpo3532slgdg3j2ikp40","pricing_plan_id":"cebpf4jnsgd1na2vs0mg"},{"bike_id":"92328f20-9c61-4621-aefd-c280af7d31a0","system_id":"levelo_inurba_marseille","lat":43.28865,"lon":5.42528,"is_reserved":false,"is_disabled":false,"rental_uris":{"android":"levelo://app?vid=92328f20-9c61-4621-aefd-c280af7d31a0","ios":"levelo://app?vid=92328f20-9c61-4621-aefd-c280af7d31a0"},"vehicle_type_id":"4","last_reported":1757931081,"current_range_meters":8400,"station_id":"","pricing_plan_id":"cebpf4jnsgd1na2vs0mg"},{"bike_id":"cc96d243-007b-40dc-b8f2-862ab235190e","system_id":"levelo_inurba_marseille","lat":43.25494,"lon":5.37649,"is_reserved":false,"is_disabled":false,"rental_uris":{"android":"levelo://app?vid=cc96d243-007b-40dc-b8f2-862ab235190e","ios":"levelo://app?vid=cc96d243-007b-40dc-b8f2-862ab235190e"},"vehicle_type_id":"4","last_reported":1757931081,"current_range_meters":8800,"station_id":"ce4bhh12rcd13ifvqff0","pricing_plan_id":"cebpf4jnsgd1na2vs0mg"},{"bike_id":"1bae9424-2a0d-4c2d-a0e5-65d9bf088c8c","system_id":"levelo_inurba_marseille","lat":43.21747,"lon":5.34599,"is_reserved":false,"is_disabled":false,"rental_uris":{"android":"levelo://app?vid=1bae9424-2a0d-4c2d-a0e5-65d9bf088c8c","ios":"levelo://app?vid=1bae9424-2a0d-4c2d-a0e5-65d9bf088c8c"},"vehicle_type_id":"4","last_reported":1757931081,"current_range_meters":8800,"station_id":"st_cvj6r9ubvosntc0bgbag","pricing_plan_id":"cebpf4jnsgd1na2vs0mg"},{"bike_id":"f32b4a38-2322-4ea3-a8d9-b73c4a1faedb","system_id":"levelo_inurba_marseille","lat":43.32545,"lon":5.41429,"is_reserved":false,"is_disabled":false,"rental_uris":{"android":"levelo://app?vid=f32b4a38-2322-4ea3-a8d9-b73c4a1faedb","ios":"levelo://app?vid=f32b4a38-2322-4ea3-a8d9-b73c4a1faedb"},"vehicle_type_id":"4","last_reported":1757931081,"current_range_meters":9200,"station_id":"ce4bhq12rcd13ifvqhhg","pricing_plan_id":"cebpf4jnsgd1na2vs0mg"},{"bike_id":"ee42c31a-b74b-4b2d-917a-cd50dc10c6ce","system_id":"levelo_inurba_marseille","lat":43.310611,"lon":5.400964,"is_reserved":false,"is_disabled":false,"rental_uris":{"android":"levelo://app?vid=ee42c31a-b74b-4b2d-917a-cd50dc10c6ce","ios":"levelo://app?vid=ee42c31a-b74b-4b2d-917a-cd50dc10c6ce"},"vehicle_type_id":"4","last_reported":1757931081,"current_range_meters":9200,"station_id":"","pricing_plan_id":"cebpf4jnsgd1na2vs0mg"},{"bike_id":"c197724f-ac51-4f87-8a4c-6894dceac8f7","system_id":"levelo_inurba_marseille","lat":43.22933,"lon":5.35361,"is_reserved":false,"is_disabled":false,"rental_uris":{"android":"levelo://app?vid=c197724f-ac51-4f87-8a4c-6894dceac8f7","ios":"levelo://app?vid=c197724f-ac51-4f87-8a4c-6894dceac8f7"},"vehicle_type_id":"4","last_reported":1757931081,"current_range_meters":9200,"station_id":"cpo3532slgdg3j2ikp40","pricing_plan_id":"cebpf4jnsgd1na2vs0mg"},{"bike_id":"1168a5ed-5ef1-47fe-9e0b-8a3e1ad7cf3a","system_id":"levelo_inurba_marseille","lat":43.25501,"lon":5.37647,"is_reserved":false,"is_disabled":false,"rental_uris":{"android":"levelo://app?vid=1168a5ed-5ef1-47fe-9e0b-8a3e1ad7cf3a","ios":"levelo://app?vid=1168a5ed-5ef1-47fe-9e0b-8a3e1ad7cf3a"},"vehicle_type_id":"4","last_reported":1757931081,"current_range_meters":9200,"station_id":"ce4bhh12rcd13ifvqff0","pricing_plan_id":"cebpf4jnsgd1na2vs0mg"},{"bike_id":"94558a89-6d18-421b-8c7a-a15dc43c6d5e","system_id":"levelo_inurba_marseille","lat":43.27999,"lon":5.41661,"is_reserved":false,"is_disabled":false,"rental_uris":{"android":"levelo://app?vid=94558a89-6d18-421b-8c7a-a15dc43c6d5e","ios":"levelo://app?vid=94558a89-6d18-421b-8c7a-a15dc43c6d5e"},"vehicle_type_id":"4","last_reported":1757931081,"current_range_meters":9600,"station_id":"ce4bho12rcd13ifvqh1g","pricing_plan_id":"cebpf4jnsgd1na2vs0mg"},{"bike_id":"85db8ab9-6b24-4c23-8762-109e948df9cd","system_id":"levelo_inurba_marseille","lat":43.305962,"lon":5.404628,"is_reserved":false,"is_disabled":false,"rental_uris":{"android":"levelo://app?vid=85db8ab9-6b24-4c23-8762-109e948df9cd","ios":"levelo://app?vid=85db8ab9-6b24-4c23-8762-109e948df9cd"},"vehicle_type_id":"4","last_reported":1757931081,"current_range_meters":9600,"station_id":"","pricing_plan_id":"cebpf4jnsgd1na2vs0mg"},{"bike_id":"b0ee3d6f-86af-4625-9fb6-a68fbf2e6a08","system_id":"levelo_inurba_marseille","lat":43.286735,"lon":5.386801,"is_reserved":false,"is_disabled":false,"rental_uris":{"android":"levelo://app?vid=b0ee3d6f-86af-4625-9fb6-a68fbf2e6a08","ios":"levelo://app?vid=b0ee3d6f-86af-4625-9fb6-a68fbf2e6a08"},"vehicle_type_id":"4","last_reported":1757931081,"current_range_meters":9600,"station_id":"","pricing_plan_id":"cebpf4jnsgd1na2vs0mg"},{"bike_id":"fbd0328c-4ce4-4080-b126-d2d47d815fa6","system_id":"levelo_inurba_marseille","lat":43.21775,"lon":5.34592,"is_reserved":false,"is_disabled":false,"rental_uris":{"android":"levelo://app?vid=fbd0328c-4ce4-4080-b126-d2d47d815fa6","ios":"levelo://app?vid=fbd0328c-4ce4-4080-b126-d2d47d815fa6"},"vehicle_type_id":"4","last_reported":1757931081,"current_range_meters":9600,"station_id":"st_cvj6r9ubvosntc0bgbag","pricing_plan_id":"cebpf4jnsgd1na2vs0mg"},{"bike_id":"5aeb5022-1558-4cda-a743-0921b3fe28c3","system_id":"levelo_inurba_marseille","lat":43.31355,"lon":5.385,"is_reserved":false,"is_disabled":false,"rental_uris":{"android":"levelo://app?vid=5aeb5022-1558-4cda-a743-0921b3fe28c3","ios":"levelo://app?vid=5aeb5022-1558-4cda-a743-0921b3fe28c3"},"vehicle_type_id":"4","last_reported":1757931081,"current_range_meters":10000,"station_id":"ce4bgt92rcd13ifvqcf0","pricing_plan_id":"cebpf4jnsgd1na2vs0mg"},{"bike_id":"ca0901f1-1b37-4a72-a69e-49f1521f44f3","system_id":"levelo_inurba_marseille","lat":43.30106,"lon":5.37278,"is_reserved":false,"is_disabled":false,"rental_uris":{"android":"levelo://app?vid=ca0901f1-1b37-4a72-a69e-49f1521f44f3","ios":"levelo://app?vid=ca0901f1-1b37-4a72-a69e-49f1521f44f3"},"vehicle_type_id":"4","last_reported":1757931081,"current_range_meters":10000,"station_id":"","pricing_plan_id":"cebpf4jnsgd1na2vs0mg"},{"bike_id":"1f326fc4-617b-40f3-b0ab-244c682b17e0","system_id":"levelo_inurba_marseille","lat":43.28154,"lon":5.42644,"is_reserved":false,"is_disabled":false,"rental_uris":{"android":"levelo://app?vid=1f326fc4-617b-40f3-b0ab-244c682b17e0","ios":"levelo://app?vid=1f326fc4-617b-40f3-b0ab-244c682b17e0"},"vehicle_type_id":"4","last_reported":1757931081,"current_range_meters":9600,"station_id":"ce4bhnh2rcd13ifvqgug","pricing_plan_id":"cebpf4jnsgd1na2vs0mg"},{"bike_id":"ac0cddb1-dc7c-40a0-804e-f3a05930321a","system_id":"levelo_inurba_marseille","lat":43.27918,"lon":5.395794,"is_reserved":false,"is_disabled":false,"rental_uris":{"android":"levelo://app?vid=ac0cddb1-dc7c-40a0-804e-f3a05930321a","ios":"levelo://app?vid=ac0cddb1-dc7c-40a0-804e-f3a05930321a"},"vehicle_type_id":"4","last_reported":1757931081,"current_range_meters":10000,"station_id":"ce4bhf92rcd13ifvqf40","pricing_plan_id":"cebpf4jnsgd1na2vs0mg"},{"bike_id":"0dde51c3-0ae9-405f-9085-e82467e1fb2f","system_id":"levelo_inurba_marseille","lat":43.29705,"lon":5.36594,"is_reserved":false,"is_disabled":false,"rental_uris":{"android":"levelo://app?vid=0dde51c3-0ae9-405f-9085-e82467e1fb2f","ios":"levelo://app?vid=0dde51c3-0ae9-405f-9085-e82467e1fb2f"},"vehicle_type_id":"4","last_reported":1757931081,"current_range_meters":10800,"station_id":"ce4bgn12rcd13ifvqbt0","pricing_plan_id":"cebpf4jnsgd1na2vs0mg"},{"bike_id":"cc0dbca0-f6f3-464f-ac6c-2b963eb12ac9","system_id":"levelo_inurba_marseille","lat":43.26032,"lon":5.37542,"is_reserved":false,"is_disabled":false,"rental_uris":{"android":"levelo://app?vid=cc0dbca0-f6f3-464f-ac6c-2b963eb12ac9","ios":"levelo://app?vid=cc0dbca0-f6f3-464f-ac6c-2b963eb12ac9"},"vehicle_type_id":"4","last_reported":1757931081,"current_range_meters":10800,"station_id":"ce4bhgh2rcd13ifvqfa0","pricing_plan_id":"cebpf4jnsgd1na2vs0mg"},{"bike_id":"d9c4202c-de13-4428-8c40-40d90faf1618","system_id":"levelo_inurba_marseille","lat":43.31356,"lon":5.3707,"is_reserved":false,"is_disabled":true,"rental_uris":{"android":"levelo://app?vid=d9c4202c-de13-4428-8c40-40d90faf1618","ios":"levelo://app?vid=d9c4202c-de13-4428-8c40-40d90faf1618"},"vehicle_type_id":"4","last_reported":1757931081,"current_range_meters":10800,"station_id":"","pricing_plan_id":"cebpf4jnsgd1na2vs0mg"},{"bike_id":"f75319f4-d3a6-440f-9c89-5af7f4acd041","system_id":"levelo_inurba_marseille","lat":43.22552,"lon":5.41642,"is_reserved":false,"is_disabled":false,"rental_uris":{"android":"levelo://app?vid=f75319f4-d3a6-440f-9c89-5af7f4acd041","ios":"levelo://app?vid=f75319f4-d3a6-440f-9c89-5af7f4acd041"},"vehicle_type_id":"4","last_reported":1757931081,"current_range_meters":10800,"station_id":"st_d2o4gvlbi1j2169b742g","pricing_plan_id":"cebpf4jnsgd1na2vs0mg"},{"bike_id":"8c360ca4-7816-4716-b80b-41b80890f3e0","system_id":"levelo_inurba_marseille","lat":43.28561,"lon":5.39503,"is_reserved":false,"is_disabled":false,"rental_uris":{"android":"levelo://app?vid=8c360ca4-7816-4716-b80b-41b80890f3e0","ios":"levelo://app?vid=8c360ca4-7816-4716-b80b-41b80890f3e0"},"vehicle_type_id":"4","last_reported":1757931081,"current_range_meters":10800,"station_id":"ce4bh292rcd13ifvqdg0","pricing_plan_id":"cebpf4jnsgd1na2vs0mg"},{"bike_id":"e8930cfa-2c36-4dbf-ab3e-6afdedf38824","system_id":"levelo_inurba_marseille","lat":43.22575,"lon":5.41588,"is_reserved":false,"is_disabled":false,"rental_uris":{"android":"levelo://app?vid=e8930cfa-2c36-4dbf-ab3e-6afdedf38824","ios":"levelo://app?vid=e8930cfa-2c36-4dbf-ab3e-6afdedf38824"},"vehicle_type_id":"4","last_reported":1757931081,"current_range_meters":10800,"station_id":"st_d2o4gvlbi1j2169b742g","pricing_plan_id":"cebpf4jnsgd1na2vs0mg"},{"bike_id":"9d183fcf-4799-4cb1-b51b-31aeb36625f9","system_id":"levelo_inurba_marseille","lat":43.26937,"lon":5.40241,"is_reserved":false,"is_disabled":false,"rental_uris":{"android":"levelo://app?vid=9d183fcf-4799-4cb1-b51b-31aeb36625f9","ios":"levelo://app?vid=9d183fcf-4799-4cb1-b51b-31aeb36625f9"},"vehicle_type_id":"4","last_reported":1757931081,"current_range_meters":10800,"station_id":"cjm6bp8fraef2m0cb0m0","pricing_plan_id":"cebpf4jnsgd1na2vs0mg"},{"bike_id":"4d6e6605-7f16-44fa-a19a-c138ee7cb360","system_id":"levelo_inurba_marseille","lat":43.33799,"lon":5.37446,"is_reserved":false,"is_disabled":false,"rental_uris":{"android":"levelo://app?vid=4d6e6605-7f16-44fa-a19a-c138ee7cb360","ios":"levelo://app?vid=4d6e6605-7f16-44fa-a19a-c138ee7cb360"},"vehicle_type_id":"4","last_reported":1757931081,"current_range_meters":10800,"station_id":"","pricing_plan_id":"cebpf4jnsgd1na2vs0mg"},{"bike_id":"4b89ad18-a85a-4cf5-a107-a46d8823374f","system_id":"levelo_inurba_marseille","lat":43.22535,"lon":5.41678,"is_reserved":false,"is_disabled":false,"rental_uris":{"android":"levelo://app?vid=4b89ad18-a85a-4cf5-a107-a46d8823374f","ios":"levelo://app?vid=4b89ad18-a85a-4cf5-a107-a46d8823374f"},"vehicle_type_id":"4","last_reported":1757931081,"current_range_meters":10800,"station_id":"st_d2o4gvlbi1j2169b742g","pricing_plan_id":"cebpf4jnsgd1na2vs0mg"},{"bike_id":"f42d6ea2-7af4-4ba5-9ea3-962ec44cce30","system_id":"levelo_inurba_marseille","lat":43.24805,"lon":5.37461,"is_reserved":false,"is_disabled":false,"rental_uris":{"android":"levelo://app?vid=f42d6ea2-7af4-4ba5-9ea3-962ec44cce30","ios":"levelo://app?vid=f42d6ea2-7af4-4ba5-9ea3-962ec44cce30"},"vehicle_type_id":"4","last_reported":1757931081,"current_range_meters":10800,"station_id":"ce4bhgh2rcd13ifvqfb0","pricing_plan_id":"cebpf4jnsgd1na2vs0mg"},{"bike_id":"81e7b5bf-86d9-4d26-bdba-e83aaa6e631f","system_id":"levelo_inurba_marseille","lat":43.29844,"lon":5.36274,"is_reserved":false,"is_disabled":false,"rental_uris":{"android":"levelo://app?vid=81e7b5bf-86d9-4d26-bdba-e83aaa6e631f","ios":"levelo://app?vid=81e7b5bf-86d9-4d26-bdba-e83aaa6e631f"},"vehicle_type_id":"4","last_reported":1757931081,"current_range_meters":10800,"station_id":"ce4bgpp2rcd13ifvqc3g","pricing_plan_id":"cebpf4jnsgd1na2vs0mg"},{"bike_id":"66afd6b9-44ae-44a5-be71-0170ee931a12","system_id":"levelo_inurba_marseille","lat":43.23156,"lon":5.43712,"is_reserved":false,"is_disabled":false,"rental_uris":{"android":"levelo://app?vid=66afd6b9-44ae-44a5-be71-0170ee931a12","ios":"levelo://app?vid=66afd6b9-44ae-44a5-be71-0170ee931a12"},"vehicle_type_id":"4","last_reported":1757931081,"current_range_meters":10800,"station_id":"ce4bhmp2rcd13ifvqgog","pricing_plan_id":"cebpf4jnsgd1na2vs0mg"},{"bike_id":"c3ccc05a-e610-4ca8-8889-958b42812f40","system_id":"levelo_inurba_marseille","lat":43.28365,"lon":5.38616,"is_reserved":false,"is_disabled":false,"rental_uris":{"android":"levelo://app?vid=c3ccc05a-e610-4ca8-8889-958b42812f40","ios":"levelo://app?vid=c3ccc05a-e610-4ca8-8889-958b42812f40"},"vehicle_type_id":"4","last_reported":1757931081,"current_range_meters":10800,"station_id":"ce4bh492rcd13ifvqdvg","pricing_plan_id":"cebpf4jnsgd1na2vs0mg"},{"bike_id":"fb3fd1c9-1b56-452e-9e27-15b86ce6c9cc","system_id":"levelo_inurba_marseille","lat":43.2572,"lon":5.41108,"is_reserved":false,"is_disabled":false,"rental_uris":{"android":"levelo://app?vid=fb3fd1c9-1b56-452e-9e27-15b86ce6c9cc","ios":"levelo://app?vid=fb3fd1c9-1b56-452e-9e27-15b86ce6c9cc"},"vehicle_type_id":"4","last_reported":1757931081,"current_range_meters":11200,"station_id":"ce4bhkp2rcd13ifvqgd0","pricing_plan_id":"cebpf4jnsgd1na2vs0mg"},{"bike_id":"5a81b3ee-0024-4a9e-9408-afa696bc6341","system_id":"levelo_inurba_marseille","lat":43.23194,"lon":5.3555,"is_reserved":false,"is_disabled":false,"rental_uris":{"android":"levelo://app?vid=5a81b3ee-0024-4a9e-9408-afa696bc6341","ios":"levelo://app?vid=5a81b3ee-0024-4a9e-9408-afa696bc6341"},"vehicle_type_id":"4","last_reported":1757931081,"current_range_meters":11200,"station_id":"ce4bhu92rcd13ifvqi70","pricing_plan_id":"cebpf4jnsgd1na2vs0mg"},{"bike_id":"4e297b37-6634-4bba-84d4-cc4607d0a9bb","system_id":"levelo_inurba_marseille","lat":43.30151,"lon":5.38076,"is_reserved":false,"is_disabled":false,"rental_uris":{"android":"levelo://app?vid=4e297b37-6634-4bba-84d4-cc4607d0a9bb","ios":"levelo://app?vid=4e297b37-6634-4bba-84d4-cc4607d0a9bb"},"vehicle_type_id":"4","last_reported":1757931081,"current_range_meters":11600,"station_id":"ce4bgjp2rcd13ifvqbh0","pricing_plan_id":"cebpf4jnsgd1na2vs0mg"},{"bike_id":"e05eea5e-3ede-4b75-8a49-e9854c3d159d","system_id":"levelo_inurba_marseille","lat":43.28615,"lon":5.35126,"is_reserved":false,"is_disabled":false,"rental_uris":{"android":"levelo://app?vid=e05eea5e-3ede-4b75-8a49-e9854c3d159d","ios":"levelo://app?vid=e05eea5e-3ede-4b75-8a49-e9854c3d159d"},"vehicle_type_id":"4","last_reported":1757931081,"current_range_meters":11600,"station_id":"ce4bhch2rcd13ifvqeug","pricing_plan_id":"cebpf4jnsgd1na2vs0mg"},{"bike_id":"2ca44cda-fc86-49aa-be44-aa89617da7bb","system_id":"levelo_inurba_marseille","lat":43.30157,"lon":5.37405,"is_reserved":false,"is_disabled":false,"rental_uris":{"android":"levelo://app?vid=2ca44cda-fc86-49aa-be44-aa89617da7bb","ios":"levelo://app?vid=2ca44cda-fc86-49aa-be44-aa89617da7bb"},"vehicle_type_id":"4","last_reported":1757931081,"current_range_meters":11600,"station_id":"ce4bgs92rcd13ifvqcc0","pricing_plan_id":"cebpf4jnsgd1na2vs0mg"},{"bike_id":"5afa2e39-bd21-48e5-9d65-4bd2362b947e","system_id":"levelo_inurba_marseille","lat":43.2722,"lon":5.39186,"is_reserved":false,"is_disabled":false,"rental_uris":{"android":"levelo://app?vid=5afa2e39-bd21-48e5-9d65-4bd2362b947e","ios":"levelo://app?vid=5afa2e39-bd21-48e5-9d65-4bd2362b947e"},"vehicle_type_id":"4","last_reported":1757931081,"current_range_meters":11600,"station_id":"ce4bhhp2rcd13ifvqfm0","pricing_plan_id":"cebpf4jnsgd1na2vs0mg"},{"bike_id":"746f8f66-7f46-4e2a-8f64-942936320bf9","system_id":"levelo_inurba_marseille","lat":43.2394,"lon":5.36679,"is_reserved":false,"is_disabled":true,"rental_uris":{"android":"levelo://app?vid=746f8f66-7f46-4e2a-8f64-942936320bf9","ios":"levelo://app?vid=746f8f66-7f46-4e2a-8f64-942936320bf9"},"vehicle_type_id":"4","last_reported":1757931081,"current_range_meters":11600,"station_id":"ce4bhi12rcd13ifvqfp0","pricing_plan_id":"cebpf4jnsgd1na2vs0mg"},{"bike_id":"b95fb84f-e982-4fd1-a36c-2a6c49553a2b","system_id":"levelo_inurba_marseille","lat":43.25585,"lon":5.38228,"is_reserved":false,"is_disabled":false,"rental_uris":{"android":"levelo://app?vid=b95fb84f-e982-4fd1-a36c-2a6c49553a2b","ios":"levelo://app?vid=b95fb84f-e982-4fd1-a36c-2a6c49553a2b"},"vehicle_type_id":"4","last_reported":1757931081,"current_range_meters":11600,"station_id":"ce4bhih2rcd13ifvqfs0","pricing_plan_id":"cebpf4jnsgd1na2vs0mg"},{"bike_id":"4fa32fc6-4b31-40eb-a03f-aff5cbd63440","system_id":"levelo_inurba_marseille","lat":43.30462,"lon":5.37899,"is_reserved":false,"is_disabled":false,"rental_uris":{"android":"levelo://app?vid=4fa32fc6-4b31-40eb-a03f-aff5cbd63440","ios":"levelo://app?vid=4fa32fc6-4b31-40eb-a03f-aff5cbd63440"},"vehicle_type_id":"4","last_reported":1757931081,"current_range_meters":12000,"station_id":"ce4bgup2rcd13ifvqcn0","pricing_plan_id":"cebpf4jnsgd1na2vs0mg"},{"bike_id":"7908f860-5c30-44ef-a5d2-52ca6178704c","system_id":"levelo_inurba_marseille","lat":43.31263,"lon":5.40177,"is_reserved":false,"is_disabled":false,"rental_uris":{"android":"levelo://app?vid=7908f860-5c30-44ef-a5d2-52ca6178704c","ios":"levelo://app?vid=7908f860-5c30-44ef-a5d2-52ca6178704c"},"vehicle_type_id":"4","last_reported":1757931081,"current_range_meters":12800,"station_id":"ce4bh092rcd13ifvqd30","pricing_plan_id":"cebpf4jnsgd1na2vs0mg"},{"bike_id":"e15a3234-6135-43f7-9fd1-d7538f8827c8","system_id":"levelo_inurba_marseille","lat":43.23055,"lon":5.3549,"is_reserved":false,"is_disabled":false,"rental_uris":{"android":"levelo://app?vid=e15a3234-6135-43f7-9fd1-d7538f8827c8","ios":"levelo://app?vid=e15a3234-6135-43f7-9fd1-d7538f8827c8"},"vehicle_type_id":"4","last_reported":1757931081,"current_range_meters":12000,"station_id":"cpo3342slgdg3j2ifvpg","pricing_plan_id":"cebpf4jnsgd1na2vs0mg"},{"bike_id":"b2fba456-5a3b-40c6-8765-ad84661db187","system_id":"levelo_inurba_marseille","lat":43.257205,"lon":5.411136,"is_reserved":false,"is_disabled":false,"rental_uris":{"android":"levelo://app?vid=b2fba456-5a3b-40c6-8765-ad84661db187","ios":"levelo://app?vid=b2fba456-5a3b-40c6-8765-ad84661db187"},"vehicle_type_id":"4","last_reported":1757931081,"current_range_meters":12000,"station_id":"ce4bhkp2rcd13ifvqgd0","pricing_plan_id":"cebpf4jnsgd1na2vs0mg"},{"bike_id":"97706d3f-f9d6-47c3-953b-bd71c07a3fc3","system_id":"levelo_inurba_marseille","lat":43.25936,"lon":5.40896,"is_reserved":false,"is_disabled":false,"rental_uris":{"android":"levelo://app?vid=97706d3f-f9d6-47c3-953b-bd71c07a3fc3","ios":"levelo://app?vid=97706d3f-f9d6-47c3-953b-bd71c07a3fc3"},"vehicle_type_id":"4","last_reported":1757931081,"current_range_meters":12000,"station_id":"ce4bhm92rcd13ifvqglg","pricing_plan_id":"cebpf4jnsgd1na2vs0mg"},{"bike_id":"b6d6f1e2-48c4-4558-b02a-207c838be43f","system_id":"levelo_inurba_marseille","lat":43.28612,"lon":5.37069,"is_reserved":false,"is_disabled":false,"rental_uris":{"android":"levelo://app?vid=b6d6f1e2-48c4-4558-b02a-207c838be43f","ios":"levelo://app?vid=b6d6f1e2-48c4-4558-b02a-207c838be43f"},"vehicle_type_id":"4","last_reported":1757931081,"current_range_meters":12000,"station_id":"ce4bht12rcd13ifvqi60","pricing_plan_id":"cebpf4jnsgd1na2vs0mg"},{"bike_id":"57127154-7e15-4346-89ed-ab9d76ef9c2c","system_id":"levelo_inurba_marseille","lat":43.28838,"lon":5.36326,"is_reserved":false,"is_disabled":false,"rental_uris":{"android":"levelo://app?vid=57127154-7e15-4346-89ed-ab9d76ef9c2c","ios":"levelo://app?vid=57127154-7e15-4346-89ed-ab9d76ef9c2c"},"vehicle_type_id":"4","last_reported":1757931081,"current_range_meters":12000,"station_id":"","pricing_plan_id":"cebpf4jnsgd1na2vs0mg"},{"bike_id":"1c3668c3-9621-4934-b546-4c020515dad2","system_id":"levelo_inurba_marseille","lat":43.28924,"lon":5.38397,"is_reserved":false,"is_disabled":false,"rental_uris":{"android":"levelo://app?vid=1c3668c3-9621-4934-b546-4c020515dad2","ios":"levelo://app?vid=1c3668c3-9621-4934-b546-4c020515dad2"},"vehicle_type_id":"4","last_reported":1757931081,"current_range_meters":12400,"station_id":"ce4bh612rcd13ifvqe6g","pricing_plan_id":"cebpf4jnsgd1na2vs0mg"},{"bike_id":"4bdc016c-5fdc-444d-89dd-7c2124b3983f","system_id":"levelo_inurba_marseille","lat":43.29698,"lon":5.37288,"is_reserved":false,"is_disabled":false,"rental_uris":{"android":"levelo://app?vid=4bdc016c-5fdc-444d-89dd-7c2124b3983f","ios":"levelo://app?vid=4bdc016c-5fdc-444d-89dd-7c2124b3983f"},"vehicle_type_id":"4","last_reported":1757931081,"current_range_meters":12400,"station_id":"ce4bgk12rcd13ifvqbj0","pricing_plan_id":"cebpf4jnsgd1na2vs0mg"},{"bike_id":"e7a329bd-ed66-4ac7-aaba-63f2810ddd86","system_id":"levelo_inurba_marseille","lat":43.31859,"lon":5.37206,"is_reserved":false,"is_disabled":true,"rental_uris":{"android":"levelo://app?vid=e7a329bd-ed66-4ac7-aaba-63f2810ddd86","ios":"levelo://app?vid=e7a329bd-ed66-4ac7-aaba-63f2810ddd86"},"vehicle_type_id":"4","last_reported":1757931081,"current_range_meters":12400,"station_id":"","pricing_plan_id":"cebpf4jnsgd1na2vs0mg"},{"bike_id":"f99d105c-3315-4653-880f-3eb18624199b","system_id":"levelo_inurba_marseille","lat":43.28614,"lon":5.35125,"is_reserved":false,"is_disabled":false,"rental_uris":{"android":"levelo://app?vid=f99d105c-3315-4653-880f-3eb18624199b","ios":"levelo://app?vid=f99d105c-3315-4653-880f-3eb18624199b"},"vehicle_type_id":"4","last_reported":1757931081,"current_range_meters":12400,"station_id":"ce4bhch2rcd13ifvqeug","pricing_plan_id":"cebpf4jnsgd1na2vs0mg"},{"bike_id":"6ba3ccec-2771-4198-9bee-603f287a4de2","system_id":"levelo_inurba_marseille","lat":43.30375,"lon":5.42484,"is_reserved":false,"is_disabled":false,"rental_uris":{"android":"levelo://app?vid=6ba3ccec-2771-4198-9bee-603f287a4de2","ios":"levelo://app?vid=6ba3ccec-2771-4198-9bee-603f287a4de2"},"vehicle_type_id":"4","last_reported":1757931081,"current_range_meters":12400,"station_id":"ce4bhoh2rcd13ifvqh6g","pricing_plan_id":"cebpf4jnsgd1na2vs0mg"},{"bike_id":"03a632f1-6cf9-48d9-8d0d-cdc6b623de20","system_id":"levelo_inurba_marseille","lat":43.25943,"lon":5.409021,"is_reserved":false,"is_disabled":false,"rental_uris":{"android":"levelo://app?vid=03a632f1-6cf9-48d9-8d0d-cdc6b623de20","ios":"levelo://app?vid=03a632f1-6cf9-48d9-8d0d-cdc6b623de20"},"vehicle_type_id":"4","last_reported":1757931081,"current_range_meters":12400,"station_id":"ce4bhm92rcd13ifvqglg","pricing_plan_id":"cebpf4jnsgd1na2vs0mg"},{"bike_id":"944ea2a6-5bea-4d9a-970b-669091a09825","system_id":"levelo_inurba_marseille","lat":43.30531,"lon":5.3655,"is_reserved":false,"is_disabled":false,"rental_uris":{"android":"levelo://app?vid=944ea2a6-5bea-4d9a-970b-669091a09825","ios":"levelo://app?vid=944ea2a6-5bea-4d9a-970b-669091a09825"},"vehicle_type_id":"4","last_reported":1757931081,"current_range_meters":12400,"station_id":"ce4bgs12rcd13ifvqcag","pricing_plan_id":"cebpf4jnsgd1na2vs0mg"},{"bike_id":"146d9d13-cf6d-4c32-9f07-05f123908819","system_id":"levelo_inurba_marseille","lat":43.29067,"lon":5.39972,"is_reserved":false,"is_disabled":false,"rental_uris":{"android":"levelo://app?vid=146d9d13-cf6d-4c32-9f07-05f123908819","ios":"levelo://app?vid=146d9d13-cf6d-4c32-9f07-05f123908819"},"vehicle_type_id":"4","last_reported":1757931081,"current_range_meters":12800,"station_id":"ce4bh392rcd13ifvqdm0","pricing_plan_id":"cebpf4jnsgd1na2vs0mg"},{"bike_id":"cda07c4b-df5b-4410-adf6-088a13ed8537","system_id":"levelo_inurba_marseille","lat":43.24804,"lon":5.37454,"is_reserved":false,"is_disabled":false,"rental_uris":{"android":"levelo://app?vid=cda07c4b-df5b-4410-adf6-088a13ed8537","ios":"levelo://app?vid=cda07c4b-df5b-4410-adf6-088a13ed8537"},"vehicle_type_id":"4","last_reported":1757931081,"current_range_meters":12800,"station_id":"ce4bhgh2rcd13ifvqfb0","pricing_plan_id":"cebpf4jnsgd1na2vs0mg"},{"bike_id":"08482c8e-7982-4389-aecd-281680925cee","system_id":"levelo_inurba_marseille","lat":43.27668,"lon":5.38871,"is_reserved":false,"is_disabled":false,"rental_uris":{"android":"levelo://app?vid=08482c8e-7982-4389-aecd-281680925cee","ios":"levelo://app?vid=08482c8e-7982-4389-aecd-281680925cee"},"vehicle_type_id":"4","last_reported":1757931081,"current_range_meters":12800,"station_id":"ce4bhi12rcd13ifvqfo0","pricing_plan_id":"cebpf4jnsgd1na2vs0mg"},{"bike_id":"c240aebc-1909-455e-b183-fe4b3b670333","system_id":"levelo_inurba_marseille","lat":43.30157,"lon":5.38069,"is_reserved":false,"is_disabled":false,"rental_uris":{"android":"levelo://app?vid=c240aebc-1909-455e-b183-fe4b3b670333","ios":"levelo://app?vid=c240aebc-1909-455e-b183-fe4b3b670333"},"vehicle_type_id":"4","last_reported":1757931081,"current_range_meters":12800,"station_id":"ce4bgjp2rcd13ifvqbh0","pricing_plan_id":"cebpf4jnsgd1na2vs0mg"},{"bike_id":"d5707b16-9074-45d1-aecd-c15cc81ce2db","system_id":"levelo_inurba_marseille","lat":43.22925,"lon":5.3537,"is_reserved":false,"is_disabled":false,"rental_uris":{"android":"levelo://app?vid=d5707b16-9074-45d1-aecd-c15cc81ce2db","ios":"levelo://app?vid=d5707b16-9074-45d1-aecd-c15cc81ce2db"},"vehicle_type_id":"4","last_reported":1757931081,"current_range_meters":13600,"station_id":"cpo3532slgdg3j2ikp40","pricing_plan_id":"cebpf4jnsgd1na2vs0mg"},{"bike_id":"0c6fe877-1024-4901-84e8-0fbaefe45584","system_id":"levelo_inurba_marseille","lat":43.334246,"lon":5.400569,"is_reserved":false,"is_disabled":false,"rental_uris":{"android":"levelo://app?vid=0c6fe877-1024-4901-84e8-0fbaefe45584","ios":"levelo://app?vid=0c6fe877-1024-4901-84e8-0fbaefe45584"},"vehicle_type_id":"4","last_reported":1757931081,"current_range_meters":13600,"station_id":"","pricing_plan_id":"cebpf4jnsgd1na2vs0mg"},{"bike_id":"322c1f5a-85db-4ef6-bcd4-1b5c417c8ee0","system_id":"levelo_inurba_marseille","lat":43.3377,"lon":5.37488,"is_reserved":false,"is_disabled":false,"rental_uris":{"android":"levelo://app?vid=322c1f5a-85db-4ef6-bcd4-1b5c417c8ee0","ios":"levelo://app?vid=322c1f5a-85db-4ef6-bcd4-1b5c417c8ee0"},"vehicle_type_id":"4","last_reported":1757931081,"current_range_meters":13600,"station_id":"","pricing_plan_id":"cebpf4jnsgd1na2vs0mg"},{"bike_id":"ea435ab9-fded-4f41-b18c-d27e26d01cfa","system_id":"levelo_inurba_marseille","lat":43.27493,"lon":5.4245,"is_reserved":false,"is_disabled":false,"rental_uris":{"android":"levelo://app?vid=ea435ab9-fded-4f41-b18c-d27e26d01cfa","ios":"levelo://app?vid=ea435ab9-fded-4f41-b18c-d27e26d01cfa"},"vehicle_type_id":"4","last_reported":1757931081,"current_range_meters":13600,"station_id":"ce4bhn92rcd13ifvqgrg","pricing_plan_id":"cebpf4jnsgd1na2vs0mg"},{"bike_id":"60df5be0-868d-496d-a7cc-2e097de1a47a","system_id":"levelo_inurba_marseille","lat":43.22552,"lon":5.41643,"is_reserved":false,"is_disabled":false,"rental_uris":{"android":"levelo://app?vid=60df5be0-868d-496d-a7cc-2e097de1a47a","ios":"levelo://app?vid=60df5be0-868d-496d-a7cc-2e097de1a47a"},"vehicle_type_id":"4","last_reported":1757931081,"current_range_meters":13600,"station_id":"st_d2o4gvlbi1j2169b742g","pricing_plan_id":"cebpf4jnsgd1na2vs0mg"},{"bike_id":"2c5ee020-2461-471c-8a4c-6cab1ddb486f","system_id":"levelo_inurba_marseille","lat":43.25573,"lon":5.38247,"is_reserved":false,"is_disabled":false,"rental_uris":{"android":"levelo://app?vid=2c5ee020-2461-471c-8a4c-6cab1ddb486f","ios":"levelo://app?vid=2c5ee020-2461-471c-8a4c-6cab1ddb486f"},"vehicle_type_id":"4","last_reported":1757931081,"current_range_meters":14000,"station_id":"ce4bhih2rcd13ifvqfs0","pricing_plan_id":"cebpf4jnsgd1na2vs0mg"},{"bike_id":"632d0235-07a3-4eed-8283-8185533e9696","system_id":"levelo_inurba_marseille","lat":43.30145,"lon":5.38068,"is_reserved":false,"is_disabled":false,"rental_uris":{"android":"levelo://app?vid=632d0235-07a3-4eed-8283-8185533e9696","ios":"levelo://app?vid=632d0235-07a3-4eed-8283-8185533e9696"},"vehicle_type_id":"4","last_reported":1757931081,"current_range_meters":14000,"station_id":"ce4bgjp2rcd13ifvqbh0","pricing_plan_id":"cebpf4jnsgd1na2vs0mg"},{"bike_id":"184c75ba-a2ae-4bc5-b888-4c430b804879","system_id":"levelo_inurba_marseille","lat":43.28429,"lon":5.34983,"is_reserved":false,"is_disabled":false,"rental_uris":{"android":"levelo://app?vid=184c75ba-a2ae-4bc5-b888-4c430b804879","ios":"levelo://app?vid=184c75ba-a2ae-4bc5-b888-4c430b804879"},"vehicle_type_id":"4","last_reported":1757931081,"current_range_meters":14000,"station_id":"ce4bhbh2rcd13ifvqepg","pricing_plan_id":"cebpf4jnsgd1na2vs0mg"},{"bike_id":"1fcd7247-d062-4193-a271-354bf97cbf86","system_id":"levelo_inurba_marseille","lat":43.31997,"lon":5.38151,"is_reserved":false,"is_disabled":false,"rental_uris":{"android":"levelo://app?vid=1fcd7247-d062-4193-a271-354bf97cbf86","ios":"levelo://app?vid=1fcd7247-d062-4193-a271-354bf97cbf86"},"vehicle_type_id":"4","last_reported":1757931081,"current_range_meters":14000,"station_id":"ce4bhr12rcd13ifvqhpg","pricing_plan_id":"cebpf4jnsgd1na2vs0mg"},{"bike_id":"9e8f6e7b-f0a5-4a60-b70d-f6a105a325c0","system_id":"levelo_inurba_marseille","lat":43.27423,"lon":5.39411,"is_reserved":false,"is_disabled":false,"rental_uris":{"android":"levelo://app?vid=9e8f6e7b-f0a5-4a60-b70d-f6a105a325c0","ios":"levelo://app?vid=9e8f6e7b-f0a5-4a60-b70d-f6a105a325c0"},"vehicle_type_id":"4","last_reported":1757931081,"current_range_meters":14000,"station_id":"ce4bhdp2rcd13ifvqf20","pricing_plan_id":"cebpf4jnsgd1na2vs0mg"},{"bike_id":"26651805-1ffd-496b-9c51-fece900796ad","system_id":"levelo_inurba_marseille","lat":43.32481,"lon":5.36582,"is_reserved":false,"is_disabled":false,"rental_uris":{"android":"levelo://app?vid=26651805-1ffd-496b-9c51-fece900796ad","ios":"levelo://app?vid=26651805-1ffd-496b-9c51-fece900796ad"},"vehicle_type_id":"4","last_reported":1757931081,"current_range_meters":14400,"station_id":"ce4bhs12rcd13ifvqhvg","pricing_plan_id":"cebpf4jnsgd1na2vs0mg"},{"bike_id":"d4c7f855-9374-4a76-8f77-b4ec4c31c8fc","system_id":"levelo_inurba_marseille","lat":43.26036,"lon":5.37552,"is_reserved":false,"is_disabled":false,"rental_uris":{"android":"levelo://app?vid=d4c7f855-9374-4a76-8f77-b4ec4c31c8fc","ios":"levelo://app?vid=d4c7f855-9374-4a76-8f77-b4ec4c31c8fc"},"vehicle_type_id":"4","last_reported":1757931081,"current_range_meters":14400,"station_id":"ce4bhgh2rcd13ifvqfa0","pricing_plan_id":"cebpf4jnsgd1na2vs0mg"},{"bike_id":"b787cfb2-ac9f-4042-8428-af0f29fbbe6c","system_id":"levelo_inurba_marseille","lat":43.30129,"lon":5.38779,"is_reserved":false,"is_disabled":false,"rental_uris":{"android":"levelo://app?vid=b787cfb2-ac9f-4042-8428-af0f29fbbe6c","ios":"levelo://app?vid=b787cfb2-ac9f-4042-8428-af0f29fbbe6c"},"vehicle_type_id":"4","last_reported":1757931081,"current_range_meters":14400,"station_id":"ce4bghh2rcd13ifvqb60","pricing_plan_id":"cebpf4jnsgd1na2vs0mg"},{"bike_id":"9b9a6aca-d8ba-4892-a70c-a46cb142c2a2","system_id":"levelo_inurba_marseille","lat":43.31355,"lon":5.36724,"is_reserved":false,"is_disabled":false,"rental_uris":{"android":"levelo://app?vid=9b9a6aca-d8ba-4892-a70c-a46cb142c2a2","ios":"levelo://app?vid=9b9a6aca-d8ba-4892-a70c-a46cb142c2a2"},"vehicle_type_id":"4","last_reported":1757931081,"current_range_meters":14400,"station_id":"ce4bgr92rcd13ifvqc6g","pricing_plan_id":"cebpf4jnsgd1na2vs0mg"},{"bike_id":"088693c6-0a9a-45c3-b85d-0b3971b1e68f","system_id":"levelo_inurba_marseille","lat":43.30557,"lon":5.36534,"is_reserved":false,"is_disabled":false,"rental_uris":{"android":"levelo://app?vid=088693c6-0a9a-45c3-b85d-0b3971b1e68f","ios":"levelo://app?vid=088693c6-0a9a-45c3-b85d-0b3971b1e68f"},"vehicle_type_id":"4","last_reported":1757931081,"current_range_meters":14400,"station_id":"ce4bgs12rcd13ifvqcag","pricing_plan_id":"cebpf4jnsgd1na2vs0mg"},{"bike_id":"d27a3574-c668-415b-ad3b-c0a1e10e6cf4","system_id":"levelo_inurba_marseille","lat":43.337444,"lon":5.374475,"is_reserved":false,"is_disabled":false,"rental_uris":{"android":"levelo://app?vid=d27a3574-c668-415b-ad3b-c0a1e10e6cf4","ios":"levelo://app?vid=d27a3574-c668-415b-ad3b-c0a1e10e6cf4"},"vehicle_type_id":"4","last_reported":1757931081,"current_range_meters":14400,"station_id":"","pricing_plan_id":"cebpf4jnsgd1na2vs0mg"},{"bike_id":"1ebb1ad1-55dd-457f-8c00-d14b6509395a","system_id":"levelo_inurba_marseille","lat":43.21755,"lon":5.34626,"is_reserved":false,"is_disabled":false,"rental_uris":{"android":"levelo://app?vid=1ebb1ad1-55dd-457f-8c00-d14b6509395a","ios":"levelo://app?vid=1ebb1ad1-55dd-457f-8c00-d14b6509395a"},"vehicle_type_id":"4","last_reported":1757931081,"current_range_meters":14800,"station_id":"","pricing_plan_id":"cebpf4jnsgd1na2vs0mg"},{"bike_id":"a155e67d-bec0-4326-ae57-c035ef5e1c81","system_id":"levelo_inurba_marseille","lat":43.299003,"lon":5.436718,"is_reserved":false,"is_disabled":false,"rental_uris":{"android":"levelo://app?vid=a155e67d-bec0-4326-ae57-c035ef5e1c81","ios":"levelo://app?vid=a155e67d-bec0-4326-ae57-c035ef5e1c81"},"vehicle_type_id":"4","last_reported":1757931081,"current_range_meters":14800,"station_id":"ce4bhpp2rcd13ifvqhfg","pricing_plan_id":"cebpf4jnsgd1na2vs0mg"},{"bike_id":"354803e4-5879-4aeb-b4ea-e35421599887","system_id":"levelo_inurba_marseille","lat":43.27496,"lon":5.42445,"is_reserved":false,"is_disabled":false,"rental_uris":{"android":"levelo://app?vid=354803e4-5879-4aeb-b4ea-e35421599887","ios":"levelo://app?vid=354803e4-5879-4aeb-b4ea-e35421599887"},"vehicle_type_id":"4","last_reported":1757931081,"current_range_meters":14800,"station_id":"ce4bhn92rcd13ifvqgrg","pricing_plan_id":"cebpf4jnsgd1na2vs0mg"},{"bike_id":"b8649ca9-bfb5-4973-9040-4e9ea8db1393","system_id":"levelo_inurba_marseille","lat":43.25936,"lon":5.409,"is_reserved":false,"is_disabled":false,"rental_uris":{"android":"levelo://app?vid=b8649ca9-bfb5-4973-9040-4e9ea8db1393","ios":"levelo://app?vid=b8649ca9-bfb5-4973-9040-4e9ea8db1393"},"vehicle_type_id":"4","last_reported":1757931081,"current_range_meters":14800,"station_id":"ce4bhm92rcd13ifvqglg","pricing_plan_id":"cebpf4jnsgd1na2vs0mg"},{"bike_id":"41de12a2-5382-4da2-9751-1300a8df4dc1","system_id":"levelo_inurba_marseille","lat":43.2256,"lon":5.41629,"is_reserved":false,"is_disabled":false,"rental_uris":{"android":"levelo://app?vid=41de12a2-5382-4da2-9751-1300a8df4dc1","ios":"levelo://app?vid=41de12a2-5382-4da2-9751-1300a8df4dc1"},"vehicle_type_id":"4","last_reported":1757931081,"current_range_meters":14800,"station_id":"st_d2o4gvlbi1j2169b742g","pricing_plan_id":"cebpf4jnsgd1na2vs0mg"},{"bike_id":"32121877-7c52-43a5-a679-cbe8a23a3c6d","system_id":"levelo_inurba_marseille","lat":43.27323,"lon":5.39069,"is_reserved":false,"is_disabled":false,"rental_uris":{"android":"levelo://app?vid=32121877-7c52-43a5-a679-cbe8a23a3c6d","ios":"levelo://app?vid=32121877-7c52-43a5-a679-cbe8a23a3c6d"},"vehicle_type_id":"4","last_reported":1757931081,"current_range_meters":15200,"station_id":"ce4bhgp2rcd13ifvqfe0","pricing_plan_id":"cebpf4jnsgd1na2vs0mg"},{"bike_id":"f7c56a48-db06-4ee3-9b90-45854a625eac","system_id":"levelo_inurba_marseille","lat":43.25932,"lon":5.40906,"is_reserved":false,"is_disabled":false,"rental_uris":{"android":"levelo://app?vid=f7c56a48-db06-4ee3-9b90-45854a625eac","ios":"levelo://app?vid=f7c56a48-db06-4ee3-9b90-45854a625eac"},"vehicle_type_id":"4","last_reported":1757931081,"current_range_meters":15200,"station_id":"ce4bhm92rcd13ifvqglg","pricing_plan_id":"cebpf4jnsgd1na2vs0mg"},{"bike_id":"d73ebff0-d957-41dc-a638-29b88edc4926","system_id":"levelo_inurba_marseille","lat":43.2257,"lon":5.41593,"is_reserved":false,"is_disabled":false,"rental_uris":{"android":"levelo://app?vid=d73ebff0-d957-41dc-a638-29b88edc4926","ios":"levelo://app?vid=d73ebff0-d957-41dc-a638-29b88edc4926"},"vehicle_type_id":"4","last_reported":1757931081,"current_range_meters":16000,"station_id":"st_d2o4gvlbi1j2169b742g","pricing_plan_id":"cebpf4jnsgd1na2vs0mg"},{"bike_id":"d433f65c-48c2-4aa1-b7a0-61a992e3054a","system_id":"levelo_inurba_marseille","lat":43.29193,"lon":5.39317,"is_reserved":false,"is_disabled":true,"rental_uris":{"android":"levelo://app?vid=d433f65c-48c2-4aa1-b7a0-61a992e3054a","ios":"levelo://app?vid=d433f65c-48c2-4aa1-b7a0-61a992e3054a"},"vehicle_type_id":"4","last_reported":1757931081,"current_range_meters":16000,"station_id":"","pricing_plan_id":"cebpf4jnsgd1na2vs0mg"},{"bike_id":"59987fb4-5254-49fb-8a25-e88929e0df78","system_id":"levelo_inurba_marseille","lat":43.29612,"lon":5.37738,"is_reserved":false,"is_disabled":false,"rental_uris":{"android":"levelo://app?vid=59987fb4-5254-49fb-8a25-e88929e0df78","ios":"levelo://app?vid=59987fb4-5254-49fb-8a25-e88929e0df78"},"vehicle_type_id":"4","last_reported":1757931081,"current_range_meters":15200,"station_id":"ce4bgi92rcd13ifvqb90","pricing_plan_id":"cebpf4jnsgd1na2vs0mg"},{"bike_id":"777ca55c-1629-4a3a-8936-d60ec961e0c3","system_id":"levelo_inurba_marseille","lat":43.297896,"lon":5.380997,"is_reserved":false,"is_disabled":false,"rental_uris":{"android":"levelo://app?vid=777ca55c-1629-4a3a-8936-d60ec961e0c3","ios":"levelo://app?vid=777ca55c-1629-4a3a-8936-d60ec961e0c3"},"vehicle_type_id":"4","last_reported":1757931081,"current_range_meters":16000,"station_id":"ce4bgip2rcd13ifvqbb0","pricing_plan_id":"cebpf4jnsgd1na2vs0mg"},{"bike_id":"b292c67a-aaaa-4e31-af86-af4cb55936b8","system_id":"levelo_inurba_marseille","lat":43.30535,"lon":5.367,"is_reserved":false,"is_disabled":false,"rental_uris":{"android":"levelo://app?vid=b292c67a-aaaa-4e31-af86-af4cb55936b8","ios":"levelo://app?vid=b292c67a-aaaa-4e31-af86-af4cb55936b8"},"vehicle_type_id":"4","last_reported":1757931081,"current_range_meters":16000,"station_id":"ce4bgrp2rcd13ifvqc9g","pricing_plan_id":"cebpf4jnsgd1na2vs0mg"},{"bike_id":"950a5f0c-6122-4d8d-a42b-4763023d14f2","system_id":"levelo_inurba_marseille","lat":43.25495,"lon":5.37644,"is_reserved":false,"is_disabled":false,"rental_uris":{"android":"levelo://app?vid=950a5f0c-6122-4d8d-a42b-4763023d14f2","ios":"levelo://app?vid=950a5f0c-6122-4d8d-a42b-4763023d14f2"},"vehicle_type_id":"4","last_reported":1757931081,"current_range_meters":16400,"station_id":"ce4bhh12rcd13ifvqff0","pricing_plan_id":"cebpf4jnsgd1na2vs0mg"},{"bike_id":"8ef8bf7d-8a91-4724-8c2e-ddeef723e28a","system_id":"levelo_inurba_marseille","lat":43.27026,"lon":5.37926,"is_reserved":false,"is_disabled":false,"rental_uris":{"android":"levelo://app?vid=8ef8bf7d-8a91-4724-8c2e-ddeef723e28a","ios":"levelo://app?vid=8ef8bf7d-8a91-4724-8c2e-ddeef723e28a"},"vehicle_type_id":"4","last_reported":1757931081,"current_range_meters":16400,"station_id":"","pricing_plan_id":"cebpf4jnsgd1na2vs0mg"},{"bike_id":"ea4693de-86b3-41b2-926a-c1ac20480be1","system_id":"levelo_inurba_marseille","lat":43.31371,"lon":5.36688,"is_reserved":false,"is_disabled":false,"rental_uris":{"android":"levelo://app?vid=ea4693de-86b3-41b2-926a-c1ac20480be1","ios":"levelo://app?vid=ea4693de-86b3-41b2-926a-c1ac20480be1"},"vehicle_type_id":"4","last_reported":1757931081,"current_range_meters":16400,"station_id":"ce4bgr92rcd13ifvqc6g","pricing_plan_id":"cebpf4jnsgd1na2vs0mg"},{"bike_id":"a333d9ec-a9a7-4617-ac2f-4224c0d88af6","system_id":"levelo_inurba_marseille","lat":43.27518,"lon":5.42434,"is_reserved":false,"is_disabled":false,"rental_uris":{"android":"levelo://app?vid=a333d9ec-a9a7-4617-ac2f-4224c0d88af6","ios":"levelo://app?vid=a333d9ec-a9a7-4617-ac2f-4224c0d88af6"},"vehicle_type_id":"4","last_reported":1757931081,"current_range_meters":16400,"station_id":"ce4bhn92rcd13ifvqgrg","pricing_plan_id":"cebpf4jnsgd1na2vs0mg"},{"bike_id":"4eadbe74-e840-42fb-9f5e-15e512abfad9","system_id":"levelo_inurba_marseille","lat":43.2961,"lon":5.37723,"is_reserved":false,"is_disabled":false,"rental_uris":{"android":"levelo://app?vid=4eadbe74-e840-42fb-9f5e-15e512abfad9","ios":"levelo://app?vid=4eadbe74-e840-42fb-9f5e-15e512abfad9"},"vehicle_type_id":"4","last_reported":1757931081,"current_range_meters":16400,"station_id":"ce4bgi92rcd13ifvqb90","pricing_plan_id":"cebpf4jnsgd1na2vs0mg"},{"bike_id":"1790abf9-0fbe-4b12-8616-1a744bbc2005","system_id":"levelo_inurba_marseille","lat":43.30851,"lon":5.39658,"is_reserved":false,"is_disabled":false,"rental_uris":{"android":"levelo://app?vid=1790abf9-0fbe-4b12-8616-1a744bbc2005","ios":"levelo://app?vid=1790abf9-0fbe-4b12-8616-1a744bbc2005"},"vehicle_type_id":"4","last_reported":1757931081,"current_range_meters":16400,"station_id":"ce4bh012rcd13ifvqcv0","pricing_plan_id":"cebpf4jnsgd1na2vs0mg"},{"bike_id":"c8cf71ab-2cba-487d-b0aa-fba68c18bfaa","system_id":"levelo_inurba_marseille","lat":43.27491,"lon":5.4245,"is_reserved":false,"is_disabled":false,"rental_uris":{"android":"levelo://app?vid=c8cf71ab-2cba-487d-b0aa-fba68c18bfaa","ios":"levelo://app?vid=c8cf71ab-2cba-487d-b0aa-fba68c18bfaa"},"vehicle_type_id":"4","last_reported":1757931081,"current_range_meters":16800,"station_id":"ce4bhn92rcd13ifvqgrg","pricing_plan_id":"cebpf4jnsgd1na2vs0mg"},{"bike_id":"4d0da910-152b-448e-9786-b400d7fabfca","system_id":"levelo_inurba_marseille","lat":43.29212,"lon":5.36047,"is_reserved":false,"is_disabled":false,"rental_uris":{"android":"levelo://app?vid=4d0da910-152b-448e-9786-b400d7fabfca","ios":"levelo://app?vid=4d0da910-152b-448e-9786-b400d7fabfca"},"vehicle_type_id":"4","last_reported":1757931081,"current_range_meters":16800,"station_id":"ce4bhbh2rcd13ifvqeqg","pricing_plan_id":"cebpf4jnsgd1na2vs0mg"},{"bike_id":"b92fdf3e-fa79-4555-b8c2-11ea0f2213f0","system_id":"levelo_inurba_marseille","lat":43.28618,"lon":5.351,"is_reserved":false,"is_disabled":false,"rental_uris":{"android":"levelo://app?vid=b92fdf3e-fa79-4555-b8c2-11ea0f2213f0","ios":"levelo://app?vid=b92fdf3e-fa79-4555-b8c2-11ea0f2213f0"},"vehicle_type_id":"4","last_reported":1757931081,"current_range_meters":16800,"station_id":"ce4bhch2rcd13ifvqeug","pricing_plan_id":"cebpf4jnsgd1na2vs0mg"},{"bike_id":"e69cbc0e-4585-4b8b-a506-ff55a454fd7b","system_id":"levelo_inurba_marseille","lat":43.28492,"lon":5.38573,"is_reserved":false,"is_disabled":false,"rental_uris":{"android":"levelo://app?vid=e69cbc0e-4585-4b8b-a506-ff55a454fd7b","ios":"levelo://app?vid=e69cbc0e-4585-4b8b-a506-ff55a454fd7b"},"vehicle_type_id":"4","last_reported":1757931081,"current_range_meters":16400,"station_id":"ce4bh8p2rcd13ifvqeb0","pricing_plan_id":"cebpf4jnsgd1na2vs0mg"},{"bike_id":"016950e1-7818-42ce-aac6-0e36f13f2873","system_id":"levelo_inurba_marseille","lat":43.30934,"lon":5.36877,"is_reserved":false,"is_disabled":false,"rental_uris":{"android":"levelo://app?vid=016950e1-7818-42ce-aac6-0e36f13f2873","ios":"levelo://app?vid=016950e1-7818-42ce-aac6-0e36f13f2873"},"vehicle_type_id":"4","last_reported":1757931081,"current_range_meters":16800,"station_id":"ce4bgn92rcd13ifvqbvg","pricing_plan_id":"cebpf4jnsgd1na2vs0mg"},{"bike_id":"fc5173d7-de69-4c7e-888a-0a9efb136566","system_id":"levelo_inurba_marseille","lat":43.31177,"lon":5.36904,"is_reserved":false,"is_disabled":false,"rental_uris":{"android":"levelo://app?vid=fc5173d7-de69-4c7e-888a-0a9efb136566","ios":"levelo://app?vid=fc5173d7-de69-4c7e-888a-0a9efb136566"},"vehicle_type_id":"4","last_reported":1757931081,"current_range_meters":17200,"station_id":"","pricing_plan_id":"cebpf4jnsgd1na2vs0mg"},{"bike_id":"460950e7-4882-4108-bd1f-4d12c674cb64","system_id":"levelo_inurba_marseille","lat":43.30606,"lon":5.36718,"is_reserved":false,"is_disabled":false,"rental_uris":{"android":"levelo://app?vid=460950e7-4882-4108-bd1f-4d12c674cb64","ios":"levelo://app?vid=460950e7-4882-4108-bd1f-4d12c674cb64"},"vehicle_type_id":"4","last_reported":1757931081,"current_range_meters":17200,"station_id":"ce4bgrp2rcd13ifvqc9g","pricing_plan_id":"cebpf4jnsgd1na2vs0mg"},{"bike_id":"b575a595-f932-4230-9ca7-6937f4a43d90","system_id":"levelo_inurba_marseille","lat":43.21742,"lon":5.34602,"is_reserved":false,"is_disabled":false,"rental_uris":{"android":"levelo://app?vid=b575a595-f932-4230-9ca7-6937f4a43d90","ios":"levelo://app?vid=b575a595-f932-4230-9ca7-6937f4a43d90"},"vehicle_type_id":"4","last_reported":1757931081,"current_range_meters":17200,"station_id":"st_cvj6r9ubvosntc0bgbag","pricing_plan_id":"cebpf4jnsgd1na2vs0mg"},{"bike_id":"7d586a12-692c-4e15-8df8-1dbcfe8f4331","system_id":"levelo_inurba_marseille","lat":43.30149,"lon":5.3808,"is_reserved":false,"is_disabled":false,"rental_uris":{"android":"levelo://app?vid=7d586a12-692c-4e15-8df8-1dbcfe8f4331","ios":"levelo://app?vid=7d586a12-692c-4e15-8df8-1dbcfe8f4331"},"vehicle_type_id":"4","last_reported":1757931081,"current_range_meters":17200,"station_id":"ce4bgjp2rcd13ifvqbh0","pricing_plan_id":"cebpf4jnsgd1na2vs0mg"},{"bike_id":"5d5b51f8-15be-4825-804c-c2485c6a00ac","system_id":"levelo_inurba_marseille","lat":43.25933,"lon":5.40886,"is_reserved":false,"is_disabled":false,"rental_uris":{"android":"levelo://app?vid=5d5b51f8-15be-4825-804c-c2485c6a00ac","ios":"levelo://app?vid=5d5b51f8-15be-4825-804c-c2485c6a00ac"},"vehicle_type_id":"4","last_reported":1757931081,"current_range_meters":17600,"station_id":"ce4bhm92rcd13ifvqglg","pricing_plan_id":"cebpf4jnsgd1na2vs0mg"},{"bike_id":"a33cf4c6-054f-4a1b-8f82-8fc5a7d7e84b","system_id":"levelo_inurba_marseille","lat":43.290422,"lon":5.399758,"is_reserved":false,"is_disabled":false,"rental_uris":{"android":"levelo://app?vid=a33cf4c6-054f-4a1b-8f82-8fc5a7d7e84b","ios":"levelo://app?vid=a33cf4c6-054f-4a1b-8f82-8fc5a7d7e84b"},"vehicle_type_id":"4","last_reported":1757931081,"current_range_meters":17600,"station_id":"ce4bh392rcd13ifvqdm0","pricing_plan_id":"cebpf4jnsgd1na2vs0mg"},{"bike_id":"9240cde8-b960-4ef6-a600-8b3785aacb47","system_id":"levelo_inurba_marseille","lat":43.27299,"lon":5.39138,"is_reserved":false,"is_disabled":false,"rental_uris":{"android":"levelo://app?vid=9240cde8-b960-4ef6-a600-8b3785aacb47","ios":"levelo://app?vid=9240cde8-b960-4ef6-a600-8b3785aacb47"},"vehicle_type_id":"4","last_reported":1757931081,"current_range_meters":17600,"station_id":"","pricing_plan_id":"cebpf4jnsgd1na2vs0mg"},{"bike_id":"a02e580d-3093-4e34-a053-4227fdd65225","system_id":"levelo_inurba_marseille","lat":43.25886,"lon":5.39922,"is_reserved":false,"is_disabled":false,"rental_uris":{"android":"levelo://app?vid=a02e580d-3093-4e34-a053-4227fdd65225","ios":"levelo://app?vid=a02e580d-3093-4e34-a053-4227fdd65225"},"vehicle_type_id":"4","last_reported":1757931081,"current_range_meters":17600,"station_id":"ce4bhl92rcd13ifvqghg","pricing_plan_id":"cebpf4jnsgd1na2vs0mg"},{"bike_id":"34475d9e-9627-4d4a-8bdd-b572c250a370","system_id":"levelo_inurba_marseille","lat":43.31182,"lon":5.3871,"is_reserved":false,"is_disabled":false,"rental_uris":{"android":"levelo://app?vid=34475d9e-9627-4d4a-8bdd-b572c250a370","ios":"levelo://app?vid=34475d9e-9627-4d4a-8bdd-b572c250a370"},"vehicle_type_id":"4","last_reported":1757931081,"current_range_meters":17600,"station_id":"ce4bgv12rcd13ifvqcp0","pricing_plan_id":"cebpf4jnsgd1na2vs0mg"},{"bike_id":"82793d05-1e17-465e-96cc-0a955080a843","system_id":"levelo_inurba_marseille","lat":43.28611,"lon":5.35102,"is_reserved":false,"is_disabled":false,"rental_uris":{"android":"levelo://app?vid=82793d05-1e17-465e-96cc-0a955080a843","ios":"levelo://app?vid=82793d05-1e17-465e-96cc-0a955080a843"},"vehicle_type_id":"4","last_reported":1757931081,"current_range_meters":18000,"station_id":"ce4bhch2rcd13ifvqeug","pricing_plan_id":"cebpf4jnsgd1na2vs0mg"},{"bike_id":"eb7cc917-6832-4011-8ed0-0ea12e66e244","system_id":"levelo_inurba_marseille","lat":43.32542,"lon":5.3656,"is_reserved":false,"is_disabled":false,"rental_uris":{"android":"levelo://app?vid=eb7cc917-6832-4011-8ed0-0ea12e66e244","ios":"levelo://app?vid=eb7cc917-6832-4011-8ed0-0ea12e66e244"},"vehicle_type_id":"4","last_reported":1757931081,"current_range_meters":18000,"station_id":"","pricing_plan_id":"cebpf4jnsgd1na2vs0mg"},{"bike_id":"83147e21-1248-46bb-9a1b-40fe7620ffc3","system_id":"levelo_inurba_marseille","lat":43.29695,"lon":5.37691,"is_reserved":false,"is_disabled":false,"rental_uris":{"android":"levelo://app?vid=83147e21-1248-46bb-9a1b-40fe7620ffc3","ios":"levelo://app?vid=83147e21-1248-46bb-9a1b-40fe7620ffc3"},"vehicle_type_id":"4","last_reported":1757931081,"current_range_meters":18000,"station_id":"ce4bgkh2rcd13ifvqbl0","pricing_plan_id":"cebpf4jnsgd1na2vs0mg"},{"bike_id":"96ee9b57-cff5-4252-a08f-6a37cf344cd3","system_id":"levelo_inurba_marseille","lat":43.270776,"lon":5.422653,"is_reserved":false,"is_disabled":false,"rental_uris":{"android":"levelo://app?vid=96ee9b57-cff5-4252-a08f-6a37cf344cd3","ios":"levelo://app?vid=96ee9b57-cff5-4252-a08f-6a37cf344cd3"},"vehicle_type_id":"4","last_reported":1757931081,"current_range_meters":18000,"station_id":"ce4bhk92rcd13ifvqgb0","pricing_plan_id":"cebpf4jnsgd1na2vs0mg"},{"bike_id":"e73470b2-f46f-4f87-989f-53f8372e4317","system_id":"levelo_inurba_marseille","lat":43.33898,"lon":5.39161,"is_reserved":false,"is_disabled":false,"rental_uris":{"android":"levelo://app?vid=e73470b2-f46f-4f87-989f-53f8372e4317","ios":"levelo://app?vid=e73470b2-f46f-4f87-989f-53f8372e4317"},"vehicle_type_id":"4","last_reported":1757931081,"current_range_meters":18000,"station_id":"","pricing_plan_id":"cebpf4jnsgd1na2vs0mg"},{"bike_id":"921ff5bf-eb9d-4b59-9c86-c405e972b901","system_id":"levelo_inurba_marseille","lat":43.25926,"lon":5.40881,"is_reserved":false,"is_disabled":false,"rental_uris":{"android":"levelo://app?vid=921ff5bf-eb9d-4b59-9c86-c405e972b901","ios":"levelo://app?vid=921ff5bf-eb9d-4b59-9c86-c405e972b901"},"vehicle_type_id":"4","last_reported":1757931081,"current_range_meters":18000,"station_id":"ce4bhm92rcd13ifvqglg","pricing_plan_id":"cebpf4jnsgd1na2vs0mg"},{"bike_id":"d06d078b-9778-4fb3-a0a3-697b3db6db6c","system_id":"levelo_inurba_marseille","lat":43.22936,"lon":5.3538,"is_reserved":false,"is_disabled":false,"rental_uris":{"android":"levelo://app?vid=d06d078b-9778-4fb3-a0a3-697b3db6db6c","ios":"levelo://app?vid=d06d078b-9778-4fb3-a0a3-697b3db6db6c"},"vehicle_type_id":"4","last_reported":1757931081,"current_range_meters":18800,"station_id":"cpo3532slgdg3j2ikp40","pricing_plan_id":"cebpf4jnsgd1na2vs0mg"},{"bike_id":"f10a4125-ea58-4e63-b38e-ac18ed551e3a","system_id":"levelo_inurba_marseille","lat":43.31044,"lon":5.40036,"is_reserved":false,"is_disabled":true,"rental_uris":{"android":"levelo://app?vid=f10a4125-ea58-4e63-b38e-ac18ed551e3a","ios":"levelo://app?vid=f10a4125-ea58-4e63-b38e-ac18ed551e3a"},"vehicle_type_id":"4","last_reported":1757931081,"current_range_meters":18800,"station_id":"","pricing_plan_id":"cebpf4jnsgd1na2vs0mg"},{"bike_id":"4fd1c216-e4cd-40d4-bac5-bd7a225b3c2e","system_id":"levelo_inurba_marseille","lat":43.29103,"lon":5.38353,"is_reserved":false,"is_disabled":false,"rental_uris":{"android":"levelo://app?vid=4fd1c216-e4cd-40d4-bac5-bd7a225b3c2e","ios":"levelo://app?vid=4fd1c216-e4cd-40d4-bac5-bd7a225b3c2e"},"vehicle_type_id":"4","last_reported":1757931081,"current_range_meters":18800,"station_id":"","pricing_plan_id":"cebpf4jnsgd1na2vs0mg"},{"bike_id":"955dcce1-ca4a-441e-87c1-4668435ea4d7","system_id":"levelo_inurba_marseille","lat":43.33598,"lon":5.41015,"is_reserved":false,"is_disabled":false,"rental_uris":{"android":"levelo://app?vid=955dcce1-ca4a-441e-87c1-4668435ea4d7","ios":"levelo://app?vid=955dcce1-ca4a-441e-87c1-4668435ea4d7"},"vehicle_type_id":"4","last_reported":1757931081,"current_range_meters":18800,"station_id":"ce4bhqh2rcd13ifvqhmg","pricing_plan_id":"cebpf4jnsgd1na2vs0mg"},{"bike_id":"aa57e526-5f5c-4592-be59-9f1fb7af4549","system_id":"levelo_inurba_marseille","lat":43.321027,"lon":5.367776,"is_reserved":false,"is_disabled":false,"rental_uris":{"android":"levelo://app?vid=aa57e526-5f5c-4592-be59-9f1fb7af4549","ios":"levelo://app?vid=aa57e526-5f5c-4592-be59-9f1fb7af4549"},"vehicle_type_id":"4","last_reported":1757931081,"current_range_meters":18800,"station_id":"ce4bhrh2rcd13ifvqhug","pricing_plan_id":"cebpf4jnsgd1na2vs0mg"},{"bike_id":"a2207526-f478-4f65-85e4-9a97cdcd57f3","system_id":"levelo_inurba_marseille","lat":43.27492,"lon":5.42448,"is_reserved":false,"is_disabled":false,"rental_uris":{"android":"levelo://app?vid=a2207526-f478-4f65-85e4-9a97cdcd57f3","ios":"levelo://app?vid=a2207526-f478-4f65-85e4-9a97cdcd57f3"},"vehicle_type_id":"4","last_reported":1757931081,"current_range_meters":18800,"station_id":"ce4bhn92rcd13ifvqgrg","pricing_plan_id":"cebpf4jnsgd1na2vs0mg"},{"bike_id":"d076778c-1c4b-4d1d-a7f9-3fd721dc9e6d","system_id":"levelo_inurba_marseille","lat":43.274889,"lon":5.424593,"is_reserved":false,"is_disabled":false,"rental_uris":{"android":"levelo://app?vid=d076778c-1c4b-4d1d-a7f9-3fd721dc9e6d","ios":"levelo://app?vid=d076778c-1c4b-4d1d-a7f9-3fd721dc9e6d"},"vehicle_type_id":"4","last_reported":1757931081,"current_range_meters":18800,"station_id":"ce4bhn92rcd13ifvqgrg","pricing_plan_id":"cebpf4jnsgd1na2vs0mg"},{"bike_id":"ddcc0921-3ae5-46f5-a882-f029f44576d5","system_id":"levelo_inurba_marseille","lat":43.25936,"lon":5.40904,"is_reserved":false,"is_disabled":false,"rental_uris":{"android":"levelo://app?vid=ddcc0921-3ae5-46f5-a882-f029f44576d5","ios":"levelo://app?vid=ddcc0921-3ae5-46f5-a882-f029f44576d5"},"vehicle_type_id":"4","last_reported":1757931081,"current_range_meters":18800,"station_id":"ce4bhm92rcd13ifvqglg","pricing_plan_id":"cebpf4jnsgd1na2vs0mg"},{"bike_id":"a99076be-7bb8-4e0f-a330-e47b32cc797a","system_id":"levelo_inurba_marseille","lat":43.292173,"lon":5.360498,"is_reserved":false,"is_disabled":true,"rental_uris":{"android":"levelo://app?vid=a99076be-7bb8-4e0f-a330-e47b32cc797a","ios":"levelo://app?vid=a99076be-7bb8-4e0f-a330-e47b32cc797a"},"vehicle_type_id":"4","last_reported":1757931081,"current_range_meters":18800,"station_id":"ce4bhbh2rcd13ifvqeqg","pricing_plan_id":"cebpf4jnsgd1na2vs0mg"},{"bike_id":"b1182963-b9c4-4fff-b950-e76aa9d44dff","system_id":"levelo_inurba_marseille","lat":43.25924,"lon":5.408851,"is_reserved":false,"is_disabled":false,"rental_uris":{"android":"levelo://app?vid=b1182963-b9c4-4fff-b950-e76aa9d44dff","ios":"levelo://app?vid=b1182963-b9c4-4fff-b950-e76aa9d44dff"},"vehicle_type_id":"4","last_reported":1757931081,"current_range_meters":18800,"station_id":"ce4bhm92rcd13ifvqglg","pricing_plan_id":"cebpf4jnsgd1na2vs0mg"},{"bike_id":"3b26aa0d-3679-4b4c-9b55-1096f6d08a9d","system_id":"levelo_inurba_marseille","lat":43.31302,"lon":5.39385,"is_reserved":false,"is_disabled":false,"rental_uris":{"android":"levelo://app?vid=3b26aa0d-3679-4b4c-9b55-1096f6d08a9d","ios":"levelo://app?vid=3b26aa0d-3679-4b4c-9b55-1096f6d08a9d"},"vehicle_type_id":"4","last_reported":1757931081,"current_range_meters":18800,"station_id":"","pricing_plan_id":"cebpf4jnsgd1na2vs0mg"},{"bike_id":"78c4d63e-ddd9-4dbd-9a54-6d3e729398f2","system_id":"levelo_inurba_marseille","lat":43.31358,"lon":5.36712,"is_reserved":false,"is_disabled":false,"rental_uris":{"android":"levelo://app?vid=78c4d63e-ddd9-4dbd-9a54-6d3e729398f2","ios":"levelo://app?vid=78c4d63e-ddd9-4dbd-9a54-6d3e729398f2"},"vehicle_type_id":"4","last_reported":1757931081,"current_range_meters":18800,"station_id":"ce4bgr92rcd13ifvqc6g","pricing_plan_id":"cebpf4jnsgd1na2vs0mg"},{"bike_id":"769f5263-3012-4ef1-ac63-60c854dda2db","system_id":"levelo_inurba_marseille","lat":43.27497,"lon":5.42455,"is_reserved":false,"is_disabled":false,"rental_uris":{"android":"levelo://app?vid=769f5263-3012-4ef1-ac63-60c854dda2db","ios":"levelo://app?vid=769f5263-3012-4ef1-ac63-60c854dda2db"},"vehicle_type_id":"4","last_reported":1757931081,"current_range_meters":18800,"station_id":"ce4bhn92rcd13ifvqgrg","pricing_plan_id":"cebpf4jnsgd1na2vs0mg"},{"bike_id":"0ec22504-4f53-4a7d-8664-2802d447c65f","system_id":"levelo_inurba_marseille","lat":43.2179,"lon":5.34581,"is_reserved":false,"is_disabled":false,"rental_uris":{"android":"levelo://app?vid=0ec22504-4f53-4a7d-8664-2802d447c65f","ios":"levelo://app?vid=0ec22504-4f53-4a7d-8664-2802d447c65f"},"vehicle_type_id":"4","last_reported":1757931081,"current_range_meters":18800,"station_id":"","pricing_plan_id":"cebpf4jnsgd1na2vs0mg"},{"bike_id":"930a96ba-9ebf-44c0-8f25-f0bf8d5c3cb2","system_id":"levelo_inurba_marseille","lat":43.2849,"lon":5.38544,"is_reserved":false,"is_disabled":false,"rental_uris":{"android":"levelo://app?vid=930a96ba-9ebf-44c0-8f25-f0bf8d5c3cb2","ios":"levelo://app?vid=930a96ba-9ebf-44c0-8f25-f0bf8d5c3cb2"},"vehicle_type_id":"4","last_reported":1757931081,"current_range_meters":19200,"station_id":"ce4bh8p2rcd13ifvqeb0","pricing_plan_id":"cebpf4jnsgd1na2vs0mg"},{"bike_id":"6300c336-0590-4f78-943e-8940715742ab","system_id":"levelo_inurba_marseille","lat":43.27168,"lon":5.40991,"is_reserved":false,"is_disabled":false,"rental_uris":{"android":"levelo://app?vid=6300c336-0590-4f78-943e-8940715742ab","ios":"levelo://app?vid=6300c336-0590-4f78-943e-8940715742ab"},"vehicle_type_id":"4","last_reported":1757931081,"current_range_meters":19200,"station_id":"ce4bhl12rcd13ifvqgf0","pricing_plan_id":"cebpf4jnsgd1na2vs0mg"},{"bike_id":"831b0a3f-92c1-4742-8a00-e0b7c3160e90","system_id":"levelo_inurba_marseille","lat":43.275665,"lon":5.384226,"is_reserved":false,"is_disabled":false,"rental_uris":{"android":"levelo://app?vid=831b0a3f-92c1-4742-8a00-e0b7c3160e90","ios":"levelo://app?vid=831b0a3f-92c1-4742-8a00-e0b7c3160e90"},"vehicle_type_id":"4","last_reported":1757931081,"current_range_meters":19200,"station_id":"ce4bhh92rcd13ifvqfi0","pricing_plan_id":"cebpf4jnsgd1na2vs0mg"},{"bike_id":"e0d10629-6f17-49d9-8f50-4043ef0566f6","system_id":"levelo_inurba_marseille","lat":43.27679,"lon":5.38867,"is_reserved":false,"is_disabled":false,"rental_uris":{"android":"levelo://app?vid=e0d10629-6f17-49d9-8f50-4043ef0566f6","ios":"levelo://app?vid=e0d10629-6f17-49d9-8f50-4043ef0566f6"},"vehicle_type_id":"4","last_reported":1757931081,"current_range_meters":19200,"station_id":"ce4bhi12rcd13ifvqfo0","pricing_plan_id":"cebpf4jnsgd1na2vs0mg"},{"bike_id":"7dc89c00-bbe9-44a4-85f5-5c4da73aea2d","system_id":"levelo_inurba_marseille","lat":43.21744,"lon":5.346,"is_reserved":false,"is_disabled":false,"rental_uris":{"android":"levelo://app?vid=7dc89c00-bbe9-44a4-85f5-5c4da73aea2d","ios":"levelo://app?vid=7dc89c00-bbe9-44a4-85f5-5c4da73aea2d"},"vehicle_type_id":"4","last_reported":1757931081,"current_range_meters":19200,"station_id":"st_cvj6r9ubvosntc0bgbag","pricing_plan_id":"cebpf4jnsgd1na2vs0mg"},{"bike_id":"9f03ecca-31f7-4479-af01-adbb1998d3e9","system_id":"levelo_inurba_marseille","lat":43.23139,"lon":5.43723,"is_reserved":false,"is_disabled":false,"rental_uris":{"android":"levelo://app?vid=9f03ecca-31f7-4479-af01-adbb1998d3e9","ios":"levelo://app?vid=9f03ecca-31f7-4479-af01-adbb1998d3e9"},"vehicle_type_id":"4","last_reported":1757931081,"current_range_meters":19200,"station_id":"ce4bhmp2rcd13ifvqgog","pricing_plan_id":"cebpf4jnsgd1na2vs0mg"},{"bike_id":"7401f904-c7a5-4420-9a38-b32c76084c39","system_id":"levelo_inurba_marseille","lat":43.282654,"lon":5.350617,"is_reserved":false,"is_disabled":true,"rental_uris":{"android":"levelo://app?vid=7401f904-c7a5-4420-9a38-b32c76084c39","ios":"levelo://app?vid=7401f904-c7a5-4420-9a38-b32c76084c39"},"vehicle_type_id":"4","last_reported":1757931081,"current_range_meters":19200,"station_id":"ce4bhbp2rcd13ifvqerg","pricing_plan_id":"cebpf4jnsgd1na2vs0mg"},{"bike_id":"511f6c29-3390-4042-b48e-75a4d61a54e0","system_id":"levelo_inurba_marseille","lat":43.32028,"lon":5.36762,"is_reserved":false,"is_disabled":false,"rental_uris":{"android":"levelo://app?vid=511f6c29-3390-4042-b48e-75a4d61a54e0","ios":"levelo://app?vid=511f6c29-3390-4042-b48e-75a4d61a54e0"},"vehicle_type_id":"4","last_reported":1757931081,"current_range_meters":19200,"station_id":"","pricing_plan_id":"cebpf4jnsgd1na2vs0mg"},{"bike_id":"c96cfeb8-ee70-4271-94c1-a474c15bf3ed","system_id":"levelo_inurba_marseille","lat":43.23051,"lon":5.3551,"is_reserved":false,"is_disabled":false,"rental_uris":{"android":"levelo://app?vid=c96cfeb8-ee70-4271-94c1-a474c15bf3ed","ios":"levelo://app?vid=c96cfeb8-ee70-4271-94c1-a474c15bf3ed"},"vehicle_type_id":"4","last_reported":1757931081,"current_range_meters":19200,"station_id":"cpo3342slgdg3j2ifvpg","pricing_plan_id":"cebpf4jnsgd1na2vs0mg"},{"bike_id":"e6b4cb53-1a15-40a2-a39e-a61ed23159a5","system_id":"levelo_inurba_marseille","lat":43.23145,"lon":5.43723,"is_reserved":false,"is_disabled":false,"rental_uris":{"android":"levelo://app?vid=e6b4cb53-1a15-40a2-a39e-a61ed23159a5","ios":"levelo://app?vid=e6b4cb53-1a15-40a2-a39e-a61ed23159a5"},"vehicle_type_id":"4","last_reported":1757931081,"current_range_meters":19200,"station_id":"ce4bhmp2rcd13ifvqgog","pricing_plan_id":"cebpf4jnsgd1na2vs0mg"},{"bike_id":"34e28511-daa3-4532-b356-9c589f08e632","system_id":"levelo_inurba_marseille","lat":43.26944,"lon":5.38627,"is_reserved":false,"is_disabled":false,"rental_uris":{"android":"levelo://app?vid=34e28511-daa3-4532-b356-9c589f08e632","ios":"levelo://app?vid=34e28511-daa3-4532-b356-9c589f08e632"},"vehicle_type_id":"4","last_reported":1757931081,"current_range_meters":19600,"station_id":"ce4bhh92rcd13ifvqfh0","pricing_plan_id":"cebpf4jnsgd1na2vs0mg"},{"bike_id":"8bc5c7e1-29a3-4624-90fa-9f70421697ef","system_id":"levelo_inurba_marseille","lat":43.21751,"lon":5.34595,"is_reserved":false,"is_disabled":false,"rental_uris":{"android":"levelo://app?vid=8bc5c7e1-29a3-4624-90fa-9f70421697ef","ios":"levelo://app?vid=8bc5c7e1-29a3-4624-90fa-9f70421697ef"},"vehicle_type_id":"4","last_reported":1757931081,"current_range_meters":19600,"station_id":"","pricing_plan_id":"cebpf4jnsgd1na2vs0mg"},{"bike_id":"a039b4d7-b0bb-4927-9b79-7693532af88c","system_id":"levelo_inurba_marseille","lat":43.32362,"lon":5.36737,"is_reserved":false,"is_disabled":false,"rental_uris":{"android":"levelo://app?vid=a039b4d7-b0bb-4927-9b79-7693532af88c","ios":"levelo://app?vid=a039b4d7-b0bb-4927-9b79-7693532af88c"},"vehicle_type_id":"4","last_reported":1757931081,"current_range_meters":19600,"station_id":"ce4bhsh2rcd13ifvqi2g","pricing_plan_id":"cebpf4jnsgd1na2vs0mg"},{"bike_id":"2a6a6bf2-253d-4ca6-9c2c-10cf4cc60036","system_id":"levelo_inurba_marseille","lat":43.28745,"lon":5.36114,"is_reserved":false,"is_disabled":true,"rental_uris":{"android":"levelo://app?vid=2a6a6bf2-253d-4ca6-9c2c-10cf4cc60036","ios":"levelo://app?vid=2a6a6bf2-253d-4ca6-9c2c-10cf4cc60036"},"vehicle_type_id":"4","last_reported":1757931081,"current_range_meters":19600,"station_id":"cki0cbj6b192h4jlfktg","pricing_plan_id":"cebpf4jnsgd1na2vs0mg"},{"bike_id":"28527c0b-107f-45f0-a033-b74526605a69","system_id":"levelo_inurba_marseille","lat":43.2721,"lon":5.39193,"is_reserved":false,"is_disabled":false,"rental_uris":{"android":"levelo://app?vid=28527c0b-107f-45f0-a033-b74526605a69","ios":"levelo://app?vid=28527c0b-107f-45f0-a033-b74526605a69"},"vehicle_type_id":"4","last_reported":1757931081,"current_range_meters":19600,"station_id":"ce4bhhp2rcd13ifvqfm0","pricing_plan_id":"cebpf4jnsgd1na2vs0mg"},{"bike_id":"886768c6-7d05-4f4f-bdbd-5ae9ea59adc1","system_id":"levelo_inurba_marseille","lat":43.31364,"lon":5.36713,"is_reserved":false,"is_disabled":false,"rental_uris":{"android":"levelo://app?vid=886768c6-7d05-4f4f-bdbd-5ae9ea59adc1","ios":"levelo://app?vid=886768c6-7d05-4f4f-bdbd-5ae9ea59adc1"},"vehicle_type_id":"4","last_reported":1757931081,"current_range_meters":19600,"station_id":"ce4bgr92rcd13ifvqc6g","pricing_plan_id":"cebpf4jnsgd1na2vs0mg"},{"bike_id":"0c451dfc-35a5-482d-9ac6-fa3d922a2820","system_id":"levelo_inurba_marseille","lat":43.269512,"lon":5.386398,"is_reserved":false,"is_disabled":false,"rental_uris":{"android":"levelo://app?vid=0c451dfc-35a5-482d-9ac6-fa3d922a2820","ios":"levelo://app?vid=0c451dfc-35a5-482d-9ac6-fa3d922a2820"},"vehicle_type_id":"4","last_reported":1757931081,"current_range_meters":19600,"station_id":"ce4bhh92rcd13ifvqfh0","pricing_plan_id":"cebpf4jnsgd1na2vs0mg"},{"bike_id":"98082af4-c334-4810-94aa-8ca92b41a103","system_id":"levelo_inurba_marseille","lat":43.30533,"lon":5.3654,"is_reserved":false,"is_disabled":false,"rental_uris":{"android":"levelo://app?vid=98082af4-c334-4810-94aa-8ca92b41a103","ios":"levelo://app?vid=98082af4-c334-4810-94aa-8ca92b41a103"},"vehicle_type_id":"4","last_reported":1757931081,"current_range_meters":19600,"station_id":"ce4bgs12rcd13ifvqcag","pricing_plan_id":"cebpf4jnsgd1na2vs0mg"},{"bike_id":"ead5016a-4a10-4a5c-a462-5bbf92ea8ca9","system_id":"levelo_inurba_marseille","lat":43.2998,"lon":5.37177,"is_reserved":false,"is_disabled":false,"rental_uris":{"android":"levelo://app?vid=ead5016a-4a10-4a5c-a462-5bbf92ea8ca9","ios":"levelo://app?vid=ead5016a-4a10-4a5c-a462-5bbf92ea8ca9"},"vehicle_type_id":"4","last_reported":1757931081,"current_range_meters":19600,"station_id":"ce4bgr92rcd13ifvqc7g","pricing_plan_id":"cebpf4jnsgd1na2vs0mg"},{"bike_id":"04e8364e-fbe3-4201-9609-92fa4b1195b0","system_id":"levelo_inurba_marseille","lat":43.23184,"lon":5.39992,"is_reserved":false,"is_disabled":false,"rental_uris":{"android":"levelo://app?vid=04e8364e-fbe3-4201-9609-92fa4b1195b0","ios":"levelo://app?vid=04e8364e-fbe3-4201-9609-92fa4b1195b0"},"vehicle_type_id":"4","last_reported":1757931081,"current_range_meters":19600,"station_id":"ce4bhn12rcd13ifvqgqg","pricing_plan_id":"cebpf4jnsgd1na2vs0mg"},{"bike_id":"089ed5be-4fe5-4b46-ac1f-dfba3ee2100a","system_id":"levelo_inurba_marseille","lat":43.3136,"lon":5.38489,"is_reserved":false,"is_disabled":false,"rental_uris":{"android":"levelo://app?vid=089ed5be-4fe5-4b46-ac1f-dfba3ee2100a","ios":"levelo://app?vid=089ed5be-4fe5-4b46-ac1f-dfba3ee2100a"},"vehicle_type_id":"4","last_reported":1757931081,"current_range_meters":20000,"station_id":"ce4bgt92rcd13ifvqcf0","pricing_plan_id":"cebpf4jnsgd1na2vs0mg"},{"bike_id":"f3b5ef6f-ba3c-4c6d-a8e9-4b1ffaf2d106","system_id":"levelo_inurba_marseille","lat":43.31611,"lon":5.37911,"is_reserved":false,"is_disabled":false,"rental_uris":{"android":"levelo://app?vid=f3b5ef6f-ba3c-4c6d-a8e9-4b1ffaf2d106","ios":"levelo://app?vid=f3b5ef6f-ba3c-4c6d-a8e9-4b1ffaf2d106"},"vehicle_type_id":"4","last_reported":1757931081,"current_range_meters":20000,"station_id":"","pricing_plan_id":"cebpf4jnsgd1na2vs0mg"},{"bike_id":"4c634320-bb05-432e-b250-fe2aef0fc3d0","system_id":"levelo_inurba_marseille","lat":43.291827,"lon":5.382646,"is_reserved":false,"is_disabled":false,"rental_uris":{"android":"levelo://app?vid=4c634320-bb05-432e-b250-fe2aef0fc3d0","ios":"levelo://app?vid=4c634320-bb05-432e-b250-fe2aef0fc3d0"},"vehicle_type_id":"4","last_reported":1757931081,"current_range_meters":20000,"station_id":"ce4bgop2rcd13ifvqc1g","pricing_plan_id":"cebpf4jnsgd1na2vs0mg"},{"bike_id":"72211ac2-c238-42ff-ba90-a0796de95ffd","system_id":"levelo_inurba_marseille","lat":43.27563,"lon":5.38584,"is_reserved":false,"is_disabled":false,"rental_uris":{"android":"levelo://app?vid=72211ac2-c238-42ff-ba90-a0796de95ffd","ios":"levelo://app?vid=72211ac2-c238-42ff-ba90-a0796de95ffd"},"vehicle_type_id":"4","last_reported":1757931081,"current_range_meters":20000,"station_id":"","pricing_plan_id":"cebpf4jnsgd1na2vs0mg"},{"bike_id":"cbd10236-26ad-44cb-94e4-2240741d9c9d","system_id":"levelo_inurba_marseille","lat":43.31219,"lon":5.36875,"is_reserved":false,"is_disabled":false,"rental_uris":{"android":"levelo://app?vid=cbd10236-26ad-44cb-94e4-2240741d9c9d","ios":"levelo://app?vid=cbd10236-26ad-44cb-94e4-2240741d9c9d"},"vehicle_type_id":"4","last_reported":1757931081,"current_range_meters":20000,"station_id":"ce4bgl92rcd13ifvqbq0","pricing_plan_id":"cebpf4jnsgd1na2vs0mg"},{"bike_id":"e8352a67-b26b-411b-b225-ce00bb037aac","system_id":"levelo_inurba_marseille","lat":43.30541,"lon":5.3655,"is_reserved":false,"is_disabled":false,"rental_uris":{"android":"levelo://app?vid=e8352a67-b26b-411b-b225-ce00bb037aac","ios":"levelo://app?vid=e8352a67-b26b-411b-b225-ce00bb037aac"},"vehicle_type_id":"4","last_reported":1757931081,"current_range_meters":20000,"station_id":"","pricing_plan_id":"cebpf4jnsgd1na2vs0mg"},{"bike_id":"830b9b55-b582-49a9-8acf-457ace5fb670","system_id":"levelo_inurba_marseille","lat":43.22556,"lon":5.41621,"is_reserved":false,"is_disabled":false,"rental_uris":{"android":"levelo://app?vid=830b9b55-b582-49a9-8acf-457ace5fb670","ios":"levelo://app?vid=830b9b55-b582-49a9-8acf-457ace5fb670"},"vehicle_type_id":"4","last_reported":1757931081,"current_range_meters":20000,"station_id":"st_d2o4gvlbi1j2169b742g","pricing_plan_id":"cebpf4jnsgd1na2vs0mg"},{"bike_id":"4b9c958a-8ae5-4328-ad46-9ca62e1e3e36","system_id":"levelo_inurba_marseille","lat":43.24548,"lon":5.39495,"is_reserved":false,"is_disabled":false,"rental_uris":{"android":"levelo://app?vid=4b9c958a-8ae5-4328-ad46-9ca62e1e3e36","ios":"levelo://app?vid=4b9c958a-8ae5-4328-ad46-9ca62e1e3e36"},"vehicle_type_id":"4","last_reported":1757931081,"current_range_meters":20000,"station_id":"ce4bhlp2rcd13ifvqgjg","pricing_plan_id":"cebpf4jnsgd1na2vs0mg"},{"bike_id":"ece07351-e21d-4c48-bd8e-d6076d0d6379","system_id":"levelo_inurba_marseille","lat":43.284837,"lon":5.375139,"is_reserved":false,"is_disabled":false,"rental_uris":{"android":"levelo://app?vid=ece07351-e21d-4c48-bd8e-d6076d0d6379","ios":"levelo://app?vid=ece07351-e21d-4c48-bd8e-d6076d0d6379"},"vehicle_type_id":"4","last_reported":1757931081,"current_range_meters":20400,"station_id":"","pricing_plan_id":"cebpf4jnsgd1na2vs0mg"},{"bike_id":"af855c88-100f-429f-ba0c-3dad51b30928","system_id":"levelo_inurba_marseille","lat":43.21191,"lon":5.350756,"is_reserved":false,"is_disabled":false,"rental_uris":{"android":"levelo://app?vid=af855c88-100f-429f-ba0c-3dad51b30928","ios":"levelo://app?vid=af855c88-100f-429f-ba0c-3dad51b30928"},"vehicle_type_id":"4","last_reported":1757931081,"current_range_meters":20400,"station_id":"st_cvj6sg6p6f1abm77japg","pricing_plan_id":"cebpf4jnsgd1na2vs0mg"},{"bike_id":"c6b13cb9-316a-4c64-b589-09adc2b9a531","system_id":"levelo_inurba_marseille","lat":43.239802,"lon":5.366408,"is_reserved":false,"is_disabled":false,"rental_uris":{"android":"levelo://app?vid=c6b13cb9-316a-4c64-b589-09adc2b9a531","ios":"levelo://app?vid=c6b13cb9-316a-4c64-b589-09adc2b9a531"},"vehicle_type_id":"4","last_reported":1757931081,"current_range_meters":20400,"station_id":"ce4bhi12rcd13ifvqfp0","pricing_plan_id":"cebpf4jnsgd1na2vs0mg"},{"bike_id":"2da30fad-f46c-471f-8689-0e30a4332a75","system_id":"levelo_inurba_marseille","lat":43.32348,"lon":5.36712,"is_reserved":false,"is_disabled":false,"rental_uris":{"android":"levelo://app?vid=2da30fad-f46c-471f-8689-0e30a4332a75","ios":"levelo://app?vid=2da30fad-f46c-471f-8689-0e30a4332a75"},"vehicle_type_id":"4","last_reported":1757931081,"current_range_meters":20400,"station_id":"ce4bhsh2rcd13ifvqi2g","pricing_plan_id":"cebpf4jnsgd1na2vs0mg"},{"bike_id":"ad735ed6-65a1-4114-91bd-c2c637aa120f","system_id":"levelo_inurba_marseille","lat":43.27809,"lon":5.40712,"is_reserved":false,"is_disabled":false,"rental_uris":{"android":"levelo://app?vid=ad735ed6-65a1-4114-91bd-c2c637aa120f","ios":"levelo://app?vid=ad735ed6-65a1-4114-91bd-c2c637aa120f"},"vehicle_type_id":"4","last_reported":1757931081,"current_range_meters":20000,"station_id":"ce4bhnh2rcd13ifvqgtg","pricing_plan_id":"cebpf4jnsgd1na2vs0mg"},{"bike_id":"efc330f6-8446-40a4-9ebe-ce98d9aff6e6","system_id":"levelo_inurba_marseille","lat":43.2861,"lon":5.37063,"is_reserved":false,"is_disabled":false,"rental_uris":{"android":"levelo://app?vid=efc330f6-8446-40a4-9ebe-ce98d9aff6e6","ios":"levelo://app?vid=efc330f6-8446-40a4-9ebe-ce98d9aff6e6"},"vehicle_type_id":"4","last_reported":1757931081,"current_range_meters":20400,"station_id":"ce4bht12rcd13ifvqi60","pricing_plan_id":"cebpf4jnsgd1na2vs0mg"},{"bike_id":"d8f54b22-ee09-4e55-84ac-7f47d655793e","system_id":"levelo_inurba_marseille","lat":43.29963,"lon":5.385,"is_reserved":false,"is_disabled":false,"rental_uris":{"android":"levelo://app?vid=d8f54b22-ee09-4e55-84ac-7f47d655793e","ios":"levelo://app?vid=d8f54b22-ee09-4e55-84ac-7f47d655793e"},"vehicle_type_id":"4","last_reported":1757931081,"current_range_meters":20000,"station_id":"ce4bgj92rcd13ifvqbd0","pricing_plan_id":"cebpf4jnsgd1na2vs0mg"},{"bike_id":"6d86dd07-3dd9-4e0b-8a39-4bd38741c422","system_id":"levelo_inurba_marseille","lat":43.32482,"lon":5.36589,"is_reserved":false,"is_disabled":false,"rental_uris":{"android":"levelo://app?vid=6d86dd07-3dd9-4e0b-8a39-4bd38741c422","ios":"levelo://app?vid=6d86dd07-3dd9-4e0b-8a39-4bd38741c422"},"vehicle_type_id":"4","last_reported":1757931081,"current_range_meters":20400,"station_id":"ce4bhs12rcd13ifvqhvg","pricing_plan_id":"cebpf4jnsgd1na2vs0mg"},{"bike_id":"5c0b2341-c41a-4f62-9e5f-92e6a593fad9","system_id":"levelo_inurba_marseille","lat":43.337645,"lon":5.374365,"is_reserved":false,"is_disabled":false,"rental_uris":{"android":"levelo://app?vid=5c0b2341-c41a-4f62-9e5f-92e6a593fad9","ios":"levelo://app?vid=5c0b2341-c41a-4f62-9e5f-92e6a593fad9"},"vehicle_type_id":"4","last_reported":1757931081,"current_range_meters":20800,"station_id":"","pricing_plan_id":"cebpf4jnsgd1na2vs0mg"},{"bike_id":"c4700059-8a58-4725-a0a1-8ba0d0e479d8","system_id":"levelo_inurba_marseille","lat":43.27373,"lon":5.36254,"is_reserved":false,"is_disabled":false,"rental_uris":{"android":"levelo://app?vid=c4700059-8a58-4725-a0a1-8ba0d0e479d8","ios":"levelo://app?vid=c4700059-8a58-4725-a0a1-8ba0d0e479d8"},"vehicle_type_id":"4","last_reported":1757931081,"current_range_meters":20800,"station_id":"ce4bhbh2rcd13ifvqeo0","pricing_plan_id":"cebpf4jnsgd1na2vs0mg"},{"bike_id":"003515e8-8117-44bb-979d-5f47e8d50fda","system_id":"levelo_inurba_marseille","lat":43.30628,"lon":5.37564,"is_reserved":false,"is_disabled":false,"rental_uris":{"android":"levelo://app?vid=003515e8-8117-44bb-979d-5f47e8d50fda","ios":"levelo://app?vid=003515e8-8117-44bb-979d-5f47e8d50fda"},"vehicle_type_id":"4","last_reported":1757931081,"current_range_meters":20800,"station_id":"","pricing_plan_id":"cebpf4jnsgd1na2vs0mg"},{"bike_id":"c67769cc-96a0-4ca5-8154-d12a6ad244a1","system_id":"levelo_inurba_marseille","lat":43.24393,"lon":5.37033,"is_reserved":false,"is_disabled":false,"rental_uris":{"android":"levelo://app?vid=c67769cc-96a0-4ca5-8154-d12a6ad244a1","ios":"levelo://app?vid=c67769cc-96a0-4ca5-8154-d12a6ad244a1"},"vehicle_type_id":"4","last_reported":1757931081,"current_range_meters":20800,"station_id":"ce4bhhh2rcd13ifvqfk0","pricing_plan_id":"cebpf4jnsgd1na2vs0mg"},{"bike_id":"362d33d9-4e9a-43bd-b893-eb3ec74a3835","system_id":"levelo_inurba_marseille","lat":43.299292,"lon":5.365276,"is_reserved":false,"is_disabled":false,"rental_uris":{"android":"levelo://app?vid=362d33d9-4e9a-43bd-b893-eb3ec74a3835","ios":"levelo://app?vid=362d33d9-4e9a-43bd-b893-eb3ec74a3835"},"vehicle_type_id":"4","last_reported":1757931081,"current_range_meters":20800,"station_id":"ce4bgm92rcd13ifvqbr0","pricing_plan_id":"cebpf4jnsgd1na2vs0mg"},{"bike_id":"88a8a850-d513-47ec-8870-e7210ef51b52","system_id":"levelo_inurba_marseille","lat":43.29929,"lon":5.38523,"is_reserved":false,"is_disabled":false,"rental_uris":{"android":"levelo://app?vid=88a8a850-d513-47ec-8870-e7210ef51b52","ios":"levelo://app?vid=88a8a850-d513-47ec-8870-e7210ef51b52"},"vehicle_type_id":"4","last_reported":1757931081,"current_range_meters":20800,"station_id":"","pricing_plan_id":"cebpf4jnsgd1na2vs0mg"},{"bike_id":"e8902322-b9e7-4a88-a66c-7981f77c1fc0","system_id":"levelo_inurba_marseille","lat":43.279638,"lon":5.423383,"is_reserved":false,"is_disabled":false,"rental_uris":{"android":"levelo://app?vid=e8902322-b9e7-4a88-a66c-7981f77c1fc0","ios":"levelo://app?vid=e8902322-b9e7-4a88-a66c-7981f77c1fc0"},"vehicle_type_id":"4","last_reported":1757931081,"current_range_meters":20800,"station_id":"","pricing_plan_id":"cebpf4jnsgd1na2vs0mg"},{"bike_id":"c13127d1-36b4-44c4-9afd-659e40a7e8a5","system_id":"levelo_inurba_marseille","lat":43.26552,"lon":5.37282,"is_reserved":false,"is_disabled":false,"rental_uris":{"android":"levelo://app?vid=c13127d1-36b4-44c4-9afd-659e40a7e8a5","ios":"levelo://app?vid=c13127d1-36b4-44c4-9afd-659e40a7e8a5"},"vehicle_type_id":"4","last_reported":1757931081,"current_range_meters":20800,"station_id":"ce4bhg12rcd13ifvqf70","pricing_plan_id":"cebpf4jnsgd1na2vs0mg"},{"bike_id":"d58f133c-e76a-4f29-9265-e795c3a5c460","system_id":"levelo_inurba_marseille","lat":43.25929,"lon":5.40897,"is_reserved":false,"is_disabled":false,"rental_uris":{"android":"levelo://app?vid=d58f133c-e76a-4f29-9265-e795c3a5c460","ios":"levelo://app?vid=d58f133c-e76a-4f29-9265-e795c3a5c460"},"vehicle_type_id":"4","last_reported":1757931081,"current_range_meters":20800,"station_id":"ce4bhm92rcd13ifvqglg","pricing_plan_id":"cebpf4jnsgd1na2vs0mg"},{"bike_id":"fe0c696a-c138-4b63-a65a-54aef82cf3fe","system_id":"levelo_inurba_marseille","lat":43.27175,"lon":5.40991,"is_reserved":false,"is_disabled":false,"rental_uris":{"android":"levelo://app?vid=fe0c696a-c138-4b63-a65a-54aef82cf3fe","ios":"levelo://app?vid=fe0c696a-c138-4b63-a65a-54aef82cf3fe"},"vehicle_type_id":"4","last_reported":1757931081,"current_range_meters":20800,"station_id":"ce4bhl12rcd13ifvqgf0","pricing_plan_id":"cebpf4jnsgd1na2vs0mg"},{"bike_id":"26dd2af9-6fb6-4043-9b2e-a81ccf955d71","system_id":"levelo_inurba_marseille","lat":43.29532,"lon":5.37492,"is_reserved":false,"is_disabled":false,"rental_uris":{"android":"levelo://app?vid=26dd2af9-6fb6-4043-9b2e-a81ccf955d71","ios":"levelo://app?vid=26dd2af9-6fb6-4043-9b2e-a81ccf955d71"},"vehicle_type_id":"4","last_reported":1757931081,"current_range_meters":21600,"station_id":"ce4bgkp2rcd13ifvqbmg","pricing_plan_id":"cebpf4jnsgd1na2vs0mg"},{"bike_id":"819acd2d-1fa5-4830-afb3-48b5185776e3","system_id":"levelo_inurba_marseille","lat":43.29885,"lon":5.43678,"is_reserved":false,"is_disabled":false,"rental_uris":{"android":"levelo://app?vid=819acd2d-1fa5-4830-afb3-48b5185776e3","ios":"levelo://app?vid=819acd2d-1fa5-4830-afb3-48b5185776e3"},"vehicle_type_id":"4","last_reported":1757931081,"current_range_meters":21600,"station_id":"ce4bhpp2rcd13ifvqhfg","pricing_plan_id":"cebpf4jnsgd1na2vs0mg"},{"bike_id":"c1abd8c5-40ee-4508-9e6d-7057b6a1f5e8","system_id":"levelo_inurba_marseille","lat":43.25855,"lon":5.39929,"is_reserved":false,"is_disabled":false,"rental_uris":{"android":"levelo://app?vid=c1abd8c5-40ee-4508-9e6d-7057b6a1f5e8","ios":"levelo://app?vid=c1abd8c5-40ee-4508-9e6d-7057b6a1f5e8"},