{"last_updated":1723738192,"ttl":30,"version":"2.2","data":{"bikes":[{"bike_id":"bf35c44f-c2a0-47d2-87a2-56721f729d17","system_id":"levelo_inurba_marseille","lat":43.312239,"lon":5.368562,"is_reserved":false,"is_disabled":false,"rental_uris":{"android":"levelo://app?vid=bf35c44f-c2a0-47d2-87a2-56721f729d17","ios":"levelo://app?vid=bf35c44f-c2a0-47d2-87a2-56721f729d17"},"vehicle_type_id":"4","last_reported":1723738192,"current_range_meters":15600,"station_id":"ce4bgl92rcd13ifvqbq0","pricing_plan_id":"cebpf4jnsgd1na2vs0mg"},{"bike_id":"be428882-2135-4e50-b6e6-bfad7606d55e","system_id":"levelo_inurba_marseille","lat":43.312239,"lon":5.368562,"is_reserved":false,"is_disabled":false,"rental_uris":{"android":"levelo://app?vid=be428882-2135-4e50-b6e6-bfad7606d55e","ios":"levelo://app?vid=be428882-2135-4e50-b6e6-bfad7606d55e"},"vehicle_type_id":"4","last_reported":1723738192,"current_range_meters":0,"station_id":"ce4bgl92rcd13ifvqbq0","pricing_plan_id":"cebpf4jnsgd1na2vs0mg"},{"bike_id":"5d8aa135-eaa3-4fe8-9f74-060b3685922a","system_id":"levelo_inurba_marseille","lat":43.312239,"lon":5.368562,"is_reserved":false,"is_disabled":false,"rental_uris":{"android":"levelo://app?vid=5d8aa135-eaa3-4fe8-9f74-060b3685922a","ios":"levelo://app?vid=5d8aa135-eaa3-4fe8-9f74-060b3685922a"},"vehicle_type_id":"4","last_reported":1723738192,"current_range_meters":4000,"station_id":"ce4bgl92rcd13ifvqbq0","pricing_plan_id":"cebpf4jnsgd1na2vs0mg"},{"bike_id":"cdaa9393-187f-46f2-a011-aef31a4766e0","system_id":"levelo_inurba_marseille","lat":43.309076,"lon":5.368465,"is_reserved":false,"is_disabled":false,"rental_uris":{"android":"levelo://app?vid=cdaa9393-187f-46f2-a011-aef31a4766e0","ios":"levelo://app?vid=cdaa9393-187f-46f2-a011-aef31a4766e0"},"vehicle_type_id":"4","last_reported":1723738192,"current_range_meters":8800,"station_id":"ce4bgn92rcd13ifvqbvg","pricing_plan_id":"cebpf4jnsgd1na2vs0mg"},{"bike_id":"cb96e229-773e-48ae-8d86-eb6955251398","system_id":"levelo_inurba_marseille","lat":43.309076,"lon":5.368465,"is_reserved":false,"is_disabled":false,"rental_uris":{"android":"levelo://app?vid=cb96e229-773e-48ae-8d86-eb6955251398","ios":"levelo://app?vid=cb96e229-773e-48ae-8d86-eb6955251398"},"vehicle_type_id":"4","last_reported":1723738192,"current_range_meters":19600,"station_id":"ce4bgn92rcd13ifvqbvg","pricing_plan_id":"cebpf4jnsgd1na2vs0mg"},{"bike_id":"8ed46499-4ffa-4c0c-871a-3bc0bbf2e880","system_id":"levelo_inurba_marseille","lat":43.309076,"lon":5.368465,"is_reserved":false,"is_disabled":false,"rental_uris":{"android":"levelo://app?vid=8ed46499-4ffa-4c0c-871a-3bc0bbf2e880","ios":"levelo://app?vid=8ed46499-4ffa-4c0c-871a-3bc0bbf2e880"},"vehicle_type_id":"4","last_reported":1723738192,"current_range_meters":4400,"station_id":"ce4bgn92rcd13ifvqbvg","pricing_plan_id":"cebpf4jnsgd1na2vs0mg"},{"bike_id":"5c3e7e5d-f7ea-4a48-88e2-4153987c3e38","system_id":"levelo_inurba_marseille","lat":43.309039,"lon":5.371797,"is_reserved":false,"is_disabled":false,"rental_uris":{"android":"levelo://app?vid=5c3e7e5d-f7ea-4a48-88e2-4153987c3e38","ios":"levelo://app?vid=5c3e7e5d-f7ea-4a48-88e2-4153987c3e38"},"vehicle_type_id":"4","last_reported":1723738192,"current_range_meters":30000,"station_id":"ce4bguh2rcd13ifvqckg","pricing_plan_id":"cebpf4jnsgd1na2vs0mg"},{"bike_id":"d806e892-f2b5-4e7f-a4b4-b6e3da10b534","system_id":"levelo_inurba_marseille","lat":43.309039,"lon":5.371797,"is_reserved":false,"is_disabled":false,"rental_uris":{"android":"levelo://app?vid=d806e892-f2b5-4e7f-a4b4-b6e3da10b534","ios":"levelo://app?vid=d806e892-f2b5-4e7f-a4b4-b6e3da10b534"},"vehicle_type_id":"4","last_reported":1723738192,"current_range_meters":7200,"station_id":"ce4bguh2rcd13ifvqckg","pricing_plan_id":"cebpf4jnsgd1na2vs0mg"},{"bike_id":"c7fa06fa-eb16-4e50-aec8-1a3eda5802bf","system_id":"levelo_inurba_marseille","lat":43.311125,"lon":5.377624,"is_reserved":false,"is_disabled":false,"rental_uris":{"android":"levelo://app?vid=c7fa06fa-eb16-4e50-aec8-1a3eda5802bf","ios":"levelo://app?vid=c7fa06fa-eb16-4e50-aec8-1a3eda5802bf"},"vehicle_type_id":"4","last_reported":1723738192,"current_range_meters":0,"station_id":"ce4bgt92rcd13ifvqcg0","pricing_plan_id":"cebpf4jnsgd1na2vs0mg"},{"bike_id":"501de664-6ece-4311-95bb-de9639df0dab","system_id":"levelo_inurba_marseille","lat":43.31116,"lon":5.37747,"is_reserved":false,"is_disabled":false,"rental_uris":{"android":"levelo://app?vid=501de664-6ece-4311-95bb-de9639df0dab","ios":"levelo://app?vid=501de664-6ece-4311-95bb-de9639df0dab"},"vehicle_type_id":"4","last_reported":1723738192,"current_range_meters":11200,"station_id":"ce4bgt92rcd13ifvqcg0","pricing_plan_id":"cebpf4jnsgd1na2vs0mg"},{"bike_id":"6fc50849-986e-4a90-a310-4c2ea5da0ea4","system_id":"levelo_inurba_marseille","lat":43.305989,"lon":5.37225,"is_reserved":false,"is_disabled":false,"rental_uris":{"android":"levelo://app?vid=6fc50849-986e-4a90-a310-4c2ea5da0ea4","ios":"levelo://app?vid=6fc50849-986e-4a90-a310-4c2ea5da0ea4"},"vehicle_type_id":"4","last_reported":1723738192,"current_range_meters":27200,"station_id":"ce4bgqh2rcd13ifvqc4g","pricing_plan_id":"cebpf4jnsgd1na2vs0mg"},{"bike_id":"b9ee1fd9-9468-4311-ac39-e6139ec128f1","system_id":"levelo_inurba_marseille","lat":43.311125,"lon":5.377624,"is_reserved":false,"is_disabled":false,"rental_uris":{"android":"levelo://app?vid=b9ee1fd9-9468-4311-ac39-e6139ec128f1","ios":"levelo://app?vid=b9ee1fd9-9468-4311-ac39-e6139ec128f1"},"vehicle_type_id":"4","last_reported":1723738192,"current_range_meters":17200,"station_id":"ce4bgt92rcd13ifvqcg0","pricing_plan_id":"cebpf4jnsgd1na2vs0mg"},{"bike_id":"8b364181-2175-4568-9cde-7d2c4f158c0b","system_id":"levelo_inurba_marseille","lat":43.311125,"lon":5.377624,"is_reserved":false,"is_disabled":false,"rental_uris":{"android":"levelo://app?vid=8b364181-2175-4568-9cde-7d2c4f158c0b","ios":"levelo://app?vid=8b364181-2175-4568-9cde-7d2c4f158c0b"},"vehicle_type_id":"4","last_reported":1723738192,"current_range_meters":18000,"station_id":"ce4bgt92rcd13ifvqcg0","pricing_plan_id":"cebpf4jnsgd1na2vs0mg"},{"bike_id":"57fab331-5ebd-414a-8358-85e1bf602fbb","system_id":"levelo_inurba_marseille","lat":43.305989,"lon":5.37225,"is_reserved":false,"is_disabled":false,"rental_uris":{"android":"levelo://app?vid=57fab331-5ebd-414a-8358-85e1bf602fbb","ios":"levelo://app?vid=57fab331-5ebd-414a-8358-85e1bf602fbb"},"vehicle_type_id":"4","last_reported":1723738192,"current_range_meters":16800,"station_id":"ce4bgqh2rcd13ifvqc4g","pricing_plan_id":"cebpf4jnsgd1na2vs0mg"},{"bike_id":"bcc76aac-adfb-42ca-8d83-0a9daf737d15","system_id":"levelo_inurba_marseille","lat":43.307945,"lon":5.376487,"is_reserved":false,"is_disabled":false,"rental_uris":{"android":"levelo://app?vid=bcc76aac-adfb-42ca-8d83-0a9daf737d15","ios":"levelo://app?vid=bcc76aac-adfb-42ca-8d83-0a9daf737d15"},"vehicle_type_id":"4","last_reported":1723738192,"current_range_meters":2800,"station_id":"ce4bgv92rcd13ifvqcq0","pricing_plan_id":"cebpf4jnsgd1na2vs0mg"},{"bike_id":"9be3aa82-8233-4665-92b0-430e8855f9b1","system_id":"levelo_inurba_marseille","lat":43.30313,"lon":5.36891,"is_reserved":false,"is_disabled":false,"rental_uris":{"android":"levelo://app?vid=9be3aa82-8233-4665-92b0-430e8855f9b1","ios":"levelo://app?vid=9be3aa82-8233-4665-92b0-430e8855f9b1"},"vehicle_type_id":"4","last_reported":1723738192,"current_range_meters":7200,"station_id":"ce4bgqh2rcd13ifvqc5g","pricing_plan_id":"cebpf4jnsgd1na2vs0mg"},{"bike_id":"08a79343-683b-43a7-9a4e-d983ae9f4f59","system_id":"levelo_inurba_marseille","lat":43.315289,"lon":5.380349,"is_reserved":false,"is_disabled":false,"rental_uris":{"android":"levelo://app?vid=08a79343-683b-43a7-9a4e-d983ae9f4f59","ios":"levelo://app?vid=08a79343-683b-43a7-9a4e-d983ae9f4f59"},"vehicle_type_id":"4","last_reported":1723738192,"current_range_meters":26000,"station_id":"ce4bhsp2rcd13ifvqi50","pricing_plan_id":"cebpf4jnsgd1na2vs0mg"},{"bike_id":"06945a2a-2849-4cff-8165-8c341751533c","system_id":"levelo_inurba_marseille","lat":43.30798,"lon":5.38153,"is_reserved":false,"is_disabled":false,"rental_uris":{"android":"levelo://app?vid=06945a2a-2849-4cff-8165-8c341751533c","ios":"levelo://app?vid=06945a2a-2849-4cff-8165-8c341751533c"},"vehicle_type_id":"4","last_reported":1723738192,"current_range_meters":3200,"station_id":"ce4bgt12rcd13ifvqce0","pricing_plan_id":"cebpf4jnsgd1na2vs0mg"},{"bike_id":"b76dbbb1-2bda-4862-9e38-2e7f5a626f90","system_id":"levelo_inurba_marseille","lat":43.308012,"lon":5.381511,"is_reserved":false,"is_disabled":false,"rental_uris":{"android":"levelo://app?vid=b76dbbb1-2bda-4862-9e38-2e7f5a626f90","ios":"levelo://app?vid=b76dbbb1-2bda-4862-9e38-2e7f5a626f90"},"vehicle_type_id":"4","last_reported":1723738192,"current_range_meters":5200,"station_id":"ce4bgt12rcd13ifvqce0","pricing_plan_id":"cebpf4jnsgd1na2vs0mg"},{"bike_id":"50c8c3dc-3a97-4188-8ebd-1a1ddbef9cf9","system_id":"levelo_inurba_marseille","lat":43.3046,"lon":5.37889,"is_reserved":false,"is_disabled":false,"rental_uris":{"android":"levelo://app?vid=50c8c3dc-3a97-4188-8ebd-1a1ddbef9cf9","ios":"levelo://app?vid=50c8c3dc-3a97-4188-8ebd-1a1ddbef9cf9"},"vehicle_type_id":"4","last_reported":1723738192,"current_range_meters":0,"station_id":"","pricing_plan_id":"cebpf4jnsgd1na2vs0mg"},{"bike_id":"dd5a188a-bc7a-4fda-86ed-5d2d92f7fc96","system_id":"levelo_inurba_marseille","lat":43.304606,"lon":5.379026,"is_reserved":false,"is_disabled":false,"rental_uris":{"android":"levelo://app?vid=dd5a188a-bc7a-4fda-86ed-5d2d92f7fc96","ios":"levelo://app?vid=dd5a188a-bc7a-4fda-86ed-5d2d92f7fc96"},"vehicle_type_id":"4","last_reported":1723738192,"current_range_meters":16400,"station_id":"ce4bgup2rcd13ifvqcn0","pricing_plan_id":"cebpf4jnsgd1na2vs0mg"},{"bike_id":"8321fc8b-4454-447c-81b0-4d9a71874dc8","system_id":"levelo_inurba_marseille","lat":43.30466,"lon":5.37907,"is_reserved":false,"is_disabled":false,"rental_uris":{"android":"levelo://app?vid=8321fc8b-4454-447c-81b0-4d9a71874dc8","ios":"levelo://app?vid=8321fc8b-4454-447c-81b0-4d9a71874dc8"},"vehicle_type_id":"4","last_reported":1723738192,"current_range_meters":0,"station_id":"ce4bgup2rcd13ifvqcn0","pricing_plan_id":"cebpf4jnsgd1na2vs0mg"},{"bike_id":"2dc1e5c8-9d40-4b55-8f11-067b43d69f25","system_id":"levelo_inurba_marseille","lat":43.304606,"lon":5.379026,"is_reserved":false,"is_disabled":false,"rental_uris":{"android":"levelo://app?vid=2dc1e5c8-9d40-4b55-8f11-067b43d69f25","ios":"levelo://app?vid=2dc1e5c8-9d40-4b55-8f11-067b43d69f25"},"vehicle_type_id":"4","last_reported":1723738192,"current_range_meters":22800,"station_id":"ce4bgup2rcd13ifvqcn0","pricing_plan_id":"cebpf4jnsgd1na2vs0mg"},{"bike_id":"f7251883-e176-4e1e-9902-3b8fa7fb4442","system_id":"levelo_inurba_marseille","lat":43.304606,"lon":5.379026,"is_reserved":false,"is_disabled":false,"rental_uris":{"android":"levelo://app?vid=f7251883-e176-4e1e-9902-3b8fa7fb4442","ios":"levelo://app?vid=f7251883-e176-4e1e-9902-3b8fa7fb4442"},"vehicle_type_id":"4","last_reported":1723738192,"current_range_meters":20800,"station_id":"ce4bgup2rcd13ifvqcn0","pricing_plan_id":"cebpf4jnsgd1na2vs0mg"},{"bike_id":"44680a61-b1de-4b9c-b689-2ab765a147aa","system_id":"levelo_inurba_marseille","lat":43.324771,"lon":5.36557,"is_reserved":false,"is_disabled":false,"rental_uris":{"android":"levelo://app?vid=44680a61-b1de-4b9c-b689-2ab765a147aa","ios":"levelo://app?vid=44680a61-b1de-4b9c-b689-2ab765a147aa"},"vehicle_type_id":"4","last_reported":1723738192,"current_range_meters":31200,"station_id":"ce4bhs12rcd13ifvqhvg","pricing_plan_id":"cebpf4jnsgd1na2vs0mg"},{"bike_id":"973b9adf-3194-4361-b780-79085fad72a0","system_id":"levelo_inurba_marseille","lat":43.324831,"lon":5.365671,"is_reserved":false,"is_disabled":false,"rental_uris":{"android":"levelo://app?vid=973b9adf-3194-4361-b780-79085fad72a0","ios":"levelo://app?vid=973b9adf-3194-4361-b780-79085fad72a0"},"vehicle_type_id":"4","last_reported":1723738192,"current_range_meters":27600,"station_id":"ce4bhs12rcd13ifvqhvg","pricing_plan_id":"cebpf4jnsgd1na2vs0mg"},{"bike_id":"3e0c1d3f-32f7-4817-be56-7cf8e0ffd6d2","system_id":"levelo_inurba_marseille","lat":43.324832,"lon":5.365648,"is_reserved":false,"is_disabled":false,"rental_uris":{"android":"levelo://app?vid=3e0c1d3f-32f7-4817-be56-7cf8e0ffd6d2","ios":"levelo://app?vid=3e0c1d3f-32f7-4817-be56-7cf8e0ffd6d2"},"vehicle_type_id":"4","last_reported":1723738192,"current_range_meters":15200,"station_id":"ce4bhs12rcd13ifvqhvg","pricing_plan_id":"cebpf4jnsgd1na2vs0mg"},{"bike_id":"72ce88b9-d422-4426-8bab-b75408f223f7","system_id":"levelo_inurba_marseille","lat":43.324771,"lon":5.36557,"is_reserved":false,"is_disabled":false,"rental_uris":{"android":"levelo://app?vid=72ce88b9-d422-4426-8bab-b75408f223f7","ios":"levelo://app?vid=72ce88b9-d422-4426-8bab-b75408f223f7"},"vehicle_type_id":"4","last_reported":1723738192,"current_range_meters":8800,"station_id":"ce4bhs12rcd13ifvqhvg","pricing_plan_id":"cebpf4jnsgd1na2vs0mg"},{"bike_id":"28dc63f2-a449-4f7e-8a36-c558906dc995","system_id":"levelo_inurba_marseille","lat":43.32486,"lon":5.36576,"is_reserved":false,"is_disabled":false,"rental_uris":{"android":"levelo://app?vid=28dc63f2-a449-4f7e-8a36-c558906dc995","ios":"levelo://app?vid=28dc63f2-a449-4f7e-8a36-c558906dc995"},"vehicle_type_id":"4","last_reported":1723738192,"current_range_meters":23200,"station_id":"ce4bhs12rcd13ifvqhvg","pricing_plan_id":"cebpf4jnsgd1na2vs0mg"},{"bike_id":"25f704bb-de96-42b3-8fc8-7c0034e26c2e","system_id":"levelo_inurba_marseille","lat":43.32487,"lon":5.36558,"is_reserved":false,"is_disabled":false,"rental_uris":{"android":"levelo://app?vid=25f704bb-de96-42b3-8fc8-7c0034e26c2e","ios":"levelo://app?vid=25f704bb-de96-42b3-8fc8-7c0034e26c2e"},"vehicle_type_id":"4","last_reported":1723738192,"current_range_meters":17600,"station_id":"ce4bhs12rcd13ifvqhvg","pricing_plan_id":"cebpf4jnsgd1na2vs0mg"},{"bike_id":"bdf61be6-6755-4df3-ae77-6b81cc7b98f5","system_id":"levelo_inurba_marseille","lat":43.324771,"lon":5.36557,"is_reserved":false,"is_disabled":false,"rental_uris":{"android":"levelo://app?vid=bdf61be6-6755-4df3-ae77-6b81cc7b98f5","ios":"levelo://app?vid=bdf61be6-6755-4df3-ae77-6b81cc7b98f5"},"vehicle_type_id":"4","last_reported":1723738192,"current_range_meters":31200,"station_id":"ce4bhs12rcd13ifvqhvg","pricing_plan_id":"cebpf4jnsgd1na2vs0mg"},{"bike_id":"4792ec4b-9d18-463e-89c1-7d6dae4e5bc4","system_id":"levelo_inurba_marseille","lat":43.32493,"lon":5.36574,"is_reserved":false,"is_disabled":false,"rental_uris":{"android":"levelo://app?vid=4792ec4b-9d18-463e-89c1-7d6dae4e5bc4","ios":"levelo://app?vid=4792ec4b-9d18-463e-89c1-7d6dae4e5bc4"},"vehicle_type_id":"4","last_reported":1723738192,"current_range_meters":17600,"station_id":"ce4bhs12rcd13ifvqhvg","pricing_plan_id":"cebpf4jnsgd1na2vs0mg"},{"bike_id":"2a0481dc-9b2b-4b3c-a770-3ed234f995a1","system_id":"levelo_inurba_marseille","lat":43.319935,"lon":5.381699,"is_reserved":false,"is_disabled":false,"rental_uris":{"android":"levelo://app?vid=2a0481dc-9b2b-4b3c-a770-3ed234f995a1","ios":"levelo://app?vid=2a0481dc-9b2b-4b3c-a770-3ed234f995a1"},"vehicle_type_id":"4","last_reported":1723738192,"current_range_meters":400,"station_id":"ce4bhr12rcd13ifvqhpg","pricing_plan_id":"cebpf4jnsgd1na2vs0mg"},{"bike_id":"1727c42d-0bba-4454-bbd3-6f56386b4b0f","system_id":"levelo_inurba_marseille","lat":43.310804,"lon":5.38359,"is_reserved":false,"is_disabled":false,"rental_uris":{"android":"levelo://app?vid=1727c42d-0bba-4454-bbd3-6f56386b4b0f","ios":"levelo://app?vid=1727c42d-0bba-4454-bbd3-6f56386b4b0f"},"vehicle_type_id":"4","last_reported":1723738192,"current_range_meters":12400,"station_id":"ce4bgv92rcd13ifvqcr0","pricing_plan_id":"cebpf4jnsgd1na2vs0mg"},{"bike_id":"f560338d-06e7-423d-add8-50b0bc4b2704","system_id":"levelo_inurba_marseille","lat":43.30143,"lon":5.37413,"is_reserved":false,"is_disabled":false,"rental_uris":{"android":"levelo://app?vid=f560338d-06e7-423d-add8-50b0bc4b2704","ios":"levelo://app?vid=f560338d-06e7-423d-add8-50b0bc4b2704"},"vehicle_type_id":"4","last_reported":1723738192,"current_range_meters":28000,"station_id":"ce4bgs92rcd13ifvqcc0","pricing_plan_id":"cebpf4jnsgd1na2vs0mg"},{"bike_id":"e9dce544-d789-454b-9d76-023053ef92f6","system_id":"levelo_inurba_marseille","lat":43.301429,"lon":5.37413,"is_reserved":false,"is_disabled":false,"rental_uris":{"android":"levelo://app?vid=e9dce544-d789-454b-9d76-023053ef92f6","ios":"levelo://app?vid=e9dce544-d789-454b-9d76-023053ef92f6"},"vehicle_type_id":"4","last_reported":1723738192,"current_range_meters":13200,"station_id":"ce4bgs92rcd13ifvqcc0","pricing_plan_id":"cebpf4jnsgd1na2vs0mg"},{"bike_id":"b46b1b62-4cf9-40c6-8920-ce4555f4ccf3","system_id":"levelo_inurba_marseille","lat":43.30573,"lon":5.38152,"is_reserved":false,"is_disabled":false,"rental_uris":{"android":"levelo://app?vid=b46b1b62-4cf9-40c6-8920-ce4555f4ccf3","ios":"levelo://app?vid=b46b1b62-4cf9-40c6-8920-ce4555f4ccf3"},"vehicle_type_id":"4","last_reported":1723738192,"current_range_meters":26000,"station_id":"","pricing_plan_id":"cebpf4jnsgd1na2vs0mg"},{"bike_id":"2f7b5e17-946a-4c19-9af8-df6cdade8c2c","system_id":"levelo_inurba_marseille","lat":43.312924,"lon":5.385086,"is_reserved":false,"is_disabled":false,"rental_uris":{"android":"levelo://app?vid=2f7b5e17-946a-4c19-9af8-df6cdade8c2c","ios":"levelo://app?vid=2f7b5e17-946a-4c19-9af8-df6cdade8c2c"},"vehicle_type_id":"4","last_reported":1723738192,"current_range_meters":0,"station_id":"","pricing_plan_id":"cebpf4jnsgd1na2vs0mg"},{"bike_id":"de2cf043-fc75-4312-b292-bcf787727858","system_id":"levelo_inurba_marseille","lat":43.299724,"lon":5.371829,"is_reserved":false,"is_disabled":false,"rental_uris":{"android":"levelo://app?vid=de2cf043-fc75-4312-b292-bcf787727858","ios":"levelo://app?vid=de2cf043-fc75-4312-b292-bcf787727858"},"vehicle_type_id":"4","last_reported":1723738192,"current_range_meters":18000,"station_id":"ce4bgr92rcd13ifvqc7g","pricing_plan_id":"cebpf4jnsgd1na2vs0mg"},{"bike_id":"db0983b0-cd83-4ad7-ab8a-bba76437c832","system_id":"levelo_inurba_marseille","lat":43.305364,"lon":5.384119,"is_reserved":false,"is_disabled":false,"rental_uris":{"android":"levelo://app?vid=db0983b0-cd83-4ad7-ab8a-bba76437c832","ios":"levelo://app?vid=db0983b0-cd83-4ad7-ab8a-bba76437c832"},"vehicle_type_id":"4","last_reported":1723738192,"current_range_meters":12400,"station_id":"ce4bgg92rcd13ifvqb30","pricing_plan_id":"cebpf4jnsgd1na2vs0mg"},{"bike_id":"0b3c0e46-59f2-4e52-a3f1-b8d71490e909","system_id":"levelo_inurba_marseille","lat":43.295279,"lon":5.375048,"is_reserved":false,"is_disabled":false,"rental_uris":{"android":"levelo://app?vid=0b3c0e46-59f2-4e52-a3f1-b8d71490e909","ios":"levelo://app?vid=0b3c0e46-59f2-4e52-a3f1-b8d71490e909"},"vehicle_type_id":"4","last_reported":1723738192,"current_range_meters":20800,"station_id":"ce4bgkp2rcd13ifvqbmg","pricing_plan_id":"cebpf4jnsgd1na2vs0mg"},{"bike_id":"15e7ac0b-534d-400e-ad04-6a8ddf14000c","system_id":"levelo_inurba_marseille","lat":43.299243,"lon":5.37481,"is_reserved":false,"is_disabled":false,"rental_uris":{"android":"levelo://app?vid=15e7ac0b-534d-400e-ad04-6a8ddf14000c","ios":"levelo://app?vid=15e7ac0b-534d-400e-ad04-6a8ddf14000c"},"vehicle_type_id":"4","last_reported":1723738192,"current_range_meters":13200,"station_id":"ce4bgjh2rcd13ifvqbg0","pricing_plan_id":"cebpf4jnsgd1na2vs0mg"},{"bike_id":"cb3bc397-8151-4411-9653-3651a9355917","system_id":"levelo_inurba_marseille","lat":43.311722,"lon":5.387247,"is_reserved":false,"is_disabled":false,"rental_uris":{"android":"levelo://app?vid=cb3bc397-8151-4411-9653-3651a9355917","ios":"levelo://app?vid=cb3bc397-8151-4411-9653-3651a9355917"},"vehicle_type_id":"4","last_reported":1723738192,"current_range_meters":23600,"station_id":"ce4bgv12rcd13ifvqcp0","pricing_plan_id":"cebpf4jnsgd1na2vs0mg"},{"bike_id":"68b30217-6e13-47a6-ae3a-022f8676bf27","system_id":"levelo_inurba_marseille","lat":43.311722,"lon":5.387247,"is_reserved":false,"is_disabled":false,"rental_uris":{"android":"levelo://app?vid=68b30217-6e13-47a6-ae3a-022f8676bf27","ios":"levelo://app?vid=68b30217-6e13-47a6-ae3a-022f8676bf27"},"vehicle_type_id":"4","last_reported":1723738192,"current_range_meters":22800,"station_id":"ce4bgv12rcd13ifvqcp0","pricing_plan_id":"cebpf4jnsgd1na2vs0mg"},{"bike_id":"3922dc3c-ffd2-4194-b292-4a2ad564743d","system_id":"levelo_inurba_marseille","lat":43.297794,"lon":5.370888,"is_reserved":false,"is_disabled":false,"rental_uris":{"android":"levelo://app?vid=3922dc3c-ffd2-4194-b292-4a2ad564743d","ios":"levelo://app?vid=3922dc3c-ffd2-4194-b292-4a2ad564743d"},"vehicle_type_id":"4","last_reported":1723738192,"current_range_meters":400,"station_id":"ce4bgop2rcd13ifvqc1g","pricing_plan_id":"cebpf4jnsgd1na2vs0mg"},{"bike_id":"3174c884-a146-4b69-ac78-64c598c9d005","system_id":"levelo_inurba_marseille","lat":43.297774,"lon":5.370875,"is_reserved":false,"is_disabled":false,"rental_uris":{"android":"levelo://app?vid=3174c884-a146-4b69-ac78-64c598c9d005","ios":"levelo://app?vid=3174c884-a146-4b69-ac78-64c598c9d005"},"vehicle_type_id":"4","last_reported":1723738192,"current_range_meters":19600,"station_id":"ce4bgop2rcd13ifvqc1g","pricing_plan_id":"cebpf4jnsgd1na2vs0mg"},{"bike_id":"1899b9a9-2917-4623-ad8d-ac9c1179a318","system_id":"levelo_inurba_marseille","lat":43.322926,"lon":5.382574,"is_reserved":false,"is_disabled":false,"rental_uris":{"android":"levelo://app?vid=1899b9a9-2917-4623-ad8d-ac9c1179a318","ios":"levelo://app?vid=1899b9a9-2917-4623-ad8d-ac9c1179a318"},"vehicle_type_id":"4","last_reported":1723738192,"current_range_meters":28000,"station_id":"ce4bhr12rcd13ifvqhqg","pricing_plan_id":"cebpf4jnsgd1na2vs0mg"},{"bike_id":"86f7d1ec-8ca9-4d61-9a4b-221973585bcc","system_id":"levelo_inurba_marseille","lat":43.322872,"lon":5.382756,"is_reserved":false,"is_disabled":false,"rental_uris":{"android":"levelo://app?vid=86f7d1ec-8ca9-4d61-9a4b-221973585bcc","ios":"levelo://app?vid=86f7d1ec-8ca9-4d61-9a4b-221973585bcc"},"vehicle_type_id":"4","last_reported":1723738192,"current_range_meters":21200,"station_id":"ce4bhr12rcd13ifvqhqg","pricing_plan_id":"cebpf4jnsgd1na2vs0mg"},{"bike_id":"5af25460-1bc4-488e-8c02-072b17e8f2fa","system_id":"levelo_inurba_marseille","lat":43.297774,"lon":5.370875,"is_reserved":false,"is_disabled":false,"rental_uris":{"android":"levelo://app?vid=5af25460-1bc4-488e-8c02-072b17e8f2fa","ios":"levelo://app?vid=5af25460-1bc4-488e-8c02-072b17e8f2fa"},"vehicle_type_id":"4","last_reported":1723738192,"current_range_meters":24400,"station_id":"ce4bgop2rcd13ifvqc1g","pricing_plan_id":"cebpf4jnsgd1na2vs0mg"},{"bike_id":"b8eadd06-f63c-4535-b57c-f07c4fac2f4d","system_id":"levelo_inurba_marseille","lat":43.322872,"lon":5.382756,"is_reserved":false,"is_disabled":false,"rental_uris":{"android":"levelo://app?vid=b8eadd06-f63c-4535-b57c-f07c4fac2f4d","ios":"levelo://app?vid=b8eadd06-f63c-4535-b57c-f07c4fac2f4d"},"vehicle_type_id":"4","last_reported":1723738192,"current_range_meters":26800,"station_id":"ce4bhr12rcd13ifvqhqg","pricing_plan_id":"cebpf4jnsgd1na2vs0mg"},{"bike_id":"ff97c052-55ca-4cee-853a-b04048f07a44","system_id":"levelo_inurba_marseille","lat":43.322872,"lon":5.382756,"is_reserved":false,"is_disabled":false,"rental_uris":{"android":"levelo://app?vid=ff97c052-55ca-4cee-853a-b04048f07a44","ios":"levelo://app?vid=ff97c052-55ca-4cee-853a-b04048f07a44"},"vehicle_type_id":"4","last_reported":1723738192,"current_range_meters":28400,"station_id":"ce4bhr12rcd13ifvqhqg","pricing_plan_id":"cebpf4jnsgd1na2vs0mg"},{"bike_id":"74c0cb5a-9951-4661-8039-5cf861ae0704","system_id":"levelo_inurba_marseille","lat":43.2973,"lon":5.3688,"is_reserved":false,"is_disabled":false,"rental_uris":{"android":"levelo://app?vid=74c0cb5a-9951-4661-8039-5cf861ae0704","ios":"levelo://app?vid=74c0cb5a-9951-4661-8039-5cf861ae0704"},"vehicle_type_id":"4","last_reported":1723738192,"current_range_meters":31200,"station_id":"","pricing_plan_id":"cebpf4jnsgd1na2vs0mg"},{"bike_id":"ba534199-60e8-4041-844e-9fd4d30b3eb3","system_id":"levelo_inurba_marseille","lat":43.29718,"lon":5.36876,"is_reserved":false,"is_disabled":false,"rental_uris":{"android":"levelo://app?vid=ba534199-60e8-4041-844e-9fd4d30b3eb3","ios":"levelo://app?vid=ba534199-60e8-4041-844e-9fd4d30b3eb3"},"vehicle_type_id":"4","last_reported":1723738192,"current_range_meters":24000,"station_id":"","pricing_plan_id":"cebpf4jnsgd1na2vs0mg"},{"bike_id":"d80ededa-a78f-40a5-99ec-e4ee72833fb3","system_id":"levelo_inurba_marseille","lat":43.297163,"lon":5.365866,"is_reserved":false,"is_disabled":false,"rental_uris":{"android":"levelo://app?vid=d80ededa-a78f-40a5-99ec-e4ee72833fb3","ios":"levelo://app?vid=d80ededa-a78f-40a5-99ec-e4ee72833fb3"},"vehicle_type_id":"4","last_reported":1723738192,"current_range_meters":18800,"station_id":"ce4bgn12rcd13ifvqbt0","pricing_plan_id":"cebpf4jnsgd1na2vs0mg"},{"bike_id":"83725c55-1bed-4c09-9eee-f4eecc37da73","system_id":"levelo_inurba_marseille","lat":43.29682,"lon":5.37059,"is_reserved":false,"is_disabled":false,"rental_uris":{"android":"levelo://app?vid=83725c55-1bed-4c09-9eee-f4eecc37da73","ios":"levelo://app?vid=83725c55-1bed-4c09-9eee-f4eecc37da73"},"vehicle_type_id":"4","last_reported":1723738192,"current_range_meters":0,"station_id":"","pricing_plan_id":"cebpf4jnsgd1na2vs0mg"},{"bike_id":"3b74676d-20a1-4ebe-83cd-e9bfcab9ba01","system_id":"levelo_inurba_marseille","lat":43.2968,"lon":5.37291,"is_reserved":false,"is_disabled":false,"rental_uris":{"android":"levelo://app?vid=3b74676d-20a1-4ebe-83cd-e9bfcab9ba01","ios":"levelo://app?vid=3b74676d-20a1-4ebe-83cd-e9bfcab9ba01"},"vehicle_type_id":"4","last_reported":1723738192,"current_range_meters":26800,"station_id":"ce4bgk12rcd13ifvqbj0","pricing_plan_id":"cebpf4jnsgd1na2vs0mg"},{"bike_id":"3ba2c856-1a8c-42fa-97bb-4cde04309280","system_id":"levelo_inurba_marseille","lat":43.29688,"lon":5.3729,"is_reserved":false,"is_disabled":false,"rental_uris":{"android":"levelo://app?vid=3ba2c856-1a8c-42fa-97bb-4cde04309280","ios":"levelo://app?vid=3ba2c856-1a8c-42fa-97bb-4cde04309280"},"vehicle_type_id":"4","last_reported":1723738192,"current_range_meters":800,"station_id":"ce4bgk12rcd13ifvqbj0","pricing_plan_id":"cebpf4jnsgd1na2vs0mg"},{"bike_id":"0cbce34b-1b1f-43c7-a958-01c1ee5f5df0","system_id":"levelo_inurba_marseille","lat":43.309589,"lon":5.390258,"is_reserved":false,"is_disabled":false,"rental_uris":{"android":"levelo://app?vid=0cbce34b-1b1f-43c7-a958-01c1ee5f5df0","ios":"levelo://app?vid=0cbce34b-1b1f-43c7-a958-01c1ee5f5df0"},"vehicle_type_id":"4","last_reported":1723738192,"current_range_meters":5600,"station_id":"ce4bgup2rcd13ifvqco0","pricing_plan_id":"cebpf4jnsgd1na2vs0mg"},{"bike_id":"468d4b90-2058-48bb-a931-04827b3cb8f3","system_id":"levelo_inurba_marseille","lat":43.322955,"lon":5.385519,"is_reserved":false,"is_disabled":false,"rental_uris":{"android":"levelo://app?vid=468d4b90-2058-48bb-a931-04827b3cb8f3","ios":"levelo://app?vid=468d4b90-2058-48bb-a931-04827b3cb8f3"},"vehicle_type_id":"4","last_reported":1723738192,"current_range_meters":29600,"station_id":"","pricing_plan_id":"cebpf4jnsgd1na2vs0mg"},{"bike_id":"209d82bf-a0a5-4fbc-ab01-bb3cf716a79a","system_id":"levelo_inurba_marseille","lat":43.328837,"lon":5.359087,"is_reserved":false,"is_disabled":false,"rental_uris":{"android":"levelo://app?vid=209d82bf-a0a5-4fbc-ab01-bb3cf716a79a","ios":"levelo://app?vid=209d82bf-a0a5-4fbc-ab01-bb3cf716a79a"},"vehicle_type_id":"4","last_reported":1723738192,"current_range_meters":19600,"station_id":"","pricing_plan_id":"cebpf4jnsgd1na2vs0mg"},{"bike_id":"d6aeb76f-3a77-461c-86a8-d9c5b406df14","system_id":"levelo_inurba_marseille","lat":43.299028,"lon":5.381509,"is_reserved":false,"is_disabled":false,"rental_uris":{"android":"levelo://app?vid=d6aeb76f-3a77-461c-86a8-d9c5b406df14","ios":"levelo://app?vid=d6aeb76f-3a77-461c-86a8-d9c5b406df14"},"vehicle_type_id":"4","last_reported":1723738192,"current_range_meters":0,"station_id":"ce4bgj12rcd13ifvqbc0","pricing_plan_id":"cebpf4jnsgd1na2vs0mg"},{"bike_id":"ab8e3da5-b786-415f-902e-e7d8839a3576","system_id":"levelo_inurba_marseille","lat":43.29909,"lon":5.3813,"is_reserved":false,"is_disabled":false,"rental_uris":{"android":"levelo://app?vid=ab8e3da5-b786-415f-902e-e7d8839a3576","ios":"levelo://app?vid=ab8e3da5-b786-415f-902e-e7d8839a3576"},"vehicle_type_id":"4","last_reported":1723738192,"current_range_meters":22000,"station_id":"ce4bgj12rcd13ifvqbc0","pricing_plan_id":"cebpf4jnsgd1na2vs0mg"},{"bike_id":"343a72e2-1c65-4618-bee7-845e6c8d59f9","system_id":"levelo_inurba_marseille","lat":43.299028,"lon":5.381509,"is_reserved":false,"is_disabled":false,"rental_uris":{"android":"levelo://app?vid=343a72e2-1c65-4618-bee7-845e6c8d59f9","ios":"levelo://app?vid=343a72e2-1c65-4618-bee7-845e6c8d59f9"},"vehicle_type_id":"4","last_reported":1723738192,"current_range_meters":31200,"station_id":"ce4bgj12rcd13ifvqbc0","pricing_plan_id":"cebpf4jnsgd1na2vs0mg"},{"bike_id":"dd60d82e-39c0-45ca-8067-d0df336987b0","system_id":"levelo_inurba_marseille","lat":43.299028,"lon":5.381509,"is_reserved":false,"is_disabled":false,"rental_uris":{"android":"levelo://app?vid=dd60d82e-39c0-45ca-8067-d0df336987b0","ios":"levelo://app?vid=dd60d82e-39c0-45ca-8067-d0df336987b0"},"vehicle_type_id":"4","last_reported":1723738192,"current_range_meters":24400,"station_id":"ce4bgj12rcd13ifvqbc0","pricing_plan_id":"cebpf4jnsgd1na2vs0mg"},{"bike_id":"4861d65a-6b84-4f10-a1ae-a4e2c24323fb","system_id":"levelo_inurba_marseille","lat":43.323354,"lon":5.385682,"is_reserved":false,"is_disabled":false,"rental_uris":{"android":"levelo://app?vid=4861d65a-6b84-4f10-a1ae-a4e2c24323fb","ios":"levelo://app?vid=4861d65a-6b84-4f10-a1ae-a4e2c24323fb"},"vehicle_type_id":"4","last_reported":1723738192,"current_range_meters":24400,"station_id":"","pricing_plan_id":"cebpf4jnsgd1na2vs0mg"},{"bike_id":"667736dd-a201-420e-b06b-bda4ac9238b2","system_id":"levelo_inurba_marseille","lat":43.296935,"lon":5.376544,"is_reserved":false,"is_disabled":false,"rental_uris":{"android":"levelo://app?vid=667736dd-a201-420e-b06b-bda4ac9238b2","ios":"levelo://app?vid=667736dd-a201-420e-b06b-bda4ac9238b2"},"vehicle_type_id":"4","last_reported":1723738192,"current_range_meters":1600,"station_id":"ce4bgkh2rcd13ifvqbl0","pricing_plan_id":"cebpf4jnsgd1na2vs0mg"},{"bike_id":"995de3ef-57dd-4769-a71e-6121882c5ae5","system_id":"levelo_inurba_marseille","lat":43.309589,"lon":5.390258,"is_reserved":false,"is_disabled":false,"rental_uris":{"android":"levelo://app?vid=995de3ef-57dd-4769-a71e-6121882c5ae5","ios":"levelo://app?vid=995de3ef-57dd-4769-a71e-6121882c5ae5"},"vehicle_type_id":"4","last_reported":1723738192,"current_range_meters":18800,"station_id":"ce4bgup2rcd13ifvqco0","pricing_plan_id":"cebpf4jnsgd1na2vs0mg"},{"bike_id":"99ce95a0-1d88-4325-b534-55cbb5b8ffdc","system_id":"levelo_inurba_marseille","lat":43.30967,"lon":5.39042,"is_reserved":false,"is_disabled":false,"rental_uris":{"android":"levelo://app?vid=99ce95a0-1d88-4325-b534-55cbb5b8ffdc","ios":"levelo://app?vid=99ce95a0-1d88-4325-b534-55cbb5b8ffdc"},"vehicle_type_id":"4","last_reported":1723738192,"current_range_meters":4800,"station_id":"ce4bgup2rcd13ifvqco0","pricing_plan_id":"cebpf4jnsgd1na2vs0mg"},{"bike_id":"573d282f-f4e1-4260-a543-f3707a187d70","system_id":"levelo_inurba_marseille","lat":43.304274,"lon":5.388873,"is_reserved":false,"is_disabled":false,"rental_uris":{"android":"levelo://app?vid=573d282f-f4e1-4260-a543-f3707a187d70","ios":"levelo://app?vid=573d282f-f4e1-4260-a543-f3707a187d70"},"vehicle_type_id":"4","last_reported":1723738192,"current_range_meters":28400,"station_id":"ce4bgk12rcd13ifvqbi0","pricing_plan_id":"cebpf4jnsgd1na2vs0mg"},{"bike_id":"15556347-13e2-415a-8b5a-2bf495d0f058","system_id":"levelo_inurba_marseille","lat":43.298037,"lon":5.381066,"is_reserved":false,"is_disabled":false,"rental_uris":{"android":"levelo://app?vid=15556347-13e2-415a-8b5a-2bf495d0f058","ios":"levelo://app?vid=15556347-13e2-415a-8b5a-2bf495d0f058"},"vehicle_type_id":"4","last_reported":1723738192,"current_range_meters":20400,"station_id":"ce4bgip2rcd13ifvqbb0","pricing_plan_id":"cebpf4jnsgd1na2vs0mg"},{"bike_id":"0a42d06b-8d86-4a39-9c26-a52d2b9fdcb7","system_id":"levelo_inurba_marseille","lat":43.29786,"lon":5.38084,"is_reserved":false,"is_disabled":false,"rental_uris":{"android":"levelo://app?vid=0a42d06b-8d86-4a39-9c26-a52d2b9fdcb7","ios":"levelo://app?vid=0a42d06b-8d86-4a39-9c26-a52d2b9fdcb7"},"vehicle_type_id":"4","last_reported":1723738192,"current_range_meters":31200,"station_id":"ce4bgip2rcd13ifvqbb0","pricing_plan_id":"cebpf4jnsgd1na2vs0mg"},{"bike_id":"9bf1cee5-5eef-43ff-9bab-73f835d6031b","system_id":"levelo_inurba_marseille","lat":43.296263,"lon":5.377094,"is_reserved":false,"is_disabled":false,"rental_uris":{"android":"levelo://app?vid=9bf1cee5-5eef-43ff-9bab-73f835d6031b","ios":"levelo://app?vid=9bf1cee5-5eef-43ff-9bab-73f835d6031b"},"vehicle_type_id":"4","last_reported":1723738192,"current_range_meters":0,"station_id":"ce4bgi92rcd13ifvqb90","pricing_plan_id":"cebpf4jnsgd1na2vs0mg"},{"bike_id":"ba01a37f-86fb-4ad0-8b8a-750d04176f9a","system_id":"levelo_inurba_marseille","lat":43.304278,"lon":5.388868,"is_reserved":false,"is_disabled":false,"rental_uris":{"android":"levelo://app?vid=ba01a37f-86fb-4ad0-8b8a-750d04176f9a","ios":"levelo://app?vid=ba01a37f-86fb-4ad0-8b8a-750d04176f9a"},"vehicle_type_id":"4","last_reported":1723738192,"current_range_meters":13600,"station_id":"ce4bgk12rcd13ifvqbi0","pricing_plan_id":"cebpf4jnsgd1na2vs0mg"},{"bike_id":"7d6f4377-b32e-428f-b8f2-c0b7596fcce2","system_id":"levelo_inurba_marseille","lat":43.29784,"lon":5.38094,"is_reserved":false,"is_disabled":false,"rental_uris":{"android":"levelo://app?vid=7d6f4377-b32e-428f-b8f2-c0b7596fcce2","ios":"levelo://app?vid=7d6f4377-b32e-428f-b8f2-c0b7596fcce2"},"vehicle_type_id":"4","last_reported":1723738192,"current_range_meters":31200,"station_id":"ce4bgip2rcd13ifvqbb0","pricing_plan_id":"cebpf4jnsgd1na2vs0mg"},{"bike_id":"c7f0eeac-1716-46dd-af09-8592bd1dc3eb","system_id":"levelo_inurba_marseille","lat":43.299243,"lon":5.374807,"is_reserved":false,"is_disabled":false,"rental_uris":{"android":"levelo://app?vid=c7f0eeac-1716-46dd-af09-8592bd1dc3eb","ios":"levelo://app?vid=c7f0eeac-1716-46dd-af09-8592bd1dc3eb"},"vehicle_type_id":"4","last_reported":1723738192,"current_range_meters":8400,"station_id":"ce4bgjh2rcd13ifvqbg0","pricing_plan_id":"cebpf4jnsgd1na2vs0mg"},{"bike_id":"ed966dda-5a34-48d5-910e-2d7f57397cd2","system_id":"levelo_inurba_marseille","lat":43.297605,"lon":5.380721,"is_reserved":false,"is_disabled":false,"rental_uris":{"android":"levelo://app?vid=ed966dda-5a34-48d5-910e-2d7f57397cd2","ios":"levelo://app?vid=ed966dda-5a34-48d5-910e-2d7f57397cd2"},"vehicle_type_id":"4","last_reported":1723738192,"current_range_meters":4800,"station_id":"ce4bgpp2rcd13ifvqc3g","pricing_plan_id":"cebpf4jnsgd1na2vs0mg"},{"bike_id":"1f17d064-0f0b-4e48-b0bf-376ee3d0325d","system_id":"levelo_inurba_marseille","lat":43.296277,"lon":5.377108,"is_reserved":false,"is_disabled":false,"rental_uris":{"android":"levelo://app?vid=1f17d064-0f0b-4e48-b0bf-376ee3d0325d","ios":"levelo://app?vid=1f17d064-0f0b-4e48-b0bf-376ee3d0325d"},"vehicle_type_id":"4","last_reported":1723738192,"current_range_meters":16800,"station_id":"ce4bgi92rcd13ifvqb90","pricing_plan_id":"cebpf4jnsgd1na2vs0mg"},{"bike_id":"dc2a7f61-aa5b-4861-ac98-1ab11559b614","system_id":"levelo_inurba_marseille","lat":43.296378,"lon":5.377803,"is_reserved":false,"is_disabled":false,"rental_uris":{"android":"levelo://app?vid=dc2a7f61-aa5b-4861-ac98-1ab11559b614","ios":"levelo://app?vid=dc2a7f61-aa5b-4861-ac98-1ab11559b614"},"vehicle_type_id":"4","last_reported":1723738192,"current_range_meters":0,"station_id":"","pricing_plan_id":"cebpf4jnsgd1na2vs0mg"},{"bike_id":"6589adfa-e0cd-4bd3-9b4a-2689dd401c72","system_id":"levelo_inurba_marseille","lat":43.296263,"lon":5.377094,"is_reserved":false,"is_disabled":false,"rental_uris":{"android":"levelo://app?vid=6589adfa-e0cd-4bd3-9b4a-2689dd401c72","ios":"levelo://app?vid=6589adfa-e0cd-4bd3-9b4a-2689dd401c72"},"vehicle_type_id":"4","last_reported":1723738192,"current_range_meters":15600,"station_id":"ce4bgi92rcd13ifvqb90","pricing_plan_id":"cebpf4jnsgd1na2vs0mg"},{"bike_id":"58ceb833-7e09-4c6b-994d-fb6317e901fe","system_id":"levelo_inurba_marseille","lat":43.296277,"lon":5.377108,"is_reserved":false,"is_disabled":false,"rental_uris":{"android":"levelo://app?vid=58ceb833-7e09-4c6b-994d-fb6317e901fe","ios":"levelo://app?vid=58ceb833-7e09-4c6b-994d-fb6317e901fe"},"vehicle_type_id":"4","last_reported":1723738192,"current_range_meters":17600,"station_id":"ce4bgi92rcd13ifvqb90","pricing_plan_id":"cebpf4jnsgd1na2vs0mg"},{"bike_id":"8875135f-ab58-4145-8858-6374db1d4e76","system_id":"levelo_inurba_marseille","lat":43.296263,"lon":5.377094,"is_reserved":false,"is_disabled":false,"rental_uris":{"android":"levelo://app?vid=8875135f-ab58-4145-8858-6374db1d4e76","ios":"levelo://app?vid=8875135f-ab58-4145-8858-6374db1d4e76"},"vehicle_type_id":"4","last_reported":1723738192,"current_range_meters":18000,"station_id":"ce4bgi92rcd13ifvqb90","pricing_plan_id":"cebpf4jnsgd1na2vs0mg"},{"bike_id":"016e53c5-c17f-49d5-8dc8-853ac9558269","system_id":"levelo_inurba_marseille","lat":43.295279,"lon":5.375048,"is_reserved":false,"is_disabled":false,"rental_uris":{"android":"levelo://app?vid=016e53c5-c17f-49d5-8dc8-853ac9558269","ios":"levelo://app?vid=016e53c5-c17f-49d5-8dc8-853ac9558269"},"vehicle_type_id":"4","last_reported":1723738192,"current_range_meters":1600,"station_id":"ce4bgkp2rcd13ifvqbmg","pricing_plan_id":"cebpf4jnsgd1na2vs0mg"},{"bike_id":"05f06903-4fc2-4a49-9244-cfcfc6952516","system_id":"levelo_inurba_marseille","lat":43.296921,"lon":5.376579,"is_reserved":false,"is_disabled":false,"rental_uris":{"android":"levelo://app?vid=05f06903-4fc2-4a49-9244-cfcfc6952516","ios":"levelo://app?vid=05f06903-4fc2-4a49-9244-cfcfc6952516"},"vehicle_type_id":"4","last_reported":1723738192,"current_range_meters":7200,"station_id":"ce4bgkh2rcd13ifvqbl0","pricing_plan_id":"cebpf4jnsgd1na2vs0mg"},{"bike_id":"e89e0fc9-06ab-42fa-b8f5-6e9a01b83475","system_id":"levelo_inurba_marseille","lat":43.299717,"lon":5.384845,"is_reserved":false,"is_disabled":false,"rental_uris":{"android":"levelo://app?vid=e89e0fc9-06ab-42fa-b8f5-6e9a01b83475","ios":"levelo://app?vid=e89e0fc9-06ab-42fa-b8f5-6e9a01b83475"},"vehicle_type_id":"4","last_reported":1723738192,"current_range_meters":4400,"station_id":"ce4bgj92rcd13ifvqbd0","pricing_plan_id":"cebpf4jnsgd1na2vs0mg"},{"bike_id":"2d583bf6-f12c-43d1-99e0-e933380ee72c","system_id":"levelo_inurba_marseille","lat":43.299707,"lon":5.384859,"is_reserved":false,"is_disabled":false,"rental_uris":{"android":"levelo://app?vid=2d583bf6-f12c-43d1-99e0-e933380ee72c","ios":"levelo://app?vid=2d583bf6-f12c-43d1-99e0-e933380ee72c"},"vehicle_type_id":"4","last_reported":1723738192,"current_range_meters":4400,"station_id":"ce4bgj92rcd13ifvqbd0","pricing_plan_id":"cebpf4jnsgd1na2vs0mg"},{"bike_id":"0ff537b0-333f-45ed-bf9f-65892021c7b2","system_id":"levelo_inurba_marseille","lat":43.299707,"lon":5.384859,"is_reserved":false,"is_disabled":false,"rental_uris":{"android":"levelo://app?vid=0ff537b0-333f-45ed-bf9f-65892021c7b2","ios":"levelo://app?vid=0ff537b0-333f-45ed-bf9f-65892021c7b2"},"vehicle_type_id":"4","last_reported":1723738192,"current_range_meters":16000,"station_id":"ce4bgj92rcd13ifvqbd0","pricing_plan_id":"cebpf4jnsgd1na2vs0mg"},{"bike_id":"43cbd206-f888-4af4-8d60-316bb76f52a5","system_id":"levelo_inurba_marseille","lat":43.299717,"lon":5.384845,"is_reserved":false,"is_disabled":false,"rental_uris":{"android":"levelo://app?vid=43cbd206-f888-4af4-8d60-316bb76f52a5","ios":"levelo://app?vid=43cbd206-f888-4af4-8d60-316bb76f52a5"},"vehicle_type_id":"4","last_reported":1723738192,"current_range_meters":18000,"station_id":"ce4bgj92rcd13ifvqbd0","pricing_plan_id":"cebpf4jnsgd1na2vs0mg"},{"bike_id":"f440876f-6c77-4905-875f-3302c6cbe1c5","system_id":"levelo_inurba_marseille","lat":43.299717,"lon":5.384845,"is_reserved":false,"is_disabled":false,"rental_uris":{"android":"levelo://app?vid=f440876f-6c77-4905-875f-3302c6cbe1c5","ios":"levelo://app?vid=f440876f-6c77-4905-875f-3302c6cbe1c5"},"vehicle_type_id":"4","last_reported":1723738192,"current_range_meters":28400,"station_id":"ce4bgj92rcd13ifvqbd0","pricing_plan_id":"cebpf4jnsgd1na2vs0mg"},{"bike_id":"126a88f0-1970-4574-ba13-d74476ce3cbc","system_id":"levelo_inurba_marseille","lat":43.299717,"lon":5.384845,"is_reserved":false,"is_disabled":false,"rental_uris":{"android":"levelo://app?vid=126a88f0-1970-4574-ba13-d74476ce3cbc","ios":"levelo://app?vid=126a88f0-1970-4574-ba13-d74476ce3cbc"},"vehicle_type_id":"4","last_reported":1723738192,"current_range_meters":13200,"station_id":"ce4bgj92rcd13ifvqbd0","pricing_plan_id":"cebpf4jnsgd1na2vs0mg"},{"bike_id":"b719ee95-5f46-4ae8-85d3-bcc3842590e3","system_id":"levelo_inurba_marseille","lat":43.295279,"lon":5.375048,"is_reserved":false,"is_disabled":false,"rental_uris":{"android":"levelo://app?vid=b719ee95-5f46-4ae8-85d3-bcc3842590e3","ios":"levelo://app?vid=b719ee95-5f46-4ae8-85d3-bcc3842590e3"},"vehicle_type_id":"4","last_reported":1723738192,"current_range_meters":2800,"station_id":"ce4bgkp2rcd13ifvqbmg","pricing_plan_id":"cebpf4jnsgd1na2vs0mg"},{"bike_id":"041eedcc-61e8-4a94-a965-8697a73c81a4","system_id":"levelo_inurba_marseille","lat":43.299724,"lon":5.384848,"is_reserved":false,"is_disabled":false,"rental_uris":{"android":"levelo://app?vid=041eedcc-61e8-4a94-a965-8697a73c81a4","ios":"levelo://app?vid=041eedcc-61e8-4a94-a965-8697a73c81a4"},"vehicle_type_id":"4","last_reported":1723738192,"current_range_meters":13200,"station_id":"ce4bgj92rcd13ifvqbd0","pricing_plan_id":"cebpf4jnsgd1na2vs0mg"},{"bike_id":"3ae9d52d-fbea-4d72-977e-72b8bdc2e76d","system_id":"levelo_inurba_marseille","lat":43.299717,"lon":5.384845,"is_reserved":false,"is_disabled":false,"rental_uris":{"android":"levelo://app?vid=3ae9d52d-fbea-4d72-977e-72b8bdc2e76d","ios":"levelo://app?vid=3ae9d52d-fbea-4d72-977e-72b8bdc2e76d"},"vehicle_type_id":"4","last_reported":1723738192,"current_range_meters":18400,"station_id":"ce4bgj92rcd13ifvqbd0","pricing_plan_id":"cebpf4jnsgd1na2vs0mg"},{"bike_id":"01528b0c-6caf-4c57-8f7a-11d273f31e95","system_id":"levelo_inurba_marseille","lat":43.299717,"lon":5.384845,"is_reserved":false,"is_disabled":false,"rental_uris":{"android":"levelo://app?vid=01528b0c-6caf-4c57-8f7a-11d273f31e95","ios":"levelo://app?vid=01528b0c-6caf-4c57-8f7a-11d273f31e95"},"vehicle_type_id":"4","last_reported":1723738192,"current_range_meters":0,"station_id":"ce4bgj92rcd13ifvqbd0","pricing_plan_id":"cebpf4jnsgd1na2vs0mg"},{"bike_id":"7b1720e6-cf15-4a37-a481-3ff7ddf6dba0","system_id":"levelo_inurba_marseille","lat":43.29963,"lon":5.38501,"is_reserved":false,"is_disabled":false,"rental_uris":{"android":"levelo://app?vid=7b1720e6-cf15-4a37-a481-3ff7ddf6dba0","ios":"levelo://app?vid=7b1720e6-cf15-4a37-a481-3ff7ddf6dba0"},"vehicle_type_id":"4","last_reported":1723738192,"current_range_meters":19600,"station_id":"ce4bgj92rcd13ifvqbd0","pricing_plan_id":"cebpf4jnsgd1na2vs0mg"},{"bike_id":"f13aff0c-7eeb-4c09-9267-bf72315253cc","system_id":"levelo_inurba_marseille","lat":43.299717,"lon":5.384845,"is_reserved":false,"is_disabled":false,"rental_uris":{"android":"levelo://app?vid=f13aff0c-7eeb-4c09-9267-bf72315253cc","ios":"levelo://app?vid=f13aff0c-7eeb-4c09-9267-bf72315253cc"},"vehicle_type_id":"4","last_reported":1723738192,"current_range_meters":9200,"station_id":"ce4bgj92rcd13ifvqbd0","pricing_plan_id":"cebpf4jnsgd1na2vs0mg"},{"bike_id":"9c781eb3-142e-4642-b06a-8dde1c26ac3d","system_id":"levelo_inurba_marseille","lat":43.32371,"lon":5.38878,"is_reserved":false,"is_disabled":false,"rental_uris":{"android":"levelo://app?vid=9c781eb3-142e-4642-b06a-8dde1c26ac3d","ios":"levelo://app?vid=9c781eb3-142e-4642-b06a-8dde1c26ac3d"},"vehicle_type_id":"4","last_reported":1723738192,"current_range_meters":6000,"station_id":"ce4bhqp2rcd13ifvqhog","pricing_plan_id":"cebpf4jnsgd1na2vs0mg"},{"bike_id":"0d595970-cc1d-441f-85df-eab93e02d00d","system_id":"levelo_inurba_marseille","lat":43.301429,"lon":5.37413,"is_reserved":false,"is_disabled":false,"rental_uris":{"android":"levelo://app?vid=0d595970-cc1d-441f-85df-eab93e02d00d","ios":"levelo://app?vid=0d595970-cc1d-441f-85df-eab93e02d00d"},"vehicle_type_id":"4","last_reported":1723738192,"current_range_meters":23200,"station_id":"ce4bgs92rcd13ifvqcc0","pricing_plan_id":"cebpf4jnsgd1na2vs0mg"},{"bike_id":"f87e0f22-210f-4ce0-9e5c-ca2d935647ee","system_id":"levelo_inurba_marseille","lat":43.29602,"lon":5.381084,"is_reserved":false,"is_disabled":false,"rental_uris":{"android":"levelo://app?vid=f87e0f22-210f-4ce0-9e5c-ca2d935647ee","ios":"levelo://app?vid=f87e0f22-210f-4ce0-9e5c-ca2d935647ee"},"vehicle_type_id":"4","last_reported":1723738192,"current_range_meters":15600,"station_id":"ce4bgl12rcd13ifvqbo0","pricing_plan_id":"cebpf4jnsgd1na2vs0mg"},{"bike_id":"7dd6d517-5b28-4b97-a6e9-ea3ae089ad8d","system_id":"levelo_inurba_marseille","lat":43.29602,"lon":5.381084,"is_reserved":false,"is_disabled":false,"rental_uris":{"android":"levelo://app?vid=7dd6d517-5b28-4b97-a6e9-ea3ae089ad8d","ios":"levelo://app?vid=7dd6d517-5b28-4b97-a6e9-ea3ae089ad8d"},"vehicle_type_id":"4","last_reported":1723738192,"current_range_meters":13600,"station_id":"ce4bgl12rcd13ifvqbo0","pricing_plan_id":"cebpf4jnsgd1na2vs0mg"},{"bike_id":"63655e6e-cf00-47cb-b407-18cd3301c76b","system_id":"levelo_inurba_marseille","lat":43.29602,"lon":5.381084,"is_reserved":false,"is_disabled":false,"rental_uris":{"android":"levelo://app?vid=63655e6e-cf00-47cb-b407-18cd3301c76b","ios":"levelo://app?vid=63655e6e-cf00-47cb-b407-18cd3301c76b"},"vehicle_type_id":"4","last_reported":1723738192,"current_range_meters":9200,"station_id":"ce4bgl12rcd13ifvqbo0","pricing_plan_id":"cebpf4jnsgd1na2vs0mg"},{"bike_id":"ecc7aab3-ce7b-4aa7-840e-38b6f2b15985","system_id":"levelo_inurba_marseille","lat":43.29602,"lon":5.381084,"is_reserved":false,"is_disabled":false,"rental_uris":{"android":"levelo://app?vid=ecc7aab3-ce7b-4aa7-840e-38b6f2b15985","ios":"levelo://app?vid=ecc7aab3-ce7b-4aa7-840e-38b6f2b15985"},"vehicle_type_id":"4","last_reported":1723738192,"current_range_meters":12800,"station_id":"ce4bgl12rcd13ifvqbo0","pricing_plan_id":"cebpf4jnsgd1na2vs0mg"},{"bike_id":"c9df5fd2-fd36-4431-9dc4-cd0b3e5e6f51","system_id":"levelo_inurba_marseille","lat":43.324381,"lon":5.388631,"is_reserved":false,"is_disabled":false,"rental_uris":{"android":"levelo://app?vid=c9df5fd2-fd36-4431-9dc4-cd0b3e5e6f51","ios":"levelo://app?vid=c9df5fd2-fd36-4431-9dc4-cd0b3e5e6f51"},"vehicle_type_id":"4","last_reported":1723738192,"current_range_meters":0,"station_id":"","pricing_plan_id":"cebpf4jnsgd1na2vs0mg"},{"bike_id":"91194db9-be2b-414f-b355-ba8ed74f883a","system_id":"levelo_inurba_marseille","lat":43.293298,"lon":5.370964,"is_reserved":false,"is_disabled":false,"rental_uris":{"android":"levelo://app?vid=91194db9-be2b-414f-b355-ba8ed74f883a","ios":"levelo://app?vid=91194db9-be2b-414f-b355-ba8ed74f883a"},"vehicle_type_id":"4","last_reported":1723738192,"current_range_meters":6800,"station_id":"","pricing_plan_id":"cebpf4jnsgd1na2vs0mg"},{"bike_id":"f3344e4a-7828-473d-a8e0-b791c04bcba3","system_id":"levelo_inurba_marseille","lat":43.293259,"lon":5.371586,"is_reserved":false,"is_disabled":false,"rental_uris":{"android":"levelo://app?vid=f3344e4a-7828-473d-a8e0-b791c04bcba3","ios":"levelo://app?vid=f3344e4a-7828-473d-a8e0-b791c04bcba3"},"vehicle_type_id":"4","last_reported":1723738192,"current_range_meters":14800,"station_id":"ce4bgh92rcd13ifvqb40","pricing_plan_id":"cebpf4jnsgd1na2vs0mg"},{"bike_id":"35636d50-0765-48cd-a977-06a3cf5b435d","system_id":"levelo_inurba_marseille","lat":43.29602,"lon":5.381084,"is_reserved":false,"is_disabled":false,"rental_uris":{"android":"levelo://app?vid=35636d50-0765-48cd-a977-06a3cf5b435d","ios":"levelo://app?vid=35636d50-0765-48cd-a977-06a3cf5b435d"},"vehicle_type_id":"4","last_reported":1723738192,"current_range_meters":2800,"station_id":"ce4bgl12rcd13ifvqbo0","pricing_plan_id":"cebpf4jnsgd1na2vs0mg"},{"bike_id":"b9e0ad64-2800-47a3-b6f0-7fecc2f8e1c9","system_id":"levelo_inurba_marseille","lat":43.292749,"lon":5.368398,"is_reserved":false,"is_disabled":false,"rental_uris":{"android":"levelo://app?vid=b9e0ad64-2800-47a3-b6f0-7fecc2f8e1c9","ios":"levelo://app?vid=b9e0ad64-2800-47a3-b6f0-7fecc2f8e1c9"},"vehicle_type_id":"4","last_reported":1723738192,"current_range_meters":27600,"station_id":"ce4bhbp2rcd13ifvqesg","pricing_plan_id":"cebpf4jnsgd1na2vs0mg"},{"bike_id":"bf39a63a-4b3b-4f6f-97e1-ba7248e065bf","system_id":"levelo_inurba_marseille","lat":43.29309,"lon":5.37176,"is_reserved":false,"is_disabled":false,"rental_uris":{"android":"levelo://app?vid=bf39a63a-4b3b-4f6f-97e1-ba7248e065bf","ios":"levelo://app?vid=bf39a63a-4b3b-4f6f-97e1-ba7248e065bf"},"vehicle_type_id":"4","last_reported":1723738192,"current_range_meters":19200,"station_id":"ce4bgh92rcd13ifvqb40","pricing_plan_id":"cebpf4jnsgd1na2vs0mg"},{"bike_id":"e31f87de-0680-4e61-af8d-3718c142fabb","system_id":"levelo_inurba_marseille","lat":43.293259,"lon":5.371586,"is_reserved":false,"is_disabled":false,"rental_uris":{"android":"levelo://app?vid=e31f87de-0680-4e61-af8d-3718c142fabb","ios":"levelo://app?vid=e31f87de-0680-4e61-af8d-3718c142fabb"},"vehicle_type_id":"4","last_reported":1723738192,"current_range_meters":9600,"station_id":"ce4bgh92rcd13ifvqb40","pricing_plan_id":"cebpf4jnsgd1na2vs0mg"},{"bike_id":"4140d889-aaf9-4b15-8a11-a581354b1510","system_id":"levelo_inurba_marseille","lat":43.293259,"lon":5.371586,"is_reserved":false,"is_disabled":false,"rental_uris":{"android":"levelo://app?vid=4140d889-aaf9-4b15-8a11-a581354b1510","ios":"levelo://app?vid=4140d889-aaf9-4b15-8a11-a581354b1510"},"vehicle_type_id":"4","last_reported":1723738192,"current_range_meters":400,"station_id":"ce4bgh92rcd13ifvqb40","pricing_plan_id":"cebpf4jnsgd1na2vs0mg"},{"bike_id":"7f7fdc81-4277-41e1-8251-acf72142fbc5","system_id":"levelo_inurba_marseille","lat":43.293,"lon":5.37164,"is_reserved":false,"is_disabled":false,"rental_uris":{"android":"levelo://app?vid=7f7fdc81-4277-41e1-8251-acf72142fbc5","ios":"levelo://app?vid=7f7fdc81-4277-41e1-8251-acf72142fbc5"},"vehicle_type_id":"4","last_reported":1723738192,"current_range_meters":13600,"station_id":"ce4bgh92rcd13ifvqb40","pricing_plan_id":"cebpf4jnsgd1na2vs0mg"},{"bike_id":"dc29bdc1-8052-4723-8ceb-97d7877ae710","system_id":"levelo_inurba_marseille","lat":43.29308,"lon":5.37456,"is_reserved":false,"is_disabled":false,"rental_uris":{"android":"levelo://app?vid=dc29bdc1-8052-4723-8ceb-97d7877ae710","ios":"levelo://app?vid=dc29bdc1-8052-4723-8ceb-97d7877ae710"},"vehicle_type_id":"4","last_reported":1723738192,"current_range_meters":6000,"station_id":"ce4bgi12rcd13ifvqb70","pricing_plan_id":"cebpf4jnsgd1na2vs0mg"},{"bike_id":"60712491-234f-4afb-9456-364332ae0de2","system_id":"levelo_inurba_marseille","lat":43.293009,"lon":5.374584,"is_reserved":false,"is_disabled":false,"rental_uris":{"android":"levelo://app?vid=60712491-234f-4afb-9456-364332ae0de2","ios":"levelo://app?vid=60712491-234f-4afb-9456-364332ae0de2"},"vehicle_type_id":"4","last_reported":1723738192,"current_range_meters":22800,"station_id":"ce4bgi12rcd13ifvqb70","pricing_plan_id":"cebpf4jnsgd1na2vs0mg"},{"bike_id":"6a4232be-3152-4fd3-8691-703ffdbe1f34","system_id":"levelo_inurba_marseille","lat":43.306,"lon":5.39358,"is_reserved":false,"is_disabled":false,"rental_uris":{"android":"levelo://app?vid=6a4232be-3152-4fd3-8691-703ffdbe1f34","ios":"levelo://app?vid=6a4232be-3152-4fd3-8691-703ffdbe1f34"},"vehicle_type_id":"4","last_reported":1723738192,"current_range_meters":29200,"station_id":"ce4bh0p2rcd13ifvqd80","pricing_plan_id":"cebpf4jnsgd1na2vs0mg"},{"bike_id":"529cb86a-d0ae-4135-b35d-d3f177912c84","system_id":"levelo_inurba_marseille","lat":43.303002,"lon":5.392142,"is_reserved":false,"is_disabled":false,"rental_uris":{"android":"levelo://app?vid=529cb86a-d0ae-4135-b35d-d3f177912c84","ios":"levelo://app?vid=529cb86a-d0ae-4135-b35d-d3f177912c84"},"vehicle_type_id":"4","last_reported":1723738192,"current_range_meters":24800,"station_id":"ce4bgkh2rcd13ifvqbk0","pricing_plan_id":"cebpf4jnsgd1na2vs0mg"},{"bike_id":"593f3963-0e30-453d-911b-31c90dd4c9cc","system_id":"levelo_inurba_marseille","lat":43.313291,"lon":5.396838,"is_reserved":false,"is_disabled":false,"rental_uris":{"android":"levelo://app?vid=593f3963-0e30-453d-911b-31c90dd4c9cc","ios":"levelo://app?vid=593f3963-0e30-453d-911b-31c90dd4c9cc"},"vehicle_type_id":"4","last_reported":1723738192,"current_range_meters":26400,"station_id":"ce4bgvp2rcd13ifvqcu0","pricing_plan_id":"cebpf4jnsgd1na2vs0mg"},{"bike_id":"3a48bb29-6a7c-475b-8525-c5afcffdc2b3","system_id":"levelo_inurba_marseille","lat":43.2936,"lon":5.37835,"is_reserved":false,"is_disabled":false,"rental_uris":{"android":"levelo://app?vid=3a48bb29-6a7c-475b-8525-c5afcffdc2b3","ios":"levelo://app?vid=3a48bb29-6a7c-475b-8525-c5afcffdc2b3"},"vehicle_type_id":"4","last_reported":1723738192,"current_range_meters":31200,"station_id":"ce4bgjh2rcd13ifvqbf0","pricing_plan_id":"cebpf4jnsgd1na2vs0mg"},{"bike_id":"9e3d6d1b-ba55-464e-b56f-b0b76ac705cd","system_id":"levelo_inurba_marseille","lat":43.29226,"lon":5.361407,"is_reserved":false,"is_disabled":false,"rental_uris":{"android":"levelo://app?vid=9e3d6d1b-ba55-464e-b56f-b0b76ac705cd","ios":"levelo://app?vid=9e3d6d1b-ba55-464e-b56f-b0b76ac705cd"},"vehicle_type_id":"4","last_reported":1723738192,"current_range_meters":27200,"station_id":"","pricing_plan_id":"cebpf4jnsgd1na2vs0mg"},{"bike_id":"bca8d2d8-31b9-4dc7-ab54-c755c205a203","system_id":"levelo_inurba_marseille","lat":43.291994,"lon":5.357886,"is_reserved":false,"is_disabled":false,"rental_uris":{"android":"levelo://app?vid=bca8d2d8-31b9-4dc7-ab54-c755c205a203","ios":"levelo://app?vid=bca8d2d8-31b9-4dc7-ab54-c755c205a203"},"vehicle_type_id":"4","last_reported":1723738192,"current_range_meters":23200,"station_id":"ce4bhb12rcd13ifvqel0","pricing_plan_id":"cebpf4jnsgd1na2vs0mg"},{"bike_id":"f40198c8-1171-43d1-917a-83d09cb03077","system_id":"levelo_inurba_marseille","lat":43.31368,"lon":5.39596,"is_reserved":false,"is_disabled":false,"rental_uris":{"android":"levelo://app?vid=f40198c8-1171-43d1-917a-83d09cb03077","ios":"levelo://app?vid=f40198c8-1171-43d1-917a-83d09cb03077"},"vehicle_type_id":"4","last_reported":1723738192,"current_range_meters":11600,"station_id":"","pricing_plan_id":"cebpf4jnsgd1na2vs0mg"},{"bike_id":"93c70ddf-7554-4c98-a215-6d3ba5df1489","system_id":"levelo_inurba_marseille","lat":43.298764,"lon":5.388973,"is_reserved":false,"is_disabled":false,"rental_uris":{"android":"levelo://app?vid=93c70ddf-7554-4c98-a215-6d3ba5df1489","ios":"levelo://app?vid=93c70ddf-7554-4c98-a215-6d3ba5df1489"},"vehicle_type_id":"4","last_reported":1723738192,"current_range_meters":12000,"station_id":"ce4bh392rcd13ifvqdl0","pricing_plan_id":"cebpf4jnsgd1na2vs0mg"},{"bike_id":"15165b84-215b-4566-b5ca-4fdabe0248f6","system_id":"levelo_inurba_marseille","lat":43.298764,"lon":5.388973,"is_reserved":false,"is_disabled":false,"rental_uris":{"android":"levelo://app?vid=15165b84-215b-4566-b5ca-4fdabe0248f6","ios":"levelo://app?vid=15165b84-215b-4566-b5ca-4fdabe0248f6"},"vehicle_type_id":"4","last_reported":1723738192,"current_range_meters":20400,"station_id":"ce4bh392rcd13ifvqdl0","pricing_plan_id":"cebpf4jnsgd1na2vs0mg"},{"bike_id":"bd06e962-569d-46b2-a868-885ce1cb0f93","system_id":"levelo_inurba_marseille","lat":43.293259,"lon":5.371586,"is_reserved":false,"is_disabled":false,"rental_uris":{"android":"levelo://app?vid=bd06e962-569d-46b2-a868-885ce1cb0f93","ios":"levelo://app?vid=bd06e962-569d-46b2-a868-885ce1cb0f93"},"vehicle_type_id":"4","last_reported":1723738192,"current_range_meters":28800,"station_id":"ce4bgh92rcd13ifvqb40","pricing_plan_id":"cebpf4jnsgd1na2vs0mg"},{"bike_id":"89d7126d-b48c-41f9-85eb-cfbc3c03ceed","system_id":"levelo_inurba_marseille","lat":43.291671,"lon":5.371575,"is_reserved":false,"is_disabled":false,"rental_uris":{"android":"levelo://app?vid=89d7126d-b48c-41f9-85eb-cfbc3c03ceed","ios":"levelo://app?vid=89d7126d-b48c-41f9-85eb-cfbc3c03ceed"},"vehicle_type_id":"4","last_reported":1723738192,"current_range_meters":15600,"station_id":"ce4bha92rcd13ifvqeh0","pricing_plan_id":"cebpf4jnsgd1na2vs0mg"},{"bike_id":"15dea8aa-76fe-4993-be29-942f99356f73","system_id":"levelo_inurba_marseille","lat":43.298764,"lon":5.388973,"is_reserved":false,"is_disabled":false,"rental_uris":{"android":"levelo://app?vid=15dea8aa-76fe-4993-be29-942f99356f73","ios":"levelo://app?vid=15dea8aa-76fe-4993-be29-942f99356f73"},"vehicle_type_id":"4","last_reported":1723738192,"current_range_meters":11600,"station_id":"ce4bh392rcd13ifvqdl0","pricing_plan_id":"cebpf4jnsgd1na2vs0mg"},{"bike_id":"29f7270c-9007-4ac3-8a2e-6f3dbea094cc","system_id":"levelo_inurba_marseille","lat":43.313291,"lon":5.396838,"is_reserved":false,"is_disabled":false,"rental_uris":{"android":"levelo://app?vid=29f7270c-9007-4ac3-8a2e-6f3dbea094cc","ios":"levelo://app?vid=29f7270c-9007-4ac3-8a2e-6f3dbea094cc"},"vehicle_type_id":"4","last_reported":1723738192,"current_range_meters":2000,"station_id":"ce4bgvp2rcd13ifvqcu0","pricing_plan_id":"cebpf4jnsgd1na2vs0mg"},{"bike_id":"117bbdda-35e3-49c4-8bcc-486e0c3b015c","system_id":"levelo_inurba_marseille","lat":43.29195,"lon":5.35801,"is_reserved":false,"is_disabled":false,"rental_uris":{"android":"levelo://app?vid=117bbdda-35e3-49c4-8bcc-486e0c3b015c","ios":"levelo://app?vid=117bbdda-35e3-49c4-8bcc-486e0c3b015c"},"vehicle_type_id":"4","last_reported":1723738192,"current_range_meters":0,"station_id":"ce4bhb12rcd13ifvqel0","pricing_plan_id":"cebpf4jnsgd1na2vs0mg"},{"bike_id":"fc8c0308-aa00-4ba1-a799-3753f833ce85","system_id":"levelo_inurba_marseille","lat":43.31331,"lon":5.39691,"is_reserved":false,"is_disabled":false,"rental_uris":{"android":"levelo://app?vid=fc8c0308-aa00-4ba1-a799-3753f833ce85","ios":"levelo://app?vid=fc8c0308-aa00-4ba1-a799-3753f833ce85"},"vehicle_type_id":"4","last_reported":1723738192,"current_range_meters":15600,"station_id":"ce4bgvp2rcd13ifvqcu0","pricing_plan_id":"cebpf4jnsgd1na2vs0mg"},{"bike_id":"8a88589e-7e88-4315-9a89-25317c285804","system_id":"levelo_inurba_marseille","lat":43.313291,"lon":5.396838,"is_reserved":false,"is_disabled":false,"rental_uris":{"android":"levelo://app?vid=8a88589e-7e88-4315-9a89-25317c285804","ios":"levelo://app?vid=8a88589e-7e88-4315-9a89-25317c285804"},"vehicle_type_id":"4","last_reported":1723738192,"current_range_meters":24800,"station_id":"ce4bgvp2rcd13ifvqcu0","pricing_plan_id":"cebpf4jnsgd1na2vs0mg"},{"bike_id":"0f3cafd5-daa7-424f-9c96-8b1e1b77881d","system_id":"levelo_inurba_marseille","lat":43.309047,"lon":5.396551,"is_reserved":false,"is_disabled":false,"rental_uris":{"android":"levelo://app?vid=0f3cafd5-daa7-424f-9c96-8b1e1b77881d","ios":"levelo://app?vid=0f3cafd5-daa7-424f-9c96-8b1e1b77881d"},"vehicle_type_id":"4","last_reported":1723738192,"current_range_meters":13200,"station_id":"ce4bh012rcd13ifvqcv0","pricing_plan_id":"cebpf4jnsgd1na2vs0mg"},{"bike_id":"4f1ba659-f0c1-44a9-b968-1842dd85a385","system_id":"levelo_inurba_marseille","lat":43.292005,"lon":5.357875,"is_reserved":false,"is_disabled":false,"rental_uris":{"android":"levelo://app?vid=4f1ba659-f0c1-44a9-b968-1842dd85a385","ios":"levelo://app?vid=4f1ba659-f0c1-44a9-b968-1842dd85a385"},"vehicle_type_id":"4","last_reported":1723738192,"current_range_meters":22000,"station_id":"ce4bhb12rcd13ifvqel0","pricing_plan_id":"cebpf4jnsgd1na2vs0mg"},{"bike_id":"2400fda4-41d4-4cbb-a738-c9106f7fefb6","system_id":"levelo_inurba_marseille","lat":43.309038,"lon":5.396546,"is_reserved":false,"is_disabled":false,"rental_uris":{"android":"levelo://app?vid=2400fda4-41d4-4cbb-a738-c9106f7fefb6","ios":"levelo://app?vid=2400fda4-41d4-4cbb-a738-c9106f7fefb6"},"vehicle_type_id":"4","last_reported":1723738192,"current_range_meters":20400,"station_id":"ce4bh012rcd13ifvqcv0","pricing_plan_id":"cebpf4jnsgd1na2vs0mg"},{"bike_id":"6b6e5cd2-cbae-423d-9d26-63801185f1ec","system_id":"levelo_inurba_marseille","lat":43.29529,"lon":5.385581,"is_reserved":false,"is_disabled":false,"rental_uris":{"android":"levelo://app?vid=6b6e5cd2-cbae-423d-9d26-63801185f1ec","ios":"levelo://app?vid=6b6e5cd2-cbae-423d-9d26-63801185f1ec"},"vehicle_type_id":"4","last_reported":1723738192,"current_range_meters":19200,"station_id":"ce4bgih2rcd13ifvqba0","pricing_plan_id":"cebpf4jnsgd1na2vs0mg"},{"bike_id":"bc1e0d89-87d9-48e7-8d06-082013952034","system_id":"levelo_inurba_marseille","lat":43.29529,"lon":5.385581,"is_reserved":false,"is_disabled":false,"rental_uris":{"android":"levelo://app?vid=bc1e0d89-87d9-48e7-8d06-082013952034","ios":"levelo://app?vid=bc1e0d89-87d9-48e7-8d06-082013952034"},"vehicle_type_id":"4","last_reported":1723738192,"current_range_meters":27200,"station_id":"ce4bgih2rcd13ifvqba0","pricing_plan_id":"cebpf4jnsgd1na2vs0mg"},{"bike_id":"1aeb19f2-f4e1-460c-95d5-aff84ae6129e","system_id":"levelo_inurba_marseille","lat":43.290779,"lon":5.371482,"is_reserved":false,"is_disabled":false,"rental_uris":{"android":"levelo://app?vid=1aeb19f2-f4e1-460c-95d5-aff84ae6129e","ios":"levelo://app?vid=1aeb19f2-f4e1-460c-95d5-aff84ae6129e"},"vehicle_type_id":"4","last_reported":1723738192,"current_range_meters":20000,"station_id":"ce4bh5p2rcd13ifvqe4g","pricing_plan_id":"cebpf4jnsgd1na2vs0mg"},{"bike_id":"3a6f88bd-5095-4e3b-b2c3-90716af705f1","system_id":"levelo_inurba_marseille","lat":43.290779,"lon":5.371482,"is_reserved":false,"is_disabled":false,"rental_uris":{"android":"levelo://app?vid=3a6f88bd-5095-4e3b-b2c3-90716af705f1","ios":"levelo://app?vid=3a6f88bd-5095-4e3b-b2c3-90716af705f1"},"vehicle_type_id":"4","last_reported":1723738192,"current_range_meters":10400,"station_id":"ce4bh5p2rcd13ifvqe4g","pricing_plan_id":"cebpf4jnsgd1na2vs0mg"},{"bike_id":"db4d01e3-aa5a-42e1-9b41-e7ba0c063d86","system_id":"levelo_inurba_marseille","lat":43.290779,"lon":5.371482,"is_reserved":false,"is_disabled":false,"rental_uris":{"android":"levelo://app?vid=db4d01e3-aa5a-42e1-9b41-e7ba0c063d86","ios":"levelo://app?vid=db4d01e3-aa5a-42e1-9b41-e7ba0c063d86"},"vehicle_type_id":"4","last_reported":1723738192,"current_range_meters":16000,"station_id":"ce4bh5p2rcd13ifvqe4g","pricing_plan_id":"cebpf4jnsgd1na2vs0mg"},{"bike_id":"d0cf025c-f332-4925-b21d-06eaab12146a","system_id":"levelo_inurba_marseille","lat":43.290779,"lon":5.371482,"is_reserved":false,"is_disabled":false,"rental_uris":{"android":"levelo://app?vid=d0cf025c-f332-4925-b21d-06eaab12146a","ios":"levelo://app?vid=d0cf025c-f332-4925-b21d-06eaab12146a"},"vehicle_type_id":"4","last_reported":1723738192,"current_range_meters":28000,"station_id":"ce4bh5p2rcd13ifvqe4g","pricing_plan_id":"cebpf4jnsgd1na2vs0mg"},{"bike_id":"4e9395bb-1c7f-4f5f-9ff6-cc2459c73a03","system_id":"levelo_inurba_marseille","lat":43.290779,"lon":5.371482,"is_reserved":false,"is_disabled":false,"rental_uris":{"android":"levelo://app?vid=4e9395bb-1c7f-4f5f-9ff6-cc2459c73a03","ios":"levelo://app?vid=4e9395bb-1c7f-4f5f-9ff6-cc2459c73a03"},"vehicle_type_id":"4","last_reported":1723738192,"current_range_meters":21200,"station_id":"ce4bh5p2rcd13ifvqe4g","pricing_plan_id":"cebpf4jnsgd1na2vs0mg"},{"bike_id":"d101a28e-8d2a-4424-b119-887a0958a011","system_id":"levelo_inurba_marseille","lat":43.290779,"lon":5.371482,"is_reserved":false,"is_disabled":false,"rental_uris":{"android":"levelo://app?vid=d101a28e-8d2a-4424-b119-887a0958a011","ios":"levelo://app?vid=d101a28e-8d2a-4424-b119-887a0958a011"},"vehicle_type_id":"4","last_reported":1723738192,"current_range_meters":14400,"station_id":"ce4bh5p2rcd13ifvqe4g","pricing_plan_id":"cebpf4jnsgd1na2vs0mg"},{"bike_id":"c22955de-df45-4d41-b4ff-8268f006b297","system_id":"levelo_inurba_marseille","lat":43.290779,"lon":5.371482,"is_reserved":false,"is_disabled":false,"rental_uris":{"android":"levelo://app?vid=c22955de-df45-4d41-b4ff-8268f006b297","ios":"levelo://app?vid=c22955de-df45-4d41-b4ff-8268f006b297"},"vehicle_type_id":"4","last_reported":1723738192,"current_range_meters":0,"station_id":"ce4bh5p2rcd13ifvqe4g","pricing_plan_id":"cebpf4jnsgd1na2vs0mg"},{"bike_id":"cea14ee3-664b-440a-b104-a5f7e39e2f8d","system_id":"levelo_inurba_marseille","lat":43.290779,"lon":5.371482,"is_reserved":false,"is_disabled":false,"rental_uris":{"android":"levelo://app?vid=cea14ee3-664b-440a-b104-a5f7e39e2f8d","ios":"levelo://app?vid=cea14ee3-664b-440a-b104-a5f7e39e2f8d"},"vehicle_type_id":"4","last_reported":1723738192,"current_range_meters":29200,"station_id":"ce4bh5p2rcd13ifvqe4g","pricing_plan_id":"cebpf4jnsgd1na2vs0mg"},{"bike_id":"171e6adf-c545-4863-aacf-3f1d8fb3b773","system_id":"levelo_inurba_marseille","lat":43.290779,"lon":5.371482,"is_reserved":false,"is_disabled":false,"rental_uris":{"android":"levelo://app?vid=171e6adf-c545-4863-aacf-3f1d8fb3b773","ios":"levelo://app?vid=171e6adf-c545-4863-aacf-3f1d8fb3b773"},"vehicle_type_id":"4","last_reported":1723738192,"current_range_meters":14800,"station_id":"ce4bh5p2rcd13ifvqe4g","pricing_plan_id":"cebpf4jnsgd1na2vs0mg"},{"bike_id":"6bfacc3d-0f0a-44e4-8185-c2ad842a45ba","system_id":"levelo_inurba_marseille","lat":43.290779,"lon":5.371482,"is_reserved":false,"is_disabled":false,"rental_uris":{"android":"levelo://app?vid=6bfacc3d-0f0a-44e4-8185-c2ad842a45ba","ios":"levelo://app?vid=6bfacc3d-0f0a-44e4-8185-c2ad842a45ba"},"vehicle_type_id":"4","last_reported":1723738192,"current_range_meters":28800,"station_id":"ce4bh5p2rcd13ifvqe4g","pricing_plan_id":"cebpf4jnsgd1na2vs0mg"},{"bike_id":"e37d0cfa-5ab0-41f2-88ed-0959e801239e","system_id":"levelo_inurba_marseille","lat":43.290779,"lon":5.371482,"is_reserved":false,"is_disabled":false,"rental_uris":{"android":"levelo://app?vid=e37d0cfa-5ab0-41f2-88ed-0959e801239e","ios":"levelo://app?vid=e37d0cfa-5ab0-41f2-88ed-0959e801239e"},"vehicle_type_id":"4","last_reported":1723738192,"current_range_meters":15600,"station_id":"ce4bh5p2rcd13ifvqe4g","pricing_plan_id":"cebpf4jnsgd1na2vs0mg"},{"bike_id":"889bac66-f0c5-402e-82eb-9e44db63c095","system_id":"levelo_inurba_marseille","lat":43.302008,"lon":5.394694,"is_reserved":false,"is_disabled":false,"rental_uris":{"android":"levelo://app?vid=889bac66-f0c5-402e-82eb-9e44db63c095","ios":"levelo://app?vid=889bac66-f0c5-402e-82eb-9e44db63c095"},"vehicle_type_id":"4","last_reported":1723738192,"current_range_meters":29600,"station_id":"ce4bh0p2rcd13ifvqd70","pricing_plan_id":"cebpf4jnsgd1na2vs0mg"},{"bike_id":"2f15f065-1f08-4492-9bfd-e967a6bbc07e","system_id":"levelo_inurba_marseille","lat":43.302008,"lon":5.394694,"is_reserved":false,"is_disabled":false,"rental_uris":{"android":"levelo://app?vid=2f15f065-1f08-4492-9bfd-e967a6bbc07e","ios":"levelo://app?vid=2f15f065-1f08-4492-9bfd-e967a6bbc07e"},"vehicle_type_id":"4","last_reported":1723738192,"current_range_meters":3200,"station_id":"ce4bh0p2rcd13ifvqd70","pricing_plan_id":"cebpf4jnsgd1na2vs0mg"},{"bike_id":"e0baaa95-4611-43e7-ba3b-db89e3ce4336","system_id":"levelo_inurba_marseille","lat":43.290799,"lon":5.356465,"is_reserved":false,"is_disabled":false,"rental_uris":{"android":"levelo://app?vid=e0baaa95-4611-43e7-ba3b-db89e3ce4336","ios":"levelo://app?vid=e0baaa95-4611-43e7-ba3b-db89e3ce4336"},"vehicle_type_id":"4","last_reported":1723738192,"current_range_meters":21600,"station_id":"","pricing_plan_id":"cebpf4jnsgd1na2vs0mg"},{"bike_id":"c8adb98a-54ba-4196-a8c6-0d6b7fae78c6","system_id":"levelo_inurba_marseille","lat":43.2942,"lon":5.38615,"is_reserved":false,"is_disabled":false,"rental_uris":{"android":"levelo://app?vid=c8adb98a-54ba-4196-a8c6-0d6b7fae78c6","ios":"levelo://app?vid=c8adb98a-54ba-4196-a8c6-0d6b7fae78c6"},"vehicle_type_id":"4","last_reported":1723738192,"current_range_meters":4400,"station_id":"ce4bh2h2rcd13ifvqdh0","pricing_plan_id":"cebpf4jnsgd1na2vs0mg"},{"bike_id":"90078070-88b5-4422-b6d2-f15db2545184","system_id":"levelo_inurba_marseille","lat":43.29423,"lon":5.38625,"is_reserved":false,"is_disabled":false,"rental_uris":{"android":"levelo://app?vid=90078070-88b5-4422-b6d2-f15db2545184","ios":"levelo://app?vid=90078070-88b5-4422-b6d2-f15db2545184"},"vehicle_type_id":"4","last_reported":1723738192,"current_range_meters":0,"station_id":"ce4bh2h2rcd13ifvqdh0","pricing_plan_id":"cebpf4jnsgd1na2vs0mg"},{"bike_id":"f6a594a3-3d5d-4d0b-96bd-c8f155dfc0a3","system_id":"levelo_inurba_marseille","lat":43.294149,"lon":5.386169,"is_reserved":false,"is_disabled":false,"rental_uris":{"android":"levelo://app?vid=f6a594a3-3d5d-4d0b-96bd-c8f155dfc0a3","ios":"levelo://app?vid=f6a594a3-3d5d-4d0b-96bd-c8f155dfc0a3"},"vehicle_type_id":"4","last_reported":1723738192,"current_range_meters":7600,"station_id":"","pricing_plan_id":"cebpf4jnsgd1na2vs0mg"},{"bike_id":"b16ea594-8bd0-4814-949d-ffc1e2c4e3d4","system_id":"levelo_inurba_marseille","lat":43.289468,"lon":5.363719,"is_reserved":false,"is_disabled":false,"rental_uris":{"android":"levelo://app?vid=b16ea594-8bd0-4814-949d-ffc1e2c4e3d4","ios":"levelo://app?vid=b16ea594-8bd0-4814-949d-ffc1e2c4e3d4"},"vehicle_type_id":"4","last_reported":1723738192,"current_range_meters":18800,"station_id":"ce4bhc92rcd13ifvqetg","pricing_plan_id":"cebpf4jnsgd1na2vs0mg"},{"bike_id":"1ad9a5e3-e6f5-4810-8e92-75d66f9e3c65","system_id":"levelo_inurba_marseille","lat":43.294162,"lon":5.386292,"is_reserved":false,"is_disabled":false,"rental_uris":{"android":"levelo://app?vid=1ad9a5e3-e6f5-4810-8e92-75d66f9e3c65","ios":"levelo://app?vid=1ad9a5e3-e6f5-4810-8e92-75d66f9e3c65"},"vehicle_type_id":"4","last_reported":1723738192,"current_range_meters":0,"station_id":"ce4bh2h2rcd13ifvqdh0","pricing_plan_id":"cebpf4jnsgd1na2vs0mg"},{"bike_id":"41f633fc-c99e-436b-a21b-8d0847affcc2","system_id":"levelo_inurba_marseille","lat":43.294162,"lon":5.386292,"is_reserved":false,"is_disabled":false,"rental_uris":{"android":"levelo://app?vid=41f633fc-c99e-436b-a21b-8d0847affcc2","ios":"levelo://app?vid=41f633fc-c99e-436b-a21b-8d0847affcc2"},"vehicle_type_id":"4","last_reported":1723738192,"current_range_meters":2000,"station_id":"ce4bh2h2rcd13ifvqdh0","pricing_plan_id":"cebpf4jnsgd1na2vs0mg"},{"bike_id":"ac3a740b-448a-4c39-b062-33c44d73fe22","system_id":"levelo_inurba_marseille","lat":43.289468,"lon":5.363719,"is_reserved":false,"is_disabled":false,"rental_uris":{"android":"levelo://app?vid=ac3a740b-448a-4c39-b062-33c44d73fe22","ios":"levelo://app?vid=ac3a740b-448a-4c39-b062-33c44d73fe22"},"vehicle_type_id":"4","last_reported":1723738192,"current_range_meters":0,"station_id":"ce4bhc92rcd13ifvqetg","pricing_plan_id":"cebpf4jnsgd1na2vs0mg"},{"bike_id":"469e93e3-47dc-475d-8aca-18a5c8e4f361","system_id":"levelo_inurba_marseille","lat":43.289468,"lon":5.363719,"is_reserved":false,"is_disabled":false,"rental_uris":{"android":"levelo://app?vid=469e93e3-47dc-475d-8aca-18a5c8e4f361","ios":"levelo://app?vid=469e93e3-47dc-475d-8aca-18a5c8e4f361"},"vehicle_type_id":"4","last_reported":1723738192,"current_range_meters":30400,"station_id":"ce4bhc92rcd13ifvqetg","pricing_plan_id":"cebpf4jnsgd1na2vs0mg"},{"bike_id":"394c98a3-2994-4de9-a003-b7fc081faef5","system_id":"levelo_inurba_marseille","lat":43.28933,"lon":5.3641,"is_reserved":false,"is_disabled":false,"rental_uris":{"android":"levelo://app?vid=394c98a3-2994-4de9-a003-b7fc081faef5","ios":"levelo://app?vid=394c98a3-2994-4de9-a003-b7fc081faef5"},"vehicle_type_id":"4","last_reported":1723738192,"current_range_meters":4400,"station_id":"ce4bhc92rcd13ifvqetg","pricing_plan_id":"cebpf4jnsgd1na2vs0mg"},{"bike_id":"e1c1a093-0fe7-4591-ae82-12bd9c54029f","system_id":"levelo_inurba_marseille","lat":43.289184,"lon":5.366408,"is_reserved":false,"is_disabled":false,"rental_uris":{"android":"levelo://app?vid=e1c1a093-0fe7-4591-ae82-12bd9c54029f","ios":"levelo://app?vid=e1c1a093-0fe7-4591-ae82-12bd9c54029f"},"vehicle_type_id":"4","last_reported":1723738192,"current_range_meters":26800,"station_id":"ce4bhap2rcd13ifvqek0","pricing_plan_id":"cebpf4jnsgd1na2vs0mg"},{"bike_id":"ec13afe1-0a3a-4ec0-b872-7eade74d0883","system_id":"levelo_inurba_marseille","lat":43.304296,"lon":5.397513,"is_reserved":false,"is_disabled":false,"rental_uris":{"android":"levelo://app?vid=ec13afe1-0a3a-4ec0-b872-7eade74d0883","ios":"levelo://app?vid=ec13afe1-0a3a-4ec0-b872-7eade74d0883"},"vehicle_type_id":"4","last_reported":1723738192,"current_range_meters":1200,"station_id":"ce4bh092rcd13ifvqd20","pricing_plan_id":"cebpf4jnsgd1na2vs0mg"},{"bike_id":"7ba4d436-fc16-49af-ad2e-55eba96cfcd6","system_id":"levelo_inurba_marseille","lat":43.292644,"lon":5.384257,"is_reserved":false,"is_disabled":false,"rental_uris":{"android":"levelo://app?vid=7ba4d436-fc16-49af-ad2e-55eba96cfcd6","ios":"levelo://app?vid=7ba4d436-fc16-49af-ad2e-55eba96cfcd6"},"vehicle_type_id":"4","last_reported":1723738192,"current_range_meters":4000,"station_id":"ce4bh692rcd13ifvqea0","pricing_plan_id":"cebpf4jnsgd1na2vs0mg"},{"bike_id":"8a0790f4-79ca-44ad-97db-069b6143ec7e","system_id":"levelo_inurba_marseille","lat":43.292644,"lon":5.384257,"is_reserved":false,"is_disabled":false,"rental_uris":{"android":"levelo://app?vid=8a0790f4-79ca-44ad-97db-069b6143ec7e","ios":"levelo://app?vid=8a0790f4-79ca-44ad-97db-069b6143ec7e"},"vehicle_type_id":"4","last_reported":1723738192,"current_range_meters":0,"station_id":"ce4bh692rcd13ifvqea0","pricing_plan_id":"cebpf4jnsgd1na2vs0mg"},{"bike_id":"687de3d7-5cb5-402c-af1f-aea37cefabce","system_id":"levelo_inurba_marseille","lat":43.292642,"lon":5.384254,"is_reserved":false,"is_disabled":false,"rental_uris":{"android":"levelo://app?vid=687de3d7-5cb5-402c-af1f-aea37cefabce","ios":"levelo://app?vid=687de3d7-5cb5-402c-af1f-aea37cefabce"},"vehicle_type_id":"4","last_reported":1723738192,"current_range_meters":31200,"station_id":"ce4bh692rcd13ifvqea0","pricing_plan_id":"cebpf4jnsgd1na2vs0mg"},{"bike_id":"ef4820e2-453a-4bfd-a388-80c9e9343bf4","system_id":"levelo_inurba_marseille","lat":43.292644,"lon":5.384257,"is_reserved":false,"is_disabled":false,"rental_uris":{"android":"levelo://app?vid=ef4820e2-453a-4bfd-a388-80c9e9343bf4","ios":"levelo://app?vid=ef4820e2-453a-4bfd-a388-80c9e9343bf4"},"vehicle_type_id":"4","last_reported":1723738192,"current_range_meters":26000,"station_id":"ce4bh692rcd13ifvqea0","pricing_plan_id":"cebpf4jnsgd1na2vs0mg"},{"bike_id":"2c036132-b168-49ae-800c-def66b2392d4","system_id":"levelo_inurba_marseille","lat":43.292644,"lon":5.384257,"is_reserved":false,"is_disabled":false,"rental_uris":{"android":"levelo://app?vid=2c036132-b168-49ae-800c-def66b2392d4","ios":"levelo://app?vid=2c036132-b168-49ae-800c-def66b2392d4"},"vehicle_type_id":"4","last_reported":1723738192,"current_range_meters":18800,"station_id":"ce4bh692rcd13ifvqea0","pricing_plan_id":"cebpf4jnsgd1na2vs0mg"},{"bike_id":"45a9417b-cef2-42e6-be72-55045efe8c39","system_id":"levelo_inurba_marseille","lat":43.292644,"lon":5.384257,"is_reserved":false,"is_disabled":false,"rental_uris":{"android":"levelo://app?vid=45a9417b-cef2-42e6-be72-55045efe8c39","ios":"levelo://app?vid=45a9417b-cef2-42e6-be72-55045efe8c39"},"vehicle_type_id":"4","last_reported":1723738192,"current_range_meters":6800,"station_id":"ce4bh692rcd13ifvqea0","pricing_plan_id":"cebpf4jnsgd1na2vs0mg"},{"bike_id":"770118bf-4b2d-49ba-a42c-32ebc66d48f0","system_id":"levelo_inurba_marseille","lat":43.292642,"lon":5.384254,"is_reserved":false,"is_disabled":false,"rental_uris":{"android":"levelo://app?vid=770118bf-4b2d-49ba-a42c-32ebc66d48f0","ios":"levelo://app?vid=770118bf-4b2d-49ba-a42c-32ebc66d48f0"},"vehicle_type_id":"4","last_reported":1723738192,"current_range_meters":9200,"station_id":"ce4bh692rcd13ifvqea0","pricing_plan_id":"cebpf4jnsgd1na2vs0mg"},{"bike_id":"17c35d0c-81fe-438e-ac9b-05963bca869d","system_id":"levelo_inurba_marseille","lat":43.290104,"lon":5.356111,"is_reserved":false,"is_disabled":false,"rental_uris":{"android":"levelo://app?vid=17c35d0c-81fe-438e-ac9b-05963bca869d","ios":"levelo://app?vid=17c35d0c-81fe-438e-ac9b-05963bca869d"},"vehicle_type_id":"4","last_reported":1723738192,"current_range_meters":26400,"station_id":"ce4bhb92rcd13ifvqen0","pricing_plan_id":"cebpf4jnsgd1na2vs0mg"},{"bike_id":"7dbb3a1e-f7bd-4ffc-aa47-db484ca31c5e","system_id":"levelo_inurba_marseille","lat":43.290046,"lon":5.356148,"is_reserved":false,"is_disabled":false,"rental_uris":{"android":"levelo://app?vid=7dbb3a1e-f7bd-4ffc-aa47-db484ca31c5e","ios":"levelo://app?vid=7dbb3a1e-f7bd-4ffc-aa47-db484ca31c5e"},"vehicle_type_id":"4","last_reported":1723738192,"current_range_meters":18000,"station_id":"","pricing_plan_id":"cebpf4jnsgd1na2vs0mg"},{"bike_id":"2b1b1f88-eea6-47f8-a66a-ac2306b60460","system_id":"levelo_inurba_marseille","lat":43.290104,"lon":5.356111,"is_reserved":false,"is_disabled":false,"rental_uris":{"android":"levelo://app?vid=2b1b1f88-eea6-47f8-a66a-ac2306b60460","ios":"levelo://app?vid=2b1b1f88-eea6-47f8-a66a-ac2306b60460"},"vehicle_type_id":"4","last_reported":1723738192,"current_range_meters":31200,"station_id":"ce4bhb92rcd13ifvqen0","pricing_plan_id":"cebpf4jnsgd1na2vs0mg"},{"bike_id":"f4f2789d-dcc9-4c35-9547-2d45b3715862","system_id":"levelo_inurba_marseille","lat":43.290995,"lon":5.381361,"is_reserved":false,"is_disabled":false,"rental_uris":{"android":"levelo://app?vid=f4f2789d-dcc9-4c35-9547-2d45b3715862","ios":"levelo://app?vid=f4f2789d-dcc9-4c35-9547-2d45b3715862"},"vehicle_type_id":"4","last_reported":1723738192,"current_range_meters":29200,"station_id":"ce4bh512rcd13ifvqe2g","pricing_plan_id":"cebpf4jnsgd1na2vs0mg"},{"bike_id":"3e2f9a0d-4f7d-4277-a928-4b6fa895cd62","system_id":"levelo_inurba_marseille","lat":43.304296,"lon":5.397513,"is_reserved":false,"is_disabled":false,"rental_uris":{"android":"levelo://app?vid=3e2f9a0d-4f7d-4277-a928-4b6fa895cd62","ios":"levelo://app?vid=3e2f9a0d-4f7d-4277-a928-4b6fa895cd62"},"vehicle_type_id":"4","last_reported":1723738192,"current_range_meters":25200,"station_id":"ce4bh092rcd13ifvqd20","pricing_plan_id":"cebpf4jnsgd1na2vs0mg"},{"bike_id":"28143f80-22f8-4b35-96f0-05401f8ad652","system_id":"levelo_inurba_marseille","lat":43.290995,"lon":5.381361,"is_reserved":false,"is_disabled":false,"rental_uris":{"android":"levelo://app?vid=28143f80-22f8-4b35-96f0-05401f8ad652","ios":"levelo://app?vid=28143f80-22f8-4b35-96f0-05401f8ad652"},"vehicle_type_id":"4","last_reported":1723738192,"current_range_meters":9200,"station_id":"ce4bh512rcd13ifvqe2g","pricing_plan_id":"cebpf4jnsgd1na2vs0mg"},{"bike_id":"d2baf7cd-4cf3-42b3-97c5-7205f0e9746f","system_id":"levelo_inurba_marseille","lat":43.29514,"lon":5.39019,"is_reserved":false,"is_disabled":false,"rental_uris":{"android":"levelo://app?vid=d2baf7cd-4cf3-42b3-97c5-7205f0e9746f","ios":"levelo://app?vid=d2baf7cd-4cf3-42b3-97c5-7205f0e9746f"},"vehicle_type_id":"4","last_reported":1723738192,"current_range_meters":29600,"station_id":"","pricing_plan_id":"cebpf4jnsgd1na2vs0mg"},{"bike_id":"c587f46b-5ffc-44ef-990f-22b2143da7c0","system_id":"levelo_inurba_marseille","lat":43.297815,"lon":5.393548,"is_reserved":false,"is_disabled":false,"rental_uris":{"android":"levelo://app?vid=c587f46b-5ffc-44ef-990f-22b2143da7c0","ios":"levelo://app?vid=c587f46b-5ffc-44ef-990f-22b2143da7c0"},"vehicle_type_id":"4","last_reported":1723738192,"current_range_meters":0,"station_id":"chh1huq6cuj3fo74tm60","pricing_plan_id":"cebpf4jnsgd1na2vs0mg"},{"bike_id":"901470f5-d70d-467a-920e-45d05b82cd47","system_id":"levelo_inurba_marseille","lat":43.330442,"lon":5.389148,"is_reserved":false,"is_disabled":false,"rental_uris":{"android":"levelo://app?vid=901470f5-d70d-467a-920e-45d05b82cd47","ios":"levelo://app?vid=901470f5-d70d-467a-920e-45d05b82cd47"},"vehicle_type_id":"4","last_reported":1723738192,"current_range_meters":17200,"station_id":"ce4bhr92rcd13ifvqhrg","pricing_plan_id":"cebpf4jnsgd1na2vs0mg"},{"bike_id":"ce338225-ad90-48c5-9d30-0d30a36710d4","system_id":"levelo_inurba_marseille","lat":43.290094,"lon":5.381264,"is_reserved":false,"is_disabled":false,"rental_uris":{"android":"levelo://app?vid=ce338225-ad90-48c5-9d30-0d30a36710d4","ios":"levelo://app?vid=ce338225-ad90-48c5-9d30-0d30a36710d4"},"vehicle_type_id":"4","last_reported":1723738192,"current_range_meters":25200,"station_id":"ce4bh4p2rcd13ifvqe1g","pricing_plan_id":"cebpf4jnsgd1na2vs0mg"},{"bike_id":"26dad346-158b-4955-aee9-6683f77e4090","system_id":"levelo_inurba_marseille","lat":43.290094,"lon":5.381264,"is_reserved":false,"is_disabled":false,"rental_uris":{"android":"levelo://app?vid=26dad346-158b-4955-aee9-6683f77e4090","ios":"levelo://app?vid=26dad346-158b-4955-aee9-6683f77e4090"},"vehicle_type_id":"4","last_reported":1723738192,"current_range_meters":1200,"station_id":"ce4bh4p2rcd13ifvqe1g","pricing_plan_id":"cebpf4jnsgd1na2vs0mg"},{"bike_id":"41869803-e51c-4e3f-838d-c4856623083d","system_id":"levelo_inurba_marseille","lat":43.28854,"lon":5.358415,"is_reserved":false,"is_disabled":false,"rental_uris":{"android":"levelo://app?vid=41869803-e51c-4e3f-838d-c4856623083d","ios":"levelo://app?vid=41869803-e51c-4e3f-838d-c4856623083d"},"vehicle_type_id":"4","last_reported":1723738192,"current_range_meters":14800,"station_id":"ce4bhbp2rcd13ifvqerg","pricing_plan_id":"cebpf4jnsgd1na2vs0mg"},{"bike_id":"80108944-716f-42d2-8fa0-613aa5a0b2bf","system_id":"levelo_inurba_marseille","lat":43.2901,"lon":5.381269,"is_reserved":false,"is_disabled":false,"rental_uris":{"android":"levelo://app?vid=80108944-716f-42d2-8fa0-613aa5a0b2bf","ios":"levelo://app?vid=80108944-716f-42d2-8fa0-613aa5a0b2bf"},"vehicle_type_id":"4","last_reported":1723738192,"current_range_meters":11200,"station_id":"ce4bh4p2rcd13ifvqe1g","pricing_plan_id":"cebpf4jnsgd1na2vs0mg"},{"bike_id":"d53a483f-5560-4449-8c32-391487caad69","system_id":"levelo_inurba_marseille","lat":43.28856,"lon":5.358371,"is_reserved":false,"is_disabled":false,"rental_uris":{"android":"levelo://app?vid=d53a483f-5560-4449-8c32-391487caad69","ios":"levelo://app?vid=d53a483f-5560-4449-8c32-391487caad69"},"vehicle_type_id":"4","last_reported":1723738192,"current_range_meters":1600,"station_id":"ce4bhb12rcd13ifvqem0","pricing_plan_id":"cebpf4jnsgd1na2vs0mg"},{"bike_id":"21ca5445-e154-4265-b5dc-34d45a7797bb","system_id":"levelo_inurba_marseille","lat":43.288482,"lon":5.358458,"is_reserved":false,"is_disabled":false,"rental_uris":{"android":"levelo://app?vid=21ca5445-e154-4265-b5dc-34d45a7797bb","ios":"levelo://app?vid=21ca5445-e154-4265-b5dc-34d45a7797bb"},"vehicle_type_id":"4","last_reported":1723738192,"current_range_meters":400,"station_id":"ce4bhb12rcd13ifvqem0","pricing_plan_id":"cebpf4jnsgd1na2vs0mg"},{"bike_id":"cda1c251-e963-4b8c-84f2-c0b37a74050d","system_id":"levelo_inurba_marseille","lat":43.3374,"lon":5.37429,"is_reserved":false,"is_disabled":false,"rental_uris":{"android":"levelo://app?vid=cda1c251-e963-4b8c-84f2-c0b37a74050d","ios":"levelo://app?vid=cda1c251-e963-4b8c-84f2-c0b37a74050d"},"vehicle_type_id":"4","last_reported":1723738192,"current_range_meters":12000,"station_id":"","pricing_plan_id":"cebpf4jnsgd1na2vs0mg"},{"bike_id":"551a3c7e-fb70-4ca9-acb5-de822293bd64","system_id":"levelo_inurba_marseille","lat":43.312609,"lon":5.401662,"is_reserved":false,"is_disabled":false,"rental_uris":{"android":"levelo://app?vid=551a3c7e-fb70-4ca9-acb5-de822293bd64","ios":"levelo://app?vid=551a3c7e-fb70-4ca9-acb5-de822293bd64"},"vehicle_type_id":"4","last_reported":1723738192,"current_range_meters":10800,"station_id":"ce4bh092rcd13ifvqd30","pricing_plan_id":"cebpf4jnsgd1na2vs0mg"},{"bike_id":"daffaffd-7a3c-4980-9f24-277c5754517c","system_id":"levelo_inurba_marseille","lat":43.33745,"lon":5.37435,"is_reserved":false,"is_disabled":false,"rental_uris":{"android":"levelo://app?vid=daffaffd-7a3c-4980-9f24-277c5754517c","ios":"levelo://app?vid=daffaffd-7a3c-4980-9f24-277c5754517c"},"vehicle_type_id":"4","last_reported":1723738192,"current_range_meters":23200,"station_id":"","pricing_plan_id":"cebpf4jnsgd1na2vs0mg"},{"bike_id":"ac75d8e5-5139-4e43-a64e-51e7994c2517","system_id":"levelo_inurba_marseille","lat":43.337444,"lon":5.374475,"is_reserved":false,"is_disabled":false,"rental_uris":{"android":"levelo://app?vid=ac75d8e5-5139-4e43-a64e-51e7994c2517","ios":"levelo://app?vid=ac75d8e5-5139-4e43-a64e-51e7994c2517"},"vehicle_type_id":"3","last_reported":1723738192,"current_range_meters":24800,"station_id":"","pricing_plan_id":"cebpf4jnsgd1na2vs0mg"},{"bike_id":"67441c13-676b-406d-9fcb-cd542d030b2b","system_id":"levelo_inurba_marseille","lat":43.33745,"lon":5.374556,"is_reserved":false,"is_disabled":false,"rental_uris":{"android":"levelo://app?vid=67441c13-676b-406d-9fcb-cd542d030b2b","ios":"levelo://app?vid=67441c13-676b-406d-9fcb-cd542d030b2b"},"vehicle_type_id":"4","last_reported":1723738192,"current_range_meters":28400,"station_id":"","pricing_plan_id":"cebpf4jnsgd1na2vs0mg"},{"bike_id":"2b68a157-042e-49e9-8660-494cd13820e4","system_id":"levelo_inurba_marseille","lat":43.309371,"lon":5.401449,"is_reserved":false,"is_disabled":false,"rental_uris":{"android":"levelo://app?vid=2b68a157-042e-49e9-8660-494cd13820e4","ios":"levelo://app?vid=2b68a157-042e-49e9-8660-494cd13820e4"},"vehicle_type_id":"4","last_reported":1723738192,"current_range_meters":7600,"station_id":"ce4bgvp2rcd13ifvqct0","pricing_plan_id":"cebpf4jnsgd1na2vs0mg"},{"bike_id":"24c49f23-023c-449a-ba99-1eb81794f926","system_id":"levelo_inurba_marseille","lat":43.312749,"lon":5.401774,"is_reserved":false,"is_disabled":false,"rental_uris":{"android":"levelo://app?vid=24c49f23-023c-449a-ba99-1eb81794f926","ios":"levelo://app?vid=24c49f23-023c-449a-ba99-1eb81794f926"},"vehicle_type_id":"4","last_reported":1723738192,"current_range_meters":27200,"station_id":"ce4bh092rcd13ifvqd30","pricing_plan_id":"cebpf4jnsgd1na2vs0mg"},{"bike_id":"16efc359-3e7e-4d40-a49d-22641688cd39","system_id":"levelo_inurba_marseille","lat":43.33752,"lon":5.37438,"is_reserved":false,"is_disabled":false,"rental_uris":{"android":"levelo://app?vid=16efc359-3e7e-4d40-a49d-22641688cd39","ios":"levelo://app?vid=16efc359-3e7e-4d40-a49d-22641688cd39"},"vehicle_type_id":"4","last_reported":1723738192,"current_range_meters":3200,"station_id":"","pricing_plan_id":"cebpf4jnsgd1na2vs0mg"},{"bike_id":"b0e077ad-9d1b-47a9-8bf3-80965950c1eb","system_id":"levelo_inurba_marseille","lat":43.33755,"lon":5.37432,"is_reserved":false,"is_disabled":false,"rental_uris":{"android":"levelo://app?vid=b0e077ad-9d1b-47a9-8bf3-80965950c1eb","ios":"levelo://app?vid=b0e077ad-9d1b-47a9-8bf3-80965950c1eb"},"vehicle_type_id":"4","last_reported":1723738192,"current_range_meters":28000,"station_id":"","pricing_plan_id":"cebpf4jnsgd1na2vs0mg"},{"bike_id":"ac414f4f-6693-4a52-b1a4-3b07f29aee57","system_id":"levelo_inurba_marseille","lat":43.33757,"lon":5.3745,"is_reserved":false,"is_disabled":false,"rental_uris":{"android":"levelo://app?vid=ac414f4f-6693-4a52-b1a4-3b07f29aee57","ios":"levelo://app?vid=ac414f4f-6693-4a52-b1a4-3b07f29aee57"},"vehicle_type_id":"4","last_reported":1723738192,"current_range_meters":1600,"station_id":"","pricing_plan_id":"cebpf4jnsgd1na2vs0mg"},{"bike_id":"17734cf2-142d-4a19-b7f0-2e2ecd0603f5","system_id":"levelo_inurba_marseille","lat":43.337641,"lon":5.374382,"is_reserved":false,"is_disabled":false,"rental_uris":{"android":"levelo://app?vid=17734cf2-142d-4a19-b7f0-2e2ecd0603f5","ios":"levelo://app?vid=17734cf2-142d-4a19-b7f0-2e2ecd0603f5"},"vehicle_type_id":"4","last_reported":1723738192,"current_range_meters":20000,"station_id":"","pricing_plan_id":"cebpf4jnsgd1na2vs0mg"},{"bike_id":"14d336bd-ba9e-4b85-94da-27bc3d3211b2","system_id":"levelo_inurba_marseille","lat":43.337678,"lon":5.374604,"is_reserved":false,"is_disabled":false,"rental_uris":{"android":"levelo://app?vid=14d336bd-ba9e-4b85-94da-27bc3d3211b2","ios":"levelo://app?vid=14d336bd-ba9e-4b85-94da-27bc3d3211b2"},"vehicle_type_id":"4","last_reported":1723738192,"current_range_meters":27200,"station_id":"","pricing_plan_id":"cebpf4jnsgd1na2vs0mg"},{"bike_id":"f552e3f4-4a77-4edb-9d5a-33ed1f4858ce","system_id":"levelo_inurba_marseille","lat":43.301117,"lon":5.398795,"is_reserved":false,"is_disabled":false,"rental_uris":{"android":"levelo://app?vid=f552e3f4-4a77-4edb-9d5a-33ed1f4858ce","ios":"levelo://app?vid=f552e3f4-4a77-4edb-9d5a-33ed1f4858ce"},"vehicle_type_id":"4","last_reported":1723738192,"current_range_meters":21200,"station_id":"ce4bh0h2rcd13ifvqd40","pricing_plan_id":"cebpf4jnsgd1na2vs0mg"},{"bike_id":"5560aa8c-f37f-4858-901b-386cb800ecc3","system_id":"levelo_inurba_marseille","lat":43.306412,"lon":5.401035,"is_reserved":false,"is_disabled":false,"rental_uris":{"android":"levelo://app?vid=5560aa8c-f37f-4858-901b-386cb800ecc3","ios":"levelo://app?vid=5560aa8c-f37f-4858-901b-386cb800ecc3"},"vehicle_type_id":"4","last_reported":1723738192,"current_range_meters":0,"station_id":"ce4bh112rcd13ifvqda0","pricing_plan_id":"cebpf4jnsgd1na2vs0mg"},{"bike_id":"bb47827f-73f9-4bdc-8ebe-1e8653afcdfa","system_id":"levelo_inurba_marseille","lat":43.33771,"lon":5.37476,"is_reserved":false,"is_disabled":false,"rental_uris":{"android":"levelo://app?vid=bb47827f-73f9-4bdc-8ebe-1e8653afcdfa","ios":"levelo://app?vid=bb47827f-73f9-4bdc-8ebe-1e8653afcdfa"},"vehicle_type_id":"4","last_reported":1723738192,"current_range_meters":29200,"station_id":"","pricing_plan_id":"cebpf4jnsgd1na2vs0mg"},{"bike_id":"9d85f1d1-d57c-4b49-9ec5-eda27c202a93","system_id":"levelo_inurba_marseille","lat":43.33774,"lon":5.37473,"is_reserved":false,"is_disabled":false,"rental_uris":{"android":"levelo://app?vid=9d85f1d1-d57c-4b49-9ec5-eda27c202a93","ios":"levelo://app?vid=9d85f1d1-d57c-4b49-9ec5-eda27c202a93"},"vehicle_type_id":"4","last_reported":1723738192,"current_range_meters":13200,"station_id":"","pricing_plan_id":"cebpf4jnsgd1na2vs0mg"},{"bike_id":"bff19b69-8630-43b5-b2eb-5b2279542cf4","system_id":"levelo_inurba_marseille","lat":43.28693,"lon":5.37405,"is_reserved":false,"is_disabled":false,"rental_uris":{"android":"levelo://app?vid=bff19b69-8630-43b5-b2eb-5b2279542cf4","ios":"levelo://app?vid=bff19b69-8630-43b5-b2eb-5b2279542cf4"},"vehicle_type_id":"4","last_reported":1723738192,"current_range_meters":0,"station_id":"ce4bh3p2rcd13ifvqdq0","pricing_plan_id":"cebpf4jnsgd1na2vs0mg"},{"bike_id":"569e39cd-f835-488c-b7f3-c9c25cb4cf3d","system_id":"levelo_inurba_marseille","lat":43.286961,"lon":5.373785,"is_reserved":false,"is_disabled":false,"rental_uris":{"android":"levelo://app?vid=569e39cd-f835-488c-b7f3-c9c25cb4cf3d","ios":"levelo://app?vid=569e39cd-f835-488c-b7f3-c9c25cb4cf3d"},"vehicle_type_id":"4","last_reported":1723738192,"current_range_meters":400,"station_id":"ce4bh3p2rcd13ifvqdq0","pricing_plan_id":"cebpf4jnsgd1na2vs0mg"},{"bike_id":"7ea472d3-898b-4d2d-9665-8dce187fafeb","system_id":"levelo_inurba_marseille","lat":43.288145,"lon":5.353465,"is_reserved":false,"is_disabled":false,"rental_uris":{"android":"levelo://app?vid=7ea472d3-898b-4d2d-9665-8dce187fafeb","ios":"levelo://app?vid=7ea472d3-898b-4d2d-9665-8dce187fafeb"},"vehicle_type_id":"4","last_reported":1723738192,"current_range_meters":31200,"station_id":"ce4bhch2rcd13ifvqeug","pricing_plan_id":"cebpf4jnsgd1na2vs0mg"},{"bike_id":"a0f8607b-d38f-495a-b8f0-32d9699ffbb5","system_id":"levelo_inurba_marseille","lat":43.302759,"lon":5.400793,"is_reserved":false,"is_disabled":false,"rental_uris":{"android":"levelo://app?vid=a0f8607b-d38f-495a-b8f0-32d9699ffbb5","ios":"levelo://app?vid=a0f8607b-d38f-495a-b8f0-32d9699ffbb5"},"vehicle_type_id":"4","last_reported":1723738192,"current_range_meters":6800,"station_id":"ce4bgvh2rcd13ifvqcs0","pricing_plan_id":"cebpf4jnsgd1na2vs0mg"},{"bike_id":"ad4048ac-b0d3-4be6-95c3-751c937c27e1","system_id":"levelo_inurba_marseille","lat":43.302759,"lon":5.400793,"is_reserved":false,"is_disabled":false,"rental_uris":{"android":"levelo://app?vid=ad4048ac-b0d3-4be6-95c3-751c937c27e1","ios":"levelo://app?vid=ad4048ac-b0d3-4be6-95c3-751c937c27e1"},"vehicle_type_id":"4","last_reported":1723738192,"current_range_meters":0,"station_id":"ce4bgvh2rcd13ifvqcs0","pricing_plan_id":"cebpf4jnsgd1na2vs0mg"},{"bike_id":"1c208d1f-fbab-4647-aac7-5bad9c489cb1","system_id":"levelo_inurba_marseille","lat":43.302759,"lon":5.400793,"is_reserved":false,"is_disabled":false,"rental_uris":{"android":"levelo://app?vid=1c208d1f-fbab-4647-aac7-5bad9c489cb1","ios":"levelo://app?vid=1c208d1f-fbab-4647-aac7-5bad9c489cb1"},"vehicle_type_id":"4","last_reported":1723738192,"current_range_meters":22000,"station_id":"ce4bgvh2rcd13ifvqcs0","pricing_plan_id":"cebpf4jnsgd1na2vs0mg"},{"bike_id":"5e875b1e-eea2-4094-a315-ccee1ab52c80","system_id":"levelo_inurba_marseille","lat":43.302759,"lon":5.400793,"is_reserved":false,"is_disabled":false,"rental_uris":{"android":"levelo://app?vid=5e875b1e-eea2-4094-a315-ccee1ab52c80","ios":"levelo://app?vid=5e875b1e-eea2-4094-a315-ccee1ab52c80"},"vehicle_type_id":"4","last_reported":1723738192,"current_range_meters":22800,"station_id":"ce4bgvh2rcd13ifvqcs0","pricing_plan_id":"cebpf4jnsgd1na2vs0mg"},{"bike_id":"d48434d5-61e1-441c-8631-4dd58375f7d7","system_id":"levelo_inurba_marseille","lat":43.302759,"lon":5.400793,"is_reserved":false,"is_disabled":false,"rental_uris":{"android":"levelo://app?vid=d48434d5-61e1-441c-8631-4dd58375f7d7","ios":"levelo://app?vid=d48434d5-61e1-441c-8631-4dd58375f7d7"},"vehicle_type_id":"4","last_reported":1723738192,"current_range_meters":26800,"station_id":"ce4bgvh2rcd13ifvqcs0","pricing_plan_id":"cebpf4jnsgd1na2vs0mg"},{"bike_id":"c55ada78-a5e3-4491-bc6f-0b026a814cc2","system_id":"levelo_inurba_marseille","lat":43.30673,"lon":5.40272,"is_reserved":false,"is_disabled":false,"rental_uris":{"android":"levelo://app?vid=c55ada78-a5e3-4491-bc6f-0b026a814cc2","ios":"levelo://app?vid=c55ada78-a5e3-4491-bc6f-0b026a814cc2"},"vehicle_type_id":"4","last_reported":1723738192,"current_range_meters":26000,"station_id":"","pricing_plan_id":"cebpf4jnsgd1na2vs0mg"},{"bike_id":"072574e4-7fe8-46b4-8d22-6bb8147aaa9b","system_id":"levelo_inurba_marseille","lat":43.28613,"lon":5.370605,"is_reserved":false,"is_disabled":false,"rental_uris":{"android":"levelo://app?vid=072574e4-7fe8-46b4-8d22-6bb8147aaa9b","ios":"levelo://app?vid=072574e4-7fe8-46b4-8d22-6bb8147aaa9b"},"vehicle_type_id":"4","last_reported":1723738192,"current_range_meters":7600,"station_id":"ce4bgi12rcd13ifvqb70","pricing_plan_id":"cebpf4jnsgd1na2vs0mg"},{"bike_id":"74cda472-b51f-4941-b647-734128ffec53","system_id":"levelo_inurba_marseille","lat":43.31691,"lon":5.404633,"is_reserved":false,"is_disabled":false,"rental_uris":{"android":"levelo://app?vid=74cda472-b51f-4941-b647-734128ffec53","ios":"levelo://app?vid=74cda472-b51f-4941-b647-734128ffec53"},"vehicle_type_id":"4","last_reported":1723738192,"current_range_meters":0,"station_id":"ce4bh012rcd13ifvqd00","pricing_plan_id":"cebpf4jnsgd1na2vs0mg"},{"bike_id":"2fce1402-a931-4bf1-b9f0-ffcaaf1ed22e","system_id":"levelo_inurba_marseille","lat":43.316828,"lon":5.404723,"is_reserved":false,"is_disabled":false,"rental_uris":{"android":"levelo://app?vid=2fce1402-a931-4bf1-b9f0-ffcaaf1ed22e","ios":"levelo://app?vid=2fce1402-a931-4bf1-b9f0-ffcaaf1ed22e"},"vehicle_type_id":"4","last_reported":1723738192,"current_range_meters":17600,"station_id":"ce4bh012rcd13ifvqd00","pricing_plan_id":"cebpf4jnsgd1na2vs0mg"},{"bike_id":"85a74e0f-7cf9-49f6-8a03-ebcdf3e95551","system_id":"levelo_inurba_marseille","lat":43.316821,"lon":5.404737,"is_reserved":false,"is_disabled":false,"rental_uris":{"android":"levelo://app?vid=85a74e0f-7cf9-49f6-8a03-ebcdf3e95551","ios":"levelo://app?vid=85a74e0f-7cf9-49f6-8a03-ebcdf3e95551"},"vehicle_type_id":"4","last_reported":1723738192,"current_range_meters":29600,"station_id":"ce4bh012rcd13ifvqd00","pricing_plan_id":"cebpf4jnsgd1na2vs0mg"},{"bike_id":"318559b4-dc41-4b82-a33c-f77fb864003e","system_id":"levelo_inurba_marseille","lat":43.291994,"lon":5.392907,"is_reserved":false,"is_disabled":false,"rental_uris":{"android":"levelo://app?vid=318559b4-dc41-4b82-a33c-f77fb864003e","ios":"levelo://app?vid=318559b4-dc41-4b82-a33c-f77fb864003e"},"vehicle_type_id":"4","last_reported":1723738192,"current_range_meters":3200,"station_id":"ce4bh192rcd13ifvqdd0","pricing_plan_id":"cebpf4jnsgd1na2vs0mg"},{"bike_id":"dd78066b-583d-4f7a-8597-c002f2f96c0a","system_id":"levelo_inurba_marseille","lat":43.291994,"lon":5.392907,"is_reserved":false,"is_disabled":false,"rental_uris":{"android":"levelo://app?vid=dd78066b-583d-4f7a-8597-c002f2f96c0a","ios":"levelo://app?vid=dd78066b-583d-4f7a-8597-c002f2f96c0a"},"vehicle_type_id":"4","last_reported":1723738192,"current_range_meters":0,"station_id":"ce4bh192rcd13ifvqdd0","pricing_plan_id":"cebpf4jnsgd1na2vs0mg"},{"bike_id":"ac79c430-36e9-4a62-9e63-92163d08a6be","system_id":"levelo_inurba_marseille","lat":43.317386,"lon":5.405441,"is_reserved":false,"is_disabled":false,"rental_uris":{"android":"levelo://app?vid=ac79c430-36e9-4a62-9e63-92163d08a6be","ios":"levelo://app?vid=ac79c430-36e9-4a62-9e63-92163d08a6be"},"vehicle_type_id":"4","last_reported":1723738192,"current_range_meters":0,"station_id":"ce4bh012rcd13ifvqd00","pricing_plan_id":"cebpf4jnsgd1na2vs0mg"},{"bike_id":"d3af049a-f801-4598-9438-b1a841d15a9c","system_id":"levelo_inurba_marseille","lat":43.284538,"lon":5.358657,"is_reserved":false,"is_disabled":false,"rental_uris":{"android":"levelo://app?vid=d3af049a-f801-4598-9438-b1a841d15a9c","ios":"levelo://app?vid=d3af049a-f801-4598-9438-b1a841d15a9c"},"vehicle_type_id":"4","last_reported":1723738192,"current_range_meters":20000,"station_id":"ce4bhah2rcd13ifvqei0","pricing_plan_id":"cebpf4jnsgd1na2vs0mg"},{"bike_id":"bdf542c1-93b9-4f89-8dfd-552bd013fe99","system_id":"levelo_inurba_marseille","lat":43.284538,"lon":5.358657,"is_reserved":false,"is_disabled":false,"rental_uris":{"android":"levelo://app?vid=bdf542c1-93b9-4f89-8dfd-552bd013fe99","ios":"levelo://app?vid=bdf542c1-93b9-4f89-8dfd-552bd013fe99"},"vehicle_type_id":"4","last_reported":1723738192,"current_range_meters":10000,"station_id":"ce4bhah2rcd13ifvqei0","pricing_plan_id":"cebpf4jnsgd1na2vs0mg"},{"bike_id":"1f1e1405-90a0-4409-a214-ef792d7e95ea","system_id":"levelo_inurba_marseille","lat":43.284538,"lon":5.358657,"is_reserved":false,"is_disabled":false,"rental_uris":{"android":"levelo://app?vid=1f1e1405-90a0-4409-a214-ef792d7e95ea","ios":"levelo://app?vid=1f1e1405-90a0-4409-a214-ef792d7e95ea"},"vehicle_type_id":"4","last_reported":1723738192,"current_range_meters":14800,"station_id":"ce4bhah2rcd13ifvqei0","pricing_plan_id":"cebpf4jnsgd1na2vs0mg"},{"bike_id":"87804a47-f35c-4f07-a609-eec47931dac1","system_id":"levelo_inurba_marseille","lat":43.284534,"lon":5.358662,"is_reserved":false,"is_disabled":false,"rental_uris":{"android":"levelo://app?vid=87804a47-f35c-4f07-a609-eec47931dac1","ios":"levelo://app?vid=87804a47-f35c-4f07-a609-eec47931dac1"},"vehicle_type_id":"4","last_reported":1723738192,"current_range_meters":10000,"station_id":"ce4bhah2rcd13ifvqei0","pricing_plan_id":"cebpf4jnsgd1na2vs0mg"},{"bike_id":"496ea448-f4c2-42a7-aed5-21097057d181","system_id":"levelo_inurba_marseille","lat":43.284538,"lon":5.358657,"is_reserved":false,"is_disabled":false,"rental_uris":{"android":"levelo://app?vid=496ea448-f4c2-42a7-aed5-21097057d181","ios":"levelo://app?vid=496ea448-f4c2-42a7-aed5-21097057d181"},"vehicle_type_id":"4","last_reported":1723738192,"current_range_meters":16400,"station_id":"ce4bhah2rcd13ifvqei0","pricing_plan_id":"cebpf4jnsgd1na2vs0mg"},{"bike_id":"8f7537bd-d7fb-4206-b58d-6ea8d759ba7b","system_id":"levelo_inurba_marseille","lat":43.284534,"lon":5.358662,"is_reserved":false,"is_disabled":false,"rental_uris":{"android":"levelo://app?vid=8f7537bd-d7fb-4206-b58d-6ea8d759ba7b","ios":"levelo://app?vid=8f7537bd-d7fb-4206-b58d-6ea8d759ba7b"},"vehicle_type_id":"4","last_reported":1723738192,"current_range_meters":20800,"station_id":"ce4bhah2rcd13ifvqei0","pricing_plan_id":"cebpf4jnsgd1na2vs0mg"},{"bike_id":"fed87efc-7018-4fac-8779-688740760cce","system_id":"levelo_inurba_marseille","lat":43.284538,"lon":5.358657,"is_reserved":false,"is_disabled":false,"rental_uris":{"android":"levelo://app?vid=fed87efc-7018-4fac-8779-688740760cce","ios":"levelo://app?vid=fed87efc-7018-4fac-8779-688740760cce"},"vehicle_type_id":"4","last_reported":1723738192,"current_range_meters":18400,"station_id":"ce4bhah2rcd13ifvqei0","pricing_plan_id":"cebpf4jnsgd1na2vs0mg"},