{"last_updated":1717452466,"ttl":30,"version":"2.2","data":{"bikes":[{"bike_id":"e22ffee5-132b-4816-a94d-66ddf86af856","system_id":"levelo_inurba_marseille","lat":43.31341,"lon":5.367098,"is_reserved":false,"is_disabled":false,"rental_uris":{"android":"levelo://app?vid=e22ffee5-132b-4816-a94d-66ddf86af856","ios":"levelo://app?vid=e22ffee5-132b-4816-a94d-66ddf86af856"},"vehicle_type_id":"4","last_reported":1717452466,"current_range_meters":18800,"station_id":"ce4bgr92rcd13ifvqc6g","pricing_plan_id":"cebpf4jnsgd1na2vs0mg"},{"bike_id":"136f0b43-7a00-456f-bf41-692907c26b65","system_id":"levelo_inurba_marseille","lat":43.31341,"lon":5.367098,"is_reserved":false,"is_disabled":false,"rental_uris":{"android":"levelo://app?vid=136f0b43-7a00-456f-bf41-692907c26b65","ios":"levelo://app?vid=136f0b43-7a00-456f-bf41-692907c26b65"},"vehicle_type_id":"4","last_reported":1717452466,"current_range_meters":16000,"station_id":"ce4bgr92rcd13ifvqc6g","pricing_plan_id":"cebpf4jnsgd1na2vs0mg"},{"bike_id":"6bc21bd1-4cf8-4986-8ef4-0422bd6638ef","system_id":"levelo_inurba_marseille","lat":43.312239,"lon":5.368562,"is_reserved":false,"is_disabled":false,"rental_uris":{"android":"levelo://app?vid=6bc21bd1-4cf8-4986-8ef4-0422bd6638ef","ios":"levelo://app?vid=6bc21bd1-4cf8-4986-8ef4-0422bd6638ef"},"vehicle_type_id":"4","last_reported":1717452466,"current_range_meters":18800,"station_id":"ce4bgl92rcd13ifvqbq0","pricing_plan_id":"cebpf4jnsgd1na2vs0mg"},{"bike_id":"662ee1d8-ebd7-4369-845e-a68eda36cb31","system_id":"levelo_inurba_marseille","lat":43.312239,"lon":5.368562,"is_reserved":false,"is_disabled":false,"rental_uris":{"android":"levelo://app?vid=662ee1d8-ebd7-4369-845e-a68eda36cb31","ios":"levelo://app?vid=662ee1d8-ebd7-4369-845e-a68eda36cb31"},"vehicle_type_id":"4","last_reported":1717452466,"current_range_meters":22000,"station_id":"ce4bgl92rcd13ifvqbq0","pricing_plan_id":"cebpf4jnsgd1na2vs0mg"},{"bike_id":"366b71c6-662f-4223-9d1d-a275501e3b8d","system_id":"levelo_inurba_marseille","lat":43.312239,"lon":5.368562,"is_reserved":false,"is_disabled":false,"rental_uris":{"android":"levelo://app?vid=366b71c6-662f-4223-9d1d-a275501e3b8d","ios":"levelo://app?vid=366b71c6-662f-4223-9d1d-a275501e3b8d"},"vehicle_type_id":"4","last_reported":1717452466,"current_range_meters":10400,"station_id":"ce4bgl92rcd13ifvqbq0","pricing_plan_id":"cebpf4jnsgd1na2vs0mg"},{"bike_id":"6d137122-7d1a-4a9f-bda3-43a5f9e7e6e0","system_id":"levelo_inurba_marseille","lat":43.31341,"lon":5.367098,"is_reserved":false,"is_disabled":false,"rental_uris":{"android":"levelo://app?vid=6d137122-7d1a-4a9f-bda3-43a5f9e7e6e0","ios":"levelo://app?vid=6d137122-7d1a-4a9f-bda3-43a5f9e7e6e0"},"vehicle_type_id":"4","last_reported":1717452466,"current_range_meters":10400,"station_id":"ce4bgr92rcd13ifvqc6g","pricing_plan_id":"cebpf4jnsgd1na2vs0mg"},{"bike_id":"fee4d185-d783-48e4-aa88-a2a9e86770b1","system_id":"levelo_inurba_marseille","lat":43.312239,"lon":5.368562,"is_reserved":false,"is_disabled":false,"rental_uris":{"android":"levelo://app?vid=fee4d185-d783-48e4-aa88-a2a9e86770b1","ios":"levelo://app?vid=fee4d185-d783-48e4-aa88-a2a9e86770b1"},"vehicle_type_id":"4","last_reported":1717452466,"current_range_meters":11600,"station_id":"ce4bgl92rcd13ifvqbq0","pricing_plan_id":"cebpf4jnsgd1na2vs0mg"},{"bike_id":"8369182c-43bd-4319-92b6-55225f081a57","system_id":"levelo_inurba_marseille","lat":43.312239,"lon":5.368562,"is_reserved":false,"is_disabled":false,"rental_uris":{"android":"levelo://app?vid=8369182c-43bd-4319-92b6-55225f081a57","ios":"levelo://app?vid=8369182c-43bd-4319-92b6-55225f081a57"},"vehicle_type_id":"4","last_reported":1717452466,"current_range_meters":21200,"station_id":"ce4bgl92rcd13ifvqbq0","pricing_plan_id":"cebpf4jnsgd1na2vs0mg"},{"bike_id":"e60971a2-d542-4262-a6dc-6fa183b180bc","system_id":"levelo_inurba_marseille","lat":43.314821,"lon":5.368521,"is_reserved":false,"is_disabled":false,"rental_uris":{"android":"levelo://app?vid=e60971a2-d542-4262-a6dc-6fa183b180bc","ios":"levelo://app?vid=e60971a2-d542-4262-a6dc-6fa183b180bc"},"vehicle_type_id":"4","last_reported":1717452466,"current_range_meters":19200,"station_id":"","pricing_plan_id":"cebpf4jnsgd1na2vs0mg"},{"bike_id":"621103bb-bcd1-4ad9-940d-f89b36ba56c8","system_id":"levelo_inurba_marseille","lat":43.309076,"lon":5.368465,"is_reserved":false,"is_disabled":false,"rental_uris":{"android":"levelo://app?vid=621103bb-bcd1-4ad9-940d-f89b36ba56c8","ios":"levelo://app?vid=621103bb-bcd1-4ad9-940d-f89b36ba56c8"},"vehicle_type_id":"4","last_reported":1717452466,"current_range_meters":17600,"station_id":"ce4bgn92rcd13ifvqbvg","pricing_plan_id":"cebpf4jnsgd1na2vs0mg"},{"bike_id":"226c9190-0be5-4ef2-9531-18497a7ff15c","system_id":"levelo_inurba_marseille","lat":43.314811,"lon":5.373103,"is_reserved":false,"is_disabled":false,"rental_uris":{"android":"levelo://app?vid=226c9190-0be5-4ef2-9531-18497a7ff15c","ios":"levelo://app?vid=226c9190-0be5-4ef2-9531-18497a7ff15c"},"vehicle_type_id":"4","last_reported":1717452466,"current_range_meters":10800,"station_id":"ce4bgt12rcd13ifvqcd0","pricing_plan_id":"cebpf4jnsgd1na2vs0mg"},{"bike_id":"d40394c1-be78-47b3-bbdd-1ea666304e99","system_id":"levelo_inurba_marseille","lat":43.31487,"lon":5.37308,"is_reserved":false,"is_disabled":false,"rental_uris":{"android":"levelo://app?vid=d40394c1-be78-47b3-bbdd-1ea666304e99","ios":"levelo://app?vid=d40394c1-be78-47b3-bbdd-1ea666304e99"},"vehicle_type_id":"4","last_reported":1717452466,"current_range_meters":4000,"station_id":"ce4bgt12rcd13ifvqcd0","pricing_plan_id":"cebpf4jnsgd1na2vs0mg"},{"bike_id":"eb32aaec-9b7d-4b4c-b6ef-38963d776fd3","system_id":"levelo_inurba_marseille","lat":43.314887,"lon":5.373086,"is_reserved":false,"is_disabled":false,"rental_uris":{"android":"levelo://app?vid=eb32aaec-9b7d-4b4c-b6ef-38963d776fd3","ios":"levelo://app?vid=eb32aaec-9b7d-4b4c-b6ef-38963d776fd3"},"vehicle_type_id":"4","last_reported":1717452466,"current_range_meters":0,"station_id":"ce4bgt12rcd13ifvqcd0","pricing_plan_id":"cebpf4jnsgd1na2vs0mg"},{"bike_id":"7c73c3b2-b3a0-4938-b9a7-6abfc846f34c","system_id":"levelo_inurba_marseille","lat":43.314923,"lon":5.373084,"is_reserved":false,"is_disabled":false,"rental_uris":{"android":"levelo://app?vid=7c73c3b2-b3a0-4938-b9a7-6abfc846f34c","ios":"levelo://app?vid=7c73c3b2-b3a0-4938-b9a7-6abfc846f34c"},"vehicle_type_id":"4","last_reported":1717452466,"current_range_meters":0,"station_id":"ce4bgt12rcd13ifvqcd0","pricing_plan_id":"cebpf4jnsgd1na2vs0mg"},{"bike_id":"31ae7254-bad2-45a4-a4df-2fb382ab6b89","system_id":"levelo_inurba_marseille","lat":43.309034,"lon":5.371783,"is_reserved":false,"is_disabled":false,"rental_uris":{"android":"levelo://app?vid=31ae7254-bad2-45a4-a4df-2fb382ab6b89","ios":"levelo://app?vid=31ae7254-bad2-45a4-a4df-2fb382ab6b89"},"vehicle_type_id":"4","last_reported":1717452466,"current_range_meters":18400,"station_id":"ce4bguh2rcd13ifvqckg","pricing_plan_id":"cebpf4jnsgd1na2vs0mg"},{"bike_id":"3ff0b614-5d87-493c-b8a6-8f2cbc01c509","system_id":"levelo_inurba_marseille","lat":43.309034,"lon":5.371783,"is_reserved":false,"is_disabled":false,"rental_uris":{"android":"levelo://app?vid=3ff0b614-5d87-493c-b8a6-8f2cbc01c509","ios":"levelo://app?vid=3ff0b614-5d87-493c-b8a6-8f2cbc01c509"},"vehicle_type_id":"4","last_reported":1717452466,"current_range_meters":12800,"station_id":"ce4bguh2rcd13ifvqckg","pricing_plan_id":"cebpf4jnsgd1na2vs0mg"},{"bike_id":"5d1b1c5f-6b20-4ed1-b812-53d4a5343769","system_id":"levelo_inurba_marseille","lat":43.309034,"lon":5.371783,"is_reserved":false,"is_disabled":false,"rental_uris":{"android":"levelo://app?vid=5d1b1c5f-6b20-4ed1-b812-53d4a5343769","ios":"levelo://app?vid=5d1b1c5f-6b20-4ed1-b812-53d4a5343769"},"vehicle_type_id":"4","last_reported":1717452466,"current_range_meters":22800,"station_id":"ce4bguh2rcd13ifvqckg","pricing_plan_id":"cebpf4jnsgd1na2vs0mg"},{"bike_id":"51cd17bc-b147-4427-b937-657b73526846","system_id":"levelo_inurba_marseille","lat":43.309034,"lon":5.371783,"is_reserved":false,"is_disabled":false,"rental_uris":{"android":"levelo://app?vid=51cd17bc-b147-4427-b937-657b73526846","ios":"levelo://app?vid=51cd17bc-b147-4427-b937-657b73526846"},"vehicle_type_id":"4","last_reported":1717452466,"current_range_meters":18000,"station_id":"ce4bguh2rcd13ifvqckg","pricing_plan_id":"cebpf4jnsgd1na2vs0mg"},{"bike_id":"08d4fd21-58b1-45a5-bf16-dcb6abaaeed2","system_id":"levelo_inurba_marseille","lat":43.309039,"lon":5.371797,"is_reserved":false,"is_disabled":false,"rental_uris":{"android":"levelo://app?vid=08d4fd21-58b1-45a5-bf16-dcb6abaaeed2","ios":"levelo://app?vid=08d4fd21-58b1-45a5-bf16-dcb6abaaeed2"},"vehicle_type_id":"4","last_reported":1717452466,"current_range_meters":26000,"station_id":"ce4bguh2rcd13ifvqckg","pricing_plan_id":"cebpf4jnsgd1na2vs0mg"},{"bike_id":"176ecf27-4f99-4207-9047-c75d51d7e924","system_id":"levelo_inurba_marseille","lat":43.30537,"lon":5.367345,"is_reserved":false,"is_disabled":false,"rental_uris":{"android":"levelo://app?vid=176ecf27-4f99-4207-9047-c75d51d7e924","ios":"levelo://app?vid=176ecf27-4f99-4207-9047-c75d51d7e924"},"vehicle_type_id":"4","last_reported":1717452466,"current_range_meters":30800,"station_id":"ce4bgrp2rcd13ifvqc9g","pricing_plan_id":"cebpf4jnsgd1na2vs0mg"},{"bike_id":"e2d6a526-0a49-4ee0-b11c-e6ef90260187","system_id":"levelo_inurba_marseille","lat":43.30614,"lon":5.37218,"is_reserved":false,"is_disabled":false,"rental_uris":{"android":"levelo://app?vid=e2d6a526-0a49-4ee0-b11c-e6ef90260187","ios":"levelo://app?vid=e2d6a526-0a49-4ee0-b11c-e6ef90260187"},"vehicle_type_id":"4","last_reported":1717452466,"current_range_meters":4400,"station_id":"ce4bgqh2rcd13ifvqc4g","pricing_plan_id":"cebpf4jnsgd1na2vs0mg"},{"bike_id":"0632ae50-6537-456b-a50d-d710b6ec4b2d","system_id":"levelo_inurba_marseille","lat":43.305989,"lon":5.37225,"is_reserved":false,"is_disabled":false,"rental_uris":{"android":"levelo://app?vid=0632ae50-6537-456b-a50d-d710b6ec4b2d","ios":"levelo://app?vid=0632ae50-6537-456b-a50d-d710b6ec4b2d"},"vehicle_type_id":"4","last_reported":1717452466,"current_range_meters":3600,"station_id":"ce4bgqh2rcd13ifvqc4g","pricing_plan_id":"cebpf4jnsgd1na2vs0mg"},{"bike_id":"76162bad-7f53-42db-8f03-96e365c672fa","system_id":"levelo_inurba_marseille","lat":43.305989,"lon":5.37225,"is_reserved":false,"is_disabled":false,"rental_uris":{"android":"levelo://app?vid=76162bad-7f53-42db-8f03-96e365c672fa","ios":"levelo://app?vid=76162bad-7f53-42db-8f03-96e365c672fa"},"vehicle_type_id":"4","last_reported":1717452466,"current_range_meters":28000,"station_id":"ce4bgqh2rcd13ifvqc4g","pricing_plan_id":"cebpf4jnsgd1na2vs0mg"},{"bike_id":"878e6d86-9750-4deb-aaac-fa95e09e0f92","system_id":"levelo_inurba_marseille","lat":43.305989,"lon":5.37225,"is_reserved":false,"is_disabled":false,"rental_uris":{"android":"levelo://app?vid=878e6d86-9750-4deb-aaac-fa95e09e0f92","ios":"levelo://app?vid=878e6d86-9750-4deb-aaac-fa95e09e0f92"},"vehicle_type_id":"4","last_reported":1717452466,"current_range_meters":24800,"station_id":"ce4bgqh2rcd13ifvqc4g","pricing_plan_id":"cebpf4jnsgd1na2vs0mg"},{"bike_id":"5be70f81-d642-47f1-936b-f53e7da378ac","system_id":"levelo_inurba_marseille","lat":43.305368,"lon":5.367343,"is_reserved":false,"is_disabled":false,"rental_uris":{"android":"levelo://app?vid=5be70f81-d642-47f1-936b-f53e7da378ac","ios":"levelo://app?vid=5be70f81-d642-47f1-936b-f53e7da378ac"},"vehicle_type_id":"4","last_reported":1717452466,"current_range_meters":1600,"station_id":"ce4bgrp2rcd13ifvqc9g","pricing_plan_id":"cebpf4jnsgd1na2vs0mg"},{"bike_id":"cba3f114-f322-431b-8c1c-f51cf6970d7e","system_id":"levelo_inurba_marseille","lat":43.30602,"lon":5.37246,"is_reserved":false,"is_disabled":false,"rental_uris":{"android":"levelo://app?vid=cba3f114-f322-431b-8c1c-f51cf6970d7e","ios":"levelo://app?vid=cba3f114-f322-431b-8c1c-f51cf6970d7e"},"vehicle_type_id":"4","last_reported":1717452466,"current_range_meters":22800,"station_id":"ce4bgqh2rcd13ifvqc4g","pricing_plan_id":"cebpf4jnsgd1na2vs0mg"},{"bike_id":"6e5629d2-8563-46a0-a3bd-d0021ff5dc21","system_id":"levelo_inurba_marseille","lat":43.311131,"lon":5.377651,"is_reserved":false,"is_disabled":false,"rental_uris":{"android":"levelo://app?vid=6e5629d2-8563-46a0-a3bd-d0021ff5dc21","ios":"levelo://app?vid=6e5629d2-8563-46a0-a3bd-d0021ff5dc21"},"vehicle_type_id":"4","last_reported":1717452466,"current_range_meters":4000,"station_id":"ce4bgt92rcd13ifvqcg0","pricing_plan_id":"cebpf4jnsgd1na2vs0mg"},{"bike_id":"5004d121-ba9b-4ae1-a82a-c2c4db6a862f","system_id":"levelo_inurba_marseille","lat":43.311131,"lon":5.377651,"is_reserved":false,"is_disabled":false,"rental_uris":{"android":"levelo://app?vid=5004d121-ba9b-4ae1-a82a-c2c4db6a862f","ios":"levelo://app?vid=5004d121-ba9b-4ae1-a82a-c2c4db6a862f"},"vehicle_type_id":"4","last_reported":1717452466,"current_range_meters":30000,"station_id":"ce4bgt92rcd13ifvqcg0","pricing_plan_id":"cebpf4jnsgd1na2vs0mg"},{"bike_id":"b0260882-7db5-4c3f-8c62-d170dfd3aac9","system_id":"levelo_inurba_marseille","lat":43.311125,"lon":5.377624,"is_reserved":false,"is_disabled":false,"rental_uris":{"android":"levelo://app?vid=b0260882-7db5-4c3f-8c62-d170dfd3aac9","ios":"levelo://app?vid=b0260882-7db5-4c3f-8c62-d170dfd3aac9"},"vehicle_type_id":"4","last_reported":1717452466,"current_range_meters":20000,"station_id":"ce4bgt92rcd13ifvqcg0","pricing_plan_id":"cebpf4jnsgd1na2vs0mg"},{"bike_id":"cc20abab-1165-46fc-a40d-0684d637f998","system_id":"levelo_inurba_marseille","lat":43.311131,"lon":5.377651,"is_reserved":false,"is_disabled":false,"rental_uris":{"android":"levelo://app?vid=cc20abab-1165-46fc-a40d-0684d637f998","ios":"levelo://app?vid=cc20abab-1165-46fc-a40d-0684d637f998"},"vehicle_type_id":"4","last_reported":1717452466,"current_range_meters":19600,"station_id":"ce4bgt92rcd13ifvqcg0","pricing_plan_id":"cebpf4jnsgd1na2vs0mg"},{"bike_id":"f7b176e3-c615-4fb4-ac0a-90ab9523f499","system_id":"levelo_inurba_marseille","lat":43.314811,"lon":5.373104,"is_reserved":false,"is_disabled":false,"rental_uris":{"android":"levelo://app?vid=f7b176e3-c615-4fb4-ac0a-90ab9523f499","ios":"levelo://app?vid=f7b176e3-c615-4fb4-ac0a-90ab9523f499"},"vehicle_type_id":"4","last_reported":1717452466,"current_range_meters":10000,"station_id":"ce4bgt12rcd13ifvqcd0","pricing_plan_id":"cebpf4jnsgd1na2vs0mg"},{"bike_id":"3c46bb72-49d4-49ec-9d46-de941ae09c8b","system_id":"levelo_inurba_marseille","lat":43.307945,"lon":5.376487,"is_reserved":false,"is_disabled":false,"rental_uris":{"android":"levelo://app?vid=3c46bb72-49d4-49ec-9d46-de941ae09c8b","ios":"levelo://app?vid=3c46bb72-49d4-49ec-9d46-de941ae09c8b"},"vehicle_type_id":"4","last_reported":1717452466,"current_range_meters":24400,"station_id":"ce4bgv92rcd13ifvqcq0","pricing_plan_id":"cebpf4jnsgd1na2vs0mg"},{"bike_id":"fab39f76-2982-4307-b9b1-d661fc5d80e4","system_id":"levelo_inurba_marseille","lat":43.307945,"lon":5.376487,"is_reserved":false,"is_disabled":false,"rental_uris":{"android":"levelo://app?vid=fab39f76-2982-4307-b9b1-d661fc5d80e4","ios":"levelo://app?vid=fab39f76-2982-4307-b9b1-d661fc5d80e4"},"vehicle_type_id":"4","last_reported":1717452466,"current_range_meters":21600,"station_id":"ce4bgv92rcd13ifvqcq0","pricing_plan_id":"cebpf4jnsgd1na2vs0mg"},{"bike_id":"cc07071e-5dbc-4025-a28f-397269fa4497","system_id":"levelo_inurba_marseille","lat":43.307945,"lon":5.376487,"is_reserved":false,"is_disabled":false,"rental_uris":{"android":"levelo://app?vid=cc07071e-5dbc-4025-a28f-397269fa4497","ios":"levelo://app?vid=cc07071e-5dbc-4025-a28f-397269fa4497"},"vehicle_type_id":"4","last_reported":1717452466,"current_range_meters":31200,"station_id":"ce4bgv92rcd13ifvqcq0","pricing_plan_id":"cebpf4jnsgd1na2vs0mg"},{"bike_id":"b9c9bd62-b910-48b8-8cd3-cb38dfb4977b","system_id":"levelo_inurba_marseille","lat":43.307945,"lon":5.376487,"is_reserved":false,"is_disabled":false,"rental_uris":{"android":"levelo://app?vid=b9c9bd62-b910-48b8-8cd3-cb38dfb4977b","ios":"levelo://app?vid=b9c9bd62-b910-48b8-8cd3-cb38dfb4977b"},"vehicle_type_id":"4","last_reported":1717452466,"current_range_meters":7200,"station_id":"ce4bgv92rcd13ifvqcq0","pricing_plan_id":"cebpf4jnsgd1na2vs0mg"},{"bike_id":"efe66673-da51-49f5-9e95-a1195911a8d3","system_id":"levelo_inurba_marseille","lat":43.307945,"lon":5.376487,"is_reserved":false,"is_disabled":false,"rental_uris":{"android":"levelo://app?vid=efe66673-da51-49f5-9e95-a1195911a8d3","ios":"levelo://app?vid=efe66673-da51-49f5-9e95-a1195911a8d3"},"vehicle_type_id":"4","last_reported":1717452466,"current_range_meters":20800,"station_id":"ce4bgv92rcd13ifvqcq0","pricing_plan_id":"cebpf4jnsgd1na2vs0mg"},{"bike_id":"b96ee3f6-792a-4a8c-8032-dc7b1fc701d9","system_id":"levelo_inurba_marseille","lat":43.307945,"lon":5.376487,"is_reserved":false,"is_disabled":false,"rental_uris":{"android":"levelo://app?vid=b96ee3f6-792a-4a8c-8032-dc7b1fc701d9","ios":"levelo://app?vid=b96ee3f6-792a-4a8c-8032-dc7b1fc701d9"},"vehicle_type_id":"4","last_reported":1717452466,"current_range_meters":25200,"station_id":"ce4bgv92rcd13ifvqcq0","pricing_plan_id":"cebpf4jnsgd1na2vs0mg"},{"bike_id":"4ef34bdd-125a-41e6-8a6d-c1688d340d8d","system_id":"levelo_inurba_marseille","lat":43.317075,"lon":5.377367,"is_reserved":false,"is_disabled":false,"rental_uris":{"android":"levelo://app?vid=4ef34bdd-125a-41e6-8a6d-c1688d340d8d","ios":"levelo://app?vid=4ef34bdd-125a-41e6-8a6d-c1688d340d8d"},"vehicle_type_id":"4","last_reported":1717452466,"current_range_meters":14800,"station_id":"ce4bgth2rcd13ifvqch0","pricing_plan_id":"cebpf4jnsgd1na2vs0mg"},{"bike_id":"9d5eb618-fecb-4148-b36b-f3453e163da7","system_id":"levelo_inurba_marseille","lat":43.311125,"lon":5.377624,"is_reserved":false,"is_disabled":false,"rental_uris":{"android":"levelo://app?vid=9d5eb618-fecb-4148-b36b-f3453e163da7","ios":"levelo://app?vid=9d5eb618-fecb-4148-b36b-f3453e163da7"},"vehicle_type_id":"4","last_reported":1717452466,"current_range_meters":22800,"station_id":"ce4bgt92rcd13ifvqcg0","pricing_plan_id":"cebpf4jnsgd1na2vs0mg"},{"bike_id":"84360108-89ae-4bef-aa1c-8591ba2c3691","system_id":"levelo_inurba_marseille","lat":43.317075,"lon":5.377367,"is_reserved":false,"is_disabled":false,"rental_uris":{"android":"levelo://app?vid=84360108-89ae-4bef-aa1c-8591ba2c3691","ios":"levelo://app?vid=84360108-89ae-4bef-aa1c-8591ba2c3691"},"vehicle_type_id":"4","last_reported":1717452466,"current_range_meters":11600,"station_id":"ce4bgth2rcd13ifvqch0","pricing_plan_id":"cebpf4jnsgd1na2vs0mg"},{"bike_id":"63b1a303-6db0-4c0e-a30f-ab2843d13f85","system_id":"levelo_inurba_marseille","lat":43.317048,"lon":5.377466,"is_reserved":false,"is_disabled":false,"rental_uris":{"android":"levelo://app?vid=63b1a303-6db0-4c0e-a30f-ab2843d13f85","ios":"levelo://app?vid=63b1a303-6db0-4c0e-a30f-ab2843d13f85"},"vehicle_type_id":"4","last_reported":1717452466,"current_range_meters":31200,"station_id":"ce4bgth2rcd13ifvqch0","pricing_plan_id":"cebpf4jnsgd1na2vs0mg"},{"bike_id":"521822af-f024-4092-a8e6-ea3cc84b7e28","system_id":"levelo_inurba_marseille","lat":43.317075,"lon":5.377367,"is_reserved":false,"is_disabled":false,"rental_uris":{"android":"levelo://app?vid=521822af-f024-4092-a8e6-ea3cc84b7e28","ios":"levelo://app?vid=521822af-f024-4092-a8e6-ea3cc84b7e28"},"vehicle_type_id":"4","last_reported":1717452466,"current_range_meters":9200,"station_id":"ce4bgth2rcd13ifvqch0","pricing_plan_id":"cebpf4jnsgd1na2vs0mg"},{"bike_id":"283499ba-19c4-4768-a9a4-5d6f46c97267","system_id":"levelo_inurba_marseille","lat":43.317075,"lon":5.377367,"is_reserved":false,"is_disabled":false,"rental_uris":{"android":"levelo://app?vid=283499ba-19c4-4768-a9a4-5d6f46c97267","ios":"levelo://app?vid=283499ba-19c4-4768-a9a4-5d6f46c97267"},"vehicle_type_id":"4","last_reported":1717452466,"current_range_meters":22400,"station_id":"ce4bgth2rcd13ifvqch0","pricing_plan_id":"cebpf4jnsgd1na2vs0mg"},{"bike_id":"27425302-dc9e-4ad9-b70c-e8cf18103468","system_id":"levelo_inurba_marseille","lat":43.31714,"lon":5.37757,"is_reserved":false,"is_disabled":false,"rental_uris":{"android":"levelo://app?vid=27425302-dc9e-4ad9-b70c-e8cf18103468","ios":"levelo://app?vid=27425302-dc9e-4ad9-b70c-e8cf18103468"},"vehicle_type_id":"4","last_reported":1717452466,"current_range_meters":11600,"station_id":"ce4bgth2rcd13ifvqch0","pricing_plan_id":"cebpf4jnsgd1na2vs0mg"},{"bike_id":"aa4b759a-dee0-44d1-b402-053787d562ce","system_id":"levelo_inurba_marseille","lat":43.308012,"lon":5.381511,"is_reserved":false,"is_disabled":false,"rental_uris":{"android":"levelo://app?vid=aa4b759a-dee0-44d1-b402-053787d562ce","ios":"levelo://app?vid=aa4b759a-dee0-44d1-b402-053787d562ce"},"vehicle_type_id":"4","last_reported":1717452466,"current_range_meters":21200,"station_id":"ce4bgt12rcd13ifvqce0","pricing_plan_id":"cebpf4jnsgd1na2vs0mg"},{"bike_id":"688305a3-3cc9-49b8-8df6-918bfa13635b","system_id":"levelo_inurba_marseille","lat":43.315289,"lon":5.380349,"is_reserved":false,"is_disabled":false,"rental_uris":{"android":"levelo://app?vid=688305a3-3cc9-49b8-8df6-918bfa13635b","ios":"levelo://app?vid=688305a3-3cc9-49b8-8df6-918bfa13635b"},"vehicle_type_id":"4","last_reported":1717452466,"current_range_meters":23200,"station_id":"ce4bhsp2rcd13ifvqi50","pricing_plan_id":"cebpf4jnsgd1na2vs0mg"},{"bike_id":"e4bb42d2-4578-4595-b375-7d462cef9547","system_id":"levelo_inurba_marseille","lat":43.309708,"lon":5.379644,"is_reserved":false,"is_disabled":false,"rental_uris":{"android":"levelo://app?vid=e4bb42d2-4578-4595-b375-7d462cef9547","ios":"levelo://app?vid=e4bb42d2-4578-4595-b375-7d462cef9547"},"vehicle_type_id":"4","last_reported":1717452466,"current_range_meters":16000,"station_id":"","pricing_plan_id":"cebpf4jnsgd1na2vs0mg"},{"bike_id":"5401ff84-06c4-4c94-b76e-411da2f5ffe9","system_id":"levelo_inurba_marseille","lat":43.321969,"lon":5.371204,"is_reserved":false,"is_disabled":false,"rental_uris":{"android":"levelo://app?vid=5401ff84-06c4-4c94-b76e-411da2f5ffe9","ios":"levelo://app?vid=5401ff84-06c4-4c94-b76e-411da2f5ffe9"},"vehicle_type_id":"4","last_reported":1717452466,"current_range_meters":14400,"station_id":"","pricing_plan_id":"cebpf4jnsgd1na2vs0mg"},{"bike_id":"68ee4b03-52a7-4d2c-a65d-4815dc8f09bb","system_id":"levelo_inurba_marseille","lat":43.315293,"lon":5.380349,"is_reserved":false,"is_disabled":false,"rental_uris":{"android":"levelo://app?vid=68ee4b03-52a7-4d2c-a65d-4815dc8f09bb","ios":"levelo://app?vid=68ee4b03-52a7-4d2c-a65d-4815dc8f09bb"},"vehicle_type_id":"4","last_reported":1717452466,"current_range_meters":21600,"station_id":"ce4bhsp2rcd13ifvqi50","pricing_plan_id":"cebpf4jnsgd1na2vs0mg"},{"bike_id":"9aab337a-d2e4-4915-9673-8a19cae261bd","system_id":"levelo_inurba_marseille","lat":43.315289,"lon":5.380349,"is_reserved":false,"is_disabled":false,"rental_uris":{"android":"levelo://app?vid=9aab337a-d2e4-4915-9673-8a19cae261bd","ios":"levelo://app?vid=9aab337a-d2e4-4915-9673-8a19cae261bd"},"vehicle_type_id":"4","last_reported":1717452466,"current_range_meters":22400,"station_id":"ce4bhsp2rcd13ifvqi50","pricing_plan_id":"cebpf4jnsgd1na2vs0mg"},{"bike_id":"d2f5a31d-7570-4c66-a922-f6042c7ce9cb","system_id":"levelo_inurba_marseille","lat":43.315293,"lon":5.380349,"is_reserved":false,"is_disabled":false,"rental_uris":{"android":"levelo://app?vid=d2f5a31d-7570-4c66-a922-f6042c7ce9cb","ios":"levelo://app?vid=d2f5a31d-7570-4c66-a922-f6042c7ce9cb"},"vehicle_type_id":"4","last_reported":1717452466,"current_range_meters":31600,"station_id":"ce4bhsp2rcd13ifvqi50","pricing_plan_id":"cebpf4jnsgd1na2vs0mg"},{"bike_id":"b80fd59f-63bf-4816-871a-c9116cf6f032","system_id":"levelo_inurba_marseille","lat":43.301939,"lon":5.366286,"is_reserved":false,"is_disabled":false,"rental_uris":{"android":"levelo://app?vid=b80fd59f-63bf-4816-871a-c9116cf6f032","ios":"levelo://app?vid=b80fd59f-63bf-4816-871a-c9116cf6f032"},"vehicle_type_id":"4","last_reported":1717452466,"current_range_meters":16400,"station_id":"ce4bgrh2rcd13ifvqc8g","pricing_plan_id":"cebpf4jnsgd1na2vs0mg"},{"bike_id":"a89e6527-431e-4946-be38-87f428da68e6","system_id":"levelo_inurba_marseille","lat":43.301939,"lon":5.366286,"is_reserved":false,"is_disabled":false,"rental_uris":{"android":"levelo://app?vid=a89e6527-431e-4946-be38-87f428da68e6","ios":"levelo://app?vid=a89e6527-431e-4946-be38-87f428da68e6"},"vehicle_type_id":"4","last_reported":1717452466,"current_range_meters":22000,"station_id":"ce4bgrh2rcd13ifvqc8g","pricing_plan_id":"cebpf4jnsgd1na2vs0mg"},{"bike_id":"674e1699-c672-4f90-b352-96f63d17df89","system_id":"levelo_inurba_marseille","lat":43.301939,"lon":5.366286,"is_reserved":false,"is_disabled":false,"rental_uris":{"android":"levelo://app?vid=674e1699-c672-4f90-b352-96f63d17df89","ios":"levelo://app?vid=674e1699-c672-4f90-b352-96f63d17df89"},"vehicle_type_id":"4","last_reported":1717452466,"current_range_meters":18000,"station_id":"ce4bgrh2rcd13ifvqc8g","pricing_plan_id":"cebpf4jnsgd1na2vs0mg"},{"bike_id":"86bf0d3a-f685-4401-bdf9-84402a96953b","system_id":"levelo_inurba_marseille","lat":43.308012,"lon":5.381511,"is_reserved":false,"is_disabled":false,"rental_uris":{"android":"levelo://app?vid=86bf0d3a-f685-4401-bdf9-84402a96953b","ios":"levelo://app?vid=86bf0d3a-f685-4401-bdf9-84402a96953b"},"vehicle_type_id":"4","last_reported":1717452466,"current_range_meters":12400,"station_id":"ce4bgt12rcd13ifvqce0","pricing_plan_id":"cebpf4jnsgd1na2vs0mg"},{"bike_id":"d775cd53-82ce-4ea6-89d0-f905e08fca69","system_id":"levelo_inurba_marseille","lat":43.308012,"lon":5.381511,"is_reserved":false,"is_disabled":false,"rental_uris":{"android":"levelo://app?vid=d775cd53-82ce-4ea6-89d0-f905e08fca69","ios":"levelo://app?vid=d775cd53-82ce-4ea6-89d0-f905e08fca69"},"vehicle_type_id":"4","last_reported":1717452466,"current_range_meters":24000,"station_id":"ce4bgt12rcd13ifvqce0","pricing_plan_id":"cebpf4jnsgd1na2vs0mg"},{"bike_id":"2b181712-9899-4a65-8cf9-98d80f53ef6c","system_id":"levelo_inurba_marseille","lat":43.308012,"lon":5.381511,"is_reserved":false,"is_disabled":false,"rental_uris":{"android":"levelo://app?vid=2b181712-9899-4a65-8cf9-98d80f53ef6c","ios":"levelo://app?vid=2b181712-9899-4a65-8cf9-98d80f53ef6c"},"vehicle_type_id":"4","last_reported":1717452466,"current_range_meters":31600,"station_id":"ce4bgt12rcd13ifvqce0","pricing_plan_id":"cebpf4jnsgd1na2vs0mg"},{"bike_id":"7ed9f8e2-c9f3-441a-861d-49c160f18845","system_id":"levelo_inurba_marseille","lat":43.308012,"lon":5.381511,"is_reserved":false,"is_disabled":false,"rental_uris":{"android":"levelo://app?vid=7ed9f8e2-c9f3-441a-861d-49c160f18845","ios":"levelo://app?vid=7ed9f8e2-c9f3-441a-861d-49c160f18845"},"vehicle_type_id":"4","last_reported":1717452466,"current_range_meters":26000,"station_id":"ce4bgt12rcd13ifvqce0","pricing_plan_id":"cebpf4jnsgd1na2vs0mg"},{"bike_id":"b30c12d0-d769-498d-9413-7303f9ebba85","system_id":"levelo_inurba_marseille","lat":43.308012,"lon":5.381511,"is_reserved":false,"is_disabled":false,"rental_uris":{"android":"levelo://app?vid=b30c12d0-d769-498d-9413-7303f9ebba85","ios":"levelo://app?vid=b30c12d0-d769-498d-9413-7303f9ebba85"},"vehicle_type_id":"4","last_reported":1717452466,"current_range_meters":31600,"station_id":"ce4bgt12rcd13ifvqce0","pricing_plan_id":"cebpf4jnsgd1na2vs0mg"},{"bike_id":"a4b95a5d-b628-411c-ab6b-cad0604b7aa3","system_id":"levelo_inurba_marseille","lat":43.308012,"lon":5.381511,"is_reserved":false,"is_disabled":false,"rental_uris":{"android":"levelo://app?vid=a4b95a5d-b628-411c-ab6b-cad0604b7aa3","ios":"levelo://app?vid=a4b95a5d-b628-411c-ab6b-cad0604b7aa3"},"vehicle_type_id":"4","last_reported":1717452466,"current_range_meters":29200,"station_id":"ce4bgt12rcd13ifvqce0","pricing_plan_id":"cebpf4jnsgd1na2vs0mg"},{"bike_id":"e931979f-15a9-483a-acb1-932ff79dbfe8","system_id":"levelo_inurba_marseille","lat":43.308012,"lon":5.381511,"is_reserved":false,"is_disabled":false,"rental_uris":{"android":"levelo://app?vid=e931979f-15a9-483a-acb1-932ff79dbfe8","ios":"levelo://app?vid=e931979f-15a9-483a-acb1-932ff79dbfe8"},"vehicle_type_id":"4","last_reported":1717452466,"current_range_meters":29600,"station_id":"ce4bgt12rcd13ifvqce0","pricing_plan_id":"cebpf4jnsgd1na2vs0mg"},{"bike_id":"786040aa-73d6-4397-ac7a-cc2624f1585a","system_id":"levelo_inurba_marseille","lat":43.308012,"lon":5.381511,"is_reserved":false,"is_disabled":false,"rental_uris":{"android":"levelo://app?vid=786040aa-73d6-4397-ac7a-cc2624f1585a","ios":"levelo://app?vid=786040aa-73d6-4397-ac7a-cc2624f1585a"},"vehicle_type_id":"4","last_reported":1717452466,"current_range_meters":29200,"station_id":"ce4bgt12rcd13ifvqce0","pricing_plan_id":"cebpf4jnsgd1na2vs0mg"},{"bike_id":"c2f3ead4-11fd-40ef-95c7-46d55d20bf30","system_id":"levelo_inurba_marseille","lat":43.308012,"lon":5.381511,"is_reserved":false,"is_disabled":false,"rental_uris":{"android":"levelo://app?vid=c2f3ead4-11fd-40ef-95c7-46d55d20bf30","ios":"levelo://app?vid=c2f3ead4-11fd-40ef-95c7-46d55d20bf30"},"vehicle_type_id":"4","last_reported":1717452466,"current_range_meters":4400,"station_id":"ce4bgt12rcd13ifvqce0","pricing_plan_id":"cebpf4jnsgd1na2vs0mg"},{"bike_id":"9c29f586-a767-4c75-bf65-19f4adcf39c9","system_id":"levelo_inurba_marseille","lat":43.324771,"lon":5.36557,"is_reserved":false,"is_disabled":false,"rental_uris":{"android":"levelo://app?vid=9c29f586-a767-4c75-bf65-19f4adcf39c9","ios":"levelo://app?vid=9c29f586-a767-4c75-bf65-19f4adcf39c9"},"vehicle_type_id":"4","last_reported":1717452466,"current_range_meters":2400,"station_id":"ce4bhs12rcd13ifvqhvg","pricing_plan_id":"cebpf4jnsgd1na2vs0mg"},{"bike_id":"5d27c37e-1ec6-4750-86ec-40a8ba09bed3","system_id":"levelo_inurba_marseille","lat":43.310804,"lon":5.38359,"is_reserved":false,"is_disabled":false,"rental_uris":{"android":"levelo://app?vid=5d27c37e-1ec6-4750-86ec-40a8ba09bed3","ios":"levelo://app?vid=5d27c37e-1ec6-4750-86ec-40a8ba09bed3"},"vehicle_type_id":"4","last_reported":1717452466,"current_range_meters":400,"station_id":"ce4bgv92rcd13ifvqcr0","pricing_plan_id":"cebpf4jnsgd1na2vs0mg"},{"bike_id":"24f9eb4b-2076-4556-a713-cb75886be5a9","system_id":"levelo_inurba_marseille","lat":43.315293,"lon":5.380349,"is_reserved":false,"is_disabled":false,"rental_uris":{"android":"levelo://app?vid=24f9eb4b-2076-4556-a713-cb75886be5a9","ios":"levelo://app?vid=24f9eb4b-2076-4556-a713-cb75886be5a9"},"vehicle_type_id":"4","last_reported":1717452466,"current_range_meters":22800,"station_id":"ce4bhsp2rcd13ifvqi50","pricing_plan_id":"cebpf4jnsgd1na2vs0mg"},{"bike_id":"91dd91ef-c7ae-4a90-b7c0-8ad246f5a19b","system_id":"levelo_inurba_marseille","lat":43.304606,"lon":5.379026,"is_reserved":false,"is_disabled":false,"rental_uris":{"android":"levelo://app?vid=91dd91ef-c7ae-4a90-b7c0-8ad246f5a19b","ios":"levelo://app?vid=91dd91ef-c7ae-4a90-b7c0-8ad246f5a19b"},"vehicle_type_id":"4","last_reported":1717452466,"current_range_meters":12000,"station_id":"ce4bgup2rcd13ifvqcn0","pricing_plan_id":"cebpf4jnsgd1na2vs0mg"},{"bike_id":"013912dd-0984-4e8e-893b-2ea1173aa5ca","system_id":"levelo_inurba_marseille","lat":43.304606,"lon":5.379026,"is_reserved":false,"is_disabled":false,"rental_uris":{"android":"levelo://app?vid=013912dd-0984-4e8e-893b-2ea1173aa5ca","ios":"levelo://app?vid=013912dd-0984-4e8e-893b-2ea1173aa5ca"},"vehicle_type_id":"4","last_reported":1717452466,"current_range_meters":26800,"station_id":"ce4bgup2rcd13ifvqcn0","pricing_plan_id":"cebpf4jnsgd1na2vs0mg"},{"bike_id":"bbcacfa4-f607-405d-800e-97d4c522ea60","system_id":"levelo_inurba_marseille","lat":43.324771,"lon":5.36557,"is_reserved":false,"is_disabled":false,"rental_uris":{"android":"levelo://app?vid=bbcacfa4-f607-405d-800e-97d4c522ea60","ios":"levelo://app?vid=bbcacfa4-f607-405d-800e-97d4c522ea60"},"vehicle_type_id":"4","last_reported":1717452466,"current_range_meters":0,"station_id":"ce4bhs12rcd13ifvqhvg","pricing_plan_id":"cebpf4jnsgd1na2vs0mg"},{"bike_id":"e3ac5f37-7ba8-4919-8b71-814a73b0e6ae","system_id":"levelo_inurba_marseille","lat":43.311722,"lon":5.387247,"is_reserved":false,"is_disabled":false,"rental_uris":{"android":"levelo://app?vid=e3ac5f37-7ba8-4919-8b71-814a73b0e6ae","ios":"levelo://app?vid=e3ac5f37-7ba8-4919-8b71-814a73b0e6ae"},"vehicle_type_id":"4","last_reported":1717452466,"current_range_meters":13200,"station_id":"ce4bgv12rcd13ifvqcp0","pricing_plan_id":"cebpf4jnsgd1na2vs0mg"},{"bike_id":"c765b1a8-4227-493c-9d24-f62b5e96f9b6","system_id":"levelo_inurba_marseille","lat":43.324771,"lon":5.36557,"is_reserved":false,"is_disabled":false,"rental_uris":{"android":"levelo://app?vid=c765b1a8-4227-493c-9d24-f62b5e96f9b6","ios":"levelo://app?vid=c765b1a8-4227-493c-9d24-f62b5e96f9b6"},"vehicle_type_id":"4","last_reported":1717452466,"current_range_meters":20800,"station_id":"ce4bhs12rcd13ifvqhvg","pricing_plan_id":"cebpf4jnsgd1na2vs0mg"},{"bike_id":"ce9552fb-18a1-4d20-82ee-b669fd743647","system_id":"levelo_inurba_marseille","lat":43.30445,"lon":5.37894,"is_reserved":false,"is_disabled":false,"rental_uris":{"android":"levelo://app?vid=ce9552fb-18a1-4d20-82ee-b669fd743647","ios":"levelo://app?vid=ce9552fb-18a1-4d20-82ee-b669fd743647"},"vehicle_type_id":"4","last_reported":1717452466,"current_range_meters":31200,"station_id":"ce4bgup2rcd13ifvqcn0","pricing_plan_id":"cebpf4jnsgd1na2vs0mg"},{"bike_id":"bb2803b7-8b36-46dc-9538-f19ae1c70c79","system_id":"levelo_inurba_marseille","lat":43.32477,"lon":5.36561,"is_reserved":false,"is_disabled":false,"rental_uris":{"android":"levelo://app?vid=bb2803b7-8b36-46dc-9538-f19ae1c70c79","ios":"levelo://app?vid=bb2803b7-8b36-46dc-9538-f19ae1c70c79"},"vehicle_type_id":"4","last_reported":1717452466,"current_range_meters":6800,"station_id":"ce4bhs12rcd13ifvqhvg","pricing_plan_id":"cebpf4jnsgd1na2vs0mg"},{"bike_id":"2e9688a8-0e88-40d3-ad32-e192b82410a1","system_id":"levelo_inurba_marseille","lat":43.3248,"lon":5.36577,"is_reserved":false,"is_disabled":false,"rental_uris":{"android":"levelo://app?vid=2e9688a8-0e88-40d3-ad32-e192b82410a1","ios":"levelo://app?vid=2e9688a8-0e88-40d3-ad32-e192b82410a1"},"vehicle_type_id":"4","last_reported":1717452466,"current_range_meters":31200,"station_id":"ce4bhs12rcd13ifvqhvg","pricing_plan_id":"cebpf4jnsgd1na2vs0mg"},{"bike_id":"83eda7ba-7b76-424a-a2da-dccd41807d1d","system_id":"levelo_inurba_marseille","lat":43.324771,"lon":5.36557,"is_reserved":false,"is_disabled":false,"rental_uris":{"android":"levelo://app?vid=83eda7ba-7b76-424a-a2da-dccd41807d1d","ios":"levelo://app?vid=83eda7ba-7b76-424a-a2da-dccd41807d1d"},"vehicle_type_id":"4","last_reported":1717452466,"current_range_meters":19200,"station_id":"ce4bhs12rcd13ifvqhvg","pricing_plan_id":"cebpf4jnsgd1na2vs0mg"},{"bike_id":"dd60bb60-1e9d-4372-8c77-0b2c635c0f44","system_id":"levelo_inurba_marseille","lat":43.324834,"lon":5.365761,"is_reserved":false,"is_disabled":false,"rental_uris":{"android":"levelo://app?vid=dd60bb60-1e9d-4372-8c77-0b2c635c0f44","ios":"levelo://app?vid=dd60bb60-1e9d-4372-8c77-0b2c635c0f44"},"vehicle_type_id":"4","last_reported":1717452466,"current_range_meters":30800,"station_id":"ce4bhs12rcd13ifvqhvg","pricing_plan_id":"cebpf4jnsgd1na2vs0mg"},{"bike_id":"5a0e4850-f4ce-4132-bb56-09bfd627d2a3","system_id":"levelo_inurba_marseille","lat":43.324771,"lon":5.36557,"is_reserved":false,"is_disabled":false,"rental_uris":{"android":"levelo://app?vid=5a0e4850-f4ce-4132-bb56-09bfd627d2a3","ios":"levelo://app?vid=5a0e4850-f4ce-4132-bb56-09bfd627d2a3"},"vehicle_type_id":"4","last_reported":1717452466,"current_range_meters":31200,"station_id":"ce4bhs12rcd13ifvqhvg","pricing_plan_id":"cebpf4jnsgd1na2vs0mg"},{"bike_id":"a66f1ef8-e565-4629-a8c0-8f65e5cdb9c5","system_id":"levelo_inurba_marseille","lat":43.324771,"lon":5.36557,"is_reserved":false,"is_disabled":false,"rental_uris":{"android":"levelo://app?vid=a66f1ef8-e565-4629-a8c0-8f65e5cdb9c5","ios":"levelo://app?vid=a66f1ef8-e565-4629-a8c0-8f65e5cdb9c5"},"vehicle_type_id":"4","last_reported":1717452466,"current_range_meters":6800,"station_id":"ce4bhs12rcd13ifvqhvg","pricing_plan_id":"cebpf4jnsgd1na2vs0mg"},{"bike_id":"227a0678-8029-4836-b641-ef5768b0f466","system_id":"levelo_inurba_marseille","lat":43.324771,"lon":5.36557,"is_reserved":false,"is_disabled":false,"rental_uris":{"android":"levelo://app?vid=227a0678-8029-4836-b641-ef5768b0f466","ios":"levelo://app?vid=227a0678-8029-4836-b641-ef5768b0f466"},"vehicle_type_id":"4","last_reported":1717452466,"current_range_meters":10800,"station_id":"ce4bhs12rcd13ifvqhvg","pricing_plan_id":"cebpf4jnsgd1na2vs0mg"},{"bike_id":"dc033d31-f4fd-426b-baf2-b0169777fc0f","system_id":"levelo_inurba_marseille","lat":43.324771,"lon":5.36557,"is_reserved":false,"is_disabled":false,"rental_uris":{"android":"levelo://app?vid=dc033d31-f4fd-426b-baf2-b0169777fc0f","ios":"levelo://app?vid=dc033d31-f4fd-426b-baf2-b0169777fc0f"},"vehicle_type_id":"4","last_reported":1717452466,"current_range_meters":31200,"station_id":"ce4bhs12rcd13ifvqhvg","pricing_plan_id":"cebpf4jnsgd1na2vs0mg"},{"bike_id":"73ffa659-8425-43dd-b49b-95fdc9dcb4af","system_id":"levelo_inurba_marseille","lat":43.324771,"lon":5.36557,"is_reserved":false,"is_disabled":false,"rental_uris":{"android":"levelo://app?vid=73ffa659-8425-43dd-b49b-95fdc9dcb4af","ios":"levelo://app?vid=73ffa659-8425-43dd-b49b-95fdc9dcb4af"},"vehicle_type_id":"4","last_reported":1717452466,"current_range_meters":22400,"station_id":"ce4bhs12rcd13ifvqhvg","pricing_plan_id":"cebpf4jnsgd1na2vs0mg"},{"bike_id":"24543918-fd1a-46d5-88c3-bceac4eddc3e","system_id":"levelo_inurba_marseille","lat":43.324771,"lon":5.36557,"is_reserved":false,"is_disabled":false,"rental_uris":{"android":"levelo://app?vid=24543918-fd1a-46d5-88c3-bceac4eddc3e","ios":"levelo://app?vid=24543918-fd1a-46d5-88c3-bceac4eddc3e"},"vehicle_type_id":"4","last_reported":1717452466,"current_range_meters":13600,"station_id":"ce4bhs12rcd13ifvqhvg","pricing_plan_id":"cebpf4jnsgd1na2vs0mg"},{"bike_id":"ee5ca0ed-f962-4d83-afe3-edf6c631cb25","system_id":"levelo_inurba_marseille","lat":43.32486,"lon":5.36572,"is_reserved":false,"is_disabled":false,"rental_uris":{"android":"levelo://app?vid=ee5ca0ed-f962-4d83-afe3-edf6c631cb25","ios":"levelo://app?vid=ee5ca0ed-f962-4d83-afe3-edf6c631cb25"},"vehicle_type_id":"4","last_reported":1717452466,"current_range_meters":7200,"station_id":"ce4bhs12rcd13ifvqhvg","pricing_plan_id":"cebpf4jnsgd1na2vs0mg"},{"bike_id":"8531d6cc-177b-4b26-9be1-c54e8bd389f8","system_id":"levelo_inurba_marseille","lat":43.324771,"lon":5.36557,"is_reserved":false,"is_disabled":false,"rental_uris":{"android":"levelo://app?vid=8531d6cc-177b-4b26-9be1-c54e8bd389f8","ios":"levelo://app?vid=8531d6cc-177b-4b26-9be1-c54e8bd389f8"},"vehicle_type_id":"4","last_reported":1717452466,"current_range_meters":31200,"station_id":"ce4bhs12rcd13ifvqhvg","pricing_plan_id":"cebpf4jnsgd1na2vs0mg"},{"bike_id":"171dd67e-d6c2-49b8-9e65-26d9ed7719c3","system_id":"levelo_inurba_marseille","lat":43.31077,"lon":5.38343,"is_reserved":false,"is_disabled":false,"rental_uris":{"android":"levelo://app?vid=171dd67e-d6c2-49b8-9e65-26d9ed7719c3","ios":"levelo://app?vid=171dd67e-d6c2-49b8-9e65-26d9ed7719c3"},"vehicle_type_id":"4","last_reported":1717452466,"current_range_meters":0,"station_id":"ce4bgv92rcd13ifvqcr0","pricing_plan_id":"cebpf4jnsgd1na2vs0mg"},{"bike_id":"cdc135e1-12ff-4337-8f4b-90aac0eb43da","system_id":"levelo_inurba_marseille","lat":43.310804,"lon":5.38359,"is_reserved":false,"is_disabled":false,"rental_uris":{"android":"levelo://app?vid=cdc135e1-12ff-4337-8f4b-90aac0eb43da","ios":"levelo://app?vid=cdc135e1-12ff-4337-8f4b-90aac0eb43da"},"vehicle_type_id":"4","last_reported":1717452466,"current_range_meters":29200,"station_id":"ce4bgv92rcd13ifvqcr0","pricing_plan_id":"cebpf4jnsgd1na2vs0mg"},{"bike_id":"c9167d46-b2de-4022-a2db-7257b8871b1f","system_id":"levelo_inurba_marseille","lat":43.324771,"lon":5.36557,"is_reserved":false,"is_disabled":false,"rental_uris":{"android":"levelo://app?vid=c9167d46-b2de-4022-a2db-7257b8871b1f","ios":"levelo://app?vid=c9167d46-b2de-4022-a2db-7257b8871b1f"},"vehicle_type_id":"4","last_reported":1717452466,"current_range_meters":8800,"station_id":"ce4bhs12rcd13ifvqhvg","pricing_plan_id":"cebpf4jnsgd1na2vs0mg"},{"bike_id":"0edc4a37-ef57-4cab-8b7d-3196e3445d23","system_id":"levelo_inurba_marseille","lat":43.310756,"lon":5.383495,"is_reserved":false,"is_disabled":false,"rental_uris":{"android":"levelo://app?vid=0edc4a37-ef57-4cab-8b7d-3196e3445d23","ios":"levelo://app?vid=0edc4a37-ef57-4cab-8b7d-3196e3445d23"},"vehicle_type_id":"4","last_reported":1717452466,"current_range_meters":0,"station_id":"ce4bgv92rcd13ifvqcr0","pricing_plan_id":"cebpf4jnsgd1na2vs0mg"},{"bike_id":"d3320a55-c3ff-44e0-8a5e-1aa5f1ff34e4","system_id":"levelo_inurba_marseille","lat":43.31079,"lon":5.38353,"is_reserved":false,"is_disabled":false,"rental_uris":{"android":"levelo://app?vid=d3320a55-c3ff-44e0-8a5e-1aa5f1ff34e4","ios":"levelo://app?vid=d3320a55-c3ff-44e0-8a5e-1aa5f1ff34e4"},"vehicle_type_id":"4","last_reported":1717452466,"current_range_meters":19600,"station_id":"","pricing_plan_id":"cebpf4jnsgd1na2vs0mg"},{"bike_id":"3eafb62c-faee-4b3f-8869-13234174d46e","system_id":"levelo_inurba_marseille","lat":43.310804,"lon":5.38359,"is_reserved":false,"is_disabled":false,"rental_uris":{"android":"levelo://app?vid=3eafb62c-faee-4b3f-8869-13234174d46e","ios":"levelo://app?vid=3eafb62c-faee-4b3f-8869-13234174d46e"},"vehicle_type_id":"4","last_reported":1717452466,"current_range_meters":8400,"station_id":"ce4bgv92rcd13ifvqcr0","pricing_plan_id":"cebpf4jnsgd1na2vs0mg"},{"bike_id":"06728ec5-af49-434a-97bd-801c97e382ce","system_id":"levelo_inurba_marseille","lat":43.310804,"lon":5.38359,"is_reserved":false,"is_disabled":false,"rental_uris":{"android":"levelo://app?vid=06728ec5-af49-434a-97bd-801c97e382ce","ios":"levelo://app?vid=06728ec5-af49-434a-97bd-801c97e382ce"},"vehicle_type_id":"4","last_reported":1717452466,"current_range_meters":19600,"station_id":"ce4bgv92rcd13ifvqcr0","pricing_plan_id":"cebpf4jnsgd1na2vs0mg"},{"bike_id":"f7057e30-932c-4757-9293-b20c91e0ed04","system_id":"levelo_inurba_marseille","lat":43.310804,"lon":5.38359,"is_reserved":false,"is_disabled":false,"rental_uris":{"android":"levelo://app?vid=f7057e30-932c-4757-9293-b20c91e0ed04","ios":"levelo://app?vid=f7057e30-932c-4757-9293-b20c91e0ed04"},"vehicle_type_id":"4","last_reported":1717452466,"current_range_meters":20400,"station_id":"ce4bgv92rcd13ifvqcr0","pricing_plan_id":"cebpf4jnsgd1na2vs0mg"},{"bike_id":"afb81c62-46df-4d91-b6c0-ba03cef64fcd","system_id":"levelo_inurba_marseille","lat":43.302784,"lon":5.377158,"is_reserved":false,"is_disabled":false,"rental_uris":{"android":"levelo://app?vid=afb81c62-46df-4d91-b6c0-ba03cef64fcd","ios":"levelo://app?vid=afb81c62-46df-4d91-b6c0-ba03cef64fcd"},"vehicle_type_id":"4","last_reported":1717452466,"current_range_meters":22800,"station_id":"ce4bguh2rcd13ifvqcj0","pricing_plan_id":"cebpf4jnsgd1na2vs0mg"},{"bike_id":"a55eef3c-0eef-4cba-a4b6-f9d5efdfe127","system_id":"levelo_inurba_marseille","lat":43.31979,"lon":5.38112,"is_reserved":false,"is_disabled":false,"rental_uris":{"android":"levelo://app?vid=a55eef3c-0eef-4cba-a4b6-f9d5efdfe127","ios":"levelo://app?vid=a55eef3c-0eef-4cba-a4b6-f9d5efdfe127"},"vehicle_type_id":"4","last_reported":1717452466,"current_range_meters":30800,"station_id":"ce4bhr12rcd13ifvqhpg","pricing_plan_id":"cebpf4jnsgd1na2vs0mg"},{"bike_id":"89f23d2b-728e-4e9d-808a-6d50424f6055","system_id":"levelo_inurba_marseille","lat":43.319935,"lon":5.381699,"is_reserved":false,"is_disabled":false,"rental_uris":{"android":"levelo://app?vid=89f23d2b-728e-4e9d-808a-6d50424f6055","ios":"levelo://app?vid=89f23d2b-728e-4e9d-808a-6d50424f6055"},"vehicle_type_id":"4","last_reported":1717452466,"current_range_meters":31600,"station_id":"ce4bhr12rcd13ifvqhpg","pricing_plan_id":"cebpf4jnsgd1na2vs0mg"},{"bike_id":"13bcb159-bbd0-49fd-abde-d52bca257754","system_id":"levelo_inurba_marseille","lat":43.319894,"lon":5.381426,"is_reserved":false,"is_disabled":false,"rental_uris":{"android":"levelo://app?vid=13bcb159-bbd0-49fd-abde-d52bca257754","ios":"levelo://app?vid=13bcb159-bbd0-49fd-abde-d52bca257754"},"vehicle_type_id":"4","last_reported":1717452466,"current_range_meters":27200,"station_id":"ce4bhr12rcd13ifvqhpg","pricing_plan_id":"cebpf4jnsgd1na2vs0mg"},{"bike_id":"9c32d4f6-45b8-4d19-a4f6-69124e740d8b","system_id":"levelo_inurba_marseille","lat":43.319935,"lon":5.381699,"is_reserved":false,"is_disabled":false,"rental_uris":{"android":"levelo://app?vid=9c32d4f6-45b8-4d19-a4f6-69124e740d8b","ios":"levelo://app?vid=9c32d4f6-45b8-4d19-a4f6-69124e740d8b"},"vehicle_type_id":"4","last_reported":1717452466,"current_range_meters":23600,"station_id":"ce4bhr12rcd13ifvqhpg","pricing_plan_id":"cebpf4jnsgd1na2vs0mg"},{"bike_id":"20350782-2ef8-4180-a14b-4dd4e6627c9a","system_id":"levelo_inurba_marseille","lat":43.31998,"lon":5.38142,"is_reserved":false,"is_disabled":false,"rental_uris":{"android":"levelo://app?vid=20350782-2ef8-4180-a14b-4dd4e6627c9a","ios":"levelo://app?vid=20350782-2ef8-4180-a14b-4dd4e6627c9a"},"vehicle_type_id":"4","last_reported":1717452466,"current_range_meters":31200,"station_id":"ce4bhr12rcd13ifvqhpg","pricing_plan_id":"cebpf4jnsgd1na2vs0mg"},{"bike_id":"34191284-9da4-478e-acd3-090807d18e39","system_id":"levelo_inurba_marseille","lat":43.31996,"lon":5.38147,"is_reserved":false,"is_disabled":false,"rental_uris":{"android":"levelo://app?vid=34191284-9da4-478e-acd3-090807d18e39","ios":"levelo://app?vid=34191284-9da4-478e-acd3-090807d18e39"},"vehicle_type_id":"4","last_reported":1717452466,"current_range_meters":30800,"station_id":"ce4bhr12rcd13ifvqhpg","pricing_plan_id":"cebpf4jnsgd1na2vs0mg"},{"bike_id":"4d7aa076-df88-4bbc-9098-3e8327ee7c83","system_id":"levelo_inurba_marseille","lat":43.319966,"lon":5.381526,"is_reserved":false,"is_disabled":false,"rental_uris":{"android":"levelo://app?vid=4d7aa076-df88-4bbc-9098-3e8327ee7c83","ios":"levelo://app?vid=4d7aa076-df88-4bbc-9098-3e8327ee7c83"},"vehicle_type_id":"4","last_reported":1717452466,"current_range_meters":21600,"station_id":"ce4bhr12rcd13ifvqhpg","pricing_plan_id":"cebpf4jnsgd1na2vs0mg"},{"bike_id":"807c853e-cd02-4d36-9ed7-1413d42d4696","system_id":"levelo_inurba_marseille","lat":43.319924,"lon":5.381573,"is_reserved":false,"is_disabled":false,"rental_uris":{"android":"levelo://app?vid=807c853e-cd02-4d36-9ed7-1413d42d4696","ios":"levelo://app?vid=807c853e-cd02-4d36-9ed7-1413d42d4696"},"vehicle_type_id":"4","last_reported":1717452466,"current_range_meters":10000,"station_id":"ce4bhr12rcd13ifvqhpg","pricing_plan_id":"cebpf4jnsgd1na2vs0mg"},{"bike_id":"cd53ab7c-f721-4797-a9f4-e306cc25bff0","system_id":"levelo_inurba_marseille","lat":43.319966,"lon":5.381608,"is_reserved":false,"is_disabled":false,"rental_uris":{"android":"levelo://app?vid=cd53ab7c-f721-4797-a9f4-e306cc25bff0","ios":"levelo://app?vid=cd53ab7c-f721-4797-a9f4-e306cc25bff0"},"vehicle_type_id":"4","last_reported":1717452466,"current_range_meters":0,"station_id":"ce4bhr12rcd13ifvqhpg","pricing_plan_id":"cebpf4jnsgd1na2vs0mg"},{"bike_id":"f8d32f77-07ef-4d22-8ca2-0dfbeaa6a844","system_id":"levelo_inurba_marseille","lat":43.32001,"lon":5.38157,"is_reserved":false,"is_disabled":false,"rental_uris":{"android":"levelo://app?vid=f8d32f77-07ef-4d22-8ca2-0dfbeaa6a844","ios":"levelo://app?vid=f8d32f77-07ef-4d22-8ca2-0dfbeaa6a844"},"vehicle_type_id":"4","last_reported":1717452466,"current_range_meters":8400,"station_id":"ce4bhr12rcd13ifvqhpg","pricing_plan_id":"cebpf4jnsgd1na2vs0mg"},{"bike_id":"a8974613-c8ed-4a22-9501-ba0d3c91c9c8","system_id":"levelo_inurba_marseille","lat":43.313571,"lon":5.384829,"is_reserved":false,"is_disabled":false,"rental_uris":{"android":"levelo://app?vid=a8974613-c8ed-4a22-9501-ba0d3c91c9c8","ios":"levelo://app?vid=a8974613-c8ed-4a22-9501-ba0d3c91c9c8"},"vehicle_type_id":"4","last_reported":1717452466,"current_range_meters":25600,"station_id":"ce4bgt92rcd13ifvqcf0","pricing_plan_id":"cebpf4jnsgd1na2vs0mg"},{"bike_id":"83a9e9ee-e8e9-4b40-af65-95bf935afabc","system_id":"levelo_inurba_marseille","lat":43.31367,"lon":5.38496,"is_reserved":false,"is_disabled":false,"rental_uris":{"android":"levelo://app?vid=83a9e9ee-e8e9-4b40-af65-95bf935afabc","ios":"levelo://app?vid=83a9e9ee-e8e9-4b40-af65-95bf935afabc"},"vehicle_type_id":"4","last_reported":1717452466,"current_range_meters":4400,"station_id":"ce4bgt92rcd13ifvqcf0","pricing_plan_id":"cebpf4jnsgd1na2vs0mg"},{"bike_id":"216ad791-a2f2-4a80-9e5f-7490ccf10c29","system_id":"levelo_inurba_marseille","lat":43.313571,"lon":5.384829,"is_reserved":false,"is_disabled":false,"rental_uris":{"android":"levelo://app?vid=216ad791-a2f2-4a80-9e5f-7490ccf10c29","ios":"levelo://app?vid=216ad791-a2f2-4a80-9e5f-7490ccf10c29"},"vehicle_type_id":"4","last_reported":1717452466,"current_range_meters":11200,"station_id":"ce4bgt92rcd13ifvqcf0","pricing_plan_id":"cebpf4jnsgd1na2vs0mg"},{"bike_id":"960ecdd0-0e52-4d37-8d3b-1c4a86b5f1b2","system_id":"levelo_inurba_marseille","lat":43.299222,"lon":5.365554,"is_reserved":false,"is_disabled":false,"rental_uris":{"android":"levelo://app?vid=960ecdd0-0e52-4d37-8d3b-1c4a86b5f1b2","ios":"levelo://app?vid=960ecdd0-0e52-4d37-8d3b-1c4a86b5f1b2"},"vehicle_type_id":"4","last_reported":1717452466,"current_range_meters":28000,"station_id":"ce4bgm92rcd13ifvqbr0","pricing_plan_id":"cebpf4jnsgd1na2vs0mg"},{"bike_id":"f35a5df7-ff3a-4860-8285-ced5a7c500be","system_id":"levelo_inurba_marseille","lat":43.299724,"lon":5.371829,"is_reserved":false,"is_disabled":false,"rental_uris":{"android":"levelo://app?vid=f35a5df7-ff3a-4860-8285-ced5a7c500be","ios":"levelo://app?vid=f35a5df7-ff3a-4860-8285-ced5a7c500be"},"vehicle_type_id":"4","last_reported":1717452466,"current_range_meters":4000,"station_id":"ce4bgr92rcd13ifvqc7g","pricing_plan_id":"cebpf4jnsgd1na2vs0mg"},{"bike_id":"8039c5c6-b1fe-49de-941f-d71283138e55","system_id":"levelo_inurba_marseille","lat":43.299222,"lon":5.365554,"is_reserved":false,"is_disabled":false,"rental_uris":{"android":"levelo://app?vid=8039c5c6-b1fe-49de-941f-d71283138e55","ios":"levelo://app?vid=8039c5c6-b1fe-49de-941f-d71283138e55"},"vehicle_type_id":"4","last_reported":1717452466,"current_range_meters":25200,"station_id":"ce4bgm92rcd13ifvqbr0","pricing_plan_id":"cebpf4jnsgd1na2vs0mg"},{"bike_id":"7c0279c4-785e-41cc-9875-11b1aa5697b0","system_id":"levelo_inurba_marseille","lat":43.29854,"lon":5.36287,"is_reserved":false,"is_disabled":false,"rental_uris":{"android":"levelo://app?vid=7c0279c4-785e-41cc-9875-11b1aa5697b0","ios":"levelo://app?vid=7c0279c4-785e-41cc-9875-11b1aa5697b0"},"vehicle_type_id":"4","last_reported":1717452466,"current_range_meters":27200,"station_id":"ce4bgpp2rcd13ifvqc3g","pricing_plan_id":"cebpf4jnsgd1na2vs0mg"},{"bike_id":"3c9873c6-fc5a-49bc-80d0-ed4e84ab8e4f","system_id":"levelo_inurba_marseille","lat":43.311125,"lon":5.377624,"is_reserved":false,"is_disabled":false,"rental_uris":{"android":"levelo://app?vid=3c9873c6-fc5a-49bc-80d0-ed4e84ab8e4f","ios":"levelo://app?vid=3c9873c6-fc5a-49bc-80d0-ed4e84ab8e4f"},"vehicle_type_id":"4","last_reported":1717452466,"current_range_meters":11200,"station_id":"ce4bgt92rcd13ifvqcg0","pricing_plan_id":"cebpf4jnsgd1na2vs0mg"},{"bike_id":"ab5fce92-67e1-42f1-9ba6-e4527fff21b0","system_id":"levelo_inurba_marseille","lat":43.305364,"lon":5.384119,"is_reserved":false,"is_disabled":false,"rental_uris":{"android":"levelo://app?vid=ab5fce92-67e1-42f1-9ba6-e4527fff21b0","ios":"levelo://app?vid=ab5fce92-67e1-42f1-9ba6-e4527fff21b0"},"vehicle_type_id":"4","last_reported":1717452466,"current_range_meters":28400,"station_id":"ce4bgg92rcd13ifvqb30","pricing_plan_id":"cebpf4jnsgd1na2vs0mg"},{"bike_id":"2c964564-0fad-40da-a5de-517d20029d28","system_id":"levelo_inurba_marseille","lat":43.305364,"lon":5.384119,"is_reserved":false,"is_disabled":false,"rental_uris":{"android":"levelo://app?vid=2c964564-0fad-40da-a5de-517d20029d28","ios":"levelo://app?vid=2c964564-0fad-40da-a5de-517d20029d28"},"vehicle_type_id":"4","last_reported":1717452466,"current_range_meters":31600,"station_id":"ce4bgg92rcd13ifvqb30","pricing_plan_id":"cebpf4jnsgd1na2vs0mg"},{"bike_id":"747a5212-4a32-431d-a85e-891cde2f12b5","system_id":"levelo_inurba_marseille","lat":43.305364,"lon":5.384119,"is_reserved":false,"is_disabled":false,"rental_uris":{"android":"levelo://app?vid=747a5212-4a32-431d-a85e-891cde2f12b5","ios":"levelo://app?vid=747a5212-4a32-431d-a85e-891cde2f12b5"},"vehicle_type_id":"4","last_reported":1717452466,"current_range_meters":30400,"station_id":"ce4bgg92rcd13ifvqb30","pricing_plan_id":"cebpf4jnsgd1na2vs0mg"},{"bike_id":"944ceca1-4a69-41cb-896a-f249437dcf32","system_id":"levelo_inurba_marseille","lat":43.299249,"lon":5.374809,"is_reserved":false,"is_disabled":false,"rental_uris":{"android":"levelo://app?vid=944ceca1-4a69-41cb-896a-f249437dcf32","ios":"levelo://app?vid=944ceca1-4a69-41cb-896a-f249437dcf32"},"vehicle_type_id":"4","last_reported":1717452466,"current_range_meters":0,"station_id":"","pricing_plan_id":"cebpf4jnsgd1na2vs0mg"},{"bike_id":"287a38b3-8772-44cc-9602-d2f5cb10690f","system_id":"levelo_inurba_marseille","lat":43.299144,"lon":5.374567,"is_reserved":false,"is_disabled":false,"rental_uris":{"android":"levelo://app?vid=287a38b3-8772-44cc-9602-d2f5cb10690f","ios":"levelo://app?vid=287a38b3-8772-44cc-9602-d2f5cb10690f"},"vehicle_type_id":"4","last_reported":1717452466,"current_range_meters":19200,"station_id":"ce4bgjh2rcd13ifvqbg0","pricing_plan_id":"cebpf4jnsgd1na2vs0mg"},{"bike_id":"47b42cca-25a7-4839-89a2-2615c9aa008d","system_id":"levelo_inurba_marseille","lat":43.311722,"lon":5.387247,"is_reserved":false,"is_disabled":false,"rental_uris":{"android":"levelo://app?vid=47b42cca-25a7-4839-89a2-2615c9aa008d","ios":"levelo://app?vid=47b42cca-25a7-4839-89a2-2615c9aa008d"},"vehicle_type_id":"4","last_reported":1717452466,"current_range_meters":26800,"station_id":"ce4bgv12rcd13ifvqcp0","pricing_plan_id":"cebpf4jnsgd1na2vs0mg"},{"bike_id":"8b7ef21e-7407-4829-8d59-49872feae290","system_id":"levelo_inurba_marseille","lat":43.3026,"lon":5.38161,"is_reserved":false,"is_disabled":false,"rental_uris":{"android":"levelo://app?vid=8b7ef21e-7407-4829-8d59-49872feae290","ios":"levelo://app?vid=8b7ef21e-7407-4829-8d59-49872feae290"},"vehicle_type_id":"4","last_reported":1717452466,"current_range_meters":5200,"station_id":"","pricing_plan_id":"cebpf4jnsgd1na2vs0mg"},{"bike_id":"7b63679d-fbcd-4aab-a40d-cb369e78580e","system_id":"levelo_inurba_marseille","lat":43.311722,"lon":5.387247,"is_reserved":false,"is_disabled":false,"rental_uris":{"android":"levelo://app?vid=7b63679d-fbcd-4aab-a40d-cb369e78580e","ios":"levelo://app?vid=7b63679d-fbcd-4aab-a40d-cb369e78580e"},"vehicle_type_id":"4","last_reported":1717452466,"current_range_meters":22000,"station_id":"ce4bgv12rcd13ifvqcp0","pricing_plan_id":"cebpf4jnsgd1na2vs0mg"},{"bike_id":"e63f30df-41e9-4850-aa60-87cc2c57fcd0","system_id":"levelo_inurba_marseille","lat":43.311722,"lon":5.387247,"is_reserved":false,"is_disabled":false,"rental_uris":{"android":"levelo://app?vid=e63f30df-41e9-4850-aa60-87cc2c57fcd0","ios":"levelo://app?vid=e63f30df-41e9-4850-aa60-87cc2c57fcd0"},"vehicle_type_id":"4","last_reported":1717452466,"current_range_meters":10400,"station_id":"ce4bgv12rcd13ifvqcp0","pricing_plan_id":"cebpf4jnsgd1na2vs0mg"},{"bike_id":"6aae789d-72c1-4f08-bd30-6f888409efba","system_id":"levelo_inurba_marseille","lat":43.311722,"lon":5.387247,"is_reserved":false,"is_disabled":false,"rental_uris":{"android":"levelo://app?vid=6aae789d-72c1-4f08-bd30-6f888409efba","ios":"levelo://app?vid=6aae789d-72c1-4f08-bd30-6f888409efba"},"vehicle_type_id":"4","last_reported":1717452466,"current_range_meters":0,"station_id":"ce4bgv12rcd13ifvqcp0","pricing_plan_id":"cebpf4jnsgd1na2vs0mg"},{"bike_id":"c95717f8-8062-45df-a854-0a0b88689ed4","system_id":"levelo_inurba_marseille","lat":43.311808,"lon":5.387175,"is_reserved":false,"is_disabled":false,"rental_uris":{"android":"levelo://app?vid=c95717f8-8062-45df-a854-0a0b88689ed4","ios":"levelo://app?vid=c95717f8-8062-45df-a854-0a0b88689ed4"},"vehicle_type_id":"4","last_reported":1717452466,"current_range_meters":26000,"station_id":"ce4bgv12rcd13ifvqcp0","pricing_plan_id":"cebpf4jnsgd1na2vs0mg"},{"bike_id":"0bd0309e-daef-4cde-bfb5-25577dba628a","system_id":"levelo_inurba_marseille","lat":43.311722,"lon":5.387247,"is_reserved":false,"is_disabled":false,"rental_uris":{"android":"levelo://app?vid=0bd0309e-daef-4cde-bfb5-25577dba628a","ios":"levelo://app?vid=0bd0309e-daef-4cde-bfb5-25577dba628a"},"vehicle_type_id":"4","last_reported":1717452466,"current_range_meters":26800,"station_id":"ce4bgv12rcd13ifvqcp0","pricing_plan_id":"cebpf4jnsgd1na2vs0mg"},{"bike_id":"8940b713-99b2-4ec8-8515-04333a543613","system_id":"levelo_inurba_marseille","lat":43.311722,"lon":5.387247,"is_reserved":false,"is_disabled":false,"rental_uris":{"android":"levelo://app?vid=8940b713-99b2-4ec8-8515-04333a543613","ios":"levelo://app?vid=8940b713-99b2-4ec8-8515-04333a543613"},"vehicle_type_id":"4","last_reported":1717452466,"current_range_meters":23200,"station_id":"ce4bgv12rcd13ifvqcp0","pricing_plan_id":"cebpf4jnsgd1na2vs0mg"},{"bike_id":"e991e25d-b305-4c05-b9c8-3a8767f861a3","system_id":"levelo_inurba_marseille","lat":43.311722,"lon":5.387247,"is_reserved":false,"is_disabled":false,"rental_uris":{"android":"levelo://app?vid=e991e25d-b305-4c05-b9c8-3a8767f861a3","ios":"levelo://app?vid=e991e25d-b305-4c05-b9c8-3a8767f861a3"},"vehicle_type_id":"4","last_reported":1717452466,"current_range_meters":10800,"station_id":"ce4bgv12rcd13ifvqcp0","pricing_plan_id":"cebpf4jnsgd1na2vs0mg"},{"bike_id":"f8d4aaed-2bb1-462b-aa40-c88223ee6481","system_id":"levelo_inurba_marseille","lat":43.311722,"lon":5.387247,"is_reserved":false,"is_disabled":false,"rental_uris":{"android":"levelo://app?vid=f8d4aaed-2bb1-462b-aa40-c88223ee6481","ios":"levelo://app?vid=f8d4aaed-2bb1-462b-aa40-c88223ee6481"},"vehicle_type_id":"4","last_reported":1717452466,"current_range_meters":26000,"station_id":"ce4bgv12rcd13ifvqcp0","pricing_plan_id":"cebpf4jnsgd1na2vs0mg"},{"bike_id":"fa1f7674-1582-4347-8038-94dc86993753","system_id":"levelo_inurba_marseille","lat":43.305989,"lon":5.37225,"is_reserved":false,"is_disabled":false,"rental_uris":{"android":"levelo://app?vid=fa1f7674-1582-4347-8038-94dc86993753","ios":"levelo://app?vid=fa1f7674-1582-4347-8038-94dc86993753"},"vehicle_type_id":"4","last_reported":1717452466,"current_range_meters":8000,"station_id":"ce4bgqh2rcd13ifvqc4g","pricing_plan_id":"cebpf4jnsgd1na2vs0mg"},{"bike_id":"9ad423e1-8004-4072-94f1-f5db171ae698","system_id":"levelo_inurba_marseille","lat":43.30147,"lon":5.38054,"is_reserved":false,"is_disabled":false,"rental_uris":{"android":"levelo://app?vid=9ad423e1-8004-4072-94f1-f5db171ae698","ios":"levelo://app?vid=9ad423e1-8004-4072-94f1-f5db171ae698"},"vehicle_type_id":"4","last_reported":1717452466,"current_range_meters":21600,"station_id":"","pricing_plan_id":"cebpf4jnsgd1na2vs0mg"},{"bike_id":"10fb4334-c940-4455-979b-d3f1ca32e262","system_id":"levelo_inurba_marseille","lat":43.297794,"lon":5.370888,"is_reserved":false,"is_disabled":false,"rental_uris":{"android":"levelo://app?vid=10fb4334-c940-4455-979b-d3f1ca32e262","ios":"levelo://app?vid=10fb4334-c940-4455-979b-d3f1ca32e262"},"vehicle_type_id":"4","last_reported":1717452466,"current_range_meters":29600,"station_id":"ce4bgop2rcd13ifvqc1g","pricing_plan_id":"cebpf4jnsgd1na2vs0mg"},{"bike_id":"f6f6753f-78cc-47df-b8f5-89521949e77a","system_id":"levelo_inurba_marseille","lat":43.297774,"lon":5.370875,"is_reserved":false,"is_disabled":false,"rental_uris":{"android":"levelo://app?vid=f6f6753f-78cc-47df-b8f5-89521949e77a","ios":"levelo://app?vid=f6f6753f-78cc-47df-b8f5-89521949e77a"},"vehicle_type_id":"4","last_reported":1717452466,"current_range_meters":9200,"station_id":"ce4bgop2rcd13ifvqc1g","pricing_plan_id":"cebpf4jnsgd1na2vs0mg"},{"bike_id":"2f7bddc5-53c9-4264-898b-48d4abd677da","system_id":"levelo_inurba_marseille","lat":43.297851,"lon":5.37093,"is_reserved":false,"is_disabled":false,"rental_uris":{"android":"levelo://app?vid=2f7bddc5-53c9-4264-898b-48d4abd677da","ios":"levelo://app?vid=2f7bddc5-53c9-4264-898b-48d4abd677da"},"vehicle_type_id":"4","last_reported":1717452466,"current_range_meters":7200,"station_id":"ce4bgop2rcd13ifvqc1g","pricing_plan_id":"cebpf4jnsgd1na2vs0mg"},{"bike_id":"5a3f9f2f-b26e-4269-b367-16a1b814429c","system_id":"levelo_inurba_marseille","lat":43.2968,"lon":5.37291,"is_reserved":false,"is_disabled":false,"rental_uris":{"android":"levelo://app?vid=5a3f9f2f-b26e-4269-b367-16a1b814429c","ios":"levelo://app?vid=5a3f9f2f-b26e-4269-b367-16a1b814429c"},"vehicle_type_id":"4","last_reported":1717452466,"current_range_meters":12000,"station_id":"ce4bgk12rcd13ifvqbj0","pricing_plan_id":"cebpf4jnsgd1na2vs0mg"},{"bike_id":"7f124cdf-a152-4df6-906e-31ee3f4cb537","system_id":"levelo_inurba_marseille","lat":43.296263,"lon":5.40601,"is_reserved":false,"is_disabled":false,"rental_uris":{"android":"levelo://app?vid=7f124cdf-a152-4df6-906e-31ee3f4cb537","ios":"levelo://app?vid=7f124cdf-a152-4df6-906e-31ee3f4cb537"},"vehicle_type_id":"4","last_reported":1717452466,"current_range_meters":0,"station_id":"ce4bh0h2rcd13ifvqd60","pricing_plan_id":"cebpf4jnsgd1na2vs0mg"},{"bike_id":"22d15eaa-be73-438b-86a0-368f935f400f","system_id":"levelo_inurba_marseille","lat":43.29585,"lon":5.3675,"is_reserved":false,"is_disabled":false,"rental_uris":{"android":"levelo://app?vid=22d15eaa-be73-438b-86a0-368f935f400f","ios":"levelo://app?vid=22d15eaa-be73-438b-86a0-368f935f400f"},"vehicle_type_id":"4","last_reported":1717452466,"current_range_meters":27600,"station_id":"ce4bgph2rcd13ifvqc2g","pricing_plan_id":"cebpf4jnsgd1na2vs0mg"},{"bike_id":"2fbbc562-46d7-46b6-903f-01bad00c38fa","system_id":"levelo_inurba_marseille","lat":43.295819,"lon":5.367379,"is_reserved":false,"is_disabled":false,"rental_uris":{"android":"levelo://app?vid=2fbbc562-46d7-46b6-903f-01bad00c38fa","ios":"levelo://app?vid=2fbbc562-46d7-46b6-903f-01bad00c38fa"},"vehicle_type_id":"4","last_reported":1717452466,"current_range_meters":26800,"station_id":"ce4bgph2rcd13ifvqc2g","pricing_plan_id":"cebpf4jnsgd1na2vs0mg"},{"bike_id":"e789777e-4f6a-45d2-a121-1b1a473ea819","system_id":"levelo_inurba_marseille","lat":43.309461,"lon":5.390337,"is_reserved":false,"is_disabled":false,"rental_uris":{"android":"levelo://app?vid=e789777e-4f6a-45d2-a121-1b1a473ea819","ios":"levelo://app?vid=e789777e-4f6a-45d2-a121-1b1a473ea819"},"vehicle_type_id":"4","last_reported":1717452466,"current_range_meters":23600,"station_id":"ce4bgup2rcd13ifvqco0","pricing_plan_id":"cebpf4jnsgd1na2vs0mg"},{"bike_id":"ac58c55f-1790-4bad-a059-d5da6c120278","system_id":"levelo_inurba_marseille","lat":43.309495,"lon":5.390505,"is_reserved":false,"is_disabled":false,"rental_uris":{"android":"levelo://app?vid=ac58c55f-1790-4bad-a059-d5da6c120278","ios":"levelo://app?vid=ac58c55f-1790-4bad-a059-d5da6c120278"},"vehicle_type_id":"4","last_reported":1717452466,"current_range_meters":22400,"station_id":"","pricing_plan_id":"cebpf4jnsgd1na2vs0mg"},{"bike_id":"4220e567-e4b7-45d4-a02f-22e3db8c3610","system_id":"levelo_inurba_marseille","lat":43.317541,"lon":5.390005,"is_reserved":false,"is_disabled":false,"rental_uris":{"android":"levelo://app?vid=4220e567-e4b7-45d4-a02f-22e3db8c3610","ios":"levelo://app?vid=4220e567-e4b7-45d4-a02f-22e3db8c3610"},"vehicle_type_id":"4","last_reported":1717452466,"current_range_meters":0,"station_id":"ce4bhqp2rcd13ifvqhng","pricing_plan_id":"cebpf4jnsgd1na2vs0mg"},{"bike_id":"f7e3e2c8-3552-4457-946e-6e9bbed5fdb6","system_id":"levelo_inurba_marseille","lat":43.317557,"lon":5.390173,"is_reserved":false,"is_disabled":false,"rental_uris":{"android":"levelo://app?vid=f7e3e2c8-3552-4457-946e-6e9bbed5fdb6","ios":"levelo://app?vid=f7e3e2c8-3552-4457-946e-6e9bbed5fdb6"},"vehicle_type_id":"4","last_reported":1717452466,"current_range_meters":13600,"station_id":"ce4bhqp2rcd13ifvqhng","pricing_plan_id":"cebpf4jnsgd1na2vs0mg"},{"bike_id":"a435af6f-fcc8-4aa4-9cd9-8ab4585ec100","system_id":"levelo_inurba_marseille","lat":43.317557,"lon":5.390173,"is_reserved":false,"is_disabled":false,"rental_uris":{"android":"levelo://app?vid=a435af6f-fcc8-4aa4-9cd9-8ab4585ec100","ios":"levelo://app?vid=a435af6f-fcc8-4aa4-9cd9-8ab4585ec100"},"vehicle_type_id":"4","last_reported":1717452466,"current_range_meters":3200,"station_id":"ce4bhqp2rcd13ifvqhng","pricing_plan_id":"cebpf4jnsgd1na2vs0mg"},{"bike_id":"53f73770-7e22-453d-bfb6-0674642033fc","system_id":"levelo_inurba_marseille","lat":43.317606,"lon":5.390115,"is_reserved":false,"is_disabled":false,"rental_uris":{"android":"levelo://app?vid=53f73770-7e22-453d-bfb6-0674642033fc","ios":"levelo://app?vid=53f73770-7e22-453d-bfb6-0674642033fc"},"vehicle_type_id":"4","last_reported":1717452466,"current_range_meters":13600,"station_id":"ce4bhqp2rcd13ifvqhng","pricing_plan_id":"cebpf4jnsgd1na2vs0mg"},{"bike_id":"79b576e2-76f3-401d-abaa-2a9687754090","system_id":"levelo_inurba_marseille","lat":43.317557,"lon":5.390173,"is_reserved":false,"is_disabled":false,"rental_uris":{"android":"levelo://app?vid=79b576e2-76f3-401d-abaa-2a9687754090","ios":"levelo://app?vid=79b576e2-76f3-401d-abaa-2a9687754090"},"vehicle_type_id":"4","last_reported":1717452466,"current_range_meters":19600,"station_id":"ce4bhqp2rcd13ifvqhng","pricing_plan_id":"cebpf4jnsgd1na2vs0mg"},{"bike_id":"1b99b27f-85fa-4747-b190-ab8d712e5964","system_id":"levelo_inurba_marseille","lat":43.317557,"lon":5.390173,"is_reserved":false,"is_disabled":false,"rental_uris":{"android":"levelo://app?vid=1b99b27f-85fa-4747-b190-ab8d712e5964","ios":"levelo://app?vid=1b99b27f-85fa-4747-b190-ab8d712e5964"},"vehicle_type_id":"4","last_reported":1717452466,"current_range_meters":27600,"station_id":"ce4bhqp2rcd13ifvqhng","pricing_plan_id":"cebpf4jnsgd1na2vs0mg"},{"bike_id":"459b8251-bef3-466e-8189-d74a6ee80975","system_id":"levelo_inurba_marseille","lat":43.298037,"lon":5.381066,"is_reserved":false,"is_disabled":false,"rental_uris":{"android":"levelo://app?vid=459b8251-bef3-466e-8189-d74a6ee80975","ios":"levelo://app?vid=459b8251-bef3-466e-8189-d74a6ee80975"},"vehicle_type_id":"4","last_reported":1717452466,"current_range_meters":10400,"station_id":"ce4bgip2rcd13ifvqbb0","pricing_plan_id":"cebpf4jnsgd1na2vs0mg"},{"bike_id":"b6f3efd3-7131-4af5-8d65-fcfb59b522d0","system_id":"levelo_inurba_marseille","lat":43.304274,"lon":5.388873,"is_reserved":false,"is_disabled":false,"rental_uris":{"android":"levelo://app?vid=b6f3efd3-7131-4af5-8d65-fcfb59b522d0","ios":"levelo://app?vid=b6f3efd3-7131-4af5-8d65-fcfb59b522d0"},"vehicle_type_id":"4","last_reported":1717452466,"current_range_meters":19200,"station_id":"ce4bgk12rcd13ifvqbi0","pricing_plan_id":"cebpf4jnsgd1na2vs0mg"},{"bike_id":"8112fcea-7a07-4780-b293-84bc68f0fddc","system_id":"levelo_inurba_marseille","lat":43.304278,"lon":5.388868,"is_reserved":false,"is_disabled":false,"rental_uris":{"android":"levelo://app?vid=8112fcea-7a07-4780-b293-84bc68f0fddc","ios":"levelo://app?vid=8112fcea-7a07-4780-b293-84bc68f0fddc"},"vehicle_type_id":"4","last_reported":1717452466,"current_range_meters":20800,"station_id":"ce4bgk12rcd13ifvqbi0","pricing_plan_id":"cebpf4jnsgd1na2vs0mg"},{"bike_id":"c6e7fa69-3a39-430d-b24b-27a785c33cf2","system_id":"levelo_inurba_marseille","lat":43.304278,"lon":5.388868,"is_reserved":false,"is_disabled":false,"rental_uris":{"android":"levelo://app?vid=c6e7fa69-3a39-430d-b24b-27a785c33cf2","ios":"levelo://app?vid=c6e7fa69-3a39-430d-b24b-27a785c33cf2"},"vehicle_type_id":"4","last_reported":1717452466,"current_range_meters":24000,"station_id":"ce4bgk12rcd13ifvqbi0","pricing_plan_id":"cebpf4jnsgd1na2vs0mg"},{"bike_id":"806b1697-a8f8-4488-ac57-08a465451d59","system_id":"levelo_inurba_marseille","lat":43.304278,"lon":5.388868,"is_reserved":false,"is_disabled":false,"rental_uris":{"android":"levelo://app?vid=806b1697-a8f8-4488-ac57-08a465451d59","ios":"levelo://app?vid=806b1697-a8f8-4488-ac57-08a465451d59"},"vehicle_type_id":"4","last_reported":1717452466,"current_range_meters":22400,"station_id":"ce4bgk12rcd13ifvqbi0","pricing_plan_id":"cebpf4jnsgd1na2vs0mg"},{"bike_id":"3e0b3b51-8f2b-49c1-beac-aac7ff7c0b6e","system_id":"levelo_inurba_marseille","lat":43.304274,"lon":5.388873,"is_reserved":false,"is_disabled":false,"rental_uris":{"android":"levelo://app?vid=3e0b3b51-8f2b-49c1-beac-aac7ff7c0b6e","ios":"levelo://app?vid=3e0b3b51-8f2b-49c1-beac-aac7ff7c0b6e"},"vehicle_type_id":"4","last_reported":1717452466,"current_range_meters":29200,"station_id":"ce4bgk12rcd13ifvqbi0","pricing_plan_id":"cebpf4jnsgd1na2vs0mg"},{"bike_id":"06237d00-3599-45a1-b076-fa53078ec37e","system_id":"levelo_inurba_marseille","lat":43.304274,"lon":5.388873,"is_reserved":false,"is_disabled":false,"rental_uris":{"android":"levelo://app?vid=06237d00-3599-45a1-b076-fa53078ec37e","ios":"levelo://app?vid=06237d00-3599-45a1-b076-fa53078ec37e"},"vehicle_type_id":"4","last_reported":1717452466,"current_range_meters":28400,"station_id":"ce4bgk12rcd13ifvqbi0","pricing_plan_id":"cebpf4jnsgd1na2vs0mg"},{"bike_id":"1b010fca-ab02-4c41-8c3d-0a64635a0147","system_id":"levelo_inurba_marseille","lat":43.304274,"lon":5.388873,"is_reserved":false,"is_disabled":false,"rental_uris":{"android":"levelo://app?vid=1b010fca-ab02-4c41-8c3d-0a64635a0147","ios":"levelo://app?vid=1b010fca-ab02-4c41-8c3d-0a64635a0147"},"vehicle_type_id":"4","last_reported":1717452466,"current_range_meters":16400,"station_id":"ce4bgk12rcd13ifvqbi0","pricing_plan_id":"cebpf4jnsgd1na2vs0mg"},{"bike_id":"3c8d21ba-682d-4fb3-b077-b84c92907a40","system_id":"levelo_inurba_marseille","lat":43.304278,"lon":5.388868,"is_reserved":false,"is_disabled":false,"rental_uris":{"android":"levelo://app?vid=3c8d21ba-682d-4fb3-b077-b84c92907a40","ios":"levelo://app?vid=3c8d21ba-682d-4fb3-b077-b84c92907a40"},"vehicle_type_id":"4","last_reported":1717452466,"current_range_meters":18800,"station_id":"ce4bgk12rcd13ifvqbi0","pricing_plan_id":"cebpf4jnsgd1na2vs0mg"},{"bike_id":"ba9481f5-18f5-4ff3-9143-a54849bd9987","system_id":"levelo_inurba_marseille","lat":43.304278,"lon":5.388868,"is_reserved":false,"is_disabled":false,"rental_uris":{"android":"levelo://app?vid=ba9481f5-18f5-4ff3-9143-a54849bd9987","ios":"levelo://app?vid=ba9481f5-18f5-4ff3-9143-a54849bd9987"},"vehicle_type_id":"4","last_reported":1717452466,"current_range_meters":2400,"station_id":"ce4bgk12rcd13ifvqbi0","pricing_plan_id":"cebpf4jnsgd1na2vs0mg"},{"bike_id":"06550258-9448-4ed0-a191-b2b99a496791","system_id":"levelo_inurba_marseille","lat":43.304278,"lon":5.388868,"is_reserved":false,"is_disabled":false,"rental_uris":{"android":"levelo://app?vid=06550258-9448-4ed0-a191-b2b99a496791","ios":"levelo://app?vid=06550258-9448-4ed0-a191-b2b99a496791"},"vehicle_type_id":"4","last_reported":1717452466,"current_range_meters":24400,"station_id":"ce4bgk12rcd13ifvqbi0","pricing_plan_id":"cebpf4jnsgd1na2vs0mg"},{"bike_id":"e38f11fe-d279-459b-9d31-13c33a3e9c25","system_id":"levelo_inurba_marseille","lat":43.299717,"lon":5.384845,"is_reserved":false,"is_disabled":false,"rental_uris":{"android":"levelo://app?vid=e38f11fe-d279-459b-9d31-13c33a3e9c25","ios":"levelo://app?vid=e38f11fe-d279-459b-9d31-13c33a3e9c25"},"vehicle_type_id":"4","last_reported":1717452466,"current_range_meters":0,"station_id":"ce4bgj92rcd13ifvqbd0","pricing_plan_id":"cebpf4jnsgd1na2vs0mg"},{"bike_id":"282f8866-89c4-4b77-b3d2-a456db8d5440","system_id":"levelo_inurba_marseille","lat":43.304274,"lon":5.388873,"is_reserved":false,"is_disabled":false,"rental_uris":{"android":"levelo://app?vid=282f8866-89c4-4b77-b3d2-a456db8d5440","ios":"levelo://app?vid=282f8866-89c4-4b77-b3d2-a456db8d5440"},"vehicle_type_id":"4","last_reported":1717452466,"current_range_meters":5200,"station_id":"ce4bgk12rcd13ifvqbi0","pricing_plan_id":"cebpf4jnsgd1na2vs0mg"},{"bike_id":"06a6853c-e4c2-4603-9ed1-4a9c3e8ef55b","system_id":"levelo_inurba_marseille","lat":43.310411,"lon":5.393034,"is_reserved":false,"is_disabled":false,"rental_uris":{"android":"levelo://app?vid=06a6853c-e4c2-4603-9ed1-4a9c3e8ef55b","ios":"levelo://app?vid=06a6853c-e4c2-4603-9ed1-4a9c3e8ef55b"},"vehicle_type_id":"4","last_reported":1717452466,"current_range_meters":4000,"station_id":"","pricing_plan_id":"cebpf4jnsgd1na2vs0mg"},{"bike_id":"107d4fa3-980f-4f3b-a0e9-f012c8a4714c","system_id":"levelo_inurba_marseille","lat":43.32367,"lon":5.388836,"is_reserved":false,"is_disabled":false,"rental_uris":{"android":"levelo://app?vid=107d4fa3-980f-4f3b-a0e9-f012c8a4714c","ios":"levelo://app?vid=107d4fa3-980f-4f3b-a0e9-f012c8a4714c"},"vehicle_type_id":"4","last_reported":1717452466,"current_range_meters":5200,"station_id":"ce4bhqp2rcd13ifvqhog","pricing_plan_id":"cebpf4jnsgd1na2vs0mg"},{"bike_id":"71f65606-1657-4516-b539-d6e5254dceda","system_id":"levelo_inurba_marseille","lat":43.32367,"lon":5.388836,"is_reserved":false,"is_disabled":false,"rental_uris":{"android":"levelo://app?vid=71f65606-1657-4516-b539-d6e5254dceda","ios":"levelo://app?vid=71f65606-1657-4516-b539-d6e5254dceda"},"vehicle_type_id":"4","last_reported":1717452466,"current_range_meters":0,"station_id":"ce4bhqp2rcd13ifvqhog","pricing_plan_id":"cebpf4jnsgd1na2vs0mg"},{"bike_id":"de425594-1d7a-416a-b1f2-5a19978920f0","system_id":"levelo_inurba_marseille","lat":43.32367,"lon":5.38888,"is_reserved":false,"is_disabled":false,"rental_uris":{"android":"levelo://app?vid=de425594-1d7a-416a-b1f2-5a19978920f0","ios":"levelo://app?vid=de425594-1d7a-416a-b1f2-5a19978920f0"},"vehicle_type_id":"4","last_reported":1717452466,"current_range_meters":3600,"station_id":"ce4bhqp2rcd13ifvqhog","pricing_plan_id":"cebpf4jnsgd1na2vs0mg"},{"bike_id":"a84943c1-78bb-4a0d-ac48-20dbb2b460fc","system_id":"levelo_inurba_marseille","lat":43.30531,"lon":5.391572,"is_reserved":false,"is_disabled":false,"rental_uris":{"android":"levelo://app?vid=a84943c1-78bb-4a0d-ac48-20dbb2b460fc","ios":"levelo://app?vid=a84943c1-78bb-4a0d-ac48-20dbb2b460fc"},"vehicle_type_id":"4","last_reported":1717452466,"current_range_meters":7200,"station_id":"ce4bh012rcd13ifvqcv0","pricing_plan_id":"cebpf4jnsgd1na2vs0mg"},{"bike_id":"95310373-a3bc-4266-9cf1-a267850db416","system_id":"levelo_inurba_marseille","lat":43.312025,"lon":5.393684,"is_reserved":false,"is_disabled":false,"rental_uris":{"android":"levelo://app?vid=95310373-a3bc-4266-9cf1-a267850db416","ios":"levelo://app?vid=95310373-a3bc-4266-9cf1-a267850db416"},"vehicle_type_id":"4","last_reported":1717452466,"current_range_meters":5600,"station_id":"","pricing_plan_id":"cebpf4jnsgd1na2vs0mg"},{"bike_id":"e285a9a0-5db7-494e-b865-2c9afc723195","system_id":"levelo_inurba_marseille","lat":43.311722,"lon":5.387247,"is_reserved":false,"is_disabled":false,"rental_uris":{"android":"levelo://app?vid=e285a9a0-5db7-494e-b865-2c9afc723195","ios":"levelo://app?vid=e285a9a0-5db7-494e-b865-2c9afc723195"},"vehicle_type_id":"4","last_reported":1717452466,"current_range_meters":15200,"station_id":"ce4bgv12rcd13ifvqcp0","pricing_plan_id":"cebpf4jnsgd1na2vs0mg"},{"bike_id":"8e8497c9-3957-4e26-919e-bd4b34ae9bd8","system_id":"levelo_inurba_marseille","lat":43.305994,"lon":5.393687,"is_reserved":false,"is_disabled":false,"rental_uris":{"android":"levelo://app?vid=8e8497c9-3957-4e26-919e-bd4b34ae9bd8","ios":"levelo://app?vid=8e8497c9-3957-4e26-919e-bd4b34ae9bd8"},"vehicle_type_id":"4","last_reported":1717452466,"current_range_meters":18400,"station_id":"ce4bh0p2rcd13ifvqd80","pricing_plan_id":"cebpf4jnsgd1na2vs0mg"},{"bike_id":"66a7563b-9b59-485b-8957-93a82aa8f39a","system_id":"levelo_inurba_marseille","lat":43.305994,"lon":5.393687,"is_reserved":false,"is_disabled":false,"rental_uris":{"android":"levelo://app?vid=66a7563b-9b59-485b-8957-93a82aa8f39a","ios":"levelo://app?vid=66a7563b-9b59-485b-8957-93a82aa8f39a"},"vehicle_type_id":"4","last_reported":1717452466,"current_range_meters":11200,"station_id":"ce4bh0p2rcd13ifvqd80","pricing_plan_id":"cebpf4jnsgd1na2vs0mg"},{"bike_id":"4bc0fcab-2612-4191-b20c-ae22679d9634","system_id":"levelo_inurba_marseille","lat":43.305994,"lon":5.393687,"is_reserved":false,"is_disabled":false,"rental_uris":{"android":"levelo://app?vid=4bc0fcab-2612-4191-b20c-ae22679d9634","ios":"levelo://app?vid=4bc0fcab-2612-4191-b20c-ae22679d9634"},"vehicle_type_id":"4","last_reported":1717452466,"current_range_meters":10000,"station_id":"ce4bh0p2rcd13ifvqd80","pricing_plan_id":"cebpf4jnsgd1na2vs0mg"},{"bike_id":"e893c4a8-6a20-4c80-9c69-4ea7ec76092f","system_id":"levelo_inurba_marseille","lat":43.30307,"lon":5.392,"is_reserved":false,"is_disabled":false,"rental_uris":{"android":"levelo://app?vid=e893c4a8-6a20-4c80-9c69-4ea7ec76092f","ios":"levelo://app?vid=e893c4a8-6a20-4c80-9c69-4ea7ec76092f"},"vehicle_type_id":"4","last_reported":1717452466,"current_range_meters":26000,"station_id":"ce4bgkh2rcd13ifvqbk0","pricing_plan_id":"cebpf4jnsgd1na2vs0mg"},{"bike_id":"e2bfbcc0-1385-4199-a6bf-5fc9c487d7da","system_id":"levelo_inurba_marseille","lat":43.30305,"lon":5.39205,"is_reserved":false,"is_disabled":false,"rental_uris":{"android":"levelo://app?vid=e2bfbcc0-1385-4199-a6bf-5fc9c487d7da","ios":"levelo://app?vid=e2bfbcc0-1385-4199-a6bf-5fc9c487d7da"},"vehicle_type_id":"4","last_reported":1717452466,"current_range_meters":15600,"station_id":"ce4bgkh2rcd13ifvqbk0","pricing_plan_id":"cebpf4jnsgd1na2vs0mg"},{"bike_id":"7c33fd71-7968-475e-b4d2-2f6fc47a1ba0","system_id":"levelo_inurba_marseille","lat":43.302992,"lon":5.392136,"is_reserved":false,"is_disabled":false,"rental_uris":{"android":"levelo://app?vid=7c33fd71-7968-475e-b4d2-2f6fc47a1ba0","ios":"levelo://app?vid=7c33fd71-7968-475e-b4d2-2f6fc47a1ba0"},"vehicle_type_id":"4","last_reported":1717452466,"current_range_meters":27200,"station_id":"ce4bgkh2rcd13ifvqbk0","pricing_plan_id":"cebpf4jnsgd1na2vs0mg"},{"bike_id":"fd96fef2-3f3f-4aae-91e6-cb5e5c684ad4","system_id":"levelo_inurba_marseille","lat":43.30337,"lon":5.39252,"is_reserved":false,"is_disabled":false,"rental_uris":{"android":"levelo://app?vid=fd96fef2-3f3f-4aae-91e6-cb5e5c684ad4","ios":"levelo://app?vid=fd96fef2-3f3f-4aae-91e6-cb5e5c684ad4"},"vehicle_type_id":"4","last_reported":1717452466,"current_range_meters":8000,"station_id":"","pricing_plan_id":"cebpf4jnsgd1na2vs0mg"},{"bike_id":"cd1de856-4d88-4e90-b771-3c4d588f4b36","system_id":"levelo_inurba_marseille","lat":43.30097,"lon":5.39068,"is_reserved":false,"is_disabled":false,"rental_uris":{"android":"levelo://app?vid=cd1de856-4d88-4e90-b771-3c4d588f4b36","ios":"levelo://app?vid=cd1de856-4d88-4e90-b771-3c4d588f4b36"},"vehicle_type_id":"4","last_reported":1717452466,"current_range_meters":4000,"station_id":"ce4bh192rcd13ifvqdb0","pricing_plan_id":"cebpf4jnsgd1na2vs0mg"},{"bike_id":"a30d97d5-a174-429f-ac1a-a954326f069c","system_id":"levelo_inurba_marseille","lat":43.300978,"lon":5.390791,"is_reserved":false,"is_disabled":false,"rental_uris":{"android":"levelo://app?vid=a30d97d5-a174-429f-ac1a-a954326f069c","ios":"levelo://app?vid=a30d97d5-a174-429f-ac1a-a954326f069c"},"vehicle_type_id":"4","last_reported":1717452466,"current_range_meters":0,"station_id":"ce4bh192rcd13ifvqdb0","pricing_plan_id":"cebpf4jnsgd1na2vs0mg"},{"bike_id":"cd540f56-c6d8-43db-82e6-8e924ed8a7bd","system_id":"levelo_inurba_marseille","lat":43.300934,"lon":5.390755,"is_reserved":false,"is_disabled":false,"rental_uris":{"android":"levelo://app?vid=cd540f56-c6d8-43db-82e6-8e924ed8a7bd","ios":"levelo://app?vid=cd540f56-c6d8-43db-82e6-8e924ed8a7bd"},"vehicle_type_id":"4","last_reported":1717452466,"current_range_meters":17600,"station_id":"ce4bh192rcd13ifvqdb0","pricing_plan_id":"cebpf4jnsgd1na2vs0mg"},{"bike_id":"fde8d6df-a904-4fb9-9eab-9ee873bb8819","system_id":"levelo_inurba_marseille","lat":43.30092,"lon":5.390746,"is_reserved":false,"is_disabled":false,"rental_uris":{"android":"levelo://app?vid=fde8d6df-a904-4fb9-9eab-9ee873bb8819","ios":"levelo://app?vid=fde8d6df-a904-4fb9-9eab-9ee873bb8819"},"vehicle_type_id":"4","last_reported":1717452466,"current_range_meters":6400,"station_id":"ce4bh192rcd13ifvqdb0","pricing_plan_id":"cebpf4jnsgd1na2vs0mg"},{"bike_id":"2819e542-9192-422c-8b84-2e1e03b5ac55","system_id":"levelo_inurba_marseille","lat":43.300891,"lon":5.390722,"is_reserved":false,"is_disabled":false,"rental_uris":{"android":"levelo://app?vid=2819e542-9192-422c-8b84-2e1e03b5ac55","ios":"levelo://app?vid=2819e542-9192-422c-8b84-2e1e03b5ac55"},"vehicle_type_id":"4","last_reported":1717452466,"current_range_meters":22800,"station_id":"ce4bh192rcd13ifvqdb0","pricing_plan_id":"cebpf4jnsgd1na2vs0mg"},{"bike_id":"bb1dae92-1034-4867-9810-1173ee9158f1","system_id":"levelo_inurba_marseille","lat":43.294063,"lon":5.380383,"is_reserved":false,"is_disabled":false,"rental_uris":{"android":"levelo://app?vid=bb1dae92-1034-4867-9810-1173ee9158f1","ios":"levelo://app?vid=bb1dae92-1034-4867-9810-1173ee9158f1"},"vehicle_type_id":"4","last_reported":1717452466,"current_range_meters":0,"station_id":"","pricing_plan_id":"cebpf4jnsgd1na2vs0mg"},{"bike_id":"51ddbc2b-5eca-423d-be56-d19b1f57d595","system_id":"levelo_inurba_marseille","lat":43.302992,"lon":5.392136,"is_reserved":false,"is_disabled":false,"rental_uris":{"android":"levelo://app?vid=51ddbc2b-5eca-423d-be56-d19b1f57d595","ios":"levelo://app?vid=51ddbc2b-5eca-423d-be56-d19b1f57d595"},"vehicle_type_id":"4","last_reported":1717452466,"current_range_meters":16000,"station_id":"ce4bgkh2rcd13ifvqbk0","pricing_plan_id":"cebpf4jnsgd1na2vs0mg"},{"bike_id":"dc68e4d7-30ce-4d08-9aff-312acaa43c57","system_id":"levelo_inurba_marseille","lat":43.298764,"lon":5.388973,"is_reserved":false,"is_disabled":false,"rental_uris":{"android":"levelo://app?vid=dc68e4d7-30ce-4d08-9aff-312acaa43c57","ios":"levelo://app?vid=dc68e4d7-30ce-4d08-9aff-312acaa43c57"},"vehicle_type_id":"4","last_reported":1717452466,"current_range_meters":11600,"station_id":"ce4bh392rcd13ifvqdl0","pricing_plan_id":"cebpf4jnsgd1na2vs0mg"},{"bike_id":"7e7897af-c3ab-4e6a-8f87-72b3326341ab","system_id":"levelo_inurba_marseille","lat":43.298764,"lon":5.388973,"is_reserved":false,"is_disabled":false,"rental_uris":{"android":"levelo://app?vid=7e7897af-c3ab-4e6a-8f87-72b3326341ab","ios":"levelo://app?vid=7e7897af-c3ab-4e6a-8f87-72b3326341ab"},"vehicle_type_id":"4","last_reported":1717452466,"current_range_meters":28800,"station_id":"ce4bh392rcd13ifvqdl0","pricing_plan_id":"cebpf4jnsgd1na2vs0mg"},{"bike_id":"118b3a26-7f1a-4843-9d54-9e4a30a6ab9a","system_id":"levelo_inurba_marseille","lat":43.313003,"lon":5.396679,"is_reserved":false,"is_disabled":false,"rental_uris":{"android":"levelo://app?vid=118b3a26-7f1a-4843-9d54-9e4a30a6ab9a","ios":"levelo://app?vid=118b3a26-7f1a-4843-9d54-9e4a30a6ab9a"},"vehicle_type_id":"4","last_reported":1717452466,"current_range_meters":0,"station_id":"ce4bgvp2rcd13ifvqcu0","pricing_plan_id":"cebpf4jnsgd1na2vs0mg"},{"bike_id":"23341138-a3cf-411b-b4d1-725f95f5432b","system_id":"levelo_inurba_marseille","lat":43.309047,"lon":5.396551,"is_reserved":false,"is_disabled":false,"rental_uris":{"android":"levelo://app?vid=23341138-a3cf-411b-b4d1-725f95f5432b","ios":"levelo://app?vid=23341138-a3cf-411b-b4d1-725f95f5432b"},"vehicle_type_id":"4","last_reported":1717452466,"current_range_meters":22000,"station_id":"ce4bh012rcd13ifvqcv0","pricing_plan_id":"cebpf4jnsgd1na2vs0mg"},{"bike_id":"1c6e0d38-439a-4469-8929-169da8bfaeb8","system_id":"levelo_inurba_marseille","lat":43.309047,"lon":5.396551,"is_reserved":false,"is_disabled":false,"rental_uris":{"android":"levelo://app?vid=1c6e0d38-439a-4469-8929-169da8bfaeb8","ios":"levelo://app?vid=1c6e0d38-439a-4469-8929-169da8bfaeb8"},"vehicle_type_id":"4","last_reported":1717452466,"current_range_meters":0,"station_id":"ce4bh012rcd13ifvqcv0","pricing_plan_id":"cebpf4jnsgd1na2vs0mg"},{"bike_id":"8374be2a-8d76-4ad0-930c-e746e8710a99","system_id":"levelo_inurba_marseille","lat":43.30889,"lon":5.39633,"is_reserved":false,"is_disabled":false,"rental_uris":{"android":"levelo://app?vid=8374be2a-8d76-4ad0-930c-e746e8710a99","ios":"levelo://app?vid=8374be2a-8d76-4ad0-930c-e746e8710a99"},"vehicle_type_id":"4","last_reported":1717452466,"current_range_meters":7200,"station_id":"ce4bh012rcd13ifvqcv0","pricing_plan_id":"cebpf4jnsgd1na2vs0mg"},{"bike_id":"ecb455ad-4720-4106-9c22-889157815997","system_id":"levelo_inurba_marseille","lat":43.292005,"lon":5.357875,"is_reserved":false,"is_disabled":false,"rental_uris":{"android":"levelo://app?vid=ecb455ad-4720-4106-9c22-889157815997","ios":"levelo://app?vid=ecb455ad-4720-4106-9c22-889157815997"},"vehicle_type_id":"4","last_reported":1717452466,"current_range_meters":31600,"station_id":"ce4bhb12rcd13ifvqel0","pricing_plan_id":"cebpf4jnsgd1na2vs0mg"},{"bike_id":"f89cf5a0-b418-472d-bd8d-29861d624f4c","system_id":"levelo_inurba_marseille","lat":43.313127,"lon":5.396821,"is_reserved":false,"is_disabled":false,"rental_uris":{"android":"levelo://app?vid=f89cf5a0-b418-472d-bd8d-29861d624f4c","ios":"levelo://app?vid=f89cf5a0-b418-472d-bd8d-29861d624f4c"},"vehicle_type_id":"4","last_reported":1717452466,"current_range_meters":14000,"station_id":"ce4bgvp2rcd13ifvqcu0","pricing_plan_id":"cebpf4jnsgd1na2vs0mg"},{"bike_id":"67d7a3fa-8da5-40c1-a306-05f9fae3d6be","system_id":"levelo_inurba_marseille","lat":43.31323,"lon":5.39682,"is_reserved":false,"is_disabled":false,"rental_uris":{"android":"levelo://app?vid=67d7a3fa-8da5-40c1-a306-05f9fae3d6be","ios":"levelo://app?vid=67d7a3fa-8da5-40c1-a306-05f9fae3d6be"},"vehicle_type_id":"4","last_reported":1717452466,"current_range_meters":5200,"station_id":"ce4bgvp2rcd13ifvqcu0","pricing_plan_id":"cebpf4jnsgd1na2vs0mg"},{"bike_id":"fd58661c-9b46-4691-a6b2-9fbed91972d8","system_id":"levelo_inurba_marseille","lat":43.309038,"lon":5.396546,"is_reserved":false,"is_disabled":false,"rental_uris":{"android":"levelo://app?vid=fd58661c-9b46-4691-a6b2-9fbed91972d8","ios":"levelo://app?vid=fd58661c-9b46-4691-a6b2-9fbed91972d8"},"vehicle_type_id":"4","last_reported":1717452466,"current_range_meters":17200,"station_id":"ce4bh012rcd13ifvqcv0","pricing_plan_id":"cebpf4jnsgd1na2vs0mg"},{"bike_id":"b811fbac-ad93-44e7-b6ce-80d6d8e10cf0","system_id":"levelo_inurba_marseille","lat":43.313291,"lon":5.396838,"is_reserved":false,"is_disabled":false,"rental_uris":{"android":"levelo://app?vid=b811fbac-ad93-44e7-b6ce-80d6d8e10cf0","ios":"levelo://app?vid=b811fbac-ad93-44e7-b6ce-80d6d8e10cf0"},"vehicle_type_id":"4","last_reported":1717452466,"current_range_meters":31600,"station_id":"ce4bgvp2rcd13ifvqcu0","pricing_plan_id":"cebpf4jnsgd1na2vs0mg"},{"bike_id":"04d390bb-df88-4050-b396-f9ba4a6ee525","system_id":"levelo_inurba_marseille","lat":43.309038,"lon":5.396546,"is_reserved":false,"is_disabled":false,"rental_uris":{"android":"levelo://app?vid=04d390bb-df88-4050-b396-f9ba4a6ee525","ios":"levelo://app?vid=04d390bb-df88-4050-b396-f9ba4a6ee525"},"vehicle_type_id":"4","last_reported":1717452466,"current_range_meters":24000,"station_id":"ce4bh012rcd13ifvqcv0","pricing_plan_id":"cebpf4jnsgd1na2vs0mg"},{"bike_id":"ac64f0d5-1305-4cf1-aadc-f260dd34d46a","system_id":"levelo_inurba_marseille","lat":43.31321,"lon":5.39686,"is_reserved":false,"is_disabled":false,"rental_uris":{"android":"levelo://app?vid=ac64f0d5-1305-4cf1-aadc-f260dd34d46a","ios":"levelo://app?vid=ac64f0d5-1305-4cf1-aadc-f260dd34d46a"},"vehicle_type_id":"4","last_reported":1717452466,"current_range_meters":14800,"station_id":"ce4bgvp2rcd13ifvqcu0","pricing_plan_id":"cebpf4jnsgd1na2vs0mg"},{"bike_id":"d1655a8a-4ec7-4159-87f1-93f0a9200b52","system_id":"levelo_inurba_marseille","lat":43.313291,"lon":5.396838,"is_reserved":false,"is_disabled":false,"rental_uris":{"android":"levelo://app?vid=d1655a8a-4ec7-4159-87f1-93f0a9200b52","ios":"levelo://app?vid=d1655a8a-4ec7-4159-87f1-93f0a9200b52"},"vehicle_type_id":"4","last_reported":1717452466,"current_range_meters":2800,"station_id":"ce4bgvp2rcd13ifvqcu0","pricing_plan_id":"cebpf4jnsgd1na2vs0mg"},{"bike_id":"b0e62f19-cfd5-4a7f-a809-aa2f15fd2665","system_id":"levelo_inurba_marseille","lat":43.309047,"lon":5.396551,"is_reserved":false,"is_disabled":false,"rental_uris":{"android":"levelo://app?vid=b0e62f19-cfd5-4a7f-a809-aa2f15fd2665","ios":"levelo://app?vid=b0e62f19-cfd5-4a7f-a809-aa2f15fd2665"},"vehicle_type_id":"4","last_reported":1717452466,"current_range_meters":19600,"station_id":"ce4bh012rcd13ifvqcv0","pricing_plan_id":"cebpf4jnsgd1na2vs0mg"},{"bike_id":"c709f633-cb42-43fa-a71d-e7ce81c68d57","system_id":"levelo_inurba_marseille","lat":43.313291,"lon":5.396838,"is_reserved":false,"is_disabled":false,"rental_uris":{"android":"levelo://app?vid=c709f633-cb42-43fa-a71d-e7ce81c68d57","ios":"levelo://app?vid=c709f633-cb42-43fa-a71d-e7ce81c68d57"},"vehicle_type_id":"4","last_reported":1717452466,"current_range_meters":27200,"station_id":"ce4bgvp2rcd13ifvqcu0","pricing_plan_id":"cebpf4jnsgd1na2vs0mg"},{"bike_id":"01c3de49-38ae-4867-89b6-06ffde7a1adf","system_id":"levelo_inurba_marseille","lat":43.313291,"lon":5.396838,"is_reserved":false,"is_disabled":false,"rental_uris":{"android":"levelo://app?vid=01c3de49-38ae-4867-89b6-06ffde7a1adf","ios":"levelo://app?vid=01c3de49-38ae-4867-89b6-06ffde7a1adf"},"vehicle_type_id":"4","last_reported":1717452466,"current_range_meters":800,"station_id":"ce4bgvp2rcd13ifvqcu0","pricing_plan_id":"cebpf4jnsgd1na2vs0mg"},{"bike_id":"73f82608-dfc8-44f3-830a-381798b4cdad","system_id":"levelo_inurba_marseille","lat":43.31328,"lon":5.3969,"is_reserved":false,"is_disabled":false,"rental_uris":{"android":"levelo://app?vid=73f82608-dfc8-44f3-830a-381798b4cdad","ios":"levelo://app?vid=73f82608-dfc8-44f3-830a-381798b4cdad"},"vehicle_type_id":"4","last_reported":1717452466,"current_range_meters":2400,"station_id":"ce4bgvp2rcd13ifvqcu0","pricing_plan_id":"cebpf4jnsgd1na2vs0mg"},{"bike_id":"1f649f26-1066-4a5f-ad2e-53a05de859b4","system_id":"levelo_inurba_marseille","lat":43.31335,"lon":5.3969,"is_reserved":false,"is_disabled":false,"rental_uris":{"android":"levelo://app?vid=1f649f26-1066-4a5f-ad2e-53a05de859b4","ios":"levelo://app?vid=1f649f26-1066-4a5f-ad2e-53a05de859b4"},"vehicle_type_id":"4","last_reported":1717452466,"current_range_meters":22800,"station_id":"ce4bgvp2rcd13ifvqcu0","pricing_plan_id":"cebpf4jnsgd1na2vs0mg"},{"bike_id":"d864516c-2941-4b0b-80a4-32b5646db76f","system_id":"levelo_inurba_marseille","lat":43.309047,"lon":5.396551,"is_reserved":false,"is_disabled":false,"rental_uris":{"android":"levelo://app?vid=d864516c-2941-4b0b-80a4-32b5646db76f","ios":"levelo://app?vid=d864516c-2941-4b0b-80a4-32b5646db76f"},"vehicle_type_id":"4","last_reported":1717452466,"current_range_meters":16800,"station_id":"ce4bh012rcd13ifvqcv0","pricing_plan_id":"cebpf4jnsgd1na2vs0mg"},{"bike_id":"c118501b-690c-412e-a083-04832a3f2e0b","system_id":"levelo_inurba_marseille","lat":43.291675,"lon":5.371583,"is_reserved":false,"is_disabled":false,"rental_uris":{"android":"levelo://app?vid=c118501b-690c-412e-a083-04832a3f2e0b","ios":"levelo://app?vid=c118501b-690c-412e-a083-04832a3f2e0b"},"vehicle_type_id":"4","last_reported":1717452466,"current_range_meters":24800,"station_id":"ce4bha92rcd13ifvqeh0","pricing_plan_id":"cebpf4jnsgd1na2vs0mg"},{"bike_id":"af2ab395-fe1f-4ef1-98af-c3e410cc9582","system_id":"levelo_inurba_marseille","lat":43.309047,"lon":5.396551,"is_reserved":false,"is_disabled":false,"rental_uris":{"android":"levelo://app?vid=af2ab395-fe1f-4ef1-98af-c3e410cc9582","ios":"levelo://app?vid=af2ab395-fe1f-4ef1-98af-c3e410cc9582"},"vehicle_type_id":"4","last_reported":1717452466,"current_range_meters":10800,"station_id":"ce4bh012rcd13ifvqcv0","pricing_plan_id":"cebpf4jnsgd1na2vs0mg"},{"bike_id":"bf838e39-c0b6-433f-8f23-379c6999f64c","system_id":"levelo_inurba_marseille","lat":43.313286,"lon":5.396918,"is_reserved":false,"is_disabled":false,"rental_uris":{"android":"levelo://app?vid=bf838e39-c0b6-433f-8f23-379c6999f64c","ios":"levelo://app?vid=bf838e39-c0b6-433f-8f23-379c6999f64c"},"vehicle_type_id":"4","last_reported":1717452466,"current_range_meters":1600,"station_id":"ce4bgvp2rcd13ifvqcu0","pricing_plan_id":"cebpf4jnsgd1na2vs0mg"},{"bike_id":"5cb95b48-0a4d-4ff5-8f5d-2e4e9361d1c4","system_id":"levelo_inurba_marseille","lat":43.309047,"lon":5.396551,"is_reserved":false,"is_disabled":false,"rental_uris":{"android":"levelo://app?vid=5cb95b48-0a4d-4ff5-8f5d-2e4e9361d1c4","ios":"levelo://app?vid=5cb95b48-0a4d-4ff5-8f5d-2e4e9361d1c4"},"vehicle_type_id":"4","last_reported":1717452466,"current_range_meters":13200,"station_id":"ce4bh012rcd13ifvqcv0","pricing_plan_id":"cebpf4jnsgd1na2vs0mg"},{"bike_id":"9cfdac46-0bd4-435a-93b3-81a97fd9c45a","system_id":"levelo_inurba_marseille","lat":43.313291,"lon":5.396838,"is_reserved":false,"is_disabled":false,"rental_uris":{"android":"levelo://app?vid=9cfdac46-0bd4-435a-93b3-81a97fd9c45a","ios":"levelo://app?vid=9cfdac46-0bd4-435a-93b3-81a97fd9c45a"},"vehicle_type_id":"4","last_reported":1717452466,"current_range_meters":10000,"station_id":"ce4bgvp2rcd13ifvqcu0","pricing_plan_id":"cebpf4jnsgd1na2vs0mg"},{"bike_id":"12f59f1f-766a-429e-98d9-e6640ff29335","system_id":"levelo_inurba_marseille","lat":43.313291,"lon":5.396838,"is_reserved":false,"is_disabled":false,"rental_uris":{"android":"levelo://app?vid=12f59f1f-766a-429e-98d9-e6640ff29335","ios":"levelo://app?vid=12f59f1f-766a-429e-98d9-e6640ff29335"},"vehicle_type_id":"4","last_reported":1717452466,"current_range_meters":20800,"station_id":"ce4bgvp2rcd13ifvqcu0","pricing_plan_id":"cebpf4jnsgd1na2vs0mg"},{"bike_id":"eb6887a5-2f2a-429b-b1ba-af0867c28cf3","system_id":"levelo_inurba_marseille","lat":43.309047,"lon":5.396551,"is_reserved":false,"is_disabled":false,"rental_uris":{"android":"levelo://app?vid=eb6887a5-2f2a-429b-b1ba-af0867c28cf3","ios":"levelo://app?vid=eb6887a5-2f2a-429b-b1ba-af0867c28cf3"},"vehicle_type_id":"4","last_reported":1717452466,"current_range_meters":2800,"station_id":"ce4bh012rcd13ifvqcv0","pricing_plan_id":"cebpf4jnsgd1na2vs0mg"},{"bike_id":"3e58cec3-a0a2-4a13-97e6-4c773d54aeb4","system_id":"levelo_inurba_marseille","lat":43.309047,"lon":5.396551,"is_reserved":false,"is_disabled":false,"rental_uris":{"android":"levelo://app?vid=3e58cec3-a0a2-4a13-97e6-4c773d54aeb4","ios":"levelo://app?vid=3e58cec3-a0a2-4a13-97e6-4c773d54aeb4"},"vehicle_type_id":"4","last_reported":1717452466,"current_range_meters":12800,"station_id":"ce4bh012rcd13ifvqcv0","pricing_plan_id":"cebpf4jnsgd1na2vs0mg"},{"bike_id":"4aead0e3-e6c0-496d-bbef-a51036caf977","system_id":"levelo_inurba_marseille","lat":43.31324,"lon":5.39699,"is_reserved":false,"is_disabled":false,"rental_uris":{"android":"levelo://app?vid=4aead0e3-e6c0-496d-bbef-a51036caf977","ios":"levelo://app?vid=4aead0e3-e6c0-496d-bbef-a51036caf977"},"vehicle_type_id":"4","last_reported":1717452466,"current_range_meters":3200,"station_id":"ce4bgvp2rcd13ifvqcu0","pricing_plan_id":"cebpf4jnsgd1na2vs0mg"},{"bike_id":"4d3c82a3-c6c6-4d5c-a61a-301f82f9bcdc","system_id":"levelo_inurba_marseille","lat":43.313291,"lon":5.396838,"is_reserved":false,"is_disabled":false,"rental_uris":{"android":"levelo://app?vid=4d3c82a3-c6c6-4d5c-a61a-301f82f9bcdc","ios":"levelo://app?vid=4d3c82a3-c6c6-4d5c-a61a-301f82f9bcdc"},"vehicle_type_id":"4","last_reported":1717452466,"current_range_meters":28400,"station_id":"ce4bgvp2rcd13ifvqcu0","pricing_plan_id":"cebpf4jnsgd1na2vs0mg"},{"bike_id":"3f1488db-aea7-4a6c-a1d9-ca00806c9427","system_id":"levelo_inurba_marseille","lat":43.309047,"lon":5.396551,"is_reserved":false,"is_disabled":false,"rental_uris":{"android":"levelo://app?vid=3f1488db-aea7-4a6c-a1d9-ca00806c9427","ios":"levelo://app?vid=3f1488db-aea7-4a6c-a1d9-ca00806c9427"},"vehicle_type_id":"4","last_reported":1717452466,"current_range_meters":13600,"station_id":"ce4bh012rcd13ifvqcv0","pricing_plan_id":"cebpf4jnsgd1na2vs0mg"},{"bike_id":"a456f48f-aeca-403d-840a-560c5ab5617d","system_id":"levelo_inurba_marseille","lat":43.309038,"lon":5.396546,"is_reserved":false,"is_disabled":false,"rental_uris":{"android":"levelo://app?vid=a456f48f-aeca-403d-840a-560c5ab5617d","ios":"levelo://app?vid=a456f48f-aeca-403d-840a-560c5ab5617d"},"vehicle_type_id":"4","last_reported":1717452466,"current_range_meters":31200,"station_id":"ce4bh012rcd13ifvqcv0","pricing_plan_id":"cebpf4jnsgd1na2vs0mg"},{"bike_id":"7f6d0815-4021-48e7-ab9e-a3713949869e","system_id":"levelo_inurba_marseille","lat":43.313125,"lon":5.39706,"is_reserved":false,"is_disabled":false,"rental_uris":{"android":"levelo://app?vid=7f6d0815-4021-48e7-ab9e-a3713949869e","ios":"levelo://app?vid=7f6d0815-4021-48e7-ab9e-a3713949869e"},"vehicle_type_id":"4","last_reported":1717452466,"current_range_meters":22000,"station_id":"ce4bgvp2rcd13ifvqcu0","pricing_plan_id":"cebpf4jnsgd1na2vs0mg"},{"bike_id":"456e8f1d-7bea-4ad0-bf3e-5dfc25b738b2","system_id":"levelo_inurba_marseille","lat":43.302008,"lon":5.394694,"is_reserved":false,"is_disabled":false,"rental_uris":{"android":"levelo://app?vid=456e8f1d-7bea-4ad0-bf3e-5dfc25b738b2","ios":"levelo://app?vid=456e8f1d-7bea-4ad0-bf3e-5dfc25b738b2"},"vehicle_type_id":"4","last_reported":1717452466,"current_range_meters":12400,"station_id":"ce4bh0p2rcd13ifvqd70","pricing_plan_id":"cebpf4jnsgd1na2vs0mg"},{"bike_id":"970e6d41-56f8-455b-8448-2619213be576","system_id":"levelo_inurba_marseille","lat":43.29095,"lon":5.37636,"is_reserved":false,"is_disabled":false,"rental_uris":{"android":"levelo://app?vid=970e6d41-56f8-455b-8448-2619213be576","ios":"levelo://app?vid=970e6d41-56f8-455b-8448-2619213be576"},"vehicle_type_id":"4","last_reported":1717452466,"current_range_meters":800,"station_id":"","pricing_plan_id":"cebpf4jnsgd1na2vs0mg"},{"bike_id":"dee258d3-19e1-48fe-8660-d985dcb6f0ff","system_id":"levelo_inurba_marseille","lat":43.3021,"lon":5.39471,"is_reserved":false,"is_disabled":false,"rental_uris":{"android":"levelo://app?vid=dee258d3-19e1-48fe-8660-d985dcb6f0ff","ios":"levelo://app?vid=dee258d3-19e1-48fe-8660-d985dcb6f0ff"},"vehicle_type_id":"4","last_reported":1717452466,"current_range_meters":27200,"station_id":"ce4bh0p2rcd13ifvqd70","pricing_plan_id":"cebpf4jnsgd1na2vs0mg"},{"bike_id":"40fd90cd-4233-4454-ac6b-7c44a0f47048","system_id":"levelo_inurba_marseille","lat":43.302008,"lon":5.394694,"is_reserved":false,"is_disabled":false,"rental_uris":{"android":"levelo://app?vid=40fd90cd-4233-4454-ac6b-7c44a0f47048","ios":"levelo://app?vid=40fd90cd-4233-4454-ac6b-7c44a0f47048"},"vehicle_type_id":"4","last_reported":1717452466,"current_range_meters":19600,"station_id":"ce4bh0p2rcd13ifvqd70","pricing_plan_id":"cebpf4jnsgd1na2vs0mg"},{"bike_id":"0e4c7fe0-9312-4e9d-ae48-7992e3e882e6","system_id":"levelo_inurba_marseille","lat":43.29354,"lon":5.384092,"is_reserved":false,"is_disabled":false,"rental_uris":{"android":"levelo://app?vid=0e4c7fe0-9312-4e9d-ae48-7992e3e882e6","ios":"levelo://app?vid=0e4c7fe0-9312-4e9d-ae48-7992e3e882e6"},"vehicle_type_id":"4","last_reported":1717452466,"current_range_meters":12000,"station_id":"","pricing_plan_id":"cebpf4jnsgd1na2vs0mg"},{"bike_id":"6ef2ef13-a1e8-4e2b-83bc-0ffb5b0b3057","system_id":"levelo_inurba_marseille","lat":43.289184,"lon":5.366408,"is_reserved":false,"is_disabled":false,"rental_uris":{"android":"levelo://app?vid=6ef2ef13-a1e8-4e2b-83bc-0ffb5b0b3057","ios":"levelo://app?vid=6ef2ef13-a1e8-4e2b-83bc-0ffb5b0b3057"},"vehicle_type_id":"4","last_reported":1717452466,"current_range_meters":24800,"station_id":"ce4bhap2rcd13ifvqek0","pricing_plan_id":"cebpf4jnsgd1na2vs0mg"},{"bike_id":"f0d6fa5a-3de2-42e1-9939-e30770b16a3b","system_id":"levelo_inurba_marseille","lat":43.290319,"lon":5.375732,"is_reserved":false,"is_disabled":false,"rental_uris":{"android":"levelo://app?vid=f0d6fa5a-3de2-42e1-9939-e30770b16a3b","ios":"levelo://app?vid=f0d6fa5a-3de2-42e1-9939-e30770b16a3b"},"vehicle_type_id":"4","last_reported":1717452466,"current_range_meters":25600,"station_id":"ce4bh692rcd13ifvqe90","pricing_plan_id":"cebpf4jnsgd1na2vs0mg"},{"bike_id":"a30e9c66-2d4e-4123-9725-fafc89ab3ff0","system_id":"levelo_inurba_marseille","lat":43.290624,"lon":5.359245,"is_reserved":false,"is_disabled":false,"rental_uris":{"android":"levelo://app?vid=a30e9c66-2d4e-4123-9725-fafc89ab3ff0","ios":"levelo://app?vid=a30e9c66-2d4e-4123-9725-fafc89ab3ff0"},"vehicle_type_id":"4","last_reported":1717452466,"current_range_meters":21200,"station_id":"ce4bha92rcd13ifvqeg0","pricing_plan_id":"cebpf4jnsgd1na2vs0mg"},{"bike_id":"b4a972a1-4157-46af-b0b6-948a58f6f7fe","system_id":"levelo_inurba_marseille","lat":43.290319,"lon":5.375732,"is_reserved":false,"is_disabled":false,"rental_uris":{"android":"levelo://app?vid=b4a972a1-4157-46af-b0b6-948a58f6f7fe","ios":"levelo://app?vid=b4a972a1-4157-46af-b0b6-948a58f6f7fe"},