{"last_updated":1693649176,"ttl":30,"version":"2.2","data":{"bikes":[{"bike_id":"b33c4e84-4c63-48b0-a490-5a538ec35e49","system_id":"levelo_inurba_marseille","lat":43.31341,"lon":5.367098,"is_reserved":false,"is_disabled":false,"rental_uris":{"android":"levelo://app?vid=b33c4e84-4c63-48b0-a490-5a538ec35e49","ios":"levelo://app?vid=b33c4e84-4c63-48b0-a490-5a538ec35e49"},"vehicle_type_id":"4","last_reported":1693649177,"current_range_meters":31200,"station_id":"ce4bgr92rcd13ifvqc6g","pricing_plan_id":"free"},{"bike_id":"f9f6cb9b-2441-4290-ba6b-c8385d7f9cd3","system_id":"levelo_inurba_marseille","lat":43.31341,"lon":5.367098,"is_reserved":false,"is_disabled":false,"rental_uris":{"android":"levelo://app?vid=f9f6cb9b-2441-4290-ba6b-c8385d7f9cd3","ios":"levelo://app?vid=f9f6cb9b-2441-4290-ba6b-c8385d7f9cd3"},"vehicle_type_id":"4","last_reported":1693649177,"current_range_meters":27200,"station_id":"ce4bgr92rcd13ifvqc6g","pricing_plan_id":"free"},{"bike_id":"83bfdb59-af08-4fae-9776-7bbfe591021b","system_id":"levelo_inurba_marseille","lat":43.31341,"lon":5.367098,"is_reserved":false,"is_disabled":false,"rental_uris":{"android":"levelo://app?vid=83bfdb59-af08-4fae-9776-7bbfe591021b","ios":"levelo://app?vid=83bfdb59-af08-4fae-9776-7bbfe591021b"},"vehicle_type_id":"4","last_reported":1693649177,"current_range_meters":15200,"station_id":"ce4bgr92rcd13ifvqc6g","pricing_plan_id":"free"},{"bike_id":"703a92a8-6bec-4b66-8576-9ee93182e6cc","system_id":"levelo_inurba_marseille","lat":43.312239,"lon":5.368562,"is_reserved":false,"is_disabled":false,"rental_uris":{"android":"levelo://app?vid=703a92a8-6bec-4b66-8576-9ee93182e6cc","ios":"levelo://app?vid=703a92a8-6bec-4b66-8576-9ee93182e6cc"},"vehicle_type_id":"4","last_reported":1693649177,"current_range_meters":28400,"station_id":"ce4bgl92rcd13ifvqbq0","pricing_plan_id":"free"},{"bike_id":"9ee2251d-1747-4e60-b969-f62cf8fbb84c","system_id":"levelo_inurba_marseille","lat":43.309076,"lon":5.368465,"is_reserved":false,"is_disabled":false,"rental_uris":{"android":"levelo://app?vid=9ee2251d-1747-4e60-b969-f62cf8fbb84c","ios":"levelo://app?vid=9ee2251d-1747-4e60-b969-f62cf8fbb84c"},"vehicle_type_id":"4","last_reported":1693649177,"current_range_meters":14800,"station_id":"ce4bgn92rcd13ifvqbvg","pricing_plan_id":"free"},{"bike_id":"d2be997d-44d2-40a5-bb20-02aeaaf65fa5","system_id":"levelo_inurba_marseille","lat":43.314811,"lon":5.373104,"is_reserved":false,"is_disabled":false,"rental_uris":{"android":"levelo://app?vid=d2be997d-44d2-40a5-bb20-02aeaaf65fa5","ios":"levelo://app?vid=d2be997d-44d2-40a5-bb20-02aeaaf65fa5"},"vehicle_type_id":"4","last_reported":1693649177,"current_range_meters":30800,"station_id":"ce4bgt12rcd13ifvqcd0","pricing_plan_id":"free"},{"bike_id":"dbdfb9f1-27ea-41a9-8aaa-8528b50c591b","system_id":"levelo_inurba_marseille","lat":43.30885,"lon":5.37206,"is_reserved":false,"is_disabled":false,"rental_uris":{"android":"levelo://app?vid=dbdfb9f1-27ea-41a9-8aaa-8528b50c591b","ios":"levelo://app?vid=dbdfb9f1-27ea-41a9-8aaa-8528b50c591b"},"vehicle_type_id":"4","last_reported":1693649177,"current_range_meters":20800,"station_id":"ce4bguh2rcd13ifvqckg","pricing_plan_id":"free"},{"bike_id":"971b7cdc-5ca6-4770-87da-800576e8aee5","system_id":"levelo_inurba_marseille","lat":43.305368,"lon":5.367343,"is_reserved":false,"is_disabled":false,"rental_uris":{"android":"levelo://app?vid=971b7cdc-5ca6-4770-87da-800576e8aee5","ios":"levelo://app?vid=971b7cdc-5ca6-4770-87da-800576e8aee5"},"vehicle_type_id":"4","last_reported":1693649177,"current_range_meters":29600,"station_id":"ce4bgrp2rcd13ifvqc9g","pricing_plan_id":"free"},{"bike_id":"221e5035-4c24-4b36-aaab-433fcdfa271c","system_id":"levelo_inurba_marseille","lat":43.305706,"lon":5.365654,"is_reserved":false,"is_disabled":false,"rental_uris":{"android":"levelo://app?vid=221e5035-4c24-4b36-aaab-433fcdfa271c","ios":"levelo://app?vid=221e5035-4c24-4b36-aaab-433fcdfa271c"},"vehicle_type_id":"4","last_reported":1693649177,"current_range_meters":29600,"station_id":"ce4bgs12rcd13ifvqcag","pricing_plan_id":"free"},{"bike_id":"55d73a7b-ee64-48ba-a072-d0de272a3852","system_id":"levelo_inurba_marseille","lat":43.305706,"lon":5.365654,"is_reserved":false,"is_disabled":false,"rental_uris":{"android":"levelo://app?vid=55d73a7b-ee64-48ba-a072-d0de272a3852","ios":"levelo://app?vid=55d73a7b-ee64-48ba-a072-d0de272a3852"},"vehicle_type_id":"4","last_reported":1693649177,"current_range_meters":13600,"station_id":"ce4bgs12rcd13ifvqcag","pricing_plan_id":"free"},{"bike_id":"fb85d315-9c89-4bdb-9322-3f4e3a7654ee","system_id":"levelo_inurba_marseille","lat":43.305706,"lon":5.365654,"is_reserved":false,"is_disabled":false,"rental_uris":{"android":"levelo://app?vid=fb85d315-9c89-4bdb-9322-3f4e3a7654ee","ios":"levelo://app?vid=fb85d315-9c89-4bdb-9322-3f4e3a7654ee"},"vehicle_type_id":"4","last_reported":1693649177,"current_range_meters":26800,"station_id":"ce4bgs12rcd13ifvqcag","pricing_plan_id":"free"},{"bike_id":"6a3bea0d-869d-47b5-b21c-31f17f7d7f39","system_id":"levelo_inurba_marseille","lat":43.3054,"lon":5.36559,"is_reserved":false,"is_disabled":false,"rental_uris":{"android":"levelo://app?vid=6a3bea0d-869d-47b5-b21c-31f17f7d7f39","ios":"levelo://app?vid=6a3bea0d-869d-47b5-b21c-31f17f7d7f39"},"vehicle_type_id":"4","last_reported":1693649177,"current_range_meters":13600,"station_id":"ce4bgs12rcd13ifvqcag","pricing_plan_id":"free"},{"bike_id":"daea9dda-8113-4e57-81f3-f449622d8091","system_id":"levelo_inurba_marseille","lat":43.305706,"lon":5.365654,"is_reserved":false,"is_disabled":false,"rental_uris":{"android":"levelo://app?vid=daea9dda-8113-4e57-81f3-f449622d8091","ios":"levelo://app?vid=daea9dda-8113-4e57-81f3-f449622d8091"},"vehicle_type_id":"4","last_reported":1693649177,"current_range_meters":22800,"station_id":"ce4bgs12rcd13ifvqcag","pricing_plan_id":"free"},{"bike_id":"77bffcd4-7f6c-4c2e-a19c-cac7f81c85ac","system_id":"levelo_inurba_marseille","lat":43.30538,"lon":5.3654,"is_reserved":false,"is_disabled":false,"rental_uris":{"android":"levelo://app?vid=77bffcd4-7f6c-4c2e-a19c-cac7f81c85ac","ios":"levelo://app?vid=77bffcd4-7f6c-4c2e-a19c-cac7f81c85ac"},"vehicle_type_id":"4","last_reported":1693649177,"current_range_meters":30000,"station_id":"ce4bgs12rcd13ifvqcag","pricing_plan_id":"free"},{"bike_id":"0e6e620d-b750-4073-ad75-9892b5255296","system_id":"levelo_inurba_marseille","lat":43.305706,"lon":5.365654,"is_reserved":false,"is_disabled":false,"rental_uris":{"android":"levelo://app?vid=0e6e620d-b750-4073-ad75-9892b5255296","ios":"levelo://app?vid=0e6e620d-b750-4073-ad75-9892b5255296"},"vehicle_type_id":"4","last_reported":1693649177,"current_range_meters":3200,"station_id":"ce4bgs12rcd13ifvqcag","pricing_plan_id":"free"},{"bike_id":"0edfac7b-40c5-4e24-8edb-294e7108466a","system_id":"levelo_inurba_marseille","lat":43.305706,"lon":5.365654,"is_reserved":false,"is_disabled":false,"rental_uris":{"android":"levelo://app?vid=0edfac7b-40c5-4e24-8edb-294e7108466a","ios":"levelo://app?vid=0edfac7b-40c5-4e24-8edb-294e7108466a"},"vehicle_type_id":"4","last_reported":1693649177,"current_range_meters":18400,"station_id":"ce4bgs12rcd13ifvqcag","pricing_plan_id":"free"},{"bike_id":"98ad37a5-33d7-446e-ad86-5b0c3d073c7f","system_id":"levelo_inurba_marseille","lat":43.305706,"lon":5.365654,"is_reserved":false,"is_disabled":false,"rental_uris":{"android":"levelo://app?vid=98ad37a5-33d7-446e-ad86-5b0c3d073c7f","ios":"levelo://app?vid=98ad37a5-33d7-446e-ad86-5b0c3d073c7f"},"vehicle_type_id":"4","last_reported":1693649177,"current_range_meters":2400,"station_id":"ce4bgs12rcd13ifvqcag","pricing_plan_id":"free"},{"bike_id":"9298b705-018f-44c3-bc3f-c0a92bbd9d27","system_id":"levelo_inurba_marseille","lat":43.305706,"lon":5.365654,"is_reserved":false,"is_disabled":false,"rental_uris":{"android":"levelo://app?vid=9298b705-018f-44c3-bc3f-c0a92bbd9d27","ios":"levelo://app?vid=9298b705-018f-44c3-bc3f-c0a92bbd9d27"},"vehicle_type_id":"4","last_reported":1693649177,"current_range_meters":23600,"station_id":"ce4bgs12rcd13ifvqcag","pricing_plan_id":"free"},{"bike_id":"b1318385-b55f-4b46-b2f4-0d6db4dd11a7","system_id":"levelo_inurba_marseille","lat":43.30533,"lon":5.3652,"is_reserved":false,"is_disabled":false,"rental_uris":{"android":"levelo://app?vid=b1318385-b55f-4b46-b2f4-0d6db4dd11a7","ios":"levelo://app?vid=b1318385-b55f-4b46-b2f4-0d6db4dd11a7"},"vehicle_type_id":"4","last_reported":1693649177,"current_range_meters":26400,"station_id":"ce4bgs12rcd13ifvqcag","pricing_plan_id":"free"},{"bike_id":"e4104818-20ba-49f4-8df7-0e331501ad9f","system_id":"levelo_inurba_marseille","lat":43.3053,"lon":5.36513,"is_reserved":false,"is_disabled":false,"rental_uris":{"android":"levelo://app?vid=e4104818-20ba-49f4-8df7-0e331501ad9f","ios":"levelo://app?vid=e4104818-20ba-49f4-8df7-0e331501ad9f"},"vehicle_type_id":"4","last_reported":1693649177,"current_range_meters":17200,"station_id":"ce4bgs12rcd13ifvqcag","pricing_plan_id":"free"},{"bike_id":"4cb6c6ba-3509-40a1-a851-ac2d2e32fcca","system_id":"levelo_inurba_marseille","lat":43.305706,"lon":5.365654,"is_reserved":false,"is_disabled":false,"rental_uris":{"android":"levelo://app?vid=4cb6c6ba-3509-40a1-a851-ac2d2e32fcca","ios":"levelo://app?vid=4cb6c6ba-3509-40a1-a851-ac2d2e32fcca"},"vehicle_type_id":"4","last_reported":1693649177,"current_range_meters":20800,"station_id":"ce4bgs12rcd13ifvqcag","pricing_plan_id":"free"},{"bike_id":"244e410c-4974-4de3-98b5-c89ddd057eeb","system_id":"levelo_inurba_marseille","lat":43.30537,"lon":5.36929,"is_reserved":false,"is_disabled":false,"rental_uris":{"android":"levelo://app?vid=244e410c-4974-4de3-98b5-c89ddd057eeb","ios":"levelo://app?vid=244e410c-4974-4de3-98b5-c89ddd057eeb"},"vehicle_type_id":"4","last_reported":1693649177,"current_range_meters":0,"station_id":"","pricing_plan_id":"free"},{"bike_id":"0fe14439-f5fb-4611-be00-cccecea170c2","system_id":"levelo_inurba_marseille","lat":43.305989,"lon":5.37225,"is_reserved":false,"is_disabled":false,"rental_uris":{"android":"levelo://app?vid=0fe14439-f5fb-4611-be00-cccecea170c2","ios":"levelo://app?vid=0fe14439-f5fb-4611-be00-cccecea170c2"},"vehicle_type_id":"4","last_reported":1693649177,"current_range_meters":28000,"station_id":"ce4bgqh2rcd13ifvqc4g","pricing_plan_id":"free"},{"bike_id":"bb67a166-4b8d-4e72-932e-ccb718ebd73d","system_id":"levelo_inurba_marseille","lat":43.31116,"lon":5.3778,"is_reserved":false,"is_disabled":false,"rental_uris":{"android":"levelo://app?vid=bb67a166-4b8d-4e72-932e-ccb718ebd73d","ios":"levelo://app?vid=bb67a166-4b8d-4e72-932e-ccb718ebd73d"},"vehicle_type_id":"4","last_reported":1693649177,"current_range_meters":0,"station_id":"ce4bgt92rcd13ifvqcg0","pricing_plan_id":"free"},{"bike_id":"f7a751a5-6a1b-42d1-bcc9-b979b9b30848","system_id":"levelo_inurba_marseille","lat":43.317075,"lon":5.377367,"is_reserved":false,"is_disabled":false,"rental_uris":{"android":"levelo://app?vid=f7a751a5-6a1b-42d1-bcc9-b979b9b30848","ios":"levelo://app?vid=f7a751a5-6a1b-42d1-bcc9-b979b9b30848"},"vehicle_type_id":"4","last_reported":1693649177,"current_range_meters":28800,"station_id":"ce4bgth2rcd13ifvqch0","pricing_plan_id":"free"},{"bike_id":"b2c82aac-d7cf-4310-907c-1d6219c23cc6","system_id":"levelo_inurba_marseille","lat":43.31707,"lon":5.37738,"is_reserved":false,"is_disabled":false,"rental_uris":{"android":"levelo://app?vid=b2c82aac-d7cf-4310-907c-1d6219c23cc6","ios":"levelo://app?vid=b2c82aac-d7cf-4310-907c-1d6219c23cc6"},"vehicle_type_id":"4","last_reported":1693649177,"current_range_meters":24800,"station_id":"ce4bgth2rcd13ifvqch0","pricing_plan_id":"free"},{"bike_id":"c8bb3a8b-8386-442a-b3a4-ab5a34351b09","system_id":"levelo_inurba_marseille","lat":43.317075,"lon":5.377367,"is_reserved":false,"is_disabled":false,"rental_uris":{"android":"levelo://app?vid=c8bb3a8b-8386-442a-b3a4-ab5a34351b09","ios":"levelo://app?vid=c8bb3a8b-8386-442a-b3a4-ab5a34351b09"},"vehicle_type_id":"4","last_reported":1693649177,"current_range_meters":30400,"station_id":"ce4bgth2rcd13ifvqch0","pricing_plan_id":"free"},{"bike_id":"5a3520a4-3139-4244-a292-22e2945b251b","system_id":"levelo_inurba_marseille","lat":43.317075,"lon":5.377367,"is_reserved":false,"is_disabled":false,"rental_uris":{"android":"levelo://app?vid=5a3520a4-3139-4244-a292-22e2945b251b","ios":"levelo://app?vid=5a3520a4-3139-4244-a292-22e2945b251b"},"vehicle_type_id":"4","last_reported":1693649177,"current_range_meters":29600,"station_id":"ce4bgth2rcd13ifvqch0","pricing_plan_id":"free"},{"bike_id":"cd2430b5-d827-457f-a12a-f29afa394529","system_id":"levelo_inurba_marseille","lat":43.31706,"lon":5.37751,"is_reserved":false,"is_disabled":false,"rental_uris":{"android":"levelo://app?vid=cd2430b5-d827-457f-a12a-f29afa394529","ios":"levelo://app?vid=cd2430b5-d827-457f-a12a-f29afa394529"},"vehicle_type_id":"4","last_reported":1693649177,"current_range_meters":21600,"station_id":"ce4bgth2rcd13ifvqch0","pricing_plan_id":"free"},{"bike_id":"6be39998-e5a7-413c-bc48-680c46555620","system_id":"levelo_inurba_marseille","lat":43.317075,"lon":5.377367,"is_reserved":false,"is_disabled":false,"rental_uris":{"android":"levelo://app?vid=6be39998-e5a7-413c-bc48-680c46555620","ios":"levelo://app?vid=6be39998-e5a7-413c-bc48-680c46555620"},"vehicle_type_id":"4","last_reported":1693649177,"current_range_meters":29200,"station_id":"ce4bgth2rcd13ifvqch0","pricing_plan_id":"free"},{"bike_id":"8162ffaa-7be5-4297-aaba-3459fbd8c8fa","system_id":"levelo_inurba_marseille","lat":43.317075,"lon":5.377367,"is_reserved":false,"is_disabled":false,"rental_uris":{"android":"levelo://app?vid=8162ffaa-7be5-4297-aaba-3459fbd8c8fa","ios":"levelo://app?vid=8162ffaa-7be5-4297-aaba-3459fbd8c8fa"},"vehicle_type_id":"4","last_reported":1693649177,"current_range_meters":26800,"station_id":"ce4bgth2rcd13ifvqch0","pricing_plan_id":"free"},{"bike_id":"cbd332e6-8ea0-428d-9035-f235e67f62de","system_id":"levelo_inurba_marseille","lat":43.317075,"lon":5.377367,"is_reserved":false,"is_disabled":false,"rental_uris":{"android":"levelo://app?vid=cbd332e6-8ea0-428d-9035-f235e67f62de","ios":"levelo://app?vid=cbd332e6-8ea0-428d-9035-f235e67f62de"},"vehicle_type_id":"4","last_reported":1693649177,"current_range_meters":27600,"station_id":"ce4bgth2rcd13ifvqch0","pricing_plan_id":"free"},{"bike_id":"e01ffaac-69ea-4943-bee1-9e38a70199b1","system_id":"levelo_inurba_marseille","lat":43.30297,"lon":5.36883,"is_reserved":false,"is_disabled":false,"rental_uris":{"android":"levelo://app?vid=e01ffaac-69ea-4943-bee1-9e38a70199b1","ios":"levelo://app?vid=e01ffaac-69ea-4943-bee1-9e38a70199b1"},"vehicle_type_id":"4","last_reported":1693649177,"current_range_meters":22000,"station_id":"ce4bgqh2rcd13ifvqc5g","pricing_plan_id":"free"},{"bike_id":"73b20807-3a05-492a-b9f2-767a4c1a7aa5","system_id":"levelo_inurba_marseille","lat":43.304606,"lon":5.379026,"is_reserved":false,"is_disabled":false,"rental_uris":{"android":"levelo://app?vid=73b20807-3a05-492a-b9f2-767a4c1a7aa5","ios":"levelo://app?vid=73b20807-3a05-492a-b9f2-767a4c1a7aa5"},"vehicle_type_id":"4","last_reported":1693649177,"current_range_meters":14400,"station_id":"ce4bgup2rcd13ifvqcn0","pricing_plan_id":"free"},{"bike_id":"386a4cc5-04dc-42d8-a00c-75f04a3b979e","system_id":"levelo_inurba_marseille","lat":43.30462,"lon":5.37894,"is_reserved":false,"is_disabled":false,"rental_uris":{"android":"levelo://app?vid=386a4cc5-04dc-42d8-a00c-75f04a3b979e","ios":"levelo://app?vid=386a4cc5-04dc-42d8-a00c-75f04a3b979e"},"vehicle_type_id":"4","last_reported":1693649177,"current_range_meters":13200,"station_id":"ce4bgup2rcd13ifvqcn0","pricing_plan_id":"free"},{"bike_id":"4a0026d2-7bc6-4373-afde-0b4426821bc3","system_id":"levelo_inurba_marseille","lat":43.304606,"lon":5.379026,"is_reserved":false,"is_disabled":false,"rental_uris":{"android":"levelo://app?vid=4a0026d2-7bc6-4373-afde-0b4426821bc3","ios":"levelo://app?vid=4a0026d2-7bc6-4373-afde-0b4426821bc3"},"vehicle_type_id":"4","last_reported":1693649177,"current_range_meters":14400,"station_id":"ce4bgup2rcd13ifvqcn0","pricing_plan_id":"free"},{"bike_id":"6b03bed6-9d8d-426d-9c32-3cd72a2d7a4c","system_id":"levelo_inurba_marseille","lat":43.304606,"lon":5.379026,"is_reserved":false,"is_disabled":false,"rental_uris":{"android":"levelo://app?vid=6b03bed6-9d8d-426d-9c32-3cd72a2d7a4c","ios":"levelo://app?vid=6b03bed6-9d8d-426d-9c32-3cd72a2d7a4c"},"vehicle_type_id":"4","last_reported":1693649177,"current_range_meters":31200,"station_id":"ce4bgup2rcd13ifvqcn0","pricing_plan_id":"free"},{"bike_id":"427d69c6-b165-467b-b7e2-99920708b0ce","system_id":"levelo_inurba_marseille","lat":43.304606,"lon":5.379026,"is_reserved":false,"is_disabled":false,"rental_uris":{"android":"levelo://app?vid=427d69c6-b165-467b-b7e2-99920708b0ce","ios":"levelo://app?vid=427d69c6-b165-467b-b7e2-99920708b0ce"},"vehicle_type_id":"4","last_reported":1693649177,"current_range_meters":31200,"station_id":"ce4bgup2rcd13ifvqcn0","pricing_plan_id":"free"},{"bike_id":"649b911b-e314-4240-adac-aeb2b075f529","system_id":"levelo_inurba_marseille","lat":43.304606,"lon":5.379026,"is_reserved":false,"is_disabled":false,"rental_uris":{"android":"levelo://app?vid=649b911b-e314-4240-adac-aeb2b075f529","ios":"levelo://app?vid=649b911b-e314-4240-adac-aeb2b075f529"},"vehicle_type_id":"4","last_reported":1693649177,"current_range_meters":31200,"station_id":"ce4bgup2rcd13ifvqcn0","pricing_plan_id":"free"},{"bike_id":"7cb6c239-674c-4753-a2c5-475f18512b60","system_id":"levelo_inurba_marseille","lat":43.3045,"lon":5.37893,"is_reserved":false,"is_disabled":false,"rental_uris":{"android":"levelo://app?vid=7cb6c239-674c-4753-a2c5-475f18512b60","ios":"levelo://app?vid=7cb6c239-674c-4753-a2c5-475f18512b60"},"vehicle_type_id":"4","last_reported":1693649177,"current_range_meters":31200,"station_id":"ce4bgup2rcd13ifvqcn0","pricing_plan_id":"free"},{"bike_id":"4be1c381-7288-4384-8247-33a835b73cb1","system_id":"levelo_inurba_marseille","lat":43.304606,"lon":5.379026,"is_reserved":false,"is_disabled":false,"rental_uris":{"android":"levelo://app?vid=4be1c381-7288-4384-8247-33a835b73cb1","ios":"levelo://app?vid=4be1c381-7288-4384-8247-33a835b73cb1"},"vehicle_type_id":"4","last_reported":1693649177,"current_range_meters":19200,"station_id":"ce4bgup2rcd13ifvqcn0","pricing_plan_id":"free"},{"bike_id":"57d8e758-f7d0-4d10-9158-c8c4302bb1c9","system_id":"levelo_inurba_marseille","lat":43.30449,"lon":5.37901,"is_reserved":false,"is_disabled":false,"rental_uris":{"android":"levelo://app?vid=57d8e758-f7d0-4d10-9158-c8c4302bb1c9","ios":"levelo://app?vid=57d8e758-f7d0-4d10-9158-c8c4302bb1c9"},"vehicle_type_id":"4","last_reported":1693649177,"current_range_meters":30800,"station_id":"ce4bgup2rcd13ifvqcn0","pricing_plan_id":"free"},{"bike_id":"7b8497e6-1c45-4db1-a88e-64027658c409","system_id":"levelo_inurba_marseille","lat":43.302784,"lon":5.377158,"is_reserved":false,"is_disabled":false,"rental_uris":{"android":"levelo://app?vid=7b8497e6-1c45-4db1-a88e-64027658c409","ios":"levelo://app?vid=7b8497e6-1c45-4db1-a88e-64027658c409"},"vehicle_type_id":"4","last_reported":1693649177,"current_range_meters":23200,"station_id":"ce4bguh2rcd13ifvqcj0","pricing_plan_id":"free"},{"bike_id":"fc957125-9e1a-4db3-a282-ea564c21d3b7","system_id":"levelo_inurba_marseille","lat":43.302784,"lon":5.377158,"is_reserved":false,"is_disabled":false,"rental_uris":{"android":"levelo://app?vid=fc957125-9e1a-4db3-a282-ea564c21d3b7","ios":"levelo://app?vid=fc957125-9e1a-4db3-a282-ea564c21d3b7"},"vehicle_type_id":"4","last_reported":1693649177,"current_range_meters":31200,"station_id":"ce4bguh2rcd13ifvqcj0","pricing_plan_id":"free"},{"bike_id":"aa521cce-3e18-49b0-8e9a-4bdcff0218b4","system_id":"levelo_inurba_marseille","lat":43.302784,"lon":5.377158,"is_reserved":false,"is_disabled":false,"rental_uris":{"android":"levelo://app?vid=aa521cce-3e18-49b0-8e9a-4bdcff0218b4","ios":"levelo://app?vid=aa521cce-3e18-49b0-8e9a-4bdcff0218b4"},"vehicle_type_id":"4","last_reported":1693649177,"current_range_meters":29600,"station_id":"ce4bguh2rcd13ifvqcj0","pricing_plan_id":"free"},{"bike_id":"1e0f211e-028a-46cb-9a0d-9899ac904750","system_id":"levelo_inurba_marseille","lat":43.319935,"lon":5.381699,"is_reserved":false,"is_disabled":false,"rental_uris":{"android":"levelo://app?vid=1e0f211e-028a-46cb-9a0d-9899ac904750","ios":"levelo://app?vid=1e0f211e-028a-46cb-9a0d-9899ac904750"},"vehicle_type_id":"4","last_reported":1693649177,"current_range_meters":26000,"station_id":"ce4bhr12rcd13ifvqhpg","pricing_plan_id":"free"},{"bike_id":"d13e2fc0-5196-41d3-8d49-bf9314309b08","system_id":"levelo_inurba_marseille","lat":43.319935,"lon":5.381699,"is_reserved":false,"is_disabled":false,"rental_uris":{"android":"levelo://app?vid=d13e2fc0-5196-41d3-8d49-bf9314309b08","ios":"levelo://app?vid=d13e2fc0-5196-41d3-8d49-bf9314309b08"},"vehicle_type_id":"4","last_reported":1693649177,"current_range_meters":29600,"station_id":"ce4bhr12rcd13ifvqhpg","pricing_plan_id":"free"},{"bike_id":"c0aa06d4-ea1c-42f1-82e3-b4b98c641344","system_id":"levelo_inurba_marseille","lat":43.319935,"lon":5.381699,"is_reserved":false,"is_disabled":false,"rental_uris":{"android":"levelo://app?vid=c0aa06d4-ea1c-42f1-82e3-b4b98c641344","ios":"levelo://app?vid=c0aa06d4-ea1c-42f1-82e3-b4b98c641344"},"vehicle_type_id":"4","last_reported":1693649177,"current_range_meters":20400,"station_id":"ce4bhr12rcd13ifvqhpg","pricing_plan_id":"free"},{"bike_id":"77cc4a87-903a-4ac8-836f-05d771ccc1e4","system_id":"levelo_inurba_marseille","lat":43.31997,"lon":5.38144,"is_reserved":false,"is_disabled":false,"rental_uris":{"android":"levelo://app?vid=77cc4a87-903a-4ac8-836f-05d771ccc1e4","ios":"levelo://app?vid=77cc4a87-903a-4ac8-836f-05d771ccc1e4"},"vehicle_type_id":"4","last_reported":1693649177,"current_range_meters":24000,"station_id":"ce4bhr12rcd13ifvqhpg","pricing_plan_id":"free"},{"bike_id":"cc28612f-b913-4e07-81a1-e8a4df49747b","system_id":"levelo_inurba_marseille","lat":43.319935,"lon":5.381699,"is_reserved":false,"is_disabled":false,"rental_uris":{"android":"levelo://app?vid=cc28612f-b913-4e07-81a1-e8a4df49747b","ios":"levelo://app?vid=cc28612f-b913-4e07-81a1-e8a4df49747b"},"vehicle_type_id":"4","last_reported":1693649177,"current_range_meters":13600,"station_id":"ce4bhr12rcd13ifvqhpg","pricing_plan_id":"free"},{"bike_id":"3ce12e8d-2187-433e-90ea-725012bee47a","system_id":"levelo_inurba_marseille","lat":43.31998,"lon":5.38149,"is_reserved":false,"is_disabled":false,"rental_uris":{"android":"levelo://app?vid=3ce12e8d-2187-433e-90ea-725012bee47a","ios":"levelo://app?vid=3ce12e8d-2187-433e-90ea-725012bee47a"},"vehicle_type_id":"4","last_reported":1693649177,"current_range_meters":22800,"station_id":"ce4bhr12rcd13ifvqhpg","pricing_plan_id":"free"},{"bike_id":"b6abff1c-f097-4297-b7f5-e905b62cd8ab","system_id":"levelo_inurba_marseille","lat":43.319935,"lon":5.381699,"is_reserved":false,"is_disabled":false,"rental_uris":{"android":"levelo://app?vid=b6abff1c-f097-4297-b7f5-e905b62cd8ab","ios":"levelo://app?vid=b6abff1c-f097-4297-b7f5-e905b62cd8ab"},"vehicle_type_id":"4","last_reported":1693649177,"current_range_meters":16000,"station_id":"ce4bhr12rcd13ifvqhpg","pricing_plan_id":"free"},{"bike_id":"6bd3fd7c-b334-49ec-afce-4db4692f91ef","system_id":"levelo_inurba_marseille","lat":43.313571,"lon":5.384829,"is_reserved":false,"is_disabled":false,"rental_uris":{"android":"levelo://app?vid=6bd3fd7c-b334-49ec-afce-4db4692f91ef","ios":"levelo://app?vid=6bd3fd7c-b334-49ec-afce-4db4692f91ef"},"vehicle_type_id":"4","last_reported":1693649177,"current_range_meters":21600,"station_id":"ce4bgt92rcd13ifvqcf0","pricing_plan_id":"free"},{"bike_id":"7cf93e4f-b2ee-47b5-998f-860604407e4a","system_id":"levelo_inurba_marseille","lat":43.29939,"lon":5.36552,"is_reserved":false,"is_disabled":false,"rental_uris":{"android":"levelo://app?vid=7cf93e4f-b2ee-47b5-998f-860604407e4a","ios":"levelo://app?vid=7cf93e4f-b2ee-47b5-998f-860604407e4a"},"vehicle_type_id":"4","last_reported":1693649177,"current_range_meters":0,"station_id":"ce4bgm92rcd13ifvqbr0","pricing_plan_id":"free"},{"bike_id":"5338d624-1092-4474-8381-29c8816e34cc","system_id":"levelo_inurba_marseille","lat":43.298433,"lon":5.362774,"is_reserved":false,"is_disabled":false,"rental_uris":{"android":"levelo://app?vid=5338d624-1092-4474-8381-29c8816e34cc","ios":"levelo://app?vid=5338d624-1092-4474-8381-29c8816e34cc"},"vehicle_type_id":"4","last_reported":1693649177,"current_range_meters":30400,"station_id":"ce4bgpp2rcd13ifvqc3g","pricing_plan_id":"free"},{"bike_id":"87786b3b-4105-4da4-a048-6e0c39d7e41b","system_id":"levelo_inurba_marseille","lat":43.298433,"lon":5.362774,"is_reserved":false,"is_disabled":false,"rental_uris":{"android":"levelo://app?vid=87786b3b-4105-4da4-a048-6e0c39d7e41b","ios":"levelo://app?vid=87786b3b-4105-4da4-a048-6e0c39d7e41b"},"vehicle_type_id":"4","last_reported":1693649177,"current_range_meters":31200,"station_id":"ce4bgpp2rcd13ifvqc3g","pricing_plan_id":"free"},{"bike_id":"2bb60f62-8db5-4bdd-9b78-223d4535c276","system_id":"levelo_inurba_marseille","lat":43.298433,"lon":5.362774,"is_reserved":false,"is_disabled":false,"rental_uris":{"android":"levelo://app?vid=2bb60f62-8db5-4bdd-9b78-223d4535c276","ios":"levelo://app?vid=2bb60f62-8db5-4bdd-9b78-223d4535c276"},"vehicle_type_id":"4","last_reported":1693649177,"current_range_meters":31200,"station_id":"ce4bgpp2rcd13ifvqc3g","pricing_plan_id":"free"},{"bike_id":"aeb55008-b88b-4824-9234-5e7820e8b8e6","system_id":"levelo_inurba_marseille","lat":43.311722,"lon":5.387247,"is_reserved":false,"is_disabled":false,"rental_uris":{"android":"levelo://app?vid=aeb55008-b88b-4824-9234-5e7820e8b8e6","ios":"levelo://app?vid=aeb55008-b88b-4824-9234-5e7820e8b8e6"},"vehicle_type_id":"4","last_reported":1693649177,"current_range_meters":16400,"station_id":"ce4bgv12rcd13ifvqcp0","pricing_plan_id":"free"},{"bike_id":"882c92c4-2aa3-4872-9ff6-59d5d55e2e05","system_id":"levelo_inurba_marseille","lat":43.298433,"lon":5.362774,"is_reserved":false,"is_disabled":false,"rental_uris":{"android":"levelo://app?vid=882c92c4-2aa3-4872-9ff6-59d5d55e2e05","ios":"levelo://app?vid=882c92c4-2aa3-4872-9ff6-59d5d55e2e05"},"vehicle_type_id":"4","last_reported":1693649177,"current_range_meters":22400,"station_id":"ce4bgpp2rcd13ifvqc3g","pricing_plan_id":"free"},{"bike_id":"ef7d27a6-4e2b-45f4-a858-b27e7825c241","system_id":"levelo_inurba_marseille","lat":43.298433,"lon":5.362774,"is_reserved":false,"is_disabled":false,"rental_uris":{"android":"levelo://app?vid=ef7d27a6-4e2b-45f4-a858-b27e7825c241","ios":"levelo://app?vid=ef7d27a6-4e2b-45f4-a858-b27e7825c241"},"vehicle_type_id":"4","last_reported":1693649177,"current_range_meters":23200,"station_id":"ce4bgpp2rcd13ifvqc3g","pricing_plan_id":"free"},{"bike_id":"8143ebd5-c5c5-467f-a353-1c0066f90341","system_id":"levelo_inurba_marseille","lat":43.29816,"lon":5.37116,"is_reserved":false,"is_disabled":false,"rental_uris":{"android":"levelo://app?vid=8143ebd5-c5c5-467f-a353-1c0066f90341","ios":"levelo://app?vid=8143ebd5-c5c5-467f-a353-1c0066f90341"},"vehicle_type_id":"4","last_reported":1693649177,"current_range_meters":31200,"station_id":"ce4bgop2rcd13ifvqc1g","pricing_plan_id":"free"},{"bike_id":"924d6452-f7f7-4baa-af9a-49926af70474","system_id":"levelo_inurba_marseille","lat":43.297794,"lon":5.370888,"is_reserved":false,"is_disabled":false,"rental_uris":{"android":"levelo://app?vid=924d6452-f7f7-4baa-af9a-49926af70474","ios":"levelo://app?vid=924d6452-f7f7-4baa-af9a-49926af70474"},"vehicle_type_id":"4","last_reported":1693649177,"current_range_meters":28000,"station_id":"ce4bgop2rcd13ifvqc1g","pricing_plan_id":"free"},{"bike_id":"c5eee610-be09-4243-9cee-abef8479a037","system_id":"levelo_inurba_marseille","lat":43.32283,"lon":5.38268,"is_reserved":false,"is_disabled":false,"rental_uris":{"android":"levelo://app?vid=c5eee610-be09-4243-9cee-abef8479a037","ios":"levelo://app?vid=c5eee610-be09-4243-9cee-abef8479a037"},"vehicle_type_id":"4","last_reported":1693649177,"current_range_meters":11600,"station_id":"ce4bhr12rcd13ifvqhqg","pricing_plan_id":"free"},{"bike_id":"bc8f34a2-0447-439b-8108-9a4250aef71a","system_id":"levelo_inurba_marseille","lat":43.32286,"lon":5.3827,"is_reserved":false,"is_disabled":false,"rental_uris":{"android":"levelo://app?vid=bc8f34a2-0447-439b-8108-9a4250aef71a","ios":"levelo://app?vid=bc8f34a2-0447-439b-8108-9a4250aef71a"},"vehicle_type_id":"4","last_reported":1693649177,"current_range_meters":27200,"station_id":"ce4bhr12rcd13ifvqhqg","pricing_plan_id":"free"},{"bike_id":"61aecc97-3e80-4a49-8c3e-0135b524d154","system_id":"levelo_inurba_marseille","lat":43.322872,"lon":5.382756,"is_reserved":false,"is_disabled":false,"rental_uris":{"android":"levelo://app?vid=61aecc97-3e80-4a49-8c3e-0135b524d154","ios":"levelo://app?vid=61aecc97-3e80-4a49-8c3e-0135b524d154"},"vehicle_type_id":"4","last_reported":1693649177,"current_range_meters":19600,"station_id":"ce4bhr12rcd13ifvqhqg","pricing_plan_id":"free"},{"bike_id":"c29114e8-dc25-4be3-832f-1611beb9061c","system_id":"levelo_inurba_marseille","lat":43.32292,"lon":5.38264,"is_reserved":false,"is_disabled":false,"rental_uris":{"android":"levelo://app?vid=c29114e8-dc25-4be3-832f-1611beb9061c","ios":"levelo://app?vid=c29114e8-dc25-4be3-832f-1611beb9061c"},"vehicle_type_id":"4","last_reported":1693649177,"current_range_meters":22800,"station_id":"ce4bhr12rcd13ifvqhqg","pricing_plan_id":"free"},{"bike_id":"3d2a691c-74eb-4958-aebd-9ebc95f3d8a8","system_id":"levelo_inurba_marseille","lat":43.32285,"lon":5.38275,"is_reserved":false,"is_disabled":false,"rental_uris":{"android":"levelo://app?vid=3d2a691c-74eb-4958-aebd-9ebc95f3d8a8","ios":"levelo://app?vid=3d2a691c-74eb-4958-aebd-9ebc95f3d8a8"},"vehicle_type_id":"4","last_reported":1693649177,"current_range_meters":13200,"station_id":"ce4bhr12rcd13ifvqhqg","pricing_plan_id":"free"},{"bike_id":"47534ecf-82c1-4e69-a6a3-d03ad6aaa4a0","system_id":"levelo_inurba_marseille","lat":43.322872,"lon":5.382756,"is_reserved":false,"is_disabled":false,"rental_uris":{"android":"levelo://app?vid=47534ecf-82c1-4e69-a6a3-d03ad6aaa4a0","ios":"levelo://app?vid=47534ecf-82c1-4e69-a6a3-d03ad6aaa4a0"},"vehicle_type_id":"4","last_reported":1693649177,"current_range_meters":5600,"station_id":"ce4bhr12rcd13ifvqhqg","pricing_plan_id":"free"},{"bike_id":"dd789220-e7b5-42c1-b9dc-dc4243148021","system_id":"levelo_inurba_marseille","lat":43.297163,"lon":5.365866,"is_reserved":false,"is_disabled":false,"rental_uris":{"android":"levelo://app?vid=dd789220-e7b5-42c1-b9dc-dc4243148021","ios":"levelo://app?vid=dd789220-e7b5-42c1-b9dc-dc4243148021"},"vehicle_type_id":"4","last_reported":1693649177,"current_range_meters":31600,"station_id":"ce4bgn12rcd13ifvqbt0","pricing_plan_id":"free"},{"bike_id":"bd0bd295-6ecc-40c4-a4d0-89f645593756","system_id":"levelo_inurba_marseille","lat":43.297163,"lon":5.365866,"is_reserved":false,"is_disabled":false,"rental_uris":{"android":"levelo://app?vid=bd0bd295-6ecc-40c4-a4d0-89f645593756","ios":"levelo://app?vid=bd0bd295-6ecc-40c4-a4d0-89f645593756"},"vehicle_type_id":"4","last_reported":1693649177,"current_range_meters":21200,"station_id":"ce4bgn12rcd13ifvqbt0","pricing_plan_id":"free"},{"bike_id":"0e4df512-bbb1-4763-87c4-5023b7b9548d","system_id":"levelo_inurba_marseille","lat":43.2968,"lon":5.37291,"is_reserved":false,"is_disabled":false,"rental_uris":{"android":"levelo://app?vid=0e4df512-bbb1-4763-87c4-5023b7b9548d","ios":"levelo://app?vid=0e4df512-bbb1-4763-87c4-5023b7b9548d"},"vehicle_type_id":"4","last_reported":1693649177,"current_range_meters":20800,"station_id":"ce4bgk12rcd13ifvqbj0","pricing_plan_id":"free"},{"bike_id":"babb01a4-3689-4560-ad36-e9d637321219","system_id":"levelo_inurba_marseille","lat":43.2968,"lon":5.37291,"is_reserved":false,"is_disabled":false,"rental_uris":{"android":"levelo://app?vid=babb01a4-3689-4560-ad36-e9d637321219","ios":"levelo://app?vid=babb01a4-3689-4560-ad36-e9d637321219"},"vehicle_type_id":"4","last_reported":1693649177,"current_range_meters":28000,"station_id":"ce4bgk12rcd13ifvqbj0","pricing_plan_id":"free"},{"bike_id":"6ab14aa3-360a-473b-b834-7ee2fd4b11ca","system_id":"levelo_inurba_marseille","lat":43.2968,"lon":5.37291,"is_reserved":false,"is_disabled":false,"rental_uris":{"android":"levelo://app?vid=6ab14aa3-360a-473b-b834-7ee2fd4b11ca","ios":"levelo://app?vid=6ab14aa3-360a-473b-b834-7ee2fd4b11ca"},"vehicle_type_id":"4","last_reported":1693649177,"current_range_meters":13200,"station_id":"ce4bgk12rcd13ifvqbj0","pricing_plan_id":"free"},{"bike_id":"1f7d8c84-e2db-4a99-8419-bac7b6b867b2","system_id":"levelo_inurba_marseille","lat":43.29573,"lon":5.367355,"is_reserved":false,"is_disabled":false,"rental_uris":{"android":"levelo://app?vid=1f7d8c84-e2db-4a99-8419-bac7b6b867b2","ios":"levelo://app?vid=1f7d8c84-e2db-4a99-8419-bac7b6b867b2"},"vehicle_type_id":"4","last_reported":1693649177,"current_range_meters":26400,"station_id":"ce4bgph2rcd13ifvqc2g","pricing_plan_id":"free"},{"bike_id":"d3139180-8ba9-4c91-b6e4-8baae3c22113","system_id":"levelo_inurba_marseille","lat":43.296131,"lon":5.370773,"is_reserved":false,"is_disabled":false,"rental_uris":{"android":"levelo://app?vid=d3139180-8ba9-4c91-b6e4-8baae3c22113","ios":"levelo://app?vid=d3139180-8ba9-4c91-b6e4-8baae3c22113"},"vehicle_type_id":"4","last_reported":1693649177,"current_range_meters":31200,"station_id":"ce4bgnh2rcd13ifvqc0g","pricing_plan_id":"free"},{"bike_id":"c04e7d37-ff15-4cda-8483-e98cf7ff8faa","system_id":"levelo_inurba_marseille","lat":43.296129,"lon":5.370777,"is_reserved":false,"is_disabled":false,"rental_uris":{"android":"levelo://app?vid=c04e7d37-ff15-4cda-8483-e98cf7ff8faa","ios":"levelo://app?vid=c04e7d37-ff15-4cda-8483-e98cf7ff8faa"},"vehicle_type_id":"4","last_reported":1693649177,"current_range_meters":10800,"station_id":"ce4bgnh2rcd13ifvqc0g","pricing_plan_id":"free"},{"bike_id":"df9d81aa-922e-4ac6-b831-6750ca8c19d4","system_id":"levelo_inurba_marseille","lat":43.296131,"lon":5.370791,"is_reserved":false,"is_disabled":false,"rental_uris":{"android":"levelo://app?vid=df9d81aa-922e-4ac6-b831-6750ca8c19d4","ios":"levelo://app?vid=df9d81aa-922e-4ac6-b831-6750ca8c19d4"},"vehicle_type_id":"4","last_reported":1693649177,"current_range_meters":25200,"station_id":"ce4bgnh2rcd13ifvqc0g","pricing_plan_id":"free"},{"bike_id":"1f50ca83-f47e-49a8-bc34-919a542a67c0","system_id":"levelo_inurba_marseille","lat":43.296129,"lon":5.370777,"is_reserved":false,"is_disabled":false,"rental_uris":{"android":"levelo://app?vid=1f50ca83-f47e-49a8-bc34-919a542a67c0","ios":"levelo://app?vid=1f50ca83-f47e-49a8-bc34-919a542a67c0"},"vehicle_type_id":"4","last_reported":1693649177,"current_range_meters":16000,"station_id":"ce4bgnh2rcd13ifvqc0g","pricing_plan_id":"free"},{"bike_id":"65d934c8-ea94-404c-b991-a012f59c0b64","system_id":"levelo_inurba_marseille","lat":43.296129,"lon":5.370777,"is_reserved":false,"is_disabled":false,"rental_uris":{"android":"levelo://app?vid=65d934c8-ea94-404c-b991-a012f59c0b64","ios":"levelo://app?vid=65d934c8-ea94-404c-b991-a012f59c0b64"},"vehicle_type_id":"4","last_reported":1693649177,"current_range_meters":26400,"station_id":"ce4bgnh2rcd13ifvqc0g","pricing_plan_id":"free"},{"bike_id":"986d8cce-c894-4cd8-8c10-751feb196f85","system_id":"levelo_inurba_marseille","lat":43.295852,"lon":5.367258,"is_reserved":false,"is_disabled":false,"rental_uris":{"android":"levelo://app?vid=986d8cce-c894-4cd8-8c10-751feb196f85","ios":"levelo://app?vid=986d8cce-c894-4cd8-8c10-751feb196f85"},"vehicle_type_id":"4","last_reported":1693649177,"current_range_meters":29600,"station_id":"ce4bgph2rcd13ifvqc2g","pricing_plan_id":"free"},{"bike_id":"05138de4-15d9-420b-9982-802b4126cb6e","system_id":"levelo_inurba_marseille","lat":43.29573,"lon":5.367355,"is_reserved":false,"is_disabled":false,"rental_uris":{"android":"levelo://app?vid=05138de4-15d9-420b-9982-802b4126cb6e","ios":"levelo://app?vid=05138de4-15d9-420b-9982-802b4126cb6e"},"vehicle_type_id":"4","last_reported":1693649177,"current_range_meters":30400,"station_id":"ce4bgph2rcd13ifvqc2g","pricing_plan_id":"free"},{"bike_id":"62470b30-343f-48c9-9ba1-857694ee5ce6","system_id":"levelo_inurba_marseille","lat":43.296131,"lon":5.370791,"is_reserved":false,"is_disabled":false,"rental_uris":{"android":"levelo://app?vid=62470b30-343f-48c9-9ba1-857694ee5ce6","ios":"levelo://app?vid=62470b30-343f-48c9-9ba1-857694ee5ce6"},"vehicle_type_id":"4","last_reported":1693649177,"current_range_meters":21600,"station_id":"ce4bgnh2rcd13ifvqc0g","pricing_plan_id":"free"},{"bike_id":"44647152-3033-491a-958a-510664e74a72","system_id":"levelo_inurba_marseille","lat":43.29581,"lon":5.36737,"is_reserved":false,"is_disabled":false,"rental_uris":{"android":"levelo://app?vid=44647152-3033-491a-958a-510664e74a72","ios":"levelo://app?vid=44647152-3033-491a-958a-510664e74a72"},"vehicle_type_id":"4","last_reported":1693649177,"current_range_meters":0,"station_id":"","pricing_plan_id":"free"},{"bike_id":"9d7585a4-2179-4114-a9cf-d59a25d83cb0","system_id":"levelo_inurba_marseille","lat":43.29573,"lon":5.367355,"is_reserved":false,"is_disabled":false,"rental_uris":{"android":"levelo://app?vid=9d7585a4-2179-4114-a9cf-d59a25d83cb0","ios":"levelo://app?vid=9d7585a4-2179-4114-a9cf-d59a25d83cb0"},"vehicle_type_id":"4","last_reported":1693649177,"current_range_meters":23600,"station_id":"ce4bgph2rcd13ifvqc2g","pricing_plan_id":"free"},{"bike_id":"01ae45b6-73a2-41ad-bb65-ffb3b75aac38","system_id":"levelo_inurba_marseille","lat":43.29573,"lon":5.367355,"is_reserved":false,"is_disabled":false,"rental_uris":{"android":"levelo://app?vid=01ae45b6-73a2-41ad-bb65-ffb3b75aac38","ios":"levelo://app?vid=01ae45b6-73a2-41ad-bb65-ffb3b75aac38"},"vehicle_type_id":"4","last_reported":1693649177,"current_range_meters":14800,"station_id":"ce4bgph2rcd13ifvqc2g","pricing_plan_id":"free"},{"bike_id":"1ed28ab2-7df1-4b3a-8b8a-d7ee58bf6680","system_id":"levelo_inurba_marseille","lat":43.2936,"lon":5.37835,"is_reserved":false,"is_disabled":false,"rental_uris":{"android":"levelo://app?vid=1ed28ab2-7df1-4b3a-8b8a-d7ee58bf6680","ios":"levelo://app?vid=1ed28ab2-7df1-4b3a-8b8a-d7ee58bf6680"},"vehicle_type_id":"4","last_reported":1693649177,"current_range_meters":30000,"station_id":"ce4bgjh2rcd13ifvqbf0","pricing_plan_id":"free"},{"bike_id":"c6e7759d-c966-4239-929f-98be0b6e5822","system_id":"levelo_inurba_marseille","lat":43.299028,"lon":5.381509,"is_reserved":false,"is_disabled":false,"rental_uris":{"android":"levelo://app?vid=c6e7759d-c966-4239-929f-98be0b6e5822","ios":"levelo://app?vid=c6e7759d-c966-4239-929f-98be0b6e5822"},"vehicle_type_id":"4","last_reported":1693649177,"current_range_meters":26400,"station_id":"ce4bgj12rcd13ifvqbc0","pricing_plan_id":"free"},{"bike_id":"15a509eb-88ed-49c9-a77a-27a7204d25b1","system_id":"levelo_inurba_marseille","lat":43.299028,"lon":5.381509,"is_reserved":false,"is_disabled":false,"rental_uris":{"android":"levelo://app?vid=15a509eb-88ed-49c9-a77a-27a7204d25b1","ios":"levelo://app?vid=15a509eb-88ed-49c9-a77a-27a7204d25b1"},"vehicle_type_id":"4","last_reported":1693649177,"current_range_meters":25600,"station_id":"ce4bgj12rcd13ifvqbc0","pricing_plan_id":"free"},{"bike_id":"a3af6be1-d215-42a9-af41-657806ca7dc9","system_id":"levelo_inurba_marseille","lat":43.296921,"lon":5.376579,"is_reserved":false,"is_disabled":false,"rental_uris":{"android":"levelo://app?vid=a3af6be1-d215-42a9-af41-657806ca7dc9","ios":"levelo://app?vid=a3af6be1-d215-42a9-af41-657806ca7dc9"},"vehicle_type_id":"4","last_reported":1693649177,"current_range_meters":14000,"station_id":"ce4bgkh2rcd13ifvqbl0","pricing_plan_id":"free"},{"bike_id":"74603b1d-5a06-445b-bae1-cbfb427aa90e","system_id":"levelo_inurba_marseille","lat":43.309589,"lon":5.390258,"is_reserved":false,"is_disabled":false,"rental_uris":{"android":"levelo://app?vid=74603b1d-5a06-445b-bae1-cbfb427aa90e","ios":"levelo://app?vid=74603b1d-5a06-445b-bae1-cbfb427aa90e"},"vehicle_type_id":"4","last_reported":1693649177,"current_range_meters":31200,"station_id":"ce4bgup2rcd13ifvqco0","pricing_plan_id":"free"},{"bike_id":"2c93ce6f-c5e1-4ec9-9941-ebb7469bb8f2","system_id":"levelo_inurba_marseille","lat":43.31763,"lon":5.39005,"is_reserved":false,"is_disabled":false,"rental_uris":{"android":"levelo://app?vid=2c93ce6f-c5e1-4ec9-9941-ebb7469bb8f2","ios":"levelo://app?vid=2c93ce6f-c5e1-4ec9-9941-ebb7469bb8f2"},"vehicle_type_id":"4","last_reported":1693649177,"current_range_meters":16800,"station_id":"ce4bhqp2rcd13ifvqhng","pricing_plan_id":"free"},{"bike_id":"5ed040b5-07fc-421c-a106-d68afc9d9f9f","system_id":"levelo_inurba_marseille","lat":43.31753,"lon":5.39016,"is_reserved":false,"is_disabled":false,"rental_uris":{"android":"levelo://app?vid=5ed040b5-07fc-421c-a106-d68afc9d9f9f","ios":"levelo://app?vid=5ed040b5-07fc-421c-a106-d68afc9d9f9f"},"vehicle_type_id":"4","last_reported":1693649177,"current_range_meters":28400,"station_id":"ce4bhqp2rcd13ifvqhng","pricing_plan_id":"free"},{"bike_id":"9b40ba95-867a-4a95-98f3-a3dbf1eaca73","system_id":"levelo_inurba_marseille","lat":43.31748,"lon":5.39019,"is_reserved":false,"is_disabled":false,"rental_uris":{"android":"levelo://app?vid=9b40ba95-867a-4a95-98f3-a3dbf1eaca73","ios":"levelo://app?vid=9b40ba95-867a-4a95-98f3-a3dbf1eaca73"},"vehicle_type_id":"4","last_reported":1693649177,"current_range_meters":22000,"station_id":"ce4bhqp2rcd13ifvqhng","pricing_plan_id":"free"},{"bike_id":"ac9cdec9-c2bb-4624-8988-75d685c984e1","system_id":"levelo_inurba_marseille","lat":43.317557,"lon":5.390173,"is_reserved":false,"is_disabled":false,"rental_uris":{"android":"levelo://app?vid=ac9cdec9-c2bb-4624-8988-75d685c984e1","ios":"levelo://app?vid=ac9cdec9-c2bb-4624-8988-75d685c984e1"},"vehicle_type_id":"4","last_reported":1693649177,"current_range_meters":27600,"station_id":"ce4bhqp2rcd13ifvqhng","pricing_plan_id":"free"},{"bike_id":"47d06bb4-b073-487b-948f-e265ad6a9385","system_id":"levelo_inurba_marseille","lat":43.317557,"lon":5.390173,"is_reserved":false,"is_disabled":false,"rental_uris":{"android":"levelo://app?vid=47d06bb4-b073-487b-948f-e265ad6a9385","ios":"levelo://app?vid=47d06bb4-b073-487b-948f-e265ad6a9385"},"vehicle_type_id":"4","last_reported":1693649177,"current_range_meters":30000,"station_id":"ce4bhqp2rcd13ifvqhng","pricing_plan_id":"free"},{"bike_id":"1b5b4211-83a3-483e-9cdf-2b196fba5adb","system_id":"levelo_inurba_marseille","lat":43.31758,"lon":5.39016,"is_reserved":false,"is_disabled":false,"rental_uris":{"android":"levelo://app?vid=1b5b4211-83a3-483e-9cdf-2b196fba5adb","ios":"levelo://app?vid=1b5b4211-83a3-483e-9cdf-2b196fba5adb"},"vehicle_type_id":"4","last_reported":1693649177,"current_range_meters":31200,"station_id":"ce4bhqp2rcd13ifvqhng","pricing_plan_id":"free"},{"bike_id":"86d37462-6f2c-4ee1-b5e1-16f3e9285866","system_id":"levelo_inurba_marseille","lat":43.31755,"lon":5.39023,"is_reserved":false,"is_disabled":false,"rental_uris":{"android":"levelo://app?vid=86d37462-6f2c-4ee1-b5e1-16f3e9285866","ios":"levelo://app?vid=86d37462-6f2c-4ee1-b5e1-16f3e9285866"},"vehicle_type_id":"4","last_reported":1693649177,"current_range_meters":17200,"station_id":"ce4bhqp2rcd13ifvqhng","pricing_plan_id":"free"},{"bike_id":"2d38d843-9501-4a8b-8d1e-e53e054245cc","system_id":"levelo_inurba_marseille","lat":43.29702,"lon":5.37811,"is_reserved":false,"is_disabled":false,"rental_uris":{"android":"levelo://app?vid=2d38d843-9501-4a8b-8d1e-e53e054245cc","ios":"levelo://app?vid=2d38d843-9501-4a8b-8d1e-e53e054245cc"},"vehicle_type_id":"4","last_reported":1693649177,"current_range_meters":28800,"station_id":"","pricing_plan_id":"free"},{"bike_id":"226edc75-151d-4792-aada-ee32cfc355b8","system_id":"levelo_inurba_marseille","lat":43.298037,"lon":5.381066,"is_reserved":false,"is_disabled":false,"rental_uris":{"android":"levelo://app?vid=226edc75-151d-4792-aada-ee32cfc355b8","ios":"levelo://app?vid=226edc75-151d-4792-aada-ee32cfc355b8"},"vehicle_type_id":"4","last_reported":1693649177,"current_range_meters":17600,"station_id":"ce4bgip2rcd13ifvqbb0","pricing_plan_id":"free"},{"bike_id":"2ffcbf8a-04a7-4b74-88df-1dc56bde54bc","system_id":"levelo_inurba_marseille","lat":43.298037,"lon":5.381066,"is_reserved":false,"is_disabled":false,"rental_uris":{"android":"levelo://app?vid=2ffcbf8a-04a7-4b74-88df-1dc56bde54bc","ios":"levelo://app?vid=2ffcbf8a-04a7-4b74-88df-1dc56bde54bc"},"vehicle_type_id":"4","last_reported":1693649177,"current_range_meters":12800,"station_id":"ce4bgip2rcd13ifvqbb0","pricing_plan_id":"free"},{"bike_id":"059df93f-6278-4675-b396-dead0d95cc95","system_id":"levelo_inurba_marseille","lat":43.295748,"lon":5.37522,"is_reserved":false,"is_disabled":false,"rental_uris":{"android":"levelo://app?vid=059df93f-6278-4675-b396-dead0d95cc95","ios":"levelo://app?vid=059df93f-6278-4675-b396-dead0d95cc95"},"vehicle_type_id":"4","last_reported":1693649177,"current_range_meters":29600,"station_id":"ce4bgh92rcd13ifvqb50","pricing_plan_id":"free"},{"bike_id":"e81775fe-f40c-4726-970e-6a1e45c93e79","system_id":"levelo_inurba_marseille","lat":43.295748,"lon":5.37522,"is_reserved":false,"is_disabled":false,"rental_uris":{"android":"levelo://app?vid=e81775fe-f40c-4726-970e-6a1e45c93e79","ios":"levelo://app?vid=e81775fe-f40c-4726-970e-6a1e45c93e79"},"vehicle_type_id":"4","last_reported":1693649177,"current_range_meters":28000,"station_id":"ce4bgh92rcd13ifvqb50","pricing_plan_id":"free"},{"bike_id":"6d048559-415f-4361-a440-52dea9bc3af3","system_id":"levelo_inurba_marseille","lat":43.295748,"lon":5.37522,"is_reserved":false,"is_disabled":false,"rental_uris":{"android":"levelo://app?vid=6d048559-415f-4361-a440-52dea9bc3af3","ios":"levelo://app?vid=6d048559-415f-4361-a440-52dea9bc3af3"},"vehicle_type_id":"4","last_reported":1693649177,"current_range_meters":23200,"station_id":"ce4bgh92rcd13ifvqb50","pricing_plan_id":"free"},{"bike_id":"e39fe441-bf0c-4b17-8ef2-92913bd81f9f","system_id":"levelo_inurba_marseille","lat":43.29569,"lon":5.37493,"is_reserved":false,"is_disabled":false,"rental_uris":{"android":"levelo://app?vid=e39fe441-bf0c-4b17-8ef2-92913bd81f9f","ios":"levelo://app?vid=e39fe441-bf0c-4b17-8ef2-92913bd81f9f"},"vehicle_type_id":"4","last_reported":1693649177,"current_range_meters":5600,"station_id":"ce4bgh92rcd13ifvqb50","pricing_plan_id":"free"},{"bike_id":"d112ea74-bb96-494a-9d04-5a3bbd7e3025","system_id":"levelo_inurba_marseille","lat":43.295748,"lon":5.37522,"is_reserved":false,"is_disabled":false,"rental_uris":{"android":"levelo://app?vid=d112ea74-bb96-494a-9d04-5a3bbd7e3025","ios":"levelo://app?vid=d112ea74-bb96-494a-9d04-5a3bbd7e3025"},"vehicle_type_id":"4","last_reported":1693649177,"current_range_meters":0,"station_id":"ce4bgh92rcd13ifvqb50","pricing_plan_id":"free"},{"bike_id":"d638a361-8b95-422b-933f-52ad15b797f9","system_id":"levelo_inurba_marseille","lat":43.295748,"lon":5.37522,"is_reserved":false,"is_disabled":false,"rental_uris":{"android":"levelo://app?vid=d638a361-8b95-422b-933f-52ad15b797f9","ios":"levelo://app?vid=d638a361-8b95-422b-933f-52ad15b797f9"},"vehicle_type_id":"4","last_reported":1693649177,"current_range_meters":30400,"station_id":"ce4bgh92rcd13ifvqb50","pricing_plan_id":"free"},{"bike_id":"459b4b45-2ed6-499f-94e5-94145bbe8bdd","system_id":"levelo_inurba_marseille","lat":43.295748,"lon":5.37522,"is_reserved":false,"is_disabled":false,"rental_uris":{"android":"levelo://app?vid=459b4b45-2ed6-499f-94e5-94145bbe8bdd","ios":"levelo://app?vid=459b4b45-2ed6-499f-94e5-94145bbe8bdd"},"vehicle_type_id":"4","last_reported":1693649177,"current_range_meters":15200,"station_id":"ce4bgh92rcd13ifvqb50","pricing_plan_id":"free"},{"bike_id":"f5e245d1-bfab-454e-b1bf-d456f16bb92c","system_id":"levelo_inurba_marseille","lat":43.295748,"lon":5.37522,"is_reserved":false,"is_disabled":false,"rental_uris":{"android":"levelo://app?vid=f5e245d1-bfab-454e-b1bf-d456f16bb92c","ios":"levelo://app?vid=f5e245d1-bfab-454e-b1bf-d456f16bb92c"},"vehicle_type_id":"4","last_reported":1693649177,"current_range_meters":24800,"station_id":"ce4bgh92rcd13ifvqb50","pricing_plan_id":"free"},{"bike_id":"f5171aa3-2555-417a-99c7-c024560b4941","system_id":"levelo_inurba_marseille","lat":43.295748,"lon":5.37522,"is_reserved":false,"is_disabled":false,"rental_uris":{"android":"levelo://app?vid=f5171aa3-2555-417a-99c7-c024560b4941","ios":"levelo://app?vid=f5171aa3-2555-417a-99c7-c024560b4941"},"vehicle_type_id":"4","last_reported":1693649177,"current_range_meters":28400,"station_id":"ce4bgh92rcd13ifvqb50","pricing_plan_id":"free"},{"bike_id":"6f1e99a7-c1e0-4881-9544-c85522dd3f52","system_id":"levelo_inurba_marseille","lat":43.296277,"lon":5.377108,"is_reserved":false,"is_disabled":false,"rental_uris":{"android":"levelo://app?vid=6f1e99a7-c1e0-4881-9544-c85522dd3f52","ios":"levelo://app?vid=6f1e99a7-c1e0-4881-9544-c85522dd3f52"},"vehicle_type_id":"4","last_reported":1693649177,"current_range_meters":18400,"station_id":"ce4bgi92rcd13ifvqb90","pricing_plan_id":"free"},{"bike_id":"c2bd0f21-7e5f-4c5f-b417-e7879a2b7dc6","system_id":"levelo_inurba_marseille","lat":43.296277,"lon":5.377108,"is_reserved":false,"is_disabled":false,"rental_uris":{"android":"levelo://app?vid=c2bd0f21-7e5f-4c5f-b417-e7879a2b7dc6","ios":"levelo://app?vid=c2bd0f21-7e5f-4c5f-b417-e7879a2b7dc6"},"vehicle_type_id":"4","last_reported":1693649177,"current_range_meters":26800,"station_id":"ce4bgi92rcd13ifvqb90","pricing_plan_id":"free"},{"bike_id":"5e72fdc7-c1c8-47f6-963d-15f3881bbc54","system_id":"levelo_inurba_marseille","lat":43.299707,"lon":5.384859,"is_reserved":false,"is_disabled":false,"rental_uris":{"android":"levelo://app?vid=5e72fdc7-c1c8-47f6-963d-15f3881bbc54","ios":"levelo://app?vid=5e72fdc7-c1c8-47f6-963d-15f3881bbc54"},"vehicle_type_id":"4","last_reported":1693649177,"current_range_meters":0,"station_id":"ce4bgj92rcd13ifvqbd0","pricing_plan_id":"free"},{"bike_id":"97211f23-3dc6-41c9-9b6e-8ba1d75c0c7d","system_id":"levelo_inurba_marseille","lat":43.295279,"lon":5.375048,"is_reserved":false,"is_disabled":false,"rental_uris":{"android":"levelo://app?vid=97211f23-3dc6-41c9-9b6e-8ba1d75c0c7d","ios":"levelo://app?vid=97211f23-3dc6-41c9-9b6e-8ba1d75c0c7d"},"vehicle_type_id":"4","last_reported":1693649177,"current_range_meters":27600,"station_id":"ce4bgkp2rcd13ifvqbmg","pricing_plan_id":"free"},{"bike_id":"e3e3286b-dedd-483f-b588-d76c318a404a","system_id":"levelo_inurba_marseille","lat":43.295279,"lon":5.375048,"is_reserved":false,"is_disabled":false,"rental_uris":{"android":"levelo://app?vid=e3e3286b-dedd-483f-b588-d76c318a404a","ios":"levelo://app?vid=e3e3286b-dedd-483f-b588-d76c318a404a"},"vehicle_type_id":"4","last_reported":1693649177,"current_range_meters":24800,"station_id":"ce4bgkp2rcd13ifvqbmg","pricing_plan_id":"free"},{"bike_id":"f82123b0-46b9-43c2-80e1-79b5d31ec908","system_id":"levelo_inurba_marseille","lat":43.295279,"lon":5.375048,"is_reserved":false,"is_disabled":false,"rental_uris":{"android":"levelo://app?vid=f82123b0-46b9-43c2-80e1-79b5d31ec908","ios":"levelo://app?vid=f82123b0-46b9-43c2-80e1-79b5d31ec908"},"vehicle_type_id":"4","last_reported":1693649177,"current_range_meters":23600,"station_id":"ce4bgkp2rcd13ifvqbmg","pricing_plan_id":"free"},{"bike_id":"f7636694-d23b-4427-92c1-ebb02b5fce93","system_id":"levelo_inurba_marseille","lat":43.295279,"lon":5.375048,"is_reserved":false,"is_disabled":false,"rental_uris":{"android":"levelo://app?vid=f7636694-d23b-4427-92c1-ebb02b5fce93","ios":"levelo://app?vid=f7636694-d23b-4427-92c1-ebb02b5fce93"},"vehicle_type_id":"4","last_reported":1693649177,"current_range_meters":31200,"station_id":"ce4bgkp2rcd13ifvqbmg","pricing_plan_id":"free"},{"bike_id":"5ee953b6-9e0a-4223-968e-3d86e267bf64","system_id":"levelo_inurba_marseille","lat":43.295279,"lon":5.375048,"is_reserved":false,"is_disabled":false,"rental_uris":{"android":"levelo://app?vid=5ee953b6-9e0a-4223-968e-3d86e267bf64","ios":"levelo://app?vid=5ee953b6-9e0a-4223-968e-3d86e267bf64"},"vehicle_type_id":"4","last_reported":1693649177,"current_range_meters":31200,"station_id":"ce4bgkp2rcd13ifvqbmg","pricing_plan_id":"free"},{"bike_id":"e560b387-b306-4508-84c4-964212122f56","system_id":"levelo_inurba_marseille","lat":43.295279,"lon":5.375048,"is_reserved":false,"is_disabled":false,"rental_uris":{"android":"levelo://app?vid=e560b387-b306-4508-84c4-964212122f56","ios":"levelo://app?vid=e560b387-b306-4508-84c4-964212122f56"},"vehicle_type_id":"4","last_reported":1693649177,"current_range_meters":18400,"station_id":"ce4bgkp2rcd13ifvqbmg","pricing_plan_id":"free"},{"bike_id":"eb7c4bf3-b934-4583-895e-681571bdfb35","system_id":"levelo_inurba_marseille","lat":43.299707,"lon":5.384859,"is_reserved":false,"is_disabled":false,"rental_uris":{"android":"levelo://app?vid=eb7c4bf3-b934-4583-895e-681571bdfb35","ios":"levelo://app?vid=eb7c4bf3-b934-4583-895e-681571bdfb35"},"vehicle_type_id":"4","last_reported":1693649177,"current_range_meters":23600,"station_id":"ce4bgj92rcd13ifvqbd0","pricing_plan_id":"free"},{"bike_id":"a3c4d14f-2b21-4746-bfb3-4a72c53e5335","system_id":"levelo_inurba_marseille","lat":43.295279,"lon":5.375048,"is_reserved":false,"is_disabled":false,"rental_uris":{"android":"levelo://app?vid=a3c4d14f-2b21-4746-bfb3-4a72c53e5335","ios":"levelo://app?vid=a3c4d14f-2b21-4746-bfb3-4a72c53e5335"},"vehicle_type_id":"4","last_reported":1693649177,"current_range_meters":29200,"station_id":"ce4bgkp2rcd13ifvqbmg","pricing_plan_id":"free"},{"bike_id":"77e28730-039b-415f-b85b-2cbd27cfbff1","system_id":"levelo_inurba_marseille","lat":43.295279,"lon":5.375048,"is_reserved":false,"is_disabled":false,"rental_uris":{"android":"levelo://app?vid=77e28730-039b-415f-b85b-2cbd27cfbff1","ios":"levelo://app?vid=77e28730-039b-415f-b85b-2cbd27cfbff1"},"vehicle_type_id":"4","last_reported":1693649177,"current_range_meters":30800,"station_id":"ce4bgkp2rcd13ifvqbmg","pricing_plan_id":"free"},{"bike_id":"a642e142-f08a-4cb9-ab1b-ad74f917fa97","system_id":"levelo_inurba_marseille","lat":43.295279,"lon":5.375048,"is_reserved":false,"is_disabled":false,"rental_uris":{"android":"levelo://app?vid=a642e142-f08a-4cb9-ab1b-ad74f917fa97","ios":"levelo://app?vid=a642e142-f08a-4cb9-ab1b-ad74f917fa97"},"vehicle_type_id":"4","last_reported":1693649177,"current_range_meters":25200,"station_id":"ce4bgkp2rcd13ifvqbmg","pricing_plan_id":"free"},{"bike_id":"42945ecb-0417-4f8d-95b3-71137bf8a7c7","system_id":"levelo_inurba_marseille","lat":43.295279,"lon":5.375048,"is_reserved":false,"is_disabled":false,"rental_uris":{"android":"levelo://app?vid=42945ecb-0417-4f8d-95b3-71137bf8a7c7","ios":"levelo://app?vid=42945ecb-0417-4f8d-95b3-71137bf8a7c7"},"vehicle_type_id":"4","last_reported":1693649177,"current_range_meters":21200,"station_id":"ce4bgkp2rcd13ifvqbmg","pricing_plan_id":"free"},{"bike_id":"2f731d75-ca36-47dc-90a1-ee32ee35af00","system_id":"levelo_inurba_marseille","lat":43.295279,"lon":5.375048,"is_reserved":false,"is_disabled":false,"rental_uris":{"android":"levelo://app?vid=2f731d75-ca36-47dc-90a1-ee32ee35af00","ios":"levelo://app?vid=2f731d75-ca36-47dc-90a1-ee32ee35af00"},"vehicle_type_id":"4","last_reported":1693649177,"current_range_meters":4400,"station_id":"ce4bgkp2rcd13ifvqbmg","pricing_plan_id":"free"},{"bike_id":"cd1e8a8d-2c0c-45f5-97fe-cc156d2e95a8","system_id":"levelo_inurba_marseille","lat":43.299724,"lon":5.384848,"is_reserved":false,"is_disabled":false,"rental_uris":{"android":"levelo://app?vid=cd1e8a8d-2c0c-45f5-97fe-cc156d2e95a8","ios":"levelo://app?vid=cd1e8a8d-2c0c-45f5-97fe-cc156d2e95a8"},"vehicle_type_id":"4","last_reported":1693649177,"current_range_meters":0,"station_id":"ce4bgj92rcd13ifvqbd0","pricing_plan_id":"free"},{"bike_id":"77a50962-356e-45f4-a95c-e292201cc395","system_id":"levelo_inurba_marseille","lat":43.295279,"lon":5.375048,"is_reserved":false,"is_disabled":false,"rental_uris":{"android":"levelo://app?vid=77a50962-356e-45f4-a95c-e292201cc395","ios":"levelo://app?vid=77a50962-356e-45f4-a95c-e292201cc395"},"vehicle_type_id":"4","last_reported":1693649177,"current_range_meters":14800,"station_id":"ce4bgkp2rcd13ifvqbmg","pricing_plan_id":"free"},{"bike_id":"ce8e1df5-4efb-45fe-86b3-67eda4fca028","system_id":"levelo_inurba_marseille","lat":43.295279,"lon":5.375048,"is_reserved":false,"is_disabled":false,"rental_uris":{"android":"levelo://app?vid=ce8e1df5-4efb-45fe-86b3-67eda4fca028","ios":"levelo://app?vid=ce8e1df5-4efb-45fe-86b3-67eda4fca028"},"vehicle_type_id":"4","last_reported":1693649177,"current_range_meters":7200,"station_id":"ce4bgkp2rcd13ifvqbmg","pricing_plan_id":"free"},{"bike_id":"9180c84f-0f25-4355-8dec-d34711128242","system_id":"levelo_inurba_marseille","lat":43.32363,"lon":5.38875,"is_reserved":false,"is_disabled":false,"rental_uris":{"android":"levelo://app?vid=9180c84f-0f25-4355-8dec-d34711128242","ios":"levelo://app?vid=9180c84f-0f25-4355-8dec-d34711128242"},"vehicle_type_id":"4","last_reported":1693649177,"current_range_meters":21200,"station_id":"ce4bhqp2rcd13ifvqhog","pricing_plan_id":"free"},{"bike_id":"75dd2d9b-e11c-4209-90bf-8c81a9698c47","system_id":"levelo_inurba_marseille","lat":43.32363,"lon":5.38875,"is_reserved":false,"is_disabled":false,"rental_uris":{"android":"levelo://app?vid=75dd2d9b-e11c-4209-90bf-8c81a9698c47","ios":"levelo://app?vid=75dd2d9b-e11c-4209-90bf-8c81a9698c47"},"vehicle_type_id":"4","last_reported":1693649177,"current_range_meters":27600,"station_id":"ce4bhqp2rcd13ifvqhog","pricing_plan_id":"free"},{"bike_id":"8181e861-4f28-43e6-b352-b668aa565979","system_id":"levelo_inurba_marseille","lat":43.32361,"lon":5.38881,"is_reserved":false,"is_disabled":false,"rental_uris":{"android":"levelo://app?vid=8181e861-4f28-43e6-b352-b668aa565979","ios":"levelo://app?vid=8181e861-4f28-43e6-b352-b668aa565979"},"vehicle_type_id":"4","last_reported":1693649177,"current_range_meters":27600,"station_id":"ce4bhqp2rcd13ifvqhog","pricing_plan_id":"free"},{"bike_id":"df89e0ad-9ac5-4d8c-9181-83c1d4b49783","system_id":"levelo_inurba_marseille","lat":43.32367,"lon":5.388836,"is_reserved":false,"is_disabled":false,"rental_uris":{"android":"levelo://app?vid=df89e0ad-9ac5-4d8c-9181-83c1d4b49783","ios":"levelo://app?vid=df89e0ad-9ac5-4d8c-9181-83c1d4b49783"},"vehicle_type_id":"4","last_reported":1693649177,"current_range_meters":15200,"station_id":"ce4bhqp2rcd13ifvqhog","pricing_plan_id":"free"},{"bike_id":"04f31de1-a848-4881-bad0-807b42e86222","system_id":"levelo_inurba_marseille","lat":43.32366,"lon":5.38879,"is_reserved":false,"is_disabled":false,"rental_uris":{"android":"levelo://app?vid=04f31de1-a848-4881-bad0-807b42e86222","ios":"levelo://app?vid=04f31de1-a848-4881-bad0-807b42e86222"},"vehicle_type_id":"4","last_reported":1693649177,"current_range_meters":2800,"station_id":"ce4bhqp2rcd13ifvqhog","pricing_plan_id":"free"},{"bike_id":"ff25b2c0-9288-4710-aefe-153e38ec535b","system_id":"levelo_inurba_marseille","lat":43.32364,"lon":5.38882,"is_reserved":false,"is_disabled":false,"rental_uris":{"android":"levelo://app?vid=ff25b2c0-9288-4710-aefe-153e38ec535b","ios":"levelo://app?vid=ff25b2c0-9288-4710-aefe-153e38ec535b"},"vehicle_type_id":"4","last_reported":1693649177,"current_range_meters":18800,"station_id":"ce4bhqp2rcd13ifvqhog","pricing_plan_id":"free"},{"bike_id":"66f9b899-9afc-428f-834e-64755a969a1b","system_id":"levelo_inurba_marseille","lat":43.32357,"lon":5.38889,"is_reserved":false,"is_disabled":false,"rental_uris":{"android":"levelo://app?vid=66f9b899-9afc-428f-834e-64755a969a1b","ios":"levelo://app?vid=66f9b899-9afc-428f-834e-64755a969a1b"},"vehicle_type_id":"4","last_reported":1693649177,"current_range_meters":21600,"station_id":"ce4bhqp2rcd13ifvqhog","pricing_plan_id":"free"},{"bike_id":"04bd86b5-0561-4cf7-b54e-88dfd8a933b3","system_id":"levelo_inurba_marseille","lat":43.32364,"lon":5.38883,"is_reserved":false,"is_disabled":false,"rental_uris":{"android":"levelo://app?vid=04bd86b5-0561-4cf7-b54e-88dfd8a933b3","ios":"levelo://app?vid=04bd86b5-0561-4cf7-b54e-88dfd8a933b3"},"vehicle_type_id":"4","last_reported":1693649177,"current_range_meters":27200,"station_id":"ce4bhqp2rcd13ifvqhog","pricing_plan_id":"free"},{"bike_id":"d1b6c76b-72f9-4ed2-9124-7ec62e1f65b7","system_id":"levelo_inurba_marseille","lat":43.32361,"lon":5.38886,"is_reserved":false,"is_disabled":false,"rental_uris":{"android":"levelo://app?vid=d1b6c76b-72f9-4ed2-9124-7ec62e1f65b7","ios":"levelo://app?vid=d1b6c76b-72f9-4ed2-9124-7ec62e1f65b7"},"vehicle_type_id":"4","last_reported":1693649177,"current_range_meters":4400,"station_id":"ce4bhqp2rcd13ifvqhog","pricing_plan_id":"free"},{"bike_id":"982e8d03-ab6f-4922-8981-759d28ba6ba2","system_id":"levelo_inurba_marseille","lat":43.32361,"lon":5.38887,"is_reserved":false,"is_disabled":false,"rental_uris":{"android":"levelo://app?vid=982e8d03-ab6f-4922-8981-759d28ba6ba2","ios":"levelo://app?vid=982e8d03-ab6f-4922-8981-759d28ba6ba2"},"vehicle_type_id":"4","last_reported":1693649177,"current_range_meters":0,"station_id":"ce4bhqp2rcd13ifvqhog","pricing_plan_id":"free"},{"bike_id":"899db4cf-53c9-490f-9588-c2dabe0e6d13","system_id":"levelo_inurba_marseille","lat":43.32369,"lon":5.38881,"is_reserved":false,"is_disabled":false,"rental_uris":{"android":"levelo://app?vid=899db4cf-53c9-490f-9588-c2dabe0e6d13","ios":"levelo://app?vid=899db4cf-53c9-490f-9588-c2dabe0e6d13"},"vehicle_type_id":"4","last_reported":1693649177,"current_range_meters":2800,"station_id":"ce4bhqp2rcd13ifvqhog","pricing_plan_id":"free"},{"bike_id":"acfbadcb-c02f-4130-bbb9-c26ec206ba85","system_id":"levelo_inurba_marseille","lat":43.29601,"lon":5.381084,"is_reserved":false,"is_disabled":false,"rental_uris":{"android":"levelo://app?vid=acfbadcb-c02f-4130-bbb9-c26ec206ba85","ios":"levelo://app?vid=acfbadcb-c02f-4130-bbb9-c26ec206ba85"},"vehicle_type_id":"4","last_reported":1693649177,"current_range_meters":28400,"station_id":"ce4bgl12rcd13ifvqbo0","pricing_plan_id":"free"},{"bike_id":"04fb0b55-eca4-4523-9030-6f57805ceb21","system_id":"levelo_inurba_marseille","lat":43.29602,"lon":5.381084,"is_reserved":false,"is_disabled":false,"rental_uris":{"android":"levelo://app?vid=04fb0b55-eca4-4523-9030-6f57805ceb21","ios":"levelo://app?vid=04fb0b55-eca4-4523-9030-6f57805ceb21"},"vehicle_type_id":"4","last_reported":1693649177,"current_range_meters":28400,"station_id":"ce4bgl12rcd13ifvqbo0","pricing_plan_id":"free"},{"bike_id":"914582d8-3637-482a-acba-fa0c03d87b28","system_id":"levelo_inurba_marseille","lat":43.29307,"lon":5.37167,"is_reserved":false,"is_disabled":false,"rental_uris":{"android":"levelo://app?vid=914582d8-3637-482a-acba-fa0c03d87b28","ios":"levelo://app?vid=914582d8-3637-482a-acba-fa0c03d87b28"},"vehicle_type_id":"4","last_reported":1693649177,"current_range_meters":28800,"station_id":"ce4bgh92rcd13ifvqb40","pricing_plan_id":"free"},{"bike_id":"1b7b0043-4b37-4764-b4ee-9d07518d0346","system_id":"levelo_inurba_marseille","lat":43.29308,"lon":5.37181,"is_reserved":false,"is_disabled":false,"rental_uris":{"android":"levelo://app?vid=1b7b0043-4b37-4764-b4ee-9d07518d0346","ios":"levelo://app?vid=1b7b0043-4b37-4764-b4ee-9d07518d0346"},"vehicle_type_id":"4","last_reported":1693649177,"current_range_meters":21600,"station_id":"ce4bgh92rcd13ifvqb40","pricing_plan_id":"free"},{"bike_id":"69552ebd-52fd-412c-85c6-b602dd4b000d","system_id":"levelo_inurba_marseille","lat":43.29307,"lon":5.37175,"is_reserved":false,"is_disabled":false,"rental_uris":{"android":"levelo://app?vid=69552ebd-52fd-412c-85c6-b602dd4b000d","ios":"levelo://app?vid=69552ebd-52fd-412c-85c6-b602dd4b000d"},"vehicle_type_id":"4","last_reported":1693649177,"current_range_meters":6400,"station_id":"ce4bgh92rcd13ifvqb40","pricing_plan_id":"free"},{"bike_id":"8ff6dce7-e7b1-4feb-a44a-43bdb9aefda7","system_id":"levelo_inurba_marseille","lat":43.29278,"lon":5.36841,"is_reserved":false,"is_disabled":false,"rental_uris":{"android":"levelo://app?vid=8ff6dce7-e7b1-4feb-a44a-43bdb9aefda7","ios":"levelo://app?vid=8ff6dce7-e7b1-4feb-a44a-43bdb9aefda7"},"vehicle_type_id":"4","last_reported":1693649177,"current_range_meters":27600,"station_id":"ce4bhbp2rcd13ifvqesg","pricing_plan_id":"free"},{"bike_id":"9f616d29-16c8-4b37-ab38-d20afc65a261","system_id":"levelo_inurba_marseille","lat":43.292749,"lon":5.368402,"is_reserved":false,"is_disabled":false,"rental_uris":{"android":"levelo://app?vid=9f616d29-16c8-4b37-ab38-d20afc65a261","ios":"levelo://app?vid=9f616d29-16c8-4b37-ab38-d20afc65a261"},"vehicle_type_id":"4","last_reported":1693649177,"current_range_meters":25600,"station_id":"ce4bhbp2rcd13ifvqesg","pricing_plan_id":"free"},{"bike_id":"07bec1ce-a58f-411d-ade6-7e115a34f816","system_id":"levelo_inurba_marseille","lat":43.292749,"lon":5.368402,"is_reserved":false,"is_disabled":false,"rental_uris":{"android":"levelo://app?vid=07bec1ce-a58f-411d-ade6-7e115a34f816","ios":"levelo://app?vid=07bec1ce-a58f-411d-ade6-7e115a34f816"},"vehicle_type_id":"4","last_reported":1693649177,"current_range_meters":23600,"station_id":"ce4bhbp2rcd13ifvqesg","pricing_plan_id":"free"},{"bike_id":"d747e5bf-10b9-4421-9cdc-70e707299c7b","system_id":"levelo_inurba_marseille","lat":43.292749,"lon":5.368402,"is_reserved":false,"is_disabled":false,"rental_uris":{"android":"levelo://app?vid=d747e5bf-10b9-4421-9cdc-70e707299c7b","ios":"levelo://app?vid=d747e5bf-10b9-4421-9cdc-70e707299c7b"},"vehicle_type_id":"4","last_reported":1693649177,"current_range_meters":24400,"station_id":"ce4bhbp2rcd13ifvqesg","pricing_plan_id":"free"},{"bike_id":"a3126b17-5cf1-490a-bc9b-e0b7ea4ecbb8","system_id":"levelo_inurba_marseille","lat":43.29304,"lon":5.37177,"is_reserved":false,"is_disabled":false,"rental_uris":{"android":"levelo://app?vid=a3126b17-5cf1-490a-bc9b-e0b7ea4ecbb8","ios":"levelo://app?vid=a3126b17-5cf1-490a-bc9b-e0b7ea4ecbb8"},"vehicle_type_id":"4","last_reported":1693649177,"current_range_meters":22400,"station_id":"ce4bgh92rcd13ifvqb40","pricing_plan_id":"free"},{"bike_id":"4eb0d718-8581-4f82-8139-bd2307d9945e","system_id":"levelo_inurba_marseille","lat":43.29303,"lon":5.37172,"is_reserved":false,"is_disabled":false,"rental_uris":{"android":"levelo://app?vid=4eb0d718-8581-4f82-8139-bd2307d9945e","ios":"levelo://app?vid=4eb0d718-8581-4f82-8139-bd2307d9945e"},"vehicle_type_id":"4","last_reported":1693649177,"current_range_meters":29200,"station_id":"ce4bgh92rcd13ifvqb40","pricing_plan_id":"free"},{"bike_id":"f6f59d06-8882-4e86-9b3e-fd52236ed8c8","system_id":"levelo_inurba_marseille","lat":43.29275,"lon":5.36838,"is_reserved":false,"is_disabled":false,"rental_uris":{"android":"levelo://app?vid=f6f59d06-8882-4e86-9b3e-fd52236ed8c8","ios":"levelo://app?vid=f6f59d06-8882-4e86-9b3e-fd52236ed8c8"},"vehicle_type_id":"4","last_reported":1693649177,"current_range_meters":21600,"station_id":"ce4bhbp2rcd13ifvqesg","pricing_plan_id":"free"},{"bike_id":"d202f2d5-0134-48c7-b4e9-c45211d807bd","system_id":"levelo_inurba_marseille","lat":43.29302,"lon":5.37166,"is_reserved":false,"is_disabled":false,"rental_uris":{"android":"levelo://app?vid=d202f2d5-0134-48c7-b4e9-c45211d807bd","ios":"levelo://app?vid=d202f2d5-0134-48c7-b4e9-c45211d807bd"},"vehicle_type_id":"4","last_reported":1693649177,"current_range_meters":10400,"station_id":"ce4bgh92rcd13ifvqb40","pricing_plan_id":"free"},{"bike_id":"51dac959-8b72-4803-9681-766763cc1532","system_id":"levelo_inurba_marseille","lat":43.29304,"lon":5.37182,"is_reserved":false,"is_disabled":false,"rental_uris":{"android":"levelo://app?vid=51dac959-8b72-4803-9681-766763cc1532","ios":"levelo://app?vid=51dac959-8b72-4803-9681-766763cc1532"},"vehicle_type_id":"4","last_reported":1693649177,"current_range_meters":9200,"station_id":"ce4bgh92rcd13ifvqb40","pricing_plan_id":"free"},{"bike_id":"5f4a012a-de8c-4c6c-9dbe-ad93d17be372","system_id":"levelo_inurba_marseille","lat":43.29272,"lon":5.36839,"is_reserved":false,"is_disabled":false,"rental_uris":{"android":"levelo://app?vid=5f4a012a-de8c-4c6c-9dbe-ad93d17be372","ios":"levelo://app?vid=5f4a012a-de8c-4c6c-9dbe-ad93d17be372"},"vehicle_type_id":"4","last_reported":1693649177,"current_range_meters":24000,"station_id":"ce4bhbp2rcd13ifvqesg","pricing_plan_id":"free"},{"bike_id":"d8e1d3fc-9b44-488d-9288-190ac5c9f806","system_id":"levelo_inurba_marseille","lat":43.29297,"lon":5.37163,"is_reserved":false,"is_disabled":false,"rental_uris":{"android":"levelo://app?vid=d8e1d3fc-9b44-488d-9288-190ac5c9f806","ios":"levelo://app?vid=d8e1d3fc-9b44-488d-9288-190ac5c9f806"},"vehicle_type_id":"4","last_reported":1693649177,"current_range_meters":23200,"station_id":"ce4bgh92rcd13ifvqb40","pricing_plan_id":"free"},{"bike_id":"b5c9dd32-f872-4b31-93d5-98959233aaca","system_id":"levelo_inurba_marseille","lat":43.292749,"lon":5.368398,"is_reserved":false,"is_disabled":false,"rental_uris":{"android":"levelo://app?vid=b5c9dd32-f872-4b31-93d5-98959233aaca","ios":"levelo://app?vid=b5c9dd32-f872-4b31-93d5-98959233aaca"},"vehicle_type_id":"4","last_reported":1693649177,"current_range_meters":7600,"station_id":"ce4bhbp2rcd13ifvqesg","pricing_plan_id":"free"},{"bike_id":"530c4e5f-c44d-4f20-8ae0-be54d3602dd3","system_id":"levelo_inurba_marseille","lat":43.292749,"lon":5.368402,"is_reserved":false,"is_disabled":false,"rental_uris":{"android":"levelo://app?vid=530c4e5f-c44d-4f20-8ae0-be54d3602dd3","ios":"levelo://app?vid=530c4e5f-c44d-4f20-8ae0-be54d3602dd3"},"vehicle_type_id":"4","last_reported":1693649177,"current_range_meters":20000,"station_id":"ce4bhbp2rcd13ifvqesg","pricing_plan_id":"free"},{"bike_id":"e585bbf7-1399-42b2-9e2c-ed673167b551","system_id":"levelo_inurba_marseille","lat":43.292749,"lon":5.368402,"is_reserved":false,"is_disabled":false,"rental_uris":{"android":"levelo://app?vid=e585bbf7-1399-42b2-9e2c-ed673167b551","ios":"levelo://app?vid=e585bbf7-1399-42b2-9e2c-ed673167b551"},"vehicle_type_id":"4","last_reported":1693649177,"current_range_meters":22800,"station_id":"ce4bhbp2rcd13ifvqesg","pricing_plan_id":"free"},{"bike_id":"362c4735-917e-43e6-8216-c30419076652","system_id":"levelo_inurba_marseille","lat":43.29269,"lon":5.36847,"is_reserved":false,"is_disabled":false,"rental_uris":{"android":"levelo://app?vid=362c4735-917e-43e6-8216-c30419076652","ios":"levelo://app?vid=362c4735-917e-43e6-8216-c30419076652"},"vehicle_type_id":"4","last_reported":1693649177,"current_range_meters":16400,"station_id":"ce4bhbp2rcd13ifvqesg","pricing_plan_id":"free"},{"bike_id":"be3b7d05-fa51-404f-9223-7d8155a85c59","system_id":"levelo_inurba_marseille","lat":43.292749,"lon":5.368398,"is_reserved":false,"is_disabled":false,"rental_uris":{"android":"levelo://app?vid=be3b7d05-fa51-404f-9223-7d8155a85c59","ios":"levelo://app?vid=be3b7d05-fa51-404f-9223-7d8155a85c59"},"vehicle_type_id":"4","last_reported":1693649177,"current_range_meters":19600,"station_id":"ce4bhbp2rcd13ifvqesg","pricing_plan_id":"free"},{"bike_id":"fdea147c-8b80-4ebd-9029-e254888d629c","system_id":"levelo_inurba_marseille","lat":43.29267,"lon":5.36845,"is_reserved":false,"is_disabled":false,"rental_uris":{"android":"levelo://app?vid=fdea147c-8b80-4ebd-9029-e254888d629c","ios":"levelo://app?vid=fdea147c-8b80-4ebd-9029-e254888d629c"},"vehicle_type_id":"4","last_reported":1693649177,"current_range_meters":24000,"station_id":"ce4bhbp2rcd13ifvqesg","pricing_plan_id":"free"},{"bike_id":"af378848-4ab5-4a0c-a75c-c290cd6c3483","system_id":"levelo_inurba_marseille","lat":43.32459,"lon":5.38946,"is_reserved":false,"is_disabled":false,"rental_uris":{"android":"levelo://app?vid=af378848-4ab5-4a0c-a75c-c290cd6c3483","ios":"levelo://app?vid=af378848-4ab5-4a0c-a75c-c290cd6c3483"},"vehicle_type_id":"4","last_reported":1693649177,"current_range_meters":0,"station_id":"","pricing_plan_id":"free"},{"bike_id":"c1d63aec-c298-4744-b756-581bcf21efed","system_id":"levelo_inurba_marseille","lat":43.293009,"lon":5.374584,"is_reserved":false,"is_disabled":false,"rental_uris":{"android":"levelo://app?vid=c1d63aec-c298-4744-b756-581bcf21efed","ios":"levelo://app?vid=c1d63aec-c298-4744-b756-581bcf21efed"},"vehicle_type_id":"4","last_reported":1693649177,"current_range_meters":13200,"station_id":"ce4bgi12rcd13ifvqb70","pricing_plan_id":"free"},{"bike_id":"86a60aff-9b8c-4b1b-93fc-d1bce4fed828","system_id":"levelo_inurba_marseille","lat":43.293009,"lon":5.374584,"is_reserved":false,"is_disabled":false,"rental_uris":{"android":"levelo://app?vid=86a60aff-9b8c-4b1b-93fc-d1bce4fed828","ios":"levelo://app?vid=86a60aff-9b8c-4b1b-93fc-d1bce4fed828"},"vehicle_type_id":"4","last_reported":1693649177,"current_range_meters":3600,"station_id":"ce4bgi12rcd13ifvqb70","pricing_plan_id":"free"},{"bike_id":"91f8da76-05e1-41d0-b9e9-08b543b01244","system_id":"levelo_inurba_marseille","lat":43.293009,"lon":5.374584,"is_reserved":false,"is_disabled":false,"rental_uris":{"android":"levelo://app?vid=91f8da76-05e1-41d0-b9e9-08b543b01244","ios":"levelo://app?vid=91f8da76-05e1-41d0-b9e9-08b543b01244"},"vehicle_type_id":"4","last_reported":1693649177,"current_range_meters":31200,"station_id":"ce4bgi12rcd13ifvqb70","pricing_plan_id":"free"},{"bike_id":"46abbf15-222c-447c-a2b7-90969d0bdd9f","system_id":"levelo_inurba_marseille","lat":43.293009,"lon":5.374584,"is_reserved":false,"is_disabled":false,"rental_uris":{"android":"levelo://app?vid=46abbf15-222c-447c-a2b7-90969d0bdd9f","ios":"levelo://app?vid=46abbf15-222c-447c-a2b7-90969d0bdd9f"},"vehicle_type_id":"4","last_reported":1693649177,"current_range_meters":22800,"station_id":"ce4bgi12rcd13ifvqb70","pricing_plan_id":"free"},{"bike_id":"5209bb9a-d3ad-4ee9-84f8-548b92d0dc37","system_id":"levelo_inurba_marseille","lat":43.293009,"lon":5.374584,"is_reserved":false,"is_disabled":false,"rental_uris":{"android":"levelo://app?vid=5209bb9a-d3ad-4ee9-84f8-548b92d0dc37","ios":"levelo://app?vid=5209bb9a-d3ad-4ee9-84f8-548b92d0dc37"},"vehicle_type_id":"4","last_reported":1693649177,"current_range_meters":5200,"station_id":"ce4bgi12rcd13ifvqb70","pricing_plan_id":"free"},{"bike_id":"6e14db5a-6684-41d5-b23f-9dfeafc805f6","system_id":"levelo_inurba_marseille","lat":43.293009,"lon":5.374584,"is_reserved":false,"is_disabled":false,"rental_uris":{"android":"levelo://app?vid=6e14db5a-6684-41d5-b23f-9dfeafc805f6","ios":"levelo://app?vid=6e14db5a-6684-41d5-b23f-9dfeafc805f6"},"vehicle_type_id":"4","last_reported":1693649177,"current_range_meters":18000,"station_id":"ce4bgi12rcd13ifvqb70","pricing_plan_id":"free"},{"bike_id":"c8c7d8d2-8557-478c-b3bd-b1c25a1082c4","system_id":"levelo_inurba_marseille","lat":43.293009,"lon":5.374584,"is_reserved":false,"is_disabled":false,"rental_uris":{"android":"levelo://app?vid=c8c7d8d2-8557-478c-b3bd-b1c25a1082c4","ios":"levelo://app?vid=c8c7d8d2-8557-478c-b3bd-b1c25a1082c4"},"vehicle_type_id":"4","last_reported":1693649177,"current_range_meters":20400,"station_id":"ce4bgi12rcd13ifvqb70","pricing_plan_id":"free"},{"bike_id":"7ef30387-dee8-4fc5-add3-10e167f4b540","system_id":"levelo_inurba_marseille","lat":43.29289,"lon":5.37443,"is_reserved":false,"is_disabled":false,"rental_uris":{"android":"levelo://app?vid=7ef30387-dee8-4fc5-add3-10e167f4b540","ios":"levelo://app?vid=7ef30387-dee8-4fc5-add3-10e167f4b540"},"vehicle_type_id":"4","last_reported":1693649177,"current_range_meters":31200,"station_id":"","pricing_plan_id":"free"},{"bike_id":"004e6546-11a2-474a-8dcb-e5af29791ed5","system_id":"levelo_inurba_marseille","lat":43.293009,"lon":5.374584,"is_reserved":false,"is_disabled":false,"rental_uris":{"android":"levelo://app?vid=004e6546-11a2-474a-8dcb-e5af29791ed5","ios":"levelo://app?vid=004e6546-11a2-474a-8dcb-e5af29791ed5"},"vehicle_type_id":"4","last_reported":1693649177,"current_range_meters":18000,"station_id":"ce4bgi12rcd13ifvqb70","pricing_plan_id":"free"},{"bike_id":"7155b85d-c582-4a75-bd2d-9d9ccae1a2a0","system_id":"levelo_inurba_marseille","lat":43.293009,"lon":5.374584,"is_reserved":false,"is_disabled":false,"rental_uris":{"android":"levelo://app?vid=7155b85d-c582-4a75-bd2d-9d9ccae1a2a0","ios":"levelo://app?vid=7155b85d-c582-4a75-bd2d-9d9ccae1a2a0"},"vehicle_type_id":"4","last_reported":1693649177,"current_range_meters":30800,"station_id":"ce4bgi12rcd13ifvqb70","pricing_plan_id":"free"},{"bike_id":"815dbd24-9e7a-4670-af71-866572f15105","system_id":"levelo_inurba_marseille","lat":43.293009,"lon":5.374584,"is_reserved":false,"is_disabled":false,"rental_uris":{"android":"levelo://app?vid=815dbd24-9e7a-4670-af71-866572f15105","ios":"levelo://app?vid=815dbd24-9e7a-4670-af71-866572f15105"},"vehicle_type_id":"4","last_reported":1693649177,"current_range_meters":27600,"station_id":"ce4bgi12rcd13ifvqb70","pricing_plan_id":"free"},{"bike_id":"0724f352-a262-45b7-9b71-9a09ff17d945","system_id":"levelo_inurba_marseille","lat":43.30292,"lon":5.39201,"is_reserved":false,"is_disabled":false,"rental_uris":{"android":"levelo://app?vid=0724f352-a262-45b7-9b71-9a09ff17d945","ios":"levelo://app?vid=0724f352-a262-45b7-9b71-9a09ff17d945"},"vehicle_type_id":"4","last_reported":1693649177,"current_range_meters":22800,"station_id":"ce4bgkh2rcd13ifvqbk0","pricing_plan_id":"free"},{"bike_id":"38fef587-7cc5-4800-b069-87b8f296a10a","system_id":"levelo_inurba_marseille","lat":43.30286,"lon":5.39204,"is_reserved":false,"is_disabled":false,"rental_uris":{"android":"levelo://app?vid=38fef587-7cc5-4800-b069-87b8f296a10a","ios":"levelo://app?vid=38fef587-7cc5-4800-b069-87b8f296a10a"},"vehicle_type_id":"4","last_reported":1693649177,"current_range_meters":20800,"station_id":"ce4bgkh2rcd13ifvqbk0","pricing_plan_id":"free"},{"bike_id":"59d4a7cc-c4d8-47e1-a63f-2e26b5d209c3","system_id":"levelo_inurba_marseille","lat":43.2936,"lon":5.37835,"is_reserved":false,"is_disabled":false,"rental_uris":{"android":"levelo://app?vid=59d4a7cc-c4d8-47e1-a63f-2e26b5d209c3","ios":"levelo://app?vid=59d4a7cc-c4d8-47e1-a63f-2e26b5d209c3"},"vehicle_type_id":"4","last_reported":1693649177,"current_range_meters":30000,"station_id":"ce4bgjh2rcd13ifvqbf0","pricing_plan_id":"free"},{"bike_id":"b860aec7-1378-4f15-bdf5-f19ecdc1a0dd","system_id":"levelo_inurba_marseille","lat":43.298764,"lon":5.388973,"is_reserved":false,"is_disabled":false,"rental_uris":{"android":"levelo://app?vid=b860aec7-1378-4f15-bdf5-f19ecdc1a0dd","ios":"levelo://app?vid=b860aec7-1378-4f15-bdf5-f19ecdc1a0dd"},"vehicle_type_id":"4","last_reported":1693649177,"current_range_meters":24400,"station_id":"ce4bh392rcd13ifvqdl0","pricing_plan_id":"free"},{"bike_id":"1499ff34-0fb0-4e06-b8b2-8d12e6e78c7c","system_id":"levelo_inurba_marseille","lat":43.298764,"lon":5.388973,"is_reserved":false,"is_disabled":false,"rental_uris":{"android":"levelo://app?vid=1499ff34-0fb0-4e06-b8b2-8d12e6e78c7c","ios":"levelo://app?vid=1499ff34-0fb0-4e06-b8b2-8d12e6e78c7c"},"vehicle_type_id":"4","last_reported":1693649177,"current_range_meters":24000,"station_id":"ce4bh392rcd13ifvqdl0","pricing_plan_id":"free"},{"bike_id":"a30d2880-df09-42af-a7a4-a3064db09dcb","system_id":"levelo_inurba_marseille","lat":43.292663,"lon":5.376389,"is_reserved":false,"is_disabled":false,"rental_uris":{"android":"levelo://app?vid=a30d2880-df09-42af-a7a4-a3064db09dcb","ios":"levelo://app?vid=a30d2880-df09-42af-a7a4-a3064db09dcb"},"vehicle_type_id":"4","last_reported":1693649177,"current_range_meters":11600,"station_id":"ce4bgi12rcd13ifvqb80","pricing_plan_id":"free"},{"bike_id":"e3f80c20-ca6e-471e-9a65-cc3314320e9c","system_id":"levelo_inurba_marseille","lat":43.292663,"lon":5.376389,"is_reserved":false,"is_disabled":false,"rental_uris":{"android":"levelo://app?vid=e3f80c20-ca6e-471e-9a65-cc3314320e9c","ios":"levelo://app?vid=e3f80c20-ca6e-471e-9a65-cc3314320e9c"},"vehicle_type_id":"4","last_reported":1693649177,"current_range_meters":32000,"station_id":"ce4bgi12rcd13ifvqb80","pricing_plan_id":"free"},{"bike_id":"b127cb02-a67f-4944-955b-2653cb69db42","system_id":"levelo_inurba_marseille","lat":43.29142,"lon":5.36689,"is_reserved":false,"is_disabled":false,"rental_uris":{"android":"levelo://app?vid=b127cb02-a67f-4944-955b-2653cb69db42","ios":"levelo://app?vid=b127cb02-a67f-4944-955b-2653cb69db42"},"vehicle_type_id":"4","last_reported":1693649177,"current_range_meters":22400,"station_id":"ce4bhc92rcd13ifvqetg","pricing_plan_id":"free"},{"bike_id":"f7083fd5-efe5-48a2-b680-64c8430a0774","system_id":"levelo_inurba_marseille","lat":43.29167,"lon":5.37145,"is_reserved":false,"is_disabled":false,"rental_uris":{"android":"levelo://app?vid=f7083fd5-efe5-48a2-b680-64c8430a0774","ios":"levelo://app?vid=f7083fd5-efe5-48a2-b680-64c8430a0774"},"vehicle_type_id":"4","last_reported":1693649177,"current_range_meters":19600,"station_id":"ce4bha92rcd13ifvqeh0","pricing_plan_id":"free"},{"bike_id":"48cb66ed-64aa-4e3b-b32a-7f282bbf979f","system_id":"levelo_inurba_marseille","lat":43.292663,"lon":5.376389,"is_reserved":false,"is_disabled":false,"rental_uris":{"android":"levelo://app?vid=48cb66ed-64aa-4e3b-b32a-7f282bbf979f","ios":"levelo://app?vid=48cb66ed-64aa-4e3b-b32a-7f282bbf979f"},"vehicle_type_id":"4","last_reported":1693649177,"current_range_meters":22800,"station_id":"ce4bgi12rcd13ifvqb80","pricing_plan_id":"free"},{"bike_id":"06744e85-b10d-4017-8f88-6d08511da424","system_id":"levelo_inurba_marseille","lat":43.30885,"lon":5.3964,"is_reserved":false,"is_disabled":false,"rental_uris":{"android":"levelo://app?vid=06744e85-b10d-4017-8f88-6d08511da424","ios":"levelo://app?vid=06744e85-b10d-4017-8f88-6d08511da424"},"vehicle_type_id":"4","last_reported":1693649177,"current_range_meters":22000,"station_id":"ce4bh012rcd13ifvqcv0","pricing_plan_id":"free"},{"bike_id":"a32cf86b-5751-4b5a-aa33-b1005e4d3c9e","system_id":"levelo_inurba_marseille","lat":43.30883,"lon":5.39649,"is_reserved":false,"is_disabled":false,"rental_uris":{"android":"levelo://app?vid=a32cf86b-5751-4b5a-aa33-b1005e4d3c9e","ios":"levelo://app?vid=a32cf86b-5751-4b5a-aa33-b1005e4d3c9e"},"vehicle_type_id":"4","last_reported":1693649177,"current_range_meters":4800,"station_id":"ce4bh012rcd13ifvqcv0","pricing_plan_id":"free"},{"bike_id":"9b1474c0-783e-4960-a86d-edf7653df8fe","system_id":"levelo_inurba_marseille","lat":43.29185,"lon":5.35799,"is_reserved":false,"is_disabled":false,"rental_uris":{"android":"levelo://app?vid=9b1474c0-783e-4960-a86d-edf7653df8fe","ios":"levelo://app?vid=9b1474c0-783e-4960-a86d-edf7653df8fe"},"vehicle_type_id":"4","last_reported":1693649177,"current_range_meters":6800,"station_id":"ce4bhb12rcd13ifvqel0","pricing_plan_id":"free"},{"bike_id":"73c2e0c0-a939-4bc3-943a-e52094180bff","system_id":"levelo_inurba_marseille","lat":43.291994,"lon":5.357886,"is_reserved":false,"is_disabled":false,"rental_uris":{"android":"levelo://app?vid=73c2e0c0-a939-4bc3-943a-e52094180bff","ios":"levelo://app?vid=73c2e0c0-a939-4bc3-943a-e52094180bff"},"vehicle_type_id":"4","last_reported":1693649177,"current_range_meters":18800,"station_id":"ce4bhb12rcd13ifvqel0","pricing_plan_id":"free"},{"bike_id":"c3fb6c5c-e0ef-4267-869a-ac1366f664d0","system_id":"levelo_inurba_marseille","lat":43.29529,"lon":5.385581,"is_reserved":false,"is_disabled":false,"rental_uris":{"android":"levelo://app?vid=c3fb6c5c-e0ef-4267-869a-ac1366f664d0","ios":"levelo://app?vid=c3fb6c5c-e0ef-4267-869a-ac1366f664d0"},"vehicle_type_id":"4","last_reported":1693649177,"current_range_meters":13600,"station_id":"ce4bgih2rcd13ifvqba0","pricing_plan_id":"free"},{"bike_id":"0d962e12-b732-4464-bc89-f40845207671","system_id":"levelo_inurba_marseille","lat":43.33221,"lon":5.38114,"is_reserved":false,"is_disabled":false,"rental_uris":{"android":"levelo://app?vid=0d962e12-b732-4464-bc89-f40845207671","ios":"levelo://app?vid=0d962e12-b732-4464-bc89-f40845207671"},"vehicle_type_id":"4","last_reported":1693649177,"current_range_meters":6800,"station_id":"","pricing_plan_id":"free"},{"bike_id":"1d0a8430-ba98-41cd-a384-e29d571206b0","system_id":"levelo_inurba_marseille","lat":43.290631,"lon":5.359244,"is_reserved":false,"is_disabled":false,"rental_uris":{"android":"levelo://app?vid=1d0a8430-ba98-41cd-a384-e29d571206b0","ios":"levelo://app?vid=1d0a8430-ba98-41cd-a384-e29d571206b0"},"vehicle_type_id":"4","last_reported":1693649177,"current_range_meters":3600,"station_id":"ce4bha92rcd13ifvqeg0","pricing_plan_id":"free"},{"bike_id":"332882ed-870b-4406-aec3-0aae83841d48","system_id":"levelo_inurba_marseille","lat":43.294153,"lon":5.386305,"is_reserved":false,"is_disabled":false,"rental_uris":{"android":"levelo://app?vid=332882ed-870b-4406-aec3-0aae83841d48","ios":"levelo://app?vid=332882ed-870b-4406-aec3-0aae83841d48"},"vehicle_type_id":"4","last_reported":1693649177,"current_range_meters":0,"station_id":"ce4bh2h2rcd13ifvqdh0","pricing_plan_id":"free"},{"bike_id":"e7051171-57bb-4899-8dd7-6622ec700dd4","system_id":"levelo_inurba_marseille","lat":43.290327,"lon":5.375711,"is_reserved":false,"is_disabled":false,"rental_uris":{"android":"levelo://app?vid=e7051171-57bb-4899-8dd7-6622ec700dd4","ios":"levelo://app?vid=e7051171-57bb-4899-8dd7-6622ec700dd4"},"vehicle_type_id":"4","last_reported":1693649177,"current_range_meters":26000,"station_id":"ce4bh692rcd13ifvqe90","pricing_plan_id":"free"},{"bike_id":"29831022-562c-4a9e-a95a-03a1316b5de3","system_id":"levelo_inurba_marseille","lat":43.294162,"lon":5.386292,"is_reserved":false,"is_disabled":false,"rental_uris":{"android":"levelo://app?vid=29831022-562c-4a9e-a95a-03a1316b5de3","ios":"levelo://app?vid=29831022-562c-4a9e-a95a-03a1316b5de3"},"vehicle_type_id":"4","last_reported":1693649177,"current_range_meters":22000,"station_id":"ce4bh2h2rcd13ifvqdh0","pricing_plan_id":"free"},{"bike_id":"b782dd4b-3b90-4f1e-bfd9-2be53004c97b","system_id":"levelo_inurba_marseille","lat":43.289184,"lon":5.366408,"is_reserved":false,"is_disabled":false,"rental_uris":{"android":"levelo://app?vid=b782dd4b-3b90-4f1e-bfd9-2be53004c97b","ios":"levelo://app?vid=b782dd4b-3b90-4f1e-bfd9-2be53004c97b"},"vehicle_type_id":"4","last_reported":1693649177,"current_range_meters":19200,"station_id":"ce4bhap2rcd13ifvqek0","pricing_plan_id":"free"},{"bike_id":"5cb8db4f-e0e9-4d6d-93cb-7d917f1c29d7","system_id":"levelo_inurba_marseille","lat":43.2941,"lon":5.38631,"is_reserved":false,"is_disabled":false,"rental_uris":{"android":"levelo://app?vid=5cb8db4f-e0e9-4d6d-93cb-7d917f1c29d7","ios":"levelo://app?vid=5cb8db4f-e0e9-4d6d-93cb-7d917f1c29d7"},"vehicle_type_id":"4","last_reported":1693649177,"current_range_meters":4400,"station_id":"ce4bh2h2rcd13ifvqdh0","pricing_plan_id":"free"},{"bike_id":"0aae059c-4db6-4f49-9e18-d6be1ebb1ffd","system_id":"levelo_inurba_marseille","lat":43.29409,"lon":5.38631,"is_reserved":false,"is_disabled":false,"rental_uris":{"android":"levelo://app?vid=0aae059c-4db6-4f49-9e18-d6be1ebb1ffd","ios":"levelo://app?vid=0aae059c-4db6-4f49-9e18-d6be1ebb1ffd"},"vehicle_type_id":"4","last_reported":1693649177,"current_range_meters":30400,"station_id":"ce4bh2h2rcd13ifvqdh0","pricing_plan_id":"free"},{"bike_id":"2f93318d-a393-4e93-88c9-60d3ec241b0e","system_id":"levelo_inurba_marseille","lat":43.28935,"lon":5.36623,"is_reserved":false,"is_disabled":false,"rental_uris":{"android":"levelo://app?vid=2f93318d-a393-4e93-88c9-60d3ec241b0e","ios":"levelo://app?vid=2f93318d-a393-4e93-88c9-60d3ec241b0e"},"vehicle_type_id":"4","last_reported":1693649177,"current_range_meters":30800,"station_id":"ce4bhap2rcd13ifvqek0","pricing_plan_id":"free"},{"bike_id":"792a3830-fc26-446e-ac9b-bc389f013669","system_id":"levelo_inurba_marseille","lat":43.292644,"lon":5.384257,"is_reserved":false,"is_disabled":false,"rental_uris":{"android":"levelo://app?vid=792a3830-fc26-446e-ac9b-bc389f013669","ios":"levelo://app?vid=792a3830-fc26-446e-ac9b-bc389f013669"},"vehicle_type_id":"4","last_reported":1693649177,"current_range_meters":14800,"station_id":"ce4bh692rcd13ifvqea0","pricing_plan_id":"free"},{"bike_id":"688d3657-9da3-4403-aedc-ad1c1321f96a","system_id":"levelo_inurba_marseille","lat":43.29264,"lon":5.38455,"is_reserved":false,"is_disabled":false,"rental_uris":{"android":"levelo://app?vid=688d3657-9da3-4403-aedc-ad1c1321f96a","ios":"levelo://app?vid=688d3657-9da3-4403-aedc-ad1c1321f96a"},"vehicle_type_id":"4","last_reported":1693649177,"current_range_meters":21200,"station_id":"","pricing_plan_id":"free"},{"bike_id":"fc15edac-e414-412e-ab74-3489ddadbcd9","system_id":"levelo_inurba_marseille","lat":43.33041,"lon":5.38916,"is_reserved":false,"is_disabled":false,"rental_uris":{"android":"levelo://app?vid=fc15edac-e414-412e-ab74-3489ddadbcd9","ios":"levelo://app?vid=fc15edac-e414-412e-ab74-3489ddadbcd9"},"vehicle_type_id":"4","last_reported":1693649177,"current_range_meters":28000,"station_id":"ce4bhr92rcd13ifvqhrg","pricing_plan_id":"free"},{"bike_id":"d346ead7-ea15-4af0-898b-f25c067a214a","system_id":"levelo_inurba_marseille","lat":43.3304,"lon":5.38919,"is_reserved":false,"is_disabled":false,"rental_uris":{"android":"levelo://app?vid=d346ead7-ea15-4af0-898b-f25c067a214a","ios":"levelo://app?vid=d346ead7-ea15-4af0-898b-f25c067a214a"},"vehicle_type_id":"4","last_reported":1693649177,"current_range_meters":16400,"station_id":"ce4bhr92rcd13ifvqhrg","pricing_plan_id":"free"},{"bike_id":"978b0ff4-c9df-43ed-a4e7-ec9b1854c595","system_id":"levelo_inurba_marseille","lat":43.33041,"lon":5.38918,"is_reserved":false,"is_disabled":false,"rental_uris":{"android":"levelo://app?vid=978b0ff4-c9df-43ed-a4e7-ec9b1854c595","ios":"levelo://app?vid=978b0ff4-c9df-43ed-a4e7-ec9b1854c595"},"vehicle_type_id":"4","last_reported":1693649177,"current_range_meters":17200,"station_id":"ce4bhr92rcd13ifvqhrg","pricing_plan_id":"free"},{"bike_id":"8077604d-b9d4-4aae-b42f-6a79c8cc4721","system_id":"levelo_inurba_marseille","lat":43.33041,"lon":5.38918,"is_reserved":false,"is_disabled":false,"rental_uris":{"android":"levelo://app?vid=8077604d-b9d4-4aae-b42f-6a79c8cc4721","ios":"levelo://app?vid=8077604d-b9d4-4aae-b42f-6a79c8cc4721"},"vehicle_type_id":"4","last_reported":1693649177,"current_range_meters":24400,"station_id":"ce4bhr92rcd13ifvqhrg","pricing_plan_id":"free"},{"bike_id":"97bd55a4-42e4-4fe4-b814-e15741181f07","system_id":"levelo_inurba_marseille","lat":43.33045,"lon":5.38912,"is_reserved":false,"is_disabled":false,"rental_uris":{"android":"levelo://app?vid=97bd55a4-42e4-4fe4-b814-e15741181f07","ios":"levelo://app?vid=97bd55a4-42e4-4fe4-b814-e15741181f07"},"vehicle_type_id":"4","last_reported":1693649177,"current_range_meters":2000,"station_id":"ce4bhr92rcd13ifvqhrg","pricing_plan_id":"free"},{"bike_id":"e7c8cfe2-9bdf-4363-a136-3e02a3639875","system_id":"levelo_inurba_marseille","lat":43.33044,"lon":5.38914,"is_reserved":false,"is_disabled":false,"rental_uris":{"android":"levelo://app?vid=e7c8cfe2-9bdf-4363-a136-3e02a3639875","ios":"levelo://app?vid=e7c8cfe2-9bdf-4363-a136-3e02a3639875"},"vehicle_type_id":"4","last_reported":1693649177,"current_range_meters":10000,"station_id":"ce4bhr92rcd13ifvqhrg","pricing_plan_id":"free"},{"bike_id":"3e0449ec-e32f-417c-946f-951095c26cc1","system_id":"levelo_inurba_marseille","lat":43.33044,"lon":5.38915,"is_reserved":false,"is_disabled":false,"rental_uris":{"android":"levelo://app?vid=3e0449ec-e32f-417c-946f-951095c26cc1","ios":"levelo://app?vid=3e0449ec-e32f-417c-946f-951095c26cc1"},"vehicle_type_id":"4","last_reported":1693649177,"current_range_meters":27200,"station_id":"ce4bhr92rcd13ifvqhrg","pricing_plan_id":"free"},{"bike_id":"fb1ac503-d411-45ea-8192-311f725eeb98","system_id":"levelo_inurba_marseille","lat":43.33042,"lon":5.38919,"is_reserved":false,"is_disabled":false,"rental_uris":{"android":"levelo://app?vid=fb1ac503-d411-45ea-8192-311f725eeb98","ios":"levelo://app?vid=fb1ac503-d411-45ea-8192-311f725eeb98"},"vehicle_type_id":"4","last_reported":1693649177,"current_range_meters":22400,"station_id":"ce4bhr92rcd13ifvqhrg","pricing_plan_id":"free"},{"bike_id":"276df892-9a2a-40a9-929d-29c6fe2dac65","system_id":"levelo_inurba_marseille","lat":43.33049,"lon":5.38911,"is_reserved":false,"is_disabled":false,"rental_uris":{"android":"levelo://app?vid=276df892-9a2a-40a9-929d-29c6fe2dac65","ios":"levelo://app?vid=276df892-9a2a-40a9-929d-29c6fe2dac65"},"vehicle_type_id":"4","last_reported":1693649177,"current_range_meters":23200,"station_id":"ce4bhr92rcd13ifvqhrg","pricing_plan_id":"free"},{"bike_id":"028b16b4-c861-455c-93e2-214442c48086","system_id":"levelo_inurba_marseille","lat":43.290103,"lon":5.356114,"is_reserved":false,"is_disabled":false,"rental_uris":{"android":"levelo://app?vid=028b16b4-c861-455c-93e2-214442c48086","ios":"levelo://app?vid=028b16b4-c861-455c-93e2-214442c48086"},"vehicle_type_id":"4","last_reported":1693649177,"current_range_meters":30800,"station_id":"ce4bhb92rcd13ifvqen0","pricing_plan_id":"free"},{"bike_id":"2cdba739-ebc5-413a-8a24-35edd08d69ea","system_id":"levelo_inurba_marseille","lat":43.33046,"lon":5.38916,"is_reserved":false,"is_disabled":false,"rental_uris":{"android":"levelo://app?vid=2cdba739-ebc5-413a-8a24-35edd08d69ea","ios":"levelo://app?vid=2cdba739-ebc5-413a-8a24-35edd08d69ea"},"vehicle_type_id":"4","last_reported":1693649177,"current_range_meters":17200,"station_id":"ce4bhr92rcd13ifvqhrg","pricing_plan_id":"free"},{"bike_id":"c1b0850d-0a53-4da0-9f6b-a9a94f67666e","system_id":"levelo_inurba_marseille","lat":43.3305,"lon":5.3891,"is_reserved":false,"is_disabled":false,"rental_uris":{"android":"levelo://app?vid=c1b0850d-0a53-4da0-9f6b-a9a94f67666e","ios":"levelo://app?vid=c1b0850d-0a53-4da0-9f6b-a9a94f67666e"},"vehicle_type_id":"4","last_reported":1693649177,"current_range_meters":21600,"station_id":"ce4bhr92rcd13ifvqhrg","pricing_plan_id":"free"},{"bike_id":"90f1fc97-49d0-4df8-9f32-3dfcd4a32851","system_id":"levelo_inurba_marseille","lat":43.33041,"lon":5.38924,"is_reserved":false,"is_disabled":false,"rental_uris":{"android":"levelo://app?vid=90f1fc97-49d0-4df8-9f32-3dfcd4a32851","ios":"levelo://app?vid=90f1fc97-49d0-4df8-9f32-3dfcd4a32851"},"vehicle_type_id":"4","last_reported":1693649177,"current_range_meters":14800,"station_id":"ce4bhr92rcd13ifvqhrg","pricing_plan_id":"free"},{"bike_id":"1895038e-acdb-4d35-aa35-e1291f23a30a","system_id":"levelo_inurba_marseille","lat":43.290104,"lon":5.356111,"is_reserved":false,"is_disabled":false,"rental_uris":{"android":"levelo://app?vid=1895038e-acdb-4d35-aa35-e1291f23a30a","ios":"levelo://app?vid=1895038e-acdb-4d35-aa35-e1291f23a30a"},"vehicle_type_id":"4","last_reported":1693649177,"current_range_meters":31200,"station_id":"ce4bhb92rcd13ifvqen0","pricing_plan_id":"free"},{"bike_id":"d7932d52-0b99-415c-88dc-561d5faa16a4","system_id":"levelo_inurba_marseille","lat":43.290103,"lon":5.356114,"is_reserved":false,"is_disabled":false,"rental_uris":{"android":"levelo://app?vid=d7932d52-0b99-415c-88dc-561d5faa16a4","ios":"levelo://app?vid=d7932d52-0b99-415c-88dc-561d5faa16a4"},"vehicle_type_id":"4","last_reported":1693649177,"current_range_meters":27200,"station_id":"ce4bhb92rcd13ifvqen0","pricing_plan_id":"free"},{"bike_id":"d801b8ba-3454-4513-84c7-dd9c11df9797","system_id":"levelo_inurba_marseille","lat":43.28973,"lon":5.37827,"is_reserved":false,"is_disabled":false,"rental_uris":{"android":"levelo://app?vid=d801b8ba-3454-4513-84c7-dd9c11df9797","ios":"levelo://app?vid=d801b8ba-3454-4513-84c7-dd9c11df9797"},"vehicle_type_id":"4","last_reported":1693649177,"current_range_meters":19600,"station_id":"ce4bh9p2rcd13ifvqed0","pricing_plan_id":"free"},{"bike_id":"8ed56a4f-b22a-4a1c-ad4d-f1b36ef2ae9e","system_id":"levelo_inurba_marseille","lat":43.295169,"lon":5.390426,"is_reserved":false,"is_disabled":false,"rental_uris":{"android":"levelo://app?vid=8ed56a4f-b22a-4a1c-ad4d-f1b36ef2ae9e","ios":"levelo://app?vid=8ed56a4f-b22a-4a1c-ad4d-f1b36ef2ae9e"},"vehicle_type_id":"4","last_reported":1693649177,"current_range_meters":0,"station_id":"ce4bh3p2rcd13ifvqdp0","pricing_plan_id":"free"},{"bike_id":"4597a591-9b01-4fb1-9ffb-919cb2610a3c","system_id":"levelo_inurba_marseille","lat":43.231562,"lon":5.436933,"is_reserved":false,"is_disabled":false,"rental_uris":{"android":"levelo://app?vid=4597a591-9b01-4fb1-9ffb-919cb2610a3c","ios":"levelo://app?vid=4597a591-9b01-4fb1-9ffb-919cb2610a3c"},"vehicle_type_id":"4","last_reported":1693649177,"current_range_meters":21200,"station_id":"ce4bhmp2rcd13ifvqgog","pricing_plan_id":"free"},{"bike_id":"61e83028-626d-4b54-9e68-392af8f393f3","system_id":"levelo_inurba_marseille","lat":43.290094,"lon":5.381264,"is_reserved":false,"is_disabled":false,"rental_uris":{"android":"levelo://app?vid=61e83028-626d-4b54-9e68-392af8f393f3","ios":"levelo://app?vid=61e83028-626d-4b54-9e68-392af8f393f3"},"vehicle_type_id":"4","last_reported":1693649177,"current_range_meters":20000,"station_id":"ce4bh4p2rcd13ifvqe1g","pricing_plan_id":"free"},{"bike_id":"e0907462-bd29-4842-9790-6fa699c6d6ba","system_id":"levelo_inurba_marseille","lat":43.337434,"lon":5.373881,"is_reserved":false,"is_disabled":false,"rental_uris":{"android":"levelo://app?vid=e0907462-bd29-4842-9790-6fa699c6d6ba","ios":"levelo://app?vid=e0907462-bd29-4842-9790-6fa699c6d6ba"},"vehicle_type_id":"4","last_reported":1693649177,"current_range_meters":22400,"station_id":"","pricing_plan_id":"free"},{"bike_id":"a539a8ec-90b8-4622-ab39-3e3fc36dfad4","system_id":"levelo_inurba_marseille","lat":43.31266,"lon":5.40172,"is_reserved":false,"is_disabled":false,"rental_uris":{"android":"levelo://app?vid=a539a8ec-90b8-4622-ab39-3e3fc36dfad4","ios":"levelo://app?vid=a539a8ec-90b8-4622-ab39-3e3fc36dfad4"},"vehicle_type_id":"4","last_reported":1693649177,"current_range_meters":30400,"station_id":"ce4bh092rcd13ifvqd30","pricing_plan_id":"free"},{"bike_id":"abf7faa4-f03d-4a24-a102-3f9a043fed48","system_id":"levelo_inurba_marseille","lat":43.309371,"lon":5.401449,"is_reserved":false,"is_disabled":false,"rental_uris":{"android":"levelo://app?vid=abf7faa4-f03d-4a24-a102-3f9a043fed48","ios":"levelo://app?vid=abf7faa4-f03d-4a24-a102-3f9a043fed48"},"vehicle_type_id":"4","last_reported":1693649177,"current_range_meters":29600,"station_id":"ce4bgvp2rcd13ifvqct0","pricing_plan_id":"free"},{"bike_id":"b5975560-4e49-4060-9bf8-807fd3a6c92c","system_id":"levelo_inurba_marseille","lat":43.30926,"lon":5.4015,"is_reserved":false,"is_disabled":false,"rental_uris":{"android":"levelo://app?vid=b5975560-4e49-4060-9bf8-807fd3a6c92c","ios":"levelo://app?vid=b5975560-4e49-4060-9bf8-807fd3a6c92c"},"vehicle_type_id":"4","last_reported":1693649177,"current_range_meters":5200,"station_id":"ce4bgvp2rcd13ifvqct0","pricing_plan_id":"free"},{"bike_id":"77f2b3c1-c1cc-4f97-a9e2-f5997d659e7f","system_id":"levelo_inurba_marseille","lat":43.30929,"lon":5.40152,"is_reserved":false,"is_disabled":false,"rental_uris":{"android":"levelo://app?vid=77f2b3c1-c1cc-4f97-a9e2-f5997d659e7f","ios":"levelo://app?vid=77f2b3c1-c1cc-4f97-a9e2-f5997d659e7f"},"vehicle_type_id":"4","last_reported":1693649177,"current_range_meters":29200,"station_id":"ce4bgvp2rcd13ifvqct0","pricing_plan_id":"free"},{"bike_id":"5e0b65a3-4830-4efe-8df2-f90e6871cc74","system_id":"levelo_inurba_marseille","lat":43.30642,"lon":5.401031,"is_reserved":false,"is_disabled":false,"rental_uris":{"android":"levelo://app?vid=5e0b65a3-4830-4efe-8df2-f90e6871cc74","ios":"levelo://app?vid=5e0b65a3-4830-4efe-8df2-f90e6871cc74"},"vehicle_type_id":"4","last_reported":1693649177,"current_range_meters":26000,"station_id":"ce4bh112rcd13ifvqda0","pricing_plan_id":"free"},{"bike_id":"fe095ff7-0a12-4a5e-a731-02ed12fdfba8","system_id":"levelo_inurba_marseille","lat":43.298681,"lon":5.397225,"is_reserved":false,"is_disabled":false,"rental_uris":{"android":"levelo://app?vid=fe095ff7-0a12-4a5e-a731-02ed12fdfba8","ios":"levelo://app?vid=fe095ff7-0a12-4a5e-a731-02ed12fdfba8"},"vehicle_type_id":"4","last_reported":1693649177,"current_range_meters":14000,"station_id":"ce4bh0h2rcd13ifvqd50","pricing_plan_id":"free"},{"bike_id":"2365150f-73ab-4507-aea4-76016e6109c8","system_id":"levelo_inurba_marseille","lat":43.28665,"lon":5.36355,"is_reserved":false,"is_disabled":false,"rental_uris":{"android":"levelo://app?vid=2365150f-73ab-4507-aea4-76016e6109c8","ios":"levelo://app?vid=2365150f-73ab-4507-aea4-76016e6109c8"},"vehicle_type_id":"4","last_reported":1693649177,"current_range_meters":26400,"station_id":"ce4bhah2rcd13ifvqej0","pricing_plan_id":"free"},{"bike_id":"75199276-b705-4ad7-b6a9-49aeaa84628a","system_id":"levelo_inurba_marseille","lat":43.286591,"lon":5.363346,"is_reserved":false,"is_disabled":false,"rental_uris":{"android":"levelo://app?vid=75199276-b705-4ad7-b6a9-49aeaa84628a","ios":"levelo://app?vid=75199276-b705-4ad7-b6a9-49aeaa84628a"},"vehicle_type_id":"4","last_reported":1693649177,"current_range_meters":28400,"station_id":"ce4bhah2rcd13ifvqej0","pricing_plan_id":"free"},