{"last_updated":1738012099,"ttl":60,"version":"2.2","data":{"bikes":[{"bike_id":"5d3e4d6c-080a-45cf-96bd-4c8edc020d7b","system_id":"levelo_inurba_marseille","lat":43.30873,"lon":5.3963,"is_reserved":false,"is_disabled":false,"rental_uris":{"android":"levelo://app?vid=5d3e4d6c-080a-45cf-96bd-4c8edc020d7b","ios":"levelo://app?vid=5d3e4d6c-080a-45cf-96bd-4c8edc020d7b"},"vehicle_type_id":"4","last_reported":1738012099,"current_range_meters":39200,"station_id":"ce4bh012rcd13ifvqcv0","pricing_plan_id":"cebpf4jnsgd1na2vs0mg"},{"bike_id":"a72af8a2-47bc-4c7a-9e9c-e4668ea19e38","system_id":"levelo_inurba_marseille","lat":43.28553,"lon":5.39501,"is_reserved":false,"is_disabled":false,"rental_uris":{"android":"levelo://app?vid=a72af8a2-47bc-4c7a-9e9c-e4668ea19e38","ios":"levelo://app?vid=a72af8a2-47bc-4c7a-9e9c-e4668ea19e38"},"vehicle_type_id":"4","last_reported":1738012099,"current_range_meters":39200,"station_id":"ce4bh292rcd13ifvqdg0","pricing_plan_id":"cebpf4jnsgd1na2vs0mg"},{"bike_id":"198335fb-6b72-440c-ba8e-27a9c79c3ab6","system_id":"levelo_inurba_marseille","lat":43.29125,"lon":5.38316,"is_reserved":false,"is_disabled":false,"rental_uris":{"android":"levelo://app?vid=198335fb-6b72-440c-ba8e-27a9c79c3ab6","ios":"levelo://app?vid=198335fb-6b72-440c-ba8e-27a9c79c3ab6"},"vehicle_type_id":"4","last_reported":1738012099,"current_range_meters":17200,"station_id":"","pricing_plan_id":"cebpf4jnsgd1na2vs0mg"},{"bike_id":"eeed8285-8b30-4486-bbec-d113d4165b1e","system_id":"levelo_inurba_marseille","lat":43.28851,"lon":5.35836,"is_reserved":false,"is_disabled":false,"rental_uris":{"android":"levelo://app?vid=eeed8285-8b30-4486-bbec-d113d4165b1e","ios":"levelo://app?vid=eeed8285-8b30-4486-bbec-d113d4165b1e"},"vehicle_type_id":"4","last_reported":1738012099,"current_range_meters":29600,"station_id":"ce4bhb12rcd13ifvqem0","pricing_plan_id":"cebpf4jnsgd1na2vs0mg"},{"bike_id":"ce9c6111-0118-42d1-bfda-6fdbc9033126","system_id":"levelo_inurba_marseille","lat":43.27991,"lon":5.40029,"is_reserved":false,"is_disabled":false,"rental_uris":{"android":"levelo://app?vid=ce9c6111-0118-42d1-bfda-6fdbc9033126","ios":"levelo://app?vid=ce9c6111-0118-42d1-bfda-6fdbc9033126"},"vehicle_type_id":"4","last_reported":1738012099,"current_range_meters":30800,"station_id":"ce4bho92rcd13ifvqh4g","pricing_plan_id":"cebpf4jnsgd1na2vs0mg"},{"bike_id":"330c5a71-9fce-475d-a79f-8fd152b99336","system_id":"levelo_inurba_marseille","lat":43.29274,"lon":5.40117,"is_reserved":false,"is_disabled":false,"rental_uris":{"android":"levelo://app?vid=330c5a71-9fce-475d-a79f-8fd152b99336","ios":"levelo://app?vid=330c5a71-9fce-475d-a79f-8fd152b99336"},"vehicle_type_id":"4","last_reported":1738012099,"current_range_meters":35600,"station_id":"ce4bh312rcd13ifvqdk0","pricing_plan_id":"cebpf4jnsgd1na2vs0mg"},{"bike_id":"599ab274-8890-4321-a4ec-6240d0f6d88b","system_id":"levelo_inurba_marseille","lat":43.28858,"lon":5.35842,"is_reserved":false,"is_disabled":false,"rental_uris":{"android":"levelo://app?vid=599ab274-8890-4321-a4ec-6240d0f6d88b","ios":"levelo://app?vid=599ab274-8890-4321-a4ec-6240d0f6d88b"},"vehicle_type_id":"4","last_reported":1738012099,"current_range_meters":33200,"station_id":"ce4bhb12rcd13ifvqem0","pricing_plan_id":"cebpf4jnsgd1na2vs0mg"},{"bike_id":"8b1098b1-640e-4fd5-a15c-8d21ce3dcecf","system_id":"levelo_inurba_marseille","lat":43.28005,"lon":5.40014,"is_reserved":false,"is_disabled":false,"rental_uris":{"android":"levelo://app?vid=8b1098b1-640e-4fd5-a15c-8d21ce3dcecf","ios":"levelo://app?vid=8b1098b1-640e-4fd5-a15c-8d21ce3dcecf"},"vehicle_type_id":"4","last_reported":1738012099,"current_range_meters":38800,"station_id":"ce4bho92rcd13ifvqh4g","pricing_plan_id":"cebpf4jnsgd1na2vs0mg"},{"bike_id":"d8a5ffc1-f08b-41a4-abd3-3e3332b007eb","system_id":"levelo_inurba_marseille","lat":43.31757,"lon":5.39007,"is_reserved":false,"is_disabled":false,"rental_uris":{"android":"levelo://app?vid=d8a5ffc1-f08b-41a4-abd3-3e3332b007eb","ios":"levelo://app?vid=d8a5ffc1-f08b-41a4-abd3-3e3332b007eb"},"vehicle_type_id":"4","last_reported":1738012099,"current_range_meters":10800,"station_id":"ce4bhqp2rcd13ifvqhng","pricing_plan_id":"cebpf4jnsgd1na2vs0mg"},{"bike_id":"016df488-a883-41f8-ac53-5f03791bc4fe","system_id":"levelo_inurba_marseille","lat":43.30895,"lon":5.39626,"is_reserved":false,"is_disabled":true,"rental_uris":{"android":"levelo://app?vid=016df488-a883-41f8-ac53-5f03791bc4fe","ios":"levelo://app?vid=016df488-a883-41f8-ac53-5f03791bc4fe"},"vehicle_type_id":"4","last_reported":1738012099,"current_range_meters":0,"station_id":"ce4bh012rcd13ifvqcv0","pricing_plan_id":"cebpf4jnsgd1na2vs0mg"},{"bike_id":"c15ab3c5-d9bb-43e6-b108-148f33eed0eb","system_id":"levelo_inurba_marseille","lat":43.29569,"lon":5.39979,"is_reserved":false,"is_disabled":false,"rental_uris":{"android":"levelo://app?vid=c15ab3c5-d9bb-43e6-b108-148f33eed0eb","ios":"levelo://app?vid=c15ab3c5-d9bb-43e6-b108-148f33eed0eb"},"vehicle_type_id":"4","last_reported":1738012099,"current_range_meters":38800,"station_id":"ce4bh312rcd13ifvqdj0","pricing_plan_id":"cebpf4jnsgd1na2vs0mg"},{"bike_id":"9bf91b9a-17a5-4f8b-8342-540883cf53a3","system_id":"levelo_inurba_marseille","lat":43.29198,"lon":5.39312,"is_reserved":false,"is_disabled":false,"rental_uris":{"android":"levelo://app?vid=9bf91b9a-17a5-4f8b-8342-540883cf53a3","ios":"levelo://app?vid=9bf91b9a-17a5-4f8b-8342-540883cf53a3"},"vehicle_type_id":"4","last_reported":1738012099,"current_range_meters":34800,"station_id":"ce4bh192rcd13ifvqdd0","pricing_plan_id":"cebpf4jnsgd1na2vs0mg"},{"bike_id":"e3c59c26-9125-4a51-8f29-53dafec98527","system_id":"levelo_inurba_marseille","lat":43.29887,"lon":5.39727,"is_reserved":false,"is_disabled":false,"rental_uris":{"android":"levelo://app?vid=e3c59c26-9125-4a51-8f29-53dafec98527","ios":"levelo://app?vid=e3c59c26-9125-4a51-8f29-53dafec98527"},"vehicle_type_id":"4","last_reported":1738012099,"current_range_meters":22800,"station_id":"ce4bh0h2rcd13ifvqd50","pricing_plan_id":"cebpf4jnsgd1na2vs0mg"},{"bike_id":"0530cb7c-053b-49d0-b7a6-1800095bf1aa","system_id":"levelo_inurba_marseille","lat":43.2953,"lon":5.39033,"is_reserved":false,"is_disabled":false,"rental_uris":{"android":"levelo://app?vid=0530cb7c-053b-49d0-b7a6-1800095bf1aa","ios":"levelo://app?vid=0530cb7c-053b-49d0-b7a6-1800095bf1aa"},"vehicle_type_id":"4","last_reported":1738012099,"current_range_meters":39200,"station_id":"ce4bh3p2rcd13ifvqdp0","pricing_plan_id":"cebpf4jnsgd1na2vs0mg"},{"bike_id":"db913c79-4ab1-4c85-b882-18e791694c41","system_id":"levelo_inurba_marseille","lat":43.26558,"lon":5.38997,"is_reserved":false,"is_disabled":false,"rental_uris":{"android":"levelo://app?vid=db913c79-4ab1-4c85-b882-18e791694c41","ios":"levelo://app?vid=db913c79-4ab1-4c85-b882-18e791694c41"},"vehicle_type_id":"4","last_reported":1738012099,"current_range_meters":24400,"station_id":"ce4bhe12rcd13ifvqf30","pricing_plan_id":"cebpf4jnsgd1na2vs0mg"},{"bike_id":"f7df50db-bd6c-4322-8381-2e55957c1047","system_id":"levelo_inurba_marseille","lat":43.29524,"lon":5.394,"is_reserved":false,"is_disabled":false,"rental_uris":{"android":"levelo://app?vid=f7df50db-bd6c-4322-8381-2e55957c1047","ios":"levelo://app?vid=f7df50db-bd6c-4322-8381-2e55957c1047"},"vehicle_type_id":"4","last_reported":1738012099,"current_range_meters":38800,"station_id":"ce4bh292rcd13ifvqdf0","pricing_plan_id":"cebpf4jnsgd1na2vs0mg"},{"bike_id":"1766969c-93bb-4f2e-85b4-137d694d2edc","system_id":"levelo_inurba_marseille","lat":43.32339,"lon":5.40605,"is_reserved":false,"is_disabled":false,"rental_uris":{"android":"levelo://app?vid=1766969c-93bb-4f2e-85b4-137d694d2edc","ios":"levelo://app?vid=1766969c-93bb-4f2e-85b4-137d694d2edc"},"vehicle_type_id":"4","last_reported":1738012099,"current_range_meters":16000,"station_id":"ce4bhq92rcd13ifvqhjg","pricing_plan_id":"cebpf4jnsgd1na2vs0mg"},{"bike_id":"c96545e6-b3fa-4a6b-836e-d89ea478e5d1","system_id":"levelo_inurba_marseille","lat":43.25001,"lon":5.38931,"is_reserved":false,"is_disabled":false,"rental_uris":{"android":"levelo://app?vid=c96545e6-b3fa-4a6b-836e-d89ea478e5d1","ios":"levelo://app?vid=c96545e6-b3fa-4a6b-836e-d89ea478e5d1"},"vehicle_type_id":"4","last_reported":1738012099,"current_range_meters":38800,"station_id":"ce4bhgp2rcd13ifvqfd0","pricing_plan_id":"cebpf4jnsgd1na2vs0mg"},{"bike_id":"50481764-4b9f-4ae2-9d4d-3410a5a0415c","system_id":"levelo_inurba_marseille","lat":43.28108,"lon":5.37829,"is_reserved":false,"is_disabled":false,"rental_uris":{"android":"levelo://app?vid=50481764-4b9f-4ae2-9d4d-3410a5a0415c","ios":"levelo://app?vid=50481764-4b9f-4ae2-9d4d-3410a5a0415c"},"vehicle_type_id":"4","last_reported":1738012099,"current_range_meters":19600,"station_id":"ce4bha12rcd13ifvqee0","pricing_plan_id":"cebpf4jnsgd1na2vs0mg"},{"bike_id":"cfff1edf-189f-4cb0-80dd-22014a7dc63a","system_id":"levelo_inurba_marseille","lat":43.24799,"lon":5.37568,"is_reserved":false,"is_disabled":false,"rental_uris":{"android":"levelo://app?vid=cfff1edf-189f-4cb0-80dd-22014a7dc63a","ios":"levelo://app?vid=cfff1edf-189f-4cb0-80dd-22014a7dc63a"},"vehicle_type_id":"4","last_reported":1738012099,"current_range_meters":20000,"station_id":"ce4bhgh2rcd13ifvqfb0","pricing_plan_id":"cebpf4jnsgd1na2vs0mg"},{"bike_id":"db8dd69b-a04d-48ca-b575-caa6145464e2","system_id":"levelo_inurba_marseille","lat":43.30875,"lon":5.39622,"is_reserved":false,"is_disabled":false,"rental_uris":{"android":"levelo://app?vid=db8dd69b-a04d-48ca-b575-caa6145464e2","ios":"levelo://app?vid=db8dd69b-a04d-48ca-b575-caa6145464e2"},"vehicle_type_id":"4","last_reported":1738012099,"current_range_meters":34000,"station_id":"ce4bh012rcd13ifvqcv0","pricing_plan_id":"cebpf4jnsgd1na2vs0mg"},{"bike_id":"96c6d005-88bb-4fd6-98f4-0a014c553eb8","system_id":"levelo_inurba_marseille","lat":43.33025,"lon":5.39039,"is_reserved":false,"is_disabled":false,"rental_uris":{"android":"levelo://app?vid=96c6d005-88bb-4fd6-98f4-0a014c553eb8","ios":"levelo://app?vid=96c6d005-88bb-4fd6-98f4-0a014c553eb8"},"vehicle_type_id":"4","last_reported":1738012099,"current_range_meters":6400,"station_id":"ce4bhr92rcd13ifvqhrg","pricing_plan_id":"cebpf4jnsgd1na2vs0mg"},{"bike_id":"29c8c382-be5b-4fb1-b336-4ba136f22cbb","system_id":"levelo_inurba_marseille","lat":43.30899,"lon":5.37212,"is_reserved":false,"is_disabled":false,"rental_uris":{"android":"levelo://app?vid=29c8c382-be5b-4fb1-b336-4ba136f22cbb","ios":"levelo://app?vid=29c8c382-be5b-4fb1-b336-4ba136f22cbb"},"vehicle_type_id":"4","last_reported":1738012099,"current_range_meters":33200,"station_id":"ce4bguh2rcd13ifvqckg","pricing_plan_id":"cebpf4jnsgd1na2vs0mg"},{"bike_id":"5c388708-e3f2-4bbd-88d9-c199a31e81f9","system_id":"levelo_inurba_marseille","lat":43.2873,"lon":5.39984,"is_reserved":false,"is_disabled":true,"rental_uris":{"android":"levelo://app?vid=5c388708-e3f2-4bbd-88d9-c199a31e81f9","ios":"levelo://app?vid=5c388708-e3f2-4bbd-88d9-c199a31e81f9"},"vehicle_type_id":"4","last_reported":1738012099,"current_range_meters":38400,"station_id":"ce4bho92rcd13ifvqh3g","pricing_plan_id":"cebpf4jnsgd1na2vs0mg"},{"bike_id":"c6b2aeea-8be6-4ed0-8019-7e88f71bd8d8","system_id":"levelo_inurba_marseille","lat":43.29854,"lon":5.36287,"is_reserved":false,"is_disabled":true,"rental_uris":{"android":"levelo://app?vid=c6b2aeea-8be6-4ed0-8019-7e88f71bd8d8","ios":"levelo://app?vid=c6b2aeea-8be6-4ed0-8019-7e88f71bd8d8"},"vehicle_type_id":"4","last_reported":1738012099,"current_range_meters":29600,"station_id":"ce4bgpp2rcd13ifvqc3g","pricing_plan_id":"cebpf4jnsgd1na2vs0mg"},{"bike_id":"78d0469b-a6d8-42b5-94c6-9df02b87dea9","system_id":"levelo_inurba_marseille","lat":43.29518,"lon":5.39043,"is_reserved":false,"is_disabled":false,"rental_uris":{"android":"levelo://app?vid=78d0469b-a6d8-42b5-94c6-9df02b87dea9","ios":"levelo://app?vid=78d0469b-a6d8-42b5-94c6-9df02b87dea9"},"vehicle_type_id":"4","last_reported":1738012099,"current_range_meters":38800,"station_id":"ce4bh3p2rcd13ifvqdp0","pricing_plan_id":"cebpf4jnsgd1na2vs0mg"},{"bike_id":"49ac70a6-f431-448f-8b78-0c0b9150bb51","system_id":"levelo_inurba_marseille","lat":43.31275,"lon":5.40157,"is_reserved":false,"is_disabled":false,"rental_uris":{"android":"levelo://app?vid=49ac70a6-f431-448f-8b78-0c0b9150bb51","ios":"levelo://app?vid=49ac70a6-f431-448f-8b78-0c0b9150bb51"},"vehicle_type_id":"4","last_reported":1738012099,"current_range_meters":38800,"station_id":"ce4bh092rcd13ifvqd30","pricing_plan_id":"cebpf4jnsgd1na2vs0mg"},{"bike_id":"508fc828-f6ba-44cf-b339-942ca738842f","system_id":"levelo_inurba_marseille","lat":43.29251,"lon":5.38434,"is_reserved":false,"is_disabled":false,"rental_uris":{"android":"levelo://app?vid=508fc828-f6ba-44cf-b339-942ca738842f","ios":"levelo://app?vid=508fc828-f6ba-44cf-b339-942ca738842f"},"vehicle_type_id":"4","last_reported":1738012099,"current_range_meters":30400,"station_id":"ce4bh692rcd13ifvqea0","pricing_plan_id":"cebpf4jnsgd1na2vs0mg"},{"bike_id":"19706af8-586b-49a5-b9e3-753b677c6211","system_id":"levelo_inurba_marseille","lat":43.30895,"lon":5.37196,"is_reserved":false,"is_disabled":false,"rental_uris":{"android":"levelo://app?vid=19706af8-586b-49a5-b9e3-753b677c6211","ios":"levelo://app?vid=19706af8-586b-49a5-b9e3-753b677c6211"},"vehicle_type_id":"4","last_reported":1738012099,"current_range_meters":17200,"station_id":"ce4bguh2rcd13ifvqckg","pricing_plan_id":"cebpf4jnsgd1na2vs0mg"},{"bike_id":"782b02f2-3d77-42f6-b64d-fb95785d2967","system_id":"levelo_inurba_marseille","lat":43.25582,"lon":5.38229,"is_reserved":false,"is_disabled":false,"rental_uris":{"android":"levelo://app?vid=782b02f2-3d77-42f6-b64d-fb95785d2967","ios":"levelo://app?vid=782b02f2-3d77-42f6-b64d-fb95785d2967"},"vehicle_type_id":"4","last_reported":1738012099,"current_range_meters":36000,"station_id":"ce4bhih2rcd13ifvqfs0","pricing_plan_id":"cebpf4jnsgd1na2vs0mg"},{"bike_id":"6b817946-470b-4911-9117-790b8c0e9806","system_id":"levelo_inurba_marseille","lat":43.25111,"lon":5.40322,"is_reserved":false,"is_disabled":false,"rental_uris":{"android":"levelo://app?vid=6b817946-470b-4911-9117-790b8c0e9806","ios":"levelo://app?vid=6b817946-470b-4911-9117-790b8c0e9806"},"vehicle_type_id":"4","last_reported":1738012099,"current_range_meters":14400,"station_id":"ce4bhlh2rcd13ifvqgig","pricing_plan_id":"cebpf4jnsgd1na2vs0mg"},{"bike_id":"68a23ad5-056d-4b87-aa1c-f350b3c0eafa","system_id":"levelo_inurba_marseille","lat":43.29242,"lon":5.383649,"is_reserved":false,"is_disabled":false,"rental_uris":{"android":"levelo://app?vid=68a23ad5-056d-4b87-aa1c-f350b3c0eafa","ios":"levelo://app?vid=68a23ad5-056d-4b87-aa1c-f350b3c0eafa"},"vehicle_type_id":"4","last_reported":1738012099,"current_range_meters":30400,"station_id":"ce4bh692rcd13ifvqea0","pricing_plan_id":"cebpf4jnsgd1na2vs0mg"},{"bike_id":"d999bd9f-6214-4f0c-9578-310af25f727d","system_id":"levelo_inurba_marseille","lat":43.28661,"lon":5.35125,"is_reserved":false,"is_disabled":false,"rental_uris":{"android":"levelo://app?vid=d999bd9f-6214-4f0c-9578-310af25f727d","ios":"levelo://app?vid=d999bd9f-6214-4f0c-9578-310af25f727d"},"vehicle_type_id":"4","last_reported":1738012099,"current_range_meters":30400,"station_id":"ce4bhch2rcd13ifvqeug","pricing_plan_id":"cebpf4jnsgd1na2vs0mg"},{"bike_id":"a9cc3880-f3d1-44ab-896b-941f3eeb41aa","system_id":"levelo_inurba_marseille","lat":43.30355,"lon":5.41874,"is_reserved":false,"is_disabled":false,"rental_uris":{"android":"levelo://app?vid=a9cc3880-f3d1-44ab-896b-941f3eeb41aa","ios":"levelo://app?vid=a9cc3880-f3d1-44ab-896b-941f3eeb41aa"},"vehicle_type_id":"4","last_reported":1738012099,"current_range_meters":16400,"station_id":"ce4bhop2rcd13ifvqh7g","pricing_plan_id":"cebpf4jnsgd1na2vs0mg"},{"bike_id":"8453a0c4-33e9-480c-a7ee-1e14bdee2642","system_id":"levelo_inurba_marseille","lat":43.27927,"lon":5.39574,"is_reserved":false,"is_disabled":false,"rental_uris":{"android":"levelo://app?vid=8453a0c4-33e9-480c-a7ee-1e14bdee2642","ios":"levelo://app?vid=8453a0c4-33e9-480c-a7ee-1e14bdee2642"},"vehicle_type_id":"4","last_reported":1738012099,"current_range_meters":38800,"station_id":"ce4bhf92rcd13ifvqf40","pricing_plan_id":"cebpf4jnsgd1na2vs0mg"},{"bike_id":"b92110b7-a00c-4b0a-b2e8-36af254e050e","system_id":"levelo_inurba_marseille","lat":43.30801,"lon":5.43524,"is_reserved":false,"is_disabled":false,"rental_uris":{"android":"levelo://app?vid=b92110b7-a00c-4b0a-b2e8-36af254e050e","ios":"levelo://app?vid=b92110b7-a00c-4b0a-b2e8-36af254e050e"},"vehicle_type_id":"4","last_reported":1738012099,"current_range_meters":21600,"station_id":"ce4bhph2rcd13ifvqheg","pricing_plan_id":"cebpf4jnsgd1na2vs0mg"},{"bike_id":"b7d9240c-46b9-4103-a33c-7ed8e9291253","system_id":"levelo_inurba_marseille","lat":43.29801,"lon":5.37111,"is_reserved":false,"is_disabled":false,"rental_uris":{"android":"levelo://app?vid=b7d9240c-46b9-4103-a33c-7ed8e9291253","ios":"levelo://app?vid=b7d9240c-46b9-4103-a33c-7ed8e9291253"},"vehicle_type_id":"4","last_reported":1738012099,"current_range_meters":38800,"station_id":"ce4bgop2rcd13ifvqc1g","pricing_plan_id":"cebpf4jnsgd1na2vs0mg"},{"bike_id":"2235f8c9-3af8-4b5e-a6fb-d45e18c90436","system_id":"levelo_inurba_marseille","lat":43.28667,"lon":5.36421,"is_reserved":false,"is_disabled":false,"rental_uris":{"android":"levelo://app?vid=2235f8c9-3af8-4b5e-a6fb-d45e18c90436","ios":"levelo://app?vid=2235f8c9-3af8-4b5e-a6fb-d45e18c90436"},"vehicle_type_id":"4","last_reported":1738012099,"current_range_meters":38000,"station_id":"ce4bhah2rcd13ifvqej0","pricing_plan_id":"cebpf4jnsgd1na2vs0mg"},{"bike_id":"309eb644-6648-4120-86c7-acbf6245eba3","system_id":"levelo_inurba_marseille","lat":43.287027,"lon":5.399844,"is_reserved":false,"is_disabled":false,"rental_uris":{"android":"levelo://app?vid=309eb644-6648-4120-86c7-acbf6245eba3","ios":"levelo://app?vid=309eb644-6648-4120-86c7-acbf6245eba3"},"vehicle_type_id":"4","last_reported":1738012099,"current_range_meters":18000,"station_id":"ce4bho92rcd13ifvqh3g","pricing_plan_id":"cebpf4jnsgd1na2vs0mg"},{"bike_id":"75f78423-7bb1-46bc-9291-8f61438106b2","system_id":"levelo_inurba_marseille","lat":43.33007,"lon":5.39054,"is_reserved":false,"is_disabled":false,"rental_uris":{"android":"levelo://app?vid=75f78423-7bb1-46bc-9291-8f61438106b2","ios":"levelo://app?vid=75f78423-7bb1-46bc-9291-8f61438106b2"},"vehicle_type_id":"4","last_reported":1738012099,"current_range_meters":32400,"station_id":"ce4bhr92rcd13ifvqhrg","pricing_plan_id":"cebpf4jnsgd1na2vs0mg"},{"bike_id":"5af75d82-e55a-4c95-b312-c3aabde31a44","system_id":"levelo_inurba_marseille","lat":43.24393,"lon":5.37061,"is_reserved":false,"is_disabled":false,"rental_uris":{"android":"levelo://app?vid=5af75d82-e55a-4c95-b312-c3aabde31a44","ios":"levelo://app?vid=5af75d82-e55a-4c95-b312-c3aabde31a44"},"vehicle_type_id":"4","last_reported":1738012099,"current_range_meters":23200,"station_id":"ce4bhhh2rcd13ifvqfk0","pricing_plan_id":"cebpf4jnsgd1na2vs0mg"},{"bike_id":"a046f3ca-81fd-4416-97f1-f8041b5393f1","system_id":"levelo_inurba_marseille","lat":43.31077,"lon":5.38344,"is_reserved":false,"is_disabled":false,"rental_uris":{"android":"levelo://app?vid=a046f3ca-81fd-4416-97f1-f8041b5393f1","ios":"levelo://app?vid=a046f3ca-81fd-4416-97f1-f8041b5393f1"},"vehicle_type_id":"4","last_reported":1738012099,"current_range_meters":36400,"station_id":"ce4bgv92rcd13ifvqcr0","pricing_plan_id":"cebpf4jnsgd1na2vs0mg"},{"bike_id":"4eec989d-5121-4f7b-8f1d-17dc3e7a19ae","system_id":"levelo_inurba_marseille","lat":43.31175,"lon":5.38723,"is_reserved":false,"is_disabled":false,"rental_uris":{"android":"levelo://app?vid=4eec989d-5121-4f7b-8f1d-17dc3e7a19ae","ios":"levelo://app?vid=4eec989d-5121-4f7b-8f1d-17dc3e7a19ae"},"vehicle_type_id":"4","last_reported":1738012099,"current_range_meters":28000,"station_id":"ce4bgv12rcd13ifvqcp0","pricing_plan_id":"cebpf4jnsgd1na2vs0mg"},{"bike_id":"6c565b62-b5d3-4320-9acd-b1433f62b7bb","system_id":"levelo_inurba_marseille","lat":43.28455,"lon":5.35903,"is_reserved":false,"is_disabled":false,"rental_uris":{"android":"levelo://app?vid=6c565b62-b5d3-4320-9acd-b1433f62b7bb","ios":"levelo://app?vid=6c565b62-b5d3-4320-9acd-b1433f62b7bb"},"vehicle_type_id":"4","last_reported":1738012099,"current_range_meters":36800,"station_id":"ce4bhah2rcd13ifvqei0","pricing_plan_id":"cebpf4jnsgd1na2vs0mg"},{"bike_id":"aebdfd3b-e667-4f60-92ad-e93561b39fe8","system_id":"levelo_inurba_marseille","lat":43.29423,"lon":5.38614,"is_reserved":false,"is_disabled":false,"rental_uris":{"android":"levelo://app?vid=aebdfd3b-e667-4f60-92ad-e93561b39fe8","ios":"levelo://app?vid=aebdfd3b-e667-4f60-92ad-e93561b39fe8"},"vehicle_type_id":"4","last_reported":1738012099,"current_range_meters":22800,"station_id":"ce4bh2h2rcd13ifvqdh0","pricing_plan_id":"cebpf4jnsgd1na2vs0mg"},{"bike_id":"d474a662-3a78-44f0-af88-33fb73350cac","system_id":"levelo_inurba_marseille","lat":43.29251,"lon":5.40908,"is_reserved":false,"is_disabled":false,"rental_uris":{"android":"levelo://app?vid=d474a662-3a78-44f0-af88-33fb73350cac","ios":"levelo://app?vid=d474a662-3a78-44f0-af88-33fb73350cac"},"vehicle_type_id":"4","last_reported":1738012099,"current_range_meters":39200,"station_id":"ce4bh192rcd13ifvqdc0","pricing_plan_id":"cebpf4jnsgd1na2vs0mg"},{"bike_id":"7a184209-be60-4d65-b9fd-0a6ab88019c6","system_id":"levelo_inurba_marseille","lat":43.24075,"lon":5.37738,"is_reserved":false,"is_disabled":false,"rental_uris":{"android":"levelo://app?vid=7a184209-be60-4d65-b9fd-0a6ab88019c6","ios":"levelo://app?vid=7a184209-be60-4d65-b9fd-0a6ab88019c6"},"vehicle_type_id":"4","last_reported":1738012099,"current_range_meters":22000,"station_id":"ce4bhnp2rcd13ifvqgvg","pricing_plan_id":"cebpf4jnsgd1na2vs0mg"},{"bike_id":"a0b9cd6c-c875-49b5-9730-db3796dd717c","system_id":"levelo_inurba_marseille","lat":43.27064,"lon":5.40272,"is_reserved":false,"is_disabled":false,"rental_uris":{"android":"levelo://app?vid=a0b9cd6c-c875-49b5-9730-db3796dd717c","ios":"levelo://app?vid=a0b9cd6c-c875-49b5-9730-db3796dd717c"},"vehicle_type_id":"4","last_reported":1738012099,"current_range_meters":38000,"station_id":"ce4bhk92rcd13ifvqgc0","pricing_plan_id":"cebpf4jnsgd1na2vs0mg"},{"bike_id":"c7830262-ea23-45f4-9a23-990ed17ebf09","system_id":"levelo_inurba_marseille","lat":43.29898,"lon":5.39762,"is_reserved":false,"is_disabled":true,"rental_uris":{"android":"levelo://app?vid=c7830262-ea23-45f4-9a23-990ed17ebf09","ios":"levelo://app?vid=c7830262-ea23-45f4-9a23-990ed17ebf09"},"vehicle_type_id":"4","last_reported":1738012099,"current_range_meters":38800,"station_id":"ce4bh0h2rcd13ifvqd50","pricing_plan_id":"cebpf4jnsgd1na2vs0mg"},{"bike_id":"57ae508b-8b5e-4582-92ef-8f8000ce59c7","system_id":"levelo_inurba_marseille","lat":43.27999,"lon":5.3998,"is_reserved":false,"is_disabled":false,"rental_uris":{"android":"levelo://app?vid=57ae508b-8b5e-4582-92ef-8f8000ce59c7","ios":"levelo://app?vid=57ae508b-8b5e-4582-92ef-8f8000ce59c7"},"vehicle_type_id":"4","last_reported":1738012099,"current_range_meters":38800,"station_id":"ce4bho92rcd13ifvqh4g","pricing_plan_id":"cebpf4jnsgd1na2vs0mg"},{"bike_id":"6e81003b-1ed6-4bcc-bd22-c21300ab9348","system_id":"levelo_inurba_marseille","lat":43.281021,"lon":5.378757,"is_reserved":false,"is_disabled":false,"rental_uris":{"android":"levelo://app?vid=6e81003b-1ed6-4bcc-bd22-c21300ab9348","ios":"levelo://app?vid=6e81003b-1ed6-4bcc-bd22-c21300ab9348"},"vehicle_type_id":"4","last_reported":1738012099,"current_range_meters":38800,"station_id":"ce4bha12rcd13ifvqee0","pricing_plan_id":"cebpf4jnsgd1na2vs0mg"},{"bike_id":"74a8ba08-10bd-4bfd-830f-e130dab90166","system_id":"levelo_inurba_marseille","lat":43.27814,"lon":5.40713,"is_reserved":false,"is_disabled":false,"rental_uris":{"android":"levelo://app?vid=74a8ba08-10bd-4bfd-830f-e130dab90166","ios":"levelo://app?vid=74a8ba08-10bd-4bfd-830f-e130dab90166"},"vehicle_type_id":"4","last_reported":1738012099,"current_range_meters":30000,"station_id":"ce4bhnh2rcd13ifvqgtg","pricing_plan_id":"cebpf4jnsgd1na2vs0mg"},{"bike_id":"47ce9f76-20d2-4e32-9ac4-627b684ea49c","system_id":"levelo_inurba_marseille","lat":43.28106,"lon":5.37835,"is_reserved":false,"is_disabled":false,"rental_uris":{"android":"levelo://app?vid=47ce9f76-20d2-4e32-9ac4-627b684ea49c","ios":"levelo://app?vid=47ce9f76-20d2-4e32-9ac4-627b684ea49c"},"vehicle_type_id":"4","last_reported":1738012099,"current_range_meters":37600,"station_id":"ce4bha12rcd13ifvqee0","pricing_plan_id":"cebpf4jnsgd1na2vs0mg"},{"bike_id":"7fc942fc-b8cf-424a-806f-ec87840357cf","system_id":"levelo_inurba_marseille","lat":43.27144,"lon":5.41008,"is_reserved":false,"is_disabled":false,"rental_uris":{"android":"levelo://app?vid=7fc942fc-b8cf-424a-806f-ec87840357cf","ios":"levelo://app?vid=7fc942fc-b8cf-424a-806f-ec87840357cf"},"vehicle_type_id":"4","last_reported":1738012099,"current_range_meters":35200,"station_id":"ce4bhl12rcd13ifvqgf0","pricing_plan_id":"cebpf4jnsgd1na2vs0mg"},{"bike_id":"38540e81-16ab-49ee-bc5b-9723b654df44","system_id":"levelo_inurba_marseille","lat":43.2782,"lon":5.4072,"is_reserved":false,"is_disabled":true,"rental_uris":{"android":"levelo://app?vid=38540e81-16ab-49ee-bc5b-9723b654df44","ios":"levelo://app?vid=38540e81-16ab-49ee-bc5b-9723b654df44"},"vehicle_type_id":"4","last_reported":1738012099,"current_range_meters":14000,"station_id":"ce4bhnh2rcd13ifvqgtg","pricing_plan_id":"cebpf4jnsgd1na2vs0mg"},{"bike_id":"0a3c2fc6-3a3b-4b11-853c-a8532910522d","system_id":"levelo_inurba_marseille","lat":43.31758,"lon":5.38985,"is_reserved":false,"is_disabled":false,"rental_uris":{"android":"levelo://app?vid=0a3c2fc6-3a3b-4b11-853c-a8532910522d","ios":"levelo://app?vid=0a3c2fc6-3a3b-4b11-853c-a8532910522d"},"vehicle_type_id":"4","last_reported":1738012099,"current_range_meters":27600,"station_id":"ce4bhqp2rcd13ifvqhng","pricing_plan_id":"cebpf4jnsgd1na2vs0mg"},{"bike_id":"98a1848f-ac18-43e1-8b20-1c0f9d780370","system_id":"levelo_inurba_marseille","lat":43.3088,"lon":5.37195,"is_reserved":false,"is_disabled":false,"rental_uris":{"android":"levelo://app?vid=98a1848f-ac18-43e1-8b20-1c0f9d780370","ios":"levelo://app?vid=98a1848f-ac18-43e1-8b20-1c0f9d780370"},"vehicle_type_id":"4","last_reported":1738012099,"current_range_meters":36800,"station_id":"ce4bguh2rcd13ifvqckg","pricing_plan_id":"cebpf4jnsgd1na2vs0mg"},{"bike_id":"aa292130-3d8d-40d9-91ba-8ad7485a7c71","system_id":"levelo_inurba_marseille","lat":43.29209,"lon":5.3605,"is_reserved":false,"is_disabled":false,"rental_uris":{"android":"levelo://app?vid=aa292130-3d8d-40d9-91ba-8ad7485a7c71","ios":"levelo://app?vid=aa292130-3d8d-40d9-91ba-8ad7485a7c71"},"vehicle_type_id":"4","last_reported":1738012099,"current_range_meters":22800,"station_id":"ce4bhbh2rcd13ifvqeqg","pricing_plan_id":"cebpf4jnsgd1na2vs0mg"},{"bike_id":"7125fabb-d4fe-450e-b9a8-9b858c3dc86d","system_id":"levelo_inurba_marseille","lat":43.32493,"lon":5.3658,"is_reserved":false,"is_disabled":false,"rental_uris":{"android":"levelo://app?vid=7125fabb-d4fe-450e-b9a8-9b858c3dc86d","ios":"levelo://app?vid=7125fabb-d4fe-450e-b9a8-9b858c3dc86d"},"vehicle_type_id":"4","last_reported":1738012099,"current_range_meters":31200,"station_id":"ce4bhs12rcd13ifvqhvg","pricing_plan_id":"cebpf4jnsgd1na2vs0mg"},{"bike_id":"04eef5f1-9910-4247-adcc-3c9ac71da897","system_id":"levelo_inurba_marseille","lat":43.28665,"lon":5.36354,"is_reserved":false,"is_disabled":false,"rental_uris":{"android":"levelo://app?vid=04eef5f1-9910-4247-adcc-3c9ac71da897","ios":"levelo://app?vid=04eef5f1-9910-4247-adcc-3c9ac71da897"},"vehicle_type_id":"4","last_reported":1738012099,"current_range_meters":38800,"station_id":"ce4bhah2rcd13ifvqej0","pricing_plan_id":"cebpf4jnsgd1na2vs0mg"},{"bike_id":"3ec52b4d-cf80-449d-bd30-9db7519a9ed7","system_id":"levelo_inurba_marseille","lat":43.27058,"lon":5.4027,"is_reserved":false,"is_disabled":false,"rental_uris":{"android":"levelo://app?vid=3ec52b4d-cf80-449d-bd30-9db7519a9ed7","ios":"levelo://app?vid=3ec52b4d-cf80-449d-bd30-9db7519a9ed7"},"vehicle_type_id":"4","last_reported":1738012099,"current_range_meters":10000,"station_id":"ce4bhk92rcd13ifvqgc0","pricing_plan_id":"cebpf4jnsgd1na2vs0mg"},{"bike_id":"dcdd58f1-c264-4524-a17f-80a20d13576c","system_id":"levelo_inurba_marseille","lat":43.27906,"lon":5.38023,"is_reserved":false,"is_disabled":false,"rental_uris":{"android":"levelo://app?vid=dcdd58f1-c264-4524-a17f-80a20d13576c","ios":"levelo://app?vid=dcdd58f1-c264-4524-a17f-80a20d13576c"},"vehicle_type_id":"4","last_reported":1738012099,"current_range_meters":27200,"station_id":"ce4bhf92rcd13ifvqf50","pricing_plan_id":"cebpf4jnsgd1na2vs0mg"},{"bike_id":"a1aa1119-c115-4bd2-b453-11981a3bd34e","system_id":"levelo_inurba_marseille","lat":43.28035,"lon":5.3696,"is_reserved":false,"is_disabled":false,"rental_uris":{"android":"levelo://app?vid=a1aa1119-c115-4bd2-b453-11981a3bd34e","ios":"levelo://app?vid=a1aa1119-c115-4bd2-b453-11981a3bd34e"},"vehicle_type_id":"4","last_reported":1738012099,"current_range_meters":39200,"station_id":"ce4bha12rcd13ifvqef0","pricing_plan_id":"cebpf4jnsgd1na2vs0mg"},{"bike_id":"4ce9eda4-7d12-49f2-aec0-eb18d235e7b8","system_id":"levelo_inurba_marseille","lat":43.27817,"lon":5.40712,"is_reserved":false,"is_disabled":false,"rental_uris":{"android":"levelo://app?vid=4ce9eda4-7d12-49f2-aec0-eb18d235e7b8","ios":"levelo://app?vid=4ce9eda4-7d12-49f2-aec0-eb18d235e7b8"},"vehicle_type_id":"4","last_reported":1738012099,"current_range_meters":38800,"station_id":"ce4bhnh2rcd13ifvqgtg","pricing_plan_id":"cebpf4jnsgd1na2vs0mg"},{"bike_id":"ae328ec3-88e1-4cf4-b7cb-126554e6a47b","system_id":"levelo_inurba_marseille","lat":43.31688,"lon":5.40468,"is_reserved":false,"is_disabled":false,"rental_uris":{"android":"levelo://app?vid=ae328ec3-88e1-4cf4-b7cb-126554e6a47b","ios":"levelo://app?vid=ae328ec3-88e1-4cf4-b7cb-126554e6a47b"},"vehicle_type_id":"4","last_reported":1738012099,"current_range_meters":38800,"station_id":"ce4bh012rcd13ifvqd00","pricing_plan_id":"cebpf4jnsgd1na2vs0mg"},{"bike_id":"9838cc78-2b53-49d3-ae13-82df62c4fd64","system_id":"levelo_inurba_marseille","lat":43.28412,"lon":5.40934,"is_reserved":false,"is_disabled":true,"rental_uris":{"android":"levelo://app?vid=9838cc78-2b53-49d3-ae13-82df62c4fd64","ios":"levelo://app?vid=9838cc78-2b53-49d3-ae13-82df62c4fd64"},"vehicle_type_id":"4","last_reported":1738012099,"current_range_meters":0,"station_id":"","pricing_plan_id":"cebpf4jnsgd1na2vs0mg"},{"bike_id":"48b68885-f5d8-4871-81a6-1183086222e2","system_id":"levelo_inurba_marseille","lat":43.2945,"lon":5.39741,"is_reserved":false,"is_disabled":false,"rental_uris":{"android":"levelo://app?vid=48b68885-f5d8-4871-81a6-1183086222e2","ios":"levelo://app?vid=48b68885-f5d8-4871-81a6-1183086222e2"},"vehicle_type_id":"4","last_reported":1738012099,"current_range_meters":13600,"station_id":"ce4bh3h2rcd13ifvqdo0","pricing_plan_id":"cebpf4jnsgd1na2vs0mg"},{"bike_id":"f3a886a3-500d-4d32-a120-4a7101c0f911","system_id":"levelo_inurba_marseille","lat":43.26947,"lon":5.40249,"is_reserved":false,"is_disabled":false,"rental_uris":{"android":"levelo://app?vid=f3a886a3-500d-4d32-a120-4a7101c0f911","ios":"levelo://app?vid=f3a886a3-500d-4d32-a120-4a7101c0f911"},"vehicle_type_id":"4","last_reported":1738012099,"current_range_meters":39200,"station_id":"cjm6bp8fraef2m0cb0m0","pricing_plan_id":"cebpf4jnsgd1na2vs0mg"},{"bike_id":"fc4db651-928a-4d23-8342-01c0fe9bae42","system_id":"levelo_inurba_marseille","lat":43.31113,"lon":5.3777,"is_reserved":false,"is_disabled":false,"rental_uris":{"android":"levelo://app?vid=fc4db651-928a-4d23-8342-01c0fe9bae42","ios":"levelo://app?vid=fc4db651-928a-4d23-8342-01c0fe9bae42"},"vehicle_type_id":"4","last_reported":1738012099,"current_range_meters":35600,"station_id":"ce4bgt92rcd13ifvqcg0","pricing_plan_id":"cebpf4jnsgd1na2vs0mg"},{"bike_id":"dd364a76-e3be-4d4b-ad71-ea78cc2f6455","system_id":"levelo_inurba_marseille","lat":43.30874,"lon":5.37165,"is_reserved":false,"is_disabled":false,"rental_uris":{"android":"levelo://app?vid=dd364a76-e3be-4d4b-ad71-ea78cc2f6455","ios":"levelo://app?vid=dd364a76-e3be-4d4b-ad71-ea78cc2f6455"},"vehicle_type_id":"4","last_reported":1738012099,"current_range_meters":23200,"station_id":"ce4bguh2rcd13ifvqckg","pricing_plan_id":"cebpf4jnsgd1na2vs0mg"},{"bike_id":"c84c943b-b110-44b2-91f8-c6182498c720","system_id":"levelo_inurba_marseille","lat":43.28083,"lon":5.39636,"is_reserved":false,"is_disabled":false,"rental_uris":{"android":"levelo://app?vid=c84c943b-b110-44b2-91f8-c6182498c720","ios":"levelo://app?vid=c84c943b-b110-44b2-91f8-c6182498c720"},"vehicle_type_id":"4","last_reported":1738012099,"current_range_meters":26000,"station_id":"ce4bho12rcd13ifvqh2g","pricing_plan_id":"cebpf4jnsgd1na2vs0mg"},{"bike_id":"43999a85-2c03-405e-a87e-fc2aeca1fb12","system_id":"levelo_inurba_marseille","lat":43.3107,"lon":5.38375,"is_reserved":false,"is_disabled":false,"rental_uris":{"android":"levelo://app?vid=43999a85-2c03-405e-a87e-fc2aeca1fb12","ios":"levelo://app?vid=43999a85-2c03-405e-a87e-fc2aeca1fb12"},"vehicle_type_id":"4","last_reported":1738012099,"current_range_meters":38800,"station_id":"ce4bgv92rcd13ifvqcr0","pricing_plan_id":"cebpf4jnsgd1na2vs0mg"},{"bike_id":"5fa241af-ff37-49ce-bf70-bbf2d0e80cee","system_id":"levelo_inurba_marseille","lat":43.29209,"lon":5.39337,"is_reserved":false,"is_disabled":false,"rental_uris":{"android":"levelo://app?vid=5fa241af-ff37-49ce-bf70-bbf2d0e80cee","ios":"levelo://app?vid=5fa241af-ff37-49ce-bf70-bbf2d0e80cee"},"vehicle_type_id":"4","last_reported":1738012099,"current_range_meters":22000,"station_id":"ce4bh192rcd13ifvqdd0","pricing_plan_id":"cebpf4jnsgd1na2vs0mg"},{"bike_id":"4044df78-be9c-49b2-9e9b-8b004ba0cec9","system_id":"levelo_inurba_marseille","lat":43.34137,"lon":5.40899,"is_reserved":false,"is_disabled":false,"rental_uris":{"android":"levelo://app?vid=4044df78-be9c-49b2-9e9b-8b004ba0cec9","ios":"levelo://app?vid=4044df78-be9c-49b2-9e9b-8b004ba0cec9"},"vehicle_type_id":"4","last_reported":1738012099,"current_range_meters":38000,"station_id":"ce4bhqh2rcd13ifvqhlg","pricing_plan_id":"cebpf4jnsgd1na2vs0mg"},{"bike_id":"128c4ccc-6acf-4c66-b6c9-06bfd01e54b2","system_id":"levelo_inurba_marseille","lat":43.3091,"lon":5.36852,"is_reserved":false,"is_disabled":false,"rental_uris":{"android":"levelo://app?vid=128c4ccc-6acf-4c66-b6c9-06bfd01e54b2","ios":"levelo://app?vid=128c4ccc-6acf-4c66-b6c9-06bfd01e54b2"},"vehicle_type_id":"4","last_reported":1738012099,"current_range_meters":25200,"station_id":"ce4bgn92rcd13ifvqbvg","pricing_plan_id":"cebpf4jnsgd1na2vs0mg"},{"bike_id":"aad69bc3-bc1b-4156-a313-be595f833cb2","system_id":"levelo_inurba_marseille","lat":43.27081,"lon":5.42292,"is_reserved":false,"is_disabled":false,"rental_uris":{"android":"levelo://app?vid=aad69bc3-bc1b-4156-a313-be595f833cb2","ios":"levelo://app?vid=aad69bc3-bc1b-4156-a313-be595f833cb2"},"vehicle_type_id":"4","last_reported":1738012099,"current_range_meters":38800,"station_id":"ce4bhk92rcd13ifvqgb0","pricing_plan_id":"cebpf4jnsgd1na2vs0mg"},{"bike_id":"d79c881b-d17d-4288-b5d5-bca2ad079cab","system_id":"levelo_inurba_marseille","lat":43.29807,"lon":5.38097,"is_reserved":false,"is_disabled":false,"rental_uris":{"android":"levelo://app?vid=d79c881b-d17d-4288-b5d5-bca2ad079cab","ios":"levelo://app?vid=d79c881b-d17d-4288-b5d5-bca2ad079cab"},"vehicle_type_id":"4","last_reported":1738012099,"current_range_meters":18800,"station_id":"ce4bgip2rcd13ifvqbb0","pricing_plan_id":"cebpf4jnsgd1na2vs0mg"},{"bike_id":"2e0a8b86-b457-48a0-8577-213b01080398","system_id":"levelo_inurba_marseille","lat":43.23193,"lon":5.35535,"is_reserved":false,"is_disabled":false,"rental_uris":{"android":"levelo://app?vid=2e0a8b86-b457-48a0-8577-213b01080398","ios":"levelo://app?vid=2e0a8b86-b457-48a0-8577-213b01080398"},"vehicle_type_id":"4","last_reported":1738012099,"current_range_meters":38800,"station_id":"ce4bhu92rcd13ifvqi70","pricing_plan_id":"cebpf4jnsgd1na2vs0mg"},{"bike_id":"de1fc9e1-ac80-4d48-bbfb-bd031efff56d","system_id":"levelo_inurba_marseille","lat":43.29915,"lon":5.39749,"is_reserved":false,"is_disabled":false,"rental_uris":{"android":"levelo://app?vid=de1fc9e1-ac80-4d48-bbfb-bd031efff56d","ios":"levelo://app?vid=de1fc9e1-ac80-4d48-bbfb-bd031efff56d"},"vehicle_type_id":"4","last_reported":1738012099,"current_range_meters":38800,"station_id":"","pricing_plan_id":"cebpf4jnsgd1na2vs0mg"},{"bike_id":"eefc26b4-ceeb-447b-96e9-86927bc262df","system_id":"levelo_inurba_marseille","lat":43.27897,"lon":5.38005,"is_reserved":false,"is_disabled":false,"rental_uris":{"android":"levelo://app?vid=eefc26b4-ceeb-447b-96e9-86927bc262df","ios":"levelo://app?vid=eefc26b4-ceeb-447b-96e9-86927bc262df"},"vehicle_type_id":"4","last_reported":1738012099,"current_range_meters":38800,"station_id":"ce4bhf92rcd13ifvqf50","pricing_plan_id":"cebpf4jnsgd1na2vs0mg"},{"bike_id":"d979d8d2-ec65-47af-9229-e4270aab279a","system_id":"levelo_inurba_marseille","lat":43.23066,"lon":5.35482,"is_reserved":false,"is_disabled":false,"rental_uris":{"android":"levelo://app?vid=d979d8d2-ec65-47af-9229-e4270aab279a","ios":"levelo://app?vid=d979d8d2-ec65-47af-9229-e4270aab279a"},"vehicle_type_id":"4","last_reported":1738012099,"current_range_meters":26800,"station_id":"cpo3342slgdg3j2ifvpg","pricing_plan_id":"cebpf4jnsgd1na2vs0mg"},{"bike_id":"76c8dd28-1085-4982-bea8-34a12404826d","system_id":"levelo_inurba_marseille","lat":43.28946,"lon":5.36625,"is_reserved":false,"is_disabled":false,"rental_uris":{"android":"levelo://app?vid=76c8dd28-1085-4982-bea8-34a12404826d","ios":"levelo://app?vid=76c8dd28-1085-4982-bea8-34a12404826d"},"vehicle_type_id":"4","last_reported":1738012099,"current_range_meters":16000,"station_id":"ce4bhap2rcd13ifvqek0","pricing_plan_id":"cebpf4jnsgd1na2vs0mg"},{"bike_id":"fcd87167-ca69-4acc-9014-02c3d57a54f0","system_id":"levelo_inurba_marseille","lat":43.32536,"lon":5.41446,"is_reserved":false,"is_disabled":false,"rental_uris":{"android":"levelo://app?vid=fcd87167-ca69-4acc-9014-02c3d57a54f0","ios":"levelo://app?vid=fcd87167-ca69-4acc-9014-02c3d57a54f0"},"vehicle_type_id":"4","last_reported":1738012099,"current_range_meters":37600,"station_id":"ce4bhq12rcd13ifvqhhg","pricing_plan_id":"cebpf4jnsgd1na2vs0mg"},{"bike_id":"cc405da5-2efa-43f4-9ab4-8edf8dade4c3","system_id":"levelo_inurba_marseille","lat":43.29807,"lon":5.40407,"is_reserved":false,"is_disabled":false,"rental_uris":{"android":"levelo://app?vid=cc405da5-2efa-43f4-9ab4-8edf8dade4c3","ios":"levelo://app?vid=cc405da5-2efa-43f4-9ab4-8edf8dade4c3"},"vehicle_type_id":"4","last_reported":1738012099,"current_range_meters":38800,"station_id":"ce4bh112rcd13ifvqd90","pricing_plan_id":"cebpf4jnsgd1na2vs0mg"},{"bike_id":"386318f4-3af7-405e-a1e4-4b7d40f54b1e","system_id":"levelo_inurba_marseille","lat":43.2847,"lon":5.35873,"is_reserved":false,"is_disabled":false,"rental_uris":{"android":"levelo://app?vid=386318f4-3af7-405e-a1e4-4b7d40f54b1e","ios":"levelo://app?vid=386318f4-3af7-405e-a1e4-4b7d40f54b1e"},"vehicle_type_id":"4","last_reported":1738012099,"current_range_meters":24400,"station_id":"ce4bhah2rcd13ifvqei0","pricing_plan_id":"cebpf4jnsgd1na2vs0mg"},{"bike_id":"eecca6bf-8b74-40da-aaa1-519ada23f008","system_id":"levelo_inurba_marseille","lat":43.26806,"lon":5.40254,"is_reserved":false,"is_disabled":false,"rental_uris":{"android":"levelo://app?vid=eecca6bf-8b74-40da-aaa1-519ada23f008","ios":"levelo://app?vid=eecca6bf-8b74-40da-aaa1-519ada23f008"},"vehicle_type_id":"4","last_reported":1738012099,"current_range_meters":24400,"station_id":"ce501612rcd8frsf0b60","pricing_plan_id":"cebpf4jnsgd1na2vs0mg"},{"bike_id":"ae00de2f-f31f-40c5-afd5-77a43823ef3d","system_id":"levelo_inurba_marseille","lat":43.33025,"lon":5.39035,"is_reserved":false,"is_disabled":false,"rental_uris":{"android":"levelo://app?vid=ae00de2f-f31f-40c5-afd5-77a43823ef3d","ios":"levelo://app?vid=ae00de2f-f31f-40c5-afd5-77a43823ef3d"},"vehicle_type_id":"4","last_reported":1738012099,"current_range_meters":38800,"station_id":"ce4bhr92rcd13ifvqhrg","pricing_plan_id":"cebpf4jnsgd1na2vs0mg"},{"bike_id":"50909ffe-7ee9-43be-9b01-d1f13b072ecf","system_id":"levelo_inurba_marseille","lat":43.29519,"lon":5.39026,"is_reserved":false,"is_disabled":false,"rental_uris":{"android":"levelo://app?vid=50909ffe-7ee9-43be-9b01-d1f13b072ecf","ios":"levelo://app?vid=50909ffe-7ee9-43be-9b01-d1f13b072ecf"},"vehicle_type_id":"4","last_reported":1738012099,"current_range_meters":38000,"station_id":"ce4bh3p2rcd13ifvqdp0","pricing_plan_id":"cebpf4jnsgd1na2vs0mg"},{"bike_id":"5937b866-d252-4b41-8069-13c64613e401","system_id":"levelo_inurba_marseille","lat":43.28729,"lon":5.36086,"is_reserved":false,"is_disabled":false,"rental_uris":{"android":"levelo://app?vid=5937b866-d252-4b41-8069-13c64613e401","ios":"levelo://app?vid=5937b866-d252-4b41-8069-13c64613e401"},"vehicle_type_id":"4","last_reported":1738012099,"current_range_meters":20800,"station_id":"cki0cbj6b192h4jlfktg","pricing_plan_id":"cebpf4jnsgd1na2vs0mg"},{"bike_id":"a269c400-22d8-47c0-b20a-9f0db0330475","system_id":"levelo_inurba_marseille","lat":43.28728,"lon":5.36089,"is_reserved":false,"is_disabled":false,"rental_uris":{"android":"levelo://app?vid=a269c400-22d8-47c0-b20a-9f0db0330475","ios":"levelo://app?vid=a269c400-22d8-47c0-b20a-9f0db0330475"},"vehicle_type_id":"4","last_reported":1738012099,"current_range_meters":36000,"station_id":"cki0cbj6b192h4jlfktg","pricing_plan_id":"cebpf4jnsgd1na2vs0mg"},{"bike_id":"35a82818-c0b5-4843-8960-4aa7a5551031","system_id":"levelo_inurba_marseille","lat":43.32367,"lon":5.38882,"is_reserved":false,"is_disabled":false,"rental_uris":{"android":"levelo://app?vid=35a82818-c0b5-4843-8960-4aa7a5551031","ios":"levelo://app?vid=35a82818-c0b5-4843-8960-4aa7a5551031"},"vehicle_type_id":"4","last_reported":1738012099,"current_range_meters":6000,"station_id":"ce4bhqp2rcd13ifvqhog","pricing_plan_id":"cebpf4jnsgd1na2vs0mg"},{"bike_id":"75214a19-3086-4aab-8ba6-a177978da634","system_id":"levelo_inurba_marseille","lat":43.29897,"lon":5.43645,"is_reserved":false,"is_disabled":false,"rental_uris":{"android":"levelo://app?vid=75214a19-3086-4aab-8ba6-a177978da634","ios":"levelo://app?vid=75214a19-3086-4aab-8ba6-a177978da634"},"vehicle_type_id":"4","last_reported":1738012099,"current_range_meters":38000,"station_id":"ce4bhpp2rcd13ifvqhfg","pricing_plan_id":"cebpf4jnsgd1na2vs0mg"},{"bike_id":"30bbb00e-1612-4a25-b2e9-c8ad656fb58a","system_id":"levelo_inurba_marseille","lat":43.33738,"lon":5.3918,"is_reserved":false,"is_disabled":false,"rental_uris":{"android":"levelo://app?vid=30bbb00e-1612-4a25-b2e9-c8ad656fb58a","ios":"levelo://app?vid=30bbb00e-1612-4a25-b2e9-c8ad656fb58a"},"vehicle_type_id":"4","last_reported":1738012099,"current_range_meters":38800,"station_id":"ce4bhr92rcd13ifvqhsg","pricing_plan_id":"cebpf4jnsgd1na2vs0mg"},{"bike_id":"cdba9093-1e92-471c-a6ea-8ba6d1c21ef6","system_id":"levelo_inurba_marseille","lat":43.30447,"lon":5.38891,"is_reserved":false,"is_disabled":true,"rental_uris":{"android":"levelo://app?vid=cdba9093-1e92-471c-a6ea-8ba6d1c21ef6","ios":"levelo://app?vid=cdba9093-1e92-471c-a6ea-8ba6d1c21ef6"},"vehicle_type_id":"4","last_reported":1738012099,"current_range_meters":36000,"station_id":"ce4bgk12rcd13ifvqbi0","pricing_plan_id":"cebpf4jnsgd1na2vs0mg"},{"bike_id":"6eb6899d-e11a-4acb-8661-25de9e49d2b4","system_id":"levelo_inurba_marseille","lat":43.31491,"lon":5.3728,"is_reserved":false,"is_disabled":false,"rental_uris":{"android":"levelo://app?vid=6eb6899d-e11a-4acb-8661-25de9e49d2b4","ios":"levelo://app?vid=6eb6899d-e11a-4acb-8661-25de9e49d2b4"},"vehicle_type_id":"4","last_reported":1738012099,"current_range_meters":24400,"station_id":"ce4bgt12rcd13ifvqcd0","pricing_plan_id":"cebpf4jnsgd1na2vs0mg"},{"bike_id":"489f6534-c1d5-483f-a648-2a087319e607","system_id":"levelo_inurba_marseille","lat":43.33022,"lon":5.39044,"is_reserved":false,"is_disabled":false,"rental_uris":{"android":"levelo://app?vid=489f6534-c1d5-483f-a648-2a087319e607","ios":"levelo://app?vid=489f6534-c1d5-483f-a648-2a087319e607"},"vehicle_type_id":"4","last_reported":1738012099,"current_range_meters":38400,"station_id":"ce4bhr92rcd13ifvqhrg","pricing_plan_id":"cebpf4jnsgd1na2vs0mg"},{"bike_id":"2de173e4-ac56-4249-a306-7f63542ebafb","system_id":"levelo_inurba_marseille","lat":43.29688,"lon":5.37288,"is_reserved":false,"is_disabled":false,"rental_uris":{"android":"levelo://app?vid=2de173e4-ac56-4249-a306-7f63542ebafb","ios":"levelo://app?vid=2de173e4-ac56-4249-a306-7f63542ebafb"},"vehicle_type_id":"4","last_reported":1738012099,"current_range_meters":38800,"station_id":"ce4bgk12rcd13ifvqbj0","pricing_plan_id":"cebpf4jnsgd1na2vs0mg"},{"bike_id":"580828f0-3b12-422d-95d2-0d346530f1dd","system_id":"levelo_inurba_marseille","lat":43.25095,"lon":5.39512,"is_reserved":false,"is_disabled":false,"rental_uris":{"android":"levelo://app?vid=580828f0-3b12-422d-95d2-0d346530f1dd","ios":"levelo://app?vid=580828f0-3b12-422d-95d2-0d346530f1dd"},"vehicle_type_id":"4","last_reported":1738012099,"current_range_meters":22800,"station_id":"ce4bhm12rcd13ifvqgkg","pricing_plan_id":"cebpf4jnsgd1na2vs0mg"},{"bike_id":"ae5416a2-6c59-4a34-b7c0-6d55011ade6c","system_id":"levelo_inurba_marseille","lat":43.30609,"lon":5.37229,"is_reserved":false,"is_disabled":false,"rental_uris":{"android":"levelo://app?vid=ae5416a2-6c59-4a34-b7c0-6d55011ade6c","ios":"levelo://app?vid=ae5416a2-6c59-4a34-b7c0-6d55011ade6c"},"vehicle_type_id":"4","last_reported":1738012099,"current_range_meters":37600,"station_id":"ce4bgqh2rcd13ifvqc4g","pricing_plan_id":"cebpf4jnsgd1na2vs0mg"},{"bike_id":"44e2c606-e863-4525-992e-9f501f9c6fa1","system_id":"levelo_inurba_marseille","lat":43.30897,"lon":5.36889,"is_reserved":false,"is_disabled":false,"rental_uris":{"android":"levelo://app?vid=44e2c606-e863-4525-992e-9f501f9c6fa1","ios":"levelo://app?vid=44e2c606-e863-4525-992e-9f501f9c6fa1"},"vehicle_type_id":"4","last_reported":1738012099,"current_range_meters":16800,"station_id":"ce4bgn92rcd13ifvqbvg","pricing_plan_id":"cebpf4jnsgd1na2vs0mg"},{"bike_id":"b0f25628-041b-415c-9ab4-3a6d6f8ac50f","system_id":"levelo_inurba_marseille","lat":43.29846,"lon":5.36288,"is_reserved":false,"is_disabled":true,"rental_uris":{"android":"levelo://app?vid=b0f25628-041b-415c-9ab4-3a6d6f8ac50f","ios":"levelo://app?vid=b0f25628-041b-415c-9ab4-3a6d6f8ac50f"},"vehicle_type_id":"4","last_reported":1738012099,"current_range_meters":2000,"station_id":"ce4bgpp2rcd13ifvqc3g","pricing_plan_id":"cebpf4jnsgd1na2vs0mg"},{"bike_id":"3c9c9088-9c27-4609-bc62-8218c0dc2be8","system_id":"levelo_inurba_marseille","lat":43.23201,"lon":5.3559,"is_reserved":false,"is_disabled":false,"rental_uris":{"android":"levelo://app?vid=3c9c9088-9c27-4609-bc62-8218c0dc2be8","ios":"levelo://app?vid=3c9c9088-9c27-4609-bc62-8218c0dc2be8"},"vehicle_type_id":"4","last_reported":1738012099,"current_range_meters":36400,"station_id":"ce4bhu92rcd13ifvqi70","pricing_plan_id":"cebpf4jnsgd1na2vs0mg"},{"bike_id":"2070dd69-bac9-4b28-938a-3282a1b78ff4","system_id":"levelo_inurba_marseille","lat":43.31287,"lon":5.40171,"is_reserved":false,"is_disabled":false,"rental_uris":{"android":"levelo://app?vid=2070dd69-bac9-4b28-938a-3282a1b78ff4","ios":"levelo://app?vid=2070dd69-bac9-4b28-938a-3282a1b78ff4"},"vehicle_type_id":"4","last_reported":1738012099,"current_range_meters":27600,"station_id":"ce4bh092rcd13ifvqd30","pricing_plan_id":"cebpf4jnsgd1na2vs0mg"},{"bike_id":"a4ebca99-a7a3-497b-b464-c384db188e87","system_id":"levelo_inurba_marseille","lat":43.28,"lon":5.40007,"is_reserved":false,"is_disabled":false,"rental_uris":{"android":"levelo://app?vid=a4ebca99-a7a3-497b-b464-c384db188e87","ios":"levelo://app?vid=a4ebca99-a7a3-497b-b464-c384db188e87"},"vehicle_type_id":"4","last_reported":1738012099,"current_range_meters":18800,"station_id":"ce4bho92rcd13ifvqh4g","pricing_plan_id":"cebpf4jnsgd1na2vs0mg"},{"bike_id":"bc650f12-f396-4d0c-9dd5-ff6b9983471c","system_id":"levelo_inurba_marseille","lat":43.2956,"lon":5.42281,"is_reserved":false,"is_disabled":false,"rental_uris":{"android":"levelo://app?vid=bc650f12-f396-4d0c-9dd5-ff6b9983471c","ios":"levelo://app?vid=bc650f12-f396-4d0c-9dd5-ff6b9983471c"},"vehicle_type_id":"4","last_reported":1738012099,"current_range_meters":32800,"station_id":"ce4bhph2rcd13ifvqhdg","pricing_plan_id":"cebpf4jnsgd1na2vs0mg"},{"bike_id":"02817feb-22c1-470b-914b-d59d73ca3762","system_id":"levelo_inurba_marseille","lat":43.27967,"lon":5.38703,"is_reserved":false,"is_disabled":false,"rental_uris":{"android":"levelo://app?vid=02817feb-22c1-470b-914b-d59d73ca3762","ios":"levelo://app?vid=02817feb-22c1-470b-914b-d59d73ca3762"},"vehicle_type_id":"4","last_reported":1738012099,"current_range_meters":38400,"station_id":"ce4bhg12rcd13ifvqf80","pricing_plan_id":"cebpf4jnsgd1na2vs0mg"},{"bike_id":"a0994a02-8889-4967-9cc2-4e2174b8d66a","system_id":"levelo_inurba_marseille","lat":43.29191,"lon":5.358,"is_reserved":false,"is_disabled":false,"rental_uris":{"android":"levelo://app?vid=a0994a02-8889-4967-9cc2-4e2174b8d66a","ios":"levelo://app?vid=a0994a02-8889-4967-9cc2-4e2174b8d66a"},"vehicle_type_id":"4","last_reported":1738012099,"current_range_meters":38400,"station_id":"ce4bhb12rcd13ifvqel0","pricing_plan_id":"cebpf4jnsgd1na2vs0mg"},{"bike_id":"df1440ab-6c98-4811-96ed-60cc1ae214b5","system_id":"levelo_inurba_marseille","lat":43.24085,"lon":5.37743,"is_reserved":false,"is_disabled":false,"rental_uris":{"android":"levelo://app?vid=df1440ab-6c98-4811-96ed-60cc1ae214b5","ios":"levelo://app?vid=df1440ab-6c98-4811-96ed-60cc1ae214b5"},"vehicle_type_id":"4","last_reported":1738012099,"current_range_meters":38800,"station_id":"ce4bhnp2rcd13ifvqgvg","pricing_plan_id":"cebpf4jnsgd1na2vs0mg"},{"bike_id":"47c13c22-8671-4a7b-a0f0-1846e8355cdb","system_id":"levelo_inurba_marseille","lat":43.32288,"lon":5.38269,"is_reserved":false,"is_disabled":false,"rental_uris":{"android":"levelo://app?vid=47c13c22-8671-4a7b-a0f0-1846e8355cdb","ios":"levelo://app?vid=47c13c22-8671-4a7b-a0f0-1846e8355cdb"},"vehicle_type_id":"4","last_reported":1738012099,"current_range_meters":38800,"station_id":"ce4bhr12rcd13ifvqhqg","pricing_plan_id":"cebpf4jnsgd1na2vs0mg"},{"bike_id":"1c581695-a09f-4d6a-8281-14f18a045579","system_id":"levelo_inurba_marseille","lat":43.28846,"lon":5.35836,"is_reserved":false,"is_disabled":false,"rental_uris":{"android":"levelo://app?vid=1c581695-a09f-4d6a-8281-14f18a045579","ios":"levelo://app?vid=1c581695-a09f-4d6a-8281-14f18a045579"},"vehicle_type_id":"4","last_reported":1738012099,"current_range_meters":9600,"station_id":"ce4bhb12rcd13ifvqem0","pricing_plan_id":"cebpf4jnsgd1na2vs0mg"},{"bike_id":"b58e9c2c-f4fa-4e4d-a3e6-d964f639b0fc","system_id":"levelo_inurba_marseille","lat":43.3136,"lon":5.36719,"is_reserved":false,"is_disabled":false,"rental_uris":{"android":"levelo://app?vid=b58e9c2c-f4fa-4e4d-a3e6-d964f639b0fc","ios":"levelo://app?vid=b58e9c2c-f4fa-4e4d-a3e6-d964f639b0fc"},"vehicle_type_id":"4","last_reported":1738012099,"current_range_meters":38000,"station_id":"ce4bgr92rcd13ifvqc6g","pricing_plan_id":"cebpf4jnsgd1na2vs0mg"},{"bike_id":"8707dca8-5fb6-4e35-a1ec-1f30a01fea05","system_id":"levelo_inurba_marseille","lat":43.29557,"lon":5.4228,"is_reserved":false,"is_disabled":false,"rental_uris":{"android":"levelo://app?vid=8707dca8-5fb6-4e35-a1ec-1f30a01fea05","ios":"levelo://app?vid=8707dca8-5fb6-4e35-a1ec-1f30a01fea05"},"vehicle_type_id":"4","last_reported":1738012099,"current_range_meters":38800,"station_id":"ce4bhph2rcd13ifvqhdg","pricing_plan_id":"cebpf4jnsgd1na2vs0mg"},{"bike_id":"2c50edaf-e3f2-44c1-8081-b623a2757299","system_id":"levelo_inurba_marseille","lat":43.29716,"lon":5.36607,"is_reserved":false,"is_disabled":false,"rental_uris":{"android":"levelo://app?vid=2c50edaf-e3f2-44c1-8081-b623a2757299","ios":"levelo://app?vid=2c50edaf-e3f2-44c1-8081-b623a2757299"},"vehicle_type_id":"4","last_reported":1738012099,"current_range_meters":26800,"station_id":"ce4bgn12rcd13ifvqbt0","pricing_plan_id":"cebpf4jnsgd1na2vs0mg"},{"bike_id":"ca01bf89-7ba7-4fe9-9bb3-d6eb520050a3","system_id":"levelo_inurba_marseille","lat":43.29272,"lon":5.38451,"is_reserved":false,"is_disabled":false,"rental_uris":{"android":"levelo://app?vid=ca01bf89-7ba7-4fe9-9bb3-d6eb520050a3","ios":"levelo://app?vid=ca01bf89-7ba7-4fe9-9bb3-d6eb520050a3"},"vehicle_type_id":"4","last_reported":1738012099,"current_range_meters":28800,"station_id":"ce4bh692rcd13ifvqea0","pricing_plan_id":"cebpf4jnsgd1na2vs0mg"},{"bike_id":"bd0a4b3a-0002-476a-9750-d6e2675c7bd4","system_id":"levelo_inurba_marseille","lat":43.29199,"lon":5.35811,"is_reserved":false,"is_disabled":false,"rental_uris":{"android":"levelo://app?vid=bd0a4b3a-0002-476a-9750-d6e2675c7bd4","ios":"levelo://app?vid=bd0a4b3a-0002-476a-9750-d6e2675c7bd4"},"vehicle_type_id":"4","last_reported":1738012099,"current_range_meters":38400,"station_id":"ce4bhb12rcd13ifvqel0","pricing_plan_id":"cebpf4jnsgd1na2vs0mg"},{"bike_id":"c5e7ad18-46a3-40e8-a685-f636432d9ed9","system_id":"levelo_inurba_marseille","lat":43.30144,"lon":5.38775,"is_reserved":false,"is_disabled":true,"rental_uris":{"android":"levelo://app?vid=c5e7ad18-46a3-40e8-a685-f636432d9ed9","ios":"levelo://app?vid=c5e7ad18-46a3-40e8-a685-f636432d9ed9"},"vehicle_type_id":"4","last_reported":1738012099,"current_range_meters":3600,"station_id":"ce4bhoh2rcd13ifvqh6g","pricing_plan_id":"cebpf4jnsgd1na2vs0mg"},{"bike_id":"4ab1c826-01de-4db1-bc4a-2fac2dfbb3c6","system_id":"levelo_inurba_marseille","lat":43.27993,"lon":5.40018,"is_reserved":false,"is_disabled":false,"rental_uris":{"android":"levelo://app?vid=4ab1c826-01de-4db1-bc4a-2fac2dfbb3c6","ios":"levelo://app?vid=4ab1c826-01de-4db1-bc4a-2fac2dfbb3c6"},"vehicle_type_id":"4","last_reported":1738012099,"current_range_meters":38000,"station_id":"ce4bho92rcd13ifvqh4g","pricing_plan_id":"cebpf4jnsgd1na2vs0mg"},{"bike_id":"69ce8d0c-588e-4c30-a562-30efa4d55efa","system_id":"levelo_inurba_marseille","lat":43.28564,"lon":5.3949,"is_reserved":false,"is_disabled":false,"rental_uris":{"android":"levelo://app?vid=69ce8d0c-588e-4c30-a562-30efa4d55efa","ios":"levelo://app?vid=69ce8d0c-588e-4c30-a562-30efa4d55efa"},"vehicle_type_id":"4","last_reported":1738012099,"current_range_meters":37600,"station_id":"ce4bh292rcd13ifvqdg0","pricing_plan_id":"cebpf4jnsgd1na2vs0mg"},{"bike_id":"2256710f-428a-4b6c-afaf-f485da875c48","system_id":"levelo_inurba_marseille","lat":43.28622,"lon":5.35099,"is_reserved":false,"is_disabled":false,"rental_uris":{"android":"levelo://app?vid=2256710f-428a-4b6c-afaf-f485da875c48","ios":"levelo://app?vid=2256710f-428a-4b6c-afaf-f485da875c48"},"vehicle_type_id":"4","last_reported":1738012099,"current_range_meters":18000,"station_id":"ce4bhch2rcd13ifvqeug","pricing_plan_id":"cebpf4jnsgd1na2vs0mg"},{"bike_id":"ab2c796a-c23b-4a3a-9534-777b873d6a05","system_id":"levelo_inurba_marseille","lat":43.24176,"lon":5.36401,"is_reserved":false,"is_disabled":false,"rental_uris":{"android":"levelo://app?vid=ab2c796a-c23b-4a3a-9534-777b873d6a05","ios":"levelo://app?vid=ab2c796a-c23b-4a3a-9534-777b873d6a05"},"vehicle_type_id":"4","last_reported":1738012099,"current_range_meters":24400,"station_id":"cpo36qri1sfpv3e86is0","pricing_plan_id":"cebpf4jnsgd1na2vs0mg"},{"bike_id":"b97e5ebe-a5da-4b6a-bcab-1feef830a30a","system_id":"levelo_inurba_marseille","lat":43.28715,"lon":5.36058,"is_reserved":false,"is_disabled":false,"rental_uris":{"android":"levelo://app?vid=b97e5ebe-a5da-4b6a-bcab-1feef830a30a","ios":"levelo://app?vid=b97e5ebe-a5da-4b6a-bcab-1feef830a30a"},"vehicle_type_id":"4","last_reported":1738012099,"current_range_meters":38800,"station_id":"cki0cbj6b192h4jlfktg","pricing_plan_id":"cebpf4jnsgd1na2vs0mg"},{"bike_id":"405e506f-42e1-4b2a-a69d-3c809b575ba5","system_id":"levelo_inurba_marseille","lat":43.25686,"lon":5.39729,"is_reserved":false,"is_disabled":false,"rental_uris":{"android":"levelo://app?vid=405e506f-42e1-4b2a-a69d-3c809b575ba5","ios":"levelo://app?vid=405e506f-42e1-4b2a-a69d-3c809b575ba5"},"vehicle_type_id":"4","last_reported":1738012099,"current_range_meters":26800,"station_id":"","pricing_plan_id":"cebpf4jnsgd1na2vs0mg"},{"bike_id":"18d424a3-8022-49e9-b753-8d780410bb73","system_id":"levelo_inurba_marseille","lat":43.2844,"lon":5.39187,"is_reserved":false,"is_disabled":false,"rental_uris":{"android":"levelo://app?vid=18d424a3-8022-49e9-b753-8d780410bb73","ios":"levelo://app?vid=18d424a3-8022-49e9-b753-8d780410bb73"},"vehicle_type_id":"4","last_reported":1738012099,"current_range_meters":36400,"station_id":"ce4bhoh2rcd13ifvqh5g","pricing_plan_id":"cebpf4jnsgd1na2vs0mg"},{"bike_id":"529f1ab7-390e-41c3-9180-30692697770e","system_id":"levelo_inurba_marseille","lat":43.28611,"lon":5.35107,"is_reserved":false,"is_disabled":false,"rental_uris":{"android":"levelo://app?vid=529f1ab7-390e-41c3-9180-30692697770e","ios":"levelo://app?vid=529f1ab7-390e-41c3-9180-30692697770e"},"vehicle_type_id":"4","last_reported":1738012099,"current_range_meters":17600,"station_id":"ce4bhch2rcd13ifvqeug","pricing_plan_id":"cebpf4jnsgd1na2vs0mg"},{"bike_id":"a058fe99-43b0-4c87-b0cd-0a1cfaa78e6d","system_id":"levelo_inurba_marseille","lat":43.29577,"lon":5.39977,"is_reserved":false,"is_disabled":false,"rental_uris":{"android":"levelo://app?vid=a058fe99-43b0-4c87-b0cd-0a1cfaa78e6d","ios":"levelo://app?vid=a058fe99-43b0-4c87-b0cd-0a1cfaa78e6d"},"vehicle_type_id":"4","last_reported":1738012099,"current_range_meters":23200,"station_id":"ce4bh312rcd13ifvqdj0","pricing_plan_id":"cebpf4jnsgd1na2vs0mg"},{"bike_id":"252712f4-19e9-4270-aeaa-086f74f4c9d1","system_id":"levelo_inurba_marseille","lat":43.2762,"lon":5.36104,"is_reserved":false,"is_disabled":false,"rental_uris":{"android":"levelo://app?vid=252712f4-19e9-4270-aeaa-086f74f4c9d1","ios":"levelo://app?vid=252712f4-19e9-4270-aeaa-086f74f4c9d1"},"vehicle_type_id":"4","last_reported":1738012099,"current_range_meters":30400,"station_id":"ce4bgj92rcd13ifvqbe0","pricing_plan_id":"cebpf4jnsgd1na2vs0mg"},{"bike_id":"eb05220e-7afd-4fd1-9571-c90323b15e94","system_id":"levelo_inurba_marseille","lat":43.29428,"lon":5.38626,"is_reserved":false,"is_disabled":false,"rental_uris":{"android":"levelo://app?vid=eb05220e-7afd-4fd1-9571-c90323b15e94","ios":"levelo://app?vid=eb05220e-7afd-4fd1-9571-c90323b15e94"},"vehicle_type_id":"4","last_reported":1738012099,"current_range_meters":38800,"station_id":"ce4bh2h2rcd13ifvqdh0","pricing_plan_id":"cebpf4jnsgd1na2vs0mg"},{"bike_id":"d4e2da73-10f4-46c0-a0e8-b84f3919d1cc","system_id":"levelo_inurba_marseille","lat":43.29818,"lon":5.40402,"is_reserved":false,"is_disabled":false,"rental_uris":{"android":"levelo://app?vid=d4e2da73-10f4-46c0-a0e8-b84f3919d1cc","ios":"levelo://app?vid=d4e2da73-10f4-46c0-a0e8-b84f3919d1cc"},"vehicle_type_id":"4","last_reported":1738012099,"current_range_meters":20000,"station_id":"ce4bh112rcd13ifvqd90","pricing_plan_id":"cebpf4jnsgd1na2vs0mg"},{"bike_id":"e596222b-a3fc-46db-917d-0abe8bd0faf7","system_id":"levelo_inurba_marseille","lat":43.30145,"lon":5.37407,"is_reserved":false,"is_disabled":false,"rental_uris":{"android":"levelo://app?vid=e596222b-a3fc-46db-917d-0abe8bd0faf7","ios":"levelo://app?vid=e596222b-a3fc-46db-917d-0abe8bd0faf7"},"vehicle_type_id":"4","last_reported":1738012099,"current_range_meters":17200,"station_id":"ce4bgs92rcd13ifvqcc0","pricing_plan_id":"cebpf4jnsgd1na2vs0mg"},{"bike_id":"1bfd3f93-f93f-44ab-9456-242bc679e8ee","system_id":"levelo_inurba_marseille","lat":43.322861,"lon":5.38277,"is_reserved":false,"is_disabled":false,"rental_uris":{"android":"levelo://app?vid=1bfd3f93-f93f-44ab-9456-242bc679e8ee","ios":"levelo://app?vid=1bfd3f93-f93f-44ab-9456-242bc679e8ee"},"vehicle_type_id":"4","last_reported":1738012099,"current_range_meters":24400,"station_id":"ce4bhr12rcd13ifvqhqg","pricing_plan_id":"cebpf4jnsgd1na2vs0mg"},{"bike_id":"caf4fd72-81be-4864-b40d-16ffdca5a851","system_id":"levelo_inurba_marseille","lat":43.31107,"lon":5.37773,"is_reserved":false,"is_disabled":false,"rental_uris":{"android":"levelo://app?vid=caf4fd72-81be-4864-b40d-16ffdca5a851","ios":"levelo://app?vid=caf4fd72-81be-4864-b40d-16ffdca5a851"},"vehicle_type_id":"4","last_reported":1738012099,"current_range_meters":38800,"station_id":"ce4bgt92rcd13ifvqcg0","pricing_plan_id":"cebpf4jnsgd1na2vs0mg"},{"bike_id":"f4acc7eb-fc62-4c52-801d-fa3e960d4b06","system_id":"levelo_inurba_marseille","lat":43.29415,"lon":5.38632,"is_reserved":false,"is_disabled":false,"rental_uris":{"android":"levelo://app?vid=f4acc7eb-fc62-4c52-801d-fa3e960d4b06","ios":"levelo://app?vid=f4acc7eb-fc62-4c52-801d-fa3e960d4b06"},"vehicle_type_id":"4","last_reported":1738012099,"current_range_meters":38800,"station_id":"ce4bh2h2rcd13ifvqdh0","pricing_plan_id":"cebpf4jnsgd1na2vs0mg"},{"bike_id":"13bee3a1-48fe-4c10-aa08-4d5da8623a74","system_id":"levelo_inurba_marseille","lat":43.2783,"lon":5.39208,"is_reserved":false,"is_disabled":false,"rental_uris":{"android":"levelo://app?vid=13bee3a1-48fe-4c10-aa08-4d5da8623a74","ios":"levelo://app?vid=13bee3a1-48fe-4c10-aa08-4d5da8623a74"},"vehicle_type_id":"4","last_reported":1738012099,"current_range_meters":38800,"station_id":"ce4bhjp2rcd13ifvqga0","pricing_plan_id":"cebpf4jnsgd1na2vs0mg"},{"bike_id":"796c624c-21a1-499a-900a-2075934c86de","system_id":"levelo_inurba_marseille","lat":43.30429,"lon":5.39761,"is_reserved":false,"is_disabled":false,"rental_uris":{"android":"levelo://app?vid=796c624c-21a1-499a-900a-2075934c86de","ios":"levelo://app?vid=796c624c-21a1-499a-900a-2075934c86de"},"vehicle_type_id":"4","last_reported":1738012099,"current_range_meters":32400,"station_id":"ce4bh092rcd13ifvqd20","pricing_plan_id":"cebpf4jnsgd1na2vs0mg"},{"bike_id":"5be6a835-8fc9-4aed-a728-9a847adfe1c5","system_id":"levelo_inurba_marseille","lat":43.30886,"lon":5.3964,"is_reserved":false,"is_disabled":false,"rental_uris":{"android":"levelo://app?vid=5be6a835-8fc9-4aed-a728-9a847adfe1c5","ios":"levelo://app?vid=5be6a835-8fc9-4aed-a728-9a847adfe1c5"},"vehicle_type_id":"4","last_reported":1738012099,"current_range_meters":38800,"station_id":"ce4bh012rcd13ifvqcv0","pricing_plan_id":"cebpf4jnsgd1na2vs0mg"},{"bike_id":"18702c17-8da2-475f-8d28-5906173a0de6","system_id":"levelo_inurba_marseille","lat":43.29896,"lon":5.39717,"is_reserved":false,"is_disabled":false,"rental_uris":{"android":"levelo://app?vid=18702c17-8da2-475f-8d28-5906173a0de6","ios":"levelo://app?vid=18702c17-8da2-475f-8d28-5906173a0de6"},"vehicle_type_id":"4","last_reported":1738012099,"current_range_meters":36800,"station_id":"ce4bh0h2rcd13ifvqd50","pricing_plan_id":"cebpf4jnsgd1na2vs0mg"},{"bike_id":"27008ab4-fd65-436d-a4a9-bba5732c5712","system_id":"levelo_inurba_marseille","lat":43.28077,"lon":5.39646,"is_reserved":false,"is_disabled":false,"rental_uris":{"android":"levelo://app?vid=27008ab4-fd65-436d-a4a9-bba5732c5712","ios":"levelo://app?vid=27008ab4-fd65-436d-a4a9-bba5732c5712"},"vehicle_type_id":"4","last_reported":1738012099,"current_range_meters":10800,"station_id":"ce4bho12rcd13ifvqh2g","pricing_plan_id":"cebpf4jnsgd1na2vs0mg"},{"bike_id":"a02db55e-ba47-47e1-9cb6-3610b1989231","system_id":"levelo_inurba_marseille","lat":43.29521,"lon":5.39018,"is_reserved":false,"is_disabled":false,"rental_uris":{"android":"levelo://app?vid=a02db55e-ba47-47e1-9cb6-3610b1989231","ios":"levelo://app?vid=a02db55e-ba47-47e1-9cb6-3610b1989231"},"vehicle_type_id":"4","last_reported":1738012099,"current_range_meters":39200,"station_id":"ce4bh3p2rcd13ifvqdp0","pricing_plan_id":"cebpf4jnsgd1na2vs0mg"},{"bike_id":"fb718f77-42be-4664-9cdd-65305dc1c1ba","system_id":"levelo_inurba_marseille","lat":43.2319,"lon":5.3998,"is_reserved":false,"is_disabled":false,"rental_uris":{"android":"levelo://app?vid=fb718f77-42be-4664-9cdd-65305dc1c1ba","ios":"levelo://app?vid=fb718f77-42be-4664-9cdd-65305dc1c1ba"},"vehicle_type_id":"4","last_reported":1738012099,"current_range_meters":39200,"station_id":"ce4bhn12rcd13ifvqgqg","pricing_plan_id":"cebpf4jnsgd1na2vs0mg"},{"bike_id":"6864391c-b491-407f-88e1-18a707dd9f24","system_id":"levelo_inurba_marseille","lat":43.30321,"lon":5.36888,"is_reserved":false,"is_disabled":false,"rental_uris":{"android":"levelo://app?vid=6864391c-b491-407f-88e1-18a707dd9f24","ios":"levelo://app?vid=6864391c-b491-407f-88e1-18a707dd9f24"},"vehicle_type_id":"4","last_reported":1738012099,"current_range_meters":9200,"station_id":"ce4bgqh2rcd13ifvqc5g","pricing_plan_id":"cebpf4jnsgd1na2vs0mg"},{"bike_id":"43cb41c5-439f-4eb6-9ca9-ddeec93fcf1d","system_id":"levelo_inurba_marseille","lat":43.23967,"lon":5.3662,"is_reserved":false,"is_disabled":false,"rental_uris":{"android":"levelo://app?vid=43cb41c5-439f-4eb6-9ca9-ddeec93fcf1d","ios":"levelo://app?vid=43cb41c5-439f-4eb6-9ca9-ddeec93fcf1d"},"vehicle_type_id":"4","last_reported":1738012099,"current_range_meters":9200,"station_id":"ce4bhi12rcd13ifvqfp0","pricing_plan_id":"cebpf4jnsgd1na2vs0mg"},{"bike_id":"8ccef378-70c1-431e-9220-cb8b91a6d43b","system_id":"levelo_inurba_marseille","lat":43.30775,"lon":5.37654,"is_reserved":false,"is_disabled":true,"rental_uris":{"android":"levelo://app?vid=8ccef378-70c1-431e-9220-cb8b91a6d43b","ios":"levelo://app?vid=8ccef378-70c1-431e-9220-cb8b91a6d43b"},"vehicle_type_id":"4","last_reported":1738012099,"current_range_meters":28400,"station_id":"","pricing_plan_id":"cebpf4jnsgd1na2vs0mg"},{"bike_id":"4b4961b5-5e83-4377-a634-c1cb155aefdf","system_id":"levelo_inurba_marseille","lat":43.29215,"lon":5.36073,"is_reserved":false,"is_disabled":false,"rental_uris":{"android":"levelo://app?vid=4b4961b5-5e83-4377-a634-c1cb155aefdf","ios":"levelo://app?vid=4b4961b5-5e83-4377-a634-c1cb155aefdf"},"vehicle_type_id":"4","last_reported":1738012099,"current_range_meters":38800,"station_id":"ce4bhbh2rcd13ifvqeqg","pricing_plan_id":"cebpf4jnsgd1na2vs0mg"},{"bike_id":"d09dc889-21d7-43fd-bd34-c29553eb70bc","system_id":"levelo_inurba_marseille","lat":43.29716,"lon":5.37693,"is_reserved":false,"is_disabled":false,"rental_uris":{"android":"levelo://app?vid=d09dc889-21d7-43fd-bd34-c29553eb70bc","ios":"levelo://app?vid=d09dc889-21d7-43fd-bd34-c29553eb70bc"},"vehicle_type_id":"4","last_reported":1738012099,"current_range_meters":25200,"station_id":"ce4bgkh2rcd13ifvqbl0","pricing_plan_id":"cebpf4jnsgd1na2vs0mg"},{"bike_id":"d24f579f-449d-4f84-bf88-d3b03d265d8b","system_id":"levelo_inurba_marseille","lat":43.2952,"lon":5.38508,"is_reserved":false,"is_disabled":false,"rental_uris":{"android":"levelo://app?vid=d24f579f-449d-4f84-bf88-d3b03d265d8b","ios":"levelo://app?vid=d24f579f-449d-4f84-bf88-d3b03d265d8b"},"vehicle_type_id":"4","last_reported":1738012099,"current_range_meters":17200,"station_id":"ce4bgih2rcd13ifvqba0","pricing_plan_id":"cebpf4jnsgd1na2vs0mg"},{"bike_id":"9b744b95-e734-4df1-a02c-3cfb137358e6","system_id":"levelo_inurba_marseille","lat":43.31428,"lon":5.3735,"is_reserved":false,"is_disabled":true,"rental_uris":{"android":"levelo://app?vid=9b744b95-e734-4df1-a02c-3cfb137358e6","ios":"levelo://app?vid=9b744b95-e734-4df1-a02c-3cfb137358e6"},"vehicle_type_id":"4","last_reported":1738012099,"current_range_meters":1600,"station_id":"","pricing_plan_id":"cebpf4jnsgd1na2vs0mg"},{"bike_id":"76a03fe2-6853-42db-8972-77b89a64555b","system_id":"levelo_inurba_marseille","lat":43.32044,"lon":5.36806,"is_reserved":false,"is_disabled":true,"rental_uris":{"android":"levelo://app?vid=76a03fe2-6853-42db-8972-77b89a64555b","ios":"levelo://app?vid=76a03fe2-6853-42db-8972-77b89a64555b"},"vehicle_type_id":"4","last_reported":1738012099,"current_range_meters":24400,"station_id":"","pricing_plan_id":"cebpf4jnsgd1na2vs0mg"},{"bike_id":"38f16439-e68b-4184-89b6-ec64ff32f084","system_id":"levelo_inurba_marseille","lat":43.2908,"lon":5.3715,"is_reserved":false,"is_disabled":false,"rental_uris":{"android":"levelo://app?vid=38f16439-e68b-4184-89b6-ec64ff32f084","ios":"levelo://app?vid=38f16439-e68b-4184-89b6-ec64ff32f084"},"vehicle_type_id":"4","last_reported":1738012099,"current_range_meters":12400,"station_id":"ce4bh5p2rcd13ifvqe4g","pricing_plan_id":"cebpf4jnsgd1na2vs0mg"},{"bike_id":"88677356-551f-4c78-976d-d610cc147377","system_id":"levelo_inurba_marseille","lat":43.29216,"lon":5.36069,"is_reserved":false,"is_disabled":false,"rental_uris":{"android":"levelo://app?vid=88677356-551f-4c78-976d-d610cc147377","ios":"levelo://app?vid=88677356-551f-4c78-976d-d610cc147377"},"vehicle_type_id":"4","last_reported":1738012099,"current_range_meters":37600,"station_id":"ce4bhbh2rcd13ifvqeqg","pricing_plan_id":"cebpf4jnsgd1na2vs0mg"},{"bike_id":"b01b0706-3a3a-4ff1-ac0d-6b17e48eff7a","system_id":"levelo_inurba_marseille","lat":43.23193,"lon":5.35552,"is_reserved":false,"is_disabled":false,"rental_uris":{"android":"levelo://app?vid=b01b0706-3a3a-4ff1-ac0d-6b17e48eff7a","ios":"levelo://app?vid=b01b0706-3a3a-4ff1-ac0d-6b17e48eff7a"},"vehicle_type_id":"4","last_reported":1738012099,"current_range_meters":36000,"station_id":"ce4bhu92rcd13ifvqi70","pricing_plan_id":"cebpf4jnsgd1na2vs0mg"},{"bike_id":"0ae5d655-1479-4710-82c3-f00e2ed5d079","system_id":"levelo_inurba_marseille","lat":43.29911,"lon":5.38154,"is_reserved":false,"is_disabled":false,"rental_uris":{"android":"levelo://app?vid=0ae5d655-1479-4710-82c3-f00e2ed5d079","ios":"levelo://app?vid=0ae5d655-1479-4710-82c3-f00e2ed5d079"},"vehicle_type_id":"4","last_reported":1738012099,"current_range_meters":38400,"station_id":"ce4bgj12rcd13ifvqbc0","pricing_plan_id":"cebpf4jnsgd1na2vs0mg"},{"bike_id":"0c6fa2a7-0031-47aa-866d-31dbc6d98fec","system_id":"levelo_inurba_marseille","lat":43.24078,"lon":5.37754,"is_reserved":false,"is_disabled":false,"rental_uris":{"android":"levelo://app?vid=0c6fa2a7-0031-47aa-866d-31dbc6d98fec","ios":"levelo://app?vid=0c6fa2a7-0031-47aa-866d-31dbc6d98fec"},"vehicle_type_id":"4","last_reported":1738012099,"current_range_meters":39200,"station_id":"ce4bhnp2rcd13ifvqgvg","pricing_plan_id":"cebpf4jnsgd1na2vs0mg"},{"bike_id":"b392fed4-0fa4-45ae-9eaa-d91de503ec25","system_id":"levelo_inurba_marseille","lat":43.26558,"lon":5.37284,"is_reserved":false,"is_disabled":false,"rental_uris":{"android":"levelo://app?vid=b392fed4-0fa4-45ae-9eaa-d91de503ec25","ios":"levelo://app?vid=b392fed4-0fa4-45ae-9eaa-d91de503ec25"},"vehicle_type_id":"4","last_reported":1738012099,"current_range_meters":17600,"station_id":"ce4bhg12rcd13ifvqf70","pricing_plan_id":"cebpf4jnsgd1na2vs0mg"},{"bike_id":"bf1747fe-d8f0-417e-9599-88e1e7960a06","system_id":"levelo_inurba_marseille","lat":43.3064,"lon":5.40067,"is_reserved":false,"is_disabled":false,"rental_uris":{"android":"levelo://app?vid=bf1747fe-d8f0-417e-9599-88e1e7960a06","ios":"levelo://app?vid=bf1747fe-d8f0-417e-9599-88e1e7960a06"},"vehicle_type_id":"4","last_reported":1738012099,"current_range_meters":37600,"station_id":"ce4bh112rcd13ifvqda0","pricing_plan_id":"cebpf4jnsgd1na2vs0mg"},{"bike_id":"915df6a6-30bf-4e90-9efc-34ebcb795923","system_id":"levelo_inurba_marseille","lat":43.28467,"lon":5.35898,"is_reserved":false,"is_disabled":false,"rental_uris":{"android":"levelo://app?vid=915df6a6-30bf-4e90-9efc-34ebcb795923","ios":"levelo://app?vid=915df6a6-30bf-4e90-9efc-34ebcb795923"},"vehicle_type_id":"4","last_reported":1738012099,"current_range_meters":38800,"station_id":"ce4bhah2rcd13ifvqei0","pricing_plan_id":"cebpf4jnsgd1na2vs0mg"},{"bike_id":"8f0be848-d541-47fe-8086-1d80d5cc52a7","system_id":"levelo_inurba_marseille","lat":43.29806,"lon":5.40398,"is_reserved":false,"is_disabled":false,"rental_uris":{"android":"levelo://app?vid=8f0be848-d541-47fe-8086-1d80d5cc52a7","ios":"levelo://app?vid=8f0be848-d541-47fe-8086-1d80d5cc52a7"},"vehicle_type_id":"4","last_reported":1738012099,"current_range_meters":18000,"station_id":"ce4bh112rcd13ifvqd90","pricing_plan_id":"cebpf4jnsgd1na2vs0mg"},{"bike_id":"21d4ad1e-363b-4dff-86a8-9a84b018dcc7","system_id":"levelo_inurba_marseille","lat":43.26794,"lon":5.39409,"is_reserved":false,"is_disabled":false,"rental_uris":{"android":"levelo://app?vid=21d4ad1e-363b-4dff-86a8-9a84b018dcc7","ios":"levelo://app?vid=21d4ad1e-363b-4dff-86a8-9a84b018dcc7"},"vehicle_type_id":"4","last_reported":1738012099,"current_range_meters":32000,"station_id":"ce4bhh12rcd13ifvqfg0","pricing_plan_id":"cebpf4jnsgd1na2vs0mg"},{"bike_id":"07cb6981-4d3e-4f75-a1f3-062efe5f2b26","system_id":"levelo_inurba_marseille","lat":43.30593,"lon":5.39346,"is_reserved":false,"is_disabled":false,"rental_uris":{"android":"levelo://app?vid=07cb6981-4d3e-4f75-a1f3-062efe5f2b26","ios":"levelo://app?vid=07cb6981-4d3e-4f75-a1f3-062efe5f2b26"},"vehicle_type_id":"4","last_reported":1738012099,"current_range_meters":6400,"station_id":"ce4bh0p2rcd13ifvqd80","pricing_plan_id":"cebpf4jnsgd1na2vs0mg"},{"bike_id":"ecf18d5e-fe06-4d6d-aa21-6d4ba394f980","system_id":"levelo_inurba_marseille","lat":43.28548,"lon":5.39491,"is_reserved":false,"is_disabled":false,"rental_uris":{"android":"levelo://app?vid=ecf18d5e-fe06-4d6d-aa21-6d4ba394f980","ios":"levelo://app?vid=ecf18d5e-fe06-4d6d-aa21-6d4ba394f980"},"vehicle_type_id":"4","last_reported":1738012099,"current_range_meters":36000,"station_id":"ce4bh292rcd13ifvqdg0","pricing_plan_id":"cebpf4jnsgd1na2vs0mg"},{"bike_id":"48eaf086-a58e-442a-ac63-1b1e74c4ac84","system_id":"levelo_inurba_marseille","lat":43.31685,"lon":5.43713,"is_reserved":false,"is_disabled":false,"rental_uris":{"android":"levelo://app?vid=48eaf086-a58e-442a-ac63-1b1e74c4ac84","ios":"levelo://app?vid=48eaf086-a58e-442a-ac63-1b1e74c4ac84"},"vehicle_type_id":"4","last_reported":1738012099,"current_range_meters":38800,"station_id":"ce4bhp92rcd13ifvqhcg","pricing_plan_id":"cebpf4jnsgd1na2vs0mg"},{"bike_id":"93a03b7f-b087-426b-aea4-84310305d4a9","system_id":"levelo_inurba_marseille","lat":43.31172,"lon":5.38705,"is_reserved":false,"is_disabled":true,"rental_uris":{"android":"levelo://app?vid=93a03b7f-b087-426b-aea4-84310305d4a9","ios":"levelo://app?vid=93a03b7f-b087-426b-aea4-84310305d4a9"},"vehicle_type_id":"4","last_reported":1738012099,"current_range_meters":32400,"station_id":"ce4bgv12rcd13ifvqcp0","pricing_plan_id":"cebpf4jnsgd1na2vs0mg"},{"bike_id":"438ef96e-576a-42aa-bc1f-ac59ea62970f","system_id":"levelo_inurba_marseille","lat":43.29594,"lon":5.36743,"is_reserved":false,"is_disabled":true,"rental_uris":{"android":"levelo://app?vid=438ef96e-576a-42aa-bc1f-ac59ea62970f","ios":"levelo://app?vid=438ef96e-576a-42aa-bc1f-ac59ea62970f"},"vehicle_type_id":"4","last_reported":1738012099,"current_range_meters":32800,"station_id":"ce4bgph2rcd13ifvqc2g","pricing_plan_id":"cebpf4jnsgd1na2vs0mg"},{"bike_id":"8c5e94e2-a561-47ca-b8e7-b5bb9e37e4e3","system_id":"levelo_inurba_marseille","lat":43.27892,"lon":5.38014,"is_reserved":false,"is_disabled":false,"rental_uris":{"android":"levelo://app?vid=8c5e94e2-a561-47ca-b8e7-b5bb9e37e4e3","ios":"levelo://app?vid=8c5e94e2-a561-47ca-b8e7-b5bb9e37e4e3"},"vehicle_type_id":"4","last_reported":1738012099,"current_range_meters":38400,"station_id":"ce4bhf92rcd13ifvqf50","pricing_plan_id":"cebpf4jnsgd1na2vs0mg"},{"bike_id":"9dc38a6d-dd52-4e50-b98e-0261402f66e2","system_id":"levelo_inurba_marseille","lat":43.29169,"lon":5.37167,"is_reserved":false,"is_disabled":false,"rental_uris":{"android":"levelo://app?vid=9dc38a6d-dd52-4e50-b98e-0261402f66e2","ios":"levelo://app?vid=9dc38a6d-dd52-4e50-b98e-0261402f66e2"},"vehicle_type_id":"4","last_reported":1738012099,"current_range_meters":36000,"station_id":"ce4bha92rcd13ifvqeh0","pricing_plan_id":"cebpf4jnsgd1na2vs0mg"},{"bike_id":"ff68af14-5554-4f8d-a3de-4549d987f602","system_id":"levelo_inurba_marseille","lat":43.29907,"lon":5.43666,"is_reserved":false,"is_disabled":false,"rental_uris":{"android":"levelo://app?vid=ff68af14-5554-4f8d-a3de-4549d987f602","ios":"levelo://app?vid=ff68af14-5554-4f8d-a3de-4549d987f602"},"vehicle_type_id":"4","last_reported":1738012099,"current_range_meters":38000,"station_id":"ce4bhpp2rcd13ifvqhfg","pricing_plan_id":"cebpf4jnsgd1na2vs0mg"},{"bike_id":"6490584c-177f-41d8-bcd8-59e3b3b16530","system_id":"levelo_inurba_marseille","lat":43.29537,"lon":5.38534,"is_reserved":false,"is_disabled":false,"rental_uris":{"android":"levelo://app?vid=6490584c-177f-41d8-bcd8-59e3b3b16530","ios":"levelo://app?vid=6490584c-177f-41d8-bcd8-59e3b3b16530"},"vehicle_type_id":"4","last_reported":1738012099,"current_range_meters":38800,"station_id":"ce4bgih2rcd13ifvqba0","pricing_plan_id":"cebpf4jnsgd1na2vs0mg"},{"bike_id":"fa75464c-6e89-4439-be65-ecd3b0b40ecf","system_id":"levelo_inurba_marseille","lat":43.28669,"lon":5.3636,"is_reserved":false,"is_disabled":false,"rental_uris":{"android":"levelo://app?vid=fa75464c-6e89-4439-be65-ecd3b0b40ecf","ios":"levelo://app?vid=fa75464c-6e89-4439-be65-ecd3b0b40ecf"},"vehicle_type_id":"4","last_reported":1738012099,"current_range_meters":25200,"station_id":"ce4bhah2rcd13ifvqej0","pricing_plan_id":"cebpf4jnsgd1na2vs0mg"},{"bike_id":"810e3bd2-4833-41fb-a98e-621f2369fa84","system_id":"levelo_inurba_marseille","lat":43.33723,"lon":5.39179,"is_reserved":false,"is_disabled":false,"rental_uris":{"android":"levelo://app?vid=810e3bd2-4833-41fb-a98e-621f2369fa84","ios":"levelo://app?vid=810e3bd2-4833-41fb-a98e-621f2369fa84"},"vehicle_type_id":"4","last_reported":1738012099,"current_range_meters":8400,"station_id":"ce4bhr92rcd13ifvqhsg","pricing_plan_id":"cebpf4jnsgd1na2vs0mg"},{"bike_id":"5be4387e-2dfa-4ad0-934c-3a87f155fd75","system_id":"levelo_inurba_marseille","lat":43.28852,"lon":5.3586,"is_reserved":false,"is_disabled":false,"rental_uris":{"android":"levelo://app?vid=5be4387e-2dfa-4ad0-934c-3a87f155fd75","ios":"levelo://app?vid=5be4387e-2dfa-4ad0-934c-3a87f155fd75"},"vehicle_type_id":"4","last_reported":1738012099,"current_range_meters":8400,"station_id":"ce4bhb12rcd13ifvqem0","pricing_plan_id":"cebpf4jnsgd1na2vs0mg"},{"bike_id":"5ff01d07-3d14-4556-a9cb-73fb20f5e6ca","system_id":"levelo_inurba_marseille","lat":43.31355,"lon":5.38491,"is_reserved":false,"is_disabled":false,"rental_uris":{"android":"levelo://app?vid=5ff01d07-3d14-4556-a9cb-73fb20f5e6ca","ios":"levelo://app?vid=5ff01d07-3d14-4556-a9cb-73fb20f5e6ca"},"vehicle_type_id":"4","last_reported":1738012099,"current_range_meters":25600,"station_id":"ce4bgt92rcd13ifvqcf0","pricing_plan_id":"cebpf4jnsgd1na2vs0mg"},{"bike_id":"04add264-7ffa-44ea-8a2f-32324a7ecc6f","system_id":"levelo_inurba_marseille","lat":43.25669,"lon":5.41171,"is_reserved":false,"is_disabled":false,"rental_uris":{"android":"levelo://app?vid=04add264-7ffa-44ea-8a2f-32324a7ecc6f","ios":"levelo://app?vid=04add264-7ffa-44ea-8a2f-32324a7ecc6f"},"vehicle_type_id":"4","last_reported":1738012099,"current_range_meters":14400,"station_id":"","pricing_plan_id":"cebpf4jnsgd1na2vs0mg"},{"bike_id":"e3c5a10e-948d-477c-91ce-8c835a7fe362","system_id":"levelo_inurba_marseille","lat":43.28098,"lon":5.3964,"is_reserved":false,"is_disabled":true,"rental_uris":{"android":"levelo://app?vid=e3c5a10e-948d-477c-91ce-8c835a7fe362","ios":"levelo://app?vid=e3c5a10e-948d-477c-91ce-8c835a7fe362"},"vehicle_type_id":"4","last_reported":1738012099,"current_range_meters":0,"station_id":"ce4bho12rcd13ifvqh2g","pricing_plan_id":"cebpf4jnsgd1na2vs0mg"},{"bike_id":"da13888c-ccdc-42a6-b940-dc947370c186","system_id":"levelo_inurba_marseille","lat":43.29526,"lon":5.39405,"is_reserved":false,"is_disabled":false,"rental_uris":{"android":"levelo://app?vid=da13888c-ccdc-42a6-b940-dc947370c186","ios":"levelo://app?vid=da13888c-ccdc-42a6-b940-dc947370c186"},"vehicle_type_id":"4","last_reported":1738012099,"current_range_meters":37600,"station_id":"ce4bh292rcd13ifvqdf0","pricing_plan_id":"cebpf4jnsgd1na2vs0mg"},{"bike_id":"3af33c6a-efb8-4c32-b92f-c273b3ba3228","system_id":"levelo_inurba_marseille","lat":43.25088,"lon":5.39558,"is_reserved":false,"is_disabled":false,"rental_uris":{"android":"levelo://app?vid=3af33c6a-efb8-4c32-b92f-c273b3ba3228","ios":"levelo://app?vid=3af33c6a-efb8-4c32-b92f-c273b3ba3228"},"vehicle_type_id":"4","last_reported":1738012099,"current_range_meters":39200,"station_id":"ce4bhm12rcd13ifvqgkg","pricing_plan_id":"cebpf4jnsgd1na2vs0mg"},{"bike_id":"c69dd111-4a16-47d3-919c-b81c76daeb57","system_id":"levelo_inurba_marseille","lat":43.24821,"lon":5.37469,"is_reserved":false,"is_disabled":false,"rental_uris":{"android":"levelo://app?vid=c69dd111-4a16-47d3-919c-b81c76daeb57","ios":"levelo://app?vid=c69dd111-4a16-47d3-919c-b81c76daeb57"},"vehicle_type_id":"4","last_reported":1738012099,"current_range_meters":36000,"station_id":"ce4bhgh2rcd13ifvqfb0","pricing_plan_id":"cebpf4jnsgd1na2vs0mg"},{"bike_id":"f846d495-effa-4e8f-ae39-f2d7b1fc0ba3","system_id":"levelo_inurba_marseille","lat":43.26808,"lon":5.40255,"is_reserved":false,"is_disabled":false,"rental_uris":{"android":"levelo://app?vid=f846d495-effa-4e8f-ae39-f2d7b1fc0ba3","ios":"levelo://app?vid=f846d495-effa-4e8f-ae39-f2d7b1fc0ba3"},"vehicle_type_id":"4","last_reported":1738012099,"current_range_meters":38800,"station_id":"ce501612rcd8frsf0b60","pricing_plan_id":"cebpf4jnsgd1na2vs0mg"},{"bike_id":"bb99704f-e033-4ae8-a7fb-29e6cc77930e","system_id":"levelo_inurba_marseille","lat":43.2808,"lon":5.39641,"is_reserved":false,"is_disabled":false,"rental_uris":{"android":"levelo://app?vid=bb99704f-e033-4ae8-a7fb-29e6cc77930e","ios":"levelo://app?vid=bb99704f-e033-4ae8-a7fb-29e6cc77930e"},"vehicle_type_id":"4","last_reported":1738012099,"current_range_meters":38000,"station_id":"ce4bho12rcd13ifvqh2g","pricing_plan_id":"cebpf4jnsgd1na2vs0mg"},{"bike_id":"a4be99d0-9f57-4d65-9197-81844e4eb908","system_id":"levelo_inurba_marseille","lat":43.32472,"lon":5.36616,"is_reserved":false,"is_disabled":false,"rental_uris":{"android":"levelo://app?vid=a4be99d0-9f57-4d65-9197-81844e4eb908","ios":"levelo://app?vid=a4be99d0-9f57-4d65-9197-81844e4eb908"},"vehicle_type_id":"4","last_reported":1738012099,"current_range_meters":28400,"station_id":"ce4bhs12rcd13ifvqhvg","pricing_plan_id":"cebpf4jnsgd1na2vs0mg"},{"bike_id":"f3ad659f-8a14-4527-9563-d1ddbd89d063","system_id":"levelo_inurba_marseille","lat":43.30426,"lon":5.39735,"is_reserved":false,"is_disabled":false,"rental_uris":{"android":"levelo://app?vid=f3ad659f-8a14-4527-9563-d1ddbd89d063","ios":"levelo://app?vid=f3ad659f-8a14-4527-9563-d1ddbd89d063"},"vehicle_type_id":"4","last_reported":1738012099,"current_range_meters":23200,"station_id":"ce4bh092rcd13ifvqd20","pricing_plan_id":"cebpf4jnsgd1na2vs0mg"},{"bike_id":"97b18a4a-bd77-4ae7-9fb5-63f3232dcc4f","system_id":"levelo_inurba_marseille","lat":43.28078,"lon":5.35821,"is_reserved":false,"is_disabled":false,"rental_uris":{"android":"levelo://app?vid=97b18a4a-bd77-4ae7-9fb5-63f3232dcc4f","ios":"levelo://app?vid=97b18a4a-bd77-4ae7-9fb5-63f3232dcc4f"},"vehicle_type_id":"4","last_reported":1738012099,"current_range_meters":35200,"station_id":"","pricing_plan_id":"cebpf4jnsgd1na2vs0mg"},{"bike_id":"f9173de2-2fa5-436f-a76b-3c96bd571284","system_id":"levelo_inurba_marseille","lat":43.29802,"lon":5.40417,"is_reserved":false,"is_disabled":false,"rental_uris":{"android":"levelo://app?vid=f9173de2-2fa5-436f-a76b-3c96bd571284","ios":"levelo://app?vid=f9173de2-2fa5-436f-a76b-3c96bd571284"},"vehicle_type_id":"4","last_reported":1738012099,"current_range_meters":38800,"station_id":"ce4bh112rcd13ifvqd90","pricing_plan_id":"cebpf4jnsgd1na2vs0mg"},{"bike_id":"4324a0dd-735e-442a-817b-b2e1bc0d7ff2","system_id":"levelo_inurba_marseille","lat":43.3035,"lon":5.41873,"is_reserved":false,"is_disabled":false,"rental_uris":{"android":"levelo://app?vid=4324a0dd-735e-442a-817b-b2e1bc0d7ff2","ios":"levelo://app?vid=4324a0dd-735e-442a-817b-b2e1bc0d7ff2"},"vehicle_type_id":"4","last_reported":1738012099,"current_range_meters":32000,"station_id":"ce4bhop2rcd13ifvqh7g","pricing_plan_id":"cebpf4jnsgd1na2vs0mg"},{"bike_id":"bec386fe-33ad-48a4-826a-c9f849f1daa6","system_id":"levelo_inurba_marseille","lat":43.29811,"lon":5.40413,"is_reserved":false,"is_disabled":false,"rental_uris":{"android":"levelo://app?vid=bec386fe-33ad-48a4-826a-c9f849f1daa6","ios":"levelo://app?vid=bec386fe-33ad-48a4-826a-c9f849f1daa6"},"vehicle_type_id":"4","last_reported":1738012099,"current_range_meters":38000,"station_id":"ce4bh112rcd13ifvqd90","pricing_plan_id":"cebpf4jnsgd1na2vs0mg"},{"bike_id":"15efd51a-1c37-4c09-b55a-8826c9cb1d34","system_id":"levelo_inurba_marseille","lat":43.28481,"lon":5.38408,"is_reserved":false,"is_disabled":false,"rental_uris":{"android":"levelo://app?vid=15efd51a-1c37-4c09-b55a-8826c9cb1d34","ios":"levelo://app?vid=15efd51a-1c37-4c09-b55a-8826c9cb1d34"},"vehicle_type_id":"4","last_reported":1738012099,"current_range_meters":38800,"station_id":"ce4bh512rcd13ifvqe3g","pricing_plan_id":"cebpf4jnsgd1na2vs0mg"},{"bike_id":"db3aaaa1-2c83-4416-9be0-650e00b3a100","system_id":"levelo_inurba_marseille","lat":43.31767,"lon":5.38992,"is_reserved":false,"is_disabled":false,"rental_uris":{"android":"levelo://app?vid=db3aaaa1-2c83-4416-9be0-650e00b3a100","ios":"levelo://app?vid=db3aaaa1-2c83-4416-9be0-650e00b3a100"},"vehicle_type_id":"4","last_reported":1738012099,"current_range_meters":37600,"station_id":"ce4bhqp2rcd13ifvqhng","pricing_plan_id":"cebpf4jnsgd1na2vs0mg"},{"bike_id":"3543d4b2-1b68-4e04-b04a-982b5be3e0fa","system_id":"levelo_inurba_marseille","lat":43.29423,"lon":5.38628,"is_reserved":false,"is_disabled":false,"rental_uris":{"android":"levelo://app?vid=3543d4b2-1b68-4e04-b04a-982b5be3e0fa","ios":"levelo://app?vid=3543d4b2-1b68-4e04-b04a-982b5be3e0fa"},"vehicle_type_id":"4","last_reported":1738012099,"current_range_meters":31200,"station_id":"ce4bh2h2rcd13ifvqdh0","pricing_plan_id":"cebpf4jnsgd1na2vs0mg"},{"bike_id":"ee00a9dd-941e-4f0f-ad3b-62fd438be21c","system_id":"levelo_inurba_marseille","lat":43.27999,"lon":5.40016,"is_reserved":false,"is_disabled":false,"rental_uris":{"android":"levelo://app?vid=ee00a9dd-941e-4f0f-ad3b-62fd438be21c","ios":"levelo://app?vid=ee00a9dd-941e-4f0f-ad3b-62fd438be21c"},"vehicle_type_id":"4","last_reported":1738012099,"current_range_meters":22800,"station_id":"ce4bho92rcd13ifvqh4g","pricing_plan_id":"cebpf4jnsgd1na2vs0mg"},{"bike_id":"3348ed86-e652-46a1-ac46-e0ae5b8fc32d","system_id":"levelo_inurba_marseille","lat":43.29263,"lon":5.40917,"is_reserved":false,"is_disabled":false,"rental_uris":{"android":"levelo://app?vid=3348ed86-e652-46a1-ac46-e0ae5b8fc32d","ios":"levelo://app?vid=3348ed86-e652-46a1-ac46-e0ae5b8fc32d"},"vehicle_type_id":"4","last_reported":1738012099,"current_range_meters":24800,"station_id":"ce4bh192rcd13ifvqdc0","pricing_plan_id":"cebpf4jnsgd1na2vs0mg"},{"bike_id":"dca1b3f1-bf12-4d48-b32e-51e78b8700aa","system_id":"levelo_inurba_marseille","lat":43.33064,"lon":5.39278,"is_reserved":false,"is_disabled":false,"rental_uris":{"android":"levelo://app?vid=dca1b3f1-bf12-4d48-b32e-51e78b8700aa","ios":"levelo://app?vid=dca1b3f1-bf12-4d48-b32e-51e78b8700aa"},"vehicle_type_id":"4","last_reported":1738012099,"current_range_meters":36400,"station_id":"","pricing_plan_id":"cebpf4jnsgd1na2vs0mg"},{"bike_id":"264a1604-6cd7-4a3f-af4c-c7a4e55e8b55","system_id":"levelo_inurba_marseille","lat":43.28348,"lon":5.38095,"is_reserved":false,"is_disabled":false,"rental_uris":{"android":"levelo://app?vid=264a1604-6cd7-4a3f-af4c-c7a4e55e8b55","ios":"levelo://app?vid=264a1604-6cd7-4a3f-af4c-c7a4e55e8b55"},"vehicle_type_id":"4","last_reported":1738012099,"current_range_meters":33600,"station_id":"ce4bh412rcd13ifvqdr0","pricing_plan_id":"cebpf4jnsgd1na2vs0mg"},{"bike_id":"e09de9e7-4909-4413-b590-2dea2722814c","system_id":"levelo_inurba_marseille","lat":43.23195,"lon":5.39968,"is_reserved":false,"is_disabled":false,"rental_uris":{"android":"levelo://app?vid=e09de9e7-4909-4413-b590-2dea2722814c","ios":"levelo://app?vid=e09de9e7-4909-4413-b590-2dea2722814c"},"vehicle_type_id":"4","last_reported":1738012099,"current_range_meters":38800,"station_id":"ce4bhn12rcd13ifvqgqg","pricing_plan_id":"cebpf4jnsgd1na2vs0mg"},{"bike_id":"4e819cfc-66d0-44bc-b400-a92f780cb5a7","system_id":"levelo_inurba_marseille","lat":43.33028,"lon":5.39052,"is_reserved":false,"is_disabled":false,"rental_uris":{"android":"levelo://app?vid=4e819cfc-66d0-44bc-b400-a92f780cb5a7","ios":"levelo://app?vid=4e819cfc-66d0-44bc-b400-a92f780cb5a7"},"vehicle_type_id":"4","last_reported":1738012099,"current_range_meters":36400,"station_id":"ce4bhr92rcd13ifvqhrg","pricing_plan_id":"cebpf4jnsgd1na2vs0mg"},{"bike_id":"4ee7a4b2-dea3-4f4a-a76b-2d1e4fcbcafe","system_id":"levelo_inurba_marseille","lat":43.284788,"lon":5.385312,"is_reserved":false,"is_disabled":true,"rental_uris":{"android":"levelo://app?vid=4ee7a4b2-dea3-4f4a-a76b-2d1e4fcbcafe","ios":"levelo://app?vid=4ee7a4b2-dea3-4f4a-a76b-2d1e4fcbcafe"},"vehicle_type_id":"4","last_reported":1738012099,"current_range_meters":400,"station_id":"ce4bh8p2rcd13ifvqeb0","pricing_plan_id":"cebpf4jnsgd1na2vs0mg"},{"bike_id":"f6cff910-bc08-4989-a1d4-fe0be238409e","system_id":"levelo_inurba_marseille","lat":43.31276,"lon":5.40162,"is_reserved":false,"is_disabled":false,"rental_uris":{"android":"levelo://app?vid=f6cff910-bc08-4989-a1d4-fe0be238409e","ios":"levelo://app?vid=f6cff910-bc08-4989-a1d4-fe0be238409e"},"vehicle_type_id":"4","last_reported":1738012099,"current_range_meters":9200,"station_id":"ce4bh092rcd13ifvqd30","pricing_plan_id":"cebpf4jnsgd1na2vs0mg"},{"bike_id":"283c25d8-9fc5-495b-9825-5a72a68442bd","system_id":"levelo_inurba_marseille","lat":43.29256,"lon":5.40908,"is_reserved":false,"is_disabled":true,"rental_uris":{"android":"levelo://app?vid=283c25d8-9fc5-495b-9825-5a72a68442bd","ios":"levelo://app?vid=283c25d8-9fc5-495b-9825-5a72a68442bd"},"vehicle_type_id":"4","last_reported":1738012099,"current_range_meters":800,"station_id":"ce4bh192rcd13ifvqdc0","pricing_plan_id":"cebpf4jnsgd1na2vs0mg"},{"bike_id":"245a3977-9722-42d3-af5f-09da846dbd2e","system_id":"levelo_inurba_marseille","lat":43.32288,"lon":5.38271,"is_reserved":false,"is_disabled":false,"rental_uris":{"android":"levelo://app?vid=245a3977-9722-42d3-af5f-09da846dbd2e","ios":"levelo://app?vid=245a3977-9722-42d3-af5f-09da846dbd2e"},"vehicle_type_id":"4","last_reported":1738012099,"current_range_meters":9200,"station_id":"ce4bhr12rcd13ifvqhqg","pricing_plan_id":"cebpf4jnsgd1na2vs0mg"},{"bike_id":"e3e26aee-15e1-425c-a48f-db58aa520742","system_id":"levelo_inurba_marseille","lat":43.23066,"lon":5.35493,"is_reserved":false,"is_disabled":false,"rental_uris":{"android":"levelo://app?vid=e3e26aee-15e1-425c-a48f-db58aa520742","ios":"levelo://app?vid=e3e26aee-15e1-425c-a48f-db58aa520742"},"vehicle_type_id":"4","last_reported":1738012099,"current_range_meters":38800,"station_id":"cpo3342slgdg3j2ifvpg","pricing_plan_id":"cebpf4jnsgd1na2vs0mg"},{"bike_id":"9fb813cb-e992-4585-8f3d-d25d13081f3b","system_id":"levelo_inurba_marseille","lat":43.23199,"lon":5.35558,"is_reserved":false,"is_disabled":false,"rental_uris":{"android":"levelo://app?vid=9fb813cb-e992-4585-8f3d-d25d13081f3b","ios":"levelo://app?vid=9fb813cb-e992-4585-8f3d-d25d13081f3b"},"vehicle_type_id":"4","last_reported":1738012099,"current_range_meters":6800,"station_id":"ce4bhu92rcd13ifvqi70","pricing_plan_id":"cebpf4jnsgd1na2vs0mg"},{"bike_id":"e864cbbc-cba7-44b2-84d7-57ee33d77ab6","system_id":"levelo_inurba_marseille","lat":43.24074,"lon":5.37742,"is_reserved":false,"is_disabled":false,"rental_uris":{"android":"levelo://app?vid=e864cbbc-cba7-44b2-84d7-57ee33d77ab6","ios":"levelo://app?vid=e864cbbc-cba7-44b2-84d7-57ee33d77ab6"},"vehicle_type_id":"4","last_reported":1738012099,"current_range_meters":38800,"station_id":"ce4bhnp2rcd13ifvqgvg","pricing_plan_id":"cebpf4jnsgd1na2vs0mg"},{"bike_id":"dc6f8409-18fe-4f12-8173-41780be63fde","system_id":"levelo_inurba_marseille","lat":43.30601,"lon":5.37218,"is_reserved":false,"is_disabled":false,"rental_uris":{"android":"levelo://app?vid=dc6f8409-18fe-4f12-8173-41780be63fde","ios":"levelo://app?vid=dc6f8409-18fe-4f12-8173-41780be63fde"},"vehicle_type_id":"4","last_reported":1738012099,"current_range_meters":20400,"station_id":"ce4bgqh2rcd13ifvqc4g","pricing_plan_id":"cebpf4jnsgd1na2vs0mg"},{"bike_id":"7c78a755-c7f5-4f07-a96b-621451d47948","system_id":"levelo_inurba_marseille","lat":43.29901,"lon":5.43658,"is_reserved":false,"is_disabled":false,"rental_uris":{"android":"levelo://app?vid=7c78a755-c7f5-4f07-a96b-621451d47948","ios":"levelo://app?vid=7c78a755-c7f5-4f07-a96b-621451d47948"},"vehicle_type_id":"4","last_reported":1738012099,"current_range_meters":26800,"station_id":"ce4bhpp2rcd13ifvqhfg","pricing_plan_id":"cebpf4jnsgd1na2vs0mg"},{"bike_id":"fa29864d-7300-4955-9fb1-25742b31d758","system_id":"levelo_inurba_marseille","lat":43.25006,"lon":5.38943,"is_reserved":false,"is_disabled":false,"rental_uris":{"android":"levelo://app?vid=fa29864d-7300-4955-9fb1-25742b31d758","ios":"levelo://app?vid=fa29864d-7300-4955-9fb1-25742b31d758"},"vehicle_type_id":"4","last_reported":1738012099,"current_range_meters":36800,"station_id":"ce4bhgp2rcd13ifvqfd0","pricing_plan_id":"cebpf4jnsgd1na2vs0mg"},{"bike_id":"0b0d6ec3-6f46-4620-98f9-5cf30ee487a3","system_id":"levelo_inurba_marseille","lat":43.29263,"lon":5.40913,"is_reserved":false,"is_disabled":false,"rental_uris":{"android":"levelo://app?vid=0b0d6ec3-6f46-4620-98f9-5cf30ee487a3","ios":"levelo://app?vid=0b0d6ec3-6f46-4620-98f9-5cf30ee487a3"},"vehicle_type_id":"4","last_reported":1738012099,"current_range_meters":20000,"station_id":"ce4bh192rcd13ifvqdc0","pricing_plan_id":"cebpf4jnsgd1na2vs0mg"},{"bike_id":"3fffe134-da5e-428c-b263-dc4df491080a","system_id":"levelo_inurba_marseille","lat":43.2938,"lon":5.37845,"is_reserved":false,"is_disabled":true,"rental_uris":{"android":"levelo://app?vid=3fffe134-da5e-428c-b263-dc4df491080a","ios":"levelo://app?vid=3fffe134-da5e-428c-b263-dc4df491080a"},"vehicle_type_id":"4","last_reported":1738012099,"current_range_meters":38800,"station_id":"ce4bgjh2rcd13ifvqbf0","pricing_plan_id":"cebpf4jnsgd1na2vs0mg"},{"bike_id":"4eebfb7a-3d32-47ca-a63f-6da9d5367627","system_id":"levelo_inurba_marseille","lat":43.23189,"lon":5.39987,"is_reserved":false,"is_disabled":false,"rental_uris":{"android":"levelo://app?vid=4eebfb7a-3d32-47ca-a63f-6da9d5367627","ios":"levelo://app?vid=4eebfb7a-3d32-47ca-a63f-6da9d5367627"},"vehicle_type_id":"4","last_reported":1738012099,"current_range_meters":38800,"station_id":"ce4bhn12rcd13ifvqgqg","pricing_plan_id":"cebpf4jnsgd1na2vs0mg"},{"bike_id":"aa30b428-b1dd-48b3-8c80-ce198f3ef6bd","system_id":"levelo_inurba_marseille","lat":43.29575,"lon":5.39966,"is_reserved":false,"is_disabled":false,"rental_uris":{"android":"levelo://app?vid=aa30b428-b1dd-48b3-8c80-ce198f3ef6bd","ios":"levelo://app?vid=aa30b428-b1dd-48b3-8c80-ce198f3ef6bd"},"vehicle_type_id":"4","last_reported":1738012099,"current_range_meters":24800,"station_id":"ce4bh312rcd13ifvqdj0","pricing_plan_id":"cebpf4jnsgd1na2vs0mg"},{"bike_id":"a48a4fa8-387b-4ecc-bc7a-c3f07822bf47","system_id":"levelo_inurba_marseille","lat":43.27069,"lon":5.3922,"is_reserved":false,"is_disabled":true,"rental_uris":{"android":"levelo://app?vid=a48a4fa8-387b-4ecc-bc7a-c3f07822bf47","ios":"levelo://app?vid=a48a4fa8-387b-4ecc-bc7a-c3f07822bf47"},"vehicle_type_id":"4","last_reported":1738012099,"current_range_meters":0,"station_id":"","pricing_plan_id":"cebpf4jnsgd1na2vs0mg"},{"bike_id":"345c8dbb-b0ef-4c2b-8c6d-1df26a9b6b54","system_id":"levelo_inurba_marseille","lat":43.28577,"lon":5.39486,"is_reserved":false,"is_disabled":false,"rental_uris":{"android":"levelo://app?vid=345c8dbb-b0ef-4c2b-8c6d-1df26a9b6b54","ios":"levelo://app?vid=345c8dbb-b0ef-4c2b-8c6d-1df26a9b6b54"},"vehicle_type_id":"4","last_reported":1738012099,"current_range_meters":14800,"station_id":"ce4bh292rcd13ifvqdg0","pricing_plan_id":"cebpf4jnsgd1na2vs0mg"},{"bike_id":"41fadb08-6384-431a-8fb7-83982b88c53e","system_id":"levelo_inurba_marseille","lat":43.30461,"lon":5.37901,"is_reserved":false,"is_disabled":true,"rental_uris":{"android":"levelo://app?vid=41fadb08-6384-431a-8fb7-83982b88c53e","ios":"levelo://app?vid=41fadb08-6384-431a-8fb7-83982b88c53e"},"vehicle_type_id":"4","last_reported":1738012099,"current_range_meters":38400,"station_id":"ce4bgup2rcd13ifvqcn0","pricing_plan_id":"cebpf4jnsgd1na2vs0mg"},{"bike_id":"a8d0380b-0a88-41c3-845f-e00ffb2cbc88","system_id":"levelo_inurba_marseille","lat":43.27995,"lon":5.40042,"is_reserved":false,"is_disabled":true,"rental_uris":{"android":"levelo://app?vid=a8d0380b-0a88-41c3-845f-e00ffb2cbc88","ios":"levelo://app?vid=a8d0380b-0a88-41c3-845f-e00ffb2cbc88"},"vehicle_type_id":"4","last_reported":1738012099,"current_range_meters":28800,"station_id":"ce4bho92rcd13ifvqh4g","pricing_plan_id":"cebpf4jnsgd1na2vs0mg"},{"bike_id":"960c2b1e-93ba-4e0e-baf5-fd8a6baa3c6b","system_id":"levelo_inurba_marseille","lat":43.258655,"lon":5.39896,"is_reserved":false,"is_disabled":true,"rental_uris":{"android":"levelo://app?vid=960c2b1e-93ba-4e0e-baf5-fd8a6baa3c6b","ios":"levelo://app?vid=960c2b1e-93ba-4e0e-baf5-fd8a6baa3c6b"},"vehicle_type_id":"4","last_reported":1738012099,"current_range_meters":35600,"station_id":"ce4bhl92rcd13ifvqghg","pricing_plan_id":"cebpf4jnsgd1na2vs0mg"},{"bike_id":"688eea87-7c36-4baa-b6b9-0ba0449d07a2","system_id":"levelo_inurba_marseille","lat":43.28073,"lon":5.39642,"is_reserved":false,"is_disabled":true,"rental_uris":{"android":"levelo://app?vid=688eea87-7c36-4baa-b6b9-0ba0449d07a2","ios":"levelo://app?vid=688eea87-7c36-4baa-b6b9-0ba0449d07a2"},"vehicle_type_id":"4","last_reported":1738012099,"current_range_meters":6800,"station_id":"ce4bho12rcd13ifvqh2g","pricing_plan_id":"cebpf4jnsgd1na2vs0mg"},{"bike_id":"45e6b442-e268-4e44-9ee5-26be19d09577","system_id":"levelo_inurba_marseille","lat":43.2868,"lon":5.38651,"is_reserved":false,"is_disabled":false,"rental_uris":{"android":"levelo://app?vid=45e6b442-e268-4e44-9ee5-26be19d09577","ios":"levelo://app?vid=45e6b442-e268-4e44-9ee5-26be19d09577"},"vehicle_type_id":"4","last_reported":1738012099,"current_range_meters":26000,"station_id":"ce4bh492rcd13ifvqdug","pricing_plan_id":"cebpf4jnsgd1na2vs0mg"},{"bike_id":"a0647e71-4b64-4904-b96b-b4b0aa493cec","system_id":"levelo_inurba_marseille","lat":43.30333,"lon":5.40436,"is_reserved":false,"is_disabled":false,"rental_uris":{"android":"levelo://app?vid=a0647e71-4b64-4904-b96b-b4b0aa493cec","ios":"levelo://app?vid=a0647e71-4b64-4904-b96b-b4b0aa493cec"},"vehicle_type_id":"4","last_reported":1738012099,"current_range_meters":38800,"station_id":"ce4bh012rcd13ifvqd10","pricing_plan_id":"cebpf4jnsgd1na2vs0mg"},{"bike_id":"01e89c12-e287-478f-839d-417255885fd2","system_id":"levelo_inurba_marseille","lat":43.28445,"lon":5.39192,"is_reserved":false,"is_disabled":false,"rental_uris":{"android":"levelo://app?vid=01e89c12-e287-478f-839d-417255885fd2","ios":"levelo://app?vid=01e89c12-e287-478f-839d-417255885fd2"},"vehicle_type_id":"4","last_reported":1738012099,"current_range_meters":37600,"station_id":"ce4bhoh2rcd13ifvqh5g","pricing_plan_id":"cebpf4jnsgd1na2vs0mg"},{"bike_id":"8f123f58-2803-4f70-aa06-7d428b4ad0fc","system_id":"levelo_inurba_marseille","lat":43.28614,"lon":5.35118,"is_reserved":false,"is_disabled":false,"rental_uris":{"android":"levelo://app?vid=8f123f58-2803-4f70-aa06-7d428b4ad0fc","ios":"levelo://app?vid=8f123f58-2803-4f70-aa06-7d428b4ad0fc"},"vehicle_type_id":"4","last_reported":1738012099,"current_range_meters":12400,"station_id":"ce4bhch2rcd13ifvqeug","pricing_plan_id":"cebpf4jnsgd1na2vs0mg"},{"bike_id":"dac1835c-b318-41bf-a911-ee689140b118","system_id":"levelo_inurba_marseille","lat":43.29273,"lon":5.36851,"is_reserved":false,"is_disabled":false,"rental_uris":{"android":"levelo://app?vid=dac1835c-b318-41bf-a911-ee689140b118","ios":"levelo://app?vid=dac1835c-b318-41bf-a911-ee689140b118"},"vehicle_type_id":"4","last_reported":1738012099,"current_range_meters":30000,"station_id":"ce4bhbp2rcd13ifvqesg","pricing_plan_id":"cebpf4jnsgd1na2vs0mg"},{"bike_id":"a1b3de43-27e7-4f5d-b1bd-ddd4cb20dc76","system_id":"levelo_inurba_marseille","lat":43.29205,"lon":5.39319,"is_reserved":false,"is_disabled":false,"rental_uris":{"android":"levelo://app?vid=a1b3de43-27e7-4f5d-b1bd-ddd4cb20dc76","ios":"levelo://app?vid=a1b3de43-27e7-4f5d-b1bd-ddd4cb20dc76"},"vehicle_type_id":"4","last_reported":1738012099,"current_range_meters":38800,"station_id":"ce4bh192rcd13ifvqdd0","pricing_plan_id":"cebpf4jnsgd1na2vs0mg"},{"bike_id":"c438c788-2c8f-4eda-8233-a8485c23c4af","system_id":"levelo_inurba_marseille","lat":43.30353,"lon":5.41319,"is_reserved":false,"is_disabled":true,"rental_uris":{"android":"levelo://app?vid=c438c788-2c8f-4eda-8233-a8485c23c4af","ios":"levelo://app?vid=c438c788-2c8f-4eda-8233-a8485c23c4af"},"vehicle_type_id":"4","last_reported":1738012099,"current_range_meters":0,"station_id":"","pricing_plan_id":"cebpf4jnsgd1na2vs0mg"},