{"last_updated":1748525000,"ttl":60,"version":"2.2","data":{"bikes":[{"bike_id":"55d42eeb-6b71-4987-a0f2-3d758b10d43e","system_id":"levelo_inurba_marseille","lat":43.33771,"lon":5.37424,"is_reserved":false,"is_disabled":true,"rental_uris":{"android":"levelo://app?vid=55d42eeb-6b71-4987-a0f2-3d758b10d43e","ios":"levelo://app?vid=55d42eeb-6b71-4987-a0f2-3d758b10d43e"},"vehicle_type_id":"4","last_reported":1748525000,"current_range_meters":0,"station_id":"","pricing_plan_id":"cebpf4jnsgd1na2vs0mg"},{"bike_id":"b7fe4621-b706-42f0-9085-4811142f84e8","system_id":"levelo_inurba_marseille","lat":43.337499,"lon":5.374469,"is_reserved":false,"is_disabled":true,"rental_uris":{"android":"levelo://app?vid=b7fe4621-b706-42f0-9085-4811142f84e8","ios":"levelo://app?vid=b7fe4621-b706-42f0-9085-4811142f84e8"},"vehicle_type_id":"4","last_reported":1748525000,"current_range_meters":0,"station_id":"","pricing_plan_id":"cebpf4jnsgd1na2vs0mg"},{"bike_id":"ad402f0f-3192-410c-afac-8cf064a40c6d","system_id":"levelo_inurba_marseille","lat":43.337444,"lon":5.374475,"is_reserved":false,"is_disabled":true,"rental_uris":{"android":"levelo://app?vid=ad402f0f-3192-410c-afac-8cf064a40c6d","ios":"levelo://app?vid=ad402f0f-3192-410c-afac-8cf064a40c6d"},"vehicle_type_id":"4","last_reported":1748525000,"current_range_meters":0,"station_id":"","pricing_plan_id":"cebpf4jnsgd1na2vs0mg"},{"bike_id":"92d5ef00-5edd-4684-8816-5ee0d82a46cd","system_id":"levelo_inurba_marseille","lat":43.28262,"lon":5.35073,"is_reserved":false,"is_disabled":true,"rental_uris":{"android":"levelo://app?vid=92d5ef00-5edd-4684-8816-5ee0d82a46cd","ios":"levelo://app?vid=92d5ef00-5edd-4684-8816-5ee0d82a46cd"},"vehicle_type_id":"4","last_reported":1748525000,"current_range_meters":0,"station_id":"","pricing_plan_id":"cebpf4jnsgd1na2vs0mg"},{"bike_id":"49a884c6-32c5-4489-8361-5676db2be1d3","system_id":"levelo_inurba_marseille","lat":43.30469,"lon":5.37101,"is_reserved":false,"is_disabled":true,"rental_uris":{"android":"levelo://app?vid=49a884c6-32c5-4489-8361-5676db2be1d3","ios":"levelo://app?vid=49a884c6-32c5-4489-8361-5676db2be1d3"},"vehicle_type_id":"4","last_reported":1748525000,"current_range_meters":0,"station_id":"","pricing_plan_id":"cebpf4jnsgd1na2vs0mg"},{"bike_id":"80dc1064-d63f-4a22-ad21-d8abd70986c0","system_id":"levelo_inurba_marseille","lat":43.33712,"lon":5.37626,"is_reserved":false,"is_disabled":true,"rental_uris":{"android":"levelo://app?vid=80dc1064-d63f-4a22-ad21-d8abd70986c0","ios":"levelo://app?vid=80dc1064-d63f-4a22-ad21-d8abd70986c0"},"vehicle_type_id":"4","last_reported":1748525000,"current_range_meters":0,"station_id":"","pricing_plan_id":"cebpf4jnsgd1na2vs0mg"},{"bike_id":"11496118-9302-4618-87c2-a5651dd78a93","system_id":"levelo_inurba_marseille","lat":43.28864,"lon":5.3593,"is_reserved":false,"is_disabled":true,"rental_uris":{"android":"levelo://app?vid=11496118-9302-4618-87c2-a5651dd78a93","ios":"levelo://app?vid=11496118-9302-4618-87c2-a5651dd78a93"},"vehicle_type_id":"4","last_reported":1748525000,"current_range_meters":0,"station_id":"","pricing_plan_id":"cebpf4jnsgd1na2vs0mg"},{"bike_id":"7f9bdcaf-4217-4932-be91-52b5120d5ca8","system_id":"levelo_inurba_marseille","lat":43.26337,"lon":5.40147,"is_reserved":false,"is_disabled":true,"rental_uris":{"android":"levelo://app?vid=7f9bdcaf-4217-4932-be91-52b5120d5ca8","ios":"levelo://app?vid=7f9bdcaf-4217-4932-be91-52b5120d5ca8"},"vehicle_type_id":"4","last_reported":1748525000,"current_range_meters":0,"station_id":"","pricing_plan_id":"cebpf4jnsgd1na2vs0mg"},{"bike_id":"2fd7e160-685c-4858-b57b-dcaef27a8e94","system_id":"levelo_inurba_marseille","lat":43.230331,"lon":5.401847,"is_reserved":false,"is_disabled":true,"rental_uris":{"android":"levelo://app?vid=2fd7e160-685c-4858-b57b-dcaef27a8e94","ios":"levelo://app?vid=2fd7e160-685c-4858-b57b-dcaef27a8e94"},"vehicle_type_id":"4","last_reported":1748525000,"current_range_meters":0,"station_id":"","pricing_plan_id":"cebpf4jnsgd1na2vs0mg"},{"bike_id":"05a8e64a-ce28-40d7-8276-27db93600b91","system_id":"levelo_inurba_marseille","lat":43.2893,"lon":5.38395,"is_reserved":false,"is_disabled":true,"rental_uris":{"android":"levelo://app?vid=05a8e64a-ce28-40d7-8276-27db93600b91","ios":"levelo://app?vid=05a8e64a-ce28-40d7-8276-27db93600b91"},"vehicle_type_id":"4","last_reported":1748525000,"current_range_meters":0,"station_id":"ce4bh612rcd13ifvqe6g","pricing_plan_id":"cebpf4jnsgd1na2vs0mg"},{"bike_id":"46f9a8e1-6e79-4be8-b840-02b41fbd8ff7","system_id":"levelo_inurba_marseille","lat":43.28423,"lon":5.34976,"is_reserved":false,"is_disabled":true,"rental_uris":{"android":"levelo://app?vid=46f9a8e1-6e79-4be8-b840-02b41fbd8ff7","ios":"levelo://app?vid=46f9a8e1-6e79-4be8-b840-02b41fbd8ff7"},"vehicle_type_id":"4","last_reported":1748525000,"current_range_meters":0,"station_id":"ce4bhbh2rcd13ifvqepg","pricing_plan_id":"cebpf4jnsgd1na2vs0mg"},{"bike_id":"79030057-4551-46c4-adba-9d837107ecc7","system_id":"levelo_inurba_marseille","lat":43.29232,"lon":5.36078,"is_reserved":false,"is_disabled":true,"rental_uris":{"android":"levelo://app?vid=79030057-4551-46c4-adba-9d837107ecc7","ios":"levelo://app?vid=79030057-4551-46c4-adba-9d837107ecc7"},"vehicle_type_id":"4","last_reported":1748525000,"current_range_meters":0,"station_id":"ce4bhbh2rcd13ifvqeqg","pricing_plan_id":"cebpf4jnsgd1na2vs0mg"},{"bike_id":"88af28f6-8f6f-49ef-9bbb-367de3b07193","system_id":"levelo_inurba_marseille","lat":43.26561,"lon":5.37294,"is_reserved":false,"is_disabled":true,"rental_uris":{"android":"levelo://app?vid=88af28f6-8f6f-49ef-9bbb-367de3b07193","ios":"levelo://app?vid=88af28f6-8f6f-49ef-9bbb-367de3b07193"},"vehicle_type_id":"4","last_reported":1748525000,"current_range_meters":0,"station_id":"ce4bhg12rcd13ifvqf70","pricing_plan_id":"cebpf4jnsgd1na2vs0mg"},{"bike_id":"85b041a6-bb44-4a56-840d-0679070beb8e","system_id":"levelo_inurba_marseille","lat":43.2621,"lon":5.37445,"is_reserved":false,"is_disabled":true,"rental_uris":{"android":"levelo://app?vid=85b041a6-bb44-4a56-840d-0679070beb8e","ios":"levelo://app?vid=85b041a6-bb44-4a56-840d-0679070beb8e"},"vehicle_type_id":"4","last_reported":1748525000,"current_range_meters":0,"station_id":"ce4bhgp2rcd13ifvqfc0","pricing_plan_id":"cebpf4jnsgd1na2vs0mg"},{"bike_id":"b3ddc3fc-eeda-4439-ba62-9a8c21019159","system_id":"levelo_inurba_marseille","lat":43.25494,"lon":5.37652,"is_reserved":false,"is_disabled":true,"rental_uris":{"android":"levelo://app?vid=b3ddc3fc-eeda-4439-ba62-9a8c21019159","ios":"levelo://app?vid=b3ddc3fc-eeda-4439-ba62-9a8c21019159"},"vehicle_type_id":"4","last_reported":1748525000,"current_range_meters":0,"station_id":"ce4bhh12rcd13ifvqff0","pricing_plan_id":"cebpf4jnsgd1na2vs0mg"},{"bike_id":"db564924-eaa9-4c8e-958e-0610bf889e19","system_id":"levelo_inurba_marseille","lat":43.27202,"lon":5.3919,"is_reserved":false,"is_disabled":true,"rental_uris":{"android":"levelo://app?vid=db564924-eaa9-4c8e-958e-0610bf889e19","ios":"levelo://app?vid=db564924-eaa9-4c8e-958e-0610bf889e19"},"vehicle_type_id":"4","last_reported":1748525000,"current_range_meters":0,"station_id":"ce4bhhp2rcd13ifvqfm0","pricing_plan_id":"cebpf4jnsgd1na2vs0mg"},{"bike_id":"0d76e503-0427-40b1-9eb7-acadbf88563e","system_id":"levelo_inurba_marseille","lat":43.27063,"lon":5.42286,"is_reserved":false,"is_disabled":true,"rental_uris":{"android":"levelo://app?vid=0d76e503-0427-40b1-9eb7-acadbf88563e","ios":"levelo://app?vid=0d76e503-0427-40b1-9eb7-acadbf88563e"},"vehicle_type_id":"4","last_reported":1748525000,"current_range_meters":0,"station_id":"ce4bhk92rcd13ifvqgb0","pricing_plan_id":"cebpf4jnsgd1na2vs0mg"},{"bike_id":"0919fb58-232e-4ff6-a80e-2b1f2d93d3cf","system_id":"levelo_inurba_marseille","lat":43.2315,"lon":5.43724,"is_reserved":false,"is_disabled":true,"rental_uris":{"android":"levelo://app?vid=0919fb58-232e-4ff6-a80e-2b1f2d93d3cf","ios":"levelo://app?vid=0919fb58-232e-4ff6-a80e-2b1f2d93d3cf"},"vehicle_type_id":"4","last_reported":1748525000,"current_range_meters":0,"station_id":"ce4bhmp2rcd13ifvqgog","pricing_plan_id":"cebpf4jnsgd1na2vs0mg"},{"bike_id":"6feb0682-b64d-44b1-b299-bf634ffe7a42","system_id":"levelo_inurba_marseille","lat":43.2319,"lon":5.399862,"is_reserved":false,"is_disabled":true,"rental_uris":{"android":"levelo://app?vid=6feb0682-b64d-44b1-b299-bf634ffe7a42","ios":"levelo://app?vid=6feb0682-b64d-44b1-b299-bf634ffe7a42"},"vehicle_type_id":"4","last_reported":1748525000,"current_range_meters":0,"station_id":"ce4bhn12rcd13ifvqgqg","pricing_plan_id":"cebpf4jnsgd1na2vs0mg"},{"bike_id":"e0f3f54d-4e6e-4cd8-8266-0d35d27db2bb","system_id":"levelo_inurba_marseille","lat":43.23187,"lon":5.35559,"is_reserved":false,"is_disabled":true,"rental_uris":{"android":"levelo://app?vid=e0f3f54d-4e6e-4cd8-8266-0d35d27db2bb","ios":"levelo://app?vid=e0f3f54d-4e6e-4cd8-8266-0d35d27db2bb"},"vehicle_type_id":"4","last_reported":1748525000,"current_range_meters":0,"station_id":"ce4bhu92rcd13ifvqi70","pricing_plan_id":"cebpf4jnsgd1na2vs0mg"},{"bike_id":"ecbdbf46-9056-4a5f-bf09-cefcb2d2cd53","system_id":"levelo_inurba_marseille","lat":43.23193,"lon":5.35551,"is_reserved":false,"is_disabled":true,"rental_uris":{"android":"levelo://app?vid=ecbdbf46-9056-4a5f-bf09-cefcb2d2cd53","ios":"levelo://app?vid=ecbdbf46-9056-4a5f-bf09-cefcb2d2cd53"},"vehicle_type_id":"4","last_reported":1748525000,"current_range_meters":0,"station_id":"ce4bhu92rcd13ifvqi70","pricing_plan_id":"cebpf4jnsgd1na2vs0mg"},{"bike_id":"e4140243-3c1c-40d6-8c10-af5ef76bcc5d","system_id":"levelo_inurba_marseille","lat":43.21192,"lon":5.35071,"is_reserved":false,"is_disabled":true,"rental_uris":{"android":"levelo://app?vid=e4140243-3c1c-40d6-8c10-af5ef76bcc5d","ios":"levelo://app?vid=e4140243-3c1c-40d6-8c10-af5ef76bcc5d"},"vehicle_type_id":"4","last_reported":1748525000,"current_range_meters":0,"station_id":"st_cvj6sg6p6f1abm77japg","pricing_plan_id":"cebpf4jnsgd1na2vs0mg"},{"bike_id":"6e3b8b35-cc1b-490b-841c-a7be45e5db29","system_id":"levelo_inurba_marseille","lat":43.27374,"lon":5.36265,"is_reserved":false,"is_disabled":true,"rental_uris":{"android":"levelo://app?vid=6e3b8b35-cc1b-490b-841c-a7be45e5db29","ios":"levelo://app?vid=6e3b8b35-cc1b-490b-841c-a7be45e5db29"},"vehicle_type_id":"4","last_reported":1748525000,"current_range_meters":400,"station_id":"","pricing_plan_id":"cebpf4jnsgd1na2vs0mg"},{"bike_id":"f622bd62-c9b6-4d02-bf6e-65c8304fd713","system_id":"levelo_inurba_marseille","lat":43.25501,"lon":5.37647,"is_reserved":false,"is_disabled":true,"rental_uris":{"android":"levelo://app?vid=f622bd62-c9b6-4d02-bf6e-65c8304fd713","ios":"levelo://app?vid=f622bd62-c9b6-4d02-bf6e-65c8304fd713"},"vehicle_type_id":"4","last_reported":1748525000,"current_range_meters":400,"station_id":"ce4bhh12rcd13ifvqff0","pricing_plan_id":"cebpf4jnsgd1na2vs0mg"},{"bike_id":"324df3a1-1395-4c2d-8002-df14e2a966b6","system_id":"levelo_inurba_marseille","lat":43.24178,"lon":5.36389,"is_reserved":false,"is_disabled":true,"rental_uris":{"android":"levelo://app?vid=324df3a1-1395-4c2d-8002-df14e2a966b6","ios":"levelo://app?vid=324df3a1-1395-4c2d-8002-df14e2a966b6"},"vehicle_type_id":"4","last_reported":1748525000,"current_range_meters":400,"station_id":"cpo36qri1sfpv3e86is0","pricing_plan_id":"cebpf4jnsgd1na2vs0mg"},{"bike_id":"faf86b63-cde3-4846-ad01-27a32b7c2448","system_id":"levelo_inurba_marseille","lat":43.28488,"lon":5.38455,"is_reserved":false,"is_disabled":true,"rental_uris":{"android":"levelo://app?vid=faf86b63-cde3-4846-ad01-27a32b7c2448","ios":"levelo://app?vid=faf86b63-cde3-4846-ad01-27a32b7c2448"},"vehicle_type_id":"4","last_reported":1748525000,"current_range_meters":800,"station_id":"ce4bh512rcd13ifvqe3g","pricing_plan_id":"cebpf4jnsgd1na2vs0mg"},{"bike_id":"4adc5412-4f43-454e-a27a-309475fcd202","system_id":"levelo_inurba_marseille","lat":43.27979,"lon":5.387436,"is_reserved":false,"is_disabled":true,"rental_uris":{"android":"levelo://app?vid=4adc5412-4f43-454e-a27a-309475fcd202","ios":"levelo://app?vid=4adc5412-4f43-454e-a27a-309475fcd202"},"vehicle_type_id":"4","last_reported":1748525000,"current_range_meters":800,"station_id":"ce4bhg12rcd13ifvqf80","pricing_plan_id":"cebpf4jnsgd1na2vs0mg"},{"bike_id":"0ca390ba-b847-4f7b-943b-0757b6a45127","system_id":"levelo_inurba_marseille","lat":43.24171,"lon":5.36404,"is_reserved":false,"is_disabled":true,"rental_uris":{"android":"levelo://app?vid=0ca390ba-b847-4f7b-943b-0757b6a45127","ios":"levelo://app?vid=0ca390ba-b847-4f7b-943b-0757b6a45127"},"vehicle_type_id":"4","last_reported":1748525000,"current_range_meters":800,"station_id":"cpo36qri1sfpv3e86is0","pricing_plan_id":"cebpf4jnsgd1na2vs0mg"},{"bike_id":"a2bfea14-5883-4110-901e-ddff2e1e7dde","system_id":"levelo_inurba_marseille","lat":43.27918,"lon":5.39574,"is_reserved":false,"is_disabled":true,"rental_uris":{"android":"levelo://app?vid=a2bfea14-5883-4110-901e-ddff2e1e7dde","ios":"levelo://app?vid=a2bfea14-5883-4110-901e-ddff2e1e7dde"},"vehicle_type_id":"4","last_reported":1748525000,"current_range_meters":1200,"station_id":"ce4bhf92rcd13ifvqf40","pricing_plan_id":"cebpf4jnsgd1na2vs0mg"},{"bike_id":"397615b6-f695-4e12-97a7-b97d738e1d02","system_id":"levelo_inurba_marseille","lat":43.27969,"lon":5.38735,"is_reserved":false,"is_disabled":true,"rental_uris":{"android":"levelo://app?vid=397615b6-f695-4e12-97a7-b97d738e1d02","ios":"levelo://app?vid=397615b6-f695-4e12-97a7-b97d738e1d02"},"vehicle_type_id":"4","last_reported":1748525000,"current_range_meters":1200,"station_id":"ce4bhg12rcd13ifvqf80","pricing_plan_id":"cebpf4jnsgd1na2vs0mg"},{"bike_id":"3dcfcdc2-0201-4420-95c5-21159fabe918","system_id":"levelo_inurba_marseille","lat":43.25495,"lon":5.37646,"is_reserved":false,"is_disabled":true,"rental_uris":{"android":"levelo://app?vid=3dcfcdc2-0201-4420-95c5-21159fabe918","ios":"levelo://app?vid=3dcfcdc2-0201-4420-95c5-21159fabe918"},"vehicle_type_id":"4","last_reported":1748525000,"current_range_meters":1200,"station_id":"ce4bhh12rcd13ifvqff0","pricing_plan_id":"cebpf4jnsgd1na2vs0mg"},{"bike_id":"0288913b-c4d7-487f-acfc-a3d9d5cfa4f7","system_id":"levelo_inurba_marseille","lat":43.24656,"lon":5.38153,"is_reserved":false,"is_disabled":true,"rental_uris":{"android":"levelo://app?vid=0288913b-c4d7-487f-acfc-a3d9d5cfa4f7","ios":"levelo://app?vid=0288913b-c4d7-487f-acfc-a3d9d5cfa4f7"},"vehicle_type_id":"4","last_reported":1748525000,"current_range_meters":1200,"station_id":"ce4bhih2rcd13ifvqfr0","pricing_plan_id":"cebpf4jnsgd1na2vs0mg"},{"bike_id":"aa65ca4f-c082-4513-bd14-2e984aa1f5f9","system_id":"levelo_inurba_marseille","lat":43.25926,"lon":5.40876,"is_reserved":false,"is_disabled":true,"rental_uris":{"android":"levelo://app?vid=aa65ca4f-c082-4513-bd14-2e984aa1f5f9","ios":"levelo://app?vid=aa65ca4f-c082-4513-bd14-2e984aa1f5f9"},"vehicle_type_id":"4","last_reported":1748525000,"current_range_meters":1200,"station_id":"ce4bhm92rcd13ifvqglg","pricing_plan_id":"cebpf4jnsgd1na2vs0mg"},{"bike_id":"e44bd5b9-7b69-405d-b26b-b3057f4a0448","system_id":"levelo_inurba_marseille","lat":43.27598,"lon":5.36097,"is_reserved":false,"is_disabled":true,"rental_uris":{"android":"levelo://app?vid=e44bd5b9-7b69-405d-b26b-b3057f4a0448","ios":"levelo://app?vid=e44bd5b9-7b69-405d-b26b-b3057f4a0448"},"vehicle_type_id":"4","last_reported":1748525000,"current_range_meters":1600,"station_id":"ce4bgj92rcd13ifvqbe0","pricing_plan_id":"cebpf4jnsgd1na2vs0mg"},{"bike_id":"b31f9b85-473d-4a84-86e6-9c1b87c04d61","system_id":"levelo_inurba_marseille","lat":43.2835,"lon":5.38102,"is_reserved":false,"is_disabled":true,"rental_uris":{"android":"levelo://app?vid=b31f9b85-473d-4a84-86e6-9c1b87c04d61","ios":"levelo://app?vid=b31f9b85-473d-4a84-86e6-9c1b87c04d61"},"vehicle_type_id":"4","last_reported":1748525000,"current_range_meters":1600,"station_id":"ce4bh412rcd13ifvqdr0","pricing_plan_id":"cebpf4jnsgd1na2vs0mg"},{"bike_id":"40380b1b-efdb-4208-b9bc-eac19616f561","system_id":"levelo_inurba_marseille","lat":43.28858,"lon":5.35851,"is_reserved":false,"is_disabled":true,"rental_uris":{"android":"levelo://app?vid=40380b1b-efdb-4208-b9bc-eac19616f561","ios":"levelo://app?vid=40380b1b-efdb-4208-b9bc-eac19616f561"},"vehicle_type_id":"4","last_reported":1748525000,"current_range_meters":1600,"station_id":"ce4bhb12rcd13ifvqem0","pricing_plan_id":"cebpf4jnsgd1na2vs0mg"},{"bike_id":"c7c3c5e5-b14c-4225-93ac-bba937226621","system_id":"levelo_inurba_marseille","lat":43.26192,"lon":5.37448,"is_reserved":false,"is_disabled":true,"rental_uris":{"android":"levelo://app?vid=c7c3c5e5-b14c-4225-93ac-bba937226621","ios":"levelo://app?vid=c7c3c5e5-b14c-4225-93ac-bba937226621"},"vehicle_type_id":"4","last_reported":1748525000,"current_range_meters":1600,"station_id":"ce4bhgp2rcd13ifvqfc0","pricing_plan_id":"cebpf4jnsgd1na2vs0mg"},{"bike_id":"29822296-cb5d-4fed-bfb2-3043a838d391","system_id":"levelo_inurba_marseille","lat":43.2439,"lon":5.37059,"is_reserved":false,"is_disabled":true,"rental_uris":{"android":"levelo://app?vid=29822296-cb5d-4fed-bfb2-3043a838d391","ios":"levelo://app?vid=29822296-cb5d-4fed-bfb2-3043a838d391"},"vehicle_type_id":"4","last_reported":1748525000,"current_range_meters":1600,"station_id":"ce4bhhh2rcd13ifvqfk0","pricing_plan_id":"cebpf4jnsgd1na2vs0mg"},{"bike_id":"953a7bc8-e367-44de-9318-a0b27a3ded64","system_id":"levelo_inurba_marseille","lat":43.273764,"lon":5.362572,"is_reserved":false,"is_disabled":true,"rental_uris":{"android":"levelo://app?vid=953a7bc8-e367-44de-9318-a0b27a3ded64","ios":"levelo://app?vid=953a7bc8-e367-44de-9318-a0b27a3ded64"},"vehicle_type_id":"4","last_reported":1748525000,"current_range_meters":2000,"station_id":"","pricing_plan_id":"cebpf4jnsgd1na2vs0mg"},{"bike_id":"c45c9ae1-78ab-4071-a365-7cc3422f55cc","system_id":"levelo_inurba_marseille","lat":43.27569,"lon":5.38417,"is_reserved":false,"is_disabled":false,"rental_uris":{"android":"levelo://app?vid=c45c9ae1-78ab-4071-a365-7cc3422f55cc","ios":"levelo://app?vid=c45c9ae1-78ab-4071-a365-7cc3422f55cc"},"vehicle_type_id":"4","last_reported":1748525000,"current_range_meters":2000,"station_id":"ce4bhh92rcd13ifvqfi0","pricing_plan_id":"cebpf4jnsgd1na2vs0mg"},{"bike_id":"61d6ceb5-9209-4a70-ab85-e427725e1763","system_id":"levelo_inurba_marseille","lat":43.337444,"lon":5.374475,"is_reserved":false,"is_disabled":false,"rental_uris":{"android":"levelo://app?vid=61d6ceb5-9209-4a70-ab85-e427725e1763","ios":"levelo://app?vid=61d6ceb5-9209-4a70-ab85-e427725e1763"},"vehicle_type_id":"4","last_reported":1748525000,"current_range_meters":2800,"station_id":"","pricing_plan_id":"cebpf4jnsgd1na2vs0mg"},{"bike_id":"b62db144-5f77-4888-9f7b-b2e17963e7ff","system_id":"levelo_inurba_marseille","lat":43.26563,"lon":5.37275,"is_reserved":false,"is_disabled":false,"rental_uris":{"android":"levelo://app?vid=b62db144-5f77-4888-9f7b-b2e17963e7ff","ios":"levelo://app?vid=b62db144-5f77-4888-9f7b-b2e17963e7ff"},"vehicle_type_id":"4","last_reported":1748525000,"current_range_meters":2800,"station_id":"ce4bhg12rcd13ifvqf70","pricing_plan_id":"cebpf4jnsgd1na2vs0mg"},{"bike_id":"8a304a27-6eb3-4922-ac25-fbdd2e024a07","system_id":"levelo_inurba_marseille","lat":43.27835,"lon":5.39209,"is_reserved":false,"is_disabled":false,"rental_uris":{"android":"levelo://app?vid=8a304a27-6eb3-4922-ac25-fbdd2e024a07","ios":"levelo://app?vid=8a304a27-6eb3-4922-ac25-fbdd2e024a07"},"vehicle_type_id":"4","last_reported":1748525000,"current_range_meters":2800,"station_id":"ce4bhjp2rcd13ifvqga0","pricing_plan_id":"cebpf4jnsgd1na2vs0mg"},{"bike_id":"fc748fc9-1056-44c2-9eae-a5deed27208a","system_id":"levelo_inurba_marseille","lat":43.316925,"lon":5.404729,"is_reserved":false,"is_disabled":false,"rental_uris":{"android":"levelo://app?vid=fc748fc9-1056-44c2-9eae-a5deed27208a","ios":"levelo://app?vid=fc748fc9-1056-44c2-9eae-a5deed27208a"},"vehicle_type_id":"4","last_reported":1748525000,"current_range_meters":3200,"station_id":"ce4bh012rcd13ifvqd00","pricing_plan_id":"cebpf4jnsgd1na2vs0mg"},{"bike_id":"37e380b5-ee96-4a44-af76-c9b7668196bd","system_id":"levelo_inurba_marseille","lat":43.21752,"lon":5.34597,"is_reserved":false,"is_disabled":false,"rental_uris":{"android":"levelo://app?vid=37e380b5-ee96-4a44-af76-c9b7668196bd","ios":"levelo://app?vid=37e380b5-ee96-4a44-af76-c9b7668196bd"},"vehicle_type_id":"4","last_reported":1748525000,"current_range_meters":3200,"station_id":"st_cvj6r9ubvosntc0bgbag","pricing_plan_id":"cebpf4jnsgd1na2vs0mg"},{"bike_id":"95aa6be9-171e-4d5c-9902-09ca8cd6c55f","system_id":"levelo_inurba_marseille","lat":43.31325,"lon":5.39692,"is_reserved":false,"is_disabled":true,"rental_uris":{"android":"levelo://app?vid=95aa6be9-171e-4d5c-9902-09ca8cd6c55f","ios":"levelo://app?vid=95aa6be9-171e-4d5c-9902-09ca8cd6c55f"},"vehicle_type_id":"4","last_reported":1748525000,"current_range_meters":3600,"station_id":"ce4bgvp2rcd13ifvqcu0","pricing_plan_id":"cebpf4jnsgd1na2vs0mg"},{"bike_id":"a65e0cd9-b7e8-4ec3-9fd3-bfa5701ed14d","system_id":"levelo_inurba_marseille","lat":43.28721,"lon":5.37946,"is_reserved":false,"is_disabled":false,"rental_uris":{"android":"levelo://app?vid=a65e0cd9-b7e8-4ec3-9fd3-bfa5701ed14d","ios":"levelo://app?vid=a65e0cd9-b7e8-4ec3-9fd3-bfa5701ed14d"},"vehicle_type_id":"4","last_reported":1748525000,"current_range_meters":3600,"station_id":"ce4bh9p2rcd13ifvqec0","pricing_plan_id":"cebpf4jnsgd1na2vs0mg"},{"bike_id":"83ba2217-eb06-4910-9a5c-c936a4164d12","system_id":"levelo_inurba_marseille","lat":43.262,"lon":5.37444,"is_reserved":false,"is_disabled":false,"rental_uris":{"android":"levelo://app?vid=83ba2217-eb06-4910-9a5c-c936a4164d12","ios":"levelo://app?vid=83ba2217-eb06-4910-9a5c-c936a4164d12"},"vehicle_type_id":"4","last_reported":1748525000,"current_range_meters":3600,"station_id":"ce4bhgp2rcd13ifvqfc0","pricing_plan_id":"cebpf4jnsgd1na2vs0mg"},{"bike_id":"efddbc8f-a768-4035-8282-4f3679162f18","system_id":"levelo_inurba_marseille","lat":43.23959,"lon":5.36641,"is_reserved":false,"is_disabled":false,"rental_uris":{"android":"levelo://app?vid=efddbc8f-a768-4035-8282-4f3679162f18","ios":"levelo://app?vid=efddbc8f-a768-4035-8282-4f3679162f18"},"vehicle_type_id":"4","last_reported":1748525000,"current_range_meters":3600,"station_id":"ce4bhi12rcd13ifvqfp0","pricing_plan_id":"cebpf4jnsgd1na2vs0mg"},{"bike_id":"25290c3f-a948-48c7-aff5-25d3e21ed973","system_id":"levelo_inurba_marseille","lat":43.23962,"lon":5.36629,"is_reserved":false,"is_disabled":false,"rental_uris":{"android":"levelo://app?vid=25290c3f-a948-48c7-aff5-25d3e21ed973","ios":"levelo://app?vid=25290c3f-a948-48c7-aff5-25d3e21ed973"},"vehicle_type_id":"4","last_reported":1748525000,"current_range_meters":3600,"station_id":"ce4bhi12rcd13ifvqfp0","pricing_plan_id":"cebpf4jnsgd1na2vs0mg"},{"bike_id":"6d2b87c1-99a2-4f8f-9e86-a0be9607e375","system_id":"levelo_inurba_marseille","lat":43.23966,"lon":5.36627,"is_reserved":false,"is_disabled":false,"rental_uris":{"android":"levelo://app?vid=6d2b87c1-99a2-4f8f-9e86-a0be9607e375","ios":"levelo://app?vid=6d2b87c1-99a2-4f8f-9e86-a0be9607e375"},"vehicle_type_id":"4","last_reported":1748525000,"current_range_meters":3600,"station_id":"ce4bhi12rcd13ifvqfp0","pricing_plan_id":"cebpf4jnsgd1na2vs0mg"},{"bike_id":"0e56cf72-31ee-422d-96ea-c77459f28d90","system_id":"levelo_inurba_marseille","lat":43.21193,"lon":5.35068,"is_reserved":false,"is_disabled":false,"rental_uris":{"android":"levelo://app?vid=0e56cf72-31ee-422d-96ea-c77459f28d90","ios":"levelo://app?vid=0e56cf72-31ee-422d-96ea-c77459f28d90"},"vehicle_type_id":"4","last_reported":1748525000,"current_range_meters":3600,"station_id":"st_cvj6sg6p6f1abm77japg","pricing_plan_id":"cebpf4jnsgd1na2vs0mg"},{"bike_id":"c3a0bd73-5813-47f0-a5c8-27701041c8ba","system_id":"levelo_inurba_marseille","lat":43.27255,"lon":5.42409,"is_reserved":false,"is_disabled":false,"rental_uris":{"android":"levelo://app?vid=c3a0bd73-5813-47f0-a5c8-27701041c8ba","ios":"levelo://app?vid=c3a0bd73-5813-47f0-a5c8-27701041c8ba"},"vehicle_type_id":"4","last_reported":1748525000,"current_range_meters":4000,"station_id":"","pricing_plan_id":"cebpf4jnsgd1na2vs0mg"},{"bike_id":"7aad741d-ee61-467e-9c88-9d7d9ef814e9","system_id":"levelo_inurba_marseille","lat":43.28273,"lon":5.35061,"is_reserved":false,"is_disabled":false,"rental_uris":{"android":"levelo://app?vid=7aad741d-ee61-467e-9c88-9d7d9ef814e9","ios":"levelo://app?vid=7aad741d-ee61-467e-9c88-9d7d9ef814e9"},"vehicle_type_id":"4","last_reported":1748525000,"current_range_meters":4000,"station_id":"ce4bhbp2rcd13ifvqerg","pricing_plan_id":"cebpf4jnsgd1na2vs0mg"},{"bike_id":"4bfba859-fc96-4030-a22c-068daba352d5","system_id":"levelo_inurba_marseille","lat":43.26743,"lon":5.3947,"is_reserved":false,"is_disabled":false,"rental_uris":{"android":"levelo://app?vid=4bfba859-fc96-4030-a22c-068daba352d5","ios":"levelo://app?vid=4bfba859-fc96-4030-a22c-068daba352d5"},"vehicle_type_id":"4","last_reported":1748525000,"current_range_meters":4000,"station_id":"ce4bhh12rcd13ifvqfg0","pricing_plan_id":"cebpf4jnsgd1na2vs0mg"},{"bike_id":"7ff37228-6ae9-45f4-b1dd-6c3f3ecb4dfd","system_id":"levelo_inurba_marseille","lat":43.23196,"lon":5.35543,"is_reserved":false,"is_disabled":false,"rental_uris":{"android":"levelo://app?vid=7ff37228-6ae9-45f4-b1dd-6c3f3ecb4dfd","ios":"levelo://app?vid=7ff37228-6ae9-45f4-b1dd-6c3f3ecb4dfd"},"vehicle_type_id":"4","last_reported":1748525000,"current_range_meters":4000,"station_id":"ce4bhu92rcd13ifvqi70","pricing_plan_id":"cebpf4jnsgd1na2vs0mg"},{"bike_id":"67faa85a-9056-489e-9b04-0fef25d3980a","system_id":"levelo_inurba_marseille","lat":43.26959,"lon":5.38621,"is_reserved":false,"is_disabled":false,"rental_uris":{"android":"levelo://app?vid=67faa85a-9056-489e-9b04-0fef25d3980a","ios":"levelo://app?vid=67faa85a-9056-489e-9b04-0fef25d3980a"},"vehicle_type_id":"4","last_reported":1748525000,"current_range_meters":4400,"station_id":"ce4bhh92rcd13ifvqfh0","pricing_plan_id":"cebpf4jnsgd1na2vs0mg"},{"bike_id":"b80ee325-09b2-4724-993d-4f8d3707c41c","system_id":"levelo_inurba_marseille","lat":43.25862,"lon":5.39902,"is_reserved":false,"is_disabled":false,"rental_uris":{"android":"levelo://app?vid=b80ee325-09b2-4724-993d-4f8d3707c41c","ios":"levelo://app?vid=b80ee325-09b2-4724-993d-4f8d3707c41c"},"vehicle_type_id":"4","last_reported":1748525000,"current_range_meters":4400,"station_id":"ce4bhl92rcd13ifvqghg","pricing_plan_id":"cebpf4jnsgd1na2vs0mg"},{"bike_id":"20017ee0-dfcf-4f0f-baa0-e30928978fbb","system_id":"levelo_inurba_marseille","lat":43.22927,"lon":5.35385,"is_reserved":false,"is_disabled":false,"rental_uris":{"android":"levelo://app?vid=20017ee0-dfcf-4f0f-baa0-e30928978fbb","ios":"levelo://app?vid=20017ee0-dfcf-4f0f-baa0-e30928978fbb"},"vehicle_type_id":"4","last_reported":1748525000,"current_range_meters":4400,"station_id":"cpo3532slgdg3j2ikp40","pricing_plan_id":"cebpf4jnsgd1na2vs0mg"},{"bike_id":"9408b36c-be9b-4081-852d-3a2be4d46bdc","system_id":"levelo_inurba_marseille","lat":43.2293,"lon":5.35391,"is_reserved":false,"is_disabled":false,"rental_uris":{"android":"levelo://app?vid=9408b36c-be9b-4081-852d-3a2be4d46bdc","ios":"levelo://app?vid=9408b36c-be9b-4081-852d-3a2be4d46bdc"},"vehicle_type_id":"4","last_reported":1748525000,"current_range_meters":4400,"station_id":"cpo3532slgdg3j2ikp40","pricing_plan_id":"cebpf4jnsgd1na2vs0mg"},{"bike_id":"642f6059-de2c-4172-86e3-c25be04d3d2c","system_id":"levelo_inurba_marseille","lat":43.24808,"lon":5.37454,"is_reserved":false,"is_disabled":false,"rental_uris":{"android":"levelo://app?vid=642f6059-de2c-4172-86e3-c25be04d3d2c","ios":"levelo://app?vid=642f6059-de2c-4172-86e3-c25be04d3d2c"},"vehicle_type_id":"4","last_reported":1748525000,"current_range_meters":4800,"station_id":"ce4bhgh2rcd13ifvqfb0","pricing_plan_id":"cebpf4jnsgd1na2vs0mg"},{"bike_id":"d91e896c-52ec-4b67-a034-f8438011285a","system_id":"levelo_inurba_marseille","lat":43.26202,"lon":5.37927,"is_reserved":false,"is_disabled":false,"rental_uris":{"android":"levelo://app?vid=d91e896c-52ec-4b67-a034-f8438011285a","ios":"levelo://app?vid=d91e896c-52ec-4b67-a034-f8438011285a"},"vehicle_type_id":"4","last_reported":1748525000,"current_range_meters":4800,"station_id":"ce4bhjp2rcd13ifvqg90","pricing_plan_id":"cebpf4jnsgd1na2vs0mg"},{"bike_id":"c61d6114-7cc3-4956-bb3c-b4a6743a6b7b","system_id":"levelo_inurba_marseille","lat":43.26232,"lon":5.40453,"is_reserved":false,"is_disabled":false,"rental_uris":{"android":"levelo://app?vid=c61d6114-7cc3-4956-bb3c-b4a6743a6b7b","ios":"levelo://app?vid=c61d6114-7cc3-4956-bb3c-b4a6743a6b7b"},"vehicle_type_id":"4","last_reported":1748525000,"current_range_meters":4800,"station_id":"ce4bhmh2rcd13ifvqgmg","pricing_plan_id":"cebpf4jnsgd1na2vs0mg"},{"bike_id":"4d0ab1ea-f35e-4f3c-94d0-a99035b5b753","system_id":"levelo_inurba_marseille","lat":43.29028,"lon":5.35556,"is_reserved":false,"is_disabled":false,"rental_uris":{"android":"levelo://app?vid=4d0ab1ea-f35e-4f3c-94d0-a99035b5b753","ios":"levelo://app?vid=4d0ab1ea-f35e-4f3c-94d0-a99035b5b753"},"vehicle_type_id":"4","last_reported":1748525000,"current_range_meters":5600,"station_id":"ce4bhb92rcd13ifvqen0","pricing_plan_id":"cebpf4jnsgd1na2vs0mg"},{"bike_id":"2a224c3b-4b84-4f84-b9ca-58698471156a","system_id":"levelo_inurba_marseille","lat":43.28609,"lon":5.35109,"is_reserved":false,"is_disabled":false,"rental_uris":{"android":"levelo://app?vid=2a224c3b-4b84-4f84-b9ca-58698471156a","ios":"levelo://app?vid=2a224c3b-4b84-4f84-b9ca-58698471156a"},"vehicle_type_id":"4","last_reported":1748525000,"current_range_meters":5600,"station_id":"ce4bhch2rcd13ifvqeug","pricing_plan_id":"cebpf4jnsgd1na2vs0mg"},{"bike_id":"a828df87-5741-4b66-b47d-1ee3bbf1a098","system_id":"levelo_inurba_marseille","lat":43.25017,"lon":5.38923,"is_reserved":false,"is_disabled":false,"rental_uris":{"android":"levelo://app?vid=a828df87-5741-4b66-b47d-1ee3bbf1a098","ios":"levelo://app?vid=a828df87-5741-4b66-b47d-1ee3bbf1a098"},"vehicle_type_id":"4","last_reported":1748525000,"current_range_meters":5600,"station_id":"ce4bhgp2rcd13ifvqfd0","pricing_plan_id":"cebpf4jnsgd1na2vs0mg"},{"bike_id":"8472c6ba-4097-4b01-afcd-c81b98519f37","system_id":"levelo_inurba_marseille","lat":43.2501,"lon":5.38937,"is_reserved":false,"is_disabled":false,"rental_uris":{"android":"levelo://app?vid=8472c6ba-4097-4b01-afcd-c81b98519f37","ios":"levelo://app?vid=8472c6ba-4097-4b01-afcd-c81b98519f37"},"vehicle_type_id":"4","last_reported":1748525000,"current_range_meters":5600,"station_id":"ce4bhgp2rcd13ifvqfd0","pricing_plan_id":"cebpf4jnsgd1na2vs0mg"},{"bike_id":"1b9c44ac-969a-4768-a1a3-21c86e0814fc","system_id":"levelo_inurba_marseille","lat":43.24171,"lon":5.3642,"is_reserved":false,"is_disabled":false,"rental_uris":{"android":"levelo://app?vid=1b9c44ac-969a-4768-a1a3-21c86e0814fc","ios":"levelo://app?vid=1b9c44ac-969a-4768-a1a3-21c86e0814fc"},"vehicle_type_id":"4","last_reported":1748525000,"current_range_meters":5600,"station_id":"cpo36qri1sfpv3e86is0","pricing_plan_id":"cebpf4jnsgd1na2vs0mg"},{"bike_id":"ee4805fc-08cd-4377-be04-3721b1f97d83","system_id":"levelo_inurba_marseille","lat":43.241722,"lon":5.36392,"is_reserved":false,"is_disabled":false,"rental_uris":{"android":"levelo://app?vid=ee4805fc-08cd-4377-be04-3721b1f97d83","ios":"levelo://app?vid=ee4805fc-08cd-4377-be04-3721b1f97d83"},"vehicle_type_id":"4","last_reported":1748525000,"current_range_meters":5600,"station_id":"cpo36qri1sfpv3e86is0","pricing_plan_id":"cebpf4jnsgd1na2vs0mg"},{"bike_id":"2c0eac65-82db-4319-90f9-33ac2de19449","system_id":"levelo_inurba_marseille","lat":43.29526,"lon":5.38541,"is_reserved":false,"is_disabled":false,"rental_uris":{"android":"levelo://app?vid=2c0eac65-82db-4319-90f9-33ac2de19449","ios":"levelo://app?vid=2c0eac65-82db-4319-90f9-33ac2de19449"},"vehicle_type_id":"4","last_reported":1748525000,"current_range_meters":6000,"station_id":"ce4bgih2rcd13ifvqba0","pricing_plan_id":"cebpf4jnsgd1na2vs0mg"},{"bike_id":"33b5b6a5-0f3f-4a30-9067-ce90d2ebbe59","system_id":"levelo_inurba_marseille","lat":43.3014,"lon":5.37423,"is_reserved":false,"is_disabled":false,"rental_uris":{"android":"levelo://app?vid=33b5b6a5-0f3f-4a30-9067-ce90d2ebbe59","ios":"levelo://app?vid=33b5b6a5-0f3f-4a30-9067-ce90d2ebbe59"},"vehicle_type_id":"4","last_reported":1748525000,"current_range_meters":6000,"station_id":"ce4bgs92rcd13ifvqcc0","pricing_plan_id":"cebpf4jnsgd1na2vs0mg"},{"bike_id":"4845fc88-1afd-43c0-8c02-7934ef32c555","system_id":"levelo_inurba_marseille","lat":43.30646,"lon":5.40102,"is_reserved":false,"is_disabled":false,"rental_uris":{"android":"levelo://app?vid=4845fc88-1afd-43c0-8c02-7934ef32c555","ios":"levelo://app?vid=4845fc88-1afd-43c0-8c02-7934ef32c555"},"vehicle_type_id":"4","last_reported":1748525000,"current_range_meters":6000,"station_id":"ce4bh112rcd13ifvqda0","pricing_plan_id":"cebpf4jnsgd1na2vs0mg"},{"bike_id":"3c5827e5-cbfb-4202-bf4a-5c6c68eeff63","system_id":"levelo_inurba_marseille","lat":43.2439,"lon":5.37045,"is_reserved":false,"is_disabled":false,"rental_uris":{"android":"levelo://app?vid=3c5827e5-cbfb-4202-bf4a-5c6c68eeff63","ios":"levelo://app?vid=3c5827e5-cbfb-4202-bf4a-5c6c68eeff63"},"vehicle_type_id":"4","last_reported":1748525000,"current_range_meters":6000,"station_id":"ce4bhhh2rcd13ifvqfk0","pricing_plan_id":"cebpf4jnsgd1na2vs0mg"},{"bike_id":"97f0d98a-b9cd-4369-81b9-9a95a6f222c8","system_id":"levelo_inurba_marseille","lat":43.25934,"lon":5.40914,"is_reserved":false,"is_disabled":false,"rental_uris":{"android":"levelo://app?vid=97f0d98a-b9cd-4369-81b9-9a95a6f222c8","ios":"levelo://app?vid=97f0d98a-b9cd-4369-81b9-9a95a6f222c8"},"vehicle_type_id":"4","last_reported":1748525000,"current_range_meters":6000,"station_id":"ce4bhm92rcd13ifvqglg","pricing_plan_id":"cebpf4jnsgd1na2vs0mg"},{"bike_id":"6d7cfdcd-f061-4eee-b4e5-78d9b6729328","system_id":"levelo_inurba_marseille","lat":43.329915,"lon":5.438477,"is_reserved":false,"is_disabled":false,"rental_uris":{"android":"levelo://app?vid=6d7cfdcd-f061-4eee-b4e5-78d9b6729328","ios":"levelo://app?vid=6d7cfdcd-f061-4eee-b4e5-78d9b6729328"},"vehicle_type_id":"4","last_reported":1748525000,"current_range_meters":6400,"station_id":"","pricing_plan_id":"cebpf4jnsgd1na2vs0mg"},{"bike_id":"35ac2a8f-177f-4a46-973d-0012a85056ca","system_id":"levelo_inurba_marseille","lat":43.30802,"lon":5.38159,"is_reserved":false,"is_disabled":false,"rental_uris":{"android":"levelo://app?vid=35ac2a8f-177f-4a46-973d-0012a85056ca","ios":"levelo://app?vid=35ac2a8f-177f-4a46-973d-0012a85056ca"},"vehicle_type_id":"4","last_reported":1748525000,"current_range_meters":6400,"station_id":"ce4bgt12rcd13ifvqce0","pricing_plan_id":"cebpf4jnsgd1na2vs0mg"},{"bike_id":"ec2af66b-65f2-48d3-831e-08520568d12e","system_id":"levelo_inurba_marseille","lat":43.29056,"lon":5.37158,"is_reserved":false,"is_disabled":false,"rental_uris":{"android":"levelo://app?vid=ec2af66b-65f2-48d3-831e-08520568d12e","ios":"levelo://app?vid=ec2af66b-65f2-48d3-831e-08520568d12e"},"vehicle_type_id":"4","last_reported":1748525000,"current_range_meters":6400,"station_id":"ce4bh5p2rcd13ifvqe4g","pricing_plan_id":"cebpf4jnsgd1na2vs0mg"},{"bike_id":"6af3c224-0761-4800-a562-e06feca0d455","system_id":"levelo_inurba_marseille","lat":43.24992,"lon":5.38943,"is_reserved":false,"is_disabled":false,"rental_uris":{"android":"levelo://app?vid=6af3c224-0761-4800-a562-e06feca0d455","ios":"levelo://app?vid=6af3c224-0761-4800-a562-e06feca0d455"},"vehicle_type_id":"4","last_reported":1748525000,"current_range_meters":6400,"station_id":"ce4bhgp2rcd13ifvqfd0","pricing_plan_id":"cebpf4jnsgd1na2vs0mg"},{"bike_id":"00956ae1-a99d-42ab-b72a-5b3d659416b6","system_id":"levelo_inurba_marseille","lat":43.24999,"lon":5.38929,"is_reserved":false,"is_disabled":false,"rental_uris":{"android":"levelo://app?vid=00956ae1-a99d-42ab-b72a-5b3d659416b6","ios":"levelo://app?vid=00956ae1-a99d-42ab-b72a-5b3d659416b6"},"vehicle_type_id":"4","last_reported":1748525000,"current_range_meters":6400,"station_id":"ce4bhgp2rcd13ifvqfd0","pricing_plan_id":"cebpf4jnsgd1na2vs0mg"},{"bike_id":"c51516fc-5a53-4e8c-95c5-ac15ee10548e","system_id":"levelo_inurba_marseille","lat":43.25493,"lon":5.37648,"is_reserved":false,"is_disabled":false,"rental_uris":{"android":"levelo://app?vid=c51516fc-5a53-4e8c-95c5-ac15ee10548e","ios":"levelo://app?vid=c51516fc-5a53-4e8c-95c5-ac15ee10548e"},"vehicle_type_id":"4","last_reported":1748525000,"current_range_meters":6400,"station_id":"ce4bhh12rcd13ifvqff0","pricing_plan_id":"cebpf4jnsgd1na2vs0mg"},{"bike_id":"48553ef7-6022-483a-88ee-097e6c9d7daf","system_id":"levelo_inurba_marseille","lat":43.25496,"lon":5.37639,"is_reserved":false,"is_disabled":false,"rental_uris":{"android":"levelo://app?vid=48553ef7-6022-483a-88ee-097e6c9d7daf","ios":"levelo://app?vid=48553ef7-6022-483a-88ee-097e6c9d7daf"},"vehicle_type_id":"4","last_reported":1748525000,"current_range_meters":6400,"station_id":"ce4bhh12rcd13ifvqff0","pricing_plan_id":"cebpf4jnsgd1na2vs0mg"},{"bike_id":"ba8c5155-1067-40e8-bff2-cdaf27f369b9","system_id":"levelo_inurba_marseille","lat":43.24386,"lon":5.3706,"is_reserved":false,"is_disabled":false,"rental_uris":{"android":"levelo://app?vid=ba8c5155-1067-40e8-bff2-cdaf27f369b9","ios":"levelo://app?vid=ba8c5155-1067-40e8-bff2-cdaf27f369b9"},"vehicle_type_id":"4","last_reported":1748525000,"current_range_meters":6400,"station_id":"ce4bhhh2rcd13ifvqfk0","pricing_plan_id":"cebpf4jnsgd1na2vs0mg"},{"bike_id":"49638d22-41e8-487b-b513-6deb83aa2814","system_id":"levelo_inurba_marseille","lat":43.27371,"lon":5.36276,"is_reserved":false,"is_disabled":false,"rental_uris":{"android":"levelo://app?vid=49638d22-41e8-487b-b513-6deb83aa2814","ios":"levelo://app?vid=49638d22-41e8-487b-b513-6deb83aa2814"},"vehicle_type_id":"4","last_reported":1748525000,"current_range_meters":6800,"station_id":"","pricing_plan_id":"cebpf4jnsgd1na2vs0mg"},{"bike_id":"b6194222-a80b-43bc-b765-fba2143e9c5c","system_id":"levelo_inurba_marseille","lat":43.23184,"lon":5.35574,"is_reserved":false,"is_disabled":false,"rental_uris":{"android":"levelo://app?vid=b6194222-a80b-43bc-b765-fba2143e9c5c","ios":"levelo://app?vid=b6194222-a80b-43bc-b765-fba2143e9c5c"},"vehicle_type_id":"4","last_reported":1748525000,"current_range_meters":6800,"station_id":"ce4bhu92rcd13ifvqi70","pricing_plan_id":"cebpf4jnsgd1na2vs0mg"},{"bike_id":"be4b293e-8744-4637-8ca2-a3e9032e9cec","system_id":"levelo_inurba_marseille","lat":43.22926,"lon":5.35406,"is_reserved":false,"is_disabled":false,"rental_uris":{"android":"levelo://app?vid=be4b293e-8744-4637-8ca2-a3e9032e9cec","ios":"levelo://app?vid=be4b293e-8744-4637-8ca2-a3e9032e9cec"},"vehicle_type_id":"4","last_reported":1748525000,"current_range_meters":6800,"station_id":"cpo3532slgdg3j2ikp40","pricing_plan_id":"cebpf4jnsgd1na2vs0mg"},{"bike_id":"1eed49fb-ce64-4ebd-9903-7d87835a2ccf","system_id":"levelo_inurba_marseille","lat":43.29759,"lon":5.4599,"is_reserved":false,"is_disabled":false,"rental_uris":{"android":"levelo://app?vid=1eed49fb-ce64-4ebd-9903-7d87835a2ccf","ios":"levelo://app?vid=1eed49fb-ce64-4ebd-9903-7d87835a2ccf"},"vehicle_type_id":"4","last_reported":1748525000,"current_range_meters":7200,"station_id":"","pricing_plan_id":"cebpf4jnsgd1na2vs0mg"},{"bike_id":"2dc5e5a5-497c-4ee4-9225-99797869912c","system_id":"levelo_inurba_marseille","lat":43.27621,"lon":5.36103,"is_reserved":false,"is_disabled":false,"rental_uris":{"android":"levelo://app?vid=2dc5e5a5-497c-4ee4-9225-99797869912c","ios":"levelo://app?vid=2dc5e5a5-497c-4ee4-9225-99797869912c"},"vehicle_type_id":"4","last_reported":1748525000,"current_range_meters":7200,"station_id":"ce4bgj92rcd13ifvqbe0","pricing_plan_id":"cebpf4jnsgd1na2vs0mg"},{"bike_id":"ec31819d-1134-4903-a701-cd100f1bfca9","system_id":"levelo_inurba_marseille","lat":43.26028,"lon":5.37551,"is_reserved":false,"is_disabled":false,"rental_uris":{"android":"levelo://app?vid=ec31819d-1134-4903-a701-cd100f1bfca9","ios":"levelo://app?vid=ec31819d-1134-4903-a701-cd100f1bfca9"},"vehicle_type_id":"4","last_reported":1748525000,"current_range_meters":7200,"station_id":"ce4bhgh2rcd13ifvqfa0","pricing_plan_id":"cebpf4jnsgd1na2vs0mg"},{"bike_id":"12d12c91-6643-4e17-a6f8-02ab587478d9","system_id":"levelo_inurba_marseille","lat":43.25119,"lon":5.40317,"is_reserved":false,"is_disabled":false,"rental_uris":{"android":"levelo://app?vid=12d12c91-6643-4e17-a6f8-02ab587478d9","ios":"levelo://app?vid=12d12c91-6643-4e17-a6f8-02ab587478d9"},"vehicle_type_id":"4","last_reported":1748525000,"current_range_meters":7200,"station_id":"ce4bhlh2rcd13ifvqgig","pricing_plan_id":"cebpf4jnsgd1na2vs0mg"},{"bike_id":"da5c0d7c-a0f7-4309-9147-7e75efd6f413","system_id":"levelo_inurba_marseille","lat":43.24838,"lon":5.39056,"is_reserved":false,"is_disabled":false,"rental_uris":{"android":"levelo://app?vid=da5c0d7c-a0f7-4309-9147-7e75efd6f413","ios":"levelo://app?vid=da5c0d7c-a0f7-4309-9147-7e75efd6f413"},"vehicle_type_id":"4","last_reported":1748525000,"current_range_meters":8000,"station_id":"","pricing_plan_id":"cebpf4jnsgd1na2vs0mg"},{"bike_id":"da584d1e-4d57-456e-85ad-73925b735b00","system_id":"levelo_inurba_marseille","lat":43.29615,"lon":5.37721,"is_reserved":false,"is_disabled":false,"rental_uris":{"android":"levelo://app?vid=da584d1e-4d57-456e-85ad-73925b735b00","ios":"levelo://app?vid=da584d1e-4d57-456e-85ad-73925b735b00"},"vehicle_type_id":"4","last_reported":1748525000,"current_range_meters":8000,"station_id":"ce4bgi92rcd13ifvqb90","pricing_plan_id":"cebpf4jnsgd1na2vs0mg"},{"bike_id":"ce7b18e4-7948-40ae-b647-c69f45870dbb","system_id":"levelo_inurba_marseille","lat":43.30937,"lon":5.40154,"is_reserved":false,"is_disabled":false,"rental_uris":{"android":"levelo://app?vid=ce7b18e4-7948-40ae-b647-c69f45870dbb","ios":"levelo://app?vid=ce7b18e4-7948-40ae-b647-c69f45870dbb"},"vehicle_type_id":"4","last_reported":1748525000,"current_range_meters":8000,"station_id":"ce4bgvp2rcd13ifvqct0","pricing_plan_id":"cebpf4jnsgd1na2vs0mg"},{"bike_id":"aea1fc0b-538d-4438-81ff-1b1e01f4eb6f","system_id":"levelo_inurba_marseille","lat":43.29102,"lon":5.38158,"is_reserved":false,"is_disabled":false,"rental_uris":{"android":"levelo://app?vid=aea1fc0b-538d-4438-81ff-1b1e01f4eb6f","ios":"levelo://app?vid=aea1fc0b-538d-4438-81ff-1b1e01f4eb6f"},"vehicle_type_id":"4","last_reported":1748525000,"current_range_meters":8000,"station_id":"ce4bh512rcd13ifvqe2g","pricing_plan_id":"cebpf4jnsgd1na2vs0mg"},{"bike_id":"4d532daf-1afb-414b-9a45-a1b062a28065","system_id":"levelo_inurba_marseille","lat":43.292296,"lon":5.363298,"is_reserved":false,"is_disabled":false,"rental_uris":{"android":"levelo://app?vid=4d532daf-1afb-414b-9a45-a1b062a28065","ios":"levelo://app?vid=4d532daf-1afb-414b-9a45-a1b062a28065"},"vehicle_type_id":"4","last_reported":1748525000,"current_range_meters":8000,"station_id":"ce4bhbh2rcd13ifvqeqg","pricing_plan_id":"cebpf4jnsgd1na2vs0mg"},{"bike_id":"cba62103-5907-42d8-aff2-ea59affb9a99","system_id":"levelo_inurba_marseille","lat":43.28261,"lon":5.35042,"is_reserved":false,"is_disabled":false,"rental_uris":{"android":"levelo://app?vid=cba62103-5907-42d8-aff2-ea59affb9a99","ios":"levelo://app?vid=cba62103-5907-42d8-aff2-ea59affb9a99"},"vehicle_type_id":"4","last_reported":1748525000,"current_range_meters":8000,"station_id":"ce4bhbp2rcd13ifvqerg","pricing_plan_id":"cebpf4jnsgd1na2vs0mg"},{"bike_id":"f0e12869-ccfc-49f7-8bf1-87de5389d98e","system_id":"levelo_inurba_marseille","lat":43.27495,"lon":5.42452,"is_reserved":false,"is_disabled":false,"rental_uris":{"android":"levelo://app?vid=f0e12869-ccfc-49f7-8bf1-87de5389d98e","ios":"levelo://app?vid=f0e12869-ccfc-49f7-8bf1-87de5389d98e"},"vehicle_type_id":"4","last_reported":1748525000,"current_range_meters":8000,"station_id":"ce4bhn92rcd13ifvqgrg","pricing_plan_id":"cebpf4jnsgd1na2vs0mg"},{"bike_id":"2f650bb1-6027-4191-83d2-16315820a0a7","system_id":"levelo_inurba_marseille","lat":43.299874,"lon":5.373574,"is_reserved":false,"is_disabled":false,"rental_uris":{"android":"levelo://app?vid=2f650bb1-6027-4191-83d2-16315820a0a7","ios":"levelo://app?vid=2f650bb1-6027-4191-83d2-16315820a0a7"},"vehicle_type_id":"4","last_reported":1748525000,"current_range_meters":8400,"station_id":"","pricing_plan_id":"cebpf4jnsgd1na2vs0mg"},{"bike_id":"cac7a205-587e-407b-bcc0-aecde1400b40","system_id":"levelo_inurba_marseille","lat":43.3093,"lon":5.40138,"is_reserved":false,"is_disabled":false,"rental_uris":{"android":"levelo://app?vid=cac7a205-587e-407b-bcc0-aecde1400b40","ios":"levelo://app?vid=cac7a205-587e-407b-bcc0-aecde1400b40"},"vehicle_type_id":"4","last_reported":1748525000,"current_range_meters":8400,"station_id":"ce4bgvp2rcd13ifvqct0","pricing_plan_id":"cebpf4jnsgd1na2vs0mg"},{"bike_id":"a3a58951-63d3-4499-81d2-e0e88d65896d","system_id":"levelo_inurba_marseille","lat":43.2886,"lon":5.35844,"is_reserved":false,"is_disabled":false,"rental_uris":{"android":"levelo://app?vid=a3a58951-63d3-4499-81d2-e0e88d65896d","ios":"levelo://app?vid=a3a58951-63d3-4499-81d2-e0e88d65896d"},"vehicle_type_id":"4","last_reported":1748525000,"current_range_meters":8400,"station_id":"ce4bhb12rcd13ifvqem0","pricing_plan_id":"cebpf4jnsgd1na2vs0mg"},{"bike_id":"686f8160-a6fa-4fa0-88d6-ae56148ecdd6","system_id":"levelo_inurba_marseille","lat":43.24804,"lon":5.37453,"is_reserved":false,"is_disabled":false,"rental_uris":{"android":"levelo://app?vid=686f8160-a6fa-4fa0-88d6-ae56148ecdd6","ios":"levelo://app?vid=686f8160-a6fa-4fa0-88d6-ae56148ecdd6"},"vehicle_type_id":"4","last_reported":1748525000,"current_range_meters":8400,"station_id":"ce4bhgh2rcd13ifvqfb0","pricing_plan_id":"cebpf4jnsgd1na2vs0mg"},{"bike_id":"a0f10082-7102-439f-9faa-88061aac3050","system_id":"levelo_inurba_marseille","lat":43.24809,"lon":5.37458,"is_reserved":false,"is_disabled":false,"rental_uris":{"android":"levelo://app?vid=a0f10082-7102-439f-9faa-88061aac3050","ios":"levelo://app?vid=a0f10082-7102-439f-9faa-88061aac3050"},"vehicle_type_id":"4","last_reported":1748525000,"current_range_meters":8400,"station_id":"ce4bhgh2rcd13ifvqfb0","pricing_plan_id":"cebpf4jnsgd1na2vs0mg"},{"bike_id":"9337bbbe-6338-4eac-8b9d-e06879ca2ebe","system_id":"levelo_inurba_marseille","lat":43.24388,"lon":5.37065,"is_reserved":false,"is_disabled":false,"rental_uris":{"android":"levelo://app?vid=9337bbbe-6338-4eac-8b9d-e06879ca2ebe","ios":"levelo://app?vid=9337bbbe-6338-4eac-8b9d-e06879ca2ebe"},"vehicle_type_id":"4","last_reported":1748525000,"current_range_meters":8400,"station_id":"ce4bhhh2rcd13ifvqfk0","pricing_plan_id":"cebpf4jnsgd1na2vs0mg"},{"bike_id":"c0d5ccd3-cc9b-42dc-bafd-57829be782b0","system_id":"levelo_inurba_marseille","lat":43.30819,"lon":5.4356,"is_reserved":false,"is_disabled":false,"rental_uris":{"android":"levelo://app?vid=c0d5ccd3-cc9b-42dc-bafd-57829be782b0","ios":"levelo://app?vid=c0d5ccd3-cc9b-42dc-bafd-57829be782b0"},"vehicle_type_id":"4","last_reported":1748525000,"current_range_meters":8400,"station_id":"ce4bhph2rcd13ifvqheg","pricing_plan_id":"cebpf4jnsgd1na2vs0mg"},{"bike_id":"84adab0f-96c1-4426-bc86-147d47e6151b","system_id":"levelo_inurba_marseille","lat":43.23184,"lon":5.35568,"is_reserved":false,"is_disabled":false,"rental_uris":{"android":"levelo://app?vid=84adab0f-96c1-4426-bc86-147d47e6151b","ios":"levelo://app?vid=84adab0f-96c1-4426-bc86-147d47e6151b"},"vehicle_type_id":"4","last_reported":1748525000,"current_range_meters":8400,"station_id":"ce4bhu92rcd13ifvqi70","pricing_plan_id":"cebpf4jnsgd1na2vs0mg"},{"bike_id":"432eef5d-9ab8-4992-85fa-7fefc1d24756","system_id":"levelo_inurba_marseille","lat":43.32439,"lon":5.43576,"is_reserved":false,"is_disabled":false,"rental_uris":{"android":"levelo://app?vid=432eef5d-9ab8-4992-85fa-7fefc1d24756","ios":"levelo://app?vid=432eef5d-9ab8-4992-85fa-7fefc1d24756"},"vehicle_type_id":"4","last_reported":1748525000,"current_range_meters":8800,"station_id":"","pricing_plan_id":"cebpf4jnsgd1na2vs0mg"},{"bike_id":"d815885e-0d48-47bc-baf4-8b847e9c3b1c","system_id":"levelo_inurba_marseille","lat":43.29906,"lon":5.3746,"is_reserved":false,"is_disabled":false,"rental_uris":{"android":"levelo://app?vid=d815885e-0d48-47bc-baf4-8b847e9c3b1c","ios":"levelo://app?vid=d815885e-0d48-47bc-baf4-8b847e9c3b1c"},"vehicle_type_id":"4","last_reported":1748525000,"current_range_meters":8800,"station_id":"ce4bgjh2rcd13ifvqbg0","pricing_plan_id":"cebpf4jnsgd1na2vs0mg"},{"bike_id":"5db87fc7-7d9e-46e2-99c8-821684c057cc","system_id":"levelo_inurba_marseille","lat":43.28262,"lon":5.35078,"is_reserved":false,"is_disabled":false,"rental_uris":{"android":"levelo://app?vid=5db87fc7-7d9e-46e2-99c8-821684c057cc","ios":"levelo://app?vid=5db87fc7-7d9e-46e2-99c8-821684c057cc"},"vehicle_type_id":"4","last_reported":1748525000,"current_range_meters":8800,"station_id":"ce4bhbp2rcd13ifvqerg","pricing_plan_id":"cebpf4jnsgd1na2vs0mg"},{"bike_id":"86f11208-7f90-4009-a976-cc81e2c7825f","system_id":"levelo_inurba_marseille","lat":43.241684,"lon":5.363992,"is_reserved":false,"is_disabled":false,"rental_uris":{"android":"levelo://app?vid=86f11208-7f90-4009-a976-cc81e2c7825f","ios":"levelo://app?vid=86f11208-7f90-4009-a976-cc81e2c7825f"},"vehicle_type_id":"4","last_reported":1748525000,"current_range_meters":8800,"station_id":"cpo36qri1sfpv3e86is0","pricing_plan_id":"cebpf4jnsgd1na2vs0mg"},{"bike_id":"454e508d-5a14-40bc-9fa6-808b6500ccd7","system_id":"levelo_inurba_marseille","lat":43.3084,"lon":5.43604,"is_reserved":false,"is_disabled":false,"rental_uris":{"android":"levelo://app?vid=454e508d-5a14-40bc-9fa6-808b6500ccd7","ios":"levelo://app?vid=454e508d-5a14-40bc-9fa6-808b6500ccd7"},"vehicle_type_id":"4","last_reported":1748525000,"current_range_meters":9200,"station_id":"","pricing_plan_id":"cebpf4jnsgd1na2vs0mg"},{"bike_id":"22771043-09b1-43eb-91e0-5c845144e1e3","system_id":"levelo_inurba_marseille","lat":43.277017,"lon":5.408723,"is_reserved":false,"is_disabled":false,"rental_uris":{"android":"levelo://app?vid=22771043-09b1-43eb-91e0-5c845144e1e3","ios":"levelo://app?vid=22771043-09b1-43eb-91e0-5c845144e1e3"},"vehicle_type_id":"4","last_reported":1748525000,"current_range_meters":9200,"station_id":"","pricing_plan_id":"cebpf4jnsgd1na2vs0mg"},{"bike_id":"ebf2b310-6d51-47db-a3c1-e58a1971c49e","system_id":"levelo_inurba_marseille","lat":43.337444,"lon":5.374475,"is_reserved":false,"is_disabled":false,"rental_uris":{"android":"levelo://app?vid=ebf2b310-6d51-47db-a3c1-e58a1971c49e","ios":"levelo://app?vid=ebf2b310-6d51-47db-a3c1-e58a1971c49e"},"vehicle_type_id":"4","last_reported":1748525000,"current_range_meters":9200,"station_id":"","pricing_plan_id":"cebpf4jnsgd1na2vs0mg"},{"bike_id":"36d50477-7a74-4166-95e7-40fc477dffc6","system_id":"levelo_inurba_marseille","lat":43.29046,"lon":5.35904,"is_reserved":false,"is_disabled":false,"rental_uris":{"android":"levelo://app?vid=36d50477-7a74-4166-95e7-40fc477dffc6","ios":"levelo://app?vid=36d50477-7a74-4166-95e7-40fc477dffc6"},"vehicle_type_id":"4","last_reported":1748525000,"current_range_meters":9200,"station_id":"ce4bha92rcd13ifvqeg0","pricing_plan_id":"cebpf4jnsgd1na2vs0mg"},{"bike_id":"9df5428a-60bb-415b-9d75-0c6bb08701e2","system_id":"levelo_inurba_marseille","lat":43.28417,"lon":5.3498,"is_reserved":false,"is_disabled":false,"rental_uris":{"android":"levelo://app?vid=9df5428a-60bb-415b-9d75-0c6bb08701e2","ios":"levelo://app?vid=9df5428a-60bb-415b-9d75-0c6bb08701e2"},"vehicle_type_id":"4","last_reported":1748525000,"current_range_meters":9200,"station_id":"ce4bhbh2rcd13ifvqepg","pricing_plan_id":"cebpf4jnsgd1na2vs0mg"},{"bike_id":"f28793b1-6b2b-4e08-b5dc-2e9e4d4ce0cd","system_id":"levelo_inurba_marseille","lat":43.28264,"lon":5.35064,"is_reserved":false,"is_disabled":false,"rental_uris":{"android":"levelo://app?vid=f28793b1-6b2b-4e08-b5dc-2e9e4d4ce0cd","ios":"levelo://app?vid=f28793b1-6b2b-4e08-b5dc-2e9e4d4ce0cd"},"vehicle_type_id":"4","last_reported":1748525000,"current_range_meters":9200,"station_id":"ce4bhbp2rcd13ifvqerg","pricing_plan_id":"cebpf4jnsgd1na2vs0mg"},{"bike_id":"a853e1c2-8d75-493a-840b-aaba88d28284","system_id":"levelo_inurba_marseille","lat":43.26195,"lon":5.37469,"is_reserved":false,"is_disabled":false,"rental_uris":{"android":"levelo://app?vid=a853e1c2-8d75-493a-840b-aaba88d28284","ios":"levelo://app?vid=a853e1c2-8d75-493a-840b-aaba88d28284"},"vehicle_type_id":"4","last_reported":1748525000,"current_range_meters":9200,"station_id":"ce4bhgp2rcd13ifvqfc0","pricing_plan_id":"cebpf4jnsgd1na2vs0mg"},{"bike_id":"ede3ce1e-05f8-41ba-a103-34cff4d30823","system_id":"levelo_inurba_marseille","lat":43.26208,"lon":5.37459,"is_reserved":false,"is_disabled":false,"rental_uris":{"android":"levelo://app?vid=ede3ce1e-05f8-41ba-a103-34cff4d30823","ios":"levelo://app?vid=ede3ce1e-05f8-41ba-a103-34cff4d30823"},"vehicle_type_id":"4","last_reported":1748525000,"current_range_meters":9200,"station_id":"ce4bhgp2rcd13ifvqfc0","pricing_plan_id":"cebpf4jnsgd1na2vs0mg"},{"bike_id":"82096069-64b7-4fa6-b4a8-82fb0677ee9e","system_id":"levelo_inurba_marseille","lat":43.23969,"lon":5.36622,"is_reserved":false,"is_disabled":false,"rental_uris":{"android":"levelo://app?vid=82096069-64b7-4fa6-b4a8-82fb0677ee9e","ios":"levelo://app?vid=82096069-64b7-4fa6-b4a8-82fb0677ee9e"},"vehicle_type_id":"4","last_reported":1748525000,"current_range_meters":9200,"station_id":"ce4bhi12rcd13ifvqfp0","pricing_plan_id":"cebpf4jnsgd1na2vs0mg"},{"bike_id":"cbff069c-37fa-4825-96fa-6f7e81ad8ee2","system_id":"levelo_inurba_marseille","lat":43.23061,"lon":5.35489,"is_reserved":false,"is_disabled":false,"rental_uris":{"android":"levelo://app?vid=cbff069c-37fa-4825-96fa-6f7e81ad8ee2","ios":"levelo://app?vid=cbff069c-37fa-4825-96fa-6f7e81ad8ee2"},"vehicle_type_id":"4","last_reported":1748525000,"current_range_meters":9200,"station_id":"cpo3342slgdg3j2ifvpg","pricing_plan_id":"cebpf4jnsgd1na2vs0mg"},{"bike_id":"af1dc9b2-164b-4021-88df-830111ab755c","system_id":"levelo_inurba_marseille","lat":43.32361,"lon":5.36922,"is_reserved":false,"is_disabled":false,"rental_uris":{"android":"levelo://app?vid=af1dc9b2-164b-4021-88df-830111ab755c","ios":"levelo://app?vid=af1dc9b2-164b-4021-88df-830111ab755c"},"vehicle_type_id":"4","last_reported":1748525000,"current_range_meters":9600,"station_id":"","pricing_plan_id":"cebpf4jnsgd1na2vs0mg"},{"bike_id":"24cd34e1-bb74-4352-90f7-805b9231f525","system_id":"levelo_inurba_marseille","lat":43.26391,"lon":5.42015,"is_reserved":false,"is_disabled":false,"rental_uris":{"android":"levelo://app?vid=24cd34e1-bb74-4352-90f7-805b9231f525","ios":"levelo://app?vid=24cd34e1-bb74-4352-90f7-805b9231f525"},"vehicle_type_id":"4","last_reported":1748525000,"current_range_meters":9600,"station_id":"","pricing_plan_id":"cebpf4jnsgd1na2vs0mg"},{"bike_id":"9c993f73-3e8f-4f5f-a403-2676ce8c2cf1","system_id":"levelo_inurba_marseille","lat":43.24079,"lon":5.37758,"is_reserved":false,"is_disabled":false,"rental_uris":{"android":"levelo://app?vid=9c993f73-3e8f-4f5f-a403-2676ce8c2cf1","ios":"levelo://app?vid=9c993f73-3e8f-4f5f-a403-2676ce8c2cf1"},"vehicle_type_id":"4","last_reported":1748525000,"current_range_meters":9600,"station_id":"ce4bhnp2rcd13ifvqgvg","pricing_plan_id":"cebpf4jnsgd1na2vs0mg"},{"bike_id":"6c9f7391-2266-42a8-a97b-97223893fe92","system_id":"levelo_inurba_marseille","lat":43.30542,"lon":5.36715,"is_reserved":false,"is_disabled":false,"rental_uris":{"android":"levelo://app?vid=6c9f7391-2266-42a8-a97b-97223893fe92","ios":"levelo://app?vid=6c9f7391-2266-42a8-a97b-97223893fe92"},"vehicle_type_id":"4","last_reported":1748525000,"current_range_meters":10000,"station_id":"ce4bgrp2rcd13ifvqc9g","pricing_plan_id":"cebpf4jnsgd1na2vs0mg"},{"bike_id":"b133c52f-6bd4-4437-974b-e7a4c2de33dc","system_id":"levelo_inurba_marseille","lat":43.30947,"lon":5.39026,"is_reserved":false,"is_disabled":false,"rental_uris":{"android":"levelo://app?vid=b133c52f-6bd4-4437-974b-e7a4c2de33dc","ios":"levelo://app?vid=b133c52f-6bd4-4437-974b-e7a4c2de33dc"},"vehicle_type_id":"4","last_reported":1748525000,"current_range_meters":10000,"station_id":"ce4bgup2rcd13ifvqco0","pricing_plan_id":"cebpf4jnsgd1na2vs0mg"},{"bike_id":"4b512bb3-bd41-4ef3-862f-c5a79ad17f1a","system_id":"levelo_inurba_marseille","lat":43.254925,"lon":5.37648,"is_reserved":false,"is_disabled":false,"rental_uris":{"android":"levelo://app?vid=4b512bb3-bd41-4ef3-862f-c5a79ad17f1a","ios":"levelo://app?vid=4b512bb3-bd41-4ef3-862f-c5a79ad17f1a"},"vehicle_type_id":"4","last_reported":1748525000,"current_range_meters":10000,"station_id":"ce4bhh12rcd13ifvqff0","pricing_plan_id":"cebpf4jnsgd1na2vs0mg"},{"bike_id":"c4d14f11-79d0-423f-b3f5-9ffce8525ca1","system_id":"levelo_inurba_marseille","lat":43.23192,"lon":5.35553,"is_reserved":false,"is_disabled":false,"rental_uris":{"android":"levelo://app?vid=c4d14f11-79d0-423f-b3f5-9ffce8525ca1","ios":"levelo://app?vid=c4d14f11-79d0-423f-b3f5-9ffce8525ca1"},"vehicle_type_id":"4","last_reported":1748525000,"current_range_meters":10000,"station_id":"ce4bhu92rcd13ifvqi70","pricing_plan_id":"cebpf4jnsgd1na2vs0mg"},{"bike_id":"a3d7bae8-50bf-46bb-8642-120e57d644bc","system_id":"levelo_inurba_marseille","lat":43.229302,"lon":5.353734,"is_reserved":false,"is_disabled":false,"rental_uris":{"android":"levelo://app?vid=a3d7bae8-50bf-46bb-8642-120e57d644bc","ios":"levelo://app?vid=a3d7bae8-50bf-46bb-8642-120e57d644bc"},"vehicle_type_id":"4","last_reported":1748525000,"current_range_meters":10000,"station_id":"cpo3532slgdg3j2ikp40","pricing_plan_id":"cebpf4jnsgd1na2vs0mg"},{"bike_id":"dc009045-7aef-4d17-bcae-67daeb608dc6","system_id":"levelo_inurba_marseille","lat":43.24181,"lon":5.36404,"is_reserved":false,"is_disabled":false,"rental_uris":{"android":"levelo://app?vid=dc009045-7aef-4d17-bcae-67daeb608dc6","ios":"levelo://app?vid=dc009045-7aef-4d17-bcae-67daeb608dc6"},"vehicle_type_id":"4","last_reported":1748525000,"current_range_meters":10000,"station_id":"cpo36qri1sfpv3e86is0","pricing_plan_id":"cebpf4jnsgd1na2vs0mg"},{"bike_id":"42b87bdb-7e1f-4f86-88b0-1735afbe2e33","system_id":"levelo_inurba_marseille","lat":43.273793,"lon":5.362563,"is_reserved":false,"is_disabled":false,"rental_uris":{"android":"levelo://app?vid=42b87bdb-7e1f-4f86-88b0-1735afbe2e33","ios":"levelo://app?vid=42b87bdb-7e1f-4f86-88b0-1735afbe2e33"},"vehicle_type_id":"4","last_reported":1748525000,"current_range_meters":10800,"station_id":"","pricing_plan_id":"cebpf4jnsgd1na2vs0mg"},{"bike_id":"2f10bb9a-887f-40c7-a0fa-6d6653764121","system_id":"levelo_inurba_marseille","lat":43.28408,"lon":5.37494,"is_reserved":false,"is_disabled":false,"rental_uris":{"android":"levelo://app?vid=2f10bb9a-887f-40c7-a0fa-6d6653764121","ios":"levelo://app?vid=2f10bb9a-887f-40c7-a0fa-6d6653764121"},"vehicle_type_id":"4","last_reported":1748525000,"current_range_meters":10800,"station_id":"ce4bh412rcd13ifvqds0","pricing_plan_id":"cebpf4jnsgd1na2vs0mg"},{"bike_id":"1d046360-3b2d-4bd0-8558-2e29b49fc41d","system_id":"levelo_inurba_marseille","lat":43.266788,"lon":5.382747,"is_reserved":false,"is_disabled":false,"rental_uris":{"android":"levelo://app?vid=1d046360-3b2d-4bd0-8558-2e29b49fc41d","ios":"levelo://app?vid=1d046360-3b2d-4bd0-8558-2e29b49fc41d"},"vehicle_type_id":"4","last_reported":1748525000,"current_range_meters":10800,"station_id":"ce4bhg92rcd13ifvqf90","pricing_plan_id":"cebpf4jnsgd1na2vs0mg"},{"bike_id":"4f28c650-21f0-48c4-9bf2-d324d32d2ed8","system_id":"levelo_inurba_marseille","lat":43.25503,"lon":5.37649,"is_reserved":false,"is_disabled":false,"rental_uris":{"android":"levelo://app?vid=4f28c650-21f0-48c4-9bf2-d324d32d2ed8","ios":"levelo://app?vid=4f28c650-21f0-48c4-9bf2-d324d32d2ed8"},"vehicle_type_id":"4","last_reported":1748525000,"current_range_meters":10800,"station_id":"ce4bhh12rcd13ifvqff0","pricing_plan_id":"cebpf4jnsgd1na2vs0mg"},{"bike_id":"f293ba09-4b7e-4261-9c45-5e8e5f6ff81c","system_id":"levelo_inurba_marseille","lat":43.303729,"lon":5.42484,"is_reserved":false,"is_disabled":false,"rental_uris":{"android":"levelo://app?vid=f293ba09-4b7e-4261-9c45-5e8e5f6ff81c","ios":"levelo://app?vid=f293ba09-4b7e-4261-9c45-5e8e5f6ff81c"},"vehicle_type_id":"4","last_reported":1748525000,"current_range_meters":10800,"station_id":"ce4bhoh2rcd13ifvqh6g","pricing_plan_id":"cebpf4jnsgd1na2vs0mg"},{"bike_id":"81113532-9bf0-4e94-ba9e-358824bdab44","system_id":"levelo_inurba_marseille","lat":43.28628,"lon":5.37077,"is_reserved":false,"is_disabled":false,"rental_uris":{"android":"levelo://app?vid=81113532-9bf0-4e94-ba9e-358824bdab44","ios":"levelo://app?vid=81113532-9bf0-4e94-ba9e-358824bdab44"},"vehicle_type_id":"4","last_reported":1748525000,"current_range_meters":10800,"station_id":"ce4bht12rcd13ifvqi60","pricing_plan_id":"cebpf4jnsgd1na2vs0mg"},{"bike_id":"42dca157-bdb0-4361-8022-7979135f94aa","system_id":"levelo_inurba_marseille","lat":43.285664,"lon":5.365597,"is_reserved":false,"is_disabled":false,"rental_uris":{"android":"levelo://app?vid=42dca157-bdb0-4361-8022-7979135f94aa","ios":"levelo://app?vid=42dca157-bdb0-4361-8022-7979135f94aa"},"vehicle_type_id":"4","last_reported":1748525000,"current_range_meters":11200,"station_id":"","pricing_plan_id":"cebpf4jnsgd1na2vs0mg"},{"bike_id":"f964f690-18e6-482e-bdf2-67bb94b93632","system_id":"levelo_inurba_marseille","lat":43.2908,"lon":5.37168,"is_reserved":false,"is_disabled":false,"rental_uris":{"android":"levelo://app?vid=f964f690-18e6-482e-bdf2-67bb94b93632","ios":"levelo://app?vid=f964f690-18e6-482e-bdf2-67bb94b93632"},"vehicle_type_id":"4","last_reported":1748525000,"current_range_meters":11200,"station_id":"ce4bh5p2rcd13ifvqe4g","pricing_plan_id":"cebpf4jnsgd1na2vs0mg"},{"bike_id":"bbfeb085-397b-4b49-9c1a-a6d6cd0b5172","system_id":"levelo_inurba_marseille","lat":43.284864,"lon":5.358788,"is_reserved":false,"is_disabled":false,"rental_uris":{"android":"levelo://app?vid=bbfeb085-397b-4b49-9c1a-a6d6cd0b5172","ios":"levelo://app?vid=bbfeb085-397b-4b49-9c1a-a6d6cd0b5172"},"vehicle_type_id":"4","last_reported":1748525000,"current_range_meters":11200,"station_id":"ce4bhah2rcd13ifvqei0","pricing_plan_id":"cebpf4jnsgd1na2vs0mg"},{"bike_id":"50d2fc93-a794-4e19-8460-f4e5c3a98737","system_id":"levelo_inurba_marseille","lat":43.27373,"lon":5.36248,"is_reserved":false,"is_disabled":false,"rental_uris":{"android":"levelo://app?vid=50d2fc93-a794-4e19-8460-f4e5c3a98737","ios":"levelo://app?vid=50d2fc93-a794-4e19-8460-f4e5c3a98737"},"vehicle_type_id":"4","last_reported":1748525000,"current_range_meters":11200,"station_id":"ce4bhbh2rcd13ifvqeo0","pricing_plan_id":"cebpf4jnsgd1na2vs0mg"},{"bike_id":"94ab50c5-5ed4-4425-a125-4254018f67e8","system_id":"levelo_inurba_marseille","lat":43.28618,"lon":5.35102,"is_reserved":false,"is_disabled":false,"rental_uris":{"android":"levelo://app?vid=94ab50c5-5ed4-4425-a125-4254018f67e8","ios":"levelo://app?vid=94ab50c5-5ed4-4425-a125-4254018f67e8"},"vehicle_type_id":"4","last_reported":1748525000,"current_range_meters":11200,"station_id":"ce4bhch2rcd13ifvqeug","pricing_plan_id":"cebpf4jnsgd1na2vs0mg"},{"bike_id":"7aa283d7-02d1-4ffe-afeb-3b1a9120c104","system_id":"levelo_inurba_marseille","lat":43.25941,"lon":5.40881,"is_reserved":false,"is_disabled":false,"rental_uris":{"android":"levelo://app?vid=7aa283d7-02d1-4ffe-afeb-3b1a9120c104","ios":"levelo://app?vid=7aa283d7-02d1-4ffe-afeb-3b1a9120c104"},"vehicle_type_id":"4","last_reported":1748525000,"current_range_meters":11200,"station_id":"ce4bhm92rcd13ifvqglg","pricing_plan_id":"cebpf4jnsgd1na2vs0mg"},{"bike_id":"ab3fb841-000b-4600-afe3-0d3bae496fbc","system_id":"levelo_inurba_marseille","lat":43.23147,"lon":5.43735,"is_reserved":false,"is_disabled":false,"rental_uris":{"android":"levelo://app?vid=ab3fb841-000b-4600-afe3-0d3bae496fbc","ios":"levelo://app?vid=ab3fb841-000b-4600-afe3-0d3bae496fbc"},"vehicle_type_id":"4","last_reported":1748525000,"current_range_meters":11200,"station_id":"ce4bhmp2rcd13ifvqgog","pricing_plan_id":"cebpf4jnsgd1na2vs0mg"},{"bike_id":"c29f4392-81e7-4634-b67e-caaf40d30cb2","system_id":"levelo_inurba_marseille","lat":43.23195,"lon":5.35551,"is_reserved":false,"is_disabled":false,"rental_uris":{"android":"levelo://app?vid=c29f4392-81e7-4634-b67e-caaf40d30cb2","ios":"levelo://app?vid=c29f4392-81e7-4634-b67e-caaf40d30cb2"},"vehicle_type_id":"4","last_reported":1748525000,"current_range_meters":11200,"station_id":"ce4bhu92rcd13ifvqi70","pricing_plan_id":"cebpf4jnsgd1na2vs0mg"},{"bike_id":"1817097c-d571-479b-bf9b-e7d3a036e2de","system_id":"levelo_inurba_marseille","lat":43.30899,"lon":5.36841,"is_reserved":false,"is_disabled":false,"rental_uris":{"android":"levelo://app?vid=1817097c-d571-479b-bf9b-e7d3a036e2de","ios":"levelo://app?vid=1817097c-d571-479b-bf9b-e7d3a036e2de"},"vehicle_type_id":"4","last_reported":1748525000,"current_range_meters":11600,"station_id":"ce4bgn92rcd13ifvqbvg","pricing_plan_id":"cebpf4jnsgd1na2vs0mg"},{"bike_id":"aa48aa41-a674-4a53-b47c-d39221c7e3ef","system_id":"levelo_inurba_marseille","lat":43.29981,"lon":5.37184,"is_reserved":false,"is_disabled":false,"rental_uris":{"android":"levelo://app?vid=aa48aa41-a674-4a53-b47c-d39221c7e3ef","ios":"levelo://app?vid=aa48aa41-a674-4a53-b47c-d39221c7e3ef"},"vehicle_type_id":"4","last_reported":1748525000,"current_range_meters":11600,"station_id":"ce4bgr92rcd13ifvqc7g","pricing_plan_id":"cebpf4jnsgd1na2vs0mg"},{"bike_id":"4f4e0096-b87d-4d23-bc87-8157c7ad42ed","system_id":"levelo_inurba_marseille","lat":43.30531,"lon":5.36559,"is_reserved":false,"is_disabled":false,"rental_uris":{"android":"levelo://app?vid=4f4e0096-b87d-4d23-bc87-8157c7ad42ed","ios":"levelo://app?vid=4f4e0096-b87d-4d23-bc87-8157c7ad42ed"},"vehicle_type_id":"4","last_reported":1748525000,"current_range_meters":11600,"station_id":"ce4bgs12rcd13ifvqcag","pricing_plan_id":"cebpf4jnsgd1na2vs0mg"},{"bike_id":"5c9ad4d3-f8c6-47d5-a5d2-e4430df2b381","system_id":"levelo_inurba_marseille","lat":43.27555,"lon":5.38438,"is_reserved":false,"is_disabled":false,"rental_uris":{"android":"levelo://app?vid=5c9ad4d3-f8c6-47d5-a5d2-e4430df2b381","ios":"levelo://app?vid=5c9ad4d3-f8c6-47d5-a5d2-e4430df2b381"},"vehicle_type_id":"4","last_reported":1748525000,"current_range_meters":11600,"station_id":"ce4bhh92rcd13ifvqfi0","pricing_plan_id":"cebpf4jnsgd1na2vs0mg"},{"bike_id":"ce43c11c-bf48-4fc7-a423-2c2d242d650b","system_id":"levelo_inurba_marseille","lat":43.24538,"lon":5.39545,"is_reserved":false,"is_disabled":false,"rental_uris":{"android":"levelo://app?vid=ce43c11c-bf48-4fc7-a423-2c2d242d650b","ios":"levelo://app?vid=ce43c11c-bf48-4fc7-a423-2c2d242d650b"},"vehicle_type_id":"4","last_reported":1748525000,"current_range_meters":11600,"station_id":"ce4bhlp2rcd13ifvqgjg","pricing_plan_id":"cebpf4jnsgd1na2vs0mg"},{"bike_id":"3b523edd-d384-406b-83c0-d584e89a359d","system_id":"levelo_inurba_marseille","lat":43.23153,"lon":5.43706,"is_reserved":false,"is_disabled":false,"rental_uris":{"android":"levelo://app?vid=3b523edd-d384-406b-83c0-d584e89a359d","ios":"levelo://app?vid=3b523edd-d384-406b-83c0-d584e89a359d"},"vehicle_type_id":"4","last_reported":1748525000,"current_range_meters":11600,"station_id":"ce4bhmp2rcd13ifvqgog","pricing_plan_id":"cebpf4jnsgd1na2vs0mg"},{"bike_id":"752fdf77-0ebb-42ba-870f-1afcaf36ab1f","system_id":"levelo_inurba_marseille","lat":43.28167,"lon":5.391688,"is_reserved":false,"is_disabled":false,"rental_uris":{"android":"levelo://app?vid=752fdf77-0ebb-42ba-870f-1afcaf36ab1f","ios":"levelo://app?vid=752fdf77-0ebb-42ba-870f-1afcaf36ab1f"},"vehicle_type_id":"4","last_reported":1748525000,"current_range_meters":11600,"station_id":"ce4bhoh2rcd13ifvqh5g","pricing_plan_id":"cebpf4jnsgd1na2vs0mg"},{"bike_id":"0e009545-9acc-491d-b143-22cbd0096db4","system_id":"levelo_inurba_marseille","lat":43.33839,"lon":5.39243,"is_reserved":false,"is_disabled":false,"rental_uris":{"android":"levelo://app?vid=0e009545-9acc-491d-b143-22cbd0096db4","ios":"levelo://app?vid=0e009545-9acc-491d-b143-22cbd0096db4"},"vehicle_type_id":"4","last_reported":1748525000,"current_range_meters":12000,"station_id":"","pricing_plan_id":"cebpf4jnsgd1na2vs0mg"},{"bike_id":"8d8c5fec-11db-456e-8447-a56269dc30da","system_id":"levelo_inurba_marseille","lat":43.29059,"lon":5.35884,"is_reserved":false,"is_disabled":false,"rental_uris":{"android":"levelo://app?vid=8d8c5fec-11db-456e-8447-a56269dc30da","ios":"levelo://app?vid=8d8c5fec-11db-456e-8447-a56269dc30da"},"vehicle_type_id":"4","last_reported":1748525000,"current_range_meters":12000,"station_id":"ce4bha92rcd13ifvqeg0","pricing_plan_id":"cebpf4jnsgd1na2vs0mg"},{"bike_id":"0ec33410-e383-40cb-ac1a-7855b23750ae","system_id":"levelo_inurba_marseille","lat":43.28462,"lon":5.35897,"is_reserved":false,"is_disabled":false,"rental_uris":{"android":"levelo://app?vid=0ec33410-e383-40cb-ac1a-7855b23750ae","ios":"levelo://app?vid=0ec33410-e383-40cb-ac1a-7855b23750ae"},"vehicle_type_id":"4","last_reported":1748525000,"current_range_meters":12000,"station_id":"ce4bhah2rcd13ifvqei0","pricing_plan_id":"cebpf4jnsgd1na2vs0mg"},{"bike_id":"5739080f-5047-4267-a709-c7c06117874b","system_id":"levelo_inurba_marseille","lat":43.28461,"lon":5.35885,"is_reserved":false,"is_disabled":false,"rental_uris":{"android":"levelo://app?vid=5739080f-5047-4267-a709-c7c06117874b","ios":"levelo://app?vid=5739080f-5047-4267-a709-c7c06117874b"},"vehicle_type_id":"4","last_reported":1748525000,"current_range_meters":12000,"station_id":"ce4bhah2rcd13ifvqei0","pricing_plan_id":"cebpf4jnsgd1na2vs0mg"},{"bike_id":"f347a1b7-e27e-4b3a-a2e1-ca6ab0c17cac","system_id":"levelo_inurba_marseille","lat":43.27372,"lon":5.36249,"is_reserved":false,"is_disabled":false,"rental_uris":{"android":"levelo://app?vid=f347a1b7-e27e-4b3a-a2e1-ca6ab0c17cac","ios":"levelo://app?vid=f347a1b7-e27e-4b3a-a2e1-ca6ab0c17cac"},"vehicle_type_id":"4","last_reported":1748525000,"current_range_meters":12000,"station_id":"ce4bhbh2rcd13ifvqeo0","pricing_plan_id":"cebpf4jnsgd1na2vs0mg"},{"bike_id":"9f6a1f1b-8229-4235-bdad-f507375385d7","system_id":"levelo_inurba_marseille","lat":43.2826,"lon":5.35077,"is_reserved":false,"is_disabled":false,"rental_uris":{"android":"levelo://app?vid=9f6a1f1b-8229-4235-bdad-f507375385d7","ios":"levelo://app?vid=9f6a1f1b-8229-4235-bdad-f507375385d7"},"vehicle_type_id":"4","last_reported":1748525000,"current_range_meters":12000,"station_id":"ce4bhbp2rcd13ifvqerg","pricing_plan_id":"cebpf4jnsgd1na2vs0mg"},{"bike_id":"b181058a-6712-4a5f-b2eb-4e495664113a","system_id":"levelo_inurba_marseille","lat":43.28268,"lon":5.35074,"is_reserved":false,"is_disabled":false,"rental_uris":{"android":"levelo://app?vid=b181058a-6712-4a5f-b2eb-4e495664113a","ios":"levelo://app?vid=b181058a-6712-4a5f-b2eb-4e495664113a"},"vehicle_type_id":"4","last_reported":1748525000,"current_range_meters":12000,"station_id":"ce4bhbp2rcd13ifvqerg","pricing_plan_id":"cebpf4jnsgd1na2vs0mg"},{"bike_id":"31ef4173-a340-453b-a5a4-4a45a65955e2","system_id":"levelo_inurba_marseille","lat":43.29256,"lon":5.40912,"is_reserved":false,"is_disabled":false,"rental_uris":{"android":"levelo://app?vid=31ef4173-a340-453b-a5a4-4a45a65955e2","ios":"levelo://app?vid=31ef4173-a340-453b-a5a4-4a45a65955e2"},"vehicle_type_id":"4","last_reported":1748525000,"current_range_meters":12400,"station_id":"ce4bh192rcd13ifvqdc0","pricing_plan_id":"cebpf4jnsgd1na2vs0mg"},{"bike_id":"ba9bbce2-43c4-41eb-b7a9-e7b527d0eac7","system_id":"levelo_inurba_marseille","lat":43.26061,"lon":5.39398,"is_reserved":false,"is_disabled":false,"rental_uris":{"android":"levelo://app?vid=ba9bbce2-43c4-41eb-b7a9-e7b527d0eac7","ios":"levelo://app?vid=ba9bbce2-43c4-41eb-b7a9-e7b527d0eac7"},"vehicle_type_id":"4","last_reported":1748525000,"current_range_meters":12400,"station_id":"ce4bhh92rcd13ifvqfj0","pricing_plan_id":"cebpf4jnsgd1na2vs0mg"},{"bike_id":"eb06d657-cd01-405c-80b7-992040f6d9dd","system_id":"levelo_inurba_marseille","lat":43.25104,"lon":5.40326,"is_reserved":false,"is_disabled":false,"rental_uris":{"android":"levelo://app?vid=eb06d657-cd01-405c-80b7-992040f6d9dd","ios":"levelo://app?vid=eb06d657-cd01-405c-80b7-992040f6d9dd"},"vehicle_type_id":"4","last_reported":1748525000,"current_range_meters":12400,"station_id":"ce4bhlh2rcd13ifvqgig","pricing_plan_id":"cebpf4jnsgd1na2vs0mg"},{"bike_id":"1bae3717-4acf-46a4-9fa1-6bf75324411a","system_id":"levelo_inurba_marseille","lat":43.23195,"lon":5.39995,"is_reserved":false,"is_disabled":false,"rental_uris":{"android":"levelo://app?vid=1bae3717-4acf-46a4-9fa1-6bf75324411a","ios":"levelo://app?vid=1bae3717-4acf-46a4-9fa1-6bf75324411a"},"vehicle_type_id":"4","last_reported":1748525000,"current_range_meters":12400,"station_id":"ce4bhn12rcd13ifvqgqg","pricing_plan_id":"cebpf4jnsgd1na2vs0mg"},{"bike_id":"11831938-31fe-44ba-98ab-646a71ce56b3","system_id":"levelo_inurba_marseille","lat":43.29638,"lon":5.40594,"is_reserved":false,"is_disabled":false,"rental_uris":{"android":"levelo://app?vid=11831938-31fe-44ba-98ab-646a71ce56b3","ios":"levelo://app?vid=11831938-31fe-44ba-98ab-646a71ce56b3"},"vehicle_type_id":"4","last_reported":1748525000,"current_range_meters":12800,"station_id":"ce4bh0h2rcd13ifvqd60","pricing_plan_id":"cebpf4jnsgd1na2vs0mg"},{"bike_id":"fd3c611e-388a-4963-8796-70ce94fac7bc","system_id":"levelo_inurba_marseille","lat":43.29044,"lon":5.35901,"is_reserved":false,"is_disabled":false,"rental_uris":{"android":"levelo://app?vid=fd3c611e-388a-4963-8796-70ce94fac7bc","ios":"levelo://app?vid=fd3c611e-388a-4963-8796-70ce94fac7bc"},"vehicle_type_id":"4","last_reported":1748525000,"current_range_meters":12800,"station_id":"ce4bha92rcd13ifvqeg0","pricing_plan_id":"cebpf4jnsgd1na2vs0mg"},{"bike_id":"cba171cd-a7c5-48d8-88a6-da1dd5ca9fd5","system_id":"levelo_inurba_marseille","lat":43.28418,"lon":5.3498,"is_reserved":false,"is_disabled":false,"rental_uris":{"android":"levelo://app?vid=cba171cd-a7c5-48d8-88a6-da1dd5ca9fd5","ios":"levelo://app?vid=cba171cd-a7c5-48d8-88a6-da1dd5ca9fd5"},"vehicle_type_id":"4","last_reported":1748525000,"current_range_meters":12800,"station_id":"ce4bhbh2rcd13ifvqepg","pricing_plan_id":"cebpf4jnsgd1na2vs0mg"},{"bike_id":"d83bc391-0718-49ae-9b9b-2595c3b5c7eb","system_id":"levelo_inurba_marseille","lat":43.262152,"lon":5.374363,"is_reserved":false,"is_disabled":false,"rental_uris":{"android":"levelo://app?vid=d83bc391-0718-49ae-9b9b-2595c3b5c7eb","ios":"levelo://app?vid=d83bc391-0718-49ae-9b9b-2595c3b5c7eb"},"vehicle_type_id":"4","last_reported":1748525000,"current_range_meters":12800,"station_id":"ce4bhgp2rcd13ifvqfc0","pricing_plan_id":"cebpf4jnsgd1na2vs0mg"},{"bike_id":"541d2f0a-b5f7-4ef1-8894-52b2843bac73","system_id":"levelo_inurba_marseille","lat":43.26217,"lon":5.37438,"is_reserved":false,"is_disabled":false,"rental_uris":{"android":"levelo://app?vid=541d2f0a-b5f7-4ef1-8894-52b2843bac73","ios":"levelo://app?vid=541d2f0a-b5f7-4ef1-8894-52b2843bac73"},"vehicle_type_id":"4","last_reported":1748525000,"current_range_meters":12800,"station_id":"ce4bhgp2rcd13ifvqfc0","pricing_plan_id":"cebpf4jnsgd1na2vs0mg"},{"bike_id":"7e4c5ddd-02be-4da7-8a93-2f61d3614d66","system_id":"levelo_inurba_marseille","lat":43.24389,"lon":5.37057,"is_reserved":false,"is_disabled":false,"rental_uris":{"android":"levelo://app?vid=7e4c5ddd-02be-4da7-8a93-2f61d3614d66","ios":"levelo://app?vid=7e4c5ddd-02be-4da7-8a93-2f61d3614d66"},"vehicle_type_id":"4","last_reported":1748525000,"current_range_meters":12800,"station_id":"ce4bhhh2rcd13ifvqfk0","pricing_plan_id":"cebpf4jnsgd1na2vs0mg"},{"bike_id":"5a640631-01a7-467b-b52f-e460979e92af","system_id":"levelo_inurba_marseille","lat":43.24398,"lon":5.37079,"is_reserved":false,"is_disabled":false,"rental_uris":{"android":"levelo://app?vid=5a640631-01a7-467b-b52f-e460979e92af","ios":"levelo://app?vid=5a640631-01a7-467b-b52f-e460979e92af"},"vehicle_type_id":"4","last_reported":1748525000,"current_range_meters":12800,"station_id":"ce4bhhh2rcd13ifvqfk0","pricing_plan_id":"cebpf4jnsgd1na2vs0mg"},{"bike_id":"5f411f71-41f3-487d-aced-b1365ad0f0d9","system_id":"levelo_inurba_marseille","lat":43.21757,"lon":5.34599,"is_reserved":false,"is_disabled":false,"rental_uris":{"android":"levelo://app?vid=5f411f71-41f3-487d-aced-b1365ad0f0d9","ios":"levelo://app?vid=5f411f71-41f3-487d-aced-b1365ad0f0d9"},"vehicle_type_id":"4","last_reported":1748525000,"current_range_meters":13600,"station_id":"","pricing_plan_id":"cebpf4jnsgd1na2vs0mg"},{"bike_id":"f5733814-9732-4748-bcc9-3b2fac8e1564","system_id":"levelo_inurba_marseille","lat":43.31256,"lon":5.37829,"is_reserved":false,"is_disabled":false,"rental_uris":{"android":"levelo://app?vid=f5733814-9732-4748-bcc9-3b2fac8e1564","ios":"levelo://app?vid=f5733814-9732-4748-bcc9-3b2fac8e1564"},"vehicle_type_id":"4","last_reported":1748525000,"current_range_meters":13600,"station_id":"","pricing_plan_id":"cebpf4jnsgd1na2vs0mg"},{"bike_id":"f4ce79f6-76fa-481a-80ef-493b162f9b09","system_id":"levelo_inurba_marseille","lat":43.282653,"lon":5.350692,"is_reserved":false,"is_disabled":false,"rental_uris":{"android":"levelo://app?vid=f4ce79f6-76fa-481a-80ef-493b162f9b09","ios":"levelo://app?vid=f4ce79f6-76fa-481a-80ef-493b162f9b09"},"vehicle_type_id":"4","last_reported":1748525000,"current_range_meters":13600,"station_id":"ce4bhbp2rcd13ifvqerg","pricing_plan_id":"cebpf4jnsgd1na2vs0mg"},{"bike_id":"a426f99b-d34a-41bf-bbda-59f7dfd6939b","system_id":"levelo_inurba_marseille","lat":43.255796,"lon":5.382262,"is_reserved":false,"is_disabled":false,"rental_uris":{"android":"levelo://app?vid=a426f99b-d34a-41bf-bbda-59f7dfd6939b","ios":"levelo://app?vid=a426f99b-d34a-41bf-bbda-59f7dfd6939b"},"vehicle_type_id":"4","last_reported":1748525000,"current_range_meters":13600,"station_id":"ce501612rcd8frsf0b60","pricing_plan_id":"cebpf4jnsgd1na2vs0mg"},{"bike_id":"d10d29f7-70e6-4be8-bfb3-1f95c76520b4","system_id":"levelo_inurba_marseille","lat":43.241649,"lon":5.363879,"is_reserved":false,"is_disabled":false,"rental_uris":{"android":"levelo://app?vid=d10d29f7-70e6-4be8-bfb3-1f95c76520b4","ios":"levelo://app?vid=d10d29f7-70e6-4be8-bfb3-1f95c76520b4"},"vehicle_type_id":"4","last_reported":1748525000,"current_range_meters":13600,"station_id":"cpo36qri1sfpv3e86is0","pricing_plan_id":"cebpf4jnsgd1na2vs0mg"},{"bike_id":"c8e3e8d4-2760-439c-b028-b56f52c7347e","system_id":"levelo_inurba_marseille","lat":43.21158,"lon":5.35135,"is_reserved":false,"is_disabled":false,"rental_uris":{"android":"levelo://app?vid=c8e3e8d4-2760-439c-b028-b56f52c7347e","ios":"levelo://app?vid=c8e3e8d4-2760-439c-b028-b56f52c7347e"},"vehicle_type_id":"4","last_reported":1748525000,"current_range_meters":13600,"station_id":"st_cvj6sg6p6f1abm77japg","pricing_plan_id":"cebpf4jnsgd1na2vs0mg"},{"bike_id":"8c7291be-ed63-4533-9817-ac4e5bc6776f","system_id":"levelo_inurba_marseille","lat":43.29055,"lon":5.35907,"is_reserved":false,"is_disabled":false,"rental_uris":{"android":"levelo://app?vid=8c7291be-ed63-4533-9817-ac4e5bc6776f","ios":"levelo://app?vid=8c7291be-ed63-4533-9817-ac4e5bc6776f"},"vehicle_type_id":"4","last_reported":1748525000,"current_range_meters":14000,"station_id":"","pricing_plan_id":"cebpf4jnsgd1na2vs0mg"},{"bike_id":"f5768f11-8a07-4bab-87b9-f91a37e2b091","system_id":"levelo_inurba_marseille","lat":43.30585,"lon":5.37183,"is_reserved":false,"is_disabled":false,"rental_uris":{"android":"levelo://app?vid=f5768f11-8a07-4bab-87b9-f91a37e2b091","ios":"levelo://app?vid=f5768f11-8a07-4bab-87b9-f91a37e2b091"},"vehicle_type_id":"4","last_reported":1748525000,"current_range_meters":14000,"station_id":"","pricing_plan_id":"cebpf4jnsgd1na2vs0mg"},{"bike_id":"e9cda520-c6f4-465d-ad7f-8c059b3dc45a","system_id":"levelo_inurba_marseille","lat":43.313967,"lon":5.383993,"is_reserved":false,"is_disabled":false,"rental_uris":{"android":"levelo://app?vid=e9cda520-c6f4-465d-ad7f-8c059b3dc45a","ios":"levelo://app?vid=e9cda520-c6f4-465d-ad7f-8c059b3dc45a"},"vehicle_type_id":"4","last_reported":1748525000,"current_range_meters":14000,"station_id":"","pricing_plan_id":"cebpf4jnsgd1na2vs0mg"},{"bike_id":"e3ec2832-8c50-474e-a2f1-c5e0dea4053e","system_id":"levelo_inurba_marseille","lat":43.27379,"lon":5.36253,"is_reserved":false,"is_disabled":false,"rental_uris":{"android":"levelo://app?vid=e3ec2832-8c50-474e-a2f1-c5e0dea4053e","ios":"levelo://app?vid=e3ec2832-8c50-474e-a2f1-c5e0dea4053e"},"vehicle_type_id":"4","last_reported":1748525000,"current_range_meters":14000,"station_id":"","pricing_plan_id":"cebpf4jnsgd1na2vs0mg"},{"bike_id":"6a2f14c3-97d2-4d9c-8ea8-8b3463f7d5e5","system_id":"levelo_inurba_marseille","lat":43.29369,"lon":5.37845,"is_reserved":false,"is_disabled":false,"rental_uris":{"android":"levelo://app?vid=6a2f14c3-97d2-4d9c-8ea8-8b3463f7d5e5","ios":"levelo://app?vid=6a2f14c3-97d2-4d9c-8ea8-8b3463f7d5e5"},"vehicle_type_id":"4","last_reported":1748525000,"current_range_meters":14000,"station_id":"ce4bgjh2rcd13ifvqbf0","pricing_plan_id":"cebpf4jnsgd1na2vs0mg"},{"bike_id":"56c0662c-539c-45ce-8b4d-bc135609e1a9","system_id":"levelo_inurba_marseille","lat":43.28853,"lon":5.35854,"is_reserved":false,"is_disabled":false,"rental_uris":{"android":"levelo://app?vid=56c0662c-539c-45ce-8b4d-bc135609e1a9","ios":"levelo://app?vid=56c0662c-539c-45ce-8b4d-bc135609e1a9"},"vehicle_type_id":"4","last_reported":1748525000,"current_range_meters":14000,"station_id":"ce4bhb12rcd13ifvqem0","pricing_plan_id":"cebpf4jnsgd1na2vs0mg"},{"bike_id":"aa7299aa-6b9c-458d-aab3-bc76e4d1d5b0","system_id":"levelo_inurba_marseille","lat":43.28406,"lon":5.34981,"is_reserved":false,"is_disabled":false,"rental_uris":{"android":"levelo://app?vid=aa7299aa-6b9c-458d-aab3-bc76e4d1d5b0","ios":"levelo://app?vid=aa7299aa-6b9c-458d-aab3-bc76e4d1d5b0"},"vehicle_type_id":"4","last_reported":1748525000,"current_range_meters":14000,"station_id":"ce4bhbh2rcd13ifvqepg","pricing_plan_id":"cebpf4jnsgd1na2vs0mg"},{"bike_id":"f96d3350-c5bf-4b21-add4-93ecfdb5e9e5","system_id":"levelo_inurba_marseille","lat":43.26559,"lon":5.37286,"is_reserved":false,"is_disabled":false,"rental_uris":{"android":"levelo://app?vid=f96d3350-c5bf-4b21-add4-93ecfdb5e9e5","ios":"levelo://app?vid=f96d3350-c5bf-4b21-add4-93ecfdb5e9e5"},"vehicle_type_id":"4","last_reported":1748525000,"current_range_meters":14000,"station_id":"ce4bhg12rcd13ifvqf70","pricing_plan_id":"cebpf4jnsgd1na2vs0mg"},{"bike_id":"1dd0ced1-518e-4b83-901b-b4ce87c8975e","system_id":"levelo_inurba_marseille","lat":43.25585,"lon":5.3824,"is_reserved":false,"is_disabled":false,"rental_uris":{"android":"levelo://app?vid=1dd0ced1-518e-4b83-901b-b4ce87c8975e","ios":"levelo://app?vid=1dd0ced1-518e-4b83-901b-b4ce87c8975e"},"vehicle_type_id":"4","last_reported":1748525000,"current_range_meters":14000,"station_id":"ce4bhih2rcd13ifvqfs0","pricing_plan_id":"cebpf4jnsgd1na2vs0mg"},{"bike_id":"8d8c770f-ecb6-4fb4-a771-7d258681a7fc","system_id":"levelo_inurba_marseille","lat":43.232,"lon":5.35565,"is_reserved":false,"is_disabled":false,"rental_uris":{"android":"levelo://app?vid=8d8c770f-ecb6-4fb4-a771-7d258681a7fc","ios":"levelo://app?vid=8d8c770f-ecb6-4fb4-a771-7d258681a7fc"},"vehicle_type_id":"4","last_reported":1748525000,"current_range_meters":14000,"station_id":"ce4bhu92rcd13ifvqi70","pricing_plan_id":"cebpf4jnsgd1na2vs0mg"},{"bike_id":"cd018a14-e83d-4d40-ac42-b66ab9d8e9cc","system_id":"levelo_inurba_marseille","lat":43.22504,"lon":5.34776,"is_reserved":false,"is_disabled":false,"rental_uris":{"android":"levelo://app?vid=cd018a14-e83d-4d40-ac42-b66ab9d8e9cc","ios":"levelo://app?vid=cd018a14-e83d-4d40-ac42-b66ab9d8e9cc"},"vehicle_type_id":"4","last_reported":1748525000,"current_range_meters":14400,"station_id":"","pricing_plan_id":"cebpf4jnsgd1na2vs0mg"},{"bike_id":"bcb5f74e-9dd0-4985-b414-732f19015f6a","system_id":"levelo_inurba_marseille","lat":43.28403,"lon":5.34976,"is_reserved":false,"is_disabled":false,"rental_uris":{"android":"levelo://app?vid=bcb5f74e-9dd0-4985-b414-732f19015f6a","ios":"levelo://app?vid=bcb5f74e-9dd0-4985-b414-732f19015f6a"},"vehicle_type_id":"4","last_reported":1748525000,"current_range_meters":14400,"station_id":"ce4bhbh2rcd13ifvqepg","pricing_plan_id":"cebpf4jnsgd1na2vs0mg"},{"bike_id":"66005a5e-d058-4b2b-83e6-7c603987c207","system_id":"levelo_inurba_marseille","lat":43.28264,"lon":5.35064,"is_reserved":false,"is_disabled":false,"rental_uris":{"android":"levelo://app?vid=66005a5e-d058-4b2b-83e6-7c603987c207","ios":"levelo://app?vid=66005a5e-d058-4b2b-83e6-7c603987c207"},"vehicle_type_id":"4","last_reported":1748525000,"current_range_meters":14400,"station_id":"ce4bhbp2rcd13ifvqerg","pricing_plan_id":"cebpf4jnsgd1na2vs0mg"},{"bike_id":"7f9625fb-a2e6-409e-b394-6277c0d3b326","system_id":"levelo_inurba_marseille","lat":43.26215,"lon":5.37454,"is_reserved":false,"is_disabled":false,"rental_uris":{"android":"levelo://app?vid=7f9625fb-a2e6-409e-b394-6277c0d3b326","ios":"levelo://app?vid=7f9625fb-a2e6-409e-b394-6277c0d3b326"},"vehicle_type_id":"4","last_reported":1748525000,"current_range_meters":14400,"station_id":"ce4bhgp2rcd13ifvqfc0","pricing_plan_id":"cebpf4jnsgd1na2vs0mg"},{"bike_id":"a75866c0-48e6-48f4-a969-8e359a7341e9","system_id":"levelo_inurba_marseille","lat":43.26158,"lon":5.37521,"is_reserved":false,"is_disabled":false,"rental_uris":{"android":"levelo://app?vid=a75866c0-48e6-48f4-a969-8e359a7341e9","ios":"levelo://app?vid=a75866c0-48e6-48f4-a969-8e359a7341e9"},"vehicle_type_id":"4","last_reported":1748525000,"current_range_meters":14400,"station_id":"ce4bhgp2rcd13ifvqfc0","pricing_plan_id":"cebpf4jnsgd1na2vs0mg"},{"bike_id":"074d010c-4bb9-4258-8245-ee281ff0765e","system_id":"levelo_inurba_marseille","lat":43.25507,"lon":5.37673,"is_reserved":false,"is_disabled":false,"rental_uris":{"android":"levelo://app?vid=074d010c-4bb9-4258-8245-ee281ff0765e","ios":"levelo://app?vid=074d010c-4bb9-4258-8245-ee281ff0765e"},"vehicle_type_id":"4","last_reported":1748525000,"current_range_meters":14400,"station_id":"ce4bhh12rcd13ifvqff0","pricing_plan_id":"cebpf4jnsgd1na2vs0mg"},{"bike_id":"274d33c2-51e2-4c46-baa6-48cafe54eb32","system_id":"levelo_inurba_marseille","lat":43.24397,"lon":5.37047,"is_reserved":false,"is_disabled":false,"rental_uris":{"android":"levelo://app?vid=274d33c2-51e2-4c46-baa6-48cafe54eb32","ios":"levelo://app?vid=274d33c2-51e2-4c46-baa6-48cafe54eb32"},"vehicle_type_id":"4","last_reported":1748525000,"current_range_meters":14400,"station_id":"ce4bhhh2rcd13ifvqfk0","pricing_plan_id":"cebpf4jnsgd1na2vs0mg"},{"bike_id":"d453b4cb-9fdc-4dc7-99be-69b01faef401","system_id":"levelo_inurba_marseille","lat":43.251077,"lon":5.40322,"is_reserved":false,"is_disabled":false,"rental_uris":{"android":"levelo://app?vid=d453b4cb-9fdc-4dc7-99be-69b01faef401","ios":"levelo://app?vid=d453b4cb-9fdc-4dc7-99be-69b01faef401"},"vehicle_type_id":"4","last_reported":1748525000,"current_range_meters":14400,"station_id":"ce4bhlh2rcd13ifvqgig","pricing_plan_id":"cebpf4jnsgd1na2vs0mg"},{"bike_id":"33ff79c9-8c73-4481-b88d-b6d9521a86b7","system_id":"levelo_inurba_marseille","lat":43.274949,"lon":5.424494,"is_reserved":false,"is_disabled":false,"rental_uris":{"android":"levelo://app?vid=33ff79c9-8c73-4481-b88d-b6d9521a86b7","ios":"levelo://app?vid=33ff79c9-8c73-4481-b88d-b6d9521a86b7"},"vehicle_type_id":"4","last_reported":1748525000,"current_range_meters":14400,"station_id":"ce4bhn92rcd13ifvqgrg","pricing_plan_id":"cebpf4jnsgd1na2vs0mg"},{"bike_id":"07839820-a17f-450a-a667-7d66c49fcc27","system_id":"levelo_inurba_marseille","lat":43.29075,"lon":5.3718,"is_reserved":false,"is_disabled":false,"rental_uris":{"android":"levelo://app?vid=07839820-a17f-450a-a667-7d66c49fcc27","ios":"levelo://app?vid=07839820-a17f-450a-a667-7d66c49fcc27"},"vehicle_type_id":"4","last_reported":1748525000,"current_range_meters":14800,"station_id":"ce4bh5p2rcd13ifvqe4g","pricing_plan_id":"cebpf4jnsgd1na2vs0mg"},{"bike_id":"ea231bc7-94ad-458e-9aac-a1f7f266c741","system_id":"levelo_inurba_marseille","lat":43.28934,"lon":5.3664,"is_reserved":false,"is_disabled":false,"rental_uris":{"android":"levelo://app?vid=ea231bc7-94ad-458e-9aac-a1f7f266c741","ios":"levelo://app?vid=ea231bc7-94ad-458e-9aac-a1f7f266c741"},"vehicle_type_id":"4","last_reported":1748525000,"current_range_meters":14800,"station_id":"ce4bhap2rcd13ifvqek0","pricing_plan_id":"cebpf4jnsgd1na2vs0mg"},{"bike_id":"cf2c96c7-104e-456a-b0e5-d1acf3263bcf","system_id":"levelo_inurba_marseille","lat":43.28414,"lon":5.3498,"is_reserved":false,"is_disabled":false,"rental_uris":{"android":"levelo://app?vid=cf2c96c7-104e-456a-b0e5-d1acf3263bcf","ios":"levelo://app?vid=cf2c96c7-104e-456a-b0e5-d1acf3263bcf"},"vehicle_type_id":"4","last_reported":1748525000,"current_range_meters":14800,"station_id":"ce4bhbh2rcd13ifvqepg","pricing_plan_id":"cebpf4jnsgd1na2vs0mg"},{"bike_id":"084968a7-0ddb-4507-bd53-d30399cef775","system_id":"levelo_inurba_marseille","lat":43.289751,"lon":5.378345,"is_reserved":false,"is_disabled":false,"rental_uris":{"android":"levelo://app?vid=084968a7-0ddb-4507-bd53-d30399cef775","ios":"levelo://app?vid=084968a7-0ddb-4507-bd53-d30399cef775"},"vehicle_type_id":"4","last_reported":1748525000,"current_range_meters":14800,"station_id":"ce4bhbh2rcd13ifvqeqg","pricing_plan_id":"cebpf4jnsgd1na2vs0mg"},{"bike_id":"9a4c61ca-d6b9-4794-a6e5-000625ab06f5","system_id":"levelo_inurba_marseille","lat":43.28264,"lon":5.35064,"is_reserved":false,"is_disabled":false,"rental_uris":{"android":"levelo://app?vid=9a4c61ca-d6b9-4794-a6e5-000625ab06f5","ios":"levelo://app?vid=9a4c61ca-d6b9-4794-a6e5-000625ab06f5"},"vehicle_type_id":"4","last_reported":1748525000,"current_range_meters":14800,"station_id":"ce4bhbp2rcd13ifvqerg","pricing_plan_id":"cebpf4jnsgd1na2vs0mg"},{"bike_id":"893597e3-e5e0-4beb-8dc8-c98346841aa5","system_id":"levelo_inurba_marseille","lat":43.29069,"lon":5.371611,"is_reserved":false,"is_disabled":false,"rental_uris":{"android":"levelo://app?vid=893597e3-e5e0-4beb-8dc8-c98346841aa5","ios":"levelo://app?vid=893597e3-e5e0-4beb-8dc8-c98346841aa5"},"vehicle_type_id":"4","last_reported":1748525000,"current_range_meters":15200,"station_id":"ce4bh5p2rcd13ifvqe4g","pricing_plan_id":"cebpf4jnsgd1na2vs0mg"},{"bike_id":"747224c9-7e52-4c58-9390-d943c4f5446c","system_id":"levelo_inurba_marseille","lat":43.27178,"lon":5.41003,"is_reserved":false,"is_disabled":false,"rental_uris":{"android":"levelo://app?vid=747224c9-7e52-4c58-9390-d943c4f5446c","ios":"levelo://app?vid=747224c9-7e52-4c58-9390-d943c4f5446c"},"vehicle_type_id":"4","last_reported":1748525000,"current_range_meters":15200,"station_id":"ce4bhl12rcd13ifvqgf0","pricing_plan_id":"cebpf4jnsgd1na2vs0mg"},{"bike_id":"b7020ec2-d08d-489a-8b7c-6a077dc1acf5","system_id":"levelo_inurba_marseille","lat":43.23281,"lon":5.36106,"is_reserved":false,"is_disabled":false,"rental_uris":{"android":"levelo://app?vid=b7020ec2-d08d-489a-8b7c-6a077dc1acf5","ios":"levelo://app?vid=b7020ec2-d08d-489a-8b7c-6a077dc1acf5"},"vehicle_type_id":"4","last_reported":1748525000,"current_range_meters":16000,"station_id":"","pricing_plan_id":"cebpf4jnsgd1na2vs0mg"},{"bike_id":"81a86096-7693-4752-87e4-5c8242dbe7da","system_id":"levelo_inurba_marseille","lat":43.28862,"lon":5.35852,"is_reserved":false,"is_disabled":false,"rental_uris":{"android":"levelo://app?vid=81a86096-7693-4752-87e4-5c8242dbe7da","ios":"levelo://app?vid=81a86096-7693-4752-87e4-5c8242dbe7da"},"vehicle_type_id":"4","last_reported":1748525000,"current_range_meters":16000,"station_id":"ce4bhb12rcd13ifvqem0","pricing_plan_id":"cebpf4jnsgd1na2vs0mg"},{"bike_id":"98bf983f-c073-4776-b5a1-9e337ad01995","system_id":"levelo_inurba_marseille","lat":43.288586,"lon":5.353445,"is_reserved":false,"is_disabled":false,"rental_uris":{"android":"levelo://app?vid=98bf983f-c073-4776-b5a1-9e337ad01995","ios":"levelo://app?vid=98bf983f-c073-4776-b5a1-9e337ad01995"},"vehicle_type_id":"4","last_reported":1748525000,"current_range_meters":16000,"station_id":"ce4bhbp2rcd13ifvqerg","pricing_plan_id":"cebpf4jnsgd1na2vs0mg"},{"bike_id":"b7df41ec-cf02-45e8-bd32-392d719d22f3","system_id":"levelo_inurba_marseille","lat":43.26787,"lon":5.39415,"is_reserved":false,"is_disabled":false,"rental_uris":{"android":"levelo://app?vid=b7df41ec-cf02-45e8-bd32-392d719d22f3","ios":"levelo://app?vid=b7df41ec-cf02-45e8-bd32-392d719d22f3"},"vehicle_type_id":"4","last_reported":1748525000,"current_range_meters":16000,"station_id":"ce4bhh12rcd13ifvqfg0","pricing_plan_id":"cebpf4jnsgd1na2vs0mg"},{"bike_id":"6b77d8e2-6914-4f74-b37c-4eb29bd3731c","system_id":"levelo_inurba_marseille","lat":43.25954,"lon":5.40898,"is_reserved":false,"is_disabled":false,"rental_uris":{"android":"levelo://app?vid=6b77d8e2-6914-4f74-b37c-4eb29bd3731c","ios":"levelo://app?vid=6b77d8e2-6914-4f74-b37c-4eb29bd3731c"},"vehicle_type_id":"4","last_reported":1748525000,"current_range_meters":16000,"station_id":"ce4bhm92rcd13ifvqglg","pricing_plan_id":"cebpf4jnsgd1na2vs0mg"},{"bike_id":"517c5907-c92e-4b88-8b70-46e89413c8c5","system_id":"levelo_inurba_marseille","lat":43.23146,"lon":5.43715,"is_reserved":false,"is_disabled":false,"rental_uris":{"android":"levelo://app?vid=517c5907-c92e-4b88-8b70-46e89413c8c5","ios":"levelo://app?vid=517c5907-c92e-4b88-8b70-46e89413c8c5"},"vehicle_type_id":"4","last_reported":1748525000,"current_range_meters":16000,"station_id":"ce4bhmp2rcd13ifvqgog","pricing_plan_id":"cebpf4jnsgd1na2vs0mg"},{"bike_id":"f61b7f73-84e3-4805-a73d-0334d49a8a59","system_id":"levelo_inurba_marseille","lat":43.23202,"lon":5.4,"is_reserved":false,"is_disabled":false,"rental_uris":{"android":"levelo://app?vid=f61b7f73-84e3-4805-a73d-0334d49a8a59","ios":"levelo://app?vid=f61b7f73-84e3-4805-a73d-0334d49a8a59"},"vehicle_type_id":"4","last_reported":1748525000,"current_range_meters":16000,"station_id":"ce4bhn12rcd13ifvqgqg","pricing_plan_id":"cebpf4jnsgd1na2vs0mg"},{"bike_id":"d61288f7-3174-4efe-8b83-ec9987e569e2","system_id":"levelo_inurba_marseille","lat":43.231883,"lon":5.3998,"is_reserved":false,"is_disabled":false,"rental_uris":{"android":"levelo://app?vid=d61288f7-3174-4efe-8b83-ec9987e569e2","ios":"levelo://app?vid=d61288f7-3174-4efe-8b83-ec9987e569e2"},"vehicle_type_id":"4","last_reported":1748525000,"current_range_meters":16000,"station_id":"ce4bhn12rcd13ifvqgqg","pricing_plan_id":"cebpf4jnsgd1na2vs0mg"},{"bike_id":"681e88b1-e03a-4014-b387-b7b707830f27","system_id":"levelo_inurba_marseille","lat":43.29889,"lon":5.43669,"is_reserved":false,"is_disabled":false,"rental_uris":{"android":"levelo://app?vid=681e88b1-e03a-4014-b387-b7b707830f27","ios":"levelo://app?vid=681e88b1-e03a-4014-b387-b7b707830f27"},"vehicle_type_id":"4","last_reported":1748525000,"current_range_meters":16000,"station_id":"ce4bhpp2rcd13ifvqhfg","pricing_plan_id":"cebpf4jnsgd1na2vs0mg"},{"bike_id":"c91f375f-f1af-4beb-83ef-b4aac44777e5","system_id":"levelo_inurba_marseille","lat":43.24163,"lon":5.36409,"is_reserved":false,"is_disabled":false,"rental_uris":{"android":"levelo://app?vid=c91f375f-f1af-4beb-83ef-b4aac44777e5","ios":"levelo://app?vid=c91f375f-f1af-4beb-83ef-b4aac44777e5"},"vehicle_type_id":"4","last_reported":1748525000,"current_range_meters":16000,"station_id":"cpo36qri1sfpv3e86is0","pricing_plan_id":"cebpf4jnsgd1na2vs0mg"},{"bike_id":"9a86381f-51bc-4d54-858d-d27c0e51d901","system_id":"levelo_inurba_marseille","lat":43.30722,"lon":5.42445,"is_reserved":false,"is_disabled":false,"rental_uris":{"android":"levelo://app?vid=9a86381f-51bc-4d54-858d-d27c0e51d901","ios":"levelo://app?vid=9a86381f-51bc-4d54-858d-d27c0e51d901"},"vehicle_type_id":"4","last_reported":1748525000,"current_range_meters":16000,"station_id":"st_cvj6ca6bvosntc0bfgr0","pricing_plan_id":"cebpf4jnsgd1na2vs0mg"},{"bike_id":"7a83c844-e2f2-4f66-a40c-ecc90ce6c34f","system_id":"levelo_inurba_marseille","lat":43.21194,"lon":5.35081,"is_reserved":false,"is_disabled":false,"rental_uris":{"android":"levelo://app?vid=7a83c844-e2f2-4f66-a40c-ecc90ce6c34f","ios":"levelo://app?vid=7a83c844-e2f2-4f66-a40c-ecc90ce6c34f"},"vehicle_type_id":"4","last_reported":1748525000,"current_range_meters":16000,"station_id":"st_cvj6sg6p6f1abm77japg","pricing_plan_id":"cebpf4jnsgd1na2vs0mg"},{"bike_id":"2a9acb4b-2bb8-4ce6-982a-371ff22de0c6","system_id":"levelo_inurba_marseille","lat":43.211952,"lon":5.350714,"is_reserved":false,"is_disabled":false,"rental_uris":{"android":"levelo://app?vid=2a9acb4b-2bb8-4ce6-982a-371ff22de0c6","ios":"levelo://app?vid=2a9acb4b-2bb8-4ce6-982a-371ff22de0c6"},"vehicle_type_id":"4","last_reported":1748525000,"current_range_meters":16000,"station_id":"st_cvj6sg6p6f1abm77japg","pricing_plan_id":"cebpf4jnsgd1na2vs0mg"},{"bike_id":"0eede3ed-34fe-4ea3-acda-0122138310c0","system_id":"levelo_inurba_marseille","lat":43.27375,"lon":5.36256,"is_reserved":false,"is_disabled":false,"rental_uris":{"android":"levelo://app?vid=0eede3ed-34fe-4ea3-acda-0122138310c0","ios":"levelo://app?vid=0eede3ed-34fe-4ea3-acda-0122138310c0"},"vehicle_type_id":"4","last_reported":1748525000,"current_range_meters":16400,"station_id":"","pricing_plan_id":"cebpf4jnsgd1na2vs0mg"},{"bike_id":"8976ad8e-a108-4cbf-a9eb-f13f03ee8e30","system_id":"levelo_inurba_marseille","lat":43.29096,"lon":5.38185,"is_reserved":false,"is_disabled":false,"rental_uris":{"android":"levelo://app?vid=8976ad8e-a108-4cbf-a9eb-f13f03ee8e30","ios":"levelo://app?vid=8976ad8e-a108-4cbf-a9eb-f13f03ee8e30"},"vehicle_type_id":"4","last_reported":1748525000,"current_range_meters":16400,"station_id":"","pricing_plan_id":"cebpf4jnsgd1na2vs0mg"},{"bike_id":"c900992e-80e0-4c66-b6f7-0f240fcda6d8","system_id":"levelo_inurba_marseille","lat":43.28267,"lon":5.35056,"is_reserved":false,"is_disabled":false,"rental_uris":{"android":"levelo://app?vid=c900992e-80e0-4c66-b6f7-0f240fcda6d8","ios":"levelo://app?vid=c900992e-80e0-4c66-b6f7-0f240fcda6d8"},"vehicle_type_id":"4","last_reported":1748525000,"current_range_meters":16400,"station_id":"ce4bhbp2rcd13ifvqerg","pricing_plan_id":"cebpf4jnsgd1na2vs0mg"},{"bike_id":"bc36756c-ea37-4f3f-a2d0-e7b3c0a489cb","system_id":"levelo_inurba_marseille","lat":43.27921,"lon":5.39573,"is_reserved":false,"is_disabled":false,"rental_uris":{"android":"levelo://app?vid=bc36756c-ea37-4f3f-a2d0-e7b3c0a489cb","ios":"levelo://app?vid=bc36756c-ea37-4f3f-a2d0-e7b3c0a489cb"},"vehicle_type_id":"4","last_reported":1748525000,"current_range_meters":16400,"station_id":"ce4bhf92rcd13ifvqf40","pricing_plan_id":"cebpf4jnsgd1na2vs0mg"},{"bike_id":"68779e2f-e5c8-4ca9-afa9-75c3db6100f3","system_id":"levelo_inurba_marseille","lat":43.24802,"lon":5.37452,"is_reserved":false,"is_disabled":false,"rental_uris":{"android":"levelo://app?vid=68779e2f-e5c8-4ca9-afa9-75c3db6100f3","ios":"levelo://app?vid=68779e2f-e5c8-4ca9-afa9-75c3db6100f3"},"vehicle_type_id":"4","last_reported":1748525000,"current_range_meters":16400,"station_id":"ce4bhgh2rcd13ifvqfb0","pricing_plan_id":"cebpf4jnsgd1na2vs0mg"},{"bike_id":"caac217f-7292-4c57-bfce-76d9beeb04c4","system_id":"levelo_inurba_marseille","lat":43.25498,"lon":5.37685,"is_reserved":false,"is_disabled":false,"rental_uris":{"android":"levelo://app?vid=caac217f-7292-4c57-bfce-76d9beeb04c4","ios":"levelo://app?vid=caac217f-7292-4c57-bfce-76d9beeb04c4"},"vehicle_type_id":"4","last_reported":1748525000,"current_range_meters":16400,"station_id":"ce4bhh12rcd13ifvqff0","pricing_plan_id":"cebpf4jnsgd1na2vs0mg"},{"bike_id":"2f0b886c-8247-496f-bdc3-327761e32d8c","system_id":"levelo_inurba_marseille","lat":43.23183,"lon":5.43737,"is_reserved":false,"is_disabled":false,"rental_uris":{"android":"levelo://app?vid=2f0b886c-8247-496f-bdc3-327761e32d8c","ios":"levelo://app?vid=2f0b886c-8247-496f-bdc3-327761e32d8c"},"vehicle_type_id":"4","last_reported":1748525000,"current_range_meters":16400,"station_id":"ce4bhmp2rcd13ifvqgog","pricing_plan_id":"cebpf4jnsgd1na2vs0mg"},{"bike_id":"207f8feb-a1a5-4651-bade-17e0403607dd","system_id":"levelo_inurba_marseille","lat":43.27622,"lon":5.36132,"is_reserved":false,"is_disabled":false,"rental_uris":{"android":"levelo://app?vid=207f8feb-a1a5-4651-bade-17e0403607dd","ios":"levelo://app?vid=207f8feb-a1a5-4651-bade-17e0403607dd"},"vehicle_type_id":"4","last_reported":1748525000,"current_range_meters":16800,"station_id":"ce4bgj92rcd13ifvqbe0","pricing_plan_id":"cebpf4jnsgd1na2vs0mg"},{"bike_id":"a57eb360-9484-49ea-8ecb-4841172288f6","system_id":"levelo_inurba_marseille","lat":43.25939,"lon":5.40902,"is_reserved":false,"is_disabled":false,"rental_uris":{"android":"levelo://app?vid=a57eb360-9484-49ea-8ecb-4841172288f6","ios":"levelo://app?vid=a57eb360-9484-49ea-8ecb-4841172288f6"},"vehicle_type_id":"4","last_reported":1748525000,"current_range_meters":16800,"station_id":"ce4bhm92rcd13ifvqglg","pricing_plan_id":"cebpf4jnsgd1na2vs0mg"},{"bike_id":"0fb2042e-c469-4720-ac0d-b92d0565ad26","system_id":"levelo_inurba_marseille","lat":43.21732,"lon":5.34613,"is_reserved":false,"is_disabled":false,"rental_uris":{"android":"levelo://app?vid=0fb2042e-c469-4720-ac0d-b92d0565ad26","ios":"levelo://app?vid=0fb2042e-c469-4720-ac0d-b92d0565ad26"},