{"last_updated":1701522408,"ttl":30,"version":"2.2","data":{"bikes":[{"bike_id":"8c120aa6-4d5f-4742-bfd7-4136474a00f3","system_id":"levelo_inurba_marseille","lat":43.314811,"lon":5.373103,"is_reserved":false,"is_disabled":false,"rental_uris":{"android":"levelo://app?vid=8c120aa6-4d5f-4742-bfd7-4136474a00f3","ios":"levelo://app?vid=8c120aa6-4d5f-4742-bfd7-4136474a00f3"},"vehicle_type_id":"4","last_reported":1701522408,"current_range_meters":11600,"station_id":"ce4bgt12rcd13ifvqcd0","pricing_plan_id":"free"},{"bike_id":"ab1a45bc-5c86-4dc9-86c5-b3cdd9eb5b1a","system_id":"levelo_inurba_marseille","lat":43.31776,"lon":5.36854,"is_reserved":false,"is_disabled":false,"rental_uris":{"android":"levelo://app?vid=ab1a45bc-5c86-4dc9-86c5-b3cdd9eb5b1a","ios":"levelo://app?vid=ab1a45bc-5c86-4dc9-86c5-b3cdd9eb5b1a"},"vehicle_type_id":"4","last_reported":1701522408,"current_range_meters":0,"station_id":"","pricing_plan_id":"free"},{"bike_id":"65eac131-55d8-4145-b5a8-36ae2ae025c6","system_id":"levelo_inurba_marseille","lat":43.30537,"lon":5.367345,"is_reserved":false,"is_disabled":false,"rental_uris":{"android":"levelo://app?vid=65eac131-55d8-4145-b5a8-36ae2ae025c6","ios":"levelo://app?vid=65eac131-55d8-4145-b5a8-36ae2ae025c6"},"vehicle_type_id":"4","last_reported":1701522408,"current_range_meters":26000,"station_id":"ce4bgrp2rcd13ifvqc9g","pricing_plan_id":"free"},{"bike_id":"d09efee8-9f49-4cf5-be40-1ae3a8c6e356","system_id":"levelo_inurba_marseille","lat":43.30527,"lon":5.36706,"is_reserved":false,"is_disabled":false,"rental_uris":{"android":"levelo://app?vid=d09efee8-9f49-4cf5-be40-1ae3a8c6e356","ios":"levelo://app?vid=d09efee8-9f49-4cf5-be40-1ae3a8c6e356"},"vehicle_type_id":"4","last_reported":1701522408,"current_range_meters":12000,"station_id":"ce4bgrp2rcd13ifvqc9g","pricing_plan_id":"free"},{"bike_id":"bd1ce04d-286f-4b08-a52c-60f82ffdeb32","system_id":"levelo_inurba_marseille","lat":43.305989,"lon":5.37225,"is_reserved":false,"is_disabled":false,"rental_uris":{"android":"levelo://app?vid=bd1ce04d-286f-4b08-a52c-60f82ffdeb32","ios":"levelo://app?vid=bd1ce04d-286f-4b08-a52c-60f82ffdeb32"},"vehicle_type_id":"4","last_reported":1701522408,"current_range_meters":22800,"station_id":"ce4bgqh2rcd13ifvqc4g","pricing_plan_id":"free"},{"bike_id":"cfd3bb51-5657-4943-be4a-4ca2f802bb01","system_id":"levelo_inurba_marseille","lat":43.308157,"lon":5.376608,"is_reserved":false,"is_disabled":false,"rental_uris":{"android":"levelo://app?vid=cfd3bb51-5657-4943-be4a-4ca2f802bb01","ios":"levelo://app?vid=cfd3bb51-5657-4943-be4a-4ca2f802bb01"},"vehicle_type_id":"4","last_reported":1701522408,"current_range_meters":10800,"station_id":"ce4bgv92rcd13ifvqcq0","pricing_plan_id":"free"},{"bike_id":"f427a2c3-6e4a-446b-ae2f-9be8aa7f4122","system_id":"levelo_inurba_marseille","lat":43.31719,"lon":5.376813,"is_reserved":false,"is_disabled":false,"rental_uris":{"android":"levelo://app?vid=f427a2c3-6e4a-446b-ae2f-9be8aa7f4122","ios":"levelo://app?vid=f427a2c3-6e4a-446b-ae2f-9be8aa7f4122"},"vehicle_type_id":"4","last_reported":1701522408,"current_range_meters":0,"station_id":"","pricing_plan_id":"free"},{"bike_id":"e913f328-1e31-4c22-bd87-f809ea246de4","system_id":"levelo_inurba_marseille","lat":43.317168,"lon":5.376883,"is_reserved":false,"is_disabled":false,"rental_uris":{"android":"levelo://app?vid=e913f328-1e31-4c22-bd87-f809ea246de4","ios":"levelo://app?vid=e913f328-1e31-4c22-bd87-f809ea246de4"},"vehicle_type_id":"4","last_reported":1701522408,"current_range_meters":400,"station_id":"","pricing_plan_id":"free"},{"bike_id":"2659767e-1a21-4975-b21e-c4be84da46ff","system_id":"levelo_inurba_marseille","lat":43.317075,"lon":5.377367,"is_reserved":false,"is_disabled":false,"rental_uris":{"android":"levelo://app?vid=2659767e-1a21-4975-b21e-c4be84da46ff","ios":"levelo://app?vid=2659767e-1a21-4975-b21e-c4be84da46ff"},"vehicle_type_id":"4","last_reported":1701522408,"current_range_meters":26800,"station_id":"ce4bgth2rcd13ifvqch0","pricing_plan_id":"free"},{"bike_id":"92d8af04-b91c-4fe9-87f2-3d7cc202feb7","system_id":"levelo_inurba_marseille","lat":43.317075,"lon":5.377367,"is_reserved":false,"is_disabled":false,"rental_uris":{"android":"levelo://app?vid=92d8af04-b91c-4fe9-87f2-3d7cc202feb7","ios":"levelo://app?vid=92d8af04-b91c-4fe9-87f2-3d7cc202feb7"},"vehicle_type_id":"4","last_reported":1701522408,"current_range_meters":28400,"station_id":"ce4bgth2rcd13ifvqch0","pricing_plan_id":"free"},{"bike_id":"fb6fd937-527b-4585-9058-0dfdc6436ac8","system_id":"levelo_inurba_marseille","lat":43.31351,"lon":5.37909,"is_reserved":false,"is_disabled":false,"rental_uris":{"android":"levelo://app?vid=fb6fd937-527b-4585-9058-0dfdc6436ac8","ios":"levelo://app?vid=fb6fd937-527b-4585-9058-0dfdc6436ac8"},"vehicle_type_id":"4","last_reported":1701522408,"current_range_meters":21600,"station_id":"","pricing_plan_id":"free"},{"bike_id":"df711f76-aab2-4804-8f7e-dd0f93a90b00","system_id":"levelo_inurba_marseille","lat":43.303046,"lon":5.368981,"is_reserved":false,"is_disabled":false,"rental_uris":{"android":"levelo://app?vid=df711f76-aab2-4804-8f7e-dd0f93a90b00","ios":"levelo://app?vid=df711f76-aab2-4804-8f7e-dd0f93a90b00"},"vehicle_type_id":"4","last_reported":1701522408,"current_range_meters":22400,"station_id":"ce4bgqh2rcd13ifvqc5g","pricing_plan_id":"free"},{"bike_id":"e22ae6fe-aa5e-461e-a42e-024b0c10ccd5","system_id":"levelo_inurba_marseille","lat":43.303046,"lon":5.368981,"is_reserved":false,"is_disabled":false,"rental_uris":{"android":"levelo://app?vid=e22ae6fe-aa5e-461e-a42e-024b0c10ccd5","ios":"levelo://app?vid=e22ae6fe-aa5e-461e-a42e-024b0c10ccd5"},"vehicle_type_id":"4","last_reported":1701522408,"current_range_meters":28000,"station_id":"ce4bgqh2rcd13ifvqc5g","pricing_plan_id":"free"},{"bike_id":"c141e2bf-2c47-49c5-9d72-34a7260f5acc","system_id":"levelo_inurba_marseille","lat":43.301939,"lon":5.366286,"is_reserved":false,"is_disabled":false,"rental_uris":{"android":"levelo://app?vid=c141e2bf-2c47-49c5-9d72-34a7260f5acc","ios":"levelo://app?vid=c141e2bf-2c47-49c5-9d72-34a7260f5acc"},"vehicle_type_id":"4","last_reported":1701522408,"current_range_meters":18000,"station_id":"ce4bgrh2rcd13ifvqc8g","pricing_plan_id":"free"},{"bike_id":"05d878d8-b6b7-4589-9ec5-6d484993a336","system_id":"levelo_inurba_marseille","lat":43.304606,"lon":5.379026,"is_reserved":false,"is_disabled":false,"rental_uris":{"android":"levelo://app?vid=05d878d8-b6b7-4589-9ec5-6d484993a336","ios":"levelo://app?vid=05d878d8-b6b7-4589-9ec5-6d484993a336"},"vehicle_type_id":"4","last_reported":1701522408,"current_range_meters":800,"station_id":"ce4bgup2rcd13ifvqcn0","pricing_plan_id":"free"},{"bike_id":"1e1f9786-38b3-4cf3-8295-abd6b955aeb8","system_id":"levelo_inurba_marseille","lat":43.304606,"lon":5.379026,"is_reserved":false,"is_disabled":false,"rental_uris":{"android":"levelo://app?vid=1e1f9786-38b3-4cf3-8295-abd6b955aeb8","ios":"levelo://app?vid=1e1f9786-38b3-4cf3-8295-abd6b955aeb8"},"vehicle_type_id":"4","last_reported":1701522408,"current_range_meters":14400,"station_id":"ce4bgup2rcd13ifvqcn0","pricing_plan_id":"free"},{"bike_id":"543fcca1-f31a-4131-b4d8-a302242ee133","system_id":"levelo_inurba_marseille","lat":43.30461,"lon":5.37902,"is_reserved":false,"is_disabled":false,"rental_uris":{"android":"levelo://app?vid=543fcca1-f31a-4131-b4d8-a302242ee133","ios":"levelo://app?vid=543fcca1-f31a-4131-b4d8-a302242ee133"},"vehicle_type_id":"4","last_reported":1701522408,"current_range_meters":10000,"station_id":"ce4bgup2rcd13ifvqcn0","pricing_plan_id":"free"},{"bike_id":"e56c4c03-d6ac-416d-8380-bbaf7fb49559","system_id":"levelo_inurba_marseille","lat":43.32483,"lon":5.36557,"is_reserved":false,"is_disabled":false,"rental_uris":{"android":"levelo://app?vid=e56c4c03-d6ac-416d-8380-bbaf7fb49559","ios":"levelo://app?vid=e56c4c03-d6ac-416d-8380-bbaf7fb49559"},"vehicle_type_id":"4","last_reported":1701522408,"current_range_meters":2400,"station_id":"ce4bhs12rcd13ifvqhvg","pricing_plan_id":"free"},{"bike_id":"bc8eac31-4b5b-48b3-aa99-5c3fdd18d82e","system_id":"levelo_inurba_marseille","lat":43.324771,"lon":5.36557,"is_reserved":false,"is_disabled":false,"rental_uris":{"android":"levelo://app?vid=bc8eac31-4b5b-48b3-aa99-5c3fdd18d82e","ios":"levelo://app?vid=bc8eac31-4b5b-48b3-aa99-5c3fdd18d82e"},"vehicle_type_id":"4","last_reported":1701522408,"current_range_meters":18800,"station_id":"ce4bhs12rcd13ifvqhvg","pricing_plan_id":"free"},{"bike_id":"022f1aed-9908-412b-81a4-5418a2bd9e20","system_id":"levelo_inurba_marseille","lat":43.30143,"lon":5.37413,"is_reserved":false,"is_disabled":false,"rental_uris":{"android":"levelo://app?vid=022f1aed-9908-412b-81a4-5418a2bd9e20","ios":"levelo://app?vid=022f1aed-9908-412b-81a4-5418a2bd9e20"},"vehicle_type_id":"4","last_reported":1701522408,"current_range_meters":9200,"station_id":"ce4bgs92rcd13ifvqcc0","pricing_plan_id":"free"},{"bike_id":"bbe518ed-cb90-4018-9b02-4cd263726c2d","system_id":"levelo_inurba_marseille","lat":43.301429,"lon":5.37413,"is_reserved":false,"is_disabled":false,"rental_uris":{"android":"levelo://app?vid=bbe518ed-cb90-4018-9b02-4cd263726c2d","ios":"levelo://app?vid=bbe518ed-cb90-4018-9b02-4cd263726c2d"},"vehicle_type_id":"4","last_reported":1701522408,"current_range_meters":30400,"station_id":"ce4bgs92rcd13ifvqcc0","pricing_plan_id":"free"},{"bike_id":"2275aca5-3158-4c2c-8022-ca5d2714bc86","system_id":"levelo_inurba_marseille","lat":43.319997,"lon":5.381594,"is_reserved":false,"is_disabled":false,"rental_uris":{"android":"levelo://app?vid=2275aca5-3158-4c2c-8022-ca5d2714bc86","ios":"levelo://app?vid=2275aca5-3158-4c2c-8022-ca5d2714bc86"},"vehicle_type_id":"4","last_reported":1701522408,"current_range_meters":15200,"station_id":"ce4bhr12rcd13ifvqhpg","pricing_plan_id":"free"},{"bike_id":"b5e65d3c-c2fe-4846-aa36-f8cab504a648","system_id":"levelo_inurba_marseille","lat":43.313571,"lon":5.384829,"is_reserved":false,"is_disabled":false,"rental_uris":{"android":"levelo://app?vid=b5e65d3c-c2fe-4846-aa36-f8cab504a648","ios":"levelo://app?vid=b5e65d3c-c2fe-4846-aa36-f8cab504a648"},"vehicle_type_id":"4","last_reported":1701522408,"current_range_meters":16000,"station_id":"ce4bgt92rcd13ifvqcf0","pricing_plan_id":"free"},{"bike_id":"9fdb7f97-586d-42d2-befd-15216ba2e422","system_id":"levelo_inurba_marseille","lat":43.31183,"lon":5.38523,"is_reserved":false,"is_disabled":false,"rental_uris":{"android":"levelo://app?vid=9fdb7f97-586d-42d2-befd-15216ba2e422","ios":"levelo://app?vid=9fdb7f97-586d-42d2-befd-15216ba2e422"},"vehicle_type_id":"4","last_reported":1701522408,"current_range_meters":1600,"station_id":"","pricing_plan_id":"free"},{"bike_id":"48ec9541-9b6f-45df-9f60-46b8453300dd","system_id":"levelo_inurba_marseille","lat":43.299724,"lon":5.371829,"is_reserved":false,"is_disabled":false,"rental_uris":{"android":"levelo://app?vid=48ec9541-9b6f-45df-9f60-46b8453300dd","ios":"levelo://app?vid=48ec9541-9b6f-45df-9f60-46b8453300dd"},"vehicle_type_id":"4","last_reported":1701522408,"current_range_meters":7600,"station_id":"ce4bgr92rcd13ifvqc7g","pricing_plan_id":"free"},{"bike_id":"1484c8cc-b9a4-4901-9743-03595104cee4","system_id":"levelo_inurba_marseille","lat":43.299724,"lon":5.371829,"is_reserved":false,"is_disabled":false,"rental_uris":{"android":"levelo://app?vid=1484c8cc-b9a4-4901-9743-03595104cee4","ios":"levelo://app?vid=1484c8cc-b9a4-4901-9743-03595104cee4"},"vehicle_type_id":"4","last_reported":1701522408,"current_range_meters":26400,"station_id":"ce4bgr92rcd13ifvqc7g","pricing_plan_id":"free"},{"bike_id":"cdc1e23f-7944-41c7-b20d-11747db0a977","system_id":"levelo_inurba_marseille","lat":43.299342,"lon":5.365528,"is_reserved":false,"is_disabled":false,"rental_uris":{"android":"levelo://app?vid=cdc1e23f-7944-41c7-b20d-11747db0a977","ios":"levelo://app?vid=cdc1e23f-7944-41c7-b20d-11747db0a977"},"vehicle_type_id":"4","last_reported":1701522408,"current_range_meters":16800,"station_id":"ce4bgm92rcd13ifvqbr0","pricing_plan_id":"free"},{"bike_id":"3d84fb01-c590-46d1-8623-3eccba46202a","system_id":"levelo_inurba_marseille","lat":43.299724,"lon":5.371829,"is_reserved":false,"is_disabled":false,"rental_uris":{"android":"levelo://app?vid=3d84fb01-c590-46d1-8623-3eccba46202a","ios":"levelo://app?vid=3d84fb01-c590-46d1-8623-3eccba46202a"},"vehicle_type_id":"4","last_reported":1701522408,"current_range_meters":26800,"station_id":"ce4bgr92rcd13ifvqc7g","pricing_plan_id":"free"},{"bike_id":"748d12ab-8e09-4ecd-b2d2-cbe0ea9624f6","system_id":"levelo_inurba_marseille","lat":43.298525,"lon":5.367613,"is_reserved":false,"is_disabled":false,"rental_uris":{"android":"levelo://app?vid=748d12ab-8e09-4ecd-b2d2-cbe0ea9624f6","ios":"levelo://app?vid=748d12ab-8e09-4ecd-b2d2-cbe0ea9624f6"},"vehicle_type_id":"4","last_reported":1701522408,"current_range_meters":6800,"station_id":"","pricing_plan_id":"free"},{"bike_id":"599463fe-fa78-482c-b2cb-e94952729694","system_id":"levelo_inurba_marseille","lat":43.305364,"lon":5.384119,"is_reserved":false,"is_disabled":false,"rental_uris":{"android":"levelo://app?vid=599463fe-fa78-482c-b2cb-e94952729694","ios":"levelo://app?vid=599463fe-fa78-482c-b2cb-e94952729694"},"vehicle_type_id":"4","last_reported":1701522408,"current_range_meters":31200,"station_id":"ce4bgg92rcd13ifvqb30","pricing_plan_id":"free"},{"bike_id":"f8ed0312-be7f-4cde-ad6d-50b85d80b8bc","system_id":"levelo_inurba_marseille","lat":43.298433,"lon":5.362774,"is_reserved":false,"is_disabled":false,"rental_uris":{"android":"levelo://app?vid=f8ed0312-be7f-4cde-ad6d-50b85d80b8bc","ios":"levelo://app?vid=f8ed0312-be7f-4cde-ad6d-50b85d80b8bc"},"vehicle_type_id":"4","last_reported":1701522408,"current_range_meters":16000,"station_id":"ce4bgpp2rcd13ifvqc3g","pricing_plan_id":"free"},{"bike_id":"280d97f5-661d-4ad5-b62d-7ec10cc194a5","system_id":"levelo_inurba_marseille","lat":43.30545,"lon":5.38428,"is_reserved":false,"is_disabled":false,"rental_uris":{"android":"levelo://app?vid=280d97f5-661d-4ad5-b62d-7ec10cc194a5","ios":"levelo://app?vid=280d97f5-661d-4ad5-b62d-7ec10cc194a5"},"vehicle_type_id":"4","last_reported":1701522408,"current_range_meters":9600,"station_id":"ce4bgg92rcd13ifvqb30","pricing_plan_id":"free"},{"bike_id":"44bcaf43-0796-42e1-97b2-b5a70d38bec5","system_id":"levelo_inurba_marseille","lat":43.30536,"lon":5.38425,"is_reserved":false,"is_disabled":false,"rental_uris":{"android":"levelo://app?vid=44bcaf43-0796-42e1-97b2-b5a70d38bec5","ios":"levelo://app?vid=44bcaf43-0796-42e1-97b2-b5a70d38bec5"},"vehicle_type_id":"4","last_reported":1701522408,"current_range_meters":16800,"station_id":"ce4bgg92rcd13ifvqb30","pricing_plan_id":"free"},{"bike_id":"47128acf-0738-4108-aa23-04448d1f00fa","system_id":"levelo_inurba_marseille","lat":43.298433,"lon":5.362774,"is_reserved":false,"is_disabled":false,"rental_uris":{"android":"levelo://app?vid=47128acf-0738-4108-aa23-04448d1f00fa","ios":"levelo://app?vid=47128acf-0738-4108-aa23-04448d1f00fa"},"vehicle_type_id":"4","last_reported":1701522408,"current_range_meters":21600,"station_id":"ce4bgpp2rcd13ifvqc3g","pricing_plan_id":"free"},{"bike_id":"f4209ce5-da7c-42a2-83b8-1db622885a70","system_id":"levelo_inurba_marseille","lat":43.298433,"lon":5.362774,"is_reserved":false,"is_disabled":false,"rental_uris":{"android":"levelo://app?vid=f4209ce5-da7c-42a2-83b8-1db622885a70","ios":"levelo://app?vid=f4209ce5-da7c-42a2-83b8-1db622885a70"},"vehicle_type_id":"4","last_reported":1701522408,"current_range_meters":22000,"station_id":"ce4bgpp2rcd13ifvqc3g","pricing_plan_id":"free"},{"bike_id":"5456fa83-df2a-42d5-9253-7272b258a5fb","system_id":"levelo_inurba_marseille","lat":43.299243,"lon":5.37481,"is_reserved":false,"is_disabled":false,"rental_uris":{"android":"levelo://app?vid=5456fa83-df2a-42d5-9253-7272b258a5fb","ios":"levelo://app?vid=5456fa83-df2a-42d5-9253-7272b258a5fb"},"vehicle_type_id":"4","last_reported":1701522408,"current_range_meters":5200,"station_id":"ce4bgjh2rcd13ifvqbg0","pricing_plan_id":"free"},{"bike_id":"fa1d12be-748c-4c2f-9027-69dad1092d5f","system_id":"levelo_inurba_marseille","lat":43.299243,"lon":5.374807,"is_reserved":false,"is_disabled":false,"rental_uris":{"android":"levelo://app?vid=fa1d12be-748c-4c2f-9027-69dad1092d5f","ios":"levelo://app?vid=fa1d12be-748c-4c2f-9027-69dad1092d5f"},"vehicle_type_id":"4","last_reported":1701522408,"current_range_meters":13600,"station_id":"ce4bgjh2rcd13ifvqbg0","pricing_plan_id":"free"},{"bike_id":"524163ce-b117-494f-8223-a4d19d253717","system_id":"levelo_inurba_marseille","lat":43.299243,"lon":5.37481,"is_reserved":false,"is_disabled":false,"rental_uris":{"android":"levelo://app?vid=524163ce-b117-494f-8223-a4d19d253717","ios":"levelo://app?vid=524163ce-b117-494f-8223-a4d19d253717"},"vehicle_type_id":"4","last_reported":1701522408,"current_range_meters":30400,"station_id":"ce4bgjh2rcd13ifvqbg0","pricing_plan_id":"free"},{"bike_id":"3777795a-2897-43b3-ab74-b63c8b7aff54","system_id":"levelo_inurba_marseille","lat":43.297774,"lon":5.370875,"is_reserved":false,"is_disabled":false,"rental_uris":{"android":"levelo://app?vid=3777795a-2897-43b3-ab74-b63c8b7aff54","ios":"levelo://app?vid=3777795a-2897-43b3-ab74-b63c8b7aff54"},"vehicle_type_id":"4","last_reported":1701522408,"current_range_meters":26800,"station_id":"ce4bgop2rcd13ifvqc1g","pricing_plan_id":"free"},{"bike_id":"8d7cbc3a-dc89-4ffe-af66-a05dd6e38785","system_id":"levelo_inurba_marseille","lat":43.322872,"lon":5.382756,"is_reserved":false,"is_disabled":false,"rental_uris":{"android":"levelo://app?vid=8d7cbc3a-dc89-4ffe-af66-a05dd6e38785","ios":"levelo://app?vid=8d7cbc3a-dc89-4ffe-af66-a05dd6e38785"},"vehicle_type_id":"4","last_reported":1701522408,"current_range_meters":6800,"station_id":"ce4bhr12rcd13ifvqhqg","pricing_plan_id":"free"},{"bike_id":"863e68e6-f678-4404-9035-1f0c001016cb","system_id":"levelo_inurba_marseille","lat":43.32827,"lon":5.36683,"is_reserved":false,"is_disabled":false,"rental_uris":{"android":"levelo://app?vid=863e68e6-f678-4404-9035-1f0c001016cb","ios":"levelo://app?vid=863e68e6-f678-4404-9035-1f0c001016cb"},"vehicle_type_id":"4","last_reported":1701522408,"current_range_meters":17200,"station_id":"ce4bhs92rcd13ifvqi0g","pricing_plan_id":"free"},{"bike_id":"c0284961-478e-4ccd-b43e-321d6e4c5580","system_id":"levelo_inurba_marseille","lat":43.32831,"lon":5.36682,"is_reserved":false,"is_disabled":false,"rental_uris":{"android":"levelo://app?vid=c0284961-478e-4ccd-b43e-321d6e4c5580","ios":"levelo://app?vid=c0284961-478e-4ccd-b43e-321d6e4c5580"},"vehicle_type_id":"4","last_reported":1701522408,"current_range_meters":3200,"station_id":"ce4bhs92rcd13ifvqi0g","pricing_plan_id":"free"},{"bike_id":"3c6eacad-63e8-42f7-9988-09cf64b64dd8","system_id":"levelo_inurba_marseille","lat":43.32832,"lon":5.36678,"is_reserved":false,"is_disabled":false,"rental_uris":{"android":"levelo://app?vid=3c6eacad-63e8-42f7-9988-09cf64b64dd8","ios":"levelo://app?vid=3c6eacad-63e8-42f7-9988-09cf64b64dd8"},"vehicle_type_id":"4","last_reported":1701522408,"current_range_meters":8000,"station_id":"ce4bhs92rcd13ifvqi0g","pricing_plan_id":"free"},{"bike_id":"5c26bdfb-7b7c-43fb-8a01-250128a1a6f8","system_id":"levelo_inurba_marseille","lat":43.32832,"lon":5.36676,"is_reserved":false,"is_disabled":false,"rental_uris":{"android":"levelo://app?vid=5c26bdfb-7b7c-43fb-8a01-250128a1a6f8","ios":"levelo://app?vid=5c26bdfb-7b7c-43fb-8a01-250128a1a6f8"},"vehicle_type_id":"4","last_reported":1701522408,"current_range_meters":21200,"station_id":"ce4bhs92rcd13ifvqi0g","pricing_plan_id":"free"},{"bike_id":"806b4f74-190d-4856-9aab-4cce6f7dc519","system_id":"levelo_inurba_marseille","lat":43.304606,"lon":5.379026,"is_reserved":false,"is_disabled":false,"rental_uris":{"android":"levelo://app?vid=806b4f74-190d-4856-9aab-4cce6f7dc519","ios":"levelo://app?vid=806b4f74-190d-4856-9aab-4cce6f7dc519"},"vehicle_type_id":"4","last_reported":1701522408,"current_range_meters":21600,"station_id":"ce4bgup2rcd13ifvqcn0","pricing_plan_id":"free"},{"bike_id":"eaa0e7e7-2390-47fa-909b-7b240952cbef","system_id":"levelo_inurba_marseille","lat":43.31653,"lon":5.38957,"is_reserved":false,"is_disabled":false,"rental_uris":{"android":"levelo://app?vid=eaa0e7e7-2390-47fa-909b-7b240952cbef","ios":"levelo://app?vid=eaa0e7e7-2390-47fa-909b-7b240952cbef"},"vehicle_type_id":"4","last_reported":1701522408,"current_range_meters":17200,"station_id":"","pricing_plan_id":"free"},{"bike_id":"0e6feeb5-2030-4637-a5e3-a10fc02e501b","system_id":"levelo_inurba_marseille","lat":43.29573,"lon":5.367355,"is_reserved":false,"is_disabled":false,"rental_uris":{"android":"levelo://app?vid=0e6feeb5-2030-4637-a5e3-a10fc02e501b","ios":"levelo://app?vid=0e6feeb5-2030-4637-a5e3-a10fc02e501b"},"vehicle_type_id":"4","last_reported":1701522408,"current_range_meters":16800,"station_id":"ce4bgph2rcd13ifvqc2g","pricing_plan_id":"free"},{"bike_id":"e9469bec-7cef-4035-8fa8-4b16cfc9cbcd","system_id":"levelo_inurba_marseille","lat":43.317557,"lon":5.390173,"is_reserved":false,"is_disabled":false,"rental_uris":{"android":"levelo://app?vid=e9469bec-7cef-4035-8fa8-4b16cfc9cbcd","ios":"levelo://app?vid=e9469bec-7cef-4035-8fa8-4b16cfc9cbcd"},"vehicle_type_id":"4","last_reported":1701522408,"current_range_meters":26400,"station_id":"ce4bhqp2rcd13ifvqhng","pricing_plan_id":"free"},{"bike_id":"514bc150-2dc4-4545-b213-51a1a1ce74b7","system_id":"levelo_inurba_marseille","lat":43.298037,"lon":5.381066,"is_reserved":false,"is_disabled":false,"rental_uris":{"android":"levelo://app?vid=514bc150-2dc4-4545-b213-51a1a1ce74b7","ios":"levelo://app?vid=514bc150-2dc4-4545-b213-51a1a1ce74b7"},"vehicle_type_id":"4","last_reported":1701522408,"current_range_meters":14800,"station_id":"ce4bgip2rcd13ifvqbb0","pricing_plan_id":"free"},{"bike_id":"3d934435-bee7-4aab-9658-46a14816007b","system_id":"levelo_inurba_marseille","lat":43.298037,"lon":5.381066,"is_reserved":false,"is_disabled":false,"rental_uris":{"android":"levelo://app?vid=3d934435-bee7-4aab-9658-46a14816007b","ios":"levelo://app?vid=3d934435-bee7-4aab-9658-46a14816007b"},"vehicle_type_id":"4","last_reported":1701522408,"current_range_meters":19200,"station_id":"ce4bgip2rcd13ifvqbb0","pricing_plan_id":"free"},{"bike_id":"a7ea56af-980a-4604-b85b-8e7dfb07f706","system_id":"levelo_inurba_marseille","lat":43.298037,"lon":5.381066,"is_reserved":false,"is_disabled":false,"rental_uris":{"android":"levelo://app?vid=a7ea56af-980a-4604-b85b-8e7dfb07f706","ios":"levelo://app?vid=a7ea56af-980a-4604-b85b-8e7dfb07f706"},"vehicle_type_id":"4","last_reported":1701522408,"current_range_meters":4400,"station_id":"ce4bgip2rcd13ifvqbb0","pricing_plan_id":"free"},{"bike_id":"9fe59cff-0211-4617-88db-f309853fb441","system_id":"levelo_inurba_marseille","lat":43.29626,"lon":5.37698,"is_reserved":false,"is_disabled":false,"rental_uris":{"android":"levelo://app?vid=9fe59cff-0211-4617-88db-f309853fb441","ios":"levelo://app?vid=9fe59cff-0211-4617-88db-f309853fb441"},"vehicle_type_id":"4","last_reported":1701522408,"current_range_meters":0,"station_id":"ce4bgi92rcd13ifvqb90","pricing_plan_id":"free"},{"bike_id":"fdfc3070-f0be-42cb-9dd9-a3bc651b5779","system_id":"levelo_inurba_marseille","lat":43.296263,"lon":5.377094,"is_reserved":false,"is_disabled":false,"rental_uris":{"android":"levelo://app?vid=fdfc3070-f0be-42cb-9dd9-a3bc651b5779","ios":"levelo://app?vid=fdfc3070-f0be-42cb-9dd9-a3bc651b5779"},"vehicle_type_id":"4","last_reported":1701522408,"current_range_meters":18400,"station_id":"ce4bgi92rcd13ifvqb90","pricing_plan_id":"free"},{"bike_id":"e6376c88-65b2-4e99-864c-bc5711bb6f32","system_id":"levelo_inurba_marseille","lat":43.295748,"lon":5.37522,"is_reserved":false,"is_disabled":false,"rental_uris":{"android":"levelo://app?vid=e6376c88-65b2-4e99-864c-bc5711bb6f32","ios":"levelo://app?vid=e6376c88-65b2-4e99-864c-bc5711bb6f32"},"vehicle_type_id":"4","last_reported":1701522408,"current_range_meters":15600,"station_id":"ce4bgh92rcd13ifvqb50","pricing_plan_id":"free"},{"bike_id":"13ca97e5-82b5-4e06-8d78-e9793b7e594e","system_id":"levelo_inurba_marseille","lat":43.297142,"lon":5.379705,"is_reserved":false,"is_disabled":false,"rental_uris":{"android":"levelo://app?vid=13ca97e5-82b5-4e06-8d78-e9793b7e594e","ios":"levelo://app?vid=13ca97e5-82b5-4e06-8d78-e9793b7e594e"},"vehicle_type_id":"4","last_reported":1701522408,"current_range_meters":19200,"station_id":"","pricing_plan_id":"free"},{"bike_id":"bb2b0f2a-2129-48fc-8ff1-8cfef8cc93fb","system_id":"levelo_inurba_marseille","lat":43.29602,"lon":5.381084,"is_reserved":false,"is_disabled":false,"rental_uris":{"android":"levelo://app?vid=bb2b0f2a-2129-48fc-8ff1-8cfef8cc93fb","ios":"levelo://app?vid=bb2b0f2a-2129-48fc-8ff1-8cfef8cc93fb"},"vehicle_type_id":"4","last_reported":1701522408,"current_range_meters":16400,"station_id":"ce4bgl12rcd13ifvqbo0","pricing_plan_id":"free"},{"bike_id":"8b71b750-319e-4d1c-8ff5-62e4f6078d81","system_id":"levelo_inurba_marseille","lat":43.29602,"lon":5.381084,"is_reserved":false,"is_disabled":false,"rental_uris":{"android":"levelo://app?vid=8b71b750-319e-4d1c-8ff5-62e4f6078d81","ios":"levelo://app?vid=8b71b750-319e-4d1c-8ff5-62e4f6078d81"},"vehicle_type_id":"4","last_reported":1701522408,"current_range_meters":14400,"station_id":"ce4bgl12rcd13ifvqbo0","pricing_plan_id":"free"},{"bike_id":"e1bdea2a-1eb6-4663-a0fa-aa8480c66340","system_id":"levelo_inurba_marseille","lat":43.29308,"lon":5.37188,"is_reserved":false,"is_disabled":false,"rental_uris":{"android":"levelo://app?vid=e1bdea2a-1eb6-4663-a0fa-aa8480c66340","ios":"levelo://app?vid=e1bdea2a-1eb6-4663-a0fa-aa8480c66340"},"vehicle_type_id":"4","last_reported":1701522408,"current_range_meters":0,"station_id":"ce4bgh92rcd13ifvqb40","pricing_plan_id":"free"},{"bike_id":"4d018ae2-e54c-43ab-be94-a0cec0b34d31","system_id":"levelo_inurba_marseille","lat":43.29305,"lon":5.37177,"is_reserved":false,"is_disabled":false,"rental_uris":{"android":"levelo://app?vid=4d018ae2-e54c-43ab-be94-a0cec0b34d31","ios":"levelo://app?vid=4d018ae2-e54c-43ab-be94-a0cec0b34d31"},"vehicle_type_id":"4","last_reported":1701522408,"current_range_meters":23600,"station_id":"ce4bgh92rcd13ifvqb40","pricing_plan_id":"free"},{"bike_id":"e169e80d-feeb-4403-9fe9-d81cb7f37e72","system_id":"levelo_inurba_marseille","lat":43.29276,"lon":5.36847,"is_reserved":false,"is_disabled":false,"rental_uris":{"android":"levelo://app?vid=e169e80d-feeb-4403-9fe9-d81cb7f37e72","ios":"levelo://app?vid=e169e80d-feeb-4403-9fe9-d81cb7f37e72"},"vehicle_type_id":"4","last_reported":1701522408,"current_range_meters":0,"station_id":"ce4bhbp2rcd13ifvqesg","pricing_plan_id":"free"},{"bike_id":"43a15a21-a013-41b4-b9c7-bbe4b7828785","system_id":"levelo_inurba_marseille","lat":43.293009,"lon":5.374584,"is_reserved":false,"is_disabled":false,"rental_uris":{"android":"levelo://app?vid=43a15a21-a013-41b4-b9c7-bbe4b7828785","ios":"levelo://app?vid=43a15a21-a013-41b4-b9c7-bbe4b7828785"},"vehicle_type_id":"4","last_reported":1701522408,"current_range_meters":800,"station_id":"ce4bgi12rcd13ifvqb70","pricing_plan_id":"free"},{"bike_id":"4c0c1d27-c87f-44ff-89c1-3d7d8b6eeebf","system_id":"levelo_inurba_marseille","lat":43.305994,"lon":5.393687,"is_reserved":false,"is_disabled":false,"rental_uris":{"android":"levelo://app?vid=4c0c1d27-c87f-44ff-89c1-3d7d8b6eeebf","ios":"levelo://app?vid=4c0c1d27-c87f-44ff-89c1-3d7d8b6eeebf"},"vehicle_type_id":"4","last_reported":1701522408,"current_range_meters":8000,"station_id":"ce4bh0p2rcd13ifvqd80","pricing_plan_id":"free"},{"bike_id":"5a133e5e-76fd-4150-9c87-46ce93c608ae","system_id":"levelo_inurba_marseille","lat":43.293009,"lon":5.374584,"is_reserved":false,"is_disabled":false,"rental_uris":{"android":"levelo://app?vid=5a133e5e-76fd-4150-9c87-46ce93c608ae","ios":"levelo://app?vid=5a133e5e-76fd-4150-9c87-46ce93c608ae"},"vehicle_type_id":"4","last_reported":1701522408,"current_range_meters":10400,"station_id":"ce4bgi12rcd13ifvqb70","pricing_plan_id":"free"},{"bike_id":"c9d7aaaa-ce66-41de-9e16-5a7c4c0add4d","system_id":"levelo_inurba_marseille","lat":43.303002,"lon":5.392142,"is_reserved":false,"is_disabled":false,"rental_uris":{"android":"levelo://app?vid=c9d7aaaa-ce66-41de-9e16-5a7c4c0add4d","ios":"levelo://app?vid=c9d7aaaa-ce66-41de-9e16-5a7c4c0add4d"},"vehicle_type_id":"4","last_reported":1701522408,"current_range_meters":20000,"station_id":"ce4bgkh2rcd13ifvqbk0","pricing_plan_id":"free"},{"bike_id":"460c72c6-c4f9-4e9e-87b8-44f389b236f7","system_id":"levelo_inurba_marseille","lat":43.293824,"lon":5.378559,"is_reserved":false,"is_disabled":false,"rental_uris":{"android":"levelo://app?vid=460c72c6-c4f9-4e9e-87b8-44f389b236f7","ios":"levelo://app?vid=460c72c6-c4f9-4e9e-87b8-44f389b236f7"},"vehicle_type_id":"4","last_reported":1701522408,"current_range_meters":29600,"station_id":"ce4bgjh2rcd13ifvqbf0","pricing_plan_id":"free"},{"bike_id":"3ffe3133-ac2c-4e90-a944-16e11d79a066","system_id":"levelo_inurba_marseille","lat":43.292311,"lon":5.360731,"is_reserved":false,"is_disabled":false,"rental_uris":{"android":"levelo://app?vid=3ffe3133-ac2c-4e90-a944-16e11d79a066","ios":"levelo://app?vid=3ffe3133-ac2c-4e90-a944-16e11d79a066"},"vehicle_type_id":"4","last_reported":1701522408,"current_range_meters":2800,"station_id":"ce4bhbh2rcd13ifvqeqg","pricing_plan_id":"free"},{"bike_id":"23b66a10-69df-425d-ac69-86dd43dbfb78","system_id":"levelo_inurba_marseille","lat":43.29877,"lon":5.38908,"is_reserved":false,"is_disabled":false,"rental_uris":{"android":"levelo://app?vid=23b66a10-69df-425d-ac69-86dd43dbfb78","ios":"levelo://app?vid=23b66a10-69df-425d-ac69-86dd43dbfb78"},"vehicle_type_id":"4","last_reported":1701522408,"current_range_meters":19600,"station_id":"ce4bh392rcd13ifvqdl0","pricing_plan_id":"free"},{"bike_id":"c5a214d7-88b6-4e22-b0e6-4d69ea3202e6","system_id":"levelo_inurba_marseille","lat":43.294162,"lon":5.386292,"is_reserved":false,"is_disabled":false,"rental_uris":{"android":"levelo://app?vid=c5a214d7-88b6-4e22-b0e6-4d69ea3202e6","ios":"levelo://app?vid=c5a214d7-88b6-4e22-b0e6-4d69ea3202e6"},"vehicle_type_id":"4","last_reported":1701522408,"current_range_meters":18400,"station_id":"ce4bh2h2rcd13ifvqdh0","pricing_plan_id":"free"},{"bike_id":"a90a3383-4aac-4630-99d3-5800fb7706b7","system_id":"levelo_inurba_marseille","lat":43.294153,"lon":5.386305,"is_reserved":false,"is_disabled":false,"rental_uris":{"android":"levelo://app?vid=a90a3383-4aac-4630-99d3-5800fb7706b7","ios":"levelo://app?vid=a90a3383-4aac-4630-99d3-5800fb7706b7"},"vehicle_type_id":"4","last_reported":1701522408,"current_range_meters":0,"station_id":"ce4bh2h2rcd13ifvqdh0","pricing_plan_id":"free"},{"bike_id":"e73d70dd-1ee5-4cd6-b238-194c30c58648","system_id":"levelo_inurba_marseille","lat":43.28946,"lon":5.36407,"is_reserved":false,"is_disabled":false,"rental_uris":{"android":"levelo://app?vid=e73d70dd-1ee5-4cd6-b238-194c30c58648","ios":"levelo://app?vid=e73d70dd-1ee5-4cd6-b238-194c30c58648"},"vehicle_type_id":"4","last_reported":1701522408,"current_range_meters":27600,"station_id":"ce4bhc92rcd13ifvqetg","pricing_plan_id":"free"},{"bike_id":"736670e9-36b5-48be-b778-b43bcdf92f31","system_id":"levelo_inurba_marseille","lat":43.289184,"lon":5.366408,"is_reserved":false,"is_disabled":false,"rental_uris":{"android":"levelo://app?vid=736670e9-36b5-48be-b778-b43bcdf92f31","ios":"levelo://app?vid=736670e9-36b5-48be-b778-b43bcdf92f31"},"vehicle_type_id":"4","last_reported":1701522408,"current_range_meters":14000,"station_id":"ce4bhap2rcd13ifvqek0","pricing_plan_id":"free"},{"bike_id":"194b77dd-aede-484f-b7c8-2b4a8cc959e3","system_id":"levelo_inurba_marseille","lat":43.292644,"lon":5.384257,"is_reserved":false,"is_disabled":false,"rental_uris":{"android":"levelo://app?vid=194b77dd-aede-484f-b7c8-2b4a8cc959e3","ios":"levelo://app?vid=194b77dd-aede-484f-b7c8-2b4a8cc959e3"},"vehicle_type_id":"4","last_reported":1701522408,"current_range_meters":15200,"station_id":"ce4bh692rcd13ifvqea0","pricing_plan_id":"free"},{"bike_id":"bfb761ce-72dd-48a5-b295-ce8c7a29361d","system_id":"levelo_inurba_marseille","lat":43.304274,"lon":5.397513,"is_reserved":false,"is_disabled":false,"rental_uris":{"android":"levelo://app?vid=bfb761ce-72dd-48a5-b295-ce8c7a29361d","ios":"levelo://app?vid=bfb761ce-72dd-48a5-b295-ce8c7a29361d"},"vehicle_type_id":"4","last_reported":1701522408,"current_range_meters":28400,"station_id":"ce4bh092rcd13ifvqd20","pricing_plan_id":"free"},{"bike_id":"3df0087c-5e97-4ef0-8679-75559352d3bf","system_id":"levelo_inurba_marseille","lat":43.292642,"lon":5.384254,"is_reserved":false,"is_disabled":false,"rental_uris":{"android":"levelo://app?vid=3df0087c-5e97-4ef0-8679-75559352d3bf","ios":"levelo://app?vid=3df0087c-5e97-4ef0-8679-75559352d3bf"},"vehicle_type_id":"4","last_reported":1701522408,"current_range_meters":15200,"station_id":"ce4bh692rcd13ifvqea0","pricing_plan_id":"free"},{"bike_id":"4016a131-1cab-44e5-a865-9f8ec59ce86e","system_id":"levelo_inurba_marseille","lat":43.304296,"lon":5.397513,"is_reserved":false,"is_disabled":false,"rental_uris":{"android":"levelo://app?vid=4016a131-1cab-44e5-a865-9f8ec59ce86e","ios":"levelo://app?vid=4016a131-1cab-44e5-a865-9f8ec59ce86e"},"vehicle_type_id":"4","last_reported":1701522408,"current_range_meters":23200,"station_id":"ce4bh092rcd13ifvqd20","pricing_plan_id":"free"},{"bike_id":"0a3053f1-4d98-4ea9-8e95-3ab879d4ba9d","system_id":"levelo_inurba_marseille","lat":43.33044,"lon":5.38914,"is_reserved":false,"is_disabled":false,"rental_uris":{"android":"levelo://app?vid=0a3053f1-4d98-4ea9-8e95-3ab879d4ba9d","ios":"levelo://app?vid=0a3053f1-4d98-4ea9-8e95-3ab879d4ba9d"},"vehicle_type_id":"4","last_reported":1701522408,"current_range_meters":0,"station_id":"ce4bhr92rcd13ifvqhrg","pricing_plan_id":"free"},{"bike_id":"0948936d-3b41-492c-82ed-4955a9573957","system_id":"levelo_inurba_marseille","lat":43.290995,"lon":5.381361,"is_reserved":false,"is_disabled":false,"rental_uris":{"android":"levelo://app?vid=0948936d-3b41-492c-82ed-4955a9573957","ios":"levelo://app?vid=0948936d-3b41-492c-82ed-4955a9573957"},"vehicle_type_id":"4","last_reported":1701522408,"current_range_meters":9200,"station_id":"ce4bh512rcd13ifvqe2g","pricing_plan_id":"free"},{"bike_id":"fde3e7e9-9d49-418b-887b-e72a4219193b","system_id":"levelo_inurba_marseille","lat":43.297815,"lon":5.393548,"is_reserved":false,"is_disabled":false,"rental_uris":{"android":"levelo://app?vid=fde3e7e9-9d49-418b-887b-e72a4219193b","ios":"levelo://app?vid=fde3e7e9-9d49-418b-887b-e72a4219193b"},"vehicle_type_id":"4","last_reported":1701522408,"current_range_meters":3600,"station_id":"chh1huq6cuj3fo74tm60","pricing_plan_id":"free"},{"bike_id":"b38135b0-bb14-4c25-bf29-b49d406cc922","system_id":"levelo_inurba_marseille","lat":43.33056,"lon":5.39058,"is_reserved":false,"is_disabled":false,"rental_uris":{"android":"levelo://app?vid=b38135b0-bb14-4c25-bf29-b49d406cc922","ios":"levelo://app?vid=b38135b0-bb14-4c25-bf29-b49d406cc922"},"vehicle_type_id":"4","last_reported":1701522408,"current_range_meters":800,"station_id":"","pricing_plan_id":"free"},{"bike_id":"8fbfd02a-1828-4ca5-9824-02fd09148a34","system_id":"levelo_inurba_marseille","lat":43.301117,"lon":5.398795,"is_reserved":false,"is_disabled":false,"rental_uris":{"android":"levelo://app?vid=8fbfd02a-1828-4ca5-9824-02fd09148a34","ios":"levelo://app?vid=8fbfd02a-1828-4ca5-9824-02fd09148a34"},"vehicle_type_id":"4","last_reported":1701522408,"current_range_meters":18800,"station_id":"ce4bh0h2rcd13ifvqd40","pricing_plan_id":"free"},{"bike_id":"7d66d434-88de-49b6-a655-1a7944d742d6","system_id":"levelo_inurba_marseille","lat":43.301117,"lon":5.398795,"is_reserved":false,"is_disabled":false,"rental_uris":{"android":"levelo://app?vid=7d66d434-88de-49b6-a655-1a7944d742d6","ios":"levelo://app?vid=7d66d434-88de-49b6-a655-1a7944d742d6"},"vehicle_type_id":"4","last_reported":1701522408,"current_range_meters":12400,"station_id":"ce4bh0h2rcd13ifvqd40","pricing_plan_id":"free"},{"bike_id":"59f2d4fa-4081-4b37-9e39-4fdd8d6bd7cb","system_id":"levelo_inurba_marseille","lat":43.301117,"lon":5.398795,"is_reserved":false,"is_disabled":false,"rental_uris":{"android":"levelo://app?vid=59f2d4fa-4081-4b37-9e39-4fdd8d6bd7cb","ios":"levelo://app?vid=59f2d4fa-4081-4b37-9e39-4fdd8d6bd7cb"},"vehicle_type_id":"4","last_reported":1701522408,"current_range_meters":27200,"station_id":"ce4bh0h2rcd13ifvqd40","pricing_plan_id":"free"},{"bike_id":"2ebabfa3-8051-466f-85c1-67139ffe078a","system_id":"levelo_inurba_marseille","lat":43.301117,"lon":5.398795,"is_reserved":false,"is_disabled":false,"rental_uris":{"android":"levelo://app?vid=2ebabfa3-8051-466f-85c1-67139ffe078a","ios":"levelo://app?vid=2ebabfa3-8051-466f-85c1-67139ffe078a"},"vehicle_type_id":"4","last_reported":1701522408,"current_range_meters":20000,"station_id":"ce4bh0h2rcd13ifvqd40","pricing_plan_id":"free"},{"bike_id":"66039bfb-efb5-4832-a7ec-9fa8c7f62f51","system_id":"levelo_inurba_marseille","lat":43.30133,"lon":5.39873,"is_reserved":false,"is_disabled":false,"rental_uris":{"android":"levelo://app?vid=66039bfb-efb5-4832-a7ec-9fa8c7f62f51","ios":"levelo://app?vid=66039bfb-efb5-4832-a7ec-9fa8c7f62f51"},"vehicle_type_id":"4","last_reported":1701522408,"current_range_meters":28800,"station_id":"ce4bh0h2rcd13ifvqd40","pricing_plan_id":"free"},{"bike_id":"4da77a82-2c15-4038-b4d6-c6f2225ddd62","system_id":"levelo_inurba_marseille","lat":43.301196,"lon":5.398806,"is_reserved":false,"is_disabled":false,"rental_uris":{"android":"levelo://app?vid=4da77a82-2c15-4038-b4d6-c6f2225ddd62","ios":"levelo://app?vid=4da77a82-2c15-4038-b4d6-c6f2225ddd62"},"vehicle_type_id":"4","last_reported":1701522408,"current_range_meters":12000,"station_id":"ce4bh0h2rcd13ifvqd40","pricing_plan_id":"free"},{"bike_id":"e5033249-f002-42ea-b5fe-4611f8517afe","system_id":"levelo_inurba_marseille","lat":43.298681,"lon":5.397225,"is_reserved":false,"is_disabled":false,"rental_uris":{"android":"levelo://app?vid=e5033249-f002-42ea-b5fe-4611f8517afe","ios":"levelo://app?vid=e5033249-f002-42ea-b5fe-4611f8517afe"},"vehicle_type_id":"4","last_reported":1701522408,"current_range_meters":18400,"station_id":"ce4bh0h2rcd13ifvqd50","pricing_plan_id":"free"},{"bike_id":"a4231883-26f0-4584-88ee-b227916dc5c6","system_id":"levelo_inurba_marseille","lat":43.286593,"lon":5.363346,"is_reserved":false,"is_disabled":false,"rental_uris":{"android":"levelo://app?vid=a4231883-26f0-4584-88ee-b227916dc5c6","ios":"levelo://app?vid=a4231883-26f0-4584-88ee-b227916dc5c6"},"vehicle_type_id":"4","last_reported":1701522408,"current_range_meters":20800,"station_id":"ce4bhah2rcd13ifvqej0","pricing_plan_id":"free"},{"bike_id":"89e5cf36-f975-44aa-965a-2f8100886e03","system_id":"levelo_inurba_marseille","lat":43.29523,"lon":5.39407,"is_reserved":false,"is_disabled":false,"rental_uris":{"android":"levelo://app?vid=89e5cf36-f975-44aa-965a-2f8100886e03","ios":"levelo://app?vid=89e5cf36-f975-44aa-965a-2f8100886e03"},"vehicle_type_id":"4","last_reported":1701522408,"current_range_meters":0,"station_id":"ce4bh292rcd13ifvqdf0","pricing_plan_id":"free"},{"bike_id":"82764b57-2408-4120-bb29-1ce7e9a6c6ea","system_id":"levelo_inurba_marseille","lat":43.29028,"lon":5.38643,"is_reserved":false,"is_disabled":false,"rental_uris":{"android":"levelo://app?vid=82764b57-2408-4120-bb29-1ce7e9a6c6ea","ios":"levelo://app?vid=82764b57-2408-4120-bb29-1ce7e9a6c6ea"},"vehicle_type_id":"4","last_reported":1701522408,"current_range_meters":0,"station_id":"ce4bh4p2rcd13ifvqe0g","pricing_plan_id":"free"},{"bike_id":"a2a05105-efd6-4341-ad1f-f6146080f98c","system_id":"levelo_inurba_marseille","lat":43.29026,"lon":5.38641,"is_reserved":false,"is_disabled":false,"rental_uris":{"android":"levelo://app?vid=a2a05105-efd6-4341-ad1f-f6146080f98c","ios":"levelo://app?vid=a2a05105-efd6-4341-ad1f-f6146080f98c"},"vehicle_type_id":"4","last_reported":1701522408,"current_range_meters":23200,"station_id":"ce4bh4p2rcd13ifvqe0g","pricing_plan_id":"free"},{"bike_id":"74590cbd-4eac-4089-b3fd-dfc3194e5cb6","system_id":"levelo_inurba_marseille","lat":43.286039,"lon":5.370679,"is_reserved":false,"is_disabled":false,"rental_uris":{"android":"levelo://app?vid=74590cbd-4eac-4089-b3fd-dfc3194e5cb6","ios":"levelo://app?vid=74590cbd-4eac-4089-b3fd-dfc3194e5cb6"},"vehicle_type_id":"4","last_reported":1701522408,"current_range_meters":15600,"station_id":"ce4bht12rcd13ifvqi60","pricing_plan_id":"free"},{"bike_id":"abdf7621-70da-4425-b07a-0e4b2eaaefd9","system_id":"levelo_inurba_marseille","lat":43.28609,"lon":5.37063,"is_reserved":false,"is_disabled":false,"rental_uris":{"android":"levelo://app?vid=abdf7621-70da-4425-b07a-0e4b2eaaefd9","ios":"levelo://app?vid=abdf7621-70da-4425-b07a-0e4b2eaaefd9"},"vehicle_type_id":"4","last_reported":1701522408,"current_range_meters":4800,"station_id":"ce4bht12rcd13ifvqi60","pricing_plan_id":"free"},{"bike_id":"73cdac59-4877-452d-95a1-d591c52a0da6","system_id":"levelo_inurba_marseille","lat":43.291994,"lon":5.392907,"is_reserved":false,"is_disabled":false,"rental_uris":{"android":"levelo://app?vid=73cdac59-4877-452d-95a1-d591c52a0da6","ios":"levelo://app?vid=73cdac59-4877-452d-95a1-d591c52a0da6"},"vehicle_type_id":"4","last_reported":1701522408,"current_range_meters":22800,"station_id":"ce4bh192rcd13ifvqdd0","pricing_plan_id":"free"},{"bike_id":"cf2c8402-01c5-467e-b92d-5fd6802a528b","system_id":"levelo_inurba_marseille","lat":43.294314,"lon":5.397498,"is_reserved":false,"is_disabled":false,"rental_uris":{"android":"levelo://app?vid=cf2c8402-01c5-467e-b92d-5fd6802a528b","ios":"levelo://app?vid=cf2c8402-01c5-467e-b92d-5fd6802a528b"},"vehicle_type_id":"4","last_reported":1701522408,"current_range_meters":21200,"station_id":"ce4bh3h2rcd13ifvqdo0","pricing_plan_id":"free"},{"bike_id":"846e6cee-4f27-454d-a311-83f74a1459ed","system_id":"levelo_inurba_marseille","lat":43.283998,"lon":5.375062,"is_reserved":false,"is_disabled":false,"rental_uris":{"android":"levelo://app?vid=846e6cee-4f27-454d-a311-83f74a1459ed","ios":"levelo://app?vid=846e6cee-4f27-454d-a311-83f74a1459ed"},"vehicle_type_id":"4","last_reported":1701522408,"current_range_meters":14000,"station_id":"ce4bh412rcd13ifvqds0","pricing_plan_id":"free"},{"bike_id":"8e05c0d5-9ffe-4d5f-a737-615272751874","system_id":"levelo_inurba_marseille","lat":43.283998,"lon":5.375062,"is_reserved":false,"is_disabled":false,"rental_uris":{"android":"levelo://app?vid=8e05c0d5-9ffe-4d5f-a737-615272751874","ios":"levelo://app?vid=8e05c0d5-9ffe-4d5f-a737-615272751874"},"vehicle_type_id":"4","last_reported":1701522408,"current_range_meters":27200,"station_id":"ce4bh412rcd13ifvqds0","pricing_plan_id":"free"},{"bike_id":"0d5d7ab8-9ae7-432f-9189-bf46aad59761","system_id":"levelo_inurba_marseille","lat":43.319179,"lon":5.407725,"is_reserved":false,"is_disabled":false,"rental_uris":{"android":"levelo://app?vid=0d5d7ab8-9ae7-432f-9189-bf46aad59761","ios":"levelo://app?vid=0d5d7ab8-9ae7-432f-9189-bf46aad59761"},"vehicle_type_id":"4","last_reported":1701522408,"current_range_meters":31200,"station_id":"ce4bhq12rcd13ifvqhig","pricing_plan_id":"free"},{"bike_id":"f99fc4d8-709b-4cee-a32c-2cdd6f1e8b1e","system_id":"levelo_inurba_marseille","lat":43.33749,"lon":5.39111,"is_reserved":false,"is_disabled":false,"rental_uris":{"android":"levelo://app?vid=f99fc4d8-709b-4cee-a32c-2cdd6f1e8b1e","ios":"levelo://app?vid=f99fc4d8-709b-4cee-a32c-2cdd6f1e8b1e"},"vehicle_type_id":"4","last_reported":1701522408,"current_range_meters":26400,"station_id":"","pricing_plan_id":"free"},{"bike_id":"4714f7cd-5ff4-41d0-870b-3e9261538b58","system_id":"levelo_inurba_marseille","lat":43.323464,"lon":5.406297,"is_reserved":false,"is_disabled":false,"rental_uris":{"android":"levelo://app?vid=4714f7cd-5ff4-41d0-870b-3e9261538b58","ios":"levelo://app?vid=4714f7cd-5ff4-41d0-870b-3e9261538b58"},"vehicle_type_id":"4","last_reported":1701522408,"current_range_meters":26800,"station_id":"ce4bhq92rcd13ifvqhjg","pricing_plan_id":"free"},{"bike_id":"4092b413-a8f0-49fd-8cc3-69bf3f509a40","system_id":"levelo_inurba_marseille","lat":43.32337,"lon":5.40622,"is_reserved":false,"is_disabled":false,"rental_uris":{"android":"levelo://app?vid=4092b413-a8f0-49fd-8cc3-69bf3f509a40","ios":"levelo://app?vid=4092b413-a8f0-49fd-8cc3-69bf3f509a40"},"vehicle_type_id":"4","last_reported":1701522408,"current_range_meters":10400,"station_id":"ce4bhq92rcd13ifvqhjg","pricing_plan_id":"free"},{"bike_id":"b6947fc3-24d5-472d-9aee-f671cf6289d6","system_id":"levelo_inurba_marseille","lat":43.284793,"lon":5.384113,"is_reserved":false,"is_disabled":false,"rental_uris":{"android":"levelo://app?vid=b6947fc3-24d5-472d-9aee-f671cf6289d6","ios":"levelo://app?vid=b6947fc3-24d5-472d-9aee-f671cf6289d6"},"vehicle_type_id":"4","last_reported":1701522408,"current_range_meters":8000,"station_id":"ce4bh512rcd13ifvqe3g","pricing_plan_id":"free"},{"bike_id":"1d421265-88ff-4bf7-8c94-b897c294f843","system_id":"levelo_inurba_marseille","lat":43.284793,"lon":5.384119,"is_reserved":false,"is_disabled":false,"rental_uris":{"android":"levelo://app?vid=1d421265-88ff-4bf7-8c94-b897c294f843","ios":"levelo://app?vid=1d421265-88ff-4bf7-8c94-b897c294f843"},"vehicle_type_id":"4","last_reported":1701522408,"current_range_meters":25200,"station_id":"ce4bh512rcd13ifvqe3g","pricing_plan_id":"free"},{"bike_id":"036aa0b7-6fb1-4ba4-8323-fb39beb643a4","system_id":"levelo_inurba_marseille","lat":43.284787,"lon":5.384116,"is_reserved":false,"is_disabled":false,"rental_uris":{"android":"levelo://app?vid=036aa0b7-6fb1-4ba4-8323-fb39beb643a4","ios":"levelo://app?vid=036aa0b7-6fb1-4ba4-8323-fb39beb643a4"},"vehicle_type_id":"4","last_reported":1701522408,"current_range_meters":20800,"station_id":"ce4bh512rcd13ifvqe3g","pricing_plan_id":"free"},{"bike_id":"1060300b-8bc1-4b4d-b8e3-9b772dae678c","system_id":"levelo_inurba_marseille","lat":43.284787,"lon":5.384116,"is_reserved":false,"is_disabled":false,"rental_uris":{"android":"levelo://app?vid=1060300b-8bc1-4b4d-b8e3-9b772dae678c","ios":"levelo://app?vid=1060300b-8bc1-4b4d-b8e3-9b772dae678c"},"vehicle_type_id":"4","last_reported":1701522408,"current_range_meters":26800,"station_id":"ce4bh512rcd13ifvqe3g","pricing_plan_id":"free"},{"bike_id":"f5d330bb-650a-4e44-be53-30a3af6df284","system_id":"levelo_inurba_marseille","lat":43.284793,"lon":5.384119,"is_reserved":false,"is_disabled":false,"rental_uris":{"android":"levelo://app?vid=f5d330bb-650a-4e44-be53-30a3af6df284","ios":"levelo://app?vid=f5d330bb-650a-4e44-be53-30a3af6df284"},"vehicle_type_id":"4","last_reported":1701522408,"current_range_meters":6400,"station_id":"ce4bh512rcd13ifvqe3g","pricing_plan_id":"free"},{"bike_id":"c1b63376-22d5-4c1d-9864-33ad2ede2b58","system_id":"levelo_inurba_marseille","lat":43.299707,"lon":5.384859,"is_reserved":false,"is_disabled":false,"rental_uris":{"android":"levelo://app?vid=c1b63376-22d5-4c1d-9864-33ad2ede2b58","ios":"levelo://app?vid=c1b63376-22d5-4c1d-9864-33ad2ede2b58"},"vehicle_type_id":"4","last_reported":1701522408,"current_range_meters":27600,"station_id":"ce4bgj92rcd13ifvqbd0","pricing_plan_id":"free"},{"bike_id":"e5a50bc2-d426-4d68-92c1-c1f63055eec9","system_id":"levelo_inurba_marseille","lat":43.29795,"lon":5.404086,"is_reserved":false,"is_disabled":false,"rental_uris":{"android":"levelo://app?vid=e5a50bc2-d426-4d68-92c1-c1f63055eec9","ios":"levelo://app?vid=e5a50bc2-d426-4d68-92c1-c1f63055eec9"},"vehicle_type_id":"4","last_reported":1701522408,"current_range_meters":25200,"station_id":"ce4bh112rcd13ifvqd90","pricing_plan_id":"free"},{"bike_id":"c98f7136-0fa2-4d68-bf67-53828eb2380c","system_id":"levelo_inurba_marseille","lat":43.284219,"lon":5.3497,"is_reserved":false,"is_disabled":false,"rental_uris":{"android":"levelo://app?vid=c98f7136-0fa2-4d68-bf67-53828eb2380c","ios":"levelo://app?vid=c98f7136-0fa2-4d68-bf67-53828eb2380c"},"vehicle_type_id":"4","last_reported":1701522408,"current_range_meters":6000,"station_id":"ce4bhbh2rcd13ifvqepg","pricing_plan_id":"free"},{"bike_id":"c1ab6bf4-cfa0-4653-8bc0-eeb52483b64d","system_id":"levelo_inurba_marseille","lat":43.282744,"lon":5.350533,"is_reserved":false,"is_disabled":false,"rental_uris":{"android":"levelo://app?vid=c1ab6bf4-cfa0-4653-8bc0-eeb52483b64d","ios":"levelo://app?vid=c1ab6bf4-cfa0-4653-8bc0-eeb52483b64d"},"vehicle_type_id":"4","last_reported":1701522408,"current_range_meters":24800,"station_id":"ce4bhbp2rcd13ifvqerg","pricing_plan_id":"free"},{"bike_id":"7b7c7cb6-729c-4919-a4ca-d53f6483477f","system_id":"levelo_inurba_marseille","lat":43.265569,"lon":5.390047,"is_reserved":false,"is_disabled":false,"rental_uris":{"android":"levelo://app?vid=7b7c7cb6-729c-4919-a4ca-d53f6483477f","ios":"levelo://app?vid=7b7c7cb6-729c-4919-a4ca-d53f6483477f"},"vehicle_type_id":"4","last_reported":1701522408,"current_range_meters":26000,"station_id":"ce4bhe12rcd13ifvqf30","pricing_plan_id":"free"},{"bike_id":"97e5d459-0058-484d-a467-7e5af7dc1a32","system_id":"levelo_inurba_marseille","lat":43.290412,"lon":5.399633,"is_reserved":false,"is_disabled":false,"rental_uris":{"android":"levelo://app?vid=97e5d459-0058-484d-a467-7e5af7dc1a32","ios":"levelo://app?vid=97e5d459-0058-484d-a467-7e5af7dc1a32"},"vehicle_type_id":"4","last_reported":1701522408,"current_range_meters":20800,"station_id":"ce4bh392rcd13ifvqdm0","pricing_plan_id":"free"},{"bike_id":"c1f4160d-50ec-48fb-bf57-f0f78b070827","system_id":"levelo_inurba_marseille","lat":43.279087,"lon":5.380114,"is_reserved":false,"is_disabled":false,"rental_uris":{"android":"levelo://app?vid=c1f4160d-50ec-48fb-bf57-f0f78b070827","ios":"levelo://app?vid=c1f4160d-50ec-48fb-bf57-f0f78b070827"},"vehicle_type_id":"4","last_reported":1701522408,"current_range_meters":30400,"station_id":"ce4bhf92rcd13ifvqf50","pricing_plan_id":"free"},{"bike_id":"6560b2a5-5373-4945-8a7f-1d6eee706ba6","system_id":"levelo_inurba_marseille","lat":43.287183,"lon":5.399937,"is_reserved":false,"is_disabled":false,"rental_uris":{"android":"levelo://app?vid=6560b2a5-5373-4945-8a7f-1d6eee706ba6","ios":"levelo://app?vid=6560b2a5-5373-4945-8a7f-1d6eee706ba6"},"vehicle_type_id":"4","last_reported":1701522408,"current_range_meters":29600,"station_id":"ce4bho92rcd13ifvqh3g","pricing_plan_id":"free"},{"bike_id":"2a48ec58-a18d-49d2-9fda-72b787fa06c4","system_id":"levelo_inurba_marseille","lat":43.28698,"lon":5.3998,"is_reserved":false,"is_disabled":false,"rental_uris":{"android":"levelo://app?vid=2a48ec58-a18d-49d2-9fda-72b787fa06c4","ios":"levelo://app?vid=2a48ec58-a18d-49d2-9fda-72b787fa06c4"},"vehicle_type_id":"4","last_reported":1701522408,"current_range_meters":0,"station_id":"","pricing_plan_id":"free"},{"bike_id":"97209419-73c6-4656-9c00-2d7ec198c9a2","system_id":"levelo_inurba_marseille","lat":43.320045,"lon":5.415046,"is_reserved":false,"is_disabled":false,"rental_uris":{"android":"levelo://app?vid=97209419-73c6-4656-9c00-2d7ec198c9a2","ios":"levelo://app?vid=97209419-73c6-4656-9c00-2d7ec198c9a2"},"vehicle_type_id":"4","last_reported":1701522408,"current_range_meters":28400,"station_id":"ce4bhq92rcd13ifvqhkg","pricing_plan_id":"free"},{"bike_id":"50e49625-7903-4759-92f0-d2ab2d777088","system_id":"levelo_inurba_marseille","lat":43.299577,"lon":5.413277,"is_reserved":false,"is_disabled":false,"rental_uris":{"android":"levelo://app?vid=50e49625-7903-4759-92f0-d2ab2d777088","ios":"levelo://app?vid=50e49625-7903-4759-92f0-d2ab2d777088"},"vehicle_type_id":"4","last_reported":1701522408,"current_range_meters":24000,"station_id":"ce4bhp12rcd13ifvqh9g","pricing_plan_id":"free"},{"bike_id":"301f4531-3212-4a63-8019-51159421076a","system_id":"levelo_inurba_marseille","lat":43.279742,"lon":5.38744,"is_reserved":false,"is_disabled":false,"rental_uris":{"android":"levelo://app?vid=301f4531-3212-4a63-8019-51159421076a","ios":"levelo://app?vid=301f4531-3212-4a63-8019-51159421076a"},"vehicle_type_id":"4","last_reported":1701522408,"current_range_meters":28400,"station_id":"ce4bhg12rcd13ifvqf80","pricing_plan_id":"free"},{"bike_id":"5f9c8be7-fcce-4bf1-acce-d78cb2afa7ce","system_id":"levelo_inurba_marseille","lat":43.279742,"lon":5.38744,"is_reserved":false,"is_disabled":false,"rental_uris":{"android":"levelo://app?vid=5f9c8be7-fcce-4bf1-acce-d78cb2afa7ce","ios":"levelo://app?vid=5f9c8be7-fcce-4bf1-acce-d78cb2afa7ce"},"vehicle_type_id":"4","last_reported":1701522408,"current_range_meters":27200,"station_id":"ce4bhg12rcd13ifvqf80","pricing_plan_id":"free"},{"bike_id":"84b9469e-662f-49ed-9119-09b74453ef70","system_id":"levelo_inurba_marseille","lat":43.292571,"lon":5.409107,"is_reserved":false,"is_disabled":false,"rental_uris":{"android":"levelo://app?vid=84b9469e-662f-49ed-9119-09b74453ef70","ios":"levelo://app?vid=84b9469e-662f-49ed-9119-09b74453ef70"},"vehicle_type_id":"4","last_reported":1701522408,"current_range_meters":20800,"station_id":"ce4bh192rcd13ifvqdc0","pricing_plan_id":"free"},{"bike_id":"450db66d-8347-4d8e-8a69-491b2270470e","system_id":"levelo_inurba_marseille","lat":43.292571,"lon":5.409107,"is_reserved":false,"is_disabled":false,"rental_uris":{"android":"levelo://app?vid=450db66d-8347-4d8e-8a69-491b2270470e","ios":"levelo://app?vid=450db66d-8347-4d8e-8a69-491b2270470e"},"vehicle_type_id":"4","last_reported":1701522408,"current_range_meters":11600,"station_id":"ce4bh192rcd13ifvqdc0","pricing_plan_id":"free"},{"bike_id":"662d7ac0-b60c-4589-b775-59c466096683","system_id":"levelo_inurba_marseille","lat":43.325233,"lon":5.414318,"is_reserved":false,"is_disabled":false,"rental_uris":{"android":"levelo://app?vid=662d7ac0-b60c-4589-b775-59c466096683","ios":"levelo://app?vid=662d7ac0-b60c-4589-b775-59c466096683"},"vehicle_type_id":"4","last_reported":1701522408,"current_range_meters":31600,"station_id":"ce4bhq12rcd13ifvqhhg","pricing_plan_id":"free"},{"bike_id":"bcdb50df-13be-4393-adc8-1a79a4e56c43","system_id":"levelo_inurba_marseille","lat":43.28619,"lon":5.40406,"is_reserved":false,"is_disabled":false,"rental_uris":{"android":"levelo://app?vid=bcdb50df-13be-4393-adc8-1a79a4e56c43","ios":"levelo://app?vid=bcdb50df-13be-4393-adc8-1a79a4e56c43"},"vehicle_type_id":"4","last_reported":1701522408,"current_range_meters":0,"station_id":"","pricing_plan_id":"free"},{"bike_id":"c91d65e3-87f2-47cd-ba61-917185e59f7a","system_id":"levelo_inurba_marseille","lat":43.280784,"lon":5.396622,"is_reserved":false,"is_disabled":false,"rental_uris":{"android":"levelo://app?vid=c91d65e3-87f2-47cd-ba61-917185e59f7a","ios":"levelo://app?vid=c91d65e3-87f2-47cd-ba61-917185e59f7a"},"vehicle_type_id":"4","last_reported":1701522408,"current_range_meters":28800,"station_id":"ce4bho12rcd13ifvqh2g","pricing_plan_id":"free"},{"bike_id":"451e5711-912b-4e6f-ba92-14f20d0093e3","system_id":"levelo_inurba_marseille","lat":43.334773,"lon":5.410687,"is_reserved":false,"is_disabled":false,"rental_uris":{"android":"levelo://app?vid=451e5711-912b-4e6f-ba92-14f20d0093e3","ios":"levelo://app?vid=451e5711-912b-4e6f-ba92-14f20d0093e3"},"vehicle_type_id":"4","last_reported":1701522408,"current_range_meters":20800,"station_id":"","pricing_plan_id":"free"},{"bike_id":"b36e1e7d-17ff-4ed8-9477-0e956c5d2754","system_id":"levelo_inurba_marseille","lat":43.303837,"lon":5.418724,"is_reserved":false,"is_disabled":false,"rental_uris":{"android":"levelo://app?vid=b36e1e7d-17ff-4ed8-9477-0e956c5d2754","ios":"levelo://app?vid=b36e1e7d-17ff-4ed8-9477-0e956c5d2754"},"vehicle_type_id":"4","last_reported":1701522408,"current_range_meters":30800,"station_id":"ce4bhop2rcd13ifvqh7g","pricing_plan_id":"free"},{"bike_id":"031638a0-bfc0-4060-8e2b-d5c6505097a4","system_id":"levelo_inurba_marseille","lat":43.336078,"lon":5.410327,"is_reserved":false,"is_disabled":false,"rental_uris":{"android":"levelo://app?vid=031638a0-bfc0-4060-8e2b-d5c6505097a4","ios":"levelo://app?vid=031638a0-bfc0-4060-8e2b-d5c6505097a4"},"vehicle_type_id":"4","last_reported":1701522408,"current_range_meters":8000,"station_id":"ce4bhqh2rcd13ifvqhmg","pricing_plan_id":"free"},{"bike_id":"fcb6bee6-49f8-46af-ade1-f763061572f7","system_id":"levelo_inurba_marseille","lat":43.33612,"lon":5.410321,"is_reserved":false,"is_disabled":false,"rental_uris":{"android":"levelo://app?vid=fcb6bee6-49f8-46af-ade1-f763061572f7","ios":"levelo://app?vid=fcb6bee6-49f8-46af-ade1-f763061572f7"},"vehicle_type_id":"4","last_reported":1701522408,"current_range_meters":26800,"station_id":"ce4bhqh2rcd13ifvqhmg","pricing_plan_id":"free"},{"bike_id":"1fcc700b-9878-48ff-82a6-4ebbbe2aa1db","system_id":"levelo_inurba_marseille","lat":43.279975,"lon":5.40009,"is_reserved":false,"is_disabled":false,"rental_uris":{"android":"levelo://app?vid=1fcc700b-9878-48ff-82a6-4ebbbe2aa1db","ios":"levelo://app?vid=1fcc700b-9878-48ff-82a6-4ebbbe2aa1db"},"vehicle_type_id":"4","last_reported":1701522408,"current_range_meters":30400,"station_id":"ce4bho92rcd13ifvqh4g","pricing_plan_id":"free"},{"bike_id":"50415618-e0c7-4c83-af76-e7d428c4b51d","system_id":"levelo_inurba_marseille","lat":43.279952,"lon":5.400085,"is_reserved":false,"is_disabled":false,"rental_uris":{"android":"levelo://app?vid=50415618-e0c7-4c83-af76-e7d428c4b51d","ios":"levelo://app?vid=50415618-e0c7-4c83-af76-e7d428c4b51d"},"vehicle_type_id":"4","last_reported":1701522408,"current_range_meters":31200,"station_id":"ce4bho92rcd13ifvqh4g","pricing_plan_id":"free"},{"bike_id":"894f6494-585b-4b1b-a39f-39b137cf17d0","system_id":"levelo_inurba_marseille","lat":43.310785,"lon":5.424305,"is_reserved":false,"is_disabled":false,"rental_uris":{"android":"levelo://app?vid=894f6494-585b-4b1b-a39f-39b137cf17d0","ios":"levelo://app?vid=894f6494-585b-4b1b-a39f-39b137cf17d0"},"vehicle_type_id":"4","last_reported":1701522408,"current_range_meters":9600,"station_id":"ce4bhp92rcd13ifvqhag","pricing_plan_id":"free"},{"bike_id":"ce6d61d3-ade8-4d7a-913d-8c5d4ab5ac9d","system_id":"levelo_inurba_marseille","lat":43.273125,"lon":5.390731,"is_reserved":false,"is_disabled":false,"rental_uris":{"android":"levelo://app?vid=ce6d61d3-ade8-4d7a-913d-8c5d4ab5ac9d","ios":"levelo://app?vid=ce6d61d3-ade8-4d7a-913d-8c5d4ab5ac9d"},"vehicle_type_id":"4","last_reported":1701522408,"current_range_meters":12000,"station_id":"ce4bhgp2rcd13ifvqfe0","pricing_plan_id":"free"},{"bike_id":"deab479c-0a41-4110-925a-a7b3030bb5b9","system_id":"levelo_inurba_marseille","lat":43.273125,"lon":5.390731,"is_reserved":false,"is_disabled":false,"rental_uris":{"android":"levelo://app?vid=deab479c-0a41-4110-925a-a7b3030bb5b9","ios":"levelo://app?vid=deab479c-0a41-4110-925a-a7b3030bb5b9"},"vehicle_type_id":"4","last_reported":1701522408,"current_range_meters":20000,"station_id":"ce4bhgp2rcd13ifvqfe0","pricing_plan_id":"free"},{"bike_id":"a3527c32-1fa7-4ebe-9b65-a997c7b104de","system_id":"levelo_inurba_marseille","lat":43.30415,"lon":5.42538,"is_reserved":false,"is_disabled":false,"rental_uris":{"android":"levelo://app?vid=a3527c32-1fa7-4ebe-9b65-a997c7b104de","ios":"levelo://app?vid=a3527c32-1fa7-4ebe-9b65-a997c7b104de"},"vehicle_type_id":"4","last_reported":1701522408,"current_range_meters":14400,"station_id":"ce4bhoh2rcd13ifvqh6g","pricing_plan_id":"free"},{"bike_id":"ceafb40a-f653-49c2-9496-bde372a5f440","system_id":"levelo_inurba_marseille","lat":43.30415,"lon":5.42543,"is_reserved":false,"is_disabled":false,"rental_uris":{"android":"levelo://app?vid=ceafb40a-f653-49c2-9496-bde372a5f440","ios":"levelo://app?vid=ceafb40a-f653-49c2-9496-bde372a5f440"},"vehicle_type_id":"4","last_reported":1701522408,"current_range_meters":10000,"station_id":"ce4bhoh2rcd13ifvqh6g","pricing_plan_id":"free"},{"bike_id":"c44a0174-07b3-4c74-85c5-d1b6d5258c1b","system_id":"levelo_inurba_marseille","lat":43.304096,"lon":5.425385,"is_reserved":false,"is_disabled":false,"rental_uris":{"android":"levelo://app?vid=c44a0174-07b3-4c74-85c5-d1b6d5258c1b","ios":"levelo://app?vid=c44a0174-07b3-4c74-85c5-d1b6d5258c1b"},"vehicle_type_id":"4","last_reported":1701522408,"current_range_meters":28800,"station_id":"ce4bhoh2rcd13ifvqh6g","pricing_plan_id":"free"},{"bike_id":"5516b9d3-e989-45d3-9504-193f30ffb70b","system_id":"levelo_inurba_marseille","lat":43.304096,"lon":5.425385,"is_reserved":false,"is_disabled":false,"rental_uris":{"android":"levelo://app?vid=5516b9d3-e989-45d3-9504-193f30ffb70b","ios":"levelo://app?vid=5516b9d3-e989-45d3-9504-193f30ffb70b"},"vehicle_type_id":"4","last_reported":1701522408,"current_range_meters":20400,"station_id":"ce4bhoh2rcd13ifvqh6g","pricing_plan_id":"free"},{"bike_id":"8e940d73-a041-4bcb-9d56-839b184a78b3","system_id":"levelo_inurba_marseille","lat":43.272124,"lon":5.391768,"is_reserved":false,"is_disabled":false,"rental_uris":{"android":"levelo://app?vid=8e940d73-a041-4bcb-9d56-839b184a78b3","ios":"levelo://app?vid=8e940d73-a041-4bcb-9d56-839b184a78b3"},"vehicle_type_id":"4","last_reported":1701522408,"current_range_meters":26000,"station_id":"ce4bhhp2rcd13ifvqfm0","pricing_plan_id":"free"},{"bike_id":"9a4d17c1-7034-46f9-a72a-98db285f401f","system_id":"levelo_inurba_marseille","lat":43.272116,"lon":5.391747,"is_reserved":false,"is_disabled":false,"rental_uris":{"android":"levelo://app?vid=9a4d17c1-7034-46f9-a72a-98db285f401f","ios":"levelo://app?vid=9a4d17c1-7034-46f9-a72a-98db285f401f"},"vehicle_type_id":"4","last_reported":1701522408,"current_range_meters":6400,"station_id":"ce4bhhp2rcd13ifvqfm0","pricing_plan_id":"free"},{"bike_id":"f090cc6e-296b-42df-923a-8ffbf6dfda7c","system_id":"levelo_inurba_marseille","lat":43.272118,"lon":5.391758,"is_reserved":false,"is_disabled":false,"rental_uris":{"android":"levelo://app?vid=f090cc6e-296b-42df-923a-8ffbf6dfda7c","ios":"levelo://app?vid=f090cc6e-296b-42df-923a-8ffbf6dfda7c"},"vehicle_type_id":"4","last_reported":1701522408,"current_range_meters":400,"station_id":"ce4bhhp2rcd13ifvqfm0","pricing_plan_id":"free"},{"bike_id":"43191e56-c436-4190-8b1f-6263c82a4375","system_id":"levelo_inurba_marseille","lat":43.272116,"lon":5.391763,"is_reserved":false,"is_disabled":false,"rental_uris":{"android":"levelo://app?vid=43191e56-c436-4190-8b1f-6263c82a4375","ios":"levelo://app?vid=43191e56-c436-4190-8b1f-6263c82a4375"},"vehicle_type_id":"4","last_reported":1701522408,"current_range_meters":19200,"station_id":"ce4bhhp2rcd13ifvqfm0","pricing_plan_id":"free"},{"bike_id":"ae4a7be3-1c0c-442c-b333-14b664fb4461","system_id":"levelo_inurba_marseille","lat":43.26559,"lon":5.37279,"is_reserved":false,"is_disabled":false,"rental_uris":{"android":"levelo://app?vid=ae4a7be3-1c0c-442c-b333-14b664fb4461","ios":"levelo://app?vid=ae4a7be3-1c0c-442c-b333-14b664fb4461"},"vehicle_type_id":"4","last_reported":1701522408,"current_range_meters":13600,"station_id":"ce4bhg12rcd13ifvqf70","pricing_plan_id":"free"},{"bike_id":"e50f5a9f-e8f7-492d-a05c-2e59f38d20a4","system_id":"levelo_inurba_marseille","lat":43.24693,"lon":5.382096,"is_reserved":false,"is_disabled":false,"rental_uris":{"android":"levelo://app?vid=e50f5a9f-e8f7-492d-a05c-2e59f38d20a4","ios":"levelo://app?vid=e50f5a9f-e8f7-492d-a05c-2e59f38d20a4"},"vehicle_type_id":"4","last_reported":1701522408,"current_range_meters":20400,"station_id":"ce4bhih2rcd13ifvqfr0","pricing_plan_id":"free"},{"bike_id":"5f21ec15-b7f5-4843-ba5f-23dbebaf236f","system_id":"levelo_inurba_marseille","lat":43.267966,"lon":5.393976,"is_reserved":false,"is_disabled":false,"rental_uris":{"android":"levelo://app?vid=5f21ec15-b7f5-4843-ba5f-23dbebaf236f","ios":"levelo://app?vid=5f21ec15-b7f5-4843-ba5f-23dbebaf236f"},"vehicle_type_id":"4","last_reported":1701522408,"current_range_meters":2800,"station_id":"ce4bhh12rcd13ifvqfg0","pricing_plan_id":"free"},{"bike_id":"41672922-0c62-4481-b246-e36de3e10a1e","system_id":"levelo_inurba_marseille","lat":43.265569,"lon":5.390047,"is_reserved":false,"is_disabled":false,"rental_uris":{"android":"levelo://app?vid=41672922-0c62-4481-b246-e36de3e10a1e","ios":"levelo://app?vid=41672922-0c62-4481-b246-e36de3e10a1e"},"vehicle_type_id":"4","last_reported":1701522408,"current_range_meters":24000,"station_id":"ce4bhe12rcd13ifvqf30","pricing_plan_id":"free"},{"bike_id":"84f48b36-541e-4a37-a0db-25e765b76349","system_id":"levelo_inurba_marseille","lat":43.26944,"lon":5.4025,"is_reserved":false,"is_disabled":false,"rental_uris":{"android":"levelo://app?vid=84f48b36-541e-4a37-a0db-25e765b76349","ios":"levelo://app?vid=84f48b36-541e-4a37-a0db-25e765b76349"},"vehicle_type_id":"4","last_reported":1701522408,"current_range_meters":800,"station_id":"cjm6bp8fraef2m0cb0m0","pricing_plan_id":"free"},{"bike_id":"5c9a14ae-fa9a-4db1-82cc-fe7731a82340","system_id":"levelo_inurba_marseille","lat":43.26945,"lon":5.4026,"is_reserved":false,"is_disabled":false,"rental_uris":{"android":"levelo://app?vid=5c9a14ae-fa9a-4db1-82cc-fe7731a82340","ios":"levelo://app?vid=5c9a14ae-fa9a-4db1-82cc-fe7731a82340"},"vehicle_type_id":"4","last_reported":1701522408,"current_range_meters":17600,"station_id":"cjm6bp8fraef2m0cb0m0","pricing_plan_id":"free"},{"bike_id":"066156c1-8cc3-4e1a-a354-6ca2d18fb055","system_id":"levelo_inurba_marseille","lat":43.26932,"lon":5.40256,"is_reserved":false,"is_disabled":false,"rental_uris":{"android":"levelo://app?vid=066156c1-8cc3-4e1a-a354-6ca2d18fb055","ios":"levelo://app?vid=066156c1-8cc3-4e1a-a354-6ca2d18fb055"},"vehicle_type_id":"4","last_reported":1701522408,"current_range_meters":10800,"station_id":"cjm6bp8fraef2m0cb0m0","pricing_plan_id":"free"},{"bike_id":"28c156c8-b334-4b6e-912d-07eb8c566eb1","system_id":"levelo_inurba_marseille","lat":43.26183,"lon":5.37447,"is_reserved":false,"is_disabled":false,"rental_uris":{"android":"levelo://app?vid=28c156c8-b334-4b6e-912d-07eb8c566eb1","ios":"levelo://app?vid=28c156c8-b334-4b6e-912d-07eb8c566eb1"},"vehicle_type_id":"4","last_reported":1701522408,"current_range_meters":27200,"station_id":"ce4bhgp2rcd13ifvqfc0","pricing_plan_id":"free"},{"bike_id":"67704ef3-ca54-4d3f-9715-4faeac5f986e","system_id":"levelo_inurba_marseille","lat":43.261782,"lon":5.374515,"is_reserved":false,"is_disabled":false,"rental_uris":{"android":"levelo://app?vid=67704ef3-ca54-4d3f-9715-4faeac5f986e","ios":"levelo://app?vid=67704ef3-ca54-4d3f-9715-4faeac5f986e"},"vehicle_type_id":"4","last_reported":1701522408,"current_range_meters":31200,"station_id":"ce4bhgp2rcd13ifvqfc0","pricing_plan_id":"free"},{"bike_id":"237bb99d-fece-43f1-9f85-62d271b67d3c","system_id":"levelo_inurba_marseille","lat":43.2618,"lon":5.37447,"is_reserved":false,"is_disabled":false,"rental_uris":{"android":"levelo://app?vid=237bb99d-fece-43f1-9f85-62d271b67d3c","ios":"levelo://app?vid=237bb99d-fece-43f1-9f85-62d271b67d3c"},"vehicle_type_id":"4","last_reported":1701522408,"current_range_meters":1200,"station_id":"ce4bhgp2rcd13ifvqfc0","pricing_plan_id":"free"},{"bike_id":"5370e7c7-72e4-4184-907c-66330e837323","system_id":"levelo_inurba_marseille","lat":43.271388,"lon":5.409269,"is_reserved":false,"is_disabled":false,"rental_uris":{"android":"levelo://app?vid=5370e7c7-72e4-4184-907c-66330e837323","ios":"levelo://app?vid=5370e7c7-72e4-4184-907c-66330e837323"},"vehicle_type_id":"4","last_reported":1701522408,"current_range_meters":30000,"station_id":"ce4bhl12rcd13ifvqgf0","pricing_plan_id":"free"},{"bike_id":"7a2a8f4e-1d80-4245-9b59-69d522866531","system_id":"levelo_inurba_marseille","lat":43.26202,"lon":5.379299,"is_reserved":false,"is_disabled":false,"rental_uris":{"android":"levelo://app?vid=7a2a8f4e-1d80-4245-9b59-69d522866531","ios":"levelo://app?vid=7a2a8f4e-1d80-4245-9b59-69d522866531"},"vehicle_type_id":"4","last_reported":1701522408,"current_range_meters":11600,"station_id":"ce4bhjp2rcd13ifvqg90","pricing_plan_id":"free"},{"bike_id":"7f32f468-8585-44fa-86be-b7b17f36c846","system_id":"levelo_inurba_marseille","lat":43.26202,"lon":5.379299,"is_reserved":false,"is_disabled":false,"rental_uris":{"android":"levelo://app?vid=7f32f468-8585-44fa-86be-b7b17f36c846","ios":"levelo://app?vid=7f32f468-8585-44fa-86be-b7b17f36c846"},"vehicle_type_id":"4","last_reported":1701522408,"current_range_meters":4400,"station_id":"ce4bhjp2rcd13ifvqg90","pricing_plan_id":"free"},{"bike_id":"568a609c-e57e-403d-a6bb-5581afbde3dc","system_id":"levelo_inurba_marseille","lat":43.267959,"lon":5.402687,"is_reserved":false,"is_disabled":false,"rental_uris":{"android":"levelo://app?vid=568a609c-e57e-403d-a6bb-5581afbde3dc","ios":"levelo://app?vid=568a609c-e57e-403d-a6bb-5581afbde3dc"},"vehicle_type_id":"4","last_reported":1701522408,"current_range_meters":16400,"station_id":"ce501612rcd8frsf0b60","pricing_plan_id":"free"},{"bike_id":"888c3ff8-34c8-4001-a130-1dcf49bb0c14","system_id":"levelo_inurba_marseille","lat":43.28153,"lon":5.42634,"is_reserved":false,"is_disabled":false,"rental_uris":{"android":"levelo://app?vid=888c3ff8-34c8-4001-a130-1dcf49bb0c14","ios":"levelo://app?vid=888c3ff8-34c8-4001-a130-1dcf49bb0c14"},"vehicle_type_id":"4","last_reported":1701522408,"current_range_meters":30400,"station_id":"ce4bhnh2rcd13ifvqgug","pricing_plan_id":"free"},{"bike_id":"5f9ed990-f7e5-42ce-970c-56ec5f74b839","system_id":"levelo_inurba_marseille","lat":43.281548,"lon":5.42643,"is_reserved":false,"is_disabled":false,"rental_uris":{"android":"levelo://app?vid=5f9ed990-f7e5-42ce-970c-56ec5f74b839","ios":"levelo://app?vid=5f9ed990-f7e5-42ce-970c-56ec5f74b839"},"vehicle_type_id":"4","last_reported":1701522408,"current_range_meters":22800,"station_id":"ce4bhnh2rcd13ifvqgug","pricing_plan_id":"free"},{"bike_id":"3532a786-7312-4db1-88be-2e5e8a274941","system_id":"levelo_inurba_marseille","lat":43.2815,"lon":5.42644,"is_reserved":false,"is_disabled":false,"rental_uris":{"android":"levelo://app?vid=3532a786-7312-4db1-88be-2e5e8a274941","ios":"levelo://app?vid=3532a786-7312-4db1-88be-2e5e8a274941"},"vehicle_type_id":"4","last_reported":1701522408,"current_range_meters":23600,"station_id":"ce4bhnh2rcd13ifvqgug","pricing_plan_id":"free"},{"bike_id":"81f4f34a-8d36-4c09-961e-e42c57ef3483","system_id":"levelo_inurba_marseille","lat":43.2815,"lon":5.4265,"is_reserved":false,"is_disabled":false,"rental_uris":{"android":"levelo://app?vid=81f4f34a-8d36-4c09-961e-e42c57ef3483","ios":"levelo://app?vid=81f4f34a-8d36-4c09-961e-e42c57ef3483"},"vehicle_type_id":"4","last_reported":1701522408,"current_range_meters":0,"station_id":"ce4bhnh2rcd13ifvqgug","pricing_plan_id":"free"},{"bike_id":"938195dd-8cbb-4837-b3d2-391744165801","system_id":"levelo_inurba_marseille","lat":43.2607,"lon":5.393983,"is_reserved":false,"is_disabled":false,"rental_uris":{"android":"levelo://app?vid=938195dd-8cbb-4837-b3d2-391744165801","ios":"levelo://app?vid=938195dd-8cbb-4837-b3d2-391744165801"},"vehicle_type_id":"4","last_reported":1701522408,"current_range_meters":26800,"station_id":"ce4bhh92rcd13ifvqfj0","pricing_plan_id":"free"},{"bike_id":"f7e6f8a5-7397-4fae-84c9-fc8068586f9c","system_id":"levelo_inurba_marseille","lat":43.255833,"lon":5.38232,"is_reserved":false,"is_disabled":false,"rental_uris":{"android":"levelo://app?vid=f7e6f8a5-7397-4fae-84c9-fc8068586f9c","ios":"levelo://app?vid=f7e6f8a5-7397-4fae-84c9-fc8068586f9c"},"vehicle_type_id":"4","last_reported":1701522408,"current_range_meters":14800,"station_id":"ce4bhih2rcd13ifvqfs0","pricing_plan_id":"free"},{"bike_id":"5c0f8e0f-5196-4886-99ee-6bb1efd8cd0f","system_id":"levelo_inurba_marseille","lat":43.258224,"lon":5.394369,"is_reserved":false,"is_disabled":false,"rental_uris":{"android":"levelo://app?vid=5c0f8e0f-5196-4886-99ee-6bb1efd8cd0f","ios":"levelo://app?vid=5c0f8e0f-5196-4886-99ee-6bb1efd8cd0f"},"vehicle_type_id":"4","last_reported":1701522408,"current_range_meters":30000,"station_id":"ce4bhip2rcd13ifvqft0","pricing_plan_id":"free"},{"bike_id":"9674e8f8-f952-4f67-9e19-2055063310fa","system_id":"levelo_inurba_marseille","lat":43.258224,"lon":5.394369,"is_reserved":false,"is_disabled":false,"rental_uris":{"android":"levelo://app?vid=9674e8f8-f952-4f67-9e19-2055063310fa","ios":"levelo://app?vid=9674e8f8-f952-4f67-9e19-2055063310fa"},"vehicle_type_id":"4","last_reported":1701522408,"current_range_meters":24000,"station_id":"ce4bhip2rcd13ifvqft0","pricing_plan_id":"free"},{"bike_id":"dc679395-d5dc-4dde-ab61-f61c3a5974b5","system_id":"levelo_inurba_marseille","lat":43.258224,"lon":5.394369,"is_reserved":false,"is_disabled":false,"rental_uris":{"android":"levelo://app?vid=dc679395-d5dc-4dde-ab61-f61c3a5974b5","ios":"levelo://app?vid=dc679395-d5dc-4dde-ab61-f61c3a5974b5"},"vehicle_type_id":"4","last_reported":1701522408,"current_range_meters":30000,"station_id":"ce4bhip2rcd13ifvqft0","pricing_plan_id":"free"},{"bike_id":"962b74e7-03ef-4247-b9e1-285f2c85cf56","system_id":"levelo_inurba_marseille","lat":43.258224,"lon":5.394369,"is_reserved":false,"is_disabled":false,"rental_uris":{"android":"levelo://app?vid=962b74e7-03ef-4247-b9e1-285f2c85cf56","ios":"levelo://app?vid=962b74e7-03ef-4247-b9e1-285f2c85cf56"},"vehicle_type_id":"4","last_reported":1701522408,"current_range_meters":31200,"station_id":"ce4bhip2rcd13ifvqft0","pricing_plan_id":"free"},{"bike_id":"d01b9210-a558-41f1-a5e2-b5036b39ef3d","system_id":"levelo_inurba_marseille","lat":43.254947,"lon":5.376454,"is_reserved":false,"is_disabled":false,"rental_uris":{"android":"levelo://app?vid=d01b9210-a558-41f1-a5e2-b5036b39ef3d","ios":"levelo://app?vid=d01b9210-a558-41f1-a5e2-b5036b39ef3d"},"vehicle_type_id":"4","last_reported":1701522408,"current_range_meters":29200,"station_id":"ce4bhh12rcd13ifvqff0","pricing_plan_id":"free"},{"bike_id":"b48e31f8-4164-495a-93bf-72f1962f795e","system_id":"levelo_inurba_marseille","lat":43.258658,"lon":5.398935,"is_reserved":false,"is_disabled":false,"rental_uris":{"android":"levelo://app?vid=b48e31f8-4164-495a-93bf-72f1962f795e","ios":"levelo://app?vid=b48e31f8-4164-495a-93bf-72f1962f795e"},"vehicle_type_id":"4","last_reported":1701522408,"current_range_meters":30400,"station_id":"ce4bhl92rcd13ifvqghg","pricing_plan_id":"free"},{"bike_id":"bdc72d7c-9d46-4016-8a92-851cd50823f9","system_id":"levelo_inurba_marseille","lat":43.259009,"lon":5.40929,"is_reserved":false,"is_disabled":false,"rental_uris":{"android":"levelo://app?vid=bdc72d7c-9d46-4016-8a92-851cd50823f9","ios":"levelo://app?vid=bdc72d7c-9d46-4016-8a92-851cd50823f9"},"vehicle_type_id":"4","last_reported":1701522408,"current_range_meters":29200,"station_id":"ce4bhm92rcd13ifvqglg","pricing_plan_id":"free"},{"bike_id":"d3da93f7-ba2e-4c49-b20f-ed910f1466e5","system_id":"levelo_inurba_marseille","lat":43.25726,"lon":5.41107,"is_reserved":false,"is_disabled":false,"rental_uris":{"android":"levelo://app?vid=d3da93f7-ba2e-4c49-b20f-ed910f1466e5","ios":"levelo://app?vid=d3da93f7-ba2e-4c49-b20f-ed910f1466e5"},"vehicle_type_id":"4","last_reported":1701522408,"current_range_meters":28800,"station_id":"ce4bhkp2rcd13ifvqgd0","pricing_plan_id":"free"},{"bike_id":"99ee76bf-253b-45b6-98c6-870f3c2c3282","system_id":"levelo_inurba_marseille","lat":43.25725,"lon":5.41111,"is_reserved":false,"is_disabled":false,"rental_uris":{"android":"levelo://app?vid=99ee76bf-253b-45b6-98c6-870f3c2c3282","ios":"levelo://app?vid=99ee76bf-253b-45b6-98c6-870f3c2c3282"},"vehicle_type_id":"4","last_reported":1701522408,"current_range_meters":28000,"station_id":"ce4bhkp2rcd13ifvqgd0","pricing_plan_id":"free"},{"bike_id":"ffea258b-e5e3-4ff8-a1fd-a45313ede88b","system_id":"levelo_inurba_marseille","lat":43.24693,"lon":5.382096,"is_reserved":false,"is_disabled":false,"rental_uris":{"android":"levelo://app?vid=ffea258b-e5e3-4ff8-a1fd-a45313ede88b","ios":"levelo://app?vid=ffea258b-e5e3-4ff8-a1fd-a45313ede88b"},"vehicle_type_id":"4","last_reported":1701522408,"current_range_meters":1200,"station_id":"ce4bhih2rcd13ifvqfr0","pricing_plan_id":"free"},{"bike_id":"bff08cdb-adb9-42f1-a1d8-d220c80d630b","system_id":"levelo_inurba_marseille","lat":43.243884,"lon":5.370736,"is_reserved":false,"is_disabled":false,"rental_uris":{"android":"levelo://app?vid=bff08cdb-adb9-42f1-a1d8-d220c80d630b","ios":"levelo://app?vid=bff08cdb-adb9-42f1-a1d8-d220c80d630b"},"vehicle_type_id":"4","last_reported":1701522408,"current_range_meters":17200,"station_id":"ce4bhhh2rcd13ifvqfk0","pricing_plan_id":"free"},{"bike_id":"69f1bff5-758b-4ced-b763-896e81f472be","system_id":"levelo_inurba_marseille","lat":43.243884,"lon":5.370736,"is_reserved":false,"is_disabled":false,"rental_uris":{"android":"levelo://app?vid=69f1bff5-758b-4ced-b763-896e81f472be","ios":"levelo://app?vid=69f1bff5-758b-4ced-b763-896e81f472be"},"vehicle_type_id":"4","last_reported":1701522408,"current_range_meters":31600,"station_id":"ce4bhhh2rcd13ifvqfk0","pricing_plan_id":"free"},{"bike_id":"0c00f1f7-91b0-4c50-948b-6ce70c0f8465","system_id":"levelo_inurba_marseille","lat":43.243884,"lon":5.370736,"is_reserved":false,"is_disabled":false,"rental_uris":{"android":"levelo://app?vid=0c00f1f7-91b0-4c50-948b-6ce70c0f8465","ios":"levelo://app?vid=0c00f1f7-91b0-4c50-948b-6ce70c0f8465"},"vehicle_type_id":"4","last_reported":1701522408,"current_range_meters":30400,"station_id":"ce4bhhh2rcd13ifvqfk0","pricing_plan_id":"free"},{"bike_id":"6c8cb8f2-78a6-4550-afbc-0685fd23a735","system_id":"levelo_inurba_marseille","lat":43.243884,"lon":5.370736,"is_reserved":false,"is_disabled":false,"rental_uris":{"android":"levelo://app?vid=6c8cb8f2-78a6-4550-afbc-0685fd23a735","ios":"levelo://app?vid=6c8cb8f2-78a6-4550-afbc-0685fd23a735"},"vehicle_type_id":"4","last_reported":1701522408,"current_range_meters":18800,"station_id":"ce4bhhh2rcd13ifvqfk0","pricing_plan_id":"free"},{"bike_id":"b3b91b8c-0c60-4e42-9479-46ef4ec69636","system_id":"levelo_inurba_marseille","lat":43.243884,"lon":5.370737,"is_reserved":false,"is_disabled":false,"rental_uris":{"android":"levelo://app?vid=b3b91b8c-0c60-4e42-9479-46ef4ec69636","ios":"levelo://app?vid=b3b91b8c-0c60-4e42-9479-46ef4ec69636"},"vehicle_type_id":"4","last_reported":1701522408,"current_range_meters":16800,"station_id":"ce4bhhh2rcd13ifvqfk0","pricing_plan_id":"free"},{"bike_id":"e5b2f969-529b-4388-9194-7977127f47a1","system_id":"levelo_inurba_marseille","lat":43.245581,"lon":5.395069,"is_reserved":false,"is_disabled":false,"rental_uris":{"android":"levelo://app?vid=e5b2f969-529b-4388-9194-7977127f47a1","ios":"levelo://app?vid=e5b2f969-529b-4388-9194-7977127f47a1"},"vehicle_type_id":"4","last_reported":1701522408,"current_range_meters":10800,"station_id":"ce4bhlp2rcd13ifvqgjg","pricing_plan_id":"free"},{"bike_id":"7c10843f-66c0-4831-8891-f7c2fb890597","system_id":"levelo_inurba_marseille","lat":43.245581,"lon":5.395069,"is_reserved":false,"is_disabled":false,"rental_uris":{"android":"levelo://app?vid=7c10843f-66c0-4831-8891-f7c2fb890597","ios":"levelo://app?vid=7c10843f-66c0-4831-8891-f7c2fb890597"},"vehicle_type_id":"4","last_reported":1701522408,"current_range_meters":30800,"station_id":"ce4bhlp2rcd13ifvqgjg","pricing_plan_id":"free"},{"bike_id":"80ddd4c0-e34c-460a-be27-35520d0b4e3a","system_id":"levelo_inurba_marseille","lat":43.23972,"lon":5.36626,"is_reserved":false,"is_disabled":false,"rental_uris":{"android":"levelo://app?vid=80ddd4c0-e34c-460a-be27-35520d0b4e3a","ios":"levelo://app?vid=80ddd4c0-e34c-460a-be27-35520d0b4e3a"},"vehicle_type_id":"4","last_reported":1701522408,"current_range_meters":22800,"station_id":"ce4bhi12rcd13ifvqfp0","pricing_plan_id":"free"},{"bike_id":"b101f295-ac85-402a-8afe-c635c176f114","system_id":"levelo_inurba_marseille","lat":43.28527,"lon":5.46058,"is_reserved":false,"is_disabled":false,"rental_uris":{"android":"levelo://app?vid=b101f295-ac85-402a-8afe-c635c176f114","ios":"levelo://app?vid=b101f295-ac85-402a-8afe-c635c176f114"},"vehicle_type_id":"4","last_reported":1701522408,"current_range_meters":23600,"station_id":"","pricing_plan_id":"free"},{"bike_id":"4bb7783e-3418-44df-bf36-eb9259dc4a55","system_id":"levelo_inurba_marseille","lat":43.241782,"lon":5.397261,"is_reserved":false,"is_disabled":false,"rental_uris":{"android":"levelo://app?vid=4bb7783e-3418-44df-bf36-eb9259dc4a55","ios":"levelo://app?vid=4bb7783e-3418-44df-bf36-eb9259dc4a55"},"vehicle_type_id":"4","last_reported":1701522408,"current_range_meters":22400,"station_id":"ce4bhn12rcd13ifvqgpg","pricing_plan_id":"free"},{"bike_id":"9e01ee59-41e6-425c-ae1f-3e33312fefcd","system_id":"levelo_inurba_marseille","lat":43.231923,"lon":5.355545,"is_reserved":false,"is_disabled":false,"rental_uris":{"android":"levelo://app?vid=9e01ee59-41e6-425c-ae1f-3e33312fefcd","ios":"levelo://app?vid=9e01ee59-41e6-425c-ae1f-3e33312fefcd"},"vehicle_type_id":"4","last_reported":1701522408,"current_range_meters":20800,"station_id":"ce4bhu92rcd13ifvqi70","pricing_plan_id":"free"},{"bike_id":"6462fbc5-ceb8-47e3-b56d-fc1e69bef19f","system_id":"levelo_inurba_marseille","lat":43.231919,"lon":5.355532,"is_reserved":false,"is_disabled":false,"rental_uris":{"android":"levelo://app?vid=6462fbc5-ceb8-47e3-b56d-fc1e69bef19f","ios":"levelo://app?vid=6462fbc5-ceb8-47e3-b56d-fc1e69bef19f"},"vehicle_type_id":"4","last_reported":1701522408,"current_range_meters":29600,"station_id":"ce4bhu92rcd13ifvqi70","pricing_plan_id":"free"},{"bike_id":"6382809b-45d0-4ad2-8be7-697249f82077","system_id":"levelo_inurba_marseille","lat":43.231919,"lon":5.355532,"is_reserved":false,"is_disabled":false,"rental_uris":{"android":"levelo://app?vid=6382809b-45d0-4ad2-8be7-697249f82077","ios":"levelo://app?vid=6382809b-45d0-4ad2-8be7-697249f82077"},"vehicle_type_id":"4","last_reported":1701522408,"current_range_meters":31600,"station_id":"ce4bhu92rcd13ifvqi70","pricing_plan_id":"free"},{"bike_id":"c07b0be8-3ec1-4f51-b661-de25758a5a36","system_id":"levelo_inurba_marseille","lat":43.231919,"lon":5.355532,"is_reserved":false,"is_disabled":false,"rental_uris":{"android":"levelo://app?vid=c07b0be8-3ec1-4f51-b661-de25758a5a36","ios":"levelo://app?vid=c07b0be8-3ec1-4f51-b661-de25758a5a36"},"vehicle_type_id":"4","last_reported":1701522408,"current_range_meters":15200,"station_id":"ce4bhu92rcd13ifvqi70","pricing_plan_id":"free"},{"bike_id":"cf3102c4-88e0-4a41-86b7-69a76932d3e6","system_id":"levelo_inurba_marseille","lat":43.231923,"lon":5.355545,"is_reserved":false,"is_disabled":false,"rental_uris":{"android":"levelo://app?vid=cf3102c4-88e0-4a41-86b7-69a76932d3e6","ios":"levelo://app?vid=cf3102c4-88e0-4a41-86b7-69a76932d3e6"},"vehicle_type_id":"4","last_reported":1701522408,"current_range_meters":31600,"station_id":"ce4bhu92rcd13ifvqi70","pricing_plan_id":"free"},{"bike_id":"dc03c4db-7fa1-40b2-b6c4-6e2c35355c9e","system_id":"levelo_inurba_marseille","lat":43.231919,"lon":5.355532,"is_reserved":false,"is_disabled":false,"rental_uris":{"android":"levelo://app?vid=dc03c4db-7fa1-40b2-b6c4-6e2c35355c9e","ios":"levelo://app?vid=dc03c4db-7fa1-40b2-b6c4-6e2c35355c9e"},"vehicle_type_id":"4","last_reported":1701522408,"current_range_meters":19200,"station_id":"ce4bhu92rcd13ifvqi70","pricing_plan_id":"free"},{"bike_id":"2b04708e-eed8-4471-916a-9fdeea01eec7","system_id":"levelo_inurba_marseille","lat":43.231923,"lon":5.355545,"is_reserved":false,"is_disabled":false,"rental_uris":{"android":"levelo://app?vid=2b04708e-eed8-4471-916a-9fdeea01eec7","ios":"levelo://app?vid=2b04708e-eed8-4471-916a-9fdeea01eec7"},"vehicle_type_id":"4","last_reported":1701522408,"current_range_meters":14000,"station_id":"ce4bhu92rcd13ifvqi70","pricing_plan_id":"free"},{"bike_id":"b8f295a9-10f8-4746-b4a0-4491480d1fc4","system_id":"levelo_inurba_marseille","lat":43.231919,"lon":5.355532,"is_reserved":false,"is_disabled":false,"rental_uris":{"android":"levelo://app?vid=b8f295a9-10f8-4746-b4a0-4491480d1fc4","ios":"levelo://app?vid=b8f295a9-10f8-4746-b4a0-4491480d1fc4"},"vehicle_type_id":"4","last_reported":1701522408,"current_range_meters":24800,"station_id":"ce4bhu92rcd13ifvqi70","pricing_plan_id":"free"},{"bike_id":"1f95bf63-11d3-42b3-9954-c6991efb121f","system_id":"levelo_inurba_marseille","lat":43.231919,"lon":5.355532,"is_reserved":false,"is_disabled":false,"rental_uris":{"android":"levelo://app?vid=1f95bf63-11d3-42b3-9954-c6991efb121f","ios":"levelo://app?vid=1f95bf63-11d3-42b3-9954-c6991efb121f"},"vehicle_type_id":"4","last_reported":1701522408,"current_range_meters":4800,"station_id":"ce4bhu92rcd13ifvqi70","pricing_plan_id":"free"},{"bike_id":"5958a315-72a0-4d69-ac3d-580ddd766084","system_id":"levelo_inurba_marseille","lat":43.231923,"lon":5.355545,"is_reserved":false,"is_disabled":false,"rental_uris":{"android":"levelo://app?vid=5958a315-72a0-4d69-ac3d-580ddd766084","ios":"levelo://app?vid=5958a315-72a0-4d69-ac3d-580ddd766084"},"vehicle_type_id":"4","last_reported":1701522408,"current_range_meters":11600,"station_id":"ce4bhu92rcd13ifvqi70","pricing_plan_id":"free"},{"bike_id":"ced177a0-2c64-4b67-9000-fad7ec7be532","system_id":"levelo_inurba_marseille","lat":43.23194,"lon":5.3555,"is_reserved":false,"is_disabled":false,"rental_uris":{"android":"levelo://app?vid=ced177a0-2c64-4b67-9000-fad7ec7be532","ios":"levelo://app?vid=ced177a0-2c64-4b67-9000-fad7ec7be532"},"vehicle_type_id":"4","last_reported":1701522408,"current_range_meters":2000,"station_id":"ce4bhu92rcd13ifvqi70","pricing_plan_id":"free"},{"bike_id":"177a82e2-68da-4975-a68b-b32649f3d1f2","system_id":"levelo_inurba_marseille","lat":43.231923,"lon":5.355545,"is_reserved":false,"is_disabled":false,"rental_uris":{"android":"levelo://app?vid=177a82e2-68da-4975-a68b-b32649f3d1f2","ios":"levelo://app?vid=177a82e2-68da-4975-a68b-b32649f3d1f2"},"vehicle_type_id":"4","last_reported":1701522408,"current_range_meters":14000,"station_id":"ce4bhu92rcd13ifvqi70","pricing_plan_id":"free"},{"bike_id":"88cf855f-bb31-40e0-8afc-686df3c193ab","system_id":"levelo_inurba_marseille","lat":43.231794,"lon":5.400052,"is_reserved":false,"is_disabled":false,"rental_uris":{"android":"levelo://app?vid=88cf855f-bb31-40e0-8afc-686df3c193ab","ios":"levelo://app?vid=88cf855f-bb31-40e0-8afc-686df3c193ab"},"vehicle_type_id":"4","last_reported":1701522408,"current_range_meters":29200,"station_id":"ce4bhn12rcd13ifvqgqg","pricing_plan_id":"free"},{"bike_id":"a926f4bb-1e59-4822-80ea-1d5ff6f2a5c5","system_id":"levelo_inurba_marseille","lat":43.23194,"lon":5.399798,"is_reserved":false,"is_disabled":false,"rental_uris":{"android":"levelo://app?vid=a926f4bb-1e59-4822-80ea-1d5ff6f2a5c5","ios":"levelo://app?vid=a926f4bb-1e59-4822-80ea-1d5ff6f2a5c5"},"vehicle_type_id":"4","last_reported":1701522408,"current_range_meters":19200,"station_id":"ce4bhn12rcd13ifvqgqg","pricing_plan_id":"free"},{"bike_id":"22bd98e3-c33f-4c44-ae2b-f96729d36f4f","system_id":"levelo_inurba_marseille","lat":43.231793,"lon":5.400044,"is_reserved":false,"is_disabled":false,"rental_uris":{"android":"levelo://app?vid=22bd98e3-c33f-4c44-ae2b-f96729d36f4f","ios":"levelo://app?vid=22bd98e3-c33f-4c44-ae2b-f96729d36f4f"},"vehicle_type_id":"4","last_reported":1701522408,"current_range_meters":30000,"station_id":"ce4bhn12rcd13ifvqgqg","pricing_plan_id":"free"},{"bike_id":"d0b35396-6769-42d4-8160-8b44cb829902","system_id":"levelo_inurba_marseille","lat":43.23193,"lon":5.39983,"is_reserved":false,"is_disabled":false,"rental_uris":{"android":"levelo://app?vid=d0b35396-6769-42d4-8160-8b44cb829902","ios":"levelo://app?vid=d0b35396-6769-42d4-8160-8b44cb829902"},"vehicle_type_id":"4","last_reported":1701522408,"current_range_meters":31200,"station_id":"ce4bhn12rcd13ifvqgqg","pricing_plan_id":"free"},{"bike_id":"6bd9f065-50d9-4657-9ca0-a006f413d305","system_id":"levelo_inurba_marseille","lat":43.231794,"lon":5.400052,"is_reserved":false,"is_disabled":false,"rental_uris":{"android":"levelo://app?vid=6bd9f065-50d9-4657-9ca0-a006f413d305","ios":"levelo://app?vid=6bd9f065-50d9-4657-9ca0-a006f413d305"},"vehicle_type_id":"4","last_reported":1701522408,"current_range_meters":31600,"station_id":"ce4bhn12rcd13ifvqgqg","pricing_plan_id":"free"},{"bike_id":"27852c29-47dc-4826-817e-c88bd3a0386e","system_id":"levelo_inurba_marseille","lat":43.231886,"lon":5.399822,"is_reserved":false,"is_disabled":false,"rental_uris":{"android":"levelo://app?vid=27852c29-47dc-4826-817e-c88bd3a0386e","ios":"levelo://app?vid=27852c29-47dc-4826-817e-c88bd3a0386e"},"vehicle_type_id":"4","last_reported":1701522408,"current_range_meters":22000,"station_id":"ce4bhn12rcd13ifvqgqg","pricing_plan_id":"free"},{"bike_id":"77b1a551-da7f-429a-980e-bfc6767a5958","system_id":"levelo_inurba_marseille","lat":43.231794,"lon":5.400052,"is_reserved":false,"is_disabled":false,"rental_uris":{"android":"levelo://app?vid=77b1a551-da7f-429a-980e-bfc6767a5958","ios":"levelo://app?vid=77b1a551-da7f-429a-980e-bfc6767a5958"},"vehicle_type_id":"4","last_reported":1701522408,"current_range_meters":31600,"station_id":"ce4bhn12rcd13ifvqgqg","pricing_plan_id":"free"},{"bike_id":"4971a817-c21b-4382-b171-1e3133ca51bb","system_id":"levelo_inurba_marseille","lat":43.23189,"lon":5.3999,"is_reserved":false,"is_disabled":false,"rental_uris":{"android":"levelo://app?vid=4971a817-c21b-4382-b171-1e3133ca51bb","ios":"levelo://app?vid=4971a817-c21b-4382-b171-1e3133ca51bb"},"vehicle_type_id":"4","last_reported":1701522408,"current_range_meters":22400,"station_id":"ce4bhn12rcd13ifvqgqg","pricing_plan_id":"free"},{"bike_id":"8a513cfb-2a22-4eaf-90eb-23484384c4e8","system_id":"levelo_inurba_marseille","lat":43.23188,"lon":5.39987,"is_reserved":false,"is_disabled":false,"rental_uris":{"android":"levelo://app?vid=8a513cfb-2a22-4eaf-90eb-23484384c4e8","ios":"levelo://app?vid=8a513cfb-2a22-4eaf-90eb-23484384c4e8"},"vehicle_type_id":"4","last_reported":1701522408,"current_range_meters":6800,"station_id":"ce4bhn12rcd13ifvqgqg","pricing_plan_id":"free"},{"bike_id":"25f17801-48bf-46ed-8707-c0d973a30092","system_id":"levelo_inurba_marseille","lat":43.231794,"lon":5.400052,"is_reserved":false,"is_disabled":false,"rental_uris":{"android":"levelo://app?vid=25f17801-48bf-46ed-8707-c0d973a30092","ios":"levelo://app?vid=25f17801-48bf-46ed-8707-c0d973a30092"},"vehicle_type_id":"4","last_reported":1701522408,"current_range_meters":400,"station_id":"ce4bhn12rcd13ifvqgqg","pricing_plan_id":"free"},{"bike_id":"c2189b33-a31e-4851-9831-001d4716dec5","system_id":"levelo_inurba_marseille","lat":43.231794,"lon":5.400052,"is_reserved":false,"is_disabled":false,"rental_uris":{"android":"levelo://app?vid=c2189b33-a31e-4851-9831-001d4716dec5","ios":"levelo://app?vid=c2189b33-a31e-4851-9831-001d4716dec5"},"vehicle_type_id":"4","last_reported":1701522408,"current_range_meters":14800,"station_id":"ce4bhn12rcd13ifvqgqg","pricing_plan_id":"free"},{"bike_id":"83862a0a-d647-45eb-9884-693fce6366ab","system_id":"levelo_inurba_marseille","lat":43.23187,"lon":5.39993,"is_reserved":false,"is_disabled":false,"rental_uris":{"android":"levelo://app?vid=83862a0a-d647-45eb-9884-693fce6366ab","ios":"levelo://app?vid=83862a0a-d647-45eb-9884-693fce6366ab"},"vehicle_type_id":"4","last_reported":1701522408,"current_range_meters":18800,"station_id":"ce4bhn12rcd13ifvqgqg","pricing_plan_id":"free"},{"bike_id":"457c552c-8af5-4b7b-9f6b-8c901265a623","system_id":"levelo_inurba_marseille","lat":43.23179,"lon":5.39989,"is_reserved":false,"is_disabled":false,"rental_uris":{"android":"levelo://app?vid=457c552c-8af5-4b7b-9f6b-8c901265a623","ios":"levelo://app?vid=457c552c-8af5-4b7b-9f6b-8c901265a623"},"vehicle_type_id":"4","last_reported":1701522408,"current_range_meters":31200,"station_id":"ce4bhn12rcd13ifvqgqg","pricing_plan_id":"free"},{"bike_id":"f50c292b-cc74-4220-88ff-ce7e4d6e67ca","system_id":"levelo_inurba_marseille","lat":43.231562,"lon":5.436933,"is_reserved":false,"is_disabled":false,"rental_uris":{"android":"levelo://app?vid=f50c292b-cc74-4220-88ff-ce7e4d6e67ca","ios":"levelo://app?vid=f50c292b-cc74-4220-88ff-ce7e4d6e67ca"},"vehicle_type_id":"4","last_reported":1701522408,"current_range_meters":14400,"station_id":"ce4bhmp2rcd13ifvqgog","pricing_plan_id":"free"},{"bike_id":"ea0b6868-3337-42dd-a4b5-9db45260014a","system_id":"levelo_inurba_marseille","lat":43.231562,"lon":5.436933,"is_reserved":false,"is_disabled":false,"rental_uris":{"android":"levelo://app?vid=ea0b6868-3337-42dd-a4b5-9db45260014a","ios":"levelo://app?vid=ea0b6868-3337-42dd-a4b5-9db45260014a"},"vehicle_type_id":"4","last_reported":1701522408,"current_range_meters":24800,"station_id":"ce4bhmp2rcd13ifvqgog","pricing_plan_id":"free"}]}}