{"last_updated":1746588919,"ttl":60,"version":"2.2","data":{"bikes":[{"bike_id":"9afdaa32-5437-40bb-b5dc-0e42f55a33ee","system_id":"levelo_inurba_marseille","lat":43.25393,"lon":5.41854,"is_reserved":false,"is_disabled":false,"rental_uris":{"android":"levelo://app?vid=9afdaa32-5437-40bb-b5dc-0e42f55a33ee","ios":"levelo://app?vid=9afdaa32-5437-40bb-b5dc-0e42f55a33ee"},"vehicle_type_id":"4","last_reported":1746588919,"current_range_meters":2800,"station_id":"","pricing_plan_id":"cebpf4jnsgd1na2vs0mg"},{"bike_id":"416f578b-a76d-4698-b5ca-69135ef4b579","system_id":"levelo_inurba_marseille","lat":43.24164,"lon":5.36396,"is_reserved":false,"is_disabled":false,"rental_uris":{"android":"levelo://app?vid=416f578b-a76d-4698-b5ca-69135ef4b579","ios":"levelo://app?vid=416f578b-a76d-4698-b5ca-69135ef4b579"},"vehicle_type_id":"4","last_reported":1746588919,"current_range_meters":2800,"station_id":"cpo36qri1sfpv3e86is0","pricing_plan_id":"cebpf4jnsgd1na2vs0mg"},{"bike_id":"24294edc-015a-48b1-90b5-1e323951c31b","system_id":"levelo_inurba_marseille","lat":43.30465,"lon":5.37918,"is_reserved":false,"is_disabled":false,"rental_uris":{"android":"levelo://app?vid=24294edc-015a-48b1-90b5-1e323951c31b","ios":"levelo://app?vid=24294edc-015a-48b1-90b5-1e323951c31b"},"vehicle_type_id":"4","last_reported":1746588919,"current_range_meters":3200,"station_id":"ce4bgup2rcd13ifvqcn0","pricing_plan_id":"cebpf4jnsgd1na2vs0mg"},{"bike_id":"a38c2d49-7988-4ef8-83e8-42a2504085da","system_id":"levelo_inurba_marseille","lat":43.24522,"lon":5.41211,"is_reserved":false,"is_disabled":false,"rental_uris":{"android":"levelo://app?vid=a38c2d49-7988-4ef8-83e8-42a2504085da","ios":"levelo://app?vid=a38c2d49-7988-4ef8-83e8-42a2504085da"},"vehicle_type_id":"4","last_reported":1746588919,"current_range_meters":3600,"station_id":"","pricing_plan_id":"cebpf4jnsgd1na2vs0mg"},{"bike_id":"f2719e7d-dad8-4b5c-b7f4-534b32050cd2","system_id":"levelo_inurba_marseille","lat":43.28734,"lon":5.39961,"is_reserved":false,"is_disabled":false,"rental_uris":{"android":"levelo://app?vid=f2719e7d-dad8-4b5c-b7f4-534b32050cd2","ios":"levelo://app?vid=f2719e7d-dad8-4b5c-b7f4-534b32050cd2"},"vehicle_type_id":"4","last_reported":1746588919,"current_range_meters":3600,"station_id":"ce4bho92rcd13ifvqh3g","pricing_plan_id":"cebpf4jnsgd1na2vs0mg"},{"bike_id":"1f563d19-c9b5-426b-bb29-d8dbd2aa4133","system_id":"levelo_inurba_marseille","lat":43.336016,"lon":5.410349,"is_reserved":false,"is_disabled":false,"rental_uris":{"android":"levelo://app?vid=1f563d19-c9b5-426b-bb29-d8dbd2aa4133","ios":"levelo://app?vid=1f563d19-c9b5-426b-bb29-d8dbd2aa4133"},"vehicle_type_id":"4","last_reported":1746588919,"current_range_meters":3600,"station_id":"ce4bhqh2rcd13ifvqhmg","pricing_plan_id":"cebpf4jnsgd1na2vs0mg"},{"bike_id":"83cc1842-773c-46bc-8be1-caa63d83c3c2","system_id":"levelo_inurba_marseille","lat":43.25862,"lon":5.39521,"is_reserved":false,"is_disabled":false,"rental_uris":{"android":"levelo://app?vid=83cc1842-773c-46bc-8be1-caa63d83c3c2","ios":"levelo://app?vid=83cc1842-773c-46bc-8be1-caa63d83c3c2"},"vehicle_type_id":"4","last_reported":1746588919,"current_range_meters":3600,"station_id":"","pricing_plan_id":"cebpf4jnsgd1na2vs0mg"},{"bike_id":"a96ecb1d-8c22-42e8-8e19-f6f3aa9dac63","system_id":"levelo_inurba_marseille","lat":43.31881,"lon":5.37,"is_reserved":false,"is_disabled":false,"rental_uris":{"android":"levelo://app?vid=a96ecb1d-8c22-42e8-8e19-f6f3aa9dac63","ios":"levelo://app?vid=a96ecb1d-8c22-42e8-8e19-f6f3aa9dac63"},"vehicle_type_id":"4","last_reported":1746588919,"current_range_meters":4000,"station_id":"","pricing_plan_id":"cebpf4jnsgd1na2vs0mg"},{"bike_id":"aff774e7-ef2a-4ad6-9d2e-104f3f8aed38","system_id":"levelo_inurba_marseille","lat":43.30153,"lon":5.38084,"is_reserved":false,"is_disabled":false,"rental_uris":{"android":"levelo://app?vid=aff774e7-ef2a-4ad6-9d2e-104f3f8aed38","ios":"levelo://app?vid=aff774e7-ef2a-4ad6-9d2e-104f3f8aed38"},"vehicle_type_id":"4","last_reported":1746588919,"current_range_meters":4400,"station_id":"ce4bgjp2rcd13ifvqbh0","pricing_plan_id":"cebpf4jnsgd1na2vs0mg"},{"bike_id":"49a3c114-5b39-4db9-ab24-6f11035b7272","system_id":"levelo_inurba_marseille","lat":43.309305,"lon":5.401444,"is_reserved":false,"is_disabled":false,"rental_uris":{"android":"levelo://app?vid=49a3c114-5b39-4db9-ab24-6f11035b7272","ios":"levelo://app?vid=49a3c114-5b39-4db9-ab24-6f11035b7272"},"vehicle_type_id":"4","last_reported":1746588919,"current_range_meters":4400,"station_id":"ce4bgvp2rcd13ifvqct0","pricing_plan_id":"cebpf4jnsgd1na2vs0mg"},{"bike_id":"f58e2bf4-1fef-49a3-99e4-4f5bba038ba7","system_id":"levelo_inurba_marseille","lat":43.297156,"lon":5.368729,"is_reserved":false,"is_disabled":false,"rental_uris":{"android":"levelo://app?vid=f58e2bf4-1fef-49a3-99e4-4f5bba038ba7","ios":"levelo://app?vid=f58e2bf4-1fef-49a3-99e4-4f5bba038ba7"},"vehicle_type_id":"4","last_reported":1746588919,"current_range_meters":5600,"station_id":"","pricing_plan_id":"cebpf4jnsgd1na2vs0mg"},{"bike_id":"bc303945-6678-4274-a47d-4c68703574ba","system_id":"levelo_inurba_marseille","lat":43.28082,"lon":5.39641,"is_reserved":false,"is_disabled":false,"rental_uris":{"android":"levelo://app?vid=bc303945-6678-4274-a47d-4c68703574ba","ios":"levelo://app?vid=bc303945-6678-4274-a47d-4c68703574ba"},"vehicle_type_id":"4","last_reported":1746588919,"current_range_meters":6000,"station_id":"ce4bho12rcd13ifvqh2g","pricing_plan_id":"cebpf4jnsgd1na2vs0mg"},{"bike_id":"a82d6eb2-509b-4c48-934e-e70fd9ef6e9e","system_id":"levelo_inurba_marseille","lat":43.23962,"lon":5.36653,"is_reserved":false,"is_disabled":false,"rental_uris":{"android":"levelo://app?vid=a82d6eb2-509b-4c48-934e-e70fd9ef6e9e","ios":"levelo://app?vid=a82d6eb2-509b-4c48-934e-e70fd9ef6e9e"},"vehicle_type_id":"4","last_reported":1746588919,"current_range_meters":6400,"station_id":"ce4bhi12rcd13ifvqfp0","pricing_plan_id":"cebpf4jnsgd1na2vs0mg"},{"bike_id":"6e2c21db-0baa-4ede-8c9b-539f044fc0a6","system_id":"levelo_inurba_marseille","lat":43.280806,"lon":5.396584,"is_reserved":false,"is_disabled":false,"rental_uris":{"android":"levelo://app?vid=6e2c21db-0baa-4ede-8c9b-539f044fc0a6","ios":"levelo://app?vid=6e2c21db-0baa-4ede-8c9b-539f044fc0a6"},"vehicle_type_id":"4","last_reported":1746588919,"current_range_meters":6400,"station_id":"ce4bho12rcd13ifvqh2g","pricing_plan_id":"cebpf4jnsgd1na2vs0mg"},{"bike_id":"179f0a4b-bb81-4112-9cae-a930e8b57e86","system_id":"levelo_inurba_marseille","lat":43.29896,"lon":5.37472,"is_reserved":false,"is_disabled":false,"rental_uris":{"android":"levelo://app?vid=179f0a4b-bb81-4112-9cae-a930e8b57e86","ios":"levelo://app?vid=179f0a4b-bb81-4112-9cae-a930e8b57e86"},"vehicle_type_id":"4","last_reported":1746588919,"current_range_meters":6800,"station_id":"ce4bgjh2rcd13ifvqbg0","pricing_plan_id":"cebpf4jnsgd1na2vs0mg"},{"bike_id":"9d8f73eb-df09-4699-86a7-d631e2319093","system_id":"levelo_inurba_marseille","lat":43.26268,"lon":5.37447,"is_reserved":false,"is_disabled":false,"rental_uris":{"android":"levelo://app?vid=9d8f73eb-df09-4699-86a7-d631e2319093","ios":"levelo://app?vid=9d8f73eb-df09-4699-86a7-d631e2319093"},"vehicle_type_id":"4","last_reported":1746588919,"current_range_meters":6800,"station_id":"","pricing_plan_id":"cebpf4jnsgd1na2vs0mg"},{"bike_id":"23238e38-281c-4707-b712-1b0b0676b6c1","system_id":"levelo_inurba_marseille","lat":43.29797,"lon":5.38119,"is_reserved":false,"is_disabled":true,"rental_uris":{"android":"levelo://app?vid=23238e38-281c-4707-b712-1b0b0676b6c1","ios":"levelo://app?vid=23238e38-281c-4707-b712-1b0b0676b6c1"},"vehicle_type_id":"4","last_reported":1746588919,"current_range_meters":7200,"station_id":"ce4bgip2rcd13ifvqbb0","pricing_plan_id":"cebpf4jnsgd1na2vs0mg"},{"bike_id":"47956ac4-b384-4e4d-8f86-d31ccfb14679","system_id":"levelo_inurba_marseille","lat":43.26179,"lon":5.37544,"is_reserved":false,"is_disabled":true,"rental_uris":{"android":"levelo://app?vid=47956ac4-b384-4e4d-8f86-d31ccfb14679","ios":"levelo://app?vid=47956ac4-b384-4e4d-8f86-d31ccfb14679"},"vehicle_type_id":"4","last_reported":1746588919,"current_range_meters":7200,"station_id":"","pricing_plan_id":"cebpf4jnsgd1na2vs0mg"},{"bike_id":"9ea63d8c-fb3e-4d59-a765-19f95486125a","system_id":"levelo_inurba_marseille","lat":43.308164,"lon":5.435256,"is_reserved":false,"is_disabled":false,"rental_uris":{"android":"levelo://app?vid=9ea63d8c-fb3e-4d59-a765-19f95486125a","ios":"levelo://app?vid=9ea63d8c-fb3e-4d59-a765-19f95486125a"},"vehicle_type_id":"4","last_reported":1746588919,"current_range_meters":7200,"station_id":"ce4bhph2rcd13ifvqheg","pricing_plan_id":"cebpf4jnsgd1na2vs0mg"},{"bike_id":"c2fff035-6128-402a-b38b-ebc94261b3d8","system_id":"levelo_inurba_marseille","lat":43.211944,"lon":5.350712,"is_reserved":false,"is_disabled":false,"rental_uris":{"android":"levelo://app?vid=c2fff035-6128-402a-b38b-ebc94261b3d8","ios":"levelo://app?vid=c2fff035-6128-402a-b38b-ebc94261b3d8"},"vehicle_type_id":"4","last_reported":1746588919,"current_range_meters":7200,"station_id":"st_cvj6sg6p6f1abm77japg","pricing_plan_id":"cebpf4jnsgd1na2vs0mg"},{"bike_id":"6e3c6a7f-22fc-4508-b06d-ebb3d18f9191","system_id":"levelo_inurba_marseille","lat":43.30982,"lon":5.41715,"is_reserved":false,"is_disabled":false,"rental_uris":{"android":"levelo://app?vid=6e3c6a7f-22fc-4508-b06d-ebb3d18f9191","ios":"levelo://app?vid=6e3c6a7f-22fc-4508-b06d-ebb3d18f9191"},"vehicle_type_id":"4","last_reported":1746588919,"current_range_meters":7200,"station_id":"","pricing_plan_id":"cebpf4jnsgd1na2vs0mg"},{"bike_id":"503569af-07db-461f-918e-29f89d0c1c24","system_id":"levelo_inurba_marseille","lat":43.225,"lon":5.347801,"is_reserved":false,"is_disabled":false,"rental_uris":{"android":"levelo://app?vid=503569af-07db-461f-918e-29f89d0c1c24","ios":"levelo://app?vid=503569af-07db-461f-918e-29f89d0c1c24"},"vehicle_type_id":"4","last_reported":1746588919,"current_range_meters":7200,"station_id":"st_cvj5dfep6f1abm77gieg","pricing_plan_id":"cebpf4jnsgd1na2vs0mg"},{"bike_id":"baa819ed-6c62-4637-8cd5-16e9cb19c879","system_id":"levelo_inurba_marseille","lat":43.25851,"lon":5.39921,"is_reserved":false,"is_disabled":false,"rental_uris":{"android":"levelo://app?vid=baa819ed-6c62-4637-8cd5-16e9cb19c879","ios":"levelo://app?vid=baa819ed-6c62-4637-8cd5-16e9cb19c879"},"vehicle_type_id":"4","last_reported":1746588919,"current_range_meters":8000,"station_id":"ce4bhl92rcd13ifvqghg","pricing_plan_id":"cebpf4jnsgd1na2vs0mg"},{"bike_id":"6dd18995-0ae9-40d9-b83a-3adb99440e78","system_id":"levelo_inurba_marseille","lat":43.280723,"lon":5.396491,"is_reserved":false,"is_disabled":false,"rental_uris":{"android":"levelo://app?vid=6dd18995-0ae9-40d9-b83a-3adb99440e78","ios":"levelo://app?vid=6dd18995-0ae9-40d9-b83a-3adb99440e78"},"vehicle_type_id":"4","last_reported":1746588919,"current_range_meters":8000,"station_id":"ce4bho12rcd13ifvqh2g","pricing_plan_id":"cebpf4jnsgd1na2vs0mg"},{"bike_id":"21467e1f-9652-43ef-8d38-195aa628bdb7","system_id":"levelo_inurba_marseille","lat":43.31987,"lon":5.3814,"is_reserved":false,"is_disabled":false,"rental_uris":{"android":"levelo://app?vid=21467e1f-9652-43ef-8d38-195aa628bdb7","ios":"levelo://app?vid=21467e1f-9652-43ef-8d38-195aa628bdb7"},"vehicle_type_id":"4","last_reported":1746588919,"current_range_meters":8000,"station_id":"ce4bhr12rcd13ifvqhpg","pricing_plan_id":"cebpf4jnsgd1na2vs0mg"},{"bike_id":"0c377d9d-9a3a-47a7-9944-6039314b5e15","system_id":"levelo_inurba_marseille","lat":43.24589,"lon":5.40481,"is_reserved":false,"is_disabled":false,"rental_uris":{"android":"levelo://app?vid=0c377d9d-9a3a-47a7-9944-6039314b5e15","ios":"levelo://app?vid=0c377d9d-9a3a-47a7-9944-6039314b5e15"},"vehicle_type_id":"4","last_reported":1746588919,"current_range_meters":8000,"station_id":"","pricing_plan_id":"cebpf4jnsgd1na2vs0mg"},{"bike_id":"f5a9e073-36d4-440d-a3c4-dcf0d3ad9806","system_id":"levelo_inurba_marseille","lat":43.304414,"lon":5.388988,"is_reserved":false,"is_disabled":false,"rental_uris":{"android":"levelo://app?vid=f5a9e073-36d4-440d-a3c4-dcf0d3ad9806","ios":"levelo://app?vid=f5a9e073-36d4-440d-a3c4-dcf0d3ad9806"},"vehicle_type_id":"4","last_reported":1746588919,"current_range_meters":8000,"station_id":"ce4bgk12rcd13ifvqbi0","pricing_plan_id":"cebpf4jnsgd1na2vs0mg"},{"bike_id":"484f2dde-c737-4875-a80e-8af8034b62f6","system_id":"levelo_inurba_marseille","lat":43.29047,"lon":5.39995,"is_reserved":false,"is_disabled":false,"rental_uris":{"android":"levelo://app?vid=484f2dde-c737-4875-a80e-8af8034b62f6","ios":"levelo://app?vid=484f2dde-c737-4875-a80e-8af8034b62f6"},"vehicle_type_id":"4","last_reported":1746588919,"current_range_meters":8400,"station_id":"ce4bh392rcd13ifvqdm0","pricing_plan_id":"cebpf4jnsgd1na2vs0mg"},{"bike_id":"fc453207-e37b-4b13-ae20-4430b65eb533","system_id":"levelo_inurba_marseille","lat":43.32442,"lon":5.39127,"is_reserved":false,"is_disabled":true,"rental_uris":{"android":"levelo://app?vid=fc453207-e37b-4b13-ae20-4430b65eb533","ios":"levelo://app?vid=fc453207-e37b-4b13-ae20-4430b65eb533"},"vehicle_type_id":"4","last_reported":1746588919,"current_range_meters":8400,"station_id":"","pricing_plan_id":"cebpf4jnsgd1na2vs0mg"},{"bike_id":"bab57e29-1b43-40e7-87ee-968e5ea56319","system_id":"levelo_inurba_marseille","lat":43.32353,"lon":5.38904,"is_reserved":false,"is_disabled":false,"rental_uris":{"android":"levelo://app?vid=bab57e29-1b43-40e7-87ee-968e5ea56319","ios":"levelo://app?vid=bab57e29-1b43-40e7-87ee-968e5ea56319"},"vehicle_type_id":"4","last_reported":1746588919,"current_range_meters":8400,"station_id":"ce4bhqp2rcd13ifvqhog","pricing_plan_id":"cebpf4jnsgd1na2vs0mg"},{"bike_id":"e59efd3f-08c5-4093-b1d9-54ac82a09c07","system_id":"levelo_inurba_marseille","lat":43.3088,"lon":5.37167,"is_reserved":false,"is_disabled":false,"rental_uris":{"android":"levelo://app?vid=e59efd3f-08c5-4093-b1d9-54ac82a09c07","ios":"levelo://app?vid=e59efd3f-08c5-4093-b1d9-54ac82a09c07"},"vehicle_type_id":"4","last_reported":1746588919,"current_range_meters":8400,"station_id":"ce4bguh2rcd13ifvqckg","pricing_plan_id":"cebpf4jnsgd1na2vs0mg"},{"bike_id":"c9592205-9409-4f74-aed1-7c4141a58caa","system_id":"levelo_inurba_marseille","lat":43.27166,"lon":5.36357,"is_reserved":false,"is_disabled":false,"rental_uris":{"android":"levelo://app?vid=c9592205-9409-4f74-aed1-7c4141a58caa","ios":"levelo://app?vid=c9592205-9409-4f74-aed1-7c4141a58caa"},"vehicle_type_id":"4","last_reported":1746588919,"current_range_meters":8400,"station_id":"","pricing_plan_id":"cebpf4jnsgd1na2vs0mg"},{"bike_id":"943d0601-5d73-468b-922c-7ef604961a21","system_id":"levelo_inurba_marseille","lat":43.2119,"lon":5.35071,"is_reserved":false,"is_disabled":false,"rental_uris":{"android":"levelo://app?vid=943d0601-5d73-468b-922c-7ef604961a21","ios":"levelo://app?vid=943d0601-5d73-468b-922c-7ef604961a21"},"vehicle_type_id":"4","last_reported":1746588919,"current_range_meters":8400,"station_id":"st_cvj6sg6p6f1abm77japg","pricing_plan_id":"cebpf4jnsgd1na2vs0mg"},{"bike_id":"5e64a698-d714-4d99-8261-db4d12b9f278","system_id":"levelo_inurba_marseille","lat":43.30767,"lon":5.372076,"is_reserved":false,"is_disabled":false,"rental_uris":{"android":"levelo://app?vid=5e64a698-d714-4d99-8261-db4d12b9f278","ios":"levelo://app?vid=5e64a698-d714-4d99-8261-db4d12b9f278"},"vehicle_type_id":"4","last_reported":1746588919,"current_range_meters":8800,"station_id":"","pricing_plan_id":"cebpf4jnsgd1na2vs0mg"},{"bike_id":"b4bac287-3615-423a-bca2-a11fb80cb066","system_id":"levelo_inurba_marseille","lat":43.23033,"lon":5.35507,"is_reserved":false,"is_disabled":false,"rental_uris":{"android":"levelo://app?vid=b4bac287-3615-423a-bca2-a11fb80cb066","ios":"levelo://app?vid=b4bac287-3615-423a-bca2-a11fb80cb066"},"vehicle_type_id":"4","last_reported":1746588919,"current_range_meters":8800,"station_id":"cpo3342slgdg3j2ifvpg","pricing_plan_id":"cebpf4jnsgd1na2vs0mg"},{"bike_id":"a45d229b-c6a6-49ef-a41a-42984d8380a4","system_id":"levelo_inurba_marseille","lat":43.309374,"lon":5.401442,"is_reserved":false,"is_disabled":false,"rental_uris":{"android":"levelo://app?vid=a45d229b-c6a6-49ef-a41a-42984d8380a4","ios":"levelo://app?vid=a45d229b-c6a6-49ef-a41a-42984d8380a4"},"vehicle_type_id":"4","last_reported":1746588919,"current_range_meters":8800,"station_id":"ce4bgvp2rcd13ifvqct0","pricing_plan_id":"cebpf4jnsgd1na2vs0mg"},{"bike_id":"3f84d55c-f7b3-443f-a8ba-1f83ba8291a2","system_id":"levelo_inurba_marseille","lat":43.21186,"lon":5.35064,"is_reserved":false,"is_disabled":false,"rental_uris":{"android":"levelo://app?vid=3f84d55c-f7b3-443f-a8ba-1f83ba8291a2","ios":"levelo://app?vid=3f84d55c-f7b3-443f-a8ba-1f83ba8291a2"},"vehicle_type_id":"4","last_reported":1746588919,"current_range_meters":8800,"station_id":"st_cvj6sg6p6f1abm77japg","pricing_plan_id":"cebpf4jnsgd1na2vs0mg"},{"bike_id":"573f2a0d-a710-442f-968d-30cc429a997a","system_id":"levelo_inurba_marseille","lat":43.28242,"lon":5.35071,"is_reserved":false,"is_disabled":false,"rental_uris":{"android":"levelo://app?vid=573f2a0d-a710-442f-968d-30cc429a997a","ios":"levelo://app?vid=573f2a0d-a710-442f-968d-30cc429a997a"},"vehicle_type_id":"4","last_reported":1746588919,"current_range_meters":8800,"station_id":"ce4bhbp2rcd13ifvqerg","pricing_plan_id":"cebpf4jnsgd1na2vs0mg"},{"bike_id":"1e6ef1b5-4779-4cb6-b6c7-5c78c344b341","system_id":"levelo_inurba_marseille","lat":43.23205,"lon":5.39951,"is_reserved":false,"is_disabled":false,"rental_uris":{"android":"levelo://app?vid=1e6ef1b5-4779-4cb6-b6c7-5c78c344b341","ios":"levelo://app?vid=1e6ef1b5-4779-4cb6-b6c7-5c78c344b341"},"vehicle_type_id":"4","last_reported":1746588919,"current_range_meters":9200,"station_id":"","pricing_plan_id":"cebpf4jnsgd1na2vs0mg"},{"bike_id":"2370bbbd-549c-4595-8698-dadbdc6d67e4","system_id":"levelo_inurba_marseille","lat":43.299881,"lon":5.371813,"is_reserved":false,"is_disabled":false,"rental_uris":{"android":"levelo://app?vid=2370bbbd-549c-4595-8698-dadbdc6d67e4","ios":"levelo://app?vid=2370bbbd-549c-4595-8698-dadbdc6d67e4"},"vehicle_type_id":"4","last_reported":1746588919,"current_range_meters":9200,"station_id":"ce4bgr92rcd13ifvqc7g","pricing_plan_id":"cebpf4jnsgd1na2vs0mg"},{"bike_id":"e0958a16-a452-4b60-a67a-6763663068b7","system_id":"levelo_inurba_marseille","lat":43.262301,"lon":5.40451,"is_reserved":false,"is_disabled":false,"rental_uris":{"android":"levelo://app?vid=e0958a16-a452-4b60-a67a-6763663068b7","ios":"levelo://app?vid=e0958a16-a452-4b60-a67a-6763663068b7"},"vehicle_type_id":"4","last_reported":1746588919,"current_range_meters":9200,"station_id":"ce4bhmh2rcd13ifvqgmg","pricing_plan_id":"cebpf4jnsgd1na2vs0mg"},{"bike_id":"f1843c1e-7177-4be0-912b-76c2200a2374","system_id":"levelo_inurba_marseille","lat":43.29812,"lon":5.40404,"is_reserved":false,"is_disabled":false,"rental_uris":{"android":"levelo://app?vid=f1843c1e-7177-4be0-912b-76c2200a2374","ios":"levelo://app?vid=f1843c1e-7177-4be0-912b-76c2200a2374"},"vehicle_type_id":"4","last_reported":1746588919,"current_range_meters":9600,"station_id":"ce4bh112rcd13ifvqd90","pricing_plan_id":"cebpf4jnsgd1na2vs0mg"},{"bike_id":"54b46741-8284-4ace-92ab-407b5aa505d3","system_id":"levelo_inurba_marseille","lat":43.287273,"lon":5.360818,"is_reserved":false,"is_disabled":false,"rental_uris":{"android":"levelo://app?vid=54b46741-8284-4ace-92ab-407b5aa505d3","ios":"levelo://app?vid=54b46741-8284-4ace-92ab-407b5aa505d3"},"vehicle_type_id":"4","last_reported":1746588919,"current_range_meters":9600,"station_id":"cki0cbj6b192h4jlfktg","pricing_plan_id":"cebpf4jnsgd1na2vs0mg"},{"bike_id":"f909d878-88c2-447a-bc4f-82f1db2e243c","system_id":"levelo_inurba_marseille","lat":43.31258,"lon":5.36834,"is_reserved":false,"is_disabled":false,"rental_uris":{"android":"levelo://app?vid=f909d878-88c2-447a-bc4f-82f1db2e243c","ios":"levelo://app?vid=f909d878-88c2-447a-bc4f-82f1db2e243c"},"vehicle_type_id":"4","last_reported":1746588919,"current_range_meters":9600,"station_id":"ce4bgl92rcd13ifvqbq0","pricing_plan_id":"cebpf4jnsgd1na2vs0mg"},{"bike_id":"4d41f66c-f615-49b2-a6d7-735e22d421fb","system_id":"levelo_inurba_marseille","lat":43.231868,"lon":5.399768,"is_reserved":false,"is_disabled":false,"rental_uris":{"android":"levelo://app?vid=4d41f66c-f615-49b2-a6d7-735e22d421fb","ios":"levelo://app?vid=4d41f66c-f615-49b2-a6d7-735e22d421fb"},"vehicle_type_id":"4","last_reported":1746588919,"current_range_meters":9600,"station_id":"ce4bhn12rcd13ifvqgqg","pricing_plan_id":"cebpf4jnsgd1na2vs0mg"},{"bike_id":"bd3b2178-bd6a-4801-b79f-10fa8392d3d4","system_id":"levelo_inurba_marseille","lat":43.312395,"lon":5.368594,"is_reserved":false,"is_disabled":false,"rental_uris":{"android":"levelo://app?vid=bd3b2178-bd6a-4801-b79f-10fa8392d3d4","ios":"levelo://app?vid=bd3b2178-bd6a-4801-b79f-10fa8392d3d4"},"vehicle_type_id":"4","last_reported":1746588919,"current_range_meters":9600,"station_id":"ce4bgl92rcd13ifvqbq0","pricing_plan_id":"cebpf4jnsgd1na2vs0mg"},{"bike_id":"2d34c47c-7e86-4bb4-ab5f-8da030cb95d8","system_id":"levelo_inurba_marseille","lat":43.262163,"lon":5.404598,"is_reserved":false,"is_disabled":false,"rental_uris":{"android":"levelo://app?vid=2d34c47c-7e86-4bb4-ab5f-8da030cb95d8","ios":"levelo://app?vid=2d34c47c-7e86-4bb4-ab5f-8da030cb95d8"},"vehicle_type_id":"4","last_reported":1746588919,"current_range_meters":10000,"station_id":"ce4bhmh2rcd13ifvqgmg","pricing_plan_id":"cebpf4jnsgd1na2vs0mg"},{"bike_id":"92eee748-5420-4266-ae50-6b9ed177256d","system_id":"levelo_inurba_marseille","lat":43.3361,"lon":5.41016,"is_reserved":false,"is_disabled":false,"rental_uris":{"android":"levelo://app?vid=92eee748-5420-4266-ae50-6b9ed177256d","ios":"levelo://app?vid=92eee748-5420-4266-ae50-6b9ed177256d"},"vehicle_type_id":"4","last_reported":1746588919,"current_range_meters":10000,"station_id":"ce4bhqh2rcd13ifvqhmg","pricing_plan_id":"cebpf4jnsgd1na2vs0mg"},{"bike_id":"4c0ad360-083a-4495-929a-e21621174de9","system_id":"levelo_inurba_marseille","lat":43.31481,"lon":5.37326,"is_reserved":false,"is_disabled":false,"rental_uris":{"android":"levelo://app?vid=4c0ad360-083a-4495-929a-e21621174de9","ios":"levelo://app?vid=4c0ad360-083a-4495-929a-e21621174de9"},"vehicle_type_id":"4","last_reported":1746588919,"current_range_meters":10000,"station_id":"ce4bgt12rcd13ifvqcd0","pricing_plan_id":"cebpf4jnsgd1na2vs0mg"},{"bike_id":"524af5ec-d599-4ab2-b07c-afdc3da739bb","system_id":"levelo_inurba_marseille","lat":43.316874,"lon":5.404666,"is_reserved":false,"is_disabled":false,"rental_uris":{"android":"levelo://app?vid=524af5ec-d599-4ab2-b07c-afdc3da739bb","ios":"levelo://app?vid=524af5ec-d599-4ab2-b07c-afdc3da739bb"},"vehicle_type_id":"4","last_reported":1746588919,"current_range_meters":10000,"station_id":"ce4bh012rcd13ifvqd00","pricing_plan_id":"cebpf4jnsgd1na2vs0mg"},{"bike_id":"065dfa79-5129-4665-ba10-4a802102a715","system_id":"levelo_inurba_marseille","lat":43.317247,"lon":5.423914,"is_reserved":false,"is_disabled":false,"rental_uris":{"android":"levelo://app?vid=065dfa79-5129-4665-ba10-4a802102a715","ios":"levelo://app?vid=065dfa79-5129-4665-ba10-4a802102a715"},"vehicle_type_id":"4","last_reported":1746588919,"current_range_meters":10800,"station_id":"ce4bhp92rcd13ifvqhbg","pricing_plan_id":"cebpf4jnsgd1na2vs0mg"},{"bike_id":"74815692-699f-4c35-9f0d-838180447af2","system_id":"levelo_inurba_marseille","lat":43.27997,"lon":5.41664,"is_reserved":false,"is_disabled":false,"rental_uris":{"android":"levelo://app?vid=74815692-699f-4c35-9f0d-838180447af2","ios":"levelo://app?vid=74815692-699f-4c35-9f0d-838180447af2"},"vehicle_type_id":"4","last_reported":1746588919,"current_range_meters":10800,"station_id":"ce4bho12rcd13ifvqh1g","pricing_plan_id":"cebpf4jnsgd1na2vs0mg"},{"bike_id":"4e04aed0-6c86-40b1-ab2c-63f50d8c0333","system_id":"levelo_inurba_marseille","lat":43.278169,"lon":5.407162,"is_reserved":false,"is_disabled":true,"rental_uris":{"android":"levelo://app?vid=4e04aed0-6c86-40b1-ab2c-63f50d8c0333","ios":"levelo://app?vid=4e04aed0-6c86-40b1-ab2c-63f50d8c0333"},"vehicle_type_id":"4","last_reported":1746588919,"current_range_meters":10800,"station_id":"ce4bhnh2rcd13ifvqgtg","pricing_plan_id":"cebpf4jnsgd1na2vs0mg"},{"bike_id":"963aeaaf-16ab-4ca6-896c-a412c968ec60","system_id":"levelo_inurba_marseille","lat":43.2892,"lon":5.364,"is_reserved":false,"is_disabled":true,"rental_uris":{"android":"levelo://app?vid=963aeaaf-16ab-4ca6-896c-a412c968ec60","ios":"levelo://app?vid=963aeaaf-16ab-4ca6-896c-a412c968ec60"},"vehicle_type_id":"4","last_reported":1746588919,"current_range_meters":10800,"station_id":"ce4bhc92rcd13ifvqetg","pricing_plan_id":"cebpf4jnsgd1na2vs0mg"},{"bike_id":"2f9869ca-0c03-451a-9ef5-f4dfb1f32f83","system_id":"levelo_inurba_marseille","lat":43.27925,"lon":5.39601,"is_reserved":false,"is_disabled":false,"rental_uris":{"android":"levelo://app?vid=2f9869ca-0c03-451a-9ef5-f4dfb1f32f83","ios":"levelo://app?vid=2f9869ca-0c03-451a-9ef5-f4dfb1f32f83"},"vehicle_type_id":"4","last_reported":1746588919,"current_range_meters":10800,"station_id":"ce4bhf92rcd13ifvqf40","pricing_plan_id":"cebpf4jnsgd1na2vs0mg"},{"bike_id":"408abc91-221a-4a99-b6ce-c9dc49db19bb","system_id":"levelo_inurba_marseille","lat":43.31666,"lon":5.4051,"is_reserved":false,"is_disabled":false,"rental_uris":{"android":"levelo://app?vid=408abc91-221a-4a99-b6ce-c9dc49db19bb","ios":"levelo://app?vid=408abc91-221a-4a99-b6ce-c9dc49db19bb"},"vehicle_type_id":"4","last_reported":1746588919,"current_range_meters":10800,"station_id":"ce4bh012rcd13ifvqd00","pricing_plan_id":"cebpf4jnsgd1na2vs0mg"},{"bike_id":"38379327-4272-47cc-81f3-1bf48704fd97","system_id":"levelo_inurba_marseille","lat":43.257158,"lon":5.411172,"is_reserved":false,"is_disabled":false,"rental_uris":{"android":"levelo://app?vid=38379327-4272-47cc-81f3-1bf48704fd97","ios":"levelo://app?vid=38379327-4272-47cc-81f3-1bf48704fd97"},"vehicle_type_id":"4","last_reported":1746588919,"current_range_meters":10800,"station_id":"ce4bhkp2rcd13ifvqgd0","pricing_plan_id":"cebpf4jnsgd1na2vs0mg"},{"bike_id":"f01b3ecd-8a14-4d45-ba87-d115c0d06e2b","system_id":"levelo_inurba_marseille","lat":43.29249,"lon":5.40915,"is_reserved":false,"is_disabled":false,"rental_uris":{"android":"levelo://app?vid=f01b3ecd-8a14-4d45-ba87-d115c0d06e2b","ios":"levelo://app?vid=f01b3ecd-8a14-4d45-ba87-d115c0d06e2b"},"vehicle_type_id":"4","last_reported":1746588919,"current_range_meters":11200,"station_id":"ce4bh192rcd13ifvqdc0","pricing_plan_id":"cebpf4jnsgd1na2vs0mg"},{"bike_id":"605675c8-7e98-4b93-ad40-2caf822a384a","system_id":"levelo_inurba_marseille","lat":43.314939,"lon":5.373054,"is_reserved":false,"is_disabled":false,"rental_uris":{"android":"levelo://app?vid=605675c8-7e98-4b93-ad40-2caf822a384a","ios":"levelo://app?vid=605675c8-7e98-4b93-ad40-2caf822a384a"},"vehicle_type_id":"4","last_reported":1746588919,"current_range_meters":10800,"station_id":"ce4bgt12rcd13ifvqcd0","pricing_plan_id":"cebpf4jnsgd1na2vs0mg"},{"bike_id":"8a5554a2-b62f-4371-8d49-519ad97fb9f1","system_id":"levelo_inurba_marseille","lat":43.32995,"lon":5.3905,"is_reserved":false,"is_disabled":false,"rental_uris":{"android":"levelo://app?vid=8a5554a2-b62f-4371-8d49-519ad97fb9f1","ios":"levelo://app?vid=8a5554a2-b62f-4371-8d49-519ad97fb9f1"},"vehicle_type_id":"4","last_reported":1746588919,"current_range_meters":10800,"station_id":"ce4bhr92rcd13ifvqhrg","pricing_plan_id":"cebpf4jnsgd1na2vs0mg"},{"bike_id":"b7b5afdd-8e6d-46ef-a721-3f3c5f0457b0","system_id":"levelo_inurba_marseille","lat":43.30888,"lon":5.37186,"is_reserved":false,"is_disabled":false,"rental_uris":{"android":"levelo://app?vid=b7b5afdd-8e6d-46ef-a721-3f3c5f0457b0","ios":"levelo://app?vid=b7b5afdd-8e6d-46ef-a721-3f3c5f0457b0"},"vehicle_type_id":"4","last_reported":1746588919,"current_range_meters":11200,"station_id":"ce4bguh2rcd13ifvqckg","pricing_plan_id":"cebpf4jnsgd1na2vs0mg"},{"bike_id":"652ea8be-45bb-4a3a-846e-dba5eb08ab33","system_id":"levelo_inurba_marseille","lat":43.25438,"lon":5.38254,"is_reserved":false,"is_disabled":false,"rental_uris":{"android":"levelo://app?vid=652ea8be-45bb-4a3a-846e-dba5eb08ab33","ios":"levelo://app?vid=652ea8be-45bb-4a3a-846e-dba5eb08ab33"},"vehicle_type_id":"4","last_reported":1746588919,"current_range_meters":11200,"station_id":"","pricing_plan_id":"cebpf4jnsgd1na2vs0mg"},{"bike_id":"812778da-81c2-4417-93be-2036336d6bb9","system_id":"levelo_inurba_marseille","lat":43.33617,"lon":5.4104,"is_reserved":false,"is_disabled":false,"rental_uris":{"android":"levelo://app?vid=812778da-81c2-4417-93be-2036336d6bb9","ios":"levelo://app?vid=812778da-81c2-4417-93be-2036336d6bb9"},"vehicle_type_id":"4","last_reported":1746588919,"current_range_meters":11200,"station_id":"ce4bhqh2rcd13ifvqhmg","pricing_plan_id":"cebpf4jnsgd1na2vs0mg"},{"bike_id":"741922f7-49ff-4751-a228-5a73f2c8c24d","system_id":"levelo_inurba_marseille","lat":43.241636,"lon":5.364049,"is_reserved":false,"is_disabled":false,"rental_uris":{"android":"levelo://app?vid=741922f7-49ff-4751-a228-5a73f2c8c24d","ios":"levelo://app?vid=741922f7-49ff-4751-a228-5a73f2c8c24d"},"vehicle_type_id":"4","last_reported":1746588919,"current_range_meters":11200,"station_id":"cpo36qri1sfpv3e86is0","pricing_plan_id":"cebpf4jnsgd1na2vs0mg"},{"bike_id":"7bbde7e3-3765-4af5-abd2-40baaec8ece7","system_id":"levelo_inurba_marseille","lat":43.30886,"lon":5.3963,"is_reserved":false,"is_disabled":false,"rental_uris":{"android":"levelo://app?vid=7bbde7e3-3765-4af5-abd2-40baaec8ece7","ios":"levelo://app?vid=7bbde7e3-3765-4af5-abd2-40baaec8ece7"},"vehicle_type_id":"4","last_reported":1746588919,"current_range_meters":11200,"station_id":"ce4bh012rcd13ifvqcv0","pricing_plan_id":"cebpf4jnsgd1na2vs0mg"},{"bike_id":"f1442852-f71a-448f-b6c6-c6128acec5d3","system_id":"levelo_inurba_marseille","lat":43.306621,"lon":5.400811,"is_reserved":false,"is_disabled":true,"rental_uris":{"android":"levelo://app?vid=f1442852-f71a-448f-b6c6-c6128acec5d3","ios":"levelo://app?vid=f1442852-f71a-448f-b6c6-c6128acec5d3"},"vehicle_type_id":"4","last_reported":1746588919,"current_range_meters":11600,"station_id":"ce4bh112rcd13ifvqda0","pricing_plan_id":"cebpf4jnsgd1na2vs0mg"},{"bike_id":"43fec331-5dbe-4fa7-9b37-9757078cd140","system_id":"levelo_inurba_marseille","lat":43.288421,"lon":5.358118,"is_reserved":false,"is_disabled":true,"rental_uris":{"android":"levelo://app?vid=43fec331-5dbe-4fa7-9b37-9757078cd140","ios":"levelo://app?vid=43fec331-5dbe-4fa7-9b37-9757078cd140"},"vehicle_type_id":"4","last_reported":1746588919,"current_range_meters":11600,"station_id":"ce4bhb12rcd13ifvqem0","pricing_plan_id":"cebpf4jnsgd1na2vs0mg"},{"bike_id":"c65b64f5-a38f-4b33-a48f-6bb6c6b32a53","system_id":"levelo_inurba_marseille","lat":43.21196,"lon":5.35102,"is_reserved":false,"is_disabled":false,"rental_uris":{"android":"levelo://app?vid=c65b64f5-a38f-4b33-a48f-6bb6c6b32a53","ios":"levelo://app?vid=c65b64f5-a38f-4b33-a48f-6bb6c6b32a53"},"vehicle_type_id":"4","last_reported":1746588919,"current_range_meters":11600,"station_id":"st_cvj6sg6p6f1abm77japg","pricing_plan_id":"cebpf4jnsgd1na2vs0mg"},{"bike_id":"c0c9b625-2ed9-4025-8036-243e1cf4c3d6","system_id":"levelo_inurba_marseille","lat":43.251217,"lon":5.403258,"is_reserved":false,"is_disabled":false,"rental_uris":{"android":"levelo://app?vid=c0c9b625-2ed9-4025-8036-243e1cf4c3d6","ios":"levelo://app?vid=c0c9b625-2ed9-4025-8036-243e1cf4c3d6"},"vehicle_type_id":"4","last_reported":1746588919,"current_range_meters":11600,"station_id":"ce4bhlh2rcd13ifvqgig","pricing_plan_id":"cebpf4jnsgd1na2vs0mg"},{"bike_id":"5d77c07c-f046-426c-ace2-022105fda209","system_id":"levelo_inurba_marseille","lat":43.288479,"lon":5.358439,"is_reserved":false,"is_disabled":false,"rental_uris":{"android":"levelo://app?vid=5d77c07c-f046-426c-ace2-022105fda209","ios":"levelo://app?vid=5d77c07c-f046-426c-ace2-022105fda209"},"vehicle_type_id":"4","last_reported":1746588919,"current_range_meters":12000,"station_id":"ce4bhb12rcd13ifvqem0","pricing_plan_id":"cebpf4jnsgd1na2vs0mg"},{"bike_id":"51b6e6e7-5532-4467-8158-93670ab42b27","system_id":"levelo_inurba_marseille","lat":43.270613,"lon":5.402669,"is_reserved":false,"is_disabled":false,"rental_uris":{"android":"levelo://app?vid=51b6e6e7-5532-4467-8158-93670ab42b27","ios":"levelo://app?vid=51b6e6e7-5532-4467-8158-93670ab42b27"},"vehicle_type_id":"4","last_reported":1746588919,"current_range_meters":12000,"station_id":"ce4bhk92rcd13ifvqgc0","pricing_plan_id":"cebpf4jnsgd1na2vs0mg"},{"bike_id":"cca4c5cc-43e7-433b-a0fb-3702c8125395","system_id":"levelo_inurba_marseille","lat":43.229347,"lon":5.353763,"is_reserved":false,"is_disabled":false,"rental_uris":{"android":"levelo://app?vid=cca4c5cc-43e7-433b-a0fb-3702c8125395","ios":"levelo://app?vid=cca4c5cc-43e7-433b-a0fb-3702c8125395"},"vehicle_type_id":"4","last_reported":1746588919,"current_range_meters":12400,"station_id":"cpo3532slgdg3j2ikp40","pricing_plan_id":"cebpf4jnsgd1na2vs0mg"},{"bike_id":"048a513c-5411-4c53-a010-8d375819a2ca","system_id":"levelo_inurba_marseille","lat":43.287,"lon":5.39985,"is_reserved":false,"is_disabled":false,"rental_uris":{"android":"levelo://app?vid=048a513c-5411-4c53-a010-8d375819a2ca","ios":"levelo://app?vid=048a513c-5411-4c53-a010-8d375819a2ca"},"vehicle_type_id":"4","last_reported":1746588919,"current_range_meters":12400,"station_id":"ce4bho92rcd13ifvqh3g","pricing_plan_id":"cebpf4jnsgd1na2vs0mg"},{"bike_id":"6f783098-ef72-4044-9ec6-09b510d07edd","system_id":"levelo_inurba_marseille","lat":43.28436,"lon":5.37526,"is_reserved":false,"is_disabled":false,"rental_uris":{"android":"levelo://app?vid=6f783098-ef72-4044-9ec6-09b510d07edd","ios":"levelo://app?vid=6f783098-ef72-4044-9ec6-09b510d07edd"},"vehicle_type_id":"4","last_reported":1746588919,"current_range_meters":12400,"station_id":"ce4bh412rcd13ifvqds0","pricing_plan_id":"cebpf4jnsgd1na2vs0mg"},{"bike_id":"47d2fd70-6980-4296-bfaf-01fe22c02520","system_id":"levelo_inurba_marseille","lat":43.30793,"lon":5.43538,"is_reserved":false,"is_disabled":false,"rental_uris":{"android":"levelo://app?vid=47d2fd70-6980-4296-bfaf-01fe22c02520","ios":"levelo://app?vid=47d2fd70-6980-4296-bfaf-01fe22c02520"},"vehicle_type_id":"4","last_reported":1746588919,"current_range_meters":12800,"station_id":"ce4bhph2rcd13ifvqheg","pricing_plan_id":"cebpf4jnsgd1na2vs0mg"},{"bike_id":"0f0bb485-e23f-418f-811a-87e1ff8dd8f6","system_id":"levelo_inurba_marseille","lat":43.284562,"lon":5.358944,"is_reserved":false,"is_disabled":false,"rental_uris":{"android":"levelo://app?vid=0f0bb485-e23f-418f-811a-87e1ff8dd8f6","ios":"levelo://app?vid=0f0bb485-e23f-418f-811a-87e1ff8dd8f6"},"vehicle_type_id":"4","last_reported":1746588919,"current_range_meters":12800,"station_id":"ce4bhah2rcd13ifvqei0","pricing_plan_id":"cebpf4jnsgd1na2vs0mg"},{"bike_id":"6c98a7b8-7fa4-4b16-b507-c076953d61ee","system_id":"levelo_inurba_marseille","lat":43.2517,"lon":5.40324,"is_reserved":false,"is_disabled":false,"rental_uris":{"android":"levelo://app?vid=6c98a7b8-7fa4-4b16-b507-c076953d61ee","ios":"levelo://app?vid=6c98a7b8-7fa4-4b16-b507-c076953d61ee"},"vehicle_type_id":"4","last_reported":1746588919,"current_range_meters":13600,"station_id":"ce4bhlh2rcd13ifvqgig","pricing_plan_id":"cebpf4jnsgd1na2vs0mg"},{"bike_id":"7246f31f-acc3-4c5c-a602-c81cecb67616","system_id":"levelo_inurba_marseille","lat":43.30144,"lon":5.38081,"is_reserved":false,"is_disabled":false,"rental_uris":{"android":"levelo://app?vid=7246f31f-acc3-4c5c-a602-c81cecb67616","ios":"levelo://app?vid=7246f31f-acc3-4c5c-a602-c81cecb67616"},"vehicle_type_id":"4","last_reported":1746588919,"current_range_meters":13600,"station_id":"ce4bgjp2rcd13ifvqbh0","pricing_plan_id":"cebpf4jnsgd1na2vs0mg"},{"bike_id":"5ca0cdd3-986b-405d-a3f7-122ee59b5450","system_id":"levelo_inurba_marseille","lat":43.286601,"lon":5.363419,"is_reserved":false,"is_disabled":false,"rental_uris":{"android":"levelo://app?vid=5ca0cdd3-986b-405d-a3f7-122ee59b5450","ios":"levelo://app?vid=5ca0cdd3-986b-405d-a3f7-122ee59b5450"},"vehicle_type_id":"4","last_reported":1746588919,"current_range_meters":13600,"station_id":"ce4bhah2rcd13ifvqej0","pricing_plan_id":"cebpf4jnsgd1na2vs0mg"},{"bike_id":"b8ddda82-92f2-42fc-8450-b14ec607afda","system_id":"levelo_inurba_marseille","lat":43.30396,"lon":5.41319,"is_reserved":false,"is_disabled":false,"rental_uris":{"android":"levelo://app?vid=b8ddda82-92f2-42fc-8450-b14ec607afda","ios":"levelo://app?vid=b8ddda82-92f2-42fc-8450-b14ec607afda"},"vehicle_type_id":"4","last_reported":1746588919,"current_range_meters":13600,"station_id":"ce4bhop2rcd13ifvqh8g","pricing_plan_id":"cebpf4jnsgd1na2vs0mg"},{"bike_id":"7a917c71-5842-4d65-ab75-d50cc46af138","system_id":"levelo_inurba_marseille","lat":43.28105,"lon":5.37861,"is_reserved":false,"is_disabled":false,"rental_uris":{"android":"levelo://app?vid=7a917c71-5842-4d65-ab75-d50cc46af138","ios":"levelo://app?vid=7a917c71-5842-4d65-ab75-d50cc46af138"},"vehicle_type_id":"4","last_reported":1746588919,"current_range_meters":13600,"station_id":"ce4bha12rcd13ifvqee0","pricing_plan_id":"cebpf4jnsgd1na2vs0mg"},{"bike_id":"01bc34ef-4554-4182-85ef-fb443c22e35a","system_id":"levelo_inurba_marseille","lat":43.265593,"lon":5.372841,"is_reserved":false,"is_disabled":false,"rental_uris":{"android":"levelo://app?vid=01bc34ef-4554-4182-85ef-fb443c22e35a","ios":"levelo://app?vid=01bc34ef-4554-4182-85ef-fb443c22e35a"},"vehicle_type_id":"4","last_reported":1746588919,"current_range_meters":14000,"station_id":"ce4bhg12rcd13ifvqf70","pricing_plan_id":"cebpf4jnsgd1na2vs0mg"},{"bike_id":"c761457c-43c6-4500-9aec-e5e2c152850c","system_id":"levelo_inurba_marseille","lat":43.31528,"lon":5.38057,"is_reserved":false,"is_disabled":true,"rental_uris":{"android":"levelo://app?vid=c761457c-43c6-4500-9aec-e5e2c152850c","ios":"levelo://app?vid=c761457c-43c6-4500-9aec-e5e2c152850c"},"vehicle_type_id":"4","last_reported":1746588919,"current_range_meters":14000,"station_id":"ce4bhsp2rcd13ifvqi50","pricing_plan_id":"cebpf4jnsgd1na2vs0mg"},{"bike_id":"858eaade-540f-4e6d-90c6-0b267365dd5c","system_id":"levelo_inurba_marseille","lat":43.27998,"lon":5.400144,"is_reserved":false,"is_disabled":false,"rental_uris":{"android":"levelo://app?vid=858eaade-540f-4e6d-90c6-0b267365dd5c","ios":"levelo://app?vid=858eaade-540f-4e6d-90c6-0b267365dd5c"},"vehicle_type_id":"4","last_reported":1746588919,"current_range_meters":14000,"station_id":"ce4bho92rcd13ifvqh4g","pricing_plan_id":"cebpf4jnsgd1na2vs0mg"},{"bike_id":"b02dd700-e1d0-4736-93d7-81d9f5d4b73b","system_id":"levelo_inurba_marseille","lat":43.25112,"lon":5.40332,"is_reserved":false,"is_disabled":false,"rental_uris":{"android":"levelo://app?vid=b02dd700-e1d0-4736-93d7-81d9f5d4b73b","ios":"levelo://app?vid=b02dd700-e1d0-4736-93d7-81d9f5d4b73b"},"vehicle_type_id":"4","last_reported":1746588919,"current_range_meters":14000,"station_id":"ce4bhlh2rcd13ifvqgig","pricing_plan_id":"cebpf4jnsgd1na2vs0mg"},{"bike_id":"a6de313a-d494-4ed1-9cfc-bc3cd37d3c8d","system_id":"levelo_inurba_marseille","lat":43.28254,"lon":5.35083,"is_reserved":false,"is_disabled":false,"rental_uris":{"android":"levelo://app?vid=a6de313a-d494-4ed1-9cfc-bc3cd37d3c8d","ios":"levelo://app?vid=a6de313a-d494-4ed1-9cfc-bc3cd37d3c8d"},"vehicle_type_id":"4","last_reported":1746588919,"current_range_meters":14000,"station_id":"ce4bhbp2rcd13ifvqerg","pricing_plan_id":"cebpf4jnsgd1na2vs0mg"},{"bike_id":"387a6276-06fd-4748-9222-63df581f8ac6","system_id":"levelo_inurba_marseille","lat":43.295067,"lon":5.385889,"is_reserved":false,"is_disabled":true,"rental_uris":{"android":"levelo://app?vid=387a6276-06fd-4748-9222-63df581f8ac6","ios":"levelo://app?vid=387a6276-06fd-4748-9222-63df581f8ac6"},"vehicle_type_id":"4","last_reported":1746588919,"current_range_meters":14000,"station_id":"ce4bgih2rcd13ifvqba0","pricing_plan_id":"cebpf4jnsgd1na2vs0mg"},{"bike_id":"49adf419-1d44-4ce4-8e45-39dfe254ee3e","system_id":"levelo_inurba_marseille","lat":43.287274,"lon":5.360871,"is_reserved":false,"is_disabled":false,"rental_uris":{"android":"levelo://app?vid=49adf419-1d44-4ce4-8e45-39dfe254ee3e","ios":"levelo://app?vid=49adf419-1d44-4ce4-8e45-39dfe254ee3e"},"vehicle_type_id":"4","last_reported":1746588919,"current_range_meters":14400,"station_id":"cki0cbj6b192h4jlfktg","pricing_plan_id":"cebpf4jnsgd1na2vs0mg"},{"bike_id":"b1a97ec7-993f-4a2d-83e7-6ed722a41c26","system_id":"levelo_inurba_marseille","lat":43.27823,"lon":5.39199,"is_reserved":false,"is_disabled":true,"rental_uris":{"android":"levelo://app?vid=b1a97ec7-993f-4a2d-83e7-6ed722a41c26","ios":"levelo://app?vid=b1a97ec7-993f-4a2d-83e7-6ed722a41c26"},"vehicle_type_id":"4","last_reported":1746588919,"current_range_meters":14400,"station_id":"ce4bhjp2rcd13ifvqga0","pricing_plan_id":"cebpf4jnsgd1na2vs0mg"},{"bike_id":"2714f713-c769-4f6a-ac44-441a635e9cba","system_id":"levelo_inurba_marseille","lat":43.216137,"lon":5.342208,"is_reserved":false,"is_disabled":false,"rental_uris":{"android":"levelo://app?vid=2714f713-c769-4f6a-ac44-441a635e9cba","ios":"levelo://app?vid=2714f713-c769-4f6a-ac44-441a635e9cba"},"vehicle_type_id":"4","last_reported":1746588919,"current_range_meters":14400,"station_id":"","pricing_plan_id":"cebpf4jnsgd1na2vs0mg"},{"bike_id":"e2d95a62-27f2-483b-871e-05c84b46aaa8","system_id":"levelo_inurba_marseille","lat":43.307984,"lon":5.43528,"is_reserved":false,"is_disabled":false,"rental_uris":{"android":"levelo://app?vid=e2d95a62-27f2-483b-871e-05c84b46aaa8","ios":"levelo://app?vid=e2d95a62-27f2-483b-871e-05c84b46aaa8"},"vehicle_type_id":"4","last_reported":1746588919,"current_range_meters":14400,"station_id":"ce4bhph2rcd13ifvqheg","pricing_plan_id":"cebpf4jnsgd1na2vs0mg"},{"bike_id":"9ccb17f1-477f-4b6b-ae00-fd6627b3edaa","system_id":"levelo_inurba_marseille","lat":43.283518,"lon":5.381082,"is_reserved":false,"is_disabled":false,"rental_uris":{"android":"levelo://app?vid=9ccb17f1-477f-4b6b-ae00-fd6627b3edaa","ios":"levelo://app?vid=9ccb17f1-477f-4b6b-ae00-fd6627b3edaa"},"vehicle_type_id":"4","last_reported":1746588919,"current_range_meters":14800,"station_id":"ce4bh412rcd13ifvqdr0","pricing_plan_id":"cebpf4jnsgd1na2vs0mg"},{"bike_id":"041af1b4-ef6c-4ed3-943b-d5ce18fbe9c1","system_id":"levelo_inurba_marseille","lat":43.301445,"lon":5.38078,"is_reserved":false,"is_disabled":false,"rental_uris":{"android":"levelo://app?vid=041af1b4-ef6c-4ed3-943b-d5ce18fbe9c1","ios":"levelo://app?vid=041af1b4-ef6c-4ed3-943b-d5ce18fbe9c1"},"vehicle_type_id":"4","last_reported":1746588919,"current_range_meters":15200,"station_id":"ce4bgjp2rcd13ifvqbh0","pricing_plan_id":"cebpf4jnsgd1na2vs0mg"},{"bike_id":"ac839122-6771-4433-b879-a7b9d07db239","system_id":"levelo_inurba_marseille","lat":43.289392,"lon":5.36413,"is_reserved":false,"is_disabled":false,"rental_uris":{"android":"levelo://app?vid=ac839122-6771-4433-b879-a7b9d07db239","ios":"levelo://app?vid=ac839122-6771-4433-b879-a7b9d07db239"},"vehicle_type_id":"4","last_reported":1746588919,"current_range_meters":15200,"station_id":"ce4bhc92rcd13ifvqetg","pricing_plan_id":"cebpf4jnsgd1na2vs0mg"},{"bike_id":"8846df0e-6229-4ff4-8b0f-0a168920729a","system_id":"levelo_inurba_marseille","lat":43.26205,"lon":5.40488,"is_reserved":false,"is_disabled":false,"rental_uris":{"android":"levelo://app?vid=8846df0e-6229-4ff4-8b0f-0a168920729a","ios":"levelo://app?vid=8846df0e-6229-4ff4-8b0f-0a168920729a"},"vehicle_type_id":"4","last_reported":1746588919,"current_range_meters":15200,"station_id":"ce4bhmh2rcd13ifvqgmg","pricing_plan_id":"cebpf4jnsgd1na2vs0mg"},{"bike_id":"79bedf4c-fc63-45c2-a3cc-eb0af45ed7f0","system_id":"levelo_inurba_marseille","lat":43.288408,"lon":5.358565,"is_reserved":false,"is_disabled":false,"rental_uris":{"android":"levelo://app?vid=79bedf4c-fc63-45c2-a3cc-eb0af45ed7f0","ios":"levelo://app?vid=79bedf4c-fc63-45c2-a3cc-eb0af45ed7f0"},"vehicle_type_id":"4","last_reported":1746588919,"current_range_meters":15200,"station_id":"ce4bhb12rcd13ifvqem0","pricing_plan_id":"cebpf4jnsgd1na2vs0mg"},{"bike_id":"ef917956-24f1-4d87-b62a-1d10e1025e64","system_id":"levelo_inurba_marseille","lat":43.31342,"lon":5.39714,"is_reserved":false,"is_disabled":false,"rental_uris":{"android":"levelo://app?vid=ef917956-24f1-4d87-b62a-1d10e1025e64","ios":"levelo://app?vid=ef917956-24f1-4d87-b62a-1d10e1025e64"},"vehicle_type_id":"4","last_reported":1746588919,"current_range_meters":15200,"station_id":"ce4bgvp2rcd13ifvqcu0","pricing_plan_id":"cebpf4jnsgd1na2vs0mg"},{"bike_id":"ac700e2e-c129-4f82-a3c3-f628077933a6","system_id":"levelo_inurba_marseille","lat":43.21194,"lon":5.35074,"is_reserved":false,"is_disabled":false,"rental_uris":{"android":"levelo://app?vid=ac700e2e-c129-4f82-a3c3-f628077933a6","ios":"levelo://app?vid=ac700e2e-c129-4f82-a3c3-f628077933a6"},"vehicle_type_id":"4","last_reported":1746588919,"current_range_meters":16000,"station_id":"st_cvj6sg6p6f1abm77japg","pricing_plan_id":"cebpf4jnsgd1na2vs0mg"},{"bike_id":"f45321ad-a54b-404d-981b-802d3c9e0607","system_id":"levelo_inurba_marseille","lat":43.211925,"lon":5.350756,"is_reserved":false,"is_disabled":true,"rental_uris":{"android":"levelo://app?vid=f45321ad-a54b-404d-981b-802d3c9e0607","ios":"levelo://app?vid=f45321ad-a54b-404d-981b-802d3c9e0607"},"vehicle_type_id":"4","last_reported":1746588919,"current_range_meters":16400,"station_id":"st_cvj6sg6p6f1abm77japg","pricing_plan_id":"cebpf4jnsgd1na2vs0mg"},{"bike_id":"2f83487c-3cee-4523-b2e3-c7f51b289cbe","system_id":"levelo_inurba_marseille","lat":43.33009,"lon":5.39057,"is_reserved":false,"is_disabled":false,"rental_uris":{"android":"levelo://app?vid=2f83487c-3cee-4523-b2e3-c7f51b289cbe","ios":"levelo://app?vid=2f83487c-3cee-4523-b2e3-c7f51b289cbe"},"vehicle_type_id":"4","last_reported":1746588919,"current_range_meters":16400,"station_id":"ce4bhr92rcd13ifvqhrg","pricing_plan_id":"cebpf4jnsgd1na2vs0mg"},{"bike_id":"7a2b087f-6f34-4eab-bc0e-2ab99b33c246","system_id":"levelo_inurba_marseille","lat":43.28097,"lon":5.37838,"is_reserved":false,"is_disabled":false,"rental_uris":{"android":"levelo://app?vid=7a2b087f-6f34-4eab-bc0e-2ab99b33c246","ios":"levelo://app?vid=7a2b087f-6f34-4eab-bc0e-2ab99b33c246"},"vehicle_type_id":"4","last_reported":1746588919,"current_range_meters":16400,"station_id":"ce4bha12rcd13ifvqee0","pricing_plan_id":"cebpf4jnsgd1na2vs0mg"},{"bike_id":"cad73dbd-538c-461e-8f5d-9f9cb63b32c3","system_id":"levelo_inurba_marseille","lat":43.211925,"lon":5.350826,"is_reserved":false,"is_disabled":true,"rental_uris":{"android":"levelo://app?vid=cad73dbd-538c-461e-8f5d-9f9cb63b32c3","ios":"levelo://app?vid=cad73dbd-538c-461e-8f5d-9f9cb63b32c3"},"vehicle_type_id":"4","last_reported":1746588919,"current_range_meters":16400,"station_id":"st_cvj6sg6p6f1abm77japg","pricing_plan_id":"cebpf4jnsgd1na2vs0mg"},{"bike_id":"d929bb9e-9fd0-49ee-90b1-47710abb426f","system_id":"levelo_inurba_marseille","lat":43.30928,"lon":5.40171,"is_reserved":false,"is_disabled":false,"rental_uris":{"android":"levelo://app?vid=d929bb9e-9fd0-49ee-90b1-47710abb426f","ios":"levelo://app?vid=d929bb9e-9fd0-49ee-90b1-47710abb426f"},"vehicle_type_id":"4","last_reported":1746588919,"current_range_meters":16800,"station_id":"ce4bgvp2rcd13ifvqct0","pricing_plan_id":"cebpf4jnsgd1na2vs0mg"},{"bike_id":"3916ac97-5c80-429e-a8d8-f22eac2e38e9","system_id":"levelo_inurba_marseille","lat":43.287247,"lon":5.360895,"is_reserved":false,"is_disabled":false,"rental_uris":{"android":"levelo://app?vid=3916ac97-5c80-429e-a8d8-f22eac2e38e9","ios":"levelo://app?vid=3916ac97-5c80-429e-a8d8-f22eac2e38e9"},"vehicle_type_id":"4","last_reported":1746588919,"current_range_meters":16800,"station_id":"cki0cbj6b192h4jlfktg","pricing_plan_id":"cebpf4jnsgd1na2vs0mg"},{"bike_id":"2219bbd0-95e5-45eb-9f51-892d1f2b9e9e","system_id":"levelo_inurba_marseille","lat":43.310791,"lon":5.424383,"is_reserved":false,"is_disabled":false,"rental_uris":{"android":"levelo://app?vid=2219bbd0-95e5-45eb-9f51-892d1f2b9e9e","ios":"levelo://app?vid=2219bbd0-95e5-45eb-9f51-892d1f2b9e9e"},"vehicle_type_id":"4","last_reported":1746588919,"current_range_meters":16800,"station_id":"ce4bhp92rcd13ifvqhag","pricing_plan_id":"cebpf4jnsgd1na2vs0mg"},{"bike_id":"4fb9f78e-0d38-49b6-b7e9-6084c31cdc3b","system_id":"levelo_inurba_marseille","lat":43.3058,"lon":5.37245,"is_reserved":false,"is_disabled":false,"rental_uris":{"android":"levelo://app?vid=4fb9f78e-0d38-49b6-b7e9-6084c31cdc3b","ios":"levelo://app?vid=4fb9f78e-0d38-49b6-b7e9-6084c31cdc3b"},"vehicle_type_id":"4","last_reported":1746588919,"current_range_meters":16800,"station_id":"ce4bgqh2rcd13ifvqc4g","pricing_plan_id":"cebpf4jnsgd1na2vs0mg"},{"bike_id":"4fa44a4d-c738-41bc-9022-213fbeae4065","system_id":"levelo_inurba_marseille","lat":43.231893,"lon":5.399827,"is_reserved":false,"is_disabled":false,"rental_uris":{"android":"levelo://app?vid=4fa44a4d-c738-41bc-9022-213fbeae4065","ios":"levelo://app?vid=4fa44a4d-c738-41bc-9022-213fbeae4065"},"vehicle_type_id":"4","last_reported":1746588919,"current_range_meters":16800,"station_id":"ce4bhn12rcd13ifvqgqg","pricing_plan_id":"cebpf4jnsgd1na2vs0mg"},{"bike_id":"abf55c61-cb67-4960-996b-ec343dc194ef","system_id":"levelo_inurba_marseille","lat":43.25106,"lon":5.40318,"is_reserved":false,"is_disabled":false,"rental_uris":{"android":"levelo://app?vid=abf55c61-cb67-4960-996b-ec343dc194ef","ios":"levelo://app?vid=abf55c61-cb67-4960-996b-ec343dc194ef"},"vehicle_type_id":"4","last_reported":1746588919,"current_range_meters":17200,"station_id":"ce4bhlh2rcd13ifvqgig","pricing_plan_id":"cebpf4jnsgd1na2vs0mg"},{"bike_id":"6a430b53-75fd-49d6-a395-a7dee0b23663","system_id":"levelo_inurba_marseille","lat":43.308864,"lon":5.371949,"is_reserved":false,"is_disabled":false,"rental_uris":{"android":"levelo://app?vid=6a430b53-75fd-49d6-a395-a7dee0b23663","ios":"levelo://app?vid=6a430b53-75fd-49d6-a395-a7dee0b23663"},"vehicle_type_id":"4","last_reported":1746588919,"current_range_meters":17200,"station_id":"ce4bguh2rcd13ifvqckg","pricing_plan_id":"cebpf4jnsgd1na2vs0mg"},{"bike_id":"65d49461-3d2f-4d3f-b891-fa60eb957e24","system_id":"levelo_inurba_marseille","lat":43.309315,"lon":5.401478,"is_reserved":false,"is_disabled":false,"rental_uris":{"android":"levelo://app?vid=65d49461-3d2f-4d3f-b891-fa60eb957e24","ios":"levelo://app?vid=65d49461-3d2f-4d3f-b891-fa60eb957e24"},"vehicle_type_id":"4","last_reported":1746588919,"current_range_meters":17200,"station_id":"ce4bgvp2rcd13ifvqct0","pricing_plan_id":"cebpf4jnsgd1na2vs0mg"},{"bike_id":"fd76d4ca-f3ad-4fc8-b8d8-1513582aff5f","system_id":"levelo_inurba_marseille","lat":43.229309,"lon":5.3539,"is_reserved":false,"is_disabled":false,"rental_uris":{"android":"levelo://app?vid=fd76d4ca-f3ad-4fc8-b8d8-1513582aff5f","ios":"levelo://app?vid=fd76d4ca-f3ad-4fc8-b8d8-1513582aff5f"},"vehicle_type_id":"4","last_reported":1746588919,"current_range_meters":17200,"station_id":"cpo3532slgdg3j2ikp40","pricing_plan_id":"cebpf4jnsgd1na2vs0mg"},{"bike_id":"90202115-f8fc-45c0-ad93-f355433fa718","system_id":"levelo_inurba_marseille","lat":43.304316,"lon":5.388846,"is_reserved":false,"is_disabled":false,"rental_uris":{"android":"levelo://app?vid=90202115-f8fc-45c0-ad93-f355433fa718","ios":"levelo://app?vid=90202115-f8fc-45c0-ad93-f355433fa718"},"vehicle_type_id":"4","last_reported":1746588919,"current_range_meters":17600,"station_id":"ce4bgk12rcd13ifvqbi0","pricing_plan_id":"cebpf4jnsgd1na2vs0mg"},{"bike_id":"5b7c813e-8a01-4cab-bedc-2fef8b455485","system_id":"levelo_inurba_marseille","lat":43.294167,"lon":5.386089,"is_reserved":false,"is_disabled":true,"rental_uris":{"android":"levelo://app?vid=5b7c813e-8a01-4cab-bedc-2fef8b455485","ios":"levelo://app?vid=5b7c813e-8a01-4cab-bedc-2fef8b455485"},"vehicle_type_id":"4","last_reported":1746588919,"current_range_meters":17600,"station_id":"ce4bh2h2rcd13ifvqdh0","pricing_plan_id":"cebpf4jnsgd1na2vs0mg"},{"bike_id":"c73af937-95e2-49f5-97c2-edfa66550a4e","system_id":"levelo_inurba_marseille","lat":43.289425,"lon":5.363899,"is_reserved":false,"is_disabled":false,"rental_uris":{"android":"levelo://app?vid=c73af937-95e2-49f5-97c2-edfa66550a4e","ios":"levelo://app?vid=c73af937-95e2-49f5-97c2-edfa66550a4e"},"vehicle_type_id":"4","last_reported":1746588919,"current_range_meters":17600,"station_id":"ce4bhc92rcd13ifvqetg","pricing_plan_id":"cebpf4jnsgd1na2vs0mg"},{"bike_id":"c7525a5d-c609-48a5-9e75-ad8493ef22a5","system_id":"levelo_inurba_marseille","lat":43.32557,"lon":5.41489,"is_reserved":false,"is_disabled":false,"rental_uris":{"android":"levelo://app?vid=c7525a5d-c609-48a5-9e75-ad8493ef22a5","ios":"levelo://app?vid=c7525a5d-c609-48a5-9e75-ad8493ef22a5"},"vehicle_type_id":"4","last_reported":1746588919,"current_range_meters":17600,"station_id":"ce4bhq12rcd13ifvqhhg","pricing_plan_id":"cebpf4jnsgd1na2vs0mg"},{"bike_id":"034f535c-17b3-4796-a376-287b2ebee2bc","system_id":"levelo_inurba_marseille","lat":43.24652,"lon":5.38161,"is_reserved":false,"is_disabled":false,"rental_uris":{"android":"levelo://app?vid=034f535c-17b3-4796-a376-287b2ebee2bc","ios":"levelo://app?vid=034f535c-17b3-4796-a376-287b2ebee2bc"},"vehicle_type_id":"4","last_reported":1746588919,"current_range_meters":17600,"station_id":"ce4bhih2rcd13ifvqfr0","pricing_plan_id":"cebpf4jnsgd1na2vs0mg"},{"bike_id":"3488de24-d248-4ccb-be5b-0f7cd36a3f68","system_id":"levelo_inurba_marseille","lat":43.24667,"lon":5.38161,"is_reserved":false,"is_disabled":false,"rental_uris":{"android":"levelo://app?vid=3488de24-d248-4ccb-be5b-0f7cd36a3f68","ios":"levelo://app?vid=3488de24-d248-4ccb-be5b-0f7cd36a3f68"},"vehicle_type_id":"4","last_reported":1746588919,"current_range_meters":18000,"station_id":"ce4bhih2rcd13ifvqfr0","pricing_plan_id":"cebpf4jnsgd1na2vs0mg"},{"bike_id":"485580ed-8630-4e39-9a76-68da774aef83","system_id":"levelo_inurba_marseille","lat":43.27797,"lon":5.40727,"is_reserved":false,"is_disabled":false,"rental_uris":{"android":"levelo://app?vid=485580ed-8630-4e39-9a76-68da774aef83","ios":"levelo://app?vid=485580ed-8630-4e39-9a76-68da774aef83"},"vehicle_type_id":"4","last_reported":1746588919,"current_range_meters":18000,"station_id":"ce4bhnh2rcd13ifvqgtg","pricing_plan_id":"cebpf4jnsgd1na2vs0mg"},{"bike_id":"56f87824-a042-4d54-b0f5-5ee34b50a738","system_id":"levelo_inurba_marseille","lat":43.30586,"lon":5.3721,"is_reserved":false,"is_disabled":false,"rental_uris":{"android":"levelo://app?vid=56f87824-a042-4d54-b0f5-5ee34b50a738","ios":"levelo://app?vid=56f87824-a042-4d54-b0f5-5ee34b50a738"},"vehicle_type_id":"4","last_reported":1746588919,"current_range_meters":18000,"station_id":"ce4bgqh2rcd13ifvqc4g","pricing_plan_id":"cebpf4jnsgd1na2vs0mg"},{"bike_id":"11abe94b-e85e-478a-9094-6d825b77d58b","system_id":"levelo_inurba_marseille","lat":43.320335,"lon":5.380873,"is_reserved":false,"is_disabled":false,"rental_uris":{"android":"levelo://app?vid=11abe94b-e85e-478a-9094-6d825b77d58b","ios":"levelo://app?vid=11abe94b-e85e-478a-9094-6d825b77d58b"},"vehicle_type_id":"4","last_reported":1746588919,"current_range_meters":18000,"station_id":"","pricing_plan_id":"cebpf4jnsgd1na2vs0mg"},{"bike_id":"63af6f78-57d5-4f3d-9494-a6d72ff84dc1","system_id":"levelo_inurba_marseille","lat":43.211868,"lon":5.350748,"is_reserved":false,"is_disabled":false,"rental_uris":{"android":"levelo://app?vid=63af6f78-57d5-4f3d-9494-a6d72ff84dc1","ios":"levelo://app?vid=63af6f78-57d5-4f3d-9494-a6d72ff84dc1"},"vehicle_type_id":"4","last_reported":1746588919,"current_range_meters":18800,"station_id":"st_cvj6sg6p6f1abm77japg","pricing_plan_id":"cebpf4jnsgd1na2vs0mg"},{"bike_id":"5ffeac33-eab0-4d54-a10c-4c93ff662258","system_id":"levelo_inurba_marseille","lat":43.29809,"lon":5.40401,"is_reserved":false,"is_disabled":false,"rental_uris":{"android":"levelo://app?vid=5ffeac33-eab0-4d54-a10c-4c93ff662258","ios":"levelo://app?vid=5ffeac33-eab0-4d54-a10c-4c93ff662258"},"vehicle_type_id":"4","last_reported":1746588919,"current_range_meters":18800,"station_id":"ce4bh112rcd13ifvqd90","pricing_plan_id":"cebpf4jnsgd1na2vs0mg"},{"bike_id":"94a3f5fb-60a0-4ba4-8b3e-3759629e9c4a","system_id":"levelo_inurba_marseille","lat":43.335948,"lon":5.410256,"is_reserved":false,"is_disabled":false,"rental_uris":{"android":"levelo://app?vid=94a3f5fb-60a0-4ba4-8b3e-3759629e9c4a","ios":"levelo://app?vid=94a3f5fb-60a0-4ba4-8b3e-3759629e9c4a"},"vehicle_type_id":"4","last_reported":1746588919,"current_range_meters":18800,"station_id":"ce4bhqh2rcd13ifvqhmg","pricing_plan_id":"cebpf4jnsgd1na2vs0mg"},{"bike_id":"c7105b3e-81f0-4cc5-a710-2e71caa60471","system_id":"levelo_inurba_marseille","lat":43.2944,"lon":5.39767,"is_reserved":false,"is_disabled":true,"rental_uris":{"android":"levelo://app?vid=c7105b3e-81f0-4cc5-a710-2e71caa60471","ios":"levelo://app?vid=c7105b3e-81f0-4cc5-a710-2e71caa60471"},"vehicle_type_id":"4","last_reported":1746588919,"current_range_meters":18800,"station_id":"ce4bh3h2rcd13ifvqdo0","pricing_plan_id":"cebpf4jnsgd1na2vs0mg"},{"bike_id":"d51a8917-a04d-4bab-82ca-ce56e9448302","system_id":"levelo_inurba_marseille","lat":43.29786,"lon":5.40415,"is_reserved":false,"is_disabled":false,"rental_uris":{"android":"levelo://app?vid=d51a8917-a04d-4bab-82ca-ce56e9448302","ios":"levelo://app?vid=d51a8917-a04d-4bab-82ca-ce56e9448302"},"vehicle_type_id":"4","last_reported":1746588919,"current_range_meters":18800,"station_id":"ce4bh112rcd13ifvqd90","pricing_plan_id":"cebpf4jnsgd1na2vs0mg"},{"bike_id":"8ff77368-9976-44b8-8184-3956c52da40b","system_id":"levelo_inurba_marseille","lat":43.310807,"lon":5.424323,"is_reserved":false,"is_disabled":false,"rental_uris":{"android":"levelo://app?vid=8ff77368-9976-44b8-8184-3956c52da40b","ios":"levelo://app?vid=8ff77368-9976-44b8-8184-3956c52da40b"},"vehicle_type_id":"4","last_reported":1746588919,"current_range_meters":18800,"station_id":"ce4bhp92rcd13ifvqhag","pricing_plan_id":"cebpf4jnsgd1na2vs0mg"},{"bike_id":"60689545-5d60-47bd-8c83-dfeb87ae92a6","system_id":"levelo_inurba_marseille","lat":43.230546,"lon":5.354838,"is_reserved":false,"is_disabled":false,"rental_uris":{"android":"levelo://app?vid=60689545-5d60-47bd-8c83-dfeb87ae92a6","ios":"levelo://app?vid=60689545-5d60-47bd-8c83-dfeb87ae92a6"},"vehicle_type_id":"4","last_reported":1746588919,"current_range_meters":19200,"station_id":"cpo3342slgdg3j2ifvpg","pricing_plan_id":"cebpf4jnsgd1na2vs0mg"},{"bike_id":"45b2d3e7-2899-44e8-8ff1-023716208406","system_id":"levelo_inurba_marseille","lat":43.31645,"lon":5.40492,"is_reserved":false,"is_disabled":false,"rental_uris":{"android":"levelo://app?vid=45b2d3e7-2899-44e8-8ff1-023716208406","ios":"levelo://app?vid=45b2d3e7-2899-44e8-8ff1-023716208406"},"vehicle_type_id":"4","last_reported":1746588919,"current_range_meters":19200,"station_id":"ce4bh012rcd13ifvqd00","pricing_plan_id":"cebpf4jnsgd1na2vs0mg"},{"bike_id":"7198c8b7-9ba3-490a-9521-e3c72cf5c43b","system_id":"levelo_inurba_marseille","lat":43.30882,"lon":5.39644,"is_reserved":false,"is_disabled":false,"rental_uris":{"android":"levelo://app?vid=7198c8b7-9ba3-490a-9521-e3c72cf5c43b","ios":"levelo://app?vid=7198c8b7-9ba3-490a-9521-e3c72cf5c43b"},"vehicle_type_id":"4","last_reported":1746588919,"current_range_meters":19200,"station_id":"ce4bh012rcd13ifvqcv0","pricing_plan_id":"cebpf4jnsgd1na2vs0mg"},{"bike_id":"685704cb-7552-464b-9299-0fe4cf8f724e","system_id":"levelo_inurba_marseille","lat":43.28669,"lon":5.363522,"is_reserved":false,"is_disabled":false,"rental_uris":{"android":"levelo://app?vid=685704cb-7552-464b-9299-0fe4cf8f724e","ios":"levelo://app?vid=685704cb-7552-464b-9299-0fe4cf8f724e"},"vehicle_type_id":"4","last_reported":1746588919,"current_range_meters":19200,"station_id":"ce4bhah2rcd13ifvqej0","pricing_plan_id":"cebpf4jnsgd1na2vs0mg"},{"bike_id":"cb349f0e-4ffd-48c0-8e50-21cbad52f9e1","system_id":"levelo_inurba_marseille","lat":43.30432,"lon":5.38852,"is_reserved":false,"is_disabled":false,"rental_uris":{"android":"levelo://app?vid=cb349f0e-4ffd-48c0-8e50-21cbad52f9e1","ios":"levelo://app?vid=cb349f0e-4ffd-48c0-8e50-21cbad52f9e1"},"vehicle_type_id":"4","last_reported":1746588919,"current_range_meters":19200,"station_id":"ce4bgk12rcd13ifvqbi0","pricing_plan_id":"cebpf4jnsgd1na2vs0mg"},{"bike_id":"3051ed04-84d2-465f-bb5b-701d9ae2dff5","system_id":"levelo_inurba_marseille","lat":43.28409,"lon":5.35009,"is_reserved":false,"is_disabled":false,"rental_uris":{"android":"levelo://app?vid=3051ed04-84d2-465f-bb5b-701d9ae2dff5","ios":"levelo://app?vid=3051ed04-84d2-465f-bb5b-701d9ae2dff5"},"vehicle_type_id":"4","last_reported":1746588919,"current_range_meters":19200,"station_id":"ce4bhbh2rcd13ifvqepg","pricing_plan_id":"cebpf4jnsgd1na2vs0mg"},{"bike_id":"21a1d4b6-e716-4730-9792-0b93a2f174eb","system_id":"levelo_inurba_marseille","lat":43.304319,"lon":5.388841,"is_reserved":false,"is_disabled":false,"rental_uris":{"android":"levelo://app?vid=21a1d4b6-e716-4730-9792-0b93a2f174eb","ios":"levelo://app?vid=21a1d4b6-e716-4730-9792-0b93a2f174eb"},"vehicle_type_id":"4","last_reported":1746588919,"current_range_meters":19200,"station_id":"ce4bgk12rcd13ifvqbi0","pricing_plan_id":"cebpf4jnsgd1na2vs0mg"},{"bike_id":"5b3e6a4b-8da7-437b-9595-cd5cd029fd4f","system_id":"levelo_inurba_marseille","lat":43.268039,"lon":5.40265,"is_reserved":false,"is_disabled":false,"rental_uris":{"android":"levelo://app?vid=5b3e6a4b-8da7-437b-9595-cd5cd029fd4f","ios":"levelo://app?vid=5b3e6a4b-8da7-437b-9595-cd5cd029fd4f"},"vehicle_type_id":"4","last_reported":1746588919,"current_range_meters":19600,"station_id":"ce501612rcd8frsf0b60","pricing_plan_id":"cebpf4jnsgd1na2vs0mg"},{"bike_id":"83d663c2-a11b-42aa-90fd-446a7f4dd7a7","system_id":"levelo_inurba_marseille","lat":43.290502,"lon":5.359174,"is_reserved":false,"is_disabled":false,"rental_uris":{"android":"levelo://app?vid=83d663c2-a11b-42aa-90fd-446a7f4dd7a7","ios":"levelo://app?vid=83d663c2-a11b-42aa-90fd-446a7f4dd7a7"},"vehicle_type_id":"4","last_reported":1746588919,"current_range_meters":19600,"station_id":"ce4bha92rcd13ifvqeg0","pricing_plan_id":"cebpf4jnsgd1na2vs0mg"},{"bike_id":"d9460a93-d03a-4f86-b0a8-f4536e1168ba","system_id":"levelo_inurba_marseille","lat":43.288336,"lon":5.358573,"is_reserved":false,"is_disabled":false,"rental_uris":{"android":"levelo://app?vid=d9460a93-d03a-4f86-b0a8-f4536e1168ba","ios":"levelo://app?vid=d9460a93-d03a-4f86-b0a8-f4536e1168ba"},"vehicle_type_id":"4","last_reported":1746588919,"current_range_meters":19600,"station_id":"ce4bhb12rcd13ifvqem0","pricing_plan_id":"cebpf4jnsgd1na2vs0mg"},{"bike_id":"dcb156cb-d9f2-4dc1-9364-38b7fa9ff290","system_id":"levelo_inurba_marseille","lat":43.32287,"lon":5.38256,"is_reserved":false,"is_disabled":false,"rental_uris":{"android":"levelo://app?vid=dcb156cb-d9f2-4dc1-9364-38b7fa9ff290","ios":"levelo://app?vid=dcb156cb-d9f2-4dc1-9364-38b7fa9ff290"},"vehicle_type_id":"4","last_reported":1746588919,"current_range_meters":19600,"station_id":"ce4bhr12rcd13ifvqhqg","pricing_plan_id":"cebpf4jnsgd1na2vs0mg"},{"bike_id":"5d5c641c-76e8-4f2b-8904-d98863a077d6","system_id":"levelo_inurba_marseille","lat":43.294209,"lon":5.386191,"is_reserved":false,"is_disabled":true,"rental_uris":{"android":"levelo://app?vid=5d5c641c-76e8-4f2b-8904-d98863a077d6","ios":"levelo://app?vid=5d5c641c-76e8-4f2b-8904-d98863a077d6"},"vehicle_type_id":"4","last_reported":1746588919,"current_range_meters":19600,"station_id":"ce4bh2h2rcd13ifvqdh0","pricing_plan_id":"cebpf4jnsgd1na2vs0mg"},{"bike_id":"5fde9f8f-7bfd-45cd-99fd-4f6020eb1e3f","system_id":"levelo_inurba_marseille","lat":43.308051,"lon":5.435182,"is_reserved":false,"is_disabled":false,"rental_uris":{"android":"levelo://app?vid=5fde9f8f-7bfd-45cd-99fd-4f6020eb1e3f","ios":"levelo://app?vid=5fde9f8f-7bfd-45cd-99fd-4f6020eb1e3f"},"vehicle_type_id":"4","last_reported":1746588919,"current_range_meters":19600,"station_id":"ce4bhph2rcd13ifvqheg","pricing_plan_id":"cebpf4jnsgd1na2vs0mg"},{"bike_id":"8458efce-0c2b-4a47-882f-6a6c0ea88d73","system_id":"levelo_inurba_marseille","lat":43.298709,"lon":5.38909,"is_reserved":false,"is_disabled":true,"rental_uris":{"android":"levelo://app?vid=8458efce-0c2b-4a47-882f-6a6c0ea88d73","ios":"levelo://app?vid=8458efce-0c2b-4a47-882f-6a6c0ea88d73"},"vehicle_type_id":"4","last_reported":1746588919,"current_range_meters":20000,"station_id":"ce4bh392rcd13ifvqdl0","pricing_plan_id":"cebpf4jnsgd1na2vs0mg"},{"bike_id":"b92287bb-5fec-45d0-84f4-5f34483f9b14","system_id":"levelo_inurba_marseille","lat":43.304218,"lon":5.412807,"is_reserved":false,"is_disabled":false,"rental_uris":{"android":"levelo://app?vid=b92287bb-5fec-45d0-84f4-5f34483f9b14","ios":"levelo://app?vid=b92287bb-5fec-45d0-84f4-5f34483f9b14"},"vehicle_type_id":"4","last_reported":1746588919,"current_range_meters":20000,"station_id":"ce4bhop2rcd13ifvqh8g","pricing_plan_id":"cebpf4jnsgd1na2vs0mg"},{"bike_id":"61b7bf8c-00ae-4280-9015-f0af790fa2b1","system_id":"levelo_inurba_marseille","lat":43.336099,"lon":5.410339,"is_reserved":false,"is_disabled":false,"rental_uris":{"android":"levelo://app?vid=61b7bf8c-00ae-4280-9015-f0af790fa2b1","ios":"levelo://app?vid=61b7bf8c-00ae-4280-9015-f0af790fa2b1"},"vehicle_type_id":"4","last_reported":1746588919,"current_range_meters":20800,"station_id":"ce4bhqh2rcd13ifvqhmg","pricing_plan_id":"cebpf4jnsgd1na2vs0mg"},{"bike_id":"04e54ba0-5fea-4083-b676-1ec16a471605","system_id":"levelo_inurba_marseille","lat":43.248126,"lon":5.374589,"is_reserved":false,"is_disabled":true,"rental_uris":{"android":"levelo://app?vid=04e54ba0-5fea-4083-b676-1ec16a471605","ios":"levelo://app?vid=04e54ba0-5fea-4083-b676-1ec16a471605"},"vehicle_type_id":"4","last_reported":1746588919,"current_range_meters":20800,"station_id":"ce4bhgh2rcd13ifvqfb0","pricing_plan_id":"cebpf4jnsgd1na2vs0mg"},{"bike_id":"0f7a0e0f-57cc-4ed6-a5c9-3fe516e08bf6","system_id":"levelo_inurba_marseille","lat":43.279343,"lon":5.410378,"is_reserved":false,"is_disabled":false,"rental_uris":{"android":"levelo://app?vid=0f7a0e0f-57cc-4ed6-a5c9-3fe516e08bf6","ios":"levelo://app?vid=0f7a0e0f-57cc-4ed6-a5c9-3fe516e08bf6"},"vehicle_type_id":"4","last_reported":1746588919,"current_range_meters":20800,"station_id":"ce4bhnp2rcd13ifvqh0g","pricing_plan_id":"cebpf4jnsgd1na2vs0mg"},{"bike_id":"3845ee1f-30d2-4f01-ae7b-a49b959e7b67","system_id":"levelo_inurba_marseille","lat":43.29586,"lon":5.38102,"is_reserved":false,"is_disabled":false,"rental_uris":{"android":"levelo://app?vid=3845ee1f-30d2-4f01-ae7b-a49b959e7b67","ios":"levelo://app?vid=3845ee1f-30d2-4f01-ae7b-a49b959e7b67"},"vehicle_type_id":"4","last_reported":1746588919,"current_range_meters":20800,"station_id":"ce4bgl12rcd13ifvqbo0","pricing_plan_id":"cebpf4jnsgd1na2vs0mg"},{"bike_id":"df0cf845-3f1e-416b-b50e-b1f168ea7d28","system_id":"levelo_inurba_marseille","lat":43.288511,"lon":5.358616,"is_reserved":false,"is_disabled":false,"rental_uris":{"android":"levelo://app?vid=df0cf845-3f1e-416b-b50e-b1f168ea7d28","ios":"levelo://app?vid=df0cf845-3f1e-416b-b50e-b1f168ea7d28"},"vehicle_type_id":"4","last_reported":1746588919,"current_range_meters":20800,"station_id":"ce4bhb12rcd13ifvqem0","pricing_plan_id":"cebpf4jnsgd1na2vs0mg"},{"bike_id":"4e35ddc9-de48-4d36-9e47-0104898d2766","system_id":"levelo_inurba_marseille","lat":43.27901,"lon":5.37998,"is_reserved":false,"is_disabled":false,"rental_uris":{"android":"levelo://app?vid=4e35ddc9-de48-4d36-9e47-0104898d2766","ios":"levelo://app?vid=4e35ddc9-de48-4d36-9e47-0104898d2766"},"vehicle_type_id":"4","last_reported":1746588919,"current_range_meters":21600,"station_id":"ce4bhf92rcd13ifvqf50","pricing_plan_id":"cebpf4jnsgd1na2vs0mg"},{"bike_id":"8afa21a8-d8a4-4bf7-868e-605bb75db5cd","system_id":"levelo_inurba_marseille","lat":43.30434,"lon":5.38896,"is_reserved":false,"is_disabled":false,"rental_uris":{"android":"levelo://app?vid=8afa21a8-d8a4-4bf7-868e-605bb75db5cd","ios":"levelo://app?vid=8afa21a8-d8a4-4bf7-868e-605bb75db5cd"},"vehicle_type_id":"4","last_reported":1746588919,"current_range_meters":21600,"station_id":"ce4bgk12rcd13ifvqbi0","pricing_plan_id":"cebpf4jnsgd1na2vs0mg"},{"bike_id":"89f953df-2061-408d-8f0d-6a2938e5443a","system_id":"levelo_inurba_marseille","lat":43.235937,"lon":5.4035,"is_reserved":false,"is_disabled":false,"rental_uris":{"android":"levelo://app?vid=89f953df-2061-408d-8f0d-6a2938e5443a","ios":"levelo://app?vid=89f953df-2061-408d-8f0d-6a2938e5443a"},"vehicle_type_id":"4","last_reported":1746588919,"current_range_meters":21600,"station_id":"","pricing_plan_id":"cebpf4jnsgd1na2vs0mg"},{"bike_id":"be14af02-7701-4605-b2d6-5fd0439029d8","system_id":"levelo_inurba_marseille","lat":43.212,"lon":5.35094,"is_reserved":false,"is_disabled":false,"rental_uris":{"android":"levelo://app?vid=be14af02-7701-4605-b2d6-5fd0439029d8","ios":"levelo://app?vid=be14af02-7701-4605-b2d6-5fd0439029d8"},"vehicle_type_id":"4","last_reported":1746588919,"current_range_meters":21600,"station_id":"st_cvj6sg6p6f1abm77japg","pricing_plan_id":"cebpf4jnsgd1na2vs0mg"},{"bike_id":"91f1e8d9-3657-4130-80e4-6b08898f4f60","system_id":"levelo_inurba_marseille","lat":43.30327,"lon":5.40419,"is_reserved":false,"is_disabled":false,"rental_uris":{"android":"levelo://app?vid=91f1e8d9-3657-4130-80e4-6b08898f4f60","ios":"levelo://app?vid=91f1e8d9-3657-4130-80e4-6b08898f4f60"},"vehicle_type_id":"4","last_reported":1746588919,"current_range_meters":22000,"station_id":"ce4bh012rcd13ifvqd10","pricing_plan_id":"cebpf4jnsgd1na2vs0mg"},{"bike_id":"7ed4d79c-fea0-483b-b680-5391d366640e","system_id":"levelo_inurba_marseille","lat":43.240665,"lon":5.377585,"is_reserved":false,"is_disabled":false,"rental_uris":{"android":"levelo://app?vid=7ed4d79c-fea0-483b-b680-5391d366640e","ios":"levelo://app?vid=7ed4d79c-fea0-483b-b680-5391d366640e"},"vehicle_type_id":"4","last_reported":1746588919,"current_range_meters":22000,"station_id":"ce4bhnp2rcd13ifvqgvg","pricing_plan_id":"cebpf4jnsgd1na2vs0mg"},{"bike_id":"73b5c333-97cd-43b6-9d08-007bad2ca597","system_id":"levelo_inurba_marseille","lat":43.322883,"lon":5.382704,"is_reserved":false,"is_disabled":false,"rental_uris":{"android":"levelo://app?vid=73b5c333-97cd-43b6-9d08-007bad2ca597","ios":"levelo://app?vid=73b5c333-97cd-43b6-9d08-007bad2ca597"},"vehicle_type_id":"4","last_reported":1746588919,"current_range_meters":22000,"station_id":"ce4bhr12rcd13ifvqhqg","pricing_plan_id":"cebpf4jnsgd1na2vs0mg"},{"bike_id":"d50213c2-6c93-44b4-81a3-00d4ff793208","system_id":"levelo_inurba_marseille","lat":43.313587,"lon":5.367056,"is_reserved":false,"is_disabled":false,"rental_uris":{"android":"levelo://app?vid=d50213c2-6c93-44b4-81a3-00d4ff793208","ios":"levelo://app?vid=d50213c2-6c93-44b4-81a3-00d4ff793208"},"vehicle_type_id":"4","last_reported":1746588919,"current_range_meters":22400,"station_id":"ce4bgr92rcd13ifvqc6g","pricing_plan_id":"cebpf4jnsgd1na2vs0mg"},{"bike_id":"d423cefe-2e57-4fe9-83a9-8d1c02ca9258","system_id":"levelo_inurba_marseille","lat":43.29189,"lon":5.36078,"is_reserved":false,"is_disabled":true,"rental_uris":{"android":"levelo://app?vid=d423cefe-2e57-4fe9-83a9-8d1c02ca9258","ios":"levelo://app?vid=d423cefe-2e57-4fe9-83a9-8d1c02ca9258"},"vehicle_type_id":"4","last_reported":1746588919,"current_range_meters":22400,"station_id":"ce4bhbh2rcd13ifvqeqg","pricing_plan_id":"cebpf4jnsgd1na2vs0mg"},{"bike_id":"b3946e53-8dbe-44a6-8f27-63fcb1d1ba74","system_id":"levelo_inurba_marseille","lat":43.30864,"lon":5.37257,"is_reserved":false,"is_disabled":false,"rental_uris":{"android":"levelo://app?vid=b3946e53-8dbe-44a6-8f27-63fcb1d1ba74","ios":"levelo://app?vid=b3946e53-8dbe-44a6-8f27-63fcb1d1ba74"},"vehicle_type_id":"4","last_reported":1746588919,"current_range_meters":22400,"station_id":"ce4bguh2rcd13ifvqckg","pricing_plan_id":"cebpf4jnsgd1na2vs0mg"},{"bike_id":"7e450b57-8cdc-4dbc-8780-1123f3427ded","system_id":"levelo_inurba_marseille","lat":43.24646,"lon":5.389,"is_reserved":false,"is_disabled":false,"rental_uris":{"android":"levelo://app?vid=7e450b57-8cdc-4dbc-8780-1123f3427ded","ios":"levelo://app?vid=7e450b57-8cdc-4dbc-8780-1123f3427ded"},"vehicle_type_id":"4","last_reported":1746588919,"current_range_meters":22400,"station_id":"ce4bhg12rcd13ifvqf60","pricing_plan_id":"cebpf4jnsgd1na2vs0mg"},{"bike_id":"4eef3890-f2ed-45dd-9785-2c7ccded5f90","system_id":"levelo_inurba_marseille","lat":43.246658,"lon":5.381518,"is_reserved":false,"is_disabled":false,"rental_uris":{"android":"levelo://app?vid=4eef3890-f2ed-45dd-9785-2c7ccded5f90","ios":"levelo://app?vid=4eef3890-f2ed-45dd-9785-2c7ccded5f90"},"vehicle_type_id":"4","last_reported":1746588919,"current_range_meters":22400,"station_id":"ce4bhih2rcd13ifvqfr0","pricing_plan_id":"cebpf4jnsgd1na2vs0mg"},{"bike_id":"2ee29a66-4ca1-4e11-adfb-41f567e66ee4","system_id":"levelo_inurba_marseille","lat":43.287119,"lon":5.399824,"is_reserved":false,"is_disabled":false,"rental_uris":{"android":"levelo://app?vid=2ee29a66-4ca1-4e11-adfb-41f567e66ee4","ios":"levelo://app?vid=2ee29a66-4ca1-4e11-adfb-41f567e66ee4"},"vehicle_type_id":"4","last_reported":1746588919,"current_range_meters":22800,"station_id":"ce4bho92rcd13ifvqh3g","pricing_plan_id":"cebpf4jnsgd1na2vs0mg"},{"bike_id":"ee60b47f-1ff3-4493-addd-64d42c1a5ff6","system_id":"levelo_inurba_marseille","lat":43.27207,"lon":5.391873,"is_reserved":false,"is_disabled":true,"rental_uris":{"android":"levelo://app?vid=ee60b47f-1ff3-4493-addd-64d42c1a5ff6","ios":"levelo://app?vid=ee60b47f-1ff3-4493-addd-64d42c1a5ff6"},"vehicle_type_id":"4","last_reported":1746588919,"current_range_meters":22800,"station_id":"ce4bhhp2rcd13ifvqfm0","pricing_plan_id":"cebpf4jnsgd1na2vs0mg"},{"bike_id":"33a17204-e446-41e3-9795-c1b492310014","system_id":"levelo_inurba_marseille","lat":43.23958,"lon":5.36639,"is_reserved":false,"is_disabled":false,"rental_uris":{"android":"levelo://app?vid=33a17204-e446-41e3-9795-c1b492310014","ios":"levelo://app?vid=33a17204-e446-41e3-9795-c1b492310014"},"vehicle_type_id":"4","last_reported":1746588919,"current_range_meters":22800,"station_id":"ce4bhi12rcd13ifvqfp0","pricing_plan_id":"cebpf4jnsgd1na2vs0mg"},{"bike_id":"76c10a1a-0dd1-475c-a763-52f6f5e2c584","system_id":"levelo_inurba_marseille","lat":43.29763,"lon":5.38137,"is_reserved":false,"is_disabled":true,"rental_uris":{"android":"levelo://app?vid=76c10a1a-0dd1-475c-a763-52f6f5e2c584","ios":"levelo://app?vid=76c10a1a-0dd1-475c-a763-52f6f5e2c584"},"vehicle_type_id":"4","last_reported":1746588919,"current_range_meters":22800,"station_id":"","pricing_plan_id":"cebpf4jnsgd1na2vs0mg"},{"bike_id":"0fc82b53-e406-4a54-a3f2-df15abf4d032","system_id":"levelo_inurba_marseille","lat":43.323395,"lon":5.40617,"is_reserved":false,"is_disabled":false,"rental_uris":{"android":"levelo://app?vid=0fc82b53-e406-4a54-a3f2-df15abf4d032","ios":"levelo://app?vid=0fc82b53-e406-4a54-a3f2-df15abf4d032"},"vehicle_type_id":"4","last_reported":1746588919,"current_range_meters":23200,"station_id":"ce4bhq92rcd13ifvqhjg","pricing_plan_id":"cebpf4jnsgd1na2vs0mg"},{"bike_id":"70a29a45-574c-4ff1-aca3-740aa0e705be","system_id":"levelo_inurba_marseille","lat":43.2417,"lon":5.36392,"is_reserved":false,"is_disabled":false,"rental_uris":{"android":"levelo://app?vid=70a29a45-574c-4ff1-aca3-740aa0e705be","ios":"levelo://app?vid=70a29a45-574c-4ff1-aca3-740aa0e705be"},"vehicle_type_id":"4","last_reported":1746588919,"current_range_meters":23200,"station_id":"cpo36qri1sfpv3e86is0","pricing_plan_id":"cebpf4jnsgd1na2vs0mg"},{"bike_id":"5fa20f18-0ece-419f-b310-68b2754cd089","system_id":"levelo_inurba_marseille","lat":43.280004,"lon":5.400184,"is_reserved":false,"is_disabled":false,"rental_uris":{"android":"levelo://app?vid=5fa20f18-0ece-419f-b310-68b2754cd089","ios":"levelo://app?vid=5fa20f18-0ece-419f-b310-68b2754cd089"},"vehicle_type_id":"4","last_reported":1746588919,"current_range_meters":23200,"station_id":"ce4bho92rcd13ifvqh4g","pricing_plan_id":"cebpf4jnsgd1na2vs0mg"},{"bike_id":"24c35984-f530-4816-b53a-a827c578970b","system_id":"levelo_inurba_marseille","lat":43.30879,"lon":5.39638,"is_reserved":false,"is_disabled":false,"rental_uris":{"android":"levelo://app?vid=24c35984-f530-4816-b53a-a827c578970b","ios":"levelo://app?vid=24c35984-f530-4816-b53a-a827c578970b"},"vehicle_type_id":"4","last_reported":1746588919,"current_range_meters":23200,"station_id":"ce4bh012rcd13ifvqcv0","pricing_plan_id":"cebpf4jnsgd1na2vs0mg"},{"bike_id":"327cc39f-d91f-4b77-aab9-5dc3bf60ad82","system_id":"levelo_inurba_marseille","lat":43.25079,"lon":5.3951,"is_reserved":false,"is_disabled":true,"rental_uris":{"android":"levelo://app?vid=327cc39f-d91f-4b77-aab9-5dc3bf60ad82","ios":"levelo://app?vid=327cc39f-d91f-4b77-aab9-5dc3bf60ad82"},"vehicle_type_id":"4","last_reported":1746588919,"current_range_meters":23200,"station_id":"ce4bhm12rcd13ifvqgkg","pricing_plan_id":"cebpf4jnsgd1na2vs0mg"},{"bike_id":"dc649cd8-65cb-4cf6-ad4e-7820d32a5af4","system_id":"levelo_inurba_marseille","lat":43.282753,"lon":5.350615,"is_reserved":false,"is_disabled":true,"rental_uris":{"android":"levelo://app?vid=dc649cd8-65cb-4cf6-ad4e-7820d32a5af4","ios":"levelo://app?vid=dc649cd8-65cb-4cf6-ad4e-7820d32a5af4"},"vehicle_type_id":"4","last_reported":1746588919,"current_range_meters":24000,"station_id":"ce4bhbp2rcd13ifvqerg","pricing_plan_id":"cebpf4jnsgd1na2vs0mg"},{"bike_id":"c2386a3b-81d2-4c11-b19d-4f8756b4813b","system_id":"levelo_inurba_marseille","lat":43.262256,"lon":5.404665,"is_reserved":false,"is_disabled":false,"rental_uris":{"android":"levelo://app?vid=c2386a3b-81d2-4c11-b19d-4f8756b4813b","ios":"levelo://app?vid=c2386a3b-81d2-4c11-b19d-4f8756b4813b"},"vehicle_type_id":"4","last_reported":1746588919,"current_range_meters":24000,"station_id":"ce4bhmh2rcd13ifvqgmg","pricing_plan_id":"cebpf4jnsgd1na2vs0mg"},{"bike_id":"cb785303-a892-4348-a99c-2b70d2a29fff","system_id":"levelo_inurba_marseille","lat":43.229274,"lon":5.353817,"is_reserved":false,"is_disabled":false,"rental_uris":{"android":"levelo://app?vid=cb785303-a892-4348-a99c-2b70d2a29fff","ios":"levelo://app?vid=cb785303-a892-4348-a99c-2b70d2a29fff"},"vehicle_type_id":"4","last_reported":1746588919,"current_range_meters":24000,"station_id":"cpo3532slgdg3j2ikp40","pricing_plan_id":"cebpf4jnsgd1na2vs0mg"},{"bike_id":"9f245f51-9534-431f-8e0c-8268090a1b52","system_id":"levelo_inurba_marseille","lat":43.2923,"lon":5.3845,"is_reserved":false,"is_disabled":true,"rental_uris":{"android":"levelo://app?vid=9f245f51-9534-431f-8e0c-8268090a1b52","ios":"levelo://app?vid=9f245f51-9534-431f-8e0c-8268090a1b52"},"vehicle_type_id":"4","last_reported":1746588919,"current_range_meters":24000,"station_id":"ce4bh692rcd13ifvqea0","pricing_plan_id":"cebpf4jnsgd1na2vs0mg"},{"bike_id":"68a71b87-ef8d-478a-9bd0-1cdd8fd14319","system_id":"levelo_inurba_marseille","lat":43.26778,"lon":5.40292,"is_reserved":false,"is_disabled":false,"rental_uris":{"android":"levelo://app?vid=68a71b87-ef8d-478a-9bd0-1cdd8fd14319","ios":"levelo://app?vid=68a71b87-ef8d-478a-9bd0-1cdd8fd14319"},"vehicle_type_id":"4","last_reported":1746588919,"current_range_meters":24000,"station_id":"ce501612rcd8frsf0b60","pricing_plan_id":"cebpf4jnsgd1na2vs0mg"},{"bike_id":"a738f3a5-33a4-479b-9773-83884deeb867","system_id":"levelo_inurba_marseille","lat":43.23192,"lon":5.39983,"is_reserved":false,"is_disabled":false,"rental_uris":{"android":"levelo://app?vid=a738f3a5-33a4-479b-9773-83884deeb867","ios":"levelo://app?vid=a738f3a5-33a4-479b-9773-83884deeb867"},"vehicle_type_id":"4","last_reported":1746588919,"current_range_meters":24000,"station_id":"ce4bhn12rcd13ifvqgqg","pricing_plan_id":"cebpf4jnsgd1na2vs0mg"},{"bike_id":"92397aea-8aef-46e7-8514-a5c8ed9513d6","system_id":"levelo_inurba_marseille","lat":43.287051,"lon":5.399841,"is_reserved":false,"is_disabled":false,"rental_uris":{"android":"levelo://app?vid=92397aea-8aef-46e7-8514-a5c8ed9513d6","ios":"levelo://app?vid=92397aea-8aef-46e7-8514-a5c8ed9513d6"},"vehicle_type_id":"4","last_reported":1746588919,"current_range_meters":24000,"station_id":"ce4bho92rcd13ifvqh3g","pricing_plan_id":"cebpf4jnsgd1na2vs0mg"},{"bike_id":"89b5c51b-cd9c-475c-ba7a-726b12d22f75","system_id":"levelo_inurba_marseille","lat":43.21206,"lon":5.35085,"is_reserved":false,"is_disabled":false,"rental_uris":{"android":"levelo://app?vid=89b5c51b-cd9c-475c-ba7a-726b12d22f75","ios":"levelo://app?vid=89b5c51b-cd9c-475c-ba7a-726b12d22f75"},"vehicle_type_id":"4","last_reported":1746588919,"current_range_meters":24000,"station_id":"st_cvj6sg6p6f1abm77japg","pricing_plan_id":"cebpf4jnsgd1na2vs0mg"},{"bike_id":"73f9ac1c-f697-406f-997c-5e1fce32b666","system_id":"levelo_inurba_marseille","lat":43.30477,"lon":5.37893,"is_reserved":false,"is_disabled":false,"rental_uris":{"android":"levelo://app?vid=73f9ac1c-f697-406f-997c-5e1fce32b666","ios":"levelo://app?vid=73f9ac1c-f697-406f-997c-5e1fce32b666"},"vehicle_type_id":"4","last_reported":1746588919,"current_range_meters":24000,"station_id":"ce4bgup2rcd13ifvqcn0","pricing_plan_id":"cebpf4jnsgd1na2vs0mg"},{"bike_id":"21404e84-7941-4e33-a6e4-825624b18edf","system_id":"levelo_inurba_marseille","lat":43.23172,"lon":5.39987,"is_reserved":false,"is_disabled":false,"rental_uris":{"android":"levelo://app?vid=21404e84-7941-4e33-a6e4-825624b18edf","ios":"levelo://app?vid=21404e84-7941-4e33-a6e4-825624b18edf"},"vehicle_type_id":"4","last_reported":1746588919,"current_range_meters":24000,"station_id":"ce4bhn12rcd13ifvqgqg","pricing_plan_id":"cebpf4jnsgd1na2vs0mg"},{"bike_id":"31f028e1-4848-4d01-bfda-e1a802e026be","system_id":"levelo_inurba_marseille","lat":43.33614,"lon":5.41035,"is_reserved":false,"is_disabled":false,"rental_uris":{"android":"levelo://app?vid=31f028e1-4848-4d01-bfda-e1a802e026be","ios":"levelo://app?vid=31f028e1-4848-4d01-bfda-e1a802e026be"},"vehicle_type_id":"4","last_reported":1746588919,"current_range_meters":24000,"station_id":"ce4bhqh2rcd13ifvqhmg","pricing_plan_id":"cebpf4jnsgd1na2vs0mg"},{"bike_id":"04df3cfa-e29e-48f7-b9a7-00da4857e82f","system_id":"levelo_inurba_marseille","lat":43.30923,"lon":5.40183,"is_reserved":false,"is_disabled":false,"rental_uris":{"android":"levelo://app?vid=04df3cfa-e29e-48f7-b9a7-00da4857e82f","ios":"levelo://app?vid=04df3cfa-e29e-48f7-b9a7-00da4857e82f"},"vehicle_type_id":"4","last_reported":1746588919,"current_range_meters":24000,"station_id":"ce4bgvp2rcd13ifvqct0","pricing_plan_id":"cebpf4jnsgd1na2vs0mg"},{"bike_id":"d6256f8b-762b-4c3c-abf0-da6fff587491","system_id":"levelo_inurba_marseille","lat":43.284617,"lon":5.358833,"is_reserved":false,"is_disabled":false,"rental_uris":{"android":"levelo://app?vid=d6256f8b-762b-4c3c-abf0-da6fff587491","ios":"levelo://app?vid=d6256f8b-762b-4c3c-abf0-da6fff587491"},"vehicle_type_id":"4","last_reported":1746588919,"current_range_meters":24000,"station_id":"ce4bhah2rcd13ifvqei0","pricing_plan_id":"cebpf4jnsgd1na2vs0mg"},{"bike_id":"4aab0a41-faed-4a94-9962-85872d50e76b","system_id":"levelo_inurba_marseille","lat":43.26802,"lon":5.4027,"is_reserved":false,"is_disabled":false,"rental_uris":{"android":"levelo://app?vid=4aab0a41-faed-4a94-9962-85872d50e76b","ios":"levelo://app?vid=4aab0a41-faed-4a94-9962-85872d50e76b"},"vehicle_type_id":"4","last_reported":1746588919,"current_range_meters":24000,"station_id":"ce501612rcd8frsf0b60","pricing_plan_id":"cebpf4jnsgd1na2vs0mg"},{"bike_id":"91d0e6ae-2971-480c-a44c-f7a9ee7ecd02","system_id":"levelo_inurba_marseille","lat":43.303399,"lon":5.419257,"is_reserved":false,"is_disabled":false,"rental_uris":{"android":"levelo://app?vid=91d0e6ae-2971-480c-a44c-f7a9ee7ecd02","ios":"levelo://app?vid=91d0e6ae-2971-480c-a44c-f7a9ee7ecd02"},"vehicle_type_id":"4","last_reported":1746588919,"current_range_meters":24000,"station_id":"","pricing_plan_id":"cebpf4jnsgd1na2vs0mg"},{"bike_id":"2d60fc77-0789-4aa5-ae17-49c387a82783","system_id":"levelo_inurba_marseille","lat":43.211933,"lon":5.350707,"is_reserved":false,"is_disabled":false,"rental_uris":{"android":"levelo://app?vid=2d60fc77-0789-4aa5-ae17-49c387a82783","ios":"levelo://app?vid=2d60fc77-0789-4aa5-ae17-49c387a82783"},"vehicle_type_id":"4","last_reported":1746588919,"current_range_meters":24400,"station_id":"st_cvj6sg6p6f1abm77japg","pricing_plan_id":"cebpf4jnsgd1na2vs0mg"},{"bike_id":"632f3346-e78e-4a65-9fc1-3fdf6cd4055d","system_id":"levelo_inurba_marseille","lat":43.330251,"lon":5.390499,"is_reserved":false,"is_disabled":false,"rental_uris":{"android":"levelo://app?vid=632f3346-e78e-4a65-9fc1-3fdf6cd4055d","ios":"levelo://app?vid=632f3346-e78e-4a65-9fc1-3fdf6cd4055d"},"vehicle_type_id":"4","last_reported":1746588919,"current_range_meters":24400,"station_id":"ce4bhr92rcd13ifvqhrg","pricing_plan_id":"cebpf4jnsgd1na2vs0mg"},{"bike_id":"10670836-3d47-43d7-87ef-f97e5e20cb8d","system_id":"levelo_inurba_marseille","lat":43.282678,"lon":5.350746,"is_reserved":false,"is_disabled":false,"rental_uris":{"android":"levelo://app?vid=10670836-3d47-43d7-87ef-f97e5e20cb8d","ios":"levelo://app?vid=10670836-3d47-43d7-87ef-f97e5e20cb8d"},"vehicle_type_id":"4","last_reported":1746588919,"current_range_meters":24400,"station_id":"ce4bhbp2rcd13ifvqerg","pricing_plan_id":"cebpf4jnsgd1na2vs0mg"},{"bike_id":"b3d0e34d-b9cf-4ef6-a67f-18dbc3615574","system_id":"levelo_inurba_marseille","lat":43.231874,"lon":5.399729,"is_reserved":false,"is_disabled":false,"rental_uris":{"android":"levelo://app?vid=b3d0e34d-b9cf-4ef6-a67f-18dbc3615574","ios":"levelo://app?vid=b3d0e34d-b9cf-4ef6-a67f-18dbc3615574"},"vehicle_type_id":"4","last_reported":1746588919,"current_range_meters":24400,"station_id":"ce4bhn12rcd13ifvqgqg","pricing_plan_id":"cebpf4jnsgd1na2vs0mg"},{"bike_id":"a6679e02-2341-4a83-904a-a8d980f98f4c","system_id":"levelo_inurba_marseille","lat":43.30459,"lon":5.379072,"is_reserved":false,"is_disabled":false,"rental_uris":{"android":"levelo://app?vid=a6679e02-2341-4a83-904a-a8d980f98f4c","ios":"levelo://app?vid=a6679e02-2341-4a83-904a-a8d980f98f4c"},"vehicle_type_id":"4","last_reported":1746588919,"current_range_meters":24400,"station_id":"ce4bgup2rcd13ifvqcn0","pricing_plan_id":"cebpf4jnsgd1na2vs0mg"},{"bike_id":"0cd7cbb9-3d48-41b8-b08c-ed637cfb3bf2","system_id":"levelo_inurba_marseille","lat":43.28727,"lon":5.3609,"is_reserved":false,"is_disabled":false,"rental_uris":{"android":"levelo://app?vid=0cd7cbb9-3d48-41b8-b08c-ed637cfb3bf2","ios":"levelo://app?vid=0cd7cbb9-3d48-41b8-b08c-ed637cfb3bf2"},"vehicle_type_id":"4","last_reported":1746588919,"current_range_meters":24400,"station_id":"cki0cbj6b192h4jlfktg","pricing_plan_id":"cebpf4jnsgd1na2vs0mg"},{"bike_id":"dda95fb0-8e2f-4c73-8a86-043e77c170b0","system_id":"levelo_inurba_marseille","lat":43.26926,"lon":5.38926,"is_reserved":false,"is_disabled":false,"rental_uris":{"android":"levelo://app?vid=dda95fb0-8e2f-4c73-8a86-043e77c170b0","ios":"levelo://app?vid=dda95fb0-8e2f-4c73-8a86-043e77c170b0"},"vehicle_type_id":"4","last_reported":1746588919,"current_range_meters":24400,"station_id":"ce4bhhh2rcd13ifvqfl0","pricing_plan_id":"cebpf4jnsgd1na2vs0mg"},{"bike_id":"e3a787a5-1e9f-4195-9098-70c20ae9e4f2","system_id":"levelo_inurba_marseille","lat":43.28107,"lon":5.37838,"is_reserved":false,"is_disabled":false,"rental_uris":{"android":"levelo://app?vid=e3a787a5-1e9f-4195-9098-70c20ae9e4f2","ios":"levelo://app?vid=e3a787a5-1e9f-4195-9098-70c20ae9e4f2"},"vehicle_type_id":"4","last_reported":1746588919,"current_range_meters":24400,"station_id":"ce4bha12rcd13ifvqee0","pricing_plan_id":"cebpf4jnsgd1na2vs0mg"},{"bike_id":"5c24f9d2-ed66-4086-ad20-bf71d7c3f781","system_id":"levelo_inurba_marseille","lat":43.27997,"lon":5.4001,"is_reserved":false,"is_disabled":true,"rental_uris":{"android":"levelo://app?vid=5c24f9d2-ed66-4086-ad20-bf71d7c3f781","ios":"levelo://app?vid=5c24f9d2-ed66-4086-ad20-bf71d7c3f781"},"vehicle_type_id":"4","last_reported":1746588919,"current_range_meters":24400,"station_id":"ce4bho92rcd13ifvqh4g","pricing_plan_id":"cebpf4jnsgd1na2vs0mg"},{"bike_id":"b75b32b9-79f7-4b3b-8c6c-afa389f4c915","system_id":"levelo_inurba_marseille","lat":43.28916,"lon":5.36402,"is_reserved":false,"is_disabled":false,"rental_uris":{"android":"levelo://app?vid=b75b32b9-79f7-4b3b-8c6c-afa389f4c915","ios":"levelo://app?vid=b75b32b9-79f7-4b3b-8c6c-afa389f4c915"},"vehicle_type_id":"4","last_reported":1746588919,"current_range_meters":24400,"station_id":"ce4bhc92rcd13ifvqetg","pricing_plan_id":"cebpf4jnsgd1na2vs0mg"},{"bike_id":"192d6edd-d00e-4159-93eb-5b82e804e70a","system_id":"levelo_inurba_marseille","lat":43.27987,"lon":5.41654,"is_reserved":false,"is_disabled":false,"rental_uris":{"android":"levelo://app?vid=192d6edd-d00e-4159-93eb-5b82e804e70a","ios":"levelo://app?vid=192d6edd-d00e-4159-93eb-5b82e804e70a"},"vehicle_type_id":"4","last_reported":1746588919,"current_range_meters":24800,"station_id":"ce4bho12rcd13ifvqh1g","pricing_plan_id":"cebpf4jnsgd1na2vs0mg"},{"bike_id":"b288657d-a326-4e0c-ad41-58848f71ab90","system_id":"levelo_inurba_marseille","lat":43.30788,"lon":5.43536,"is_reserved":false,"is_disabled":false,"rental_uris":{"android":"levelo://app?vid=b288657d-a326-4e0c-ad41-58848f71ab90","ios":"levelo://app?vid=b288657d-a326-4e0c-ad41-58848f71ab90"},"vehicle_type_id":"4","last_reported":1746588919,"current_range_meters":24800,"station_id":"ce4bhph2rcd13ifvqheg","pricing_plan_id":"cebpf4jnsgd1na2vs0mg"},{"bike_id":"12c1ddf1-31dc-4c99-a27d-54b7b409e272","system_id":"levelo_inurba_marseille","lat":43.24069,"lon":5.37753,"is_reserved":false,"is_disabled":false,"rental_uris":{"android":"levelo://app?vid=12c1ddf1-31dc-4c99-a27d-54b7b409e272","ios":"levelo://app?vid=12c1ddf1-31dc-4c99-a27d-54b7b409e272"},"vehicle_type_id":"4","last_reported":1746588919,"current_range_meters":24800,"station_id":"ce4bhnp2rcd13ifvqgvg","pricing_plan_id":"cebpf4jnsgd1na2vs0mg"},{"bike_id":"2e782fa9-d8f6-440e-9cdf-dcbc49900dd5","system_id":"levelo_inurba_marseille","lat":43.27956,"lon":5.38702,"is_reserved":false,"is_disabled":false,"rental_uris":{"android":"levelo://app?vid=2e782fa9-d8f6-440e-9cdf-dcbc49900dd5","ios":"levelo://app?vid=2e782fa9-d8f6-440e-9cdf-dcbc49900dd5"},"vehicle_type_id":"4","last_reported":1746588919,"current_range_meters":24800,"station_id":"ce4bhg12rcd13ifvqf80","pricing_plan_id":"cebpf4jnsgd1na2vs0mg"},{"bike_id":"ff807334-3ad3-4e40-bbde-648eb2b1c45b","system_id":"levelo_inurba_marseille","lat":43.21199,"lon":5.35071,"is_reserved":false,"is_disabled":false,"rental_uris":{"android":"levelo://app?vid=ff807334-3ad3-4e40-bbde-648eb2b1c45b","ios":"levelo://app?vid=ff807334-3ad3-4e40-bbde-648eb2b1c45b"},"vehicle_type_id":"4","last_reported":1746588919,"current_range_meters":24800,"station_id":"st_cvj6sg6p6f1abm77japg","pricing_plan_id":"cebpf4jnsgd1na2vs0mg"},{"bike_id":"fdad3942-7914-4d6c-af10-4009483de71e","system_id":"levelo_inurba_marseille","lat":43.30618,"lon":5.37241,"is_reserved":false,"is_disabled":false,"rental_uris":{"android":"levelo://app?vid=fdad3942-7914-4d6c-af10-4009483de71e","ios":"levelo://app?vid=fdad3942-7914-4d6c-af10-4009483de71e"},"vehicle_type_id":"4","last_reported":1746588919,"current_range_meters":24800,"station_id":"ce4bgqh2rcd13ifvqc4g","pricing_plan_id":"cebpf4jnsgd1na2vs0mg"},{"bike_id":"74de7513-2821-4c27-bc1d-2290c7dffccf","system_id":"levelo_inurba_marseille","lat":43.26215,"lon":5.374585,"is_reserved":false,"is_disabled":false,"rental_uris":{"android":"levelo://app?vid=74de7513-2821-4c27-bc1d-2290c7dffccf","ios":"levelo://app?vid=74de7513-2821-4c27-bc1d-2290c7dffccf"},"vehicle_type_id":"4","last_reported":1746588919,"current_range_meters":25200,"station_id":"ce4bhgp2rcd13ifvqfc0","pricing_plan_id":"cebpf4jnsgd1na2vs0mg"},{"bike_id":"9fbfba3c-9a55-460a-89c2-202ed896c38d","system_id":"levelo_inurba_marseille","lat":43.25106,"lon":5.403398,"is_reserved":false,"is_disabled":false,"rental_uris":{"android":"levelo://app?vid=9fbfba3c-9a55-460a-89c2-202ed896c38d","ios":"levelo://app?vid=9fbfba3c-9a55-460a-89c2-202ed896c38d"},"vehicle_type_id":"4","last_reported":1746588919,"current_range_meters":25200,"station_id":"ce4bhlh2rcd13ifvqgig","pricing_plan_id":"cebpf4jnsgd1na2vs0mg"},{"bike_id":"d42e78f0-0743-4c40-ab52-8d4aad4d880d","system_id":"levelo_inurba_marseille","lat":43.304106,"lon":5.412783,"is_reserved":false,"is_disabled":false,"rental_uris":{"android":"levelo://app?vid=d42e78f0-0743-4c40-ab52-8d4aad4d880d","ios":"levelo://app?vid=d42e78f0-0743-4c40-ab52-8d4aad4d880d"},"vehicle_type_id":"4","last_reported":1746588919,"current_range_meters":25200,"station_id":"ce4bhop2rcd13ifvqh8g","pricing_plan_id":"cebpf4jnsgd1na2vs0mg"},{"bike_id":"7fb194b0-0146-419b-a408-295c690a93ee","system_id":"levelo_inurba_marseille","lat":43.29567,"lon":5.38097,"is_reserved":false,"is_disabled":false,"rental_uris":{"android":"levelo://app?vid=7fb194b0-0146-419b-a408-295c690a93ee","ios":"levelo://app?vid=7fb194b0-0146-419b-a408-295c690a93ee"},"vehicle_type_id":"4","last_reported":1746588919,"current_range_meters":25200,"station_id":"ce4bgl12rcd13ifvqbo0","pricing_plan_id":"cebpf4jnsgd1na2vs0mg"},{"bike_id":"29c10b5f-5dbb-4eb4-8990-107da4ef39dc","system_id":"levelo_inurba_marseille","lat":43.28747,"lon":5.36059,"is_reserved":false,"is_disabled":false,"rental_uris":{"android":"levelo://app?vid=29c10b5f-5dbb-4eb4-8990-107da4ef39dc","ios":"levelo://app?vid=29c10b5f-5dbb-4eb4-8990-107da4ef39dc"},"vehicle_type_id":"4","last_reported":1746588919,"current_range_meters":25200,"station_id":"cki0cbj6b192h4jlfktg","pricing_plan_id":"cebpf4jnsgd1na2vs0mg"},{"bike_id":"b23dd482-8a61-4378-ab76-f03d2392dd83","system_id":"levelo_inurba_marseille","lat":43.27212,"lon":5.39197,"is_reserved":false,"is_disabled":false,"rental_uris":{"android":"levelo://app?vid=b23dd482-8a61-4378-ab76-f03d2392dd83","ios":"levelo://app?vid=b23dd482-8a61-4378-ab76-f03d2392dd83"},"vehicle_type_id":"4","last_reported":1746588919,"current_range_meters":25200,"station_id":"ce4bhhp2rcd13ifvqfm0","pricing_plan_id":"cebpf4jnsgd1na2vs0mg"},{"bike_id":"73a53ed3-e8ac-4676-baec-45b1a43a2e42","system_id":"levelo_inurba_marseille","lat":43.231856,"lon":5.39979,"is_reserved":false,"is_disabled":false,"rental_uris":{"android":"levelo://app?vid=73a53ed3-e8ac-4676-baec-45b1a43a2e42","ios":"levelo://app?vid=73a53ed3-e8ac-4676-baec-45b1a43a2e42"},"vehicle_type_id":"4","last_reported":1746588919,"current_range_meters":25200,"station_id":"ce4bhn12rcd13ifvqgqg","pricing_plan_id":"cebpf4jnsgd1na2vs0mg"},{"bike_id":"f73d450b-fde6-4898-99b1-916875a407c6","system_id":"levelo_inurba_marseille","lat":43.22501,"lon":5.34785,"is_reserved":false,"is_disabled":false,"rental_uris":{"android":"levelo://app?vid=f73d450b-fde6-4898-99b1-916875a407c6","ios":"levelo://app?vid=f73d450b-fde6-4898-99b1-916875a407c6"},"vehicle_type_id":"4","last_reported":1746588919,"current_range_meters":25600,"station_id":"st_cvj5dfep6f1abm77gieg","pricing_plan_id":"cebpf4jnsgd1na2vs0mg"},{"bike_id":"7a0a50b7-2681-4e4b-a13c-0e5aa4c51cb1","system_id":"levelo_inurba_marseille","lat":43.313654,"lon":5.384907,"is_reserved":false,"is_disabled":false,"rental_uris":{"android":"levelo://app?vid=7a0a50b7-2681-4e4b-a13c-0e5aa4c51cb1","ios":"levelo://app?vid=7a0a50b7-2681-4e4b-a13c-0e5aa4c51cb1"},"vehicle_type_id":"4","last_reported":1746588919,"current_range_meters":25600,"station_id":"ce4bgt92rcd13ifvqcf0","pricing_plan_id":"cebpf4jnsgd1na2vs0mg"},{"bike_id":"194f6743-8c1c-4e8b-a5fa-2e3f239748a3","system_id":"levelo_inurba_marseille","lat":43.317591,"lon":5.39013,"is_reserved":false,"is_disabled":false,"rental_uris":{"android":"levelo://app?vid=194f6743-8c1c-4e8b-a5fa-2e3f239748a3","ios":"levelo://app?vid=194f6743-8c1c-4e8b-a5fa-2e3f239748a3"},"vehicle_type_id":"4","last_reported":1746588919,"current_range_meters":25600,"station_id":"ce4bhqp2rcd13ifvqhng","pricing_plan_id":"cebpf4jnsgd1na2vs0mg"},{"bike_id":"dfc934cd-0a56-4d02-bfb2-bf0263b96e68","system_id":"levelo_inurba_marseille","lat":43.322769,"lon":5.382747,"is_reserved":false,"is_disabled":false,"rental_uris":{"android":"levelo://app?vid=dfc934cd-0a56-4d02-bfb2-bf0263b96e68","ios":"levelo://app?vid=dfc934cd-0a56-4d02-bfb2-bf0263b96e68"},"vehicle_type_id":"4","last_reported":1746588919,"current_range_meters":25600,"station_id":"ce4bhr12rcd13ifvqhqg","pricing_plan_id":"cebpf4jnsgd1na2vs0mg"},{"bike_id":"f51b6e97-bb19-4dce-a716-217d8f6a2c26","system_id":"levelo_inurba_marseille","lat":43.30874,"lon":5.37226,"is_reserved":false,"is_disabled":false,"rental_uris":{"android":"levelo://app?vid=f51b6e97-bb19-4dce-a716-217d8f6a2c26","ios":"levelo://app?vid=f51b6e97-bb19-4dce-a716-217d8f6a2c26"},"vehicle_type_id":"4","last_reported":1746588919,"current_range_meters":26000,"station_id":"ce4bguh2rcd13ifvqckg","pricing_plan_id":"cebpf4jnsgd1na2vs0mg"},{"bike_id":"3d0cdd3b-d1c7-4382-90a9-5e9a0cd53e6c","system_id":"levelo_inurba_marseille","lat":43.284542,"lon":5.358933,"is_reserved":false,"is_disabled":false,"rental_uris":{"android":"levelo://app?vid=3d0cdd3b-d1c7-4382-90a9-5e9a0cd53e6c","ios":"levelo://app?vid=3d0cdd3b-d1c7-4382-90a9-5e9a0cd53e6c"},"vehicle_type_id":"4","last_reported":1746588919,"current_range_meters":26000,"station_id":"ce4bhah2rcd13ifvqei0","pricing_plan_id":"cebpf4jnsgd1na2vs0mg"},{"bike_id":"f1c3868c-a16c-42db-badf-1a4a88b11fcb","system_id":"levelo_inurba_marseille","lat":43.29617,"lon":5.37716,"is_reserved":false,"is_disabled":false,"rental_uris":{"android":"levelo://app?vid=f1c3868c-a16c-42db-badf-1a4a88b11fcb","ios":"levelo://app?vid=f1c3868c-a16c-42db-badf-1a4a88b11fcb"},"vehicle_type_id":"4","last_reported":1746588919,"current_range_meters":26000,"station_id":"ce4bgi92rcd13ifvqb90","pricing_plan_id":"cebpf4jnsgd1na2vs0mg"},{"bike_id":"87df0a48-ca9f-47c2-b185-4876d1f16aa5","system_id":"levelo_inurba_marseille","lat":43.289218,"lon":5.38406,"is_reserved":false,"is_disabled":true,"rental_uris":{"android":"levelo://app?vid=87df0a48-ca9f-47c2-b185-4876d1f16aa5","ios":"levelo://app?vid=87df0a48-ca9f-47c2-b185-4876d1f16aa5"},"vehicle_type_id":"4","last_reported":1746588919,"current_range_meters":26000,"station_id":"ce4bh612rcd13ifvqe6g","pricing_plan_id":"cebpf4jnsgd1na2vs0mg"},{"bike_id":"be405c3d-d28c-4e0e-afe2-d80b58073433","system_id":"levelo_inurba_marseille","lat":43.303207,"lon":5.404389,"is_reserved":false,"is_disabled":false,"rental_uris":{"android":"levelo://app?vid=be405c3d-d28c-4e0e-afe2-d80b58073433","ios":"levelo://app?vid=be405c3d-d28c-4e0e-afe2-d80b58073433"},"vehicle_type_id":"4","last_reported":1746588919,"current_range_meters":26000,"station_id":"ce4bh012rcd13ifvqd10","pricing_plan_id":"cebpf4jnsgd1na2vs0mg"},{"bike_id":"f3e9ab38-3242-4aa5-83f9-529a16ccf936","system_id":"levelo_inurba_marseille","lat":43.22503,"lon":5.34791,"is_reserved":false,"is_disabled":false,"rental_uris":{"android":"levelo://app?vid=f3e9ab38-3242-4aa5-83f9-529a16ccf936","ios":"levelo://app?vid=f3e9ab38-3242-4aa5-83f9-529a16ccf936"},"vehicle_type_id":"4","last_reported":1746588919,"current_range_meters":26000,"station_id":"st_cvj5dfep6f1abm77gieg","pricing_plan_id":"cebpf4jnsgd1na2vs0mg"},{"bike_id":"bcbd54e5-2cd3-4cc9-9099-d346596ed6d4","system_id":"levelo_inurba_marseille","lat":43.278182,"lon":5.407105,"is_reserved":false,"is_disabled":false,"rental_uris":{"android":"levelo://app?vid=bcbd54e5-2cd3-4cc9-9099-d346596ed6d4","ios":"levelo://app?vid=bcbd54e5-2cd3-4cc9-9099-d346596ed6d4"},"vehicle_type_id":"4","last_reported":1746588919,"current_range_meters":26000,"station_id":"ce4bhnh2rcd13ifvqgtg","pricing_plan_id":"cebpf4jnsgd1na2vs0mg"},{"bike_id":"f5d9e3f9-4b69-404f-9462-62fbb60eaf56","system_id":"levelo_inurba_marseille","lat":43.30872,"lon":5.39642,"is_reserved":false,"is_disabled":false,"rental_uris":{"android":"levelo://app?vid=f5d9e3f9-4b69-404f-9462-62fbb60eaf56","ios":"levelo://app?vid=f5d9e3f9-4b69-404f-9462-62fbb60eaf56"},"vehicle_type_id":"4","last_reported":1746588919,"current_range_meters":26000,"station_id":"ce4bh012rcd13ifvqcv0","pricing_plan_id":"cebpf4jnsgd1na2vs0mg"},{"bike_id":"c5a45172-5614-4a7c-ad03-966f62fcc053","system_id":"levelo_inurba_marseille","lat":43.24068,"lon":5.37763,"is_reserved":false,"is_disabled":false,"rental_uris":{"android":"levelo://app?vid=c5a45172-5614-4a7c-ad03-966f62fcc053","ios":"levelo://app?vid=c5a45172-5614-4a7c-ad03-966f62fcc053"},"vehicle_type_id":"4","last_reported":1746588919,"current_range_meters":26000,"station_id":"ce4bhnp2rcd13ifvqgvg","pricing_plan_id":"cebpf4jnsgd1na2vs0mg"},{"bike_id":"8c880c1f-85be-4137-a10c-32144cd8d414","system_id":"levelo_inurba_marseille","lat":43.2407,"lon":5.37732,"is_reserved":false,"is_disabled":false,"rental_uris":{"android":"levelo://app?vid=8c880c1f-85be-4137-a10c-32144cd8d414","ios":"levelo://app?vid=8c880c1f-85be-4137-a10c-32144cd8d414"},"vehicle_type_id":"4","last_reported":1746588919,"current_range_meters":26800,"station_id":"ce4bhnp2rcd13ifvqgvg","pricing_plan_id":"cebpf4jnsgd1na2vs0mg"},