{"last_updated":1736503827,"ttl":60,"version":"2.2","data":{"bikes":[{"bike_id":"6ba3023b-e160-451a-a11e-7a2f288a6f7b","system_id":"levelo_inurba_marseille","lat":43.3028,"lon":5.37722,"is_reserved":false,"is_disabled":false,"rental_uris":{"android":"levelo://app?vid=6ba3023b-e160-451a-a11e-7a2f288a6f7b","ios":"levelo://app?vid=6ba3023b-e160-451a-a11e-7a2f288a6f7b"},"vehicle_type_id":"4","last_reported":1736503827,"current_range_meters":38800,"station_id":"ce4bguh2rcd13ifvqcj0","pricing_plan_id":"cebpf4jnsgd1na2vs0mg"},{"bike_id":"b1d526b2-fd99-49c8-9834-2443cece1e71","system_id":"levelo_inurba_marseille","lat":43.32536,"lon":5.41464,"is_reserved":false,"is_disabled":false,"rental_uris":{"android":"levelo://app?vid=b1d526b2-fd99-49c8-9834-2443cece1e71","ios":"levelo://app?vid=b1d526b2-fd99-49c8-9834-2443cece1e71"},"vehicle_type_id":"4","last_reported":1736503827,"current_range_meters":19600,"station_id":"ce4bhq12rcd13ifvqhhg","pricing_plan_id":"cebpf4jnsgd1na2vs0mg"},{"bike_id":"87c59741-1f05-4e3d-8c14-38f01f8816a9","system_id":"levelo_inurba_marseille","lat":43.23189,"lon":5.35567,"is_reserved":false,"is_disabled":false,"rental_uris":{"android":"levelo://app?vid=87c59741-1f05-4e3d-8c14-38f01f8816a9","ios":"levelo://app?vid=87c59741-1f05-4e3d-8c14-38f01f8816a9"},"vehicle_type_id":"4","last_reported":1736503827,"current_range_meters":10800,"station_id":"ce4bhu92rcd13ifvqi70","pricing_plan_id":"cebpf4jnsgd1na2vs0mg"},{"bike_id":"46bb0059-fd29-489a-92c8-7ec6e72f0cd8","system_id":"levelo_inurba_marseille","lat":43.32044,"lon":5.41536,"is_reserved":false,"is_disabled":false,"rental_uris":{"android":"levelo://app?vid=46bb0059-fd29-489a-92c8-7ec6e72f0cd8","ios":"levelo://app?vid=46bb0059-fd29-489a-92c8-7ec6e72f0cd8"},"vehicle_type_id":"4","last_reported":1736503827,"current_range_meters":38400,"station_id":"ce4bhq92rcd13ifvqhkg","pricing_plan_id":"cebpf4jnsgd1na2vs0mg"},{"bike_id":"bbabd9f4-0056-40a8-881b-b14292dbcb52","system_id":"levelo_inurba_marseille","lat":43.29252,"lon":5.40918,"is_reserved":false,"is_disabled":false,"rental_uris":{"android":"levelo://app?vid=bbabd9f4-0056-40a8-881b-b14292dbcb52","ios":"levelo://app?vid=bbabd9f4-0056-40a8-881b-b14292dbcb52"},"vehicle_type_id":"4","last_reported":1736503827,"current_range_meters":39200,"station_id":"ce4bh192rcd13ifvqdc0","pricing_plan_id":"cebpf4jnsgd1na2vs0mg"},{"bike_id":"6369c140-3323-465a-a3e4-b9f4b2637437","system_id":"levelo_inurba_marseille","lat":43.25924,"lon":5.40906,"is_reserved":false,"is_disabled":false,"rental_uris":{"android":"levelo://app?vid=6369c140-3323-465a-a3e4-b9f4b2637437","ios":"levelo://app?vid=6369c140-3323-465a-a3e4-b9f4b2637437"},"vehicle_type_id":"4","last_reported":1736503827,"current_range_meters":30400,"station_id":"ce4bhm92rcd13ifvqglg","pricing_plan_id":"cebpf4jnsgd1na2vs0mg"},{"bike_id":"cb2f1a93-39ae-44c2-b97e-4b93a25044b0","system_id":"levelo_inurba_marseille","lat":43.26059,"lon":5.3939,"is_reserved":false,"is_disabled":false,"rental_uris":{"android":"levelo://app?vid=cb2f1a93-39ae-44c2-b97e-4b93a25044b0","ios":"levelo://app?vid=cb2f1a93-39ae-44c2-b97e-4b93a25044b0"},"vehicle_type_id":"4","last_reported":1736503827,"current_range_meters":36800,"station_id":"ce4bhh92rcd13ifvqfj0","pricing_plan_id":"cebpf4jnsgd1na2vs0mg"},{"bike_id":"c41c948e-ec41-4193-aa46-37aca070655a","system_id":"levelo_inurba_marseille","lat":43.2962,"lon":5.37155,"is_reserved":false,"is_disabled":false,"rental_uris":{"android":"levelo://app?vid=c41c948e-ec41-4193-aa46-37aca070655a","ios":"levelo://app?vid=c41c948e-ec41-4193-aa46-37aca070655a"},"vehicle_type_id":"4","last_reported":1736503827,"current_range_meters":29600,"station_id":"ce4bgnh2rcd13ifvqc0g","pricing_plan_id":"cebpf4jnsgd1na2vs0mg"},{"bike_id":"47532ca9-10bb-4fb6-9e01-8331536a997f","system_id":"levelo_inurba_marseille","lat":43.305397,"lon":5.365533,"is_reserved":false,"is_disabled":false,"rental_uris":{"android":"levelo://app?vid=47532ca9-10bb-4fb6-9e01-8331536a997f","ios":"levelo://app?vid=47532ca9-10bb-4fb6-9e01-8331536a997f"},"vehicle_type_id":"4","last_reported":1736503827,"current_range_meters":34800,"station_id":"ce4bgs12rcd13ifvqcag","pricing_plan_id":"cebpf4jnsgd1na2vs0mg"},{"bike_id":"afb718d5-7872-4a14-a7c2-32d8aa426d2d","system_id":"levelo_inurba_marseille","lat":43.29023,"lon":5.39968,"is_reserved":false,"is_disabled":false,"rental_uris":{"android":"levelo://app?vid=afb718d5-7872-4a14-a7c2-32d8aa426d2d","ios":"levelo://app?vid=afb718d5-7872-4a14-a7c2-32d8aa426d2d"},"vehicle_type_id":"4","last_reported":1736503827,"current_range_meters":35600,"station_id":"ce4bh392rcd13ifvqdm0","pricing_plan_id":"cebpf4jnsgd1na2vs0mg"},{"bike_id":"6727a1a4-fd3a-4415-a389-697df82e67ba","system_id":"levelo_inurba_marseille","lat":43.27985,"lon":5.41664,"is_reserved":false,"is_disabled":true,"rental_uris":{"android":"levelo://app?vid=6727a1a4-fd3a-4415-a389-697df82e67ba","ios":"levelo://app?vid=6727a1a4-fd3a-4415-a389-697df82e67ba"},"vehicle_type_id":"4","last_reported":1736503827,"current_range_meters":24400,"station_id":"ce4bho12rcd13ifvqh1g","pricing_plan_id":"cebpf4jnsgd1na2vs0mg"},{"bike_id":"cc31367b-3625-4ae2-9534-f66aae460308","system_id":"levelo_inurba_marseille","lat":43.24076,"lon":5.37757,"is_reserved":false,"is_disabled":false,"rental_uris":{"android":"levelo://app?vid=cc31367b-3625-4ae2-9534-f66aae460308","ios":"levelo://app?vid=cc31367b-3625-4ae2-9534-f66aae460308"},"vehicle_type_id":"4","last_reported":1736503827,"current_range_meters":38800,"station_id":"ce4bhnp2rcd13ifvqgvg","pricing_plan_id":"cebpf4jnsgd1na2vs0mg"},{"bike_id":"7df73f52-8199-4a3f-b0e9-424d028349bf","system_id":"levelo_inurba_marseille","lat":43.31331,"lon":5.36759,"is_reserved":false,"is_disabled":false,"rental_uris":{"android":"levelo://app?vid=7df73f52-8199-4a3f-b0e9-424d028349bf","ios":"levelo://app?vid=7df73f52-8199-4a3f-b0e9-424d028349bf"},"vehicle_type_id":"4","last_reported":1736503827,"current_range_meters":38800,"station_id":"ce4bgr92rcd13ifvqc6g","pricing_plan_id":"cebpf4jnsgd1na2vs0mg"},{"bike_id":"0545e156-ef09-4ac6-ad67-04baadd28fa9","system_id":"levelo_inurba_marseille","lat":43.2908,"lon":5.37215,"is_reserved":false,"is_disabled":false,"rental_uris":{"android":"levelo://app?vid=0545e156-ef09-4ac6-ad67-04baadd28fa9","ios":"levelo://app?vid=0545e156-ef09-4ac6-ad67-04baadd28fa9"},"vehicle_type_id":"4","last_reported":1736503827,"current_range_meters":24800,"station_id":"ce4bh5p2rcd13ifvqe4g","pricing_plan_id":"cebpf4jnsgd1na2vs0mg"},{"bike_id":"ece82557-6569-4215-9027-5b44a37fe52e","system_id":"levelo_inurba_marseille","lat":43.290833,"lon":5.379731,"is_reserved":false,"is_disabled":true,"rental_uris":{"android":"levelo://app?vid=ece82557-6569-4215-9027-5b44a37fe52e","ios":"levelo://app?vid=ece82557-6569-4215-9027-5b44a37fe52e"},"vehicle_type_id":"4","last_reported":1736503827,"current_range_meters":0,"station_id":"","pricing_plan_id":"cebpf4jnsgd1na2vs0mg"},{"bike_id":"2dd6555b-6bc4-416c-a7b5-ce2f2351f8f6","system_id":"levelo_inurba_marseille","lat":43.29718,"lon":5.37688,"is_reserved":false,"is_disabled":false,"rental_uris":{"android":"levelo://app?vid=2dd6555b-6bc4-416c-a7b5-ce2f2351f8f6","ios":"levelo://app?vid=2dd6555b-6bc4-416c-a7b5-ce2f2351f8f6"},"vehicle_type_id":"4","last_reported":1736503827,"current_range_meters":36000,"station_id":"ce4bgkh2rcd13ifvqbl0","pricing_plan_id":"cebpf4jnsgd1na2vs0mg"},{"bike_id":"977d354c-6379-4f84-914f-6ff8717c00ed","system_id":"levelo_inurba_marseille","lat":43.29582,"lon":5.38074,"is_reserved":false,"is_disabled":false,"rental_uris":{"android":"levelo://app?vid=977d354c-6379-4f84-914f-6ff8717c00ed","ios":"levelo://app?vid=977d354c-6379-4f84-914f-6ff8717c00ed"},"vehicle_type_id":"4","last_reported":1736503827,"current_range_meters":32800,"station_id":"ce4bgl12rcd13ifvqbo0","pricing_plan_id":"cebpf4jnsgd1na2vs0mg"},{"bike_id":"c360d990-dcc5-4611-9114-4b1e79e3aa74","system_id":"levelo_inurba_marseille","lat":43.30552,"lon":5.36529,"is_reserved":false,"is_disabled":false,"rental_uris":{"android":"levelo://app?vid=c360d990-dcc5-4611-9114-4b1e79e3aa74","ios":"levelo://app?vid=c360d990-dcc5-4611-9114-4b1e79e3aa74"},"vehicle_type_id":"4","last_reported":1736503827,"current_range_meters":36800,"station_id":"ce4bgs12rcd13ifvqcag","pricing_plan_id":"cebpf4jnsgd1na2vs0mg"},{"bike_id":"0cf38007-2c23-4b91-914b-33859bf6f7a7","system_id":"levelo_inurba_marseille","lat":43.274282,"lon":5.394183,"is_reserved":false,"is_disabled":false,"rental_uris":{"android":"levelo://app?vid=0cf38007-2c23-4b91-914b-33859bf6f7a7","ios":"levelo://app?vid=0cf38007-2c23-4b91-914b-33859bf6f7a7"},"vehicle_type_id":"4","last_reported":1736503827,"current_range_meters":36800,"station_id":"ce4bhdp2rcd13ifvqf20","pricing_plan_id":"cebpf4jnsgd1na2vs0mg"},{"bike_id":"0771b7ed-c880-4b9e-8489-9820c522d97f","system_id":"levelo_inurba_marseille","lat":43.30148,"lon":5.38089,"is_reserved":false,"is_disabled":false,"rental_uris":{"android":"levelo://app?vid=0771b7ed-c880-4b9e-8489-9820c522d97f","ios":"levelo://app?vid=0771b7ed-c880-4b9e-8489-9820c522d97f"},"vehicle_type_id":"4","last_reported":1736503827,"current_range_meters":16000,"station_id":"ce4bgjp2rcd13ifvqbh0","pricing_plan_id":"cebpf4jnsgd1na2vs0mg"},{"bike_id":"04745ce5-c863-4d05-a4b1-70a293af40c0","system_id":"levelo_inurba_marseille","lat":43.29245,"lon":5.40909,"is_reserved":false,"is_disabled":false,"rental_uris":{"android":"levelo://app?vid=04745ce5-c863-4d05-a4b1-70a293af40c0","ios":"levelo://app?vid=04745ce5-c863-4d05-a4b1-70a293af40c0"},"vehicle_type_id":"4","last_reported":1736503827,"current_range_meters":10000,"station_id":"ce4bh192rcd13ifvqdc0","pricing_plan_id":"cebpf4jnsgd1na2vs0mg"},{"bike_id":"004c2ac5-7f25-4e48-8a80-9a02537f6ba6","system_id":"levelo_inurba_marseille","lat":43.32128,"lon":5.3681,"is_reserved":false,"is_disabled":false,"rental_uris":{"android":"levelo://app?vid=004c2ac5-7f25-4e48-8a80-9a02537f6ba6","ios":"levelo://app?vid=004c2ac5-7f25-4e48-8a80-9a02537f6ba6"},"vehicle_type_id":"4","last_reported":1736503827,"current_range_meters":36400,"station_id":"ce4bhrh2rcd13ifvqhug","pricing_plan_id":"cebpf4jnsgd1na2vs0mg"},{"bike_id":"1d7eed34-26a7-4525-a746-95fc01d85a12","system_id":"levelo_inurba_marseille","lat":43.26952,"lon":5.38642,"is_reserved":false,"is_disabled":false,"rental_uris":{"android":"levelo://app?vid=1d7eed34-26a7-4525-a746-95fc01d85a12","ios":"levelo://app?vid=1d7eed34-26a7-4525-a746-95fc01d85a12"},"vehicle_type_id":"4","last_reported":1736503827,"current_range_meters":38800,"station_id":"ce4bhh92rcd13ifvqfh0","pricing_plan_id":"cebpf4jnsgd1na2vs0mg"},{"bike_id":"49d154ab-b066-4a04-b00a-22a27742a39e","system_id":"levelo_inurba_marseille","lat":43.24173,"lon":5.39738,"is_reserved":false,"is_disabled":false,"rental_uris":{"android":"levelo://app?vid=49d154ab-b066-4a04-b00a-22a27742a39e","ios":"levelo://app?vid=49d154ab-b066-4a04-b00a-22a27742a39e"},"vehicle_type_id":"4","last_reported":1736503827,"current_range_meters":39200,"station_id":"ce4bhn12rcd13ifvqgpg","pricing_plan_id":"cebpf4jnsgd1na2vs0mg"},{"bike_id":"50b71c1b-b2a4-447e-ad41-1105966bb345","system_id":"levelo_inurba_marseille","lat":43.28265,"lon":5.39447,"is_reserved":false,"is_disabled":true,"rental_uris":{"android":"levelo://app?vid=50b71c1b-b2a4-447e-ad41-1105966bb345","ios":"levelo://app?vid=50b71c1b-b2a4-447e-ad41-1105966bb345"},"vehicle_type_id":"4","last_reported":1736503827,"current_range_meters":2000,"station_id":"","pricing_plan_id":"cebpf4jnsgd1na2vs0mg"},{"bike_id":"93ea805e-5ee4-4991-a6e4-bb90680a0cfa","system_id":"levelo_inurba_marseille","lat":43.2991,"lon":5.37479,"is_reserved":false,"is_disabled":false,"rental_uris":{"android":"levelo://app?vid=93ea805e-5ee4-4991-a6e4-bb90680a0cfa","ios":"levelo://app?vid=93ea805e-5ee4-4991-a6e4-bb90680a0cfa"},"vehicle_type_id":"4","last_reported":1736503827,"current_range_meters":34000,"station_id":"ce4bgjh2rcd13ifvqbg0","pricing_plan_id":"cebpf4jnsgd1na2vs0mg"},{"bike_id":"71b27858-056a-414e-87d9-627821b4bf18","system_id":"levelo_inurba_marseille","lat":43.24177,"lon":5.36402,"is_reserved":false,"is_disabled":false,"rental_uris":{"android":"levelo://app?vid=71b27858-056a-414e-87d9-627821b4bf18","ios":"levelo://app?vid=71b27858-056a-414e-87d9-627821b4bf18"},"vehicle_type_id":"4","last_reported":1736503827,"current_range_meters":20000,"station_id":"cpo36qri1sfpv3e86is0","pricing_plan_id":"cebpf4jnsgd1na2vs0mg"},{"bike_id":"8a0df70f-3b60-4510-bdf9-1eb41a2abb80","system_id":"levelo_inurba_marseille","lat":43.33619,"lon":5.41043,"is_reserved":false,"is_disabled":false,"rental_uris":{"android":"levelo://app?vid=8a0df70f-3b60-4510-bdf9-1eb41a2abb80","ios":"levelo://app?vid=8a0df70f-3b60-4510-bdf9-1eb41a2abb80"},"vehicle_type_id":"4","last_reported":1736503827,"current_range_meters":38000,"station_id":"ce4bhqh2rcd13ifvqhmg","pricing_plan_id":"cebpf4jnsgd1na2vs0mg"},{"bike_id":"f25d3969-ce28-48df-a2d5-3fe5435fc78e","system_id":"levelo_inurba_marseille","lat":43.26596,"lon":5.39071,"is_reserved":false,"is_disabled":false,"rental_uris":{"android":"levelo://app?vid=f25d3969-ce28-48df-a2d5-3fe5435fc78e","ios":"levelo://app?vid=f25d3969-ce28-48df-a2d5-3fe5435fc78e"},"vehicle_type_id":"4","last_reported":1736503827,"current_range_meters":38000,"station_id":"ce4bhe12rcd13ifvqf30","pricing_plan_id":"cebpf4jnsgd1na2vs0mg"},{"bike_id":"dff344b0-dfb0-4b54-8781-d1e2a440f582","system_id":"levelo_inurba_marseille","lat":43.335751,"lon":5.41043,"is_reserved":false,"is_disabled":false,"rental_uris":{"android":"levelo://app?vid=dff344b0-dfb0-4b54-8781-d1e2a440f582","ios":"levelo://app?vid=dff344b0-dfb0-4b54-8781-d1e2a440f582"},"vehicle_type_id":"4","last_reported":1736503827,"current_range_meters":25600,"station_id":"ce4bhqh2rcd13ifvqhmg","pricing_plan_id":"cebpf4jnsgd1na2vs0mg"},{"bike_id":"e1d410c6-22be-4056-903b-af42d8b54faa","system_id":"levelo_inurba_marseille","lat":43.250014,"lon":5.389246,"is_reserved":false,"is_disabled":false,"rental_uris":{"android":"levelo://app?vid=e1d410c6-22be-4056-903b-af42d8b54faa","ios":"levelo://app?vid=e1d410c6-22be-4056-903b-af42d8b54faa"},"vehicle_type_id":"4","last_reported":1736503827,"current_range_meters":27600,"station_id":"ce4bhgp2rcd13ifvqfd0","pricing_plan_id":"cebpf4jnsgd1na2vs0mg"},{"bike_id":"a05149ba-2329-47dd-8d6f-ddf95775e6c7","system_id":"levelo_inurba_marseille","lat":43.29204,"lon":5.35815,"is_reserved":false,"is_disabled":true,"rental_uris":{"android":"levelo://app?vid=a05149ba-2329-47dd-8d6f-ddf95775e6c7","ios":"levelo://app?vid=a05149ba-2329-47dd-8d6f-ddf95775e6c7"},"vehicle_type_id":"4","last_reported":1736503827,"current_range_meters":37600,"station_id":"ce4bhb12rcd13ifvqel0","pricing_plan_id":"cebpf4jnsgd1na2vs0mg"},{"bike_id":"98e7f821-41c5-432b-899e-09a493e0315a","system_id":"levelo_inurba_marseille","lat":43.27998,"lon":5.41665,"is_reserved":false,"is_disabled":false,"rental_uris":{"android":"levelo://app?vid=98e7f821-41c5-432b-899e-09a493e0315a","ios":"levelo://app?vid=98e7f821-41c5-432b-899e-09a493e0315a"},"vehicle_type_id":"4","last_reported":1736503827,"current_range_meters":34800,"station_id":"ce4bho12rcd13ifvqh1g","pricing_plan_id":"cebpf4jnsgd1na2vs0mg"},{"bike_id":"678ecc6a-68b8-4782-ab6d-14117fed5936","system_id":"levelo_inurba_marseille","lat":43.30913,"lon":5.36868,"is_reserved":false,"is_disabled":false,"rental_uris":{"android":"levelo://app?vid=678ecc6a-68b8-4782-ab6d-14117fed5936","ios":"levelo://app?vid=678ecc6a-68b8-4782-ab6d-14117fed5936"},"vehicle_type_id":"4","last_reported":1736503827,"current_range_meters":31200,"station_id":"ce4bgn92rcd13ifvqbvg","pricing_plan_id":"cebpf4jnsgd1na2vs0mg"},{"bike_id":"9d5535df-7edb-47f9-ac14-54793dd626e0","system_id":"levelo_inurba_marseille","lat":43.22932,"lon":5.35387,"is_reserved":false,"is_disabled":false,"rental_uris":{"android":"levelo://app?vid=9d5535df-7edb-47f9-ac14-54793dd626e0","ios":"levelo://app?vid=9d5535df-7edb-47f9-ac14-54793dd626e0"},"vehicle_type_id":"4","last_reported":1736503827,"current_range_meters":25200,"station_id":"cpo3532slgdg3j2ikp40","pricing_plan_id":"cebpf4jnsgd1na2vs0mg"},{"bike_id":"6a37db2e-c575-4bb3-b858-7fc08de43543","system_id":"levelo_inurba_marseille","lat":43.26558,"lon":5.37286,"is_reserved":false,"is_disabled":false,"rental_uris":{"android":"levelo://app?vid=6a37db2e-c575-4bb3-b858-7fc08de43543","ios":"levelo://app?vid=6a37db2e-c575-4bb3-b858-7fc08de43543"},"vehicle_type_id":"4","last_reported":1736503827,"current_range_meters":38800,"station_id":"ce4bhg12rcd13ifvqf70","pricing_plan_id":"cebpf4jnsgd1na2vs0mg"},{"bike_id":"0617fde0-97c2-4716-8570-25581d6a6543","system_id":"levelo_inurba_marseille","lat":43.27497,"lon":5.42452,"is_reserved":false,"is_disabled":false,"rental_uris":{"android":"levelo://app?vid=0617fde0-97c2-4716-8570-25581d6a6543","ios":"levelo://app?vid=0617fde0-97c2-4716-8570-25581d6a6543"},"vehicle_type_id":"4","last_reported":1736503827,"current_range_meters":38400,"station_id":"ce4bhn92rcd13ifvqgrg","pricing_plan_id":"cebpf4jnsgd1na2vs0mg"},{"bike_id":"4671682b-6feb-449d-ae91-078c3b071004","system_id":"levelo_inurba_marseille","lat":43.2511,"lon":5.40321,"is_reserved":false,"is_disabled":false,"rental_uris":{"android":"levelo://app?vid=4671682b-6feb-449d-ae91-078c3b071004","ios":"levelo://app?vid=4671682b-6feb-449d-ae91-078c3b071004"},"vehicle_type_id":"4","last_reported":1736503827,"current_range_meters":32000,"station_id":"ce4bhlh2rcd13ifvqgig","pricing_plan_id":"cebpf4jnsgd1na2vs0mg"},{"bike_id":"1a7bc4b7-38c8-4c3d-a9c3-234788ba462a","system_id":"levelo_inurba_marseille","lat":43.30159,"lon":5.38079,"is_reserved":false,"is_disabled":false,"rental_uris":{"android":"levelo://app?vid=1a7bc4b7-38c8-4c3d-a9c3-234788ba462a","ios":"levelo://app?vid=1a7bc4b7-38c8-4c3d-a9c3-234788ba462a"},"vehicle_type_id":"4","last_reported":1736503827,"current_range_meters":38800,"station_id":"ce4bgjp2rcd13ifvqbh0","pricing_plan_id":"cebpf4jnsgd1na2vs0mg"},{"bike_id":"c167712b-10f8-4859-9caa-480367289431","system_id":"levelo_inurba_marseille","lat":43.30589,"lon":5.39354,"is_reserved":false,"is_disabled":false,"rental_uris":{"android":"levelo://app?vid=c167712b-10f8-4859-9caa-480367289431","ios":"levelo://app?vid=c167712b-10f8-4859-9caa-480367289431"},"vehicle_type_id":"4","last_reported":1736503827,"current_range_meters":36400,"station_id":"ce4bh0p2rcd13ifvqd80","pricing_plan_id":"cebpf4jnsgd1na2vs0mg"},{"bike_id":"c6b699bc-7dbc-4db9-bcd4-adcc1854b939","system_id":"levelo_inurba_marseille","lat":43.30544,"lon":5.36692,"is_reserved":false,"is_disabled":false,"rental_uris":{"android":"levelo://app?vid=c6b699bc-7dbc-4db9-bcd4-adcc1854b939","ios":"levelo://app?vid=c6b699bc-7dbc-4db9-bcd4-adcc1854b939"},"vehicle_type_id":"4","last_reported":1736503827,"current_range_meters":35200,"station_id":"ce4bgrp2rcd13ifvqc9g","pricing_plan_id":"cebpf4jnsgd1na2vs0mg"},{"bike_id":"dbe4d7d2-95f9-4a28-b000-f9ac7c3f52eb","system_id":"levelo_inurba_marseille","lat":43.29186,"lon":5.3932,"is_reserved":false,"is_disabled":true,"rental_uris":{"android":"levelo://app?vid=dbe4d7d2-95f9-4a28-b000-f9ac7c3f52eb","ios":"levelo://app?vid=dbe4d7d2-95f9-4a28-b000-f9ac7c3f52eb"},"vehicle_type_id":"4","last_reported":1736503827,"current_range_meters":0,"station_id":"ce4bh192rcd13ifvqdd0","pricing_plan_id":"cebpf4jnsgd1na2vs0mg"},{"bike_id":"ba6d8873-43e1-4eaa-a24c-db9ab122a742","system_id":"levelo_inurba_marseille","lat":43.25821,"lon":5.39437,"is_reserved":false,"is_disabled":false,"rental_uris":{"android":"levelo://app?vid=ba6d8873-43e1-4eaa-a24c-db9ab122a742","ios":"levelo://app?vid=ba6d8873-43e1-4eaa-a24c-db9ab122a742"},"vehicle_type_id":"4","last_reported":1736503827,"current_range_meters":16000,"station_id":"ce4bhip2rcd13ifvqft0","pricing_plan_id":"cebpf4jnsgd1na2vs0mg"},{"bike_id":"89e50c5b-d589-4e92-acc7-729a00809e13","system_id":"levelo_inurba_marseille","lat":43.30134,"lon":5.37434,"is_reserved":false,"is_disabled":false,"rental_uris":{"android":"levelo://app?vid=89e50c5b-d589-4e92-acc7-729a00809e13","ios":"levelo://app?vid=89e50c5b-d589-4e92-acc7-729a00809e13"},"vehicle_type_id":"4","last_reported":1736503827,"current_range_meters":28000,"station_id":"ce4bgs92rcd13ifvqcc0","pricing_plan_id":"cebpf4jnsgd1na2vs0mg"},{"bike_id":"6d907632-b7a4-409f-98d5-031bae93ab87","system_id":"levelo_inurba_marseille","lat":43.23965,"lon":5.36644,"is_reserved":false,"is_disabled":false,"rental_uris":{"android":"levelo://app?vid=6d907632-b7a4-409f-98d5-031bae93ab87","ios":"levelo://app?vid=6d907632-b7a4-409f-98d5-031bae93ab87"},"vehicle_type_id":"4","last_reported":1736503827,"current_range_meters":8400,"station_id":"ce4bhi12rcd13ifvqfp0","pricing_plan_id":"cebpf4jnsgd1na2vs0mg"},{"bike_id":"168d3300-3ab5-4f6d-8373-dfdf5d1f123f","system_id":"levelo_inurba_marseille","lat":43.28916,"lon":5.36413,"is_reserved":false,"is_disabled":true,"rental_uris":{"android":"levelo://app?vid=168d3300-3ab5-4f6d-8373-dfdf5d1f123f","ios":"levelo://app?vid=168d3300-3ab5-4f6d-8373-dfdf5d1f123f"},"vehicle_type_id":"4","last_reported":1736503827,"current_range_meters":16800,"station_id":"ce4bhc92rcd13ifvqetg","pricing_plan_id":"cebpf4jnsgd1na2vs0mg"},{"bike_id":"a83eb06c-df38-42e7-91d1-36fdbc816855","system_id":"levelo_inurba_marseille","lat":43.30465,"lon":5.37904,"is_reserved":false,"is_disabled":false,"rental_uris":{"android":"levelo://app?vid=a83eb06c-df38-42e7-91d1-36fdbc816855","ios":"levelo://app?vid=a83eb06c-df38-42e7-91d1-36fdbc816855"},"vehicle_type_id":"4","last_reported":1736503827,"current_range_meters":34800,"station_id":"ce4bgup2rcd13ifvqcn0","pricing_plan_id":"cebpf4jnsgd1na2vs0mg"},{"bike_id":"ce3b33f7-dceb-43f1-887c-93dc32ac693a","system_id":"levelo_inurba_marseille","lat":43.29599,"lon":5.36741,"is_reserved":false,"is_disabled":false,"rental_uris":{"android":"levelo://app?vid=ce3b33f7-dceb-43f1-887c-93dc32ac693a","ios":"levelo://app?vid=ce3b33f7-dceb-43f1-887c-93dc32ac693a"},"vehicle_type_id":"4","last_reported":1736503827,"current_range_meters":38800,"station_id":"ce4bgph2rcd13ifvqc2g","pricing_plan_id":"cebpf4jnsgd1na2vs0mg"},{"bike_id":"723ecdfd-ec11-4544-a21b-4b0b18fff10c","system_id":"levelo_inurba_marseille","lat":43.24077,"lon":5.37759,"is_reserved":false,"is_disabled":false,"rental_uris":{"android":"levelo://app?vid=723ecdfd-ec11-4544-a21b-4b0b18fff10c","ios":"levelo://app?vid=723ecdfd-ec11-4544-a21b-4b0b18fff10c"},"vehicle_type_id":"4","last_reported":1736503827,"current_range_meters":30000,"station_id":"ce4bhnp2rcd13ifvqgvg","pricing_plan_id":"cebpf4jnsgd1na2vs0mg"},{"bike_id":"e317371f-3cb8-4455-a218-71b01dcac120","system_id":"levelo_inurba_marseille","lat":43.29518,"lon":5.37507,"is_reserved":false,"is_disabled":false,"rental_uris":{"android":"levelo://app?vid=e317371f-3cb8-4455-a218-71b01dcac120","ios":"levelo://app?vid=e317371f-3cb8-4455-a218-71b01dcac120"},"vehicle_type_id":"4","last_reported":1736503827,"current_range_meters":20800,"station_id":"ce4bgkp2rcd13ifvqbmg","pricing_plan_id":"cebpf4jnsgd1na2vs0mg"},{"bike_id":"dafa00c8-aa63-4e9a-b090-bc223ab75b71","system_id":"levelo_inurba_marseille","lat":43.25945,"lon":5.40927,"is_reserved":false,"is_disabled":false,"rental_uris":{"android":"levelo://app?vid=dafa00c8-aa63-4e9a-b090-bc223ab75b71","ios":"levelo://app?vid=dafa00c8-aa63-4e9a-b090-bc223ab75b71"},"vehicle_type_id":"4","last_reported":1736503827,"current_range_meters":38800,"station_id":"ce4bhm92rcd13ifvqglg","pricing_plan_id":"cebpf4jnsgd1na2vs0mg"},{"bike_id":"530a0c23-abb9-4f85-9e84-b5f6f2cd2fb6","system_id":"levelo_inurba_marseille","lat":43.2408,"lon":5.37764,"is_reserved":false,"is_disabled":false,"rental_uris":{"android":"levelo://app?vid=530a0c23-abb9-4f85-9e84-b5f6f2cd2fb6","ios":"levelo://app?vid=530a0c23-abb9-4f85-9e84-b5f6f2cd2fb6"},"vehicle_type_id":"4","last_reported":1736503827,"current_range_meters":11600,"station_id":"ce4bhnp2rcd13ifvqgvg","pricing_plan_id":"cebpf4jnsgd1na2vs0mg"},{"bike_id":"168c2084-99c3-45eb-88e5-cf54af8eb1df","system_id":"levelo_inurba_marseille","lat":43.27946,"lon":5.38704,"is_reserved":false,"is_disabled":true,"rental_uris":{"android":"levelo://app?vid=168c2084-99c3-45eb-88e5-cf54af8eb1df","ios":"levelo://app?vid=168c2084-99c3-45eb-88e5-cf54af8eb1df"},"vehicle_type_id":"4","last_reported":1736503827,"current_range_meters":1200,"station_id":"ce4bhg12rcd13ifvqf80","pricing_plan_id":"cebpf4jnsgd1na2vs0mg"},{"bike_id":"efb02237-2be4-48e8-926a-614ec199d09e","system_id":"levelo_inurba_marseille","lat":43.28471,"lon":5.38415,"is_reserved":false,"is_disabled":false,"rental_uris":{"android":"levelo://app?vid=efb02237-2be4-48e8-926a-614ec199d09e","ios":"levelo://app?vid=efb02237-2be4-48e8-926a-614ec199d09e"},"vehicle_type_id":"4","last_reported":1736503827,"current_range_meters":38000,"station_id":"ce4bh512rcd13ifvqe3g","pricing_plan_id":"cebpf4jnsgd1na2vs0mg"},{"bike_id":"1b4587cd-457c-43a2-92e0-249106938ab1","system_id":"levelo_inurba_marseille","lat":43.2619,"lon":5.37927,"is_reserved":false,"is_disabled":false,"rental_uris":{"android":"levelo://app?vid=1b4587cd-457c-43a2-92e0-249106938ab1","ios":"levelo://app?vid=1b4587cd-457c-43a2-92e0-249106938ab1"},"vehicle_type_id":"4","last_reported":1736503827,"current_range_meters":25600,"station_id":"ce4bhjp2rcd13ifvqg90","pricing_plan_id":"cebpf4jnsgd1na2vs0mg"},{"bike_id":"c6f45082-4f52-43c4-af86-c1fa309fdcc4","system_id":"levelo_inurba_marseille","lat":43.28724,"lon":5.37943,"is_reserved":false,"is_disabled":false,"rental_uris":{"android":"levelo://app?vid=c6f45082-4f52-43c4-af86-c1fa309fdcc4","ios":"levelo://app?vid=c6f45082-4f52-43c4-af86-c1fa309fdcc4"},"vehicle_type_id":"4","last_reported":1736503827,"current_range_meters":37600,"station_id":"ce4bh9p2rcd13ifvqec0","pricing_plan_id":"cebpf4jnsgd1na2vs0mg"},{"bike_id":"dc7c3254-8743-46e0-83e6-a66225f60699","system_id":"levelo_inurba_marseille","lat":43.31231,"lon":5.36855,"is_reserved":false,"is_disabled":false,"rental_uris":{"android":"levelo://app?vid=dc7c3254-8743-46e0-83e6-a66225f60699","ios":"levelo://app?vid=dc7c3254-8743-46e0-83e6-a66225f60699"},"vehicle_type_id":"4","last_reported":1736503827,"current_range_meters":24000,"station_id":"ce4bgl92rcd13ifvqbq0","pricing_plan_id":"cebpf4jnsgd1na2vs0mg"},{"bike_id":"426ee80e-06b0-4d0f-86a5-ea8ad64aaa11","system_id":"levelo_inurba_marseille","lat":43.2893,"lon":5.43788,"is_reserved":false,"is_disabled":false,"rental_uris":{"android":"levelo://app?vid=426ee80e-06b0-4d0f-86a5-ea8ad64aaa11","ios":"levelo://app?vid=426ee80e-06b0-4d0f-86a5-ea8ad64aaa11"},"vehicle_type_id":"4","last_reported":1736503827,"current_range_meters":22400,"station_id":"","pricing_plan_id":"cebpf4jnsgd1na2vs0mg"},{"bike_id":"26e99618-7509-4292-89a6-e22bb8ba9da0","system_id":"levelo_inurba_marseille","lat":43.33767,"lon":5.37437,"is_reserved":false,"is_disabled":false,"rental_uris":{"android":"levelo://app?vid=26e99618-7509-4292-89a6-e22bb8ba9da0","ios":"levelo://app?vid=26e99618-7509-4292-89a6-e22bb8ba9da0"},"vehicle_type_id":"4","last_reported":1736503827,"current_range_meters":24000,"station_id":"","pricing_plan_id":"cebpf4jnsgd1na2vs0mg"},{"bike_id":"d4852702-a25e-4ac8-8e0d-c80cf540cf9e","system_id":"levelo_inurba_marseille","lat":43.29298,"lon":5.37466,"is_reserved":false,"is_disabled":false,"rental_uris":{"android":"levelo://app?vid=d4852702-a25e-4ac8-8e0d-c80cf540cf9e","ios":"levelo://app?vid=d4852702-a25e-4ac8-8e0d-c80cf540cf9e"},"vehicle_type_id":"4","last_reported":1736503827,"current_range_meters":38400,"station_id":"ce4bgi12rcd13ifvqb70","pricing_plan_id":"cebpf4jnsgd1na2vs0mg"},{"bike_id":"8f469f5b-d5a8-4a56-876b-fcf872f28cfb","system_id":"levelo_inurba_marseille","lat":43.337444,"lon":5.374475,"is_reserved":false,"is_disabled":false,"rental_uris":{"android":"levelo://app?vid=8f469f5b-d5a8-4a56-876b-fcf872f28cfb","ios":"levelo://app?vid=8f469f5b-d5a8-4a56-876b-fcf872f28cfb"},"vehicle_type_id":"4","last_reported":1736503827,"current_range_meters":14400,"station_id":"","pricing_plan_id":"cebpf4jnsgd1na2vs0mg"},{"bike_id":"fd919a2d-67ee-42da-9ac9-674bc23a91b3","system_id":"levelo_inurba_marseille","lat":43.29605,"lon":5.37704,"is_reserved":false,"is_disabled":true,"rental_uris":{"android":"levelo://app?vid=fd919a2d-67ee-42da-9ac9-674bc23a91b3","ios":"levelo://app?vid=fd919a2d-67ee-42da-9ac9-674bc23a91b3"},"vehicle_type_id":"4","last_reported":1736503827,"current_range_meters":16000,"station_id":"ce4bgi92rcd13ifvqb90","pricing_plan_id":"cebpf4jnsgd1na2vs0mg"},{"bike_id":"d0f76416-28d4-47d3-8578-496ee2780c97","system_id":"levelo_inurba_marseille","lat":43.30948,"lon":5.39058,"is_reserved":false,"is_disabled":false,"rental_uris":{"android":"levelo://app?vid=d0f76416-28d4-47d3-8578-496ee2780c97","ios":"levelo://app?vid=d0f76416-28d4-47d3-8578-496ee2780c97"},"vehicle_type_id":"4","last_reported":1736503827,"current_range_meters":38800,"station_id":"ce4bgup2rcd13ifvqco0","pricing_plan_id":"cebpf4jnsgd1na2vs0mg"},{"bike_id":"9b3d97c9-0e0b-429b-be92-9de889b7cdb6","system_id":"levelo_inurba_marseille","lat":43.27962,"lon":5.38726,"is_reserved":false,"is_disabled":true,"rental_uris":{"android":"levelo://app?vid=9b3d97c9-0e0b-429b-be92-9de889b7cdb6","ios":"levelo://app?vid=9b3d97c9-0e0b-429b-be92-9de889b7cdb6"},"vehicle_type_id":"4","last_reported":1736503827,"current_range_meters":38800,"station_id":"ce4bhg12rcd13ifvqf80","pricing_plan_id":"cebpf4jnsgd1na2vs0mg"},{"bike_id":"3bdfcce7-7876-47ca-903e-7ecd52c14ace","system_id":"levelo_inurba_marseille","lat":43.29049,"lon":5.39971,"is_reserved":false,"is_disabled":false,"rental_uris":{"android":"levelo://app?vid=3bdfcce7-7876-47ca-903e-7ecd52c14ace","ios":"levelo://app?vid=3bdfcce7-7876-47ca-903e-7ecd52c14ace"},"vehicle_type_id":"4","last_reported":1736503827,"current_range_meters":38800,"station_id":"ce4bh392rcd13ifvqdm0","pricing_plan_id":"cebpf4jnsgd1na2vs0mg"},{"bike_id":"0224d198-8f68-449e-af8f-320da499ea5f","system_id":"levelo_inurba_marseille","lat":43.30953,"lon":5.39075,"is_reserved":false,"is_disabled":false,"rental_uris":{"android":"levelo://app?vid=0224d198-8f68-449e-af8f-320da499ea5f","ios":"levelo://app?vid=0224d198-8f68-449e-af8f-320da499ea5f"},"vehicle_type_id":"4","last_reported":1736503827,"current_range_meters":38800,"station_id":"ce4bgup2rcd13ifvqco0","pricing_plan_id":"cebpf4jnsgd1na2vs0mg"},{"bike_id":"aeb5c1e7-80b3-4264-b4dd-27292493ad7b","system_id":"levelo_inurba_marseille","lat":43.27491,"lon":5.42471,"is_reserved":false,"is_disabled":false,"rental_uris":{"android":"levelo://app?vid=aeb5c1e7-80b3-4264-b4dd-27292493ad7b","ios":"levelo://app?vid=aeb5c1e7-80b3-4264-b4dd-27292493ad7b"},"vehicle_type_id":"4","last_reported":1736503827,"current_range_meters":12400,"station_id":"ce4bhn92rcd13ifvqgrg","pricing_plan_id":"cebpf4jnsgd1na2vs0mg"},{"bike_id":"4b38882c-ba9d-4741-88fd-5a0cd2a690f7","system_id":"levelo_inurba_marseille","lat":43.28438,"lon":5.39216,"is_reserved":false,"is_disabled":true,"rental_uris":{"android":"levelo://app?vid=4b38882c-ba9d-4741-88fd-5a0cd2a690f7","ios":"levelo://app?vid=4b38882c-ba9d-4741-88fd-5a0cd2a690f7"},"vehicle_type_id":"4","last_reported":1736503827,"current_range_meters":9200,"station_id":"ce4bhoh2rcd13ifvqh5g","pricing_plan_id":"cebpf4jnsgd1na2vs0mg"},{"bike_id":"8e159a24-01fa-4dcf-b9d2-cb1a1e7a5002","system_id":"levelo_inurba_marseille","lat":43.3091,"lon":5.36852,"is_reserved":false,"is_disabled":false,"rental_uris":{"android":"levelo://app?vid=8e159a24-01fa-4dcf-b9d2-cb1a1e7a5002","ios":"levelo://app?vid=8e159a24-01fa-4dcf-b9d2-cb1a1e7a5002"},"vehicle_type_id":"4","last_reported":1736503827,"current_range_meters":27200,"station_id":"ce4bgn92rcd13ifvqbvg","pricing_plan_id":"cebpf4jnsgd1na2vs0mg"},{"bike_id":"e51b2d29-f6fd-4ba7-80e0-f85ab68cc69e","system_id":"levelo_inurba_marseille","lat":43.27065,"lon":5.42305,"is_reserved":false,"is_disabled":false,"rental_uris":{"android":"levelo://app?vid=e51b2d29-f6fd-4ba7-80e0-f85ab68cc69e","ios":"levelo://app?vid=e51b2d29-f6fd-4ba7-80e0-f85ab68cc69e"},"vehicle_type_id":"4","last_reported":1736503827,"current_range_meters":39200,"station_id":"ce4bhk92rcd13ifvqgb0","pricing_plan_id":"cebpf4jnsgd1na2vs0mg"},{"bike_id":"94fb4a5f-a6ea-4a1f-9bc1-2c2817e24934","system_id":"levelo_inurba_marseille","lat":43.28154,"lon":5.42643,"is_reserved":false,"is_disabled":false,"rental_uris":{"android":"levelo://app?vid=94fb4a5f-a6ea-4a1f-9bc1-2c2817e24934","ios":"levelo://app?vid=94fb4a5f-a6ea-4a1f-9bc1-2c2817e24934"},"vehicle_type_id":"4","last_reported":1736503827,"current_range_meters":38800,"station_id":"ce4bhnh2rcd13ifvqgug","pricing_plan_id":"cebpf4jnsgd1na2vs0mg"},{"bike_id":"e96e1983-9907-49ac-a2c1-9eee4ab9f689","system_id":"levelo_inurba_marseille","lat":43.309692,"lon":5.390035,"is_reserved":false,"is_disabled":false,"rental_uris":{"android":"levelo://app?vid=e96e1983-9907-49ac-a2c1-9eee4ab9f689","ios":"levelo://app?vid=e96e1983-9907-49ac-a2c1-9eee4ab9f689"},"vehicle_type_id":"4","last_reported":1736503827,"current_range_meters":28800,"station_id":"ce4bgup2rcd13ifvqco0","pricing_plan_id":"cebpf4jnsgd1na2vs0mg"},{"bike_id":"2c9f87a8-522f-432b-ba2f-20b0bd1c694f","system_id":"levelo_inurba_marseille","lat":43.30928,"lon":5.36873,"is_reserved":false,"is_disabled":false,"rental_uris":{"android":"levelo://app?vid=2c9f87a8-522f-432b-ba2f-20b0bd1c694f","ios":"levelo://app?vid=2c9f87a8-522f-432b-ba2f-20b0bd1c694f"},"vehicle_type_id":"4","last_reported":1736503827,"current_range_meters":39200,"station_id":"ce4bgn92rcd13ifvqbvg","pricing_plan_id":"cebpf4jnsgd1na2vs0mg"},{"bike_id":"aebffcef-ecfd-4644-baa5-41ef6ceb4909","system_id":"levelo_inurba_marseille","lat":43.23959,"lon":5.3663,"is_reserved":false,"is_disabled":false,"rental_uris":{"android":"levelo://app?vid=aebffcef-ecfd-4644-baa5-41ef6ceb4909","ios":"levelo://app?vid=aebffcef-ecfd-4644-baa5-41ef6ceb4909"},"vehicle_type_id":"4","last_reported":1736503827,"current_range_meters":23200,"station_id":"ce4bhi12rcd13ifvqfp0","pricing_plan_id":"cebpf4jnsgd1na2vs0mg"},{"bike_id":"d1dfdd5b-7c77-4eb7-b4b4-c8880890dbb4","system_id":"levelo_inurba_marseille","lat":43.33598,"lon":5.41008,"is_reserved":false,"is_disabled":false,"rental_uris":{"android":"levelo://app?vid=d1dfdd5b-7c77-4eb7-b4b4-c8880890dbb4","ios":"levelo://app?vid=d1dfdd5b-7c77-4eb7-b4b4-c8880890dbb4"},"vehicle_type_id":"4","last_reported":1736503827,"current_range_meters":19200,"station_id":"ce4bhqh2rcd13ifvqhmg","pricing_plan_id":"cebpf4jnsgd1na2vs0mg"},{"bike_id":"0030e48f-2bd0-4388-a485-a320d9831576","system_id":"levelo_inurba_marseille","lat":43.3137,"lon":5.38505,"is_reserved":false,"is_disabled":false,"rental_uris":{"android":"levelo://app?vid=0030e48f-2bd0-4388-a485-a320d9831576","ios":"levelo://app?vid=0030e48f-2bd0-4388-a485-a320d9831576"},"vehicle_type_id":"4","last_reported":1736503827,"current_range_meters":39200,"station_id":"ce4bgt92rcd13ifvqcf0","pricing_plan_id":"cebpf4jnsgd1na2vs0mg"},{"bike_id":"6d0e52d5-171f-4142-95ad-661bb82f8fd1","system_id":"levelo_inurba_marseille","lat":43.2656,"lon":5.37287,"is_reserved":false,"is_disabled":false,"rental_uris":{"android":"levelo://app?vid=6d0e52d5-171f-4142-95ad-661bb82f8fd1","ios":"levelo://app?vid=6d0e52d5-171f-4142-95ad-661bb82f8fd1"},"vehicle_type_id":"4","last_reported":1736503827,"current_range_meters":32400,"station_id":"ce4bhg12rcd13ifvqf70","pricing_plan_id":"cebpf4jnsgd1na2vs0mg"},{"bike_id":"81789b2f-034b-4806-b73d-b6605fc21eca","system_id":"levelo_inurba_marseille","lat":43.2871,"lon":5.37935,"is_reserved":false,"is_disabled":false,"rental_uris":{"android":"levelo://app?vid=81789b2f-034b-4806-b73d-b6605fc21eca","ios":"levelo://app?vid=81789b2f-034b-4806-b73d-b6605fc21eca"},"vehicle_type_id":"4","last_reported":1736503827,"current_range_meters":30400,"station_id":"ce4bh9p2rcd13ifvqec0","pricing_plan_id":"cebpf4jnsgd1na2vs0mg"},{"bike_id":"ab8c3cac-e770-43bf-af7c-a639635f95f0","system_id":"levelo_inurba_marseille","lat":43.24072,"lon":5.37759,"is_reserved":false,"is_disabled":false,"rental_uris":{"android":"levelo://app?vid=ab8c3cac-e770-43bf-af7c-a639635f95f0","ios":"levelo://app?vid=ab8c3cac-e770-43bf-af7c-a639635f95f0"},"vehicle_type_id":"4","last_reported":1736503827,"current_range_meters":38800,"station_id":"ce4bhnp2rcd13ifvqgvg","pricing_plan_id":"cebpf4jnsgd1na2vs0mg"},{"bike_id":"d3e3137c-b817-431e-b9e2-d48abf244e86","system_id":"levelo_inurba_marseille","lat":43.24075,"lon":5.37769,"is_reserved":false,"is_disabled":false,"rental_uris":{"android":"levelo://app?vid=d3e3137c-b817-431e-b9e2-d48abf244e86","ios":"levelo://app?vid=d3e3137c-b817-431e-b9e2-d48abf244e86"},"vehicle_type_id":"4","last_reported":1736503827,"current_range_meters":38800,"station_id":"ce4bhnp2rcd13ifvqgvg","pricing_plan_id":"cebpf4jnsgd1na2vs0mg"},{"bike_id":"6c16b955-c13c-49a6-a5bb-29559922d02c","system_id":"levelo_inurba_marseille","lat":43.23968,"lon":5.36624,"is_reserved":false,"is_disabled":false,"rental_uris":{"android":"levelo://app?vid=6c16b955-c13c-49a6-a5bb-29559922d02c","ios":"levelo://app?vid=6c16b955-c13c-49a6-a5bb-29559922d02c"},"vehicle_type_id":"4","last_reported":1736503827,"current_range_meters":25600,"station_id":"ce4bhi12rcd13ifvqfp0","pricing_plan_id":"cebpf4jnsgd1na2vs0mg"},{"bike_id":"e5b661c0-5639-40a4-90a1-dcef1f99f698","system_id":"levelo_inurba_marseille","lat":43.30462,"lon":5.3791,"is_reserved":false,"is_disabled":false,"rental_uris":{"android":"levelo://app?vid=e5b661c0-5639-40a4-90a1-dcef1f99f698","ios":"levelo://app?vid=e5b661c0-5639-40a4-90a1-dcef1f99f698"},"vehicle_type_id":"4","last_reported":1736503827,"current_range_meters":34000,"station_id":"ce4bgup2rcd13ifvqcn0","pricing_plan_id":"cebpf4jnsgd1na2vs0mg"},{"bike_id":"dd95b172-24fd-4056-9bb1-1ba37d74b460","system_id":"levelo_inurba_marseille","lat":43.25568,"lon":5.38262,"is_reserved":false,"is_disabled":false,"rental_uris":{"android":"levelo://app?vid=dd95b172-24fd-4056-9bb1-1ba37d74b460","ios":"levelo://app?vid=dd95b172-24fd-4056-9bb1-1ba37d74b460"},"vehicle_type_id":"4","last_reported":1736503827,"current_range_meters":16800,"station_id":"ce4bhih2rcd13ifvqfs0","pricing_plan_id":"cebpf4jnsgd1na2vs0mg"},{"bike_id":"182bb2b4-4d40-4c8b-8352-ef4599096cac","system_id":"levelo_inurba_marseille","lat":43.26027,"lon":5.37552,"is_reserved":false,"is_disabled":false,"rental_uris":{"android":"levelo://app?vid=182bb2b4-4d40-4c8b-8352-ef4599096cac","ios":"levelo://app?vid=182bb2b4-4d40-4c8b-8352-ef4599096cac"},"vehicle_type_id":"4","last_reported":1736503827,"current_range_meters":38000,"station_id":"ce4bhgh2rcd13ifvqfa0","pricing_plan_id":"cebpf4jnsgd1na2vs0mg"},{"bike_id":"1310b0a7-2d92-48eb-8ea3-50e68c13d411","system_id":"levelo_inurba_marseille","lat":43.30288,"lon":5.37759,"is_reserved":false,"is_disabled":false,"rental_uris":{"android":"levelo://app?vid=1310b0a7-2d92-48eb-8ea3-50e68c13d411","ios":"levelo://app?vid=1310b0a7-2d92-48eb-8ea3-50e68c13d411"},"vehicle_type_id":"4","last_reported":1736503827,"current_range_meters":39200,"station_id":"ce4bguh2rcd13ifvqcj0","pricing_plan_id":"cebpf4jnsgd1na2vs0mg"},{"bike_id":"21a8d6ce-b56c-47da-89ff-bf32c008cb14","system_id":"levelo_inurba_marseille","lat":43.30926,"lon":5.40146,"is_reserved":false,"is_disabled":false,"rental_uris":{"android":"levelo://app?vid=21a8d6ce-b56c-47da-89ff-bf32c008cb14","ios":"levelo://app?vid=21a8d6ce-b56c-47da-89ff-bf32c008cb14"},"vehicle_type_id":"4","last_reported":1736503827,"current_range_meters":31200,"station_id":"ce4bgvp2rcd13ifvqct0","pricing_plan_id":"cebpf4jnsgd1na2vs0mg"},{"bike_id":"a1a982e7-e625-4dfa-991a-019bb63c806f","system_id":"levelo_inurba_marseille","lat":43.23964,"lon":5.36636,"is_reserved":false,"is_disabled":false,"rental_uris":{"android":"levelo://app?vid=a1a982e7-e625-4dfa-991a-019bb63c806f","ios":"levelo://app?vid=a1a982e7-e625-4dfa-991a-019bb63c806f"},"vehicle_type_id":"4","last_reported":1736503827,"current_range_meters":22800,"station_id":"ce4bhi12rcd13ifvqfp0","pricing_plan_id":"cebpf4jnsgd1na2vs0mg"},{"bike_id":"c6c08f57-1b2b-4d53-aabf-26763484169b","system_id":"levelo_inurba_marseille","lat":43.26559,"lon":5.39026,"is_reserved":false,"is_disabled":true,"rental_uris":{"android":"levelo://app?vid=c6c08f57-1b2b-4d53-aabf-26763484169b","ios":"levelo://app?vid=c6c08f57-1b2b-4d53-aabf-26763484169b"},"vehicle_type_id":"4","last_reported":1736503827,"current_range_meters":38800,"station_id":"ce4bhe12rcd13ifvqf30","pricing_plan_id":"cebpf4jnsgd1na2vs0mg"},{"bike_id":"4128a329-9f92-4942-845a-f8bcda68ed73","system_id":"levelo_inurba_marseille","lat":43.3015,"lon":5.3808,"is_reserved":false,"is_disabled":false,"rental_uris":{"android":"levelo://app?vid=4128a329-9f92-4942-845a-f8bcda68ed73","ios":"levelo://app?vid=4128a329-9f92-4942-845a-f8bcda68ed73"},"vehicle_type_id":"4","last_reported":1736503827,"current_range_meters":32400,"station_id":"ce4bgjp2rcd13ifvqbh0","pricing_plan_id":"cebpf4jnsgd1na2vs0mg"},{"bike_id":"13c9ffd1-0571-4a01-b1c4-cdbe934dff2a","system_id":"levelo_inurba_marseille","lat":43.25009,"lon":5.38954,"is_reserved":false,"is_disabled":false,"rental_uris":{"android":"levelo://app?vid=13c9ffd1-0571-4a01-b1c4-cdbe934dff2a","ios":"levelo://app?vid=13c9ffd1-0571-4a01-b1c4-cdbe934dff2a"},"vehicle_type_id":"4","last_reported":1736503827,"current_range_meters":32400,"station_id":"ce4bhgp2rcd13ifvqfd0","pricing_plan_id":"cebpf4jnsgd1na2vs0mg"},{"bike_id":"e71db8cf-7b3c-485e-a8dd-487e8221434b","system_id":"levelo_inurba_marseille","lat":43.30549,"lon":5.36694,"is_reserved":false,"is_disabled":false,"rental_uris":{"android":"levelo://app?vid=e71db8cf-7b3c-485e-a8dd-487e8221434b","ios":"levelo://app?vid=e71db8cf-7b3c-485e-a8dd-487e8221434b"},"vehicle_type_id":"4","last_reported":1736503827,"current_range_meters":38000,"station_id":"ce4bgrp2rcd13ifvqc9g","pricing_plan_id":"cebpf4jnsgd1na2vs0mg"},{"bike_id":"db2bb327-84ca-49b3-a980-9c69d6ef41a2","system_id":"levelo_inurba_marseille","lat":43.23193,"lon":5.35549,"is_reserved":false,"is_disabled":false,"rental_uris":{"android":"levelo://app?vid=db2bb327-84ca-49b3-a980-9c69d6ef41a2","ios":"levelo://app?vid=db2bb327-84ca-49b3-a980-9c69d6ef41a2"},"vehicle_type_id":"4","last_reported":1736503827,"current_range_meters":38400,"station_id":"ce4bhu92rcd13ifvqi70","pricing_plan_id":"cebpf4jnsgd1na2vs0mg"},{"bike_id":"b1cd05bd-cc6d-452b-8b8c-f24ee7fb627f","system_id":"levelo_inurba_marseille","lat":43.25828,"lon":5.39421,"is_reserved":false,"is_disabled":false,"rental_uris":{"android":"levelo://app?vid=b1cd05bd-cc6d-452b-8b8c-f24ee7fb627f","ios":"levelo://app?vid=b1cd05bd-cc6d-452b-8b8c-f24ee7fb627f"},"vehicle_type_id":"4","last_reported":1736503827,"current_range_meters":36800,"station_id":"ce4bhip2rcd13ifvqft0","pricing_plan_id":"cebpf4jnsgd1na2vs0mg"},{"bike_id":"0efc64bf-284f-4e33-b1df-0d37f1b904ea","system_id":"levelo_inurba_marseille","lat":43.33606,"lon":5.41046,"is_reserved":false,"is_disabled":false,"rental_uris":{"android":"levelo://app?vid=0efc64bf-284f-4e33-b1df-0d37f1b904ea","ios":"levelo://app?vid=0efc64bf-284f-4e33-b1df-0d37f1b904ea"},"vehicle_type_id":"4","last_reported":1736503827,"current_range_meters":39200,"station_id":"ce4bhqh2rcd13ifvqhmg","pricing_plan_id":"cebpf4jnsgd1na2vs0mg"},{"bike_id":"9d27d288-9638-4ffa-a41f-98c9e72676c0","system_id":"levelo_inurba_marseille","lat":43.231935,"lon":5.355523,"is_reserved":false,"is_disabled":false,"rental_uris":{"android":"levelo://app?vid=9d27d288-9638-4ffa-a41f-98c9e72676c0","ios":"levelo://app?vid=9d27d288-9638-4ffa-a41f-98c9e72676c0"},"vehicle_type_id":"4","last_reported":1736503827,"current_range_meters":8800,"station_id":"ce4bhu92rcd13ifvqi70","pricing_plan_id":"cebpf4jnsgd1na2vs0mg"},{"bike_id":"5aee579e-4d1a-4cdd-b13b-286ee35e83d9","system_id":"levelo_inurba_marseille","lat":43.25928,"lon":5.40897,"is_reserved":false,"is_disabled":false,"rental_uris":{"android":"levelo://app?vid=5aee579e-4d1a-4cdd-b13b-286ee35e83d9","ios":"levelo://app?vid=5aee579e-4d1a-4cdd-b13b-286ee35e83d9"},"vehicle_type_id":"4","last_reported":1736503827,"current_range_meters":36800,"station_id":"ce4bhm92rcd13ifvqglg","pricing_plan_id":"cebpf4jnsgd1na2vs0mg"},{"bike_id":"b9976952-4a08-4451-ad5d-1dcdb3e3ca97","system_id":"levelo_inurba_marseille","lat":43.2998,"lon":5.38497,"is_reserved":false,"is_disabled":true,"rental_uris":{"android":"levelo://app?vid=b9976952-4a08-4451-ad5d-1dcdb3e3ca97","ios":"levelo://app?vid=b9976952-4a08-4451-ad5d-1dcdb3e3ca97"},"vehicle_type_id":"4","last_reported":1736503827,"current_range_meters":27200,"station_id":"ce4bgj92rcd13ifvqbd0","pricing_plan_id":"cebpf4jnsgd1na2vs0mg"},{"bike_id":"11585661-9606-4540-9904-4049c3c3dbe3","system_id":"levelo_inurba_marseille","lat":43.29621,"lon":5.37175,"is_reserved":false,"is_disabled":false,"rental_uris":{"android":"levelo://app?vid=11585661-9606-4540-9904-4049c3c3dbe3","ios":"levelo://app?vid=11585661-9606-4540-9904-4049c3c3dbe3"},"vehicle_type_id":"4","last_reported":1736503827,"current_range_meters":14000,"station_id":"ce4bgnh2rcd13ifvqc0g","pricing_plan_id":"cebpf4jnsgd1na2vs0mg"},{"bike_id":"81a76ee2-6a9a-4b51-9397-f22030e37d86","system_id":"levelo_inurba_marseille","lat":43.29619,"lon":5.37174,"is_reserved":false,"is_disabled":false,"rental_uris":{"android":"levelo://app?vid=81a76ee2-6a9a-4b51-9397-f22030e37d86","ios":"levelo://app?vid=81a76ee2-6a9a-4b51-9397-f22030e37d86"},"vehicle_type_id":"4","last_reported":1736503827,"current_range_meters":23200,"station_id":"ce4bgnh2rcd13ifvqc0g","pricing_plan_id":"cebpf4jnsgd1na2vs0mg"},{"bike_id":"7422f161-9315-42ff-8673-b273580cf5bb","system_id":"levelo_inurba_marseille","lat":43.28667,"lon":5.38671,"is_reserved":false,"is_disabled":false,"rental_uris":{"android":"levelo://app?vid=7422f161-9315-42ff-8673-b273580cf5bb","ios":"levelo://app?vid=7422f161-9315-42ff-8673-b273580cf5bb"},"vehicle_type_id":"4","last_reported":1736503827,"current_range_meters":28400,"station_id":"ce4bh492rcd13ifvqdug","pricing_plan_id":"cebpf4jnsgd1na2vs0mg"},{"bike_id":"2c56569d-ff0b-4284-ba64-74611e7006a4","system_id":"levelo_inurba_marseille","lat":43.25004,"lon":5.3894,"is_reserved":false,"is_disabled":false,"rental_uris":{"android":"levelo://app?vid=2c56569d-ff0b-4284-ba64-74611e7006a4","ios":"levelo://app?vid=2c56569d-ff0b-4284-ba64-74611e7006a4"},"vehicle_type_id":"4","last_reported":1736503827,"current_range_meters":20800,"station_id":"ce4bhgp2rcd13ifvqfd0","pricing_plan_id":"cebpf4jnsgd1na2vs0mg"},{"bike_id":"b7a9af4a-f050-47c0-8298-26fae1024e10","system_id":"levelo_inurba_marseille","lat":43.26687,"lon":5.38267,"is_reserved":false,"is_disabled":false,"rental_uris":{"android":"levelo://app?vid=b7a9af4a-f050-47c0-8298-26fae1024e10","ios":"levelo://app?vid=b7a9af4a-f050-47c0-8298-26fae1024e10"},"vehicle_type_id":"4","last_reported":1736503827,"current_range_meters":27200,"station_id":"ce4bhg92rcd13ifvqf90","pricing_plan_id":"cebpf4jnsgd1na2vs0mg"},{"bike_id":"6db24be0-87cf-4437-9d32-a18bcf76ec30","system_id":"levelo_inurba_marseille","lat":43.28734,"lon":5.37937,"is_reserved":false,"is_disabled":false,"rental_uris":{"android":"levelo://app?vid=6db24be0-87cf-4437-9d32-a18bcf76ec30","ios":"levelo://app?vid=6db24be0-87cf-4437-9d32-a18bcf76ec30"},"vehicle_type_id":"4","last_reported":1736503827,"current_range_meters":16800,"station_id":"ce4bh9p2rcd13ifvqec0","pricing_plan_id":"cebpf4jnsgd1na2vs0mg"},{"bike_id":"45916835-983b-455c-9865-3f21f46b155f","system_id":"levelo_inurba_marseille","lat":43.31366,"lon":5.38508,"is_reserved":false,"is_disabled":false,"rental_uris":{"android":"levelo://app?vid=45916835-983b-455c-9865-3f21f46b155f","ios":"levelo://app?vid=45916835-983b-455c-9865-3f21f46b155f"},"vehicle_type_id":"4","last_reported":1736503827,"current_range_meters":34000,"station_id":"ce4bgt92rcd13ifvqcf0","pricing_plan_id":"cebpf4jnsgd1na2vs0mg"},{"bike_id":"9ed1c0a7-5035-4dde-954f-378a0451f32a","system_id":"levelo_inurba_marseille","lat":43.23965,"lon":5.36655,"is_reserved":false,"is_disabled":true,"rental_uris":{"android":"levelo://app?vid=9ed1c0a7-5035-4dde-954f-378a0451f32a","ios":"levelo://app?vid=9ed1c0a7-5035-4dde-954f-378a0451f32a"},"vehicle_type_id":"4","last_reported":1736503827,"current_range_meters":1200,"station_id":"ce4bhi12rcd13ifvqfp0","pricing_plan_id":"cebpf4jnsgd1na2vs0mg"},{"bike_id":"5e52071d-7890-4e3f-bbd9-fed138027d4b","system_id":"levelo_inurba_marseille","lat":43.29878,"lon":5.389124,"is_reserved":false,"is_disabled":true,"rental_uris":{"android":"levelo://app?vid=5e52071d-7890-4e3f-bbd9-fed138027d4b","ios":"levelo://app?vid=5e52071d-7890-4e3f-bbd9-fed138027d4b"},"vehicle_type_id":"4","last_reported":1736503827,"current_range_meters":38800,"station_id":"ce4bh392rcd13ifvqdl0","pricing_plan_id":"cebpf4jnsgd1na2vs0mg"},{"bike_id":"1f04e43e-ad27-41d8-af08-5001240149b3","system_id":"levelo_inurba_marseille","lat":43.30211,"lon":5.39476,"is_reserved":false,"is_disabled":true,"rental_uris":{"android":"levelo://app?vid=1f04e43e-ad27-41d8-af08-5001240149b3","ios":"levelo://app?vid=1f04e43e-ad27-41d8-af08-5001240149b3"},"vehicle_type_id":"4","last_reported":1736503827,"current_range_meters":1600,"station_id":"ce4bh0p2rcd13ifvqd70","pricing_plan_id":"cebpf4jnsgd1na2vs0mg"},{"bike_id":"185e258a-94ee-4bc0-a518-8b2443039ff9","system_id":"levelo_inurba_marseille","lat":43.32541,"lon":5.41453,"is_reserved":false,"is_disabled":false,"rental_uris":{"android":"levelo://app?vid=185e258a-94ee-4bc0-a518-8b2443039ff9","ios":"levelo://app?vid=185e258a-94ee-4bc0-a518-8b2443039ff9"},"vehicle_type_id":"4","last_reported":1736503827,"current_range_meters":8400,"station_id":"ce4bhq12rcd13ifvqhhg","pricing_plan_id":"cebpf4jnsgd1na2vs0mg"},{"bike_id":"3499c2e3-a89c-4eb9-b8bb-035633a0657e","system_id":"levelo_inurba_marseille","lat":43.28942,"lon":5.3963,"is_reserved":false,"is_disabled":false,"rental_uris":{"android":"levelo://app?vid=3499c2e3-a89c-4eb9-b8bb-035633a0657e","ios":"levelo://app?vid=3499c2e3-a89c-4eb9-b8bb-035633a0657e"},"vehicle_type_id":"4","last_reported":1736503827,"current_range_meters":38800,"station_id":"ce4bh3h2rcd13ifvqdn0","pricing_plan_id":"cebpf4jnsgd1na2vs0mg"},{"bike_id":"af1d8654-7f66-4539-8667-313d56746f24","system_id":"levelo_inurba_marseille","lat":43.25073,"lon":5.39509,"is_reserved":false,"is_disabled":false,"rental_uris":{"android":"levelo://app?vid=af1d8654-7f66-4539-8667-313d56746f24","ios":"levelo://app?vid=af1d8654-7f66-4539-8667-313d56746f24"},"vehicle_type_id":"4","last_reported":1736503827,"current_range_meters":38800,"station_id":"ce4bhm12rcd13ifvqgkg","pricing_plan_id":"cebpf4jnsgd1na2vs0mg"},{"bike_id":"e32f0dad-8adc-457b-9717-fb6302d98a0d","system_id":"levelo_inurba_marseille","lat":43.30137,"lon":5.37413,"is_reserved":false,"is_disabled":false,"rental_uris":{"android":"levelo://app?vid=e32f0dad-8adc-457b-9717-fb6302d98a0d","ios":"levelo://app?vid=e32f0dad-8adc-457b-9717-fb6302d98a0d"},"vehicle_type_id":"4","last_reported":1736503827,"current_range_meters":25200,"station_id":"ce4bgs92rcd13ifvqcc0","pricing_plan_id":"cebpf4jnsgd1na2vs0mg"},{"bike_id":"42f80fe0-86fa-4580-b212-cc05dc66ee8c","system_id":"levelo_inurba_marseille","lat":43.3361,"lon":5.41034,"is_reserved":false,"is_disabled":false,"rental_uris":{"android":"levelo://app?vid=42f80fe0-86fa-4580-b212-cc05dc66ee8c","ios":"levelo://app?vid=42f80fe0-86fa-4580-b212-cc05dc66ee8c"},"vehicle_type_id":"4","last_reported":1736503827,"current_range_meters":25200,"station_id":"ce4bhqh2rcd13ifvqhmg","pricing_plan_id":"cebpf4jnsgd1na2vs0mg"},{"bike_id":"afb824a9-d724-4c30-9d92-132653926f1a","system_id":"levelo_inurba_marseille","lat":43.30136,"lon":5.37403,"is_reserved":false,"is_disabled":false,"rental_uris":{"android":"levelo://app?vid=afb824a9-d724-4c30-9d92-132653926f1a","ios":"levelo://app?vid=afb824a9-d724-4c30-9d92-132653926f1a"},"vehicle_type_id":"4","last_reported":1736503827,"current_range_meters":29600,"station_id":"ce4bgs92rcd13ifvqcc0","pricing_plan_id":"cebpf4jnsgd1na2vs0mg"},{"bike_id":"e5a91d57-d97c-49e2-a4d4-8c1a496db589","system_id":"levelo_inurba_marseille","lat":43.28921,"lon":5.38413,"is_reserved":false,"is_disabled":false,"rental_uris":{"android":"levelo://app?vid=e5a91d57-d97c-49e2-a4d4-8c1a496db589","ios":"levelo://app?vid=e5a91d57-d97c-49e2-a4d4-8c1a496db589"},"vehicle_type_id":"4","last_reported":1736503827,"current_range_meters":38800,"station_id":"ce4bh612rcd13ifvqe6g","pricing_plan_id":"cebpf4jnsgd1na2vs0mg"},{"bike_id":"7a0a8a69-615c-43f3-a001-073b74f4a57b","system_id":"levelo_inurba_marseille","lat":43.25562,"lon":5.38262,"is_reserved":false,"is_disabled":false,"rental_uris":{"android":"levelo://app?vid=7a0a8a69-615c-43f3-a001-073b74f4a57b","ios":"levelo://app?vid=7a0a8a69-615c-43f3-a001-073b74f4a57b"},"vehicle_type_id":"4","last_reported":1736503827,"current_range_meters":27600,"station_id":"ce4bhih2rcd13ifvqfs0","pricing_plan_id":"cebpf4jnsgd1na2vs0mg"},{"bike_id":"04b99ebe-7927-40e6-9554-a7aa6d8ff5da","system_id":"levelo_inurba_marseille","lat":43.33018,"lon":5.39041,"is_reserved":false,"is_disabled":false,"rental_uris":{"android":"levelo://app?vid=04b99ebe-7927-40e6-9554-a7aa6d8ff5da","ios":"levelo://app?vid=04b99ebe-7927-40e6-9554-a7aa6d8ff5da"},"vehicle_type_id":"4","last_reported":1736503827,"current_range_meters":37600,"station_id":"ce4bhr92rcd13ifvqhrg","pricing_plan_id":"cebpf4jnsgd1na2vs0mg"},{"bike_id":"284e1831-9922-4f3c-809c-0f802c9ef2e6","system_id":"levelo_inurba_marseille","lat":43.29561,"lon":5.42315,"is_reserved":false,"is_disabled":false,"rental_uris":{"android":"levelo://app?vid=284e1831-9922-4f3c-809c-0f802c9ef2e6","ios":"levelo://app?vid=284e1831-9922-4f3c-809c-0f802c9ef2e6"},"vehicle_type_id":"4","last_reported":1736503827,"current_range_meters":16000,"station_id":"ce4bhph2rcd13ifvqhdg","pricing_plan_id":"cebpf4jnsgd1na2vs0mg"},{"bike_id":"ad744619-fbc5-4026-9541-81b1adebd4d3","system_id":"levelo_inurba_marseille","lat":43.26034,"lon":5.37568,"is_reserved":false,"is_disabled":true,"rental_uris":{"android":"levelo://app?vid=ad744619-fbc5-4026-9541-81b1adebd4d3","ios":"levelo://app?vid=ad744619-fbc5-4026-9541-81b1adebd4d3"},"vehicle_type_id":"4","last_reported":1736503827,"current_range_meters":39200,"station_id":"ce4bhgh2rcd13ifvqfa0","pricing_plan_id":"cebpf4jnsgd1na2vs0mg"},{"bike_id":"2b68127b-8c99-46f9-b65f-98bf288dc9b7","system_id":"levelo_inurba_marseille","lat":43.25569,"lon":5.3826,"is_reserved":false,"is_disabled":false,"rental_uris":{"android":"levelo://app?vid=2b68127b-8c99-46f9-b65f-98bf288dc9b7","ios":"levelo://app?vid=2b68127b-8c99-46f9-b65f-98bf288dc9b7"},"vehicle_type_id":"4","last_reported":1736503827,"current_range_meters":7200,"station_id":"ce4bhih2rcd13ifvqfs0","pricing_plan_id":"cebpf4jnsgd1na2vs0mg"},{"bike_id":"c2219de1-8450-4429-a1b1-942afaca0642","system_id":"levelo_inurba_marseille","lat":43.27901,"lon":5.38301,"is_reserved":false,"is_disabled":false,"rental_uris":{"android":"levelo://app?vid=c2219de1-8450-4429-a1b1-942afaca0642","ios":"levelo://app?vid=c2219de1-8450-4429-a1b1-942afaca0642"},"vehicle_type_id":"4","last_reported":1736503827,"current_range_meters":26800,"station_id":"ce4bhg92rcd13ifvqf90","pricing_plan_id":"cebpf4jnsgd1na2vs0mg"},{"bike_id":"8dab9b90-c2e8-427f-9aec-8a3c6b8b8e5c","system_id":"levelo_inurba_marseille","lat":43.29044,"lon":5.39958,"is_reserved":false,"is_disabled":false,"rental_uris":{"android":"levelo://app?vid=8dab9b90-c2e8-427f-9aec-8a3c6b8b8e5c","ios":"levelo://app?vid=8dab9b90-c2e8-427f-9aec-8a3c6b8b8e5c"},"vehicle_type_id":"4","last_reported":1736503827,"current_range_meters":25600,"station_id":"ce4bh392rcd13ifvqdm0","pricing_plan_id":"cebpf4jnsgd1na2vs0mg"},{"bike_id":"a4599fe4-bc70-41e2-812d-fa95e117b801","system_id":"levelo_inurba_marseille","lat":43.2781,"lon":5.40722,"is_reserved":false,"is_disabled":false,"rental_uris":{"android":"levelo://app?vid=a4599fe4-bc70-41e2-812d-fa95e117b801","ios":"levelo://app?vid=a4599fe4-bc70-41e2-812d-fa95e117b801"},"vehicle_type_id":"4","last_reported":1736503827,"current_range_meters":21600,"station_id":"ce4bhnh2rcd13ifvqgtg","pricing_plan_id":"cebpf4jnsgd1na2vs0mg"},{"bike_id":"af5f5815-c481-4410-9936-f2b0c2629cd7","system_id":"levelo_inurba_marseille","lat":43.29369,"lon":5.37852,"is_reserved":false,"is_disabled":false,"rental_uris":{"android":"levelo://app?vid=af5f5815-c481-4410-9936-f2b0c2629cd7","ios":"levelo://app?vid=af5f5815-c481-4410-9936-f2b0c2629cd7"},"vehicle_type_id":"4","last_reported":1736503827,"current_range_meters":26000,"station_id":"ce4bgjh2rcd13ifvqbf0","pricing_plan_id":"cebpf4jnsgd1na2vs0mg"},{"bike_id":"37f9d671-8cf0-4f55-b6f8-808ab130e732","system_id":"levelo_inurba_marseille","lat":43.29628,"lon":5.37713,"is_reserved":false,"is_disabled":false,"rental_uris":{"android":"levelo://app?vid=37f9d671-8cf0-4f55-b6f8-808ab130e732","ios":"levelo://app?vid=37f9d671-8cf0-4f55-b6f8-808ab130e732"},"vehicle_type_id":"4","last_reported":1736503827,"current_range_meters":28400,"station_id":"ce4bgi92rcd13ifvqb90","pricing_plan_id":"cebpf4jnsgd1na2vs0mg"},{"bike_id":"f175c158-7f3d-4b67-b29d-e129d95a0c6c","system_id":"levelo_inurba_marseille","lat":43.29593,"lon":5.38108,"is_reserved":false,"is_disabled":false,"rental_uris":{"android":"levelo://app?vid=f175c158-7f3d-4b67-b29d-e129d95a0c6c","ios":"levelo://app?vid=f175c158-7f3d-4b67-b29d-e129d95a0c6c"},"vehicle_type_id":"4","last_reported":1736503827,"current_range_meters":27200,"station_id":"ce4bgl12rcd13ifvqbo0","pricing_plan_id":"cebpf4jnsgd1na2vs0mg"},{"bike_id":"90f848bc-4c22-4ad2-9bc1-44abbcb37f50","system_id":"levelo_inurba_marseille","lat":43.2903,"lon":5.37568,"is_reserved":false,"is_disabled":false,"rental_uris":{"android":"levelo://app?vid=90f848bc-4c22-4ad2-9bc1-44abbcb37f50","ios":"levelo://app?vid=90f848bc-4c22-4ad2-9bc1-44abbcb37f50"},"vehicle_type_id":"4","last_reported":1736503827,"current_range_meters":31200,"station_id":"ce4bh692rcd13ifvqe90","pricing_plan_id":"cebpf4jnsgd1na2vs0mg"},{"bike_id":"1d04601f-61f4-4c54-b9f6-01fcfddc4c1c","system_id":"levelo_inurba_marseille","lat":43.28145,"lon":5.42636,"is_reserved":false,"is_disabled":false,"rental_uris":{"android":"levelo://app?vid=1d04601f-61f4-4c54-b9f6-01fcfddc4c1c","ios":"levelo://app?vid=1d04601f-61f4-4c54-b9f6-01fcfddc4c1c"},"vehicle_type_id":"4","last_reported":1736503827,"current_range_meters":39200,"station_id":"ce4bhnh2rcd13ifvqgug","pricing_plan_id":"cebpf4jnsgd1na2vs0mg"},{"bike_id":"58880d07-963e-45e8-badc-1426639f6270","system_id":"levelo_inurba_marseille","lat":43.30415,"lon":5.41282,"is_reserved":false,"is_disabled":false,"rental_uris":{"android":"levelo://app?vid=58880d07-963e-45e8-badc-1426639f6270","ios":"levelo://app?vid=58880d07-963e-45e8-badc-1426639f6270"},"vehicle_type_id":"4","last_reported":1736503827,"current_range_meters":23200,"station_id":"ce4bhop2rcd13ifvqh8g","pricing_plan_id":"cebpf4jnsgd1na2vs0mg"},{"bike_id":"78ccac9a-f5e4-490f-841f-cd6ed2c22949","system_id":"levelo_inurba_marseille","lat":43.32533,"lon":5.41497,"is_reserved":false,"is_disabled":false,"rental_uris":{"android":"levelo://app?vid=78ccac9a-f5e4-490f-841f-cd6ed2c22949","ios":"levelo://app?vid=78ccac9a-f5e4-490f-841f-cd6ed2c22949"},"vehicle_type_id":"4","last_reported":1736503827,"current_range_meters":39200,"station_id":"ce4bhq12rcd13ifvqhhg","pricing_plan_id":"cebpf4jnsgd1na2vs0mg"},{"bike_id":"6927f15e-bcac-445c-8616-81dfd2276d30","system_id":"levelo_inurba_marseille","lat":43.27172,"lon":5.41003,"is_reserved":false,"is_disabled":false,"rental_uris":{"android":"levelo://app?vid=6927f15e-bcac-445c-8616-81dfd2276d30","ios":"levelo://app?vid=6927f15e-bcac-445c-8616-81dfd2276d30"},"vehicle_type_id":"4","last_reported":1736503827,"current_range_meters":30000,"station_id":"ce4bhl12rcd13ifvqgf0","pricing_plan_id":"cebpf4jnsgd1na2vs0mg"},{"bike_id":"027fe432-3b5a-481f-a8b1-5512d91abe12","system_id":"levelo_inurba_marseille","lat":43.31689,"lon":5.40464,"is_reserved":false,"is_disabled":true,"rental_uris":{"android":"levelo://app?vid=027fe432-3b5a-481f-a8b1-5512d91abe12","ios":"levelo://app?vid=027fe432-3b5a-481f-a8b1-5512d91abe12"},"vehicle_type_id":"4","last_reported":1736503827,"current_range_meters":0,"station_id":"ce4bh012rcd13ifvqd00","pricing_plan_id":"cebpf4jnsgd1na2vs0mg"},{"bike_id":"9196395b-caa3-4c4e-b20e-5e513ffaa848","system_id":"levelo_inurba_marseille","lat":43.30134,"lon":5.37417,"is_reserved":false,"is_disabled":false,"rental_uris":{"android":"levelo://app?vid=9196395b-caa3-4c4e-b20e-5e513ffaa848","ios":"levelo://app?vid=9196395b-caa3-4c4e-b20e-5e513ffaa848"},"vehicle_type_id":"4","last_reported":1736503827,"current_range_meters":39200,"station_id":"ce4bgs92rcd13ifvqcc0","pricing_plan_id":"cebpf4jnsgd1na2vs0mg"},{"bike_id":"127b6a36-b0a6-44f1-8fd9-e3ebf727897c","system_id":"levelo_inurba_marseille","lat":43.27484,"lon":5.42483,"is_reserved":false,"is_disabled":false,"rental_uris":{"android":"levelo://app?vid=127b6a36-b0a6-44f1-8fd9-e3ebf727897c","ios":"levelo://app?vid=127b6a36-b0a6-44f1-8fd9-e3ebf727897c"},"vehicle_type_id":"4","last_reported":1736503827,"current_range_meters":23200,"station_id":"ce4bhn92rcd13ifvqgrg","pricing_plan_id":"cebpf4jnsgd1na2vs0mg"},{"bike_id":"7e225827-041a-42b6-bee9-05b9aaf89e59","system_id":"levelo_inurba_marseille","lat":43.3254,"lon":5.41454,"is_reserved":false,"is_disabled":true,"rental_uris":{"android":"levelo://app?vid=7e225827-041a-42b6-bee9-05b9aaf89e59","ios":"levelo://app?vid=7e225827-041a-42b6-bee9-05b9aaf89e59"},"vehicle_type_id":"4","last_reported":1736503827,"current_range_meters":39200,"station_id":"ce4bhq12rcd13ifvqhhg","pricing_plan_id":"cebpf4jnsgd1na2vs0mg"},{"bike_id":"dab217a0-b2df-4ca9-a812-c80195b1fbf4","system_id":"levelo_inurba_marseille","lat":43.31329,"lon":5.3674,"is_reserved":false,"is_disabled":false,"rental_uris":{"android":"levelo://app?vid=dab217a0-b2df-4ca9-a812-c80195b1fbf4","ios":"levelo://app?vid=dab217a0-b2df-4ca9-a812-c80195b1fbf4"},"vehicle_type_id":"4","last_reported":1736503827,"current_range_meters":35600,"station_id":"ce4bgr92rcd13ifvqc6g","pricing_plan_id":"cebpf4jnsgd1na2vs0mg"},{"bike_id":"d4b9ec52-492e-41b6-8dae-be3aec56cf81","system_id":"levelo_inurba_marseille","lat":43.28628,"lon":5.35114,"is_reserved":false,"is_disabled":false,"rental_uris":{"android":"levelo://app?vid=d4b9ec52-492e-41b6-8dae-be3aec56cf81","ios":"levelo://app?vid=d4b9ec52-492e-41b6-8dae-be3aec56cf81"},"vehicle_type_id":"4","last_reported":1736503827,"current_range_meters":10800,"station_id":"ce4bhch2rcd13ifvqeug","pricing_plan_id":"cebpf4jnsgd1na2vs0mg"},{"bike_id":"37d8e1ef-d932-49d7-b893-49542cf44d13","system_id":"levelo_inurba_marseille","lat":43.32345,"lon":5.40629,"is_reserved":false,"is_disabled":true,"rental_uris":{"android":"levelo://app?vid=37d8e1ef-d932-49d7-b893-49542cf44d13","ios":"levelo://app?vid=37d8e1ef-d932-49d7-b893-49542cf44d13"},"vehicle_type_id":"4","last_reported":1736503827,"current_range_meters":0,"station_id":"ce4bhq92rcd13ifvqhjg","pricing_plan_id":"cebpf4jnsgd1na2vs0mg"},{"bike_id":"458c3d58-e6a5-4d1a-8df2-05d9cb3e0072","system_id":"levelo_inurba_marseille","lat":43.25561,"lon":5.38243,"is_reserved":false,"is_disabled":false,"rental_uris":{"android":"levelo://app?vid=458c3d58-e6a5-4d1a-8df2-05d9cb3e0072","ios":"levelo://app?vid=458c3d58-e6a5-4d1a-8df2-05d9cb3e0072"},"vehicle_type_id":"4","last_reported":1736503827,"current_range_meters":17200,"station_id":"ce4bhih2rcd13ifvqfs0","pricing_plan_id":"cebpf4jnsgd1na2vs0mg"},{"bike_id":"10f7d31a-ef8d-4e8a-acbf-8aa9a8c72143","system_id":"levelo_inurba_marseille","lat":43.24393,"lon":5.37067,"is_reserved":false,"is_disabled":false,"rental_uris":{"android":"levelo://app?vid=10f7d31a-ef8d-4e8a-acbf-8aa9a8c72143","ios":"levelo://app?vid=10f7d31a-ef8d-4e8a-acbf-8aa9a8c72143"},"vehicle_type_id":"4","last_reported":1736503827,"current_range_meters":24400,"station_id":"ce4bhhh2rcd13ifvqfk0","pricing_plan_id":"cebpf4jnsgd1na2vs0mg"},{"bike_id":"7141829f-44e3-4a22-99fa-1744dc6416f3","system_id":"levelo_inurba_marseille","lat":43.292,"lon":5.39331,"is_reserved":false,"is_disabled":false,"rental_uris":{"android":"levelo://app?vid=7141829f-44e3-4a22-99fa-1744dc6416f3","ios":"levelo://app?vid=7141829f-44e3-4a22-99fa-1744dc6416f3"},"vehicle_type_id":"4","last_reported":1736503827,"current_range_meters":38800,"station_id":"ce4bh192rcd13ifvqdd0","pricing_plan_id":"cebpf4jnsgd1na2vs0mg"},{"bike_id":"26f3a69d-c9fe-49b1-a3fd-c493e367d263","system_id":"levelo_inurba_marseille","lat":43.2835,"lon":5.38111,"is_reserved":false,"is_disabled":false,"rental_uris":{"android":"levelo://app?vid=26f3a69d-c9fe-49b1-a3fd-c493e367d263","ios":"levelo://app?vid=26f3a69d-c9fe-49b1-a3fd-c493e367d263"},"vehicle_type_id":"4","last_reported":1736503827,"current_range_meters":21600,"station_id":"ce4bh412rcd13ifvqdr0","pricing_plan_id":"cebpf4jnsgd1na2vs0mg"},{"bike_id":"a2b8733f-18d3-4c7f-a699-4ad1eee082fe","system_id":"levelo_inurba_marseille","lat":43.3172,"lon":5.42397,"is_reserved":false,"is_disabled":false,"rental_uris":{"android":"levelo://app?vid=a2b8733f-18d3-4c7f-a699-4ad1eee082fe","ios":"levelo://app?vid=a2b8733f-18d3-4c7f-a699-4ad1eee082fe"},"vehicle_type_id":"4","last_reported":1736503827,"current_range_meters":38800,"station_id":"ce4bhp92rcd13ifvqhbg","pricing_plan_id":"cebpf4jnsgd1na2vs0mg"},{"bike_id":"5dec9a86-4547-4207-8ebf-1361e0e301a5","system_id":"levelo_inurba_marseille","lat":43.27488,"lon":5.42473,"is_reserved":false,"is_disabled":false,"rental_uris":{"android":"levelo://app?vid=5dec9a86-4547-4207-8ebf-1361e0e301a5","ios":"levelo://app?vid=5dec9a86-4547-4207-8ebf-1361e0e301a5"},"vehicle_type_id":"4","last_reported":1736503827,"current_range_meters":8400,"station_id":"ce4bhn92rcd13ifvqgrg","pricing_plan_id":"cebpf4jnsgd1na2vs0mg"},{"bike_id":"c0206d3b-e2e9-423c-9056-fc2381d7e8b1","system_id":"levelo_inurba_marseille","lat":43.29592,"lon":5.381,"is_reserved":false,"is_disabled":true,"rental_uris":{"android":"levelo://app?vid=c0206d3b-e2e9-423c-9056-fc2381d7e8b1","ios":"levelo://app?vid=c0206d3b-e2e9-423c-9056-fc2381d7e8b1"},"vehicle_type_id":"4","last_reported":1736503827,"current_range_meters":26800,"station_id":"ce4bgl12rcd13ifvqbo0","pricing_plan_id":"cebpf4jnsgd1na2vs0mg"},{"bike_id":"972bb94f-4946-45b8-9f8f-d0eaa257ba59","system_id":"levelo_inurba_marseille","lat":43.30336,"lon":5.36911,"is_reserved":false,"is_disabled":false,"rental_uris":{"android":"levelo://app?vid=972bb94f-4946-45b8-9f8f-d0eaa257ba59","ios":"levelo://app?vid=972bb94f-4946-45b8-9f8f-d0eaa257ba59"},"vehicle_type_id":"4","last_reported":1736503827,"current_range_meters":38800,"station_id":"ce4bgqh2rcd13ifvqc5g","pricing_plan_id":"cebpf4jnsgd1na2vs0mg"},{"bike_id":"9af8b054-2bb4-408f-a11e-d70174570d56","system_id":"levelo_inurba_marseille","lat":43.27491,"lon":5.42461,"is_reserved":false,"is_disabled":false,"rental_uris":{"android":"levelo://app?vid=9af8b054-2bb4-408f-a11e-d70174570d56","ios":"levelo://app?vid=9af8b054-2bb4-408f-a11e-d70174570d56"},"vehicle_type_id":"4","last_reported":1736503827,"current_range_meters":36400,"station_id":"ce4bhn92rcd13ifvqgrg","pricing_plan_id":"cebpf4jnsgd1na2vs0mg"},{"bike_id":"c150f8af-fc8f-4eb5-ac98-0b06dadf4ce0","system_id":"levelo_inurba_marseille","lat":43.25566,"lon":5.38234,"is_reserved":false,"is_disabled":false,"rental_uris":{"android":"levelo://app?vid=c150f8af-fc8f-4eb5-ac98-0b06dadf4ce0","ios":"levelo://app?vid=c150f8af-fc8f-4eb5-ac98-0b06dadf4ce0"},"vehicle_type_id":"4","last_reported":1736503827,"current_range_meters":34000,"station_id":"ce4bhih2rcd13ifvqfs0","pricing_plan_id":"cebpf4jnsgd1na2vs0mg"},{"bike_id":"ff45e7b0-f7ac-4438-a41c-45b74df8aef7","system_id":"levelo_inurba_marseille","lat":43.28852,"lon":5.39311,"is_reserved":false,"is_disabled":false,"rental_uris":{"android":"levelo://app?vid=ff45e7b0-f7ac-4438-a41c-45b74df8aef7","ios":"levelo://app?vid=ff45e7b0-f7ac-4438-a41c-45b74df8aef7"},"vehicle_type_id":"4","last_reported":1736503827,"current_range_meters":22800,"station_id":"ce4bh2p2rcd13ifvqdi0","pricing_plan_id":"cebpf4jnsgd1na2vs0mg"},{"bike_id":"80e6d864-209b-44fb-bebb-aeae347160a6","system_id":"levelo_inurba_marseille","lat":43.2406,"lon":5.37765,"is_reserved":false,"is_disabled":false,"rental_uris":{"android":"levelo://app?vid=80e6d864-209b-44fb-bebb-aeae347160a6","ios":"levelo://app?vid=80e6d864-209b-44fb-bebb-aeae347160a6"},"vehicle_type_id":"4","last_reported":1736503827,"current_range_meters":24000,"station_id":"ce4bhnp2rcd13ifvqgvg","pricing_plan_id":"cebpf4jnsgd1na2vs0mg"},{"bike_id":"e4a4e065-0de4-4b4a-a84c-e7ac4a96d30b","system_id":"levelo_inurba_marseille","lat":43.26785,"lon":5.39437,"is_reserved":false,"is_disabled":false,"rental_uris":{"android":"levelo://app?vid=e4a4e065-0de4-4b4a-a84c-e7ac4a96d30b","ios":"levelo://app?vid=e4a4e065-0de4-4b4a-a84c-e7ac4a96d30b"},"vehicle_type_id":"4","last_reported":1736503827,"current_range_meters":38000,"station_id":"ce4bhh12rcd13ifvqfg0","pricing_plan_id":"cebpf4jnsgd1na2vs0mg"},{"bike_id":"1a2f0ab1-f66c-49a5-8317-c823c5c59ec8","system_id":"levelo_inurba_marseille","lat":43.28262,"lon":5.35091,"is_reserved":false,"is_disabled":false,"rental_uris":{"android":"levelo://app?vid=1a2f0ab1-f66c-49a5-8317-c823c5c59ec8","ios":"levelo://app?vid=1a2f0ab1-f66c-49a5-8317-c823c5c59ec8"},"vehicle_type_id":"4","last_reported":1736503827,"current_range_meters":39200,"station_id":"ce4bhbp2rcd13ifvqerg","pricing_plan_id":"cebpf4jnsgd1na2vs0mg"},{"bike_id":"60ce1b70-e47d-4caf-abee-52e7d5bfe299","system_id":"levelo_inurba_marseille","lat":43.24646,"lon":5.38909,"is_reserved":false,"is_disabled":false,"rental_uris":{"android":"levelo://app?vid=60ce1b70-e47d-4caf-abee-52e7d5bfe299","ios":"levelo://app?vid=60ce1b70-e47d-4caf-abee-52e7d5bfe299"},"vehicle_type_id":"4","last_reported":1736503827,"current_range_meters":35600,"station_id":"ce4bhg12rcd13ifvqf60","pricing_plan_id":"cebpf4jnsgd1na2vs0mg"},{"bike_id":"372cb971-d9de-46ec-bc7c-25ae9d743356","system_id":"levelo_inurba_marseille","lat":43.24075,"lon":5.37758,"is_reserved":false,"is_disabled":false,"rental_uris":{"android":"levelo://app?vid=372cb971-d9de-46ec-bc7c-25ae9d743356","ios":"levelo://app?vid=372cb971-d9de-46ec-bc7c-25ae9d743356"},"vehicle_type_id":"4","last_reported":1736503827,"current_range_meters":38000,"station_id":"ce4bhnp2rcd13ifvqgvg","pricing_plan_id":"cebpf4jnsgd1na2vs0mg"},{"bike_id":"408554f9-e938-4c8d-b712-51774be7b111","system_id":"levelo_inurba_marseille","lat":43.30551,"lon":5.36523,"is_reserved":false,"is_disabled":false,"rental_uris":{"android":"levelo://app?vid=408554f9-e938-4c8d-b712-51774be7b111","ios":"levelo://app?vid=408554f9-e938-4c8d-b712-51774be7b111"},"vehicle_type_id":"4","last_reported":1736503827,"current_range_meters":39200,"station_id":"ce4bgs12rcd13ifvqcag","pricing_plan_id":"cebpf4jnsgd1na2vs0mg"},{"bike_id":"08caf81c-b258-48c3-aadb-0e8164fd6904","system_id":"levelo_inurba_marseille","lat":43.29089,"lon":5.3815,"is_reserved":false,"is_disabled":false,"rental_uris":{"android":"levelo://app?vid=08caf81c-b258-48c3-aadb-0e8164fd6904","ios":"levelo://app?vid=08caf81c-b258-48c3-aadb-0e8164fd6904"},"vehicle_type_id":"4","last_reported":1736503827,"current_range_meters":29600,"station_id":"ce4bh512rcd13ifvqe2g","pricing_plan_id":"cebpf4jnsgd1na2vs0mg"},{"bike_id":"48998462-e2fe-4046-8dbf-a3db091ad704","system_id":"levelo_inurba_marseille","lat":43.25581,"lon":5.38278,"is_reserved":false,"is_disabled":true,"rental_uris":{"android":"levelo://app?vid=48998462-e2fe-4046-8dbf-a3db091ad704","ios":"levelo://app?vid=48998462-e2fe-4046-8dbf-a3db091ad704"},"vehicle_type_id":"4","last_reported":1736503827,"current_range_meters":24400,"station_id":"ce4bhih2rcd13ifvqfs0","pricing_plan_id":"cebpf4jnsgd1na2vs0mg"},{"bike_id":"cad4a6a5-5208-47dd-a17d-ca38efa63f22","system_id":"levelo_inurba_marseille","lat":43.310605,"lon":5.383524,"is_reserved":false,"is_disabled":true,"rental_uris":{"android":"levelo://app?vid=cad4a6a5-5208-47dd-a17d-ca38efa63f22","ios":"levelo://app?vid=cad4a6a5-5208-47dd-a17d-ca38efa63f22"},"vehicle_type_id":"4","last_reported":1736503827,"current_range_meters":26800,"station_id":"ce4bgv92rcd13ifvqcr0","pricing_plan_id":"cebpf4jnsgd1na2vs0mg"},{"bike_id":"59680959-993e-49d5-827b-d5b17bfefc71","system_id":"levelo_inurba_marseille","lat":43.27838,"lon":5.39211,"is_reserved":false,"is_disabled":true,"rental_uris":{"android":"levelo://app?vid=59680959-993e-49d5-827b-d5b17bfefc71","ios":"levelo://app?vid=59680959-993e-49d5-827b-d5b17bfefc71"},"vehicle_type_id":"4","last_reported":1736503827,"current_range_meters":0,"station_id":"ce4bhjp2rcd13ifvqga0","pricing_plan_id":"cebpf4jnsgd1na2vs0mg"},{"bike_id":"7666c1b3-9780-48bd-be23-de5cae67e9ee","system_id":"levelo_inurba_marseille","lat":43.28146,"lon":5.42638,"is_reserved":false,"is_disabled":false,"rental_uris":{"android":"levelo://app?vid=7666c1b3-9780-48bd-be23-de5cae67e9ee","ios":"levelo://app?vid=7666c1b3-9780-48bd-be23-de5cae67e9ee"},"vehicle_type_id":"4","last_reported":1736503827,"current_range_meters":32800,"station_id":"ce4bhnh2rcd13ifvqgug","pricing_plan_id":"cebpf4jnsgd1na2vs0mg"},{"bike_id":"04c144bb-885d-4367-8bc8-e2ccfca26ca3","system_id":"levelo_inurba_marseille","lat":43.31331,"lon":5.39697,"is_reserved":false,"is_disabled":true,"rental_uris":{"android":"levelo://app?vid=04c144bb-885d-4367-8bc8-e2ccfca26ca3","ios":"levelo://app?vid=04c144bb-885d-4367-8bc8-e2ccfca26ca3"},"vehicle_type_id":"4","last_reported":1736503827,"current_range_meters":26000,"station_id":"ce4bgvp2rcd13ifvqcu0","pricing_plan_id":"cebpf4jnsgd1na2vs0mg"},{"bike_id":"fc1057d4-90a1-4917-8219-50abd6b84da3","system_id":"levelo_inurba_marseille","lat":43.32117,"lon":5.36817,"is_reserved":false,"is_disabled":false,"rental_uris":{"android":"levelo://app?vid=fc1057d4-90a1-4917-8219-50abd6b84da3","ios":"levelo://app?vid=fc1057d4-90a1-4917-8219-50abd6b84da3"},"vehicle_type_id":"4","last_reported":1736503827,"current_range_meters":23200,"station_id":"ce4bhrh2rcd13ifvqhug","pricing_plan_id":"cebpf4jnsgd1na2vs0mg"},{"bike_id":"7134c9bc-ce0f-4887-95b7-d5756f86bc8e","system_id":"levelo_inurba_marseille","lat":43.28342,"lon":5.38112,"is_reserved":false,"is_disabled":true,"rental_uris":{"android":"levelo://app?vid=7134c9bc-ce0f-4887-95b7-d5756f86bc8e","ios":"levelo://app?vid=7134c9bc-ce0f-4887-95b7-d5756f86bc8e"},"vehicle_type_id":"4","last_reported":1736503827,"current_range_meters":38800,"station_id":"ce4bh412rcd13ifvqdr0","pricing_plan_id":"cebpf4jnsgd1na2vs0mg"},{"bike_id":"aa637afa-5dab-4e4f-a5b1-a846e41a59b6","system_id":"levelo_inurba_marseille","lat":43.24081,"lon":5.3773,"is_reserved":false,"is_disabled":false,"rental_uris":{"android":"levelo://app?vid=aa637afa-5dab-4e4f-a5b1-a846e41a59b6","ios":"levelo://app?vid=aa637afa-5dab-4e4f-a5b1-a846e41a59b6"},"vehicle_type_id":"4","last_reported":1736503827,"current_range_meters":38800,"station_id":"ce4bhnp2rcd13ifvqgvg","pricing_plan_id":"cebpf4jnsgd1na2vs0mg"},{"bike_id":"7475f743-fa68-4b23-ab37-60e01b01184f","system_id":"levelo_inurba_marseille","lat":43.32102,"lon":5.36785,"is_reserved":false,"is_disabled":false,"rental_uris":{"android":"levelo://app?vid=7475f743-fa68-4b23-ab37-60e01b01184f","ios":"levelo://app?vid=7475f743-fa68-4b23-ab37-60e01b01184f"},"vehicle_type_id":"4","last_reported":1736503827,"current_range_meters":32400,"station_id":"ce4bhrh2rcd13ifvqhug","pricing_plan_id":"cebpf4jnsgd1na2vs0mg"},{"bike_id":"e0a4dae8-888a-40c8-b265-39af7fe412bd","system_id":"levelo_inurba_marseille","lat":43.26688,"lon":5.38276,"is_reserved":false,"is_disabled":false,"rental_uris":{"android":"levelo://app?vid=e0a4dae8-888a-40c8-b265-39af7fe412bd","ios":"levelo://app?vid=e0a4dae8-888a-40c8-b265-39af7fe412bd"},"vehicle_type_id":"4","last_reported":1736503827,"current_range_meters":38800,"station_id":"ce4bhg92rcd13ifvqf90","pricing_plan_id":"cebpf4jnsgd1na2vs0mg"},{"bike_id":"1407da9c-02c1-4c9d-80ff-4de2c304cf82","system_id":"levelo_inurba_marseille","lat":43.29089,"lon":5.38126,"is_reserved":false,"is_disabled":false,"rental_uris":{"android":"levelo://app?vid=1407da9c-02c1-4c9d-80ff-4de2c304cf82","ios":"levelo://app?vid=1407da9c-02c1-4c9d-80ff-4de2c304cf82"},"vehicle_type_id":"4","last_reported":1736503827,"current_range_meters":19200,"station_id":"ce4bh512rcd13ifvqe2g","pricing_plan_id":"cebpf4jnsgd1na2vs0mg"},{"bike_id":"4e415297-1651-4007-b5da-4923f3ed2b98","system_id":"levelo_inurba_marseille","lat":43.30156,"lon":5.38074,"is_reserved":false,"is_disabled":false,"rental_uris":{"android":"levelo://app?vid=4e415297-1651-4007-b5da-4923f3ed2b98","ios":"levelo://app?vid=4e415297-1651-4007-b5da-4923f3ed2b98"},"vehicle_type_id":"4","last_reported":1736503827,"current_range_meters":26000,"station_id":"ce4bgjp2rcd13ifvqbh0","pricing_plan_id":"cebpf4jnsgd1na2vs0mg"},{"bike_id":"692ef622-3431-4570-a237-38f78790f257","system_id":"levelo_inurba_marseille","lat":43.28418,"lon":5.39227,"is_reserved":false,"is_disabled":false,"rental_uris":{"android":"levelo://app?vid=692ef622-3431-4570-a237-38f78790f257","ios":"levelo://app?vid=692ef622-3431-4570-a237-38f78790f257"},"vehicle_type_id":"4","last_reported":1736503827,"current_range_meters":38400,"station_id":"ce4bhoh2rcd13ifvqh5g","pricing_plan_id":"cebpf4jnsgd1na2vs0mg"},{"bike_id":"c3a2f09c-d3a8-4ddb-8eb5-763eb0fb6e44","system_id":"levelo_inurba_marseille","lat":43.3205,"lon":5.41581,"is_reserved":false,"is_disabled":false,"rental_uris":{"android":"levelo://app?vid=c3a2f09c-d3a8-4ddb-8eb5-763eb0fb6e44","ios":"levelo://app?vid=c3a2f09c-d3a8-4ddb-8eb5-763eb0fb6e44"},"vehicle_type_id":"4","last_reported":1736503827,"current_range_meters":37600,"station_id":"ce4bhq92rcd13ifvqhkg","pricing_plan_id":"cebpf4jnsgd1na2vs0mg"},{"bike_id":"3d97d3e0-d45c-47c2-9a56-3b2182dc5b15","system_id":"levelo_inurba_marseille","lat":43.27931,"lon":5.38701,"is_reserved":false,"is_disabled":true,"rental_uris":{"android":"levelo://app?vid=3d97d3e0-d45c-47c2-9a56-3b2182dc5b15","ios":"levelo://app?vid=3d97d3e0-d45c-47c2-9a56-3b2182dc5b15"},"vehicle_type_id":"4","last_reported":1736503827,"current_range_meters":0,"station_id":"","pricing_plan_id":"cebpf4jnsgd1na2vs0mg"},{"bike_id":"c917a299-72e2-4ca0-85ea-c83ac620306b","system_id":"levelo_inurba_marseille","lat":43.29587,"lon":5.38116,"is_reserved":false,"is_disabled":false,"rental_uris":{"android":"levelo://app?vid=c917a299-72e2-4ca0-85ea-c83ac620306b","ios":"levelo://app?vid=c917a299-72e2-4ca0-85ea-c83ac620306b"},"vehicle_type_id":"4","last_reported":1736503827,"current_range_meters":38000,"station_id":"ce4bgl12rcd13ifvqbo0","pricing_plan_id":"cebpf4jnsgd1na2vs0mg"},{"bike_id":"27e1f265-d830-49cc-883b-c05527bae5b5","system_id":"levelo_inurba_marseille","lat":43.29091,"lon":5.38152,"is_reserved":false,"is_disabled":false,"rental_uris":{"android":"levelo://app?vid=27e1f265-d830-49cc-883b-c05527bae5b5","ios":"levelo://app?vid=27e1f265-d830-49cc-883b-c05527bae5b5"},"vehicle_type_id":"4","last_reported":1736503827,"current_range_meters":22000,"station_id":"ce4bh512rcd13ifvqe2g","pricing_plan_id":"cebpf4jnsgd1na2vs0mg"},{"bike_id":"94660457-dd96-477b-878e-e5dc489ef763","system_id":"levelo_inurba_marseille","lat":43.2803,"lon":5.36944,"is_reserved":false,"is_disabled":false,"rental_uris":{"android":"levelo://app?vid=94660457-dd96-477b-878e-e5dc489ef763","ios":"levelo://app?vid=94660457-dd96-477b-878e-e5dc489ef763"},"vehicle_type_id":"4","last_reported":1736503827,"current_range_meters":37600,"station_id":"ce4bha12rcd13ifvqef0","pricing_plan_id":"cebpf4jnsgd1na2vs0mg"},{"bike_id":"87ce24d1-2898-442b-8045-27ec953b3ea6","system_id":"levelo_inurba_marseille","lat":43.33589,"lon":5.41017,"is_reserved":false,"is_disabled":false,"rental_uris":{"android":"levelo://app?vid=87ce24d1-2898-442b-8045-27ec953b3ea6","ios":"levelo://app?vid=87ce24d1-2898-442b-8045-27ec953b3ea6"},"vehicle_type_id":"4","last_reported":1736503827,"current_range_meters":38800,"station_id":"ce4bhqh2rcd13ifvqhmg","pricing_plan_id":"cebpf4jnsgd1na2vs0mg"},{"bike_id":"2eb264c8-1e8d-4f17-a831-3cda07857865","system_id":"levelo_inurba_marseille","lat":43.32101,"lon":5.36815,"is_reserved":false,"is_disabled":false,"rental_uris":{"android":"levelo://app?vid=2eb264c8-1e8d-4f17-a831-3cda07857865","ios":"levelo://app?vid=2eb264c8-1e8d-4f17-a831-3cda07857865"},"vehicle_type_id":"4","last_reported":1736503827,"current_range_meters":35200,"station_id":"ce4bhrh2rcd13ifvqhug","pricing_plan_id":"cebpf4jnsgd1na2vs0mg"},{"bike_id":"5d80a2ab-6d63-4fbc-8156-51c2f4949780","system_id":"levelo_inurba_marseille","lat":43.27489,"lon":5.42467,"is_reserved":false,"is_disabled":false,"rental_uris":{"android":"levelo://app?vid=5d80a2ab-6d63-4fbc-8156-51c2f4949780","ios":"levelo://app?vid=5d80a2ab-6d63-4fbc-8156-51c2f4949780"},"vehicle_type_id":"4","last_reported":1736503827,"current_range_meters":27200,"station_id":"ce4bhn92rcd13ifvqgrg","pricing_plan_id":"cebpf4jnsgd1na2vs0mg"},{"bike_id":"adc17e05-7909-4569-9e19-b9bf424fd492","system_id":"levelo_inurba_marseille","lat":43.27211,"lon":5.39187,"is_reserved":false,"is_disabled":false,"rental_uris":{"android":"levelo://app?vid=adc17e05-7909-4569-9e19-b9bf424fd492","ios":"levelo://app?vid=adc17e05-7909-4569-9e19-b9bf424fd492"},"vehicle_type_id":"4","last_reported":1736503827,"current_range_meters":38800,"station_id":"ce4bhhp2rcd13ifvqfm0","pricing_plan_id":"cebpf4jnsgd1na2vs0mg"},{"bike_id":"1e2223a2-c032-49e7-8dbf-982df86a0520","system_id":"levelo_inurba_marseille","lat":43.229204,"lon":5.353736,"is_reserved":false,"is_disabled":false,"rental_uris":{"android":"levelo://app?vid=1e2223a2-c032-49e7-8dbf-982df86a0520","ios":"levelo://app?vid=1e2223a2-c032-49e7-8dbf-982df86a0520"},"vehicle_type_id":"4","last_reported":1736503827,"current_range_meters":32800,"station_id":"cpo3532slgdg3j2ikp40","pricing_plan_id":"cebpf4jnsgd1na2vs0mg"},{"bike_id":"516e9715-133a-4086-b6d0-e34bb3126b22","system_id":"levelo_inurba_marseille","lat":43.28925,"lon":5.38408,"is_reserved":false,"is_disabled":false,"rental_uris":{"android":"levelo://app?vid=516e9715-133a-4086-b6d0-e34bb3126b22","ios":"levelo://app?vid=516e9715-133a-4086-b6d0-e34bb3126b22"},"vehicle_type_id":"4","last_reported":1736503827,"current_range_meters":37600,"station_id":"ce4bh612rcd13ifvqe6g","pricing_plan_id":"cebpf4jnsgd1na2vs0mg"},{"bike_id":"f7932592-a06b-4309-baf7-5c49b119fc47","system_id":"levelo_inurba_marseille","lat":43.24661,"lon":5.3817,"is_reserved":false,"is_disabled":false,"rental_uris":{"android":"levelo://app?vid=f7932592-a06b-4309-baf7-5c49b119fc47","ios":"levelo://app?vid=f7932592-a06b-4309-baf7-5c49b119fc47"},"vehicle_type_id":"4","last_reported":1736503827,"current_range_meters":37600,"station_id":"ce4bhih2rcd13ifvqfr0","pricing_plan_id":"cebpf4jnsgd1na2vs0mg"},{"bike_id":"be8a233f-ad85-41b2-af03-bfa1e3033438","system_id":"levelo_inurba_marseille","lat":43.23198,"lon":5.35557,"is_reserved":false,"is_disabled":false,"rental_uris":{"android":"levelo://app?vid=be8a233f-ad85-41b2-af03-bfa1e3033438","ios":"levelo://app?vid=be8a233f-ad85-41b2-af03-bfa1e3033438"},"vehicle_type_id":"4","last_reported":1736503827,"current_range_meters":24800,"station_id":"ce4bhu92rcd13ifvqi70","pricing_plan_id":"cebpf4jnsgd1na2vs0mg"},{"bike_id":"f9be29ca-298b-4dea-866b-d3cd473f9062","system_id":"levelo_inurba_marseille","lat":43.30483,"lon":5.37909,"is_reserved":false,"is_disabled":false,"rental_uris":{"android":"levelo://app?vid=f9be29ca-298b-4dea-866b-d3cd473f9062","ios":"levelo://app?vid=f9be29ca-298b-4dea-866b-d3cd473f9062"},"vehicle_type_id":"4","last_reported":1736503827,"current_range_meters":38800,"station_id":"ce4bgup2rcd13ifvqcn0","pricing_plan_id":"cebpf4jnsgd1na2vs0mg"},{"bike_id":"093d9ce3-4d12-4d1d-bdcc-8d78ef369464","system_id":"levelo_inurba_marseille","lat":43.29261,"lon":5.4091,"is_reserved":false,"is_disabled":false,"rental_uris":{"android":"levelo://app?vid=093d9ce3-4d12-4d1d-bdcc-8d78ef369464","ios":"levelo://app?vid=093d9ce3-4d12-4d1d-bdcc-8d78ef369464"},"vehicle_type_id":"4","last_reported":1736503827,"current_range_meters":17200,"station_id":"ce4bh192rcd13ifvqdc0","pricing_plan_id":"cebpf4jnsgd1na2vs0mg"},{"bike_id":"75db89fd-d28c-4f93-a463-c9ba0a1d2cd5","system_id":"levelo_inurba_marseille","lat":43.30533,"lon":5.38433,"is_reserved":false,"is_disabled":false,"rental_uris":{"android":"levelo://app?vid=75db89fd-d28c-4f93-a463-c9ba0a1d2cd5","ios":"levelo://app?vid=75db89fd-d28c-4f93-a463-c9ba0a1d2cd5"},"vehicle_type_id":"4","last_reported":1736503827,"current_range_meters":38000,"station_id":"ce4bgg92rcd13ifvqb30","pricing_plan_id":"cebpf4jnsgd1na2vs0mg"},{"bike_id":"a67ae84a-0c24-431f-a673-452f4927377e","system_id":"levelo_inurba_marseille","lat":43.24172,"lon":5.39741,"is_reserved":false,"is_disabled":false,"rental_uris":{"android":"levelo://app?vid=a67ae84a-0c24-431f-a673-452f4927377e","ios":"levelo://app?vid=a67ae84a-0c24-431f-a673-452f4927377e"},"vehicle_type_id":"4","last_reported":1736503827,"current_range_meters":34800,"station_id":"ce4bhn12rcd13ifvqgpg","pricing_plan_id":"cebpf4jnsgd1na2vs0mg"},{"bike_id":"5d3bf06a-a6f7-4641-af93-d780e27467b6","system_id":"levelo_inurba_marseille","lat":43.30813,"lon":5.38165,"is_reserved":false,"is_disabled":true,"rental_uris":{"android":"levelo://app?vid=5d3bf06a-a6f7-4641-af93-d780e27467b6","ios":"levelo://app?vid=5d3bf06a-a6f7-4641-af93-d780e27467b6"},"vehicle_type_id":"4","last_reported":1736503827,"current_range_meters":32400,"station_id":"ce4bgt12rcd13ifvqce0","pricing_plan_id":"cebpf4jnsgd1na2vs0mg"},{"bike_id":"7c6b4ab8-094c-4fb3-b826-f64ede01dc18","system_id":"levelo_inurba_marseille","lat":43.29315,"lon":5.37168,"is_reserved":false,"is_disabled":false,"rental_uris":{"android":"levelo://app?vid=7c6b4ab8-094c-4fb3-b826-f64ede01dc18","ios":"levelo://app?vid=7c6b4ab8-094c-4fb3-b826-f64ede01dc18"},"vehicle_type_id":"4","last_reported":1736503827,"current_range_meters":33200,"station_id":"ce4bgh92rcd13ifvqb40","pricing_plan_id":"cebpf4jnsgd1na2vs0mg"},{"bike_id":"d12dfc13-6be7-4c83-8f24-c4bc7182f2d5","system_id":"levelo_inurba_marseille","lat":43.24074,"lon":5.37762,"is_reserved":false,"is_disabled":false,"rental_uris":{"android":"levelo://app?vid=d12dfc13-6be7-4c83-8f24-c4bc7182f2d5","ios":"levelo://app?vid=d12dfc13-6be7-4c83-8f24-c4bc7182f2d5"},"vehicle_type_id":"4","last_reported":1736503827,"current_range_meters":17200,"station_id":"ce4bhnp2rcd13ifvqgvg","pricing_plan_id":"cebpf4jnsgd1na2vs0mg"},{"bike_id":"7863d40f-5fee-4d3d-ba6f-99d8c77e1e5e","system_id":"levelo_inurba_marseille","lat":43.27482,"lon":5.42466,"is_reserved":false,"is_disabled":false,"rental_uris":{"android":"levelo://app?vid=7863d40f-5fee-4d3d-ba6f-99d8c77e1e5e","ios":"levelo://app?vid=7863d40f-5fee-4d3d-ba6f-99d8c77e1e5e"},"vehicle_type_id":"4","last_reported":1736503827,"current_range_meters":16000,"station_id":"ce4bhn92rcd13ifvqgrg","pricing_plan_id":"cebpf4jnsgd1na2vs0mg"},{"bike_id":"0751221b-37bf-4486-a78f-e3467767c553","system_id":"levelo_inurba_marseille","lat":43.2558,"lon":5.38242,"is_reserved":false,"is_disabled":false,"rental_uris":{"android":"levelo://app?vid=0751221b-37bf-4486-a78f-e3467767c553","ios":"levelo://app?vid=0751221b-37bf-4486-a78f-e3467767c553"},"vehicle_type_id":"4","last_reported":1736503827,"current_range_meters":34000,"station_id":"ce4bhih2rcd13ifvqfs0","pricing_plan_id":"cebpf4jnsgd1na2vs0mg"},{"bike_id":"fd1791cc-d513-46aa-86f5-45066a889da9","system_id":"levelo_inurba_marseille","lat":43.31714,"lon":5.4242,"is_reserved":false,"is_disabled":false,"rental_uris":{"android":"levelo://app?vid=fd1791cc-d513-46aa-86f5-45066a889da9","ios":"levelo://app?vid=fd1791cc-d513-46aa-86f5-45066a889da9"},"vehicle_type_id":"4","last_reported":1736503827,"current_range_meters":35600,"station_id":"ce4bhp92rcd13ifvqhbg","pricing_plan_id":"cebpf4jnsgd1na2vs0mg"},{"bike_id":"ce2cca2d-f10c-4078-a6c6-e3331fe38940","system_id":"levelo_inurba_marseille","lat":43.301316,"lon":5.387842,"is_reserved":false,"is_disabled":true,"rental_uris":{"android":"levelo://app?vid=ce2cca2d-f10c-4078-a6c6-e3331fe38940","ios":"levelo://app?vid=ce2cca2d-f10c-4078-a6c6-e3331fe38940"},"vehicle_type_id":"4","last_reported":1736503827,"current_range_meters":38000,"station_id":"ce4bghh2rcd13ifvqb60","pricing_plan_id":"cebpf4jnsgd1na2vs0mg"},{"bike_id":"6833bac2-c4c5-4360-87b2-485b3baf3cd8","system_id":"levelo_inurba_marseille","lat":43.30129,"lon":5.38803,"is_reserved":false,"is_disabled":false,"rental_uris":{"android":"levelo://app?vid=6833bac2-c4c5-4360-87b2-485b3baf3cd8","ios":"levelo://app?vid=6833bac2-c4c5-4360-87b2-485b3baf3cd8"},"vehicle_type_id":"4","last_reported":1736503827,"current_range_meters":28800,"station_id":"ce4bghh2rcd13ifvqb60","pricing_plan_id":"cebpf4jnsgd1na2vs0mg"},{"bike_id":"fc9288ed-9da0-4c7f-9aba-d64070cdbf51","system_id":"levelo_inurba_marseille","lat":43.23098,"lon":5.43709,"is_reserved":false,"is_disabled":false,"rental_uris":{"android":"levelo://app?vid=fc9288ed-9da0-4c7f-9aba-d64070cdbf51","ios":"levelo://app?vid=fc9288ed-9da0-4c7f-9aba-d64070cdbf51"},"vehicle_type_id":"4","last_reported":1736503827,"current_range_meters":38000,"station_id":"ce4bhmp2rcd13ifvqgog","pricing_plan_id":"cebpf4jnsgd1na2vs0mg"},{"bike_id":"8a6f4d7f-46c0-49d2-bc52-16be49ce98d5","system_id":"levelo_inurba_marseille","lat":43.26952,"lon":5.38627,"is_reserved":false,"is_disabled":false,"rental_uris":{"android":"levelo://app?vid=8a6f4d7f-46c0-49d2-bc52-16be49ce98d5","ios":"levelo://app?vid=8a6f4d7f-46c0-49d2-bc52-16be49ce98d5"},"vehicle_type_id":"4","last_reported":1736503827,"current_range_meters":22400,"station_id":"ce4bhh92rcd13ifvqfh0","pricing_plan_id":"cebpf4jnsgd1na2vs0mg"},{"bike_id":"ad28bd53-1c8c-44ea-9a1c-1e5a5b2498fe","system_id":"levelo_inurba_marseille","lat":43.241658,"lon":5.364049,"is_reserved":false,"is_disabled":false,"rental_uris":{"android":"levelo://app?vid=ad28bd53-1c8c-44ea-9a1c-1e5a5b2498fe","ios":"levelo://app?vid=ad28bd53-1c8c-44ea-9a1c-1e5a5b2498fe"},"vehicle_type_id":"4","last_reported":1736503827,"current_range_meters":10800,"station_id":"cpo36qri1sfpv3e86is0","pricing_plan_id":"cebpf4jnsgd1na2vs0mg"},{"bike_id":"b38a53f9-6248-4b15-a499-839ea68fbaa0","system_id":"levelo_inurba_marseille","lat":43.313643,"lon":5.384977,"is_reserved":false,"is_disabled":false,"rental_uris":{"android":"levelo://app?vid=b38a53f9-6248-4b15-a499-839ea68fbaa0","ios":"levelo://app?vid=b38a53f9-6248-4b15-a499-839ea68fbaa0"},"vehicle_type_id":"4","last_reported":1736503827,"current_range_meters":38400,"station_id":"ce4bgt92rcd13ifvqcf0","pricing_plan_id":"cebpf4jnsgd1na2vs0mg"},{"bike_id":"ed5f8f9c-24db-4495-ba73-b7cea4b154a2","system_id":"levelo_inurba_marseille","lat":43.24074,"lon":5.37737,"is_reserved":false,"is_disabled":false,"rental_uris":{"android":"levelo://app?vid=ed5f8f9c-24db-4495-ba73-b7cea4b154a2","ios":"levelo://app?vid=ed5f8f9c-24db-4495-ba73-b7cea4b154a2"},"vehicle_type_id":"4","last_reported":1736503827,"current_range_meters":38800,"station_id":"ce4bhnp2rcd13ifvqgvg","pricing_plan_id":"cebpf4jnsgd1na2vs0mg"},{"bike_id":"2977f7ec-ec99-4512-b3ae-53609de4f979","system_id":"levelo_inurba_marseille","lat":43.30888,"lon":5.37195,"is_reserved":false,"is_disabled":false,"rental_uris":{"android":"levelo://app?vid=2977f7ec-ec99-4512-b3ae-53609de4f979","ios":"levelo://app?vid=2977f7ec-ec99-4512-b3ae-53609de4f979"},"vehicle_type_id":"4","last_reported":1736503827,"current_range_meters":38400,"station_id":"ce4bguh2rcd13ifvqckg","pricing_plan_id":"cebpf4jnsgd1na2vs0mg"},{"bike_id":"06bc23f9-1449-4ecb-8815-1bd5e784d3da","system_id":"levelo_inurba_marseille","lat":43.30145,"lon":5.38085,"is_reserved":false,"is_disabled":false,"rental_uris":{"android":"levelo://app?vid=06bc23f9-1449-4ecb-8815-1bd5e784d3da","ios":"levelo://app?vid=06bc23f9-1449-4ecb-8815-1bd5e784d3da"},"vehicle_type_id":"4","last_reported":1736503827,"current_range_meters":38800,"station_id":"ce4bgjp2rcd13ifvqbh0","pricing_plan_id":"cebpf4jnsgd1na2vs0mg"},{"bike_id":"e3dc1723-c304-42fb-b1ea-ebc3611aa765","system_id":"levelo_inurba_marseille","lat":43.259323,"lon":5.408983,"is_reserved":false,"is_disabled":false,"rental_uris":{"android":"levelo://app?vid=e3dc1723-c304-42fb-b1ea-ebc3611aa765","ios":"levelo://app?vid=e3dc1723-c304-42fb-b1ea-ebc3611aa765"},"vehicle_type_id":"4","last_reported":1736503827,"current_range_meters":38400,"station_id":"ce4bhm92rcd13ifvqglg","pricing_plan_id":"cebpf4jnsgd1na2vs0mg"},{"bike_id":"7cc324a9-304a-4a9d-933c-9a915149f8fc","system_id":"levelo_inurba_marseille","lat":43.26684,"lon":5.382743,"is_reserved":false,"is_disabled":true,"rental_uris":{"android":"levelo://app?vid=7cc324a9-304a-4a9d-933c-9a915149f8fc","ios":"levelo://app?vid=7cc324a9-304a-4a9d-933c-9a915149f8fc"},"vehicle_type_id":"4","last_reported":1736503827,"current_range_meters":38000,"station_id":"ce4bhg92rcd13ifvqf90","pricing_plan_id":"cebpf4jnsgd1na2vs0mg"},{"bike_id":"0ef5788c-699c-45e4-8754-99ac79e4cfe6","system_id":"levelo_inurba_marseille","lat":43.26678,"lon":5.38262,"is_reserved":false,"is_disabled":false,"rental_uris":{"android":"levelo://app?vid=0ef5788c-699c-45e4-8754-99ac79e4cfe6","ios":"levelo://app?vid=0ef5788c-699c-45e4-8754-99ac79e4cfe6"},"vehicle_type_id":"4","last_reported":1736503827,"current_range_meters":39200,"station_id":"ce4bhg92rcd13ifvqf90","pricing_plan_id":"cebpf4jnsgd1na2vs0mg"},{"bike_id":"b8acbba0-a715-4ced-a2aa-0517db10ac9d","system_id":"levelo_inurba_marseille","lat":43.22909,"lon":5.35425,"is_reserved":false,"is_disabled":false,"rental_uris":{"android":"levelo://app?vid=b8acbba0-a715-4ced-a2aa-0517db10ac9d","ios":"levelo://app?vid=b8acbba0-a715-4ced-a2aa-0517db10ac9d"},"vehicle_type_id":"4","last_reported":1736503827,"current_range_meters":8400,"station_id":"cpo3532slgdg3j2ikp40","pricing_plan_id":"cebpf4jnsgd1na2vs0mg"},{"bike_id":"2a3efb1c-c0c4-4c1f-99cc-ca586bc96ba2","system_id":"levelo_inurba_marseille","lat":43.28467,"lon":5.38433,"is_reserved":false,"is_disabled":false,"rental_uris":{"android":"levelo://app?vid=2a3efb1c-c0c4-4c1f-99cc-ca586bc96ba2","ios":"levelo://app?vid=2a3efb1c-c0c4-4c1f-99cc-ca586bc96ba2"},"vehicle_type_id":"4","last_reported":1736503827,"current_range_meters":20800,"station_id":"ce4bh512rcd13ifvqe3g","pricing_plan_id":"cebpf4jnsgd1na2vs0mg"},{"bike_id":"5a173ea0-4611-4766-882b-d81deb475ed2","system_id":"levelo_inurba_marseille","lat":43.24061,"lon":5.37735,"is_reserved":false,"is_disabled":false,"rental_uris":{"android":"levelo://app?vid=5a173ea0-4611-4766-882b-d81deb475ed2","ios":"levelo://app?vid=5a173ea0-4611-4766-882b-d81deb475ed2"},"vehicle_type_id":"4","last_reported":1736503827,"current_range_meters":38800,"station_id":"ce4bhnp2rcd13ifvqgvg","pricing_plan_id":"cebpf4jnsgd1na2vs0mg"},{"bike_id":"e97b87a7-cef3-46f7-bcb4-b77ff7e634a9","system_id":"levelo_inurba_marseille","lat":43.28972,"lon":5.37842,"is_reserved":false,"is_disabled":false,"rental_uris":{"android":"levelo://app?vid=e97b87a7-cef3-46f7-bcb4-b77ff7e634a9","ios":"levelo://app?vid=e97b87a7-cef3-46f7-bcb4-b77ff7e634a9"},"vehicle_type_id":"4","last_reported":1736503827,"current_range_meters":31200,"station_id":"ce4bh9p2rcd13ifvqed0","pricing_plan_id":"cebpf4jnsgd1na2vs0mg"},{"bike_id":"62f87a94-556e-4521-8c9a-cb113eefc874","system_id":"levelo_inurba_marseille","lat":43.2893,"lon":5.38409,"is_reserved":false,"is_disabled":true,"rental_uris":{"android":"levelo://app?vid=62f87a94-556e-4521-8c9a-cb113eefc874","ios":"levelo://app?vid=62f87a94-556e-4521-8c9a-cb113eefc874"},"vehicle_type_id":"4","last_reported":1736503827,"current_range_meters":2000,"station_id":"ce4bh612rcd13ifvqe6g","pricing_plan_id":"cebpf4jnsgd1na2vs0mg"},{"bike_id":"ad113f76-a766-497a-90be-d1902352af36","system_id":"levelo_inurba_marseille","lat":43.3209,"lon":5.36803,"is_reserved":false,"is_disabled":false,"rental_uris":{"android":"levelo://app?vid=ad113f76-a766-497a-90be-d1902352af36","ios":"levelo://app?vid=ad113f76-a766-497a-90be-d1902352af36"},"vehicle_type_id":"4","last_reported":1736503827,"current_range_meters":38800,"station_id":"ce4bhrh2rcd13ifvqhug","pricing_plan_id":"cebpf4jnsgd1na2vs0mg"},{"bike_id":"9f45806b-0439-44e8-9147-35b59088d5f3","system_id":"levelo_inurba_marseille","lat":43.24159,"lon":5.36429,"is_reserved":false,"is_disabled":false,"rental_uris":{"android":"levelo://app?vid=9f45806b-0439-44e8-9147-35b59088d5f3","ios":"levelo://app?vid=9f45806b-0439-44e8-9147-35b59088d5f3"},"vehicle_type_id":"4","last_reported":1736503827,"current_range_meters":14800,"station_id":"cpo36qri1sfpv3e86is0","pricing_plan_id":"cebpf4jnsgd1na2vs0mg"},{"bike_id":"296554a1-3d2b-425a-9c24-6483df5ac9bc","system_id":"levelo_inurba_marseille","lat":43.313505,"lon":5.367132,"is_reserved":false,"is_disabled":false,"rental_uris":{"android":"levelo://app?vid=296554a1-3d2b-425a-9c24-6483df5ac9bc","ios":"levelo://app?vid=296554a1-3d2b-425a-9c24-6483df5ac9bc"},"vehicle_type_id":"4","last_reported":1736503827,"current_range_meters":38800,"station_id":"ce4bgr92rcd13ifvqc6g","pricing_plan_id":"cebpf4jnsgd1na2vs0mg"},{"bike_id":"db8e86df-fc2b-41ae-872a-4395f6011084","system_id":"levelo_inurba_marseille","lat":43.29922,"lon":5.36548,"is_reserved":false,"is_disabled":false,"rental_uris":{"android":"levelo://app?vid=db8e86df-fc2b-41ae-872a-4395f6011084","ios":"levelo://app?vid=db8e86df-fc2b-41ae-872a-4395f6011084"},"vehicle_type_id":"4","last_reported":1736503827,"current_range_meters":32800,"station_id":"ce4bgm92rcd13ifvqbr0","pricing_plan_id":"cebpf4jnsgd1na2vs0mg"},{"bike_id":"3d6648c7-3598-40a4-b4d3-b049bf073b48","system_id":"levelo_inurba_marseille","lat":43.29404,"lon":5.3861,"is_reserved":false,"is_disabled":true,"rental_uris":{"android":"levelo://app?vid=3d6648c7-3598-40a4-b4d3-b049bf073b48","ios":"levelo://app?vid=3d6648c7-3598-40a4-b4d3-b049bf073b48"},"vehicle_type_id":"4","last_reported":1736503827,"current_range_meters":0,"station_id":"ce4bh2h2rcd13ifvqdh0","pricing_plan_id":"cebpf4jnsgd1na2vs0mg"},{"bike_id":"07ccab10-cdda-4c0b-bba3-cb0e1013117c","system_id":"levelo_inurba_marseille","lat":43.29782,"lon":5.39355,"is_reserved":false,"is_disabled":true,"rental_uris":{"android":"levelo://app?vid=07ccab10-cdda-4c0b-bba3-cb0e1013117c","ios":"levelo://app?vid=07ccab10-cdda-4c0b-bba3-cb0e1013117c"},"vehicle_type_id":"4","last_reported":1736503827,"current_range_meters":7200,"station_id":"chh1huq6cuj3fo74tm60","pricing_plan_id":"cebpf4jnsgd1na2vs0mg"},{"bike_id":"9c7d5a7e-8722-46bf-8653-e47a9599fdf4","system_id":"levelo_inurba_marseille","lat":43.30462,"lon":5.37924,"is_reserved":false,"is_disabled":false,"rental_uris":{"android":"levelo://app?vid=9c7d5a7e-8722-46bf-8653-e47a9599fdf4","ios":"levelo://app?vid=9c7d5a7e-8722-46bf-8653-e47a9599fdf4"},"vehicle_type_id":"4","last_reported":1736503827,"current_range_meters":30800,"station_id":"ce4bgup2rcd13ifvqcn0","pricing_plan_id":"cebpf4jnsgd1na2vs0mg"},{"bike_id":"2e1284ec-d56b-48ae-ba56-020977cf22b6","system_id":"levelo_inurba_marseille","lat":43.28933,"lon":5.36386,"is_reserved":false,"is_disabled":false,"rental_uris":{"android":"levelo://app?vid=2e1284ec-d56b-48ae-ba56-020977cf22b6","ios":"levelo://app?vid=2e1284ec-d56b-48ae-ba56-020977cf22b6"},"vehicle_type_id":"4","last_reported":1736503827,"current_range_meters":22800,"station_id":"ce4bhc92rcd13ifvqetg","pricing_plan_id":"cebpf4jnsgd1na2vs0mg"},{"bike_id":"9ac16c0a-752a-4ddb-9974-110b746d07b9","system_id":"levelo_inurba_marseille","lat":43.25488,"lon":5.37662,"is_reserved":false,"is_disabled":true,"rental_uris":{"android":"levelo://app?vid=9ac16c0a-752a-4ddb-9974-110b746d07b9","ios":"levelo://app?vid=9ac16c0a-752a-4ddb-9974-110b746d07b9"},"vehicle_type_id":"4","last_reported":1736503827,"current_range_meters":38000,"station_id":"ce4bhh12rcd13ifvqff0","pricing_plan_id":"cebpf4jnsgd1na2vs0mg"},{"bike_id":"ff7f9d99-0fe7-44ab-b9d8-332d34fe111d","system_id":"levelo_inurba_marseille","lat":43.29578,"lon":5.37533,"is_reserved":false,"is_disabled":false,"rental_uris":{"android":"levelo://app?vid=ff7f9d99-0fe7-44ab-b9d8-332d34fe111d","ios":"levelo://app?vid=ff7f9d99-0fe7-44ab-b9d8-332d34fe111d"},"vehicle_type_id":"4","last_reported":1736503827,"current_range_meters":22000,"station_id":"ce4bgh92rcd13ifvqb50","pricing_plan_id":"cebpf4jnsgd1na2vs0mg"},{"bike_id":"b7134f4d-db9b-4988-8d37-8b974d1032be","system_id":"levelo_inurba_marseille","lat":43.2668,"lon":5.38271,"is_reserved":false,"is_disabled":false,"rental_uris":{"android":"levelo://app?vid=b7134f4d-db9b-4988-8d37-8b974d1032be","ios":"levelo://app?vid=b7134f4d-db9b-4988-8d37-8b974d1032be"},"vehicle_type_id":"4","last_reported":1736503827,"current_range_meters":39200,"station_id":"ce4bhg92rcd13ifvqf90","pricing_plan_id":"cebpf4jnsgd1na2vs0mg"},