{"last_updated":1761210708,"ttl":60,"version":"2.2","data":{"bikes":[{"bike_id":"66bec76d-d7e9-4a1e-a715-39e56334bf96","system_id":"levelo_inurba_marseille","lat":43.28282,"lon":5.39633,"is_reserved":false,"is_disabled":false,"rental_uris":{"android":"levelo://app?vid=66bec76d-d7e9-4a1e-a715-39e56334bf96","ios":"levelo://app?vid=66bec76d-d7e9-4a1e-a715-39e56334bf96"},"vehicle_type_id":"4","last_reported":1761210709,"current_range_meters":2800,"station_id":"","pricing_plan_id":"cebpf4jnsgd1na2vs0mg"},{"bike_id":"3d068a7d-8c2c-4f97-8d7d-54140fa95800","system_id":"levelo_inurba_marseille","lat":43.27356,"lon":5.39875,"is_reserved":false,"is_disabled":false,"rental_uris":{"android":"levelo://app?vid=3d068a7d-8c2c-4f97-8d7d-54140fa95800","ios":"levelo://app?vid=3d068a7d-8c2c-4f97-8d7d-54140fa95800"},"vehicle_type_id":"4","last_reported":1761210709,"current_range_meters":2800,"station_id":"","pricing_plan_id":"cebpf4jnsgd1na2vs0mg"},{"bike_id":"158efa80-12ab-4b7d-8a51-8d3a468fcc07","system_id":"levelo_inurba_marseille","lat":43.211951,"lon":5.350908,"is_reserved":false,"is_disabled":true,"rental_uris":{"android":"levelo://app?vid=158efa80-12ab-4b7d-8a51-8d3a468fcc07","ios":"levelo://app?vid=158efa80-12ab-4b7d-8a51-8d3a468fcc07"},"vehicle_type_id":"4","last_reported":1761210709,"current_range_meters":3200,"station_id":"","pricing_plan_id":"cebpf4jnsgd1na2vs0mg"},{"bike_id":"563add41-42b5-4a40-a2f4-2f753e2062a9","system_id":"levelo_inurba_marseille","lat":43.2879,"lon":5.36364,"is_reserved":false,"is_disabled":false,"rental_uris":{"android":"levelo://app?vid=563add41-42b5-4a40-a2f4-2f753e2062a9","ios":"levelo://app?vid=563add41-42b5-4a40-a2f4-2f753e2062a9"},"vehicle_type_id":"4","last_reported":1761210709,"current_range_meters":3600,"station_id":"","pricing_plan_id":"cebpf4jnsgd1na2vs0mg"},{"bike_id":"e2d1f61d-79b2-48f7-b736-3c7c9a2ed41b","system_id":"levelo_inurba_marseille","lat":43.31884,"lon":5.40732,"is_reserved":false,"is_disabled":false,"rental_uris":{"android":"levelo://app?vid=e2d1f61d-79b2-48f7-b736-3c7c9a2ed41b","ios":"levelo://app?vid=e2d1f61d-79b2-48f7-b736-3c7c9a2ed41b"},"vehicle_type_id":"4","last_reported":1761210709,"current_range_meters":4000,"station_id":"ce4bhq12rcd13ifvqhig","pricing_plan_id":"cebpf4jnsgd1na2vs0mg"},{"bike_id":"3201e625-69d5-420e-838c-f4c3f44666ef","system_id":"levelo_inurba_marseille","lat":43.33789,"lon":5.37423,"is_reserved":false,"is_disabled":false,"rental_uris":{"android":"levelo://app?vid=3201e625-69d5-420e-838c-f4c3f44666ef","ios":"levelo://app?vid=3201e625-69d5-420e-838c-f4c3f44666ef"},"vehicle_type_id":"4","last_reported":1761210709,"current_range_meters":4000,"station_id":"","pricing_plan_id":"cebpf4jnsgd1na2vs0mg"},{"bike_id":"a0a339b2-d0af-4b75-a0aa-54f968df02d3","system_id":"levelo_inurba_marseille","lat":43.33612,"lon":5.41033,"is_reserved":false,"is_disabled":false,"rental_uris":{"android":"levelo://app?vid=a0a339b2-d0af-4b75-a0aa-54f968df02d3","ios":"levelo://app?vid=a0a339b2-d0af-4b75-a0aa-54f968df02d3"},"vehicle_type_id":"4","last_reported":1761210709,"current_range_meters":4000,"station_id":"ce4bhqh2rcd13ifvqhmg","pricing_plan_id":"cebpf4jnsgd1na2vs0mg"},{"bike_id":"f34cc125-0c42-42b1-913f-43595d94e046","system_id":"levelo_inurba_marseille","lat":43.298015,"lon":5.3819,"is_reserved":false,"is_disabled":false,"rental_uris":{"android":"levelo://app?vid=f34cc125-0c42-42b1-913f-43595d94e046","ios":"levelo://app?vid=f34cc125-0c42-42b1-913f-43595d94e046"},"vehicle_type_id":"4","last_reported":1761210709,"current_range_meters":4000,"station_id":"","pricing_plan_id":"cebpf4jnsgd1na2vs0mg"},{"bike_id":"da3c5d5d-639d-4a11-88e1-f7b9c2ad220a","system_id":"levelo_inurba_marseille","lat":43.31767,"lon":5.37785,"is_reserved":false,"is_disabled":true,"rental_uris":{"android":"levelo://app?vid=da3c5d5d-639d-4a11-88e1-f7b9c2ad220a","ios":"levelo://app?vid=da3c5d5d-639d-4a11-88e1-f7b9c2ad220a"},"vehicle_type_id":"4","last_reported":1761210709,"current_range_meters":4000,"station_id":"","pricing_plan_id":"cebpf4jnsgd1na2vs0mg"},{"bike_id":"6e053c2e-e78b-48d4-a738-3681f83b0589","system_id":"levelo_inurba_marseille","lat":43.30536,"lon":5.38404,"is_reserved":false,"is_disabled":false,"rental_uris":{"android":"levelo://app?vid=6e053c2e-e78b-48d4-a738-3681f83b0589","ios":"levelo://app?vid=6e053c2e-e78b-48d4-a738-3681f83b0589"},"vehicle_type_id":"4","last_reported":1761210709,"current_range_meters":4000,"station_id":"ce4bgg92rcd13ifvqb30","pricing_plan_id":"cebpf4jnsgd1na2vs0mg"},{"bike_id":"f8290d16-cdf4-44b7-802a-4ab951fe79e6","system_id":"levelo_inurba_marseille","lat":43.27423,"lon":5.39415,"is_reserved":false,"is_disabled":false,"rental_uris":{"android":"levelo://app?vid=f8290d16-cdf4-44b7-802a-4ab951fe79e6","ios":"levelo://app?vid=f8290d16-cdf4-44b7-802a-4ab951fe79e6"},"vehicle_type_id":"4","last_reported":1761210709,"current_range_meters":4400,"station_id":"ce4bhdp2rcd13ifvqf20","pricing_plan_id":"cebpf4jnsgd1na2vs0mg"},{"bike_id":"cf1ee9fd-b07b-4045-aa67-9dc38ad764ef","system_id":"levelo_inurba_marseille","lat":43.29961,"lon":5.372,"is_reserved":false,"is_disabled":false,"rental_uris":{"android":"levelo://app?vid=cf1ee9fd-b07b-4045-aa67-9dc38ad764ef","ios":"levelo://app?vid=cf1ee9fd-b07b-4045-aa67-9dc38ad764ef"},"vehicle_type_id":"4","last_reported":1761210709,"current_range_meters":4800,"station_id":"ce4bgr92rcd13ifvqc7g","pricing_plan_id":"cebpf4jnsgd1na2vs0mg"},{"bike_id":"d485607b-c21e-4804-be1f-3497e7a5fc41","system_id":"levelo_inurba_marseille","lat":43.25926,"lon":5.40893,"is_reserved":false,"is_disabled":false,"rental_uris":{"android":"levelo://app?vid=d485607b-c21e-4804-be1f-3497e7a5fc41","ios":"levelo://app?vid=d485607b-c21e-4804-be1f-3497e7a5fc41"},"vehicle_type_id":"4","last_reported":1761210709,"current_range_meters":4800,"station_id":"ce4bhm92rcd13ifvqglg","pricing_plan_id":"cebpf4jnsgd1na2vs0mg"},{"bike_id":"31b2e5d9-6da2-445c-9764-cb1ef263a317","system_id":"levelo_inurba_marseille","lat":43.33606,"lon":5.4103,"is_reserved":false,"is_disabled":false,"rental_uris":{"android":"levelo://app?vid=31b2e5d9-6da2-445c-9764-cb1ef263a317","ios":"levelo://app?vid=31b2e5d9-6da2-445c-9764-cb1ef263a317"},"vehicle_type_id":"4","last_reported":1761210709,"current_range_meters":4800,"station_id":"ce4bhqh2rcd13ifvqhmg","pricing_plan_id":"cebpf4jnsgd1na2vs0mg"},{"bike_id":"b7e41c34-cad5-468c-aadc-3ef8a1845b5a","system_id":"levelo_inurba_marseille","lat":43.28155,"lon":5.36109,"is_reserved":false,"is_disabled":false,"rental_uris":{"android":"levelo://app?vid=b7e41c34-cad5-468c-aadc-3ef8a1845b5a","ios":"levelo://app?vid=b7e41c34-cad5-468c-aadc-3ef8a1845b5a"},"vehicle_type_id":"4","last_reported":1761210709,"current_range_meters":5600,"station_id":"","pricing_plan_id":"cebpf4jnsgd1na2vs0mg"},{"bike_id":"b58d2b5b-7ab3-46a1-8515-5dc3be74fb4b","system_id":"levelo_inurba_marseille","lat":43.27205,"lon":5.39179,"is_reserved":false,"is_disabled":false,"rental_uris":{"android":"levelo://app?vid=b58d2b5b-7ab3-46a1-8515-5dc3be74fb4b","ios":"levelo://app?vid=b58d2b5b-7ab3-46a1-8515-5dc3be74fb4b"},"vehicle_type_id":"4","last_reported":1761210709,"current_range_meters":5600,"station_id":"ce4bhhp2rcd13ifvqfm0","pricing_plan_id":"cebpf4jnsgd1na2vs0mg"},{"bike_id":"5f0b7c23-df47-4bdf-84e2-41a557782193","system_id":"levelo_inurba_marseille","lat":43.24385,"lon":5.37066,"is_reserved":false,"is_disabled":false,"rental_uris":{"android":"levelo://app?vid=5f0b7c23-df47-4bdf-84e2-41a557782193","ios":"levelo://app?vid=5f0b7c23-df47-4bdf-84e2-41a557782193"},"vehicle_type_id":"4","last_reported":1761210709,"current_range_meters":5600,"station_id":"ce4bhhh2rcd13ifvqfk0","pricing_plan_id":"cebpf4jnsgd1na2vs0mg"},{"bike_id":"ac1df8dc-41e5-4954-977f-6f21ed12d11a","system_id":"levelo_inurba_marseille","lat":43.217501,"lon":5.345967,"is_reserved":false,"is_disabled":false,"rental_uris":{"android":"levelo://app?vid=ac1df8dc-41e5-4954-977f-6f21ed12d11a","ios":"levelo://app?vid=ac1df8dc-41e5-4954-977f-6f21ed12d11a"},"vehicle_type_id":"4","last_reported":1761210709,"current_range_meters":6400,"station_id":"st_cvj6r9ubvosntc0bgbag","pricing_plan_id":"cebpf4jnsgd1na2vs0mg"},{"bike_id":"4839a536-c45c-4941-9e87-52b908ce7faa","system_id":"levelo_inurba_marseille","lat":43.27213,"lon":5.39183,"is_reserved":false,"is_disabled":false,"rental_uris":{"android":"levelo://app?vid=4839a536-c45c-4941-9e87-52b908ce7faa","ios":"levelo://app?vid=4839a536-c45c-4941-9e87-52b908ce7faa"},"vehicle_type_id":"4","last_reported":1761210709,"current_range_meters":6400,"station_id":"ce4bhhp2rcd13ifvqfm0","pricing_plan_id":"cebpf4jnsgd1na2vs0mg"},{"bike_id":"ce8262b4-3d9a-4baf-8f65-916f4d8db503","system_id":"levelo_inurba_marseille","lat":43.30374,"lon":5.4249,"is_reserved":false,"is_disabled":false,"rental_uris":{"android":"levelo://app?vid=ce8262b4-3d9a-4baf-8f65-916f4d8db503","ios":"levelo://app?vid=ce8262b4-3d9a-4baf-8f65-916f4d8db503"},"vehicle_type_id":"4","last_reported":1761210709,"current_range_meters":6400,"station_id":"ce4bhoh2rcd13ifvqh6g","pricing_plan_id":"cebpf4jnsgd1na2vs0mg"},{"bike_id":"214603f0-78a3-4d93-a701-1635f9047667","system_id":"levelo_inurba_marseille","lat":43.30146,"lon":5.3808,"is_reserved":false,"is_disabled":false,"rental_uris":{"android":"levelo://app?vid=214603f0-78a3-4d93-a701-1635f9047667","ios":"levelo://app?vid=214603f0-78a3-4d93-a701-1635f9047667"},"vehicle_type_id":"4","last_reported":1761210709,"current_range_meters":6800,"station_id":"ce4bgjp2rcd13ifvqbh0","pricing_plan_id":"cebpf4jnsgd1na2vs0mg"},{"bike_id":"02f7835e-8895-43db-bc46-dc0659a292d5","system_id":"levelo_inurba_marseille","lat":43.29331,"lon":5.3707,"is_reserved":false,"is_disabled":false,"rental_uris":{"android":"levelo://app?vid=02f7835e-8895-43db-bc46-dc0659a292d5","ios":"levelo://app?vid=02f7835e-8895-43db-bc46-dc0659a292d5"},"vehicle_type_id":"4","last_reported":1761210709,"current_range_meters":6800,"station_id":"","pricing_plan_id":"cebpf4jnsgd1na2vs0mg"},{"bike_id":"05d8b1de-05f3-4380-9795-50dde07bf0cf","system_id":"levelo_inurba_marseille","lat":43.28358,"lon":5.38095,"is_reserved":false,"is_disabled":false,"rental_uris":{"android":"levelo://app?vid=05d8b1de-05f3-4380-9795-50dde07bf0cf","ios":"levelo://app?vid=05d8b1de-05f3-4380-9795-50dde07bf0cf"},"vehicle_type_id":"4","last_reported":1761210709,"current_range_meters":6800,"station_id":"ce4bh412rcd13ifvqdr0","pricing_plan_id":"cebpf4jnsgd1na2vs0mg"},{"bike_id":"bbafeb06-8c98-4d99-b166-246ff3c04cae","system_id":"levelo_inurba_marseille","lat":43.33615,"lon":5.4098,"is_reserved":false,"is_disabled":false,"rental_uris":{"android":"levelo://app?vid=bbafeb06-8c98-4d99-b166-246ff3c04cae","ios":"levelo://app?vid=bbafeb06-8c98-4d99-b166-246ff3c04cae"},"vehicle_type_id":"4","last_reported":1761210709,"current_range_meters":7200,"station_id":"ce4bhqh2rcd13ifvqhmg","pricing_plan_id":"cebpf4jnsgd1na2vs0mg"},{"bike_id":"50441c1d-86ea-43c8-83ca-781b5a6bb320","system_id":"levelo_inurba_marseille","lat":43.320784,"lon":5.409465,"is_reserved":false,"is_disabled":false,"rental_uris":{"android":"levelo://app?vid=50441c1d-86ea-43c8-83ca-781b5a6bb320","ios":"levelo://app?vid=50441c1d-86ea-43c8-83ca-781b5a6bb320"},"vehicle_type_id":"4","last_reported":1761210709,"current_range_meters":7200,"station_id":"","pricing_plan_id":"cebpf4jnsgd1na2vs0mg"},{"bike_id":"add1f2b8-affe-4bf7-8ba9-8ce23bc1cdd6","system_id":"levelo_inurba_marseille","lat":43.309109,"lon":5.368432,"is_reserved":false,"is_disabled":false,"rental_uris":{"android":"levelo://app?vid=add1f2b8-affe-4bf7-8ba9-8ce23bc1cdd6","ios":"levelo://app?vid=add1f2b8-affe-4bf7-8ba9-8ce23bc1cdd6"},"vehicle_type_id":"4","last_reported":1761210709,"current_range_meters":7200,"station_id":"","pricing_plan_id":"cebpf4jnsgd1na2vs0mg"},{"bike_id":"b84a3bf6-1814-4e42-8908-6a87c3d4644c","system_id":"levelo_inurba_marseille","lat":43.317257,"lon":5.423929,"is_reserved":false,"is_disabled":false,"rental_uris":{"android":"levelo://app?vid=b84a3bf6-1814-4e42-8908-6a87c3d4644c","ios":"levelo://app?vid=b84a3bf6-1814-4e42-8908-6a87c3d4644c"},"vehicle_type_id":"4","last_reported":1761210709,"current_range_meters":7200,"station_id":"ce4bhp92rcd13ifvqhbg","pricing_plan_id":"cebpf4jnsgd1na2vs0mg"},{"bike_id":"c4432b73-0adb-475d-83b3-18f6e7bba483","system_id":"levelo_inurba_marseille","lat":43.321189,"lon":5.408164,"is_reserved":false,"is_disabled":false,"rental_uris":{"android":"levelo://app?vid=c4432b73-0adb-475d-83b3-18f6e7bba483","ios":"levelo://app?vid=c4432b73-0adb-475d-83b3-18f6e7bba483"},"vehicle_type_id":"4","last_reported":1761210709,"current_range_meters":7200,"station_id":"","pricing_plan_id":"cebpf4jnsgd1na2vs0mg"},{"bike_id":"27198d01-2bf0-42c0-96db-617acb50ac1b","system_id":"levelo_inurba_marseille","lat":43.28268,"lon":5.3506,"is_reserved":false,"is_disabled":false,"rental_uris":{"android":"levelo://app?vid=27198d01-2bf0-42c0-96db-617acb50ac1b","ios":"levelo://app?vid=27198d01-2bf0-42c0-96db-617acb50ac1b"},"vehicle_type_id":"4","last_reported":1761210709,"current_range_meters":8000,"station_id":"ce4bhbp2rcd13ifvqerg","pricing_plan_id":"cebpf4jnsgd1na2vs0mg"},{"bike_id":"55bb9cd6-eb55-4f9b-b1a0-d94c8e78b0f2","system_id":"levelo_inurba_marseille","lat":43.313208,"lon":5.396988,"is_reserved":false,"is_disabled":false,"rental_uris":{"android":"levelo://app?vid=55bb9cd6-eb55-4f9b-b1a0-d94c8e78b0f2","ios":"levelo://app?vid=55bb9cd6-eb55-4f9b-b1a0-d94c8e78b0f2"},"vehicle_type_id":"4","last_reported":1761210709,"current_range_meters":8000,"station_id":"ce4bgvp2rcd13ifvqcu0","pricing_plan_id":"cebpf4jnsgd1na2vs0mg"},{"bike_id":"cd394243-2e16-4195-9101-ab2677daa3be","system_id":"levelo_inurba_marseille","lat":43.303,"lon":5.39211,"is_reserved":false,"is_disabled":false,"rental_uris":{"android":"levelo://app?vid=cd394243-2e16-4195-9101-ab2677daa3be","ios":"levelo://app?vid=cd394243-2e16-4195-9101-ab2677daa3be"},"vehicle_type_id":"4","last_reported":1761210709,"current_range_meters":8000,"station_id":"ce4bgkh2rcd13ifvqbk0","pricing_plan_id":"cebpf4jnsgd1na2vs0mg"},{"bike_id":"3dc341a6-ed5b-4062-ba7e-8517afc935a3","system_id":"levelo_inurba_marseille","lat":43.30151,"lon":5.38082,"is_reserved":false,"is_disabled":false,"rental_uris":{"android":"levelo://app?vid=3dc341a6-ed5b-4062-ba7e-8517afc935a3","ios":"levelo://app?vid=3dc341a6-ed5b-4062-ba7e-8517afc935a3"},"vehicle_type_id":"4","last_reported":1761210709,"current_range_meters":8000,"station_id":"ce4bgjp2rcd13ifvqbh0","pricing_plan_id":"cebpf4jnsgd1na2vs0mg"},{"bike_id":"44b1ad6b-1a98-4e37-a182-f58df3beccce","system_id":"levelo_inurba_marseille","lat":43.212003,"lon":5.351046,"is_reserved":false,"is_disabled":false,"rental_uris":{"android":"levelo://app?vid=44b1ad6b-1a98-4e37-a182-f58df3beccce","ios":"levelo://app?vid=44b1ad6b-1a98-4e37-a182-f58df3beccce"},"vehicle_type_id":"4","last_reported":1761210709,"current_range_meters":8400,"station_id":"","pricing_plan_id":"cebpf4jnsgd1na2vs0mg"},{"bike_id":"43bc7270-4e91-421b-a1f0-01060e15cb78","system_id":"levelo_inurba_marseille","lat":43.25506,"lon":5.37653,"is_reserved":false,"is_disabled":true,"rental_uris":{"android":"levelo://app?vid=43bc7270-4e91-421b-a1f0-01060e15cb78","ios":"levelo://app?vid=43bc7270-4e91-421b-a1f0-01060e15cb78"},"vehicle_type_id":"4","last_reported":1761210709,"current_range_meters":8400,"station_id":"","pricing_plan_id":"cebpf4jnsgd1na2vs0mg"},{"bike_id":"82576c51-8b9b-43eb-aa43-fc4a18c9ea5b","system_id":"levelo_inurba_marseille","lat":43.21756,"lon":5.34619,"is_reserved":false,"is_disabled":false,"rental_uris":{"android":"levelo://app?vid=82576c51-8b9b-43eb-aa43-fc4a18c9ea5b","ios":"levelo://app?vid=82576c51-8b9b-43eb-aa43-fc4a18c9ea5b"},"vehicle_type_id":"4","last_reported":1761210709,"current_range_meters":8400,"station_id":"st_cvj6r9ubvosntc0bgbag","pricing_plan_id":"cebpf4jnsgd1na2vs0mg"},{"bike_id":"fe5786a2-3cbd-4e30-8ddf-18df8db18ee6","system_id":"levelo_inurba_marseille","lat":43.29996,"lon":5.37173,"is_reserved":false,"is_disabled":true,"rental_uris":{"android":"levelo://app?vid=fe5786a2-3cbd-4e30-8ddf-18df8db18ee6","ios":"levelo://app?vid=fe5786a2-3cbd-4e30-8ddf-18df8db18ee6"},"vehicle_type_id":"4","last_reported":1761210709,"current_range_meters":8400,"station_id":"","pricing_plan_id":"cebpf4jnsgd1na2vs0mg"},{"bike_id":"32fc3f41-f70c-4fc5-abb4-76cb909516d6","system_id":"levelo_inurba_marseille","lat":43.28611,"lon":5.37064,"is_reserved":false,"is_disabled":false,"rental_uris":{"android":"levelo://app?vid=32fc3f41-f70c-4fc5-abb4-76cb909516d6","ios":"levelo://app?vid=32fc3f41-f70c-4fc5-abb4-76cb909516d6"},"vehicle_type_id":"4","last_reported":1761210709,"current_range_meters":8400,"station_id":"ce4bht12rcd13ifvqi60","pricing_plan_id":"cebpf4jnsgd1na2vs0mg"},{"bike_id":"ff3ba630-dc04-489c-b422-8721b9ddc862","system_id":"levelo_inurba_marseille","lat":43.29793,"lon":5.37698,"is_reserved":false,"is_disabled":false,"rental_uris":{"android":"levelo://app?vid=ff3ba630-dc04-489c-b422-8721b9ddc862","ios":"levelo://app?vid=ff3ba630-dc04-489c-b422-8721b9ddc862"},"vehicle_type_id":"4","last_reported":1761210709,"current_range_meters":8400,"station_id":"","pricing_plan_id":"cebpf4jnsgd1na2vs0mg"},{"bike_id":"be7b2d63-241d-4e88-a5e2-a3732605d632","system_id":"levelo_inurba_marseille","lat":43.30452,"lon":5.37912,"is_reserved":false,"is_disabled":false,"rental_uris":{"android":"levelo://app?vid=be7b2d63-241d-4e88-a5e2-a3732605d632","ios":"levelo://app?vid=be7b2d63-241d-4e88-a5e2-a3732605d632"},"vehicle_type_id":"4","last_reported":1761210709,"current_range_meters":8400,"station_id":"ce4bgup2rcd13ifvqcn0","pricing_plan_id":"cebpf4jnsgd1na2vs0mg"},{"bike_id":"c24a1e1b-0398-49c1-a945-ebe372c04413","system_id":"levelo_inurba_marseille","lat":43.26557,"lon":5.37291,"is_reserved":false,"is_disabled":false,"rental_uris":{"android":"levelo://app?vid=c24a1e1b-0398-49c1-a945-ebe372c04413","ios":"levelo://app?vid=c24a1e1b-0398-49c1-a945-ebe372c04413"},"vehicle_type_id":"4","last_reported":1761210709,"current_range_meters":8400,"station_id":"ce4bhg12rcd13ifvqf70","pricing_plan_id":"cebpf4jnsgd1na2vs0mg"},{"bike_id":"6acf2ae9-136b-4104-8a69-7d816eedd218","system_id":"levelo_inurba_marseille","lat":43.280642,"lon":5.352788,"is_reserved":false,"is_disabled":false,"rental_uris":{"android":"levelo://app?vid=6acf2ae9-136b-4104-8a69-7d816eedd218","ios":"levelo://app?vid=6acf2ae9-136b-4104-8a69-7d816eedd218"},"vehicle_type_id":"4","last_reported":1761210709,"current_range_meters":8800,"station_id":"","pricing_plan_id":"cebpf4jnsgd1na2vs0mg"},{"bike_id":"653fa07b-9cb9-4b66-af2f-c0fc11762d3a","system_id":"levelo_inurba_marseille","lat":43.282693,"lon":5.350553,"is_reserved":false,"is_disabled":false,"rental_uris":{"android":"levelo://app?vid=653fa07b-9cb9-4b66-af2f-c0fc11762d3a","ios":"levelo://app?vid=653fa07b-9cb9-4b66-af2f-c0fc11762d3a"},"vehicle_type_id":"4","last_reported":1761210709,"current_range_meters":8800,"station_id":"ce4bhbp2rcd13ifvqerg","pricing_plan_id":"cebpf4jnsgd1na2vs0mg"},{"bike_id":"eb3f356f-223d-4179-bc3e-b821ace015d7","system_id":"levelo_inurba_marseille","lat":43.27715,"lon":5.38899,"is_reserved":false,"is_disabled":false,"rental_uris":{"android":"levelo://app?vid=eb3f356f-223d-4179-bc3e-b821ace015d7","ios":"levelo://app?vid=eb3f356f-223d-4179-bc3e-b821ace015d7"},"vehicle_type_id":"4","last_reported":1761210709,"current_range_meters":8800,"station_id":"ce4bhi12rcd13ifvqfo0","pricing_plan_id":"cebpf4jnsgd1na2vs0mg"},{"bike_id":"0d468f8c-99b4-45d9-9b5c-bdd3a0bac8ff","system_id":"levelo_inurba_marseille","lat":43.25729,"lon":5.41114,"is_reserved":false,"is_disabled":false,"rental_uris":{"android":"levelo://app?vid=0d468f8c-99b4-45d9-9b5c-bdd3a0bac8ff","ios":"levelo://app?vid=0d468f8c-99b4-45d9-9b5c-bdd3a0bac8ff"},"vehicle_type_id":"4","last_reported":1761210709,"current_range_meters":8800,"station_id":"ce4bhkp2rcd13ifvqgd0","pricing_plan_id":"cebpf4jnsgd1na2vs0mg"},{"bike_id":"43f66d0b-b766-4af5-8bb8-f40b62baf807","system_id":"levelo_inurba_marseille","lat":43.25582,"lon":5.38228,"is_reserved":false,"is_disabled":true,"rental_uris":{"android":"levelo://app?vid=43f66d0b-b766-4af5-8bb8-f40b62baf807","ios":"levelo://app?vid=43f66d0b-b766-4af5-8bb8-f40b62baf807"},"vehicle_type_id":"4","last_reported":1761210709,"current_range_meters":9200,"station_id":"ce4bhih2rcd13ifvqfs0","pricing_plan_id":"cebpf4jnsgd1na2vs0mg"},{"bike_id":"003db9b9-c4d5-45c4-90c5-058ef9d1e11f","system_id":"levelo_inurba_marseille","lat":43.30381,"lon":5.42482,"is_reserved":false,"is_disabled":false,"rental_uris":{"android":"levelo://app?vid=003db9b9-c4d5-45c4-90c5-058ef9d1e11f","ios":"levelo://app?vid=003db9b9-c4d5-45c4-90c5-058ef9d1e11f"},"vehicle_type_id":"4","last_reported":1761210709,"current_range_meters":9200,"station_id":"ce4bhoh2rcd13ifvqh6g","pricing_plan_id":"cebpf4jnsgd1na2vs0mg"},{"bike_id":"396aaa55-c35f-41fc-8337-93bac25c9dde","system_id":"levelo_inurba_marseille","lat":43.29242,"lon":5.3556,"is_reserved":false,"is_disabled":false,"rental_uris":{"android":"levelo://app?vid=396aaa55-c35f-41fc-8337-93bac25c9dde","ios":"levelo://app?vid=396aaa55-c35f-41fc-8337-93bac25c9dde"},"vehicle_type_id":"4","last_reported":1761210709,"current_range_meters":9200,"station_id":"","pricing_plan_id":"cebpf4jnsgd1na2vs0mg"},{"bike_id":"6cedbdd4-d4fa-45a0-a47a-6925bf95118c","system_id":"levelo_inurba_marseille","lat":43.22923,"lon":5.35381,"is_reserved":false,"is_disabled":false,"rental_uris":{"android":"levelo://app?vid=6cedbdd4-d4fa-45a0-a47a-6925bf95118c","ios":"levelo://app?vid=6cedbdd4-d4fa-45a0-a47a-6925bf95118c"},"vehicle_type_id":"4","last_reported":1761210709,"current_range_meters":9200,"station_id":"cpo3532slgdg3j2ikp40","pricing_plan_id":"cebpf4jnsgd1na2vs0mg"},{"bike_id":"d7b0bd08-edee-435f-8f9e-5bf006bd74af","system_id":"levelo_inurba_marseille","lat":43.30885,"lon":5.372044,"is_reserved":false,"is_disabled":false,"rental_uris":{"android":"levelo://app?vid=d7b0bd08-edee-435f-8f9e-5bf006bd74af","ios":"levelo://app?vid=d7b0bd08-edee-435f-8f9e-5bf006bd74af"},"vehicle_type_id":"4","last_reported":1761210709,"current_range_meters":9200,"station_id":"ce4bhah2rcd13ifvqei0","pricing_plan_id":"cebpf4jnsgd1na2vs0mg"},{"bike_id":"37d01fc8-4b4d-4652-a489-1254eb9d4c80","system_id":"levelo_inurba_marseille","lat":43.34076,"lon":5.40411,"is_reserved":false,"is_disabled":false,"rental_uris":{"android":"levelo://app?vid=37d01fc8-4b4d-4652-a489-1254eb9d4c80","ios":"levelo://app?vid=37d01fc8-4b4d-4652-a489-1254eb9d4c80"},"vehicle_type_id":"4","last_reported":1761210709,"current_range_meters":9200,"station_id":"","pricing_plan_id":"cebpf4jnsgd1na2vs0mg"},{"bike_id":"9880e93c-d19c-40b1-b34a-e56695334737","system_id":"levelo_inurba_marseille","lat":43.30742,"lon":5.42446,"is_reserved":false,"is_disabled":false,"rental_uris":{"android":"levelo://app?vid=9880e93c-d19c-40b1-b34a-e56695334737","ios":"levelo://app?vid=9880e93c-d19c-40b1-b34a-e56695334737"},"vehicle_type_id":"4","last_reported":1761210709,"current_range_meters":9200,"station_id":"st_cvj6ca6bvosntc0bfgr0","pricing_plan_id":"cebpf4jnsgd1na2vs0mg"},{"bike_id":"5e26481f-1a7e-43b6-9911-f5dae69a0aed","system_id":"levelo_inurba_marseille","lat":43.23191,"lon":5.39984,"is_reserved":false,"is_disabled":true,"rental_uris":{"android":"levelo://app?vid=5e26481f-1a7e-43b6-9911-f5dae69a0aed","ios":"levelo://app?vid=5e26481f-1a7e-43b6-9911-f5dae69a0aed"},"vehicle_type_id":"4","last_reported":1761210709,"current_range_meters":9600,"station_id":"ce4bhn12rcd13ifvqgqg","pricing_plan_id":"cebpf4jnsgd1na2vs0mg"},{"bike_id":"ce769511-fd11-423e-a93f-b45c3ca68657","system_id":"levelo_inurba_marseille","lat":43.308857,"lon":5.371919,"is_reserved":false,"is_disabled":false,"rental_uris":{"android":"levelo://app?vid=ce769511-fd11-423e-a93f-b45c3ca68657","ios":"levelo://app?vid=ce769511-fd11-423e-a93f-b45c3ca68657"},"vehicle_type_id":"4","last_reported":1761210709,"current_range_meters":9600,"station_id":"ce4bguh2rcd13ifvqckg","pricing_plan_id":"cebpf4jnsgd1na2vs0mg"},{"bike_id":"3aa8c3e6-230d-4538-ac39-2b944611f536","system_id":"levelo_inurba_marseille","lat":43.313591,"lon":5.367087,"is_reserved":false,"is_disabled":true,"rental_uris":{"android":"levelo://app?vid=3aa8c3e6-230d-4538-ac39-2b944611f536","ios":"levelo://app?vid=3aa8c3e6-230d-4538-ac39-2b944611f536"},"vehicle_type_id":"4","last_reported":1761210709,"current_range_meters":9600,"station_id":"ce4bgr92rcd13ifvqc6g","pricing_plan_id":"cebpf4jnsgd1na2vs0mg"},{"bike_id":"f11297b4-b982-48a7-bc40-b4e5242b1d8d","system_id":"levelo_inurba_marseille","lat":43.23147,"lon":5.43717,"is_reserved":false,"is_disabled":false,"rental_uris":{"android":"levelo://app?vid=f11297b4-b982-48a7-bc40-b4e5242b1d8d","ios":"levelo://app?vid=f11297b4-b982-48a7-bc40-b4e5242b1d8d"},"vehicle_type_id":"4","last_reported":1761210709,"current_range_meters":10000,"station_id":"ce4bhmp2rcd13ifvqgog","pricing_plan_id":"cebpf4jnsgd1na2vs0mg"},{"bike_id":"6e306826-b293-4ba7-a12a-1ca7fdc80d6f","system_id":"levelo_inurba_marseille","lat":43.26211,"lon":5.40411,"is_reserved":false,"is_disabled":false,"rental_uris":{"android":"levelo://app?vid=6e306826-b293-4ba7-a12a-1ca7fdc80d6f","ios":"levelo://app?vid=6e306826-b293-4ba7-a12a-1ca7fdc80d6f"},"vehicle_type_id":"4","last_reported":1761210709,"current_range_meters":10000,"station_id":"ce4bhmh2rcd13ifvqgmg","pricing_plan_id":"cebpf4jnsgd1na2vs0mg"},{"bike_id":"ac4f7d3c-5af7-44ad-8c8b-463d26f4b847","system_id":"levelo_inurba_marseille","lat":43.274451,"lon":5.390878,"is_reserved":false,"is_disabled":false,"rental_uris":{"android":"levelo://app?vid=ac4f7d3c-5af7-44ad-8c8b-463d26f4b847","ios":"levelo://app?vid=ac4f7d3c-5af7-44ad-8c8b-463d26f4b847"},"vehicle_type_id":"4","last_reported":1761210709,"current_range_meters":10000,"station_id":"ce4bhg12rcd13ifvqf80","pricing_plan_id":"cebpf4jnsgd1na2vs0mg"},{"bike_id":"d2320faf-2945-4a47-b404-e7bab3c4bfed","system_id":"levelo_inurba_marseille","lat":43.25927,"lon":5.40877,"is_reserved":false,"is_disabled":false,"rental_uris":{"android":"levelo://app?vid=d2320faf-2945-4a47-b404-e7bab3c4bfed","ios":"levelo://app?vid=d2320faf-2945-4a47-b404-e7bab3c4bfed"},"vehicle_type_id":"4","last_reported":1761210709,"current_range_meters":10000,"station_id":"ce4bhm92rcd13ifvqglg","pricing_plan_id":"cebpf4jnsgd1na2vs0mg"},{"bike_id":"9870a68d-ae62-4bec-82c3-a7443a850bdc","system_id":"levelo_inurba_marseille","lat":43.312792,"lon":5.377725,"is_reserved":false,"is_disabled":false,"rental_uris":{"android":"levelo://app?vid=9870a68d-ae62-4bec-82c3-a7443a850bdc","ios":"levelo://app?vid=9870a68d-ae62-4bec-82c3-a7443a850bdc"},"vehicle_type_id":"4","last_reported":1761210709,"current_range_meters":10800,"station_id":"","pricing_plan_id":"cebpf4jnsgd1na2vs0mg"},{"bike_id":"526f7b2e-bd40-4ecf-abc3-0b9bde82a732","system_id":"levelo_inurba_marseille","lat":43.29004,"lon":5.3561,"is_reserved":false,"is_disabled":false,"rental_uris":{"android":"levelo://app?vid=526f7b2e-bd40-4ecf-abc3-0b9bde82a732","ios":"levelo://app?vid=526f7b2e-bd40-4ecf-abc3-0b9bde82a732"},"vehicle_type_id":"4","last_reported":1761210709,"current_range_meters":10800,"station_id":"ce4bhb92rcd13ifvqen0","pricing_plan_id":"cebpf4jnsgd1na2vs0mg"},{"bike_id":"5b2fb394-b654-4cda-abea-19d87e1a4938","system_id":"levelo_inurba_marseille","lat":43.240822,"lon":5.377519,"is_reserved":false,"is_disabled":false,"rental_uris":{"android":"levelo://app?vid=5b2fb394-b654-4cda-abea-19d87e1a4938","ios":"levelo://app?vid=5b2fb394-b654-4cda-abea-19d87e1a4938"},"vehicle_type_id":"4","last_reported":1761210709,"current_range_meters":10800,"station_id":"ce4bhnp2rcd13ifvqgvg","pricing_plan_id":"cebpf4jnsgd1na2vs0mg"},{"bike_id":"43e7628c-c6e4-482e-a22f-5fbf9bed0838","system_id":"levelo_inurba_marseille","lat":43.27615,"lon":5.36105,"is_reserved":false,"is_disabled":false,"rental_uris":{"android":"levelo://app?vid=43e7628c-c6e4-482e-a22f-5fbf9bed0838","ios":"levelo://app?vid=43e7628c-c6e4-482e-a22f-5fbf9bed0838"},"vehicle_type_id":"4","last_reported":1761210709,"current_range_meters":10800,"station_id":"ce4bgj92rcd13ifvqbe0","pricing_plan_id":"cebpf4jnsgd1na2vs0mg"},{"bike_id":"4eae2ec4-8862-466e-a3d9-395cca4276d0","system_id":"levelo_inurba_marseille","lat":43.3038,"lon":5.3758,"is_reserved":false,"is_disabled":false,"rental_uris":{"android":"levelo://app?vid=4eae2ec4-8862-466e-a3d9-395cca4276d0","ios":"levelo://app?vid=4eae2ec4-8862-466e-a3d9-395cca4276d0"},"vehicle_type_id":"4","last_reported":1761210709,"current_range_meters":10800,"station_id":"","pricing_plan_id":"cebpf4jnsgd1na2vs0mg"},{"bike_id":"15c9329a-af2a-4ecf-b071-7a979425a162","system_id":"levelo_inurba_marseille","lat":43.30545,"lon":5.36537,"is_reserved":false,"is_disabled":false,"rental_uris":{"android":"levelo://app?vid=15c9329a-af2a-4ecf-b071-7a979425a162","ios":"levelo://app?vid=15c9329a-af2a-4ecf-b071-7a979425a162"},"vehicle_type_id":"4","last_reported":1761210709,"current_range_meters":10800,"station_id":"ce4bgs12rcd13ifvqcag","pricing_plan_id":"cebpf4jnsgd1na2vs0mg"},{"bike_id":"1656396b-ce0e-470e-9f40-d432e00c8827","system_id":"levelo_inurba_marseille","lat":43.29591,"lon":5.40489,"is_reserved":false,"is_disabled":false,"rental_uris":{"android":"levelo://app?vid=1656396b-ce0e-470e-9f40-d432e00c8827","ios":"levelo://app?vid=1656396b-ce0e-470e-9f40-d432e00c8827"},"vehicle_type_id":"4","last_reported":1761210709,"current_range_meters":11200,"station_id":"","pricing_plan_id":"cebpf4jnsgd1na2vs0mg"},{"bike_id":"2f86c0e7-791d-40d3-86dc-3a2c4a57947d","system_id":"levelo_inurba_marseille","lat":43.310756,"lon":5.424382,"is_reserved":false,"is_disabled":false,"rental_uris":{"android":"levelo://app?vid=2f86c0e7-791d-40d3-86dc-3a2c4a57947d","ios":"levelo://app?vid=2f86c0e7-791d-40d3-86dc-3a2c4a57947d"},"vehicle_type_id":"4","last_reported":1761210709,"current_range_meters":11200,"station_id":"ce4bhp92rcd13ifvqhag","pricing_plan_id":"cebpf4jnsgd1na2vs0mg"},{"bike_id":"07e992db-48e1-481b-a50e-3b491cfc1455","system_id":"levelo_inurba_marseille","lat":43.31991,"lon":5.41291,"is_reserved":false,"is_disabled":false,"rental_uris":{"android":"levelo://app?vid=07e992db-48e1-481b-a50e-3b491cfc1455","ios":"levelo://app?vid=07e992db-48e1-481b-a50e-3b491cfc1455"},"vehicle_type_id":"4","last_reported":1761210709,"current_range_meters":11200,"station_id":"","pricing_plan_id":"cebpf4jnsgd1na2vs0mg"},{"bike_id":"31b5e7a1-7a36-4bfd-a362-da8c8cc03001","system_id":"levelo_inurba_marseille","lat":43.30138,"lon":5.37426,"is_reserved":false,"is_disabled":false,"rental_uris":{"android":"levelo://app?vid=31b5e7a1-7a36-4bfd-a362-da8c8cc03001","ios":"levelo://app?vid=31b5e7a1-7a36-4bfd-a362-da8c8cc03001"},"vehicle_type_id":"4","last_reported":1761210709,"current_range_meters":11600,"station_id":"ce4bgs92rcd13ifvqcc0","pricing_plan_id":"cebpf4jnsgd1na2vs0mg"},{"bike_id":"f7b67f9a-ce10-4c5c-bac2-7e5464f16364","system_id":"levelo_inurba_marseille","lat":43.27297,"lon":5.40842,"is_reserved":false,"is_disabled":false,"rental_uris":{"android":"levelo://app?vid=f7b67f9a-ce10-4c5c-bac2-7e5464f16364","ios":"levelo://app?vid=f7b67f9a-ce10-4c5c-bac2-7e5464f16364"},"vehicle_type_id":"4","last_reported":1761210709,"current_range_meters":11600,"station_id":"","pricing_plan_id":"cebpf4jnsgd1na2vs0mg"},{"bike_id":"7dc3a787-7b14-4505-8e32-0b28349ba8b9","system_id":"levelo_inurba_marseille","lat":43.287063,"lon":5.362525,"is_reserved":false,"is_disabled":false,"rental_uris":{"android":"levelo://app?vid=7dc3a787-7b14-4505-8e32-0b28349ba8b9","ios":"levelo://app?vid=7dc3a787-7b14-4505-8e32-0b28349ba8b9"},"vehicle_type_id":"4","last_reported":1761210709,"current_range_meters":11600,"station_id":"","pricing_plan_id":"cebpf4jnsgd1na2vs0mg"},{"bike_id":"618a9c44-e479-45b6-b144-58d3228e3132","system_id":"levelo_inurba_marseille","lat":43.246255,"lon":5.388988,"is_reserved":false,"is_disabled":false,"rental_uris":{"android":"levelo://app?vid=618a9c44-e479-45b6-b144-58d3228e3132","ios":"levelo://app?vid=618a9c44-e479-45b6-b144-58d3228e3132"},"vehicle_type_id":"4","last_reported":1761210709,"current_range_meters":11600,"station_id":"ce4bhg12rcd13ifvqf60","pricing_plan_id":"cebpf4jnsgd1na2vs0mg"},{"bike_id":"2d24ac31-78f9-481b-9d5c-ea0a58464439","system_id":"levelo_inurba_marseille","lat":43.29189,"lon":5.42271,"is_reserved":false,"is_disabled":false,"rental_uris":{"android":"levelo://app?vid=2d24ac31-78f9-481b-9d5c-ea0a58464439","ios":"levelo://app?vid=2d24ac31-78f9-481b-9d5c-ea0a58464439"},"vehicle_type_id":"4","last_reported":1761210709,"current_range_meters":11600,"station_id":"","pricing_plan_id":"cebpf4jnsgd1na2vs0mg"},{"bike_id":"c10e48f1-1dfd-468c-aaf6-b5e7399e0485","system_id":"levelo_inurba_marseille","lat":43.30935,"lon":5.40145,"is_reserved":false,"is_disabled":false,"rental_uris":{"android":"levelo://app?vid=c10e48f1-1dfd-468c-aaf6-b5e7399e0485","ios":"levelo://app?vid=c10e48f1-1dfd-468c-aaf6-b5e7399e0485"},"vehicle_type_id":"4","last_reported":1761210709,"current_range_meters":11600,"station_id":"ce4bgvp2rcd13ifvqct0","pricing_plan_id":"cebpf4jnsgd1na2vs0mg"},{"bike_id":"7ee4ad56-64d2-4f2b-91b5-01badc1460c6","system_id":"levelo_inurba_marseille","lat":43.298682,"lon":5.389116,"is_reserved":false,"is_disabled":false,"rental_uris":{"android":"levelo://app?vid=7ee4ad56-64d2-4f2b-91b5-01badc1460c6","ios":"levelo://app?vid=7ee4ad56-64d2-4f2b-91b5-01badc1460c6"},"vehicle_type_id":"4","last_reported":1761210709,"current_range_meters":12000,"station_id":"ce4bh392rcd13ifvqdl0","pricing_plan_id":"cebpf4jnsgd1na2vs0mg"},{"bike_id":"c8c0fa58-a519-4343-9887-b0c694f93aef","system_id":"levelo_inurba_marseille","lat":43.28874,"lon":5.42498,"is_reserved":false,"is_disabled":false,"rental_uris":{"android":"levelo://app?vid=c8c0fa58-a519-4343-9887-b0c694f93aef","ios":"levelo://app?vid=c8c0fa58-a519-4343-9887-b0c694f93aef"},"vehicle_type_id":"4","last_reported":1761210709,"current_range_meters":12000,"station_id":"st_d3b462108ojc7389ooeg","pricing_plan_id":"cebpf4jnsgd1na2vs0mg"},{"bike_id":"c775e1ea-9a62-4435-8d4f-004bf2c26047","system_id":"levelo_inurba_marseille","lat":43.29823,"lon":5.44069,"is_reserved":false,"is_disabled":false,"rental_uris":{"android":"levelo://app?vid=c775e1ea-9a62-4435-8d4f-004bf2c26047","ios":"levelo://app?vid=c775e1ea-9a62-4435-8d4f-004bf2c26047"},"vehicle_type_id":"4","last_reported":1761210709,"current_range_meters":12400,"station_id":"st_d3jp68qikq2c7381ktn0","pricing_plan_id":"cebpf4jnsgd1na2vs0mg"},{"bike_id":"2dada79b-25f6-423e-a95d-d3683fbc359a","system_id":"levelo_inurba_marseille","lat":43.33599,"lon":5.41028,"is_reserved":false,"is_disabled":false,"rental_uris":{"android":"levelo://app?vid=2dada79b-25f6-423e-a95d-d3683fbc359a","ios":"levelo://app?vid=2dada79b-25f6-423e-a95d-d3683fbc359a"},"vehicle_type_id":"4","last_reported":1761210709,"current_range_meters":12400,"station_id":"ce4bhqh2rcd13ifvqhmg","pricing_plan_id":"cebpf4jnsgd1na2vs0mg"},{"bike_id":"61525fe3-26d4-4c5c-a075-e59599c296c4","system_id":"levelo_inurba_marseille","lat":43.31444,"lon":5.39288,"is_reserved":false,"is_disabled":false,"rental_uris":{"android":"levelo://app?vid=61525fe3-26d4-4c5c-a075-e59599c296c4","ios":"levelo://app?vid=61525fe3-26d4-4c5c-a075-e59599c296c4"},"vehicle_type_id":"4","last_reported":1761210709,"current_range_meters":12400,"station_id":"","pricing_plan_id":"cebpf4jnsgd1na2vs0mg"},{"bike_id":"55c40597-7324-4a12-86c1-8fcdb6f7845c","system_id":"levelo_inurba_marseille","lat":43.30146,"lon":5.38098,"is_reserved":false,"is_disabled":false,"rental_uris":{"android":"levelo://app?vid=55c40597-7324-4a12-86c1-8fcdb6f7845c","ios":"levelo://app?vid=55c40597-7324-4a12-86c1-8fcdb6f7845c"},"vehicle_type_id":"4","last_reported":1761210709,"current_range_meters":12400,"station_id":"ce4bgjp2rcd13ifvqbh0","pricing_plan_id":"cebpf4jnsgd1na2vs0mg"},{"bike_id":"a8c54fc0-fa67-4a1f-a261-d4ae32b66c04","system_id":"levelo_inurba_marseille","lat":43.31277,"lon":5.40462,"is_reserved":false,"is_disabled":false,"rental_uris":{"android":"levelo://app?vid=a8c54fc0-fa67-4a1f-a261-d4ae32b66c04","ios":"levelo://app?vid=a8c54fc0-fa67-4a1f-a261-d4ae32b66c04"},"vehicle_type_id":"4","last_reported":1761210709,"current_range_meters":12400,"station_id":"","pricing_plan_id":"cebpf4jnsgd1na2vs0mg"},{"bike_id":"5d2f6870-34a6-48de-a296-30b1c06ac057","system_id":"levelo_inurba_marseille","lat":43.24179,"lon":5.39724,"is_reserved":false,"is_disabled":false,"rental_uris":{"android":"levelo://app?vid=5d2f6870-34a6-48de-a296-30b1c06ac057","ios":"levelo://app?vid=5d2f6870-34a6-48de-a296-30b1c06ac057"},"vehicle_type_id":"4","last_reported":1761210709,"current_range_meters":12400,"station_id":"ce4bhn12rcd13ifvqgpg","pricing_plan_id":"cebpf4jnsgd1na2vs0mg"},{"bike_id":"8dac63b5-a0c8-4bb9-b2e2-d96c874efeee","system_id":"levelo_inurba_marseille","lat":43.33609,"lon":5.41034,"is_reserved":false,"is_disabled":false,"rental_uris":{"android":"levelo://app?vid=8dac63b5-a0c8-4bb9-b2e2-d96c874efeee","ios":"levelo://app?vid=8dac63b5-a0c8-4bb9-b2e2-d96c874efeee"},"vehicle_type_id":"4","last_reported":1761210709,"current_range_meters":12400,"station_id":"ce4bhqh2rcd13ifvqhmg","pricing_plan_id":"cebpf4jnsgd1na2vs0mg"},{"bike_id":"71d530ff-c617-4500-862e-2196508ef7cb","system_id":"levelo_inurba_marseille","lat":43.23787,"lon":5.36615,"is_reserved":false,"is_disabled":false,"rental_uris":{"android":"levelo://app?vid=71d530ff-c617-4500-862e-2196508ef7cb","ios":"levelo://app?vid=71d530ff-c617-4500-862e-2196508ef7cb"},"vehicle_type_id":"4","last_reported":1761210709,"current_range_meters":12800,"station_id":"st_d3nk18o9ro0c73en2l3g","pricing_plan_id":"cebpf4jnsgd1na2vs0mg"},{"bike_id":"32e7919e-26d8-4f7d-b229-086147816fa4","system_id":"levelo_inurba_marseille","lat":43.301286,"lon":5.38775,"is_reserved":false,"is_disabled":false,"rental_uris":{"android":"levelo://app?vid=32e7919e-26d8-4f7d-b229-086147816fa4","ios":"levelo://app?vid=32e7919e-26d8-4f7d-b229-086147816fa4"},"vehicle_type_id":"4","last_reported":1761210709,"current_range_meters":12800,"station_id":"","pricing_plan_id":"cebpf4jnsgd1na2vs0mg"},{"bike_id":"d9247930-f477-4727-872b-24c5b02f6614","system_id":"levelo_inurba_marseille","lat":43.2719,"lon":5.40985,"is_reserved":false,"is_disabled":false,"rental_uris":{"android":"levelo://app?vid=d9247930-f477-4727-872b-24c5b02f6614","ios":"levelo://app?vid=d9247930-f477-4727-872b-24c5b02f6614"},"vehicle_type_id":"4","last_reported":1761210709,"current_range_meters":12800,"station_id":"ce4bhl12rcd13ifvqgf0","pricing_plan_id":"cebpf4jnsgd1na2vs0mg"},{"bike_id":"ac9b5b0f-8735-4757-8bf2-f97e3f542d3a","system_id":"levelo_inurba_marseille","lat":43.30528,"lon":5.36525,"is_reserved":false,"is_disabled":false,"rental_uris":{"android":"levelo://app?vid=ac9b5b0f-8735-4757-8bf2-f97e3f542d3a","ios":"levelo://app?vid=ac9b5b0f-8735-4757-8bf2-f97e3f542d3a"},"vehicle_type_id":"4","last_reported":1761210709,"current_range_meters":13600,"station_id":"ce4bgs12rcd13ifvqcag","pricing_plan_id":"cebpf4jnsgd1na2vs0mg"},{"bike_id":"56880329-4c76-4c4e-84a7-3c605e225585","system_id":"levelo_inurba_marseille","lat":43.33717,"lon":5.39179,"is_reserved":false,"is_disabled":false,"rental_uris":{"android":"levelo://app?vid=56880329-4c76-4c4e-84a7-3c605e225585","ios":"levelo://app?vid=56880329-4c76-4c4e-84a7-3c605e225585"},"vehicle_type_id":"4","last_reported":1761210709,"current_range_meters":13600,"station_id":"ce4bhr92rcd13ifvqhsg","pricing_plan_id":"cebpf4jnsgd1na2vs0mg"},{"bike_id":"1aaa028d-93d8-4a20-8355-7a4b17d8620a","system_id":"levelo_inurba_marseille","lat":43.276424,"lon":5.392114,"is_reserved":false,"is_disabled":false,"rental_uris":{"android":"levelo://app?vid=1aaa028d-93d8-4a20-8355-7a4b17d8620a","ios":"levelo://app?vid=1aaa028d-93d8-4a20-8355-7a4b17d8620a"},"vehicle_type_id":"4","last_reported":1761210709,"current_range_meters":13600,"station_id":"","pricing_plan_id":"cebpf4jnsgd1na2vs0mg"},{"bike_id":"b47656b5-24c6-4cdc-ad67-1d843e8edbeb","system_id":"levelo_inurba_marseille","lat":43.30796,"lon":5.42358,"is_reserved":false,"is_disabled":false,"rental_uris":{"android":"levelo://app?vid=b47656b5-24c6-4cdc-ad67-1d843e8edbeb","ios":"levelo://app?vid=b47656b5-24c6-4cdc-ad67-1d843e8edbeb"},"vehicle_type_id":"4","last_reported":1761210709,"current_range_meters":13600,"station_id":"st_cvj6ca6bvosntc0bfgr0","pricing_plan_id":"cebpf4jnsgd1na2vs0mg"},{"bike_id":"a43df4c7-330a-48d4-890f-5d1e302ce2ae","system_id":"levelo_inurba_marseille","lat":43.29418,"lon":5.39359,"is_reserved":false,"is_disabled":true,"rental_uris":{"android":"levelo://app?vid=a43df4c7-330a-48d4-890f-5d1e302ce2ae","ios":"levelo://app?vid=a43df4c7-330a-48d4-890f-5d1e302ce2ae"},"vehicle_type_id":"4","last_reported":1761210709,"current_range_meters":13600,"station_id":"","pricing_plan_id":"cebpf4jnsgd1na2vs0mg"},{"bike_id":"737b6502-b2d8-4ff2-afe9-c292d5158bef","system_id":"levelo_inurba_marseille","lat":43.292574,"lon":5.384373,"is_reserved":false,"is_disabled":false,"rental_uris":{"android":"levelo://app?vid=737b6502-b2d8-4ff2-afe9-c292d5158bef","ios":"levelo://app?vid=737b6502-b2d8-4ff2-afe9-c292d5158bef"},"vehicle_type_id":"4","last_reported":1761210709,"current_range_meters":14000,"station_id":"ce4bgip2rcd13ifvqbb0","pricing_plan_id":"cebpf4jnsgd1na2vs0mg"},{"bike_id":"421fa416-437e-4c41-a4d8-bc5f181972fe","system_id":"levelo_inurba_marseille","lat":43.31238,"lon":5.36838,"is_reserved":false,"is_disabled":false,"rental_uris":{"android":"levelo://app?vid=421fa416-437e-4c41-a4d8-bc5f181972fe","ios":"levelo://app?vid=421fa416-437e-4c41-a4d8-bc5f181972fe"},"vehicle_type_id":"4","last_reported":1761210709,"current_range_meters":14000,"station_id":"ce4bgl92rcd13ifvqbq0","pricing_plan_id":"cebpf4jnsgd1na2vs0mg"},{"bike_id":"958d52bc-e1a2-4648-8f11-6f03bc0d48c0","system_id":"levelo_inurba_marseille","lat":43.30158,"lon":5.38078,"is_reserved":false,"is_disabled":false,"rental_uris":{"android":"levelo://app?vid=958d52bc-e1a2-4648-8f11-6f03bc0d48c0","ios":"levelo://app?vid=958d52bc-e1a2-4648-8f11-6f03bc0d48c0"},"vehicle_type_id":"4","last_reported":1761210709,"current_range_meters":14000,"station_id":"ce4bgjp2rcd13ifvqbh0","pricing_plan_id":"cebpf4jnsgd1na2vs0mg"},{"bike_id":"0198280f-05b0-401c-b9f2-7586dff77353","system_id":"levelo_inurba_marseille","lat":43.288938,"lon":5.377995,"is_reserved":false,"is_disabled":false,"rental_uris":{"android":"levelo://app?vid=0198280f-05b0-401c-b9f2-7586dff77353","ios":"levelo://app?vid=0198280f-05b0-401c-b9f2-7586dff77353"},"vehicle_type_id":"4","last_reported":1761210709,"current_range_meters":14000,"station_id":"","pricing_plan_id":"cebpf4jnsgd1na2vs0mg"},{"bike_id":"22556366-5b35-4879-b6f5-b944bfc8418c","system_id":"levelo_inurba_marseille","lat":43.30165,"lon":5.38088,"is_reserved":false,"is_disabled":true,"rental_uris":{"android":"levelo://app?vid=22556366-5b35-4879-b6f5-b944bfc8418c","ios":"levelo://app?vid=22556366-5b35-4879-b6f5-b944bfc8418c"},"vehicle_type_id":"4","last_reported":1761210709,"current_range_meters":14000,"station_id":"ce4bgjp2rcd13ifvqbh0","pricing_plan_id":"cebpf4jnsgd1na2vs0mg"},{"bike_id":"2a22829e-2bd6-41ec-a3e5-ef826e7425d3","system_id":"levelo_inurba_marseille","lat":43.32128,"lon":5.36765,"is_reserved":false,"is_disabled":false,"rental_uris":{"android":"levelo://app?vid=2a22829e-2bd6-41ec-a3e5-ef826e7425d3","ios":"levelo://app?vid=2a22829e-2bd6-41ec-a3e5-ef826e7425d3"},"vehicle_type_id":"4","last_reported":1761210709,"current_range_meters":14000,"station_id":"ce4bhrh2rcd13ifvqhug","pricing_plan_id":"cebpf4jnsgd1na2vs0mg"},{"bike_id":"0322ca22-3727-41b5-86cb-6682292c28c8","system_id":"levelo_inurba_marseille","lat":43.30538,"lon":5.36696,"is_reserved":false,"is_disabled":false,"rental_uris":{"android":"levelo://app?vid=0322ca22-3727-41b5-86cb-6682292c28c8","ios":"levelo://app?vid=0322ca22-3727-41b5-86cb-6682292c28c8"},"vehicle_type_id":"4","last_reported":1761210709,"current_range_meters":14400,"station_id":"ce4bgrp2rcd13ifvqc9g","pricing_plan_id":"cebpf4jnsgd1na2vs0mg"},{"bike_id":"ea886e01-8738-4e9f-8316-33a3ef2f4c84","system_id":"levelo_inurba_marseille","lat":43.26784,"lon":5.39415,"is_reserved":false,"is_disabled":false,"rental_uris":{"android":"levelo://app?vid=ea886e01-8738-4e9f-8316-33a3ef2f4c84","ios":"levelo://app?vid=ea886e01-8738-4e9f-8316-33a3ef2f4c84"},"vehicle_type_id":"4","last_reported":1761210709,"current_range_meters":14400,"station_id":"ce4bhh12rcd13ifvqfg0","pricing_plan_id":"cebpf4jnsgd1na2vs0mg"},{"bike_id":"6926b0c8-4310-405d-890d-23e8b6c0b7f5","system_id":"levelo_inurba_marseille","lat":43.304596,"lon":5.378959,"is_reserved":false,"is_disabled":true,"rental_uris":{"android":"levelo://app?vid=6926b0c8-4310-405d-890d-23e8b6c0b7f5","ios":"levelo://app?vid=6926b0c8-4310-405d-890d-23e8b6c0b7f5"},"vehicle_type_id":"4","last_reported":1761210709,"current_range_meters":14400,"station_id":"ce4bgup2rcd13ifvqcn0","pricing_plan_id":"cebpf4jnsgd1na2vs0mg"},{"bike_id":"15efa738-ef60-4964-84a1-177d132a0166","system_id":"levelo_inurba_marseille","lat":43.30452,"lon":5.37903,"is_reserved":false,"is_disabled":true,"rental_uris":{"android":"levelo://app?vid=15efa738-ef60-4964-84a1-177d132a0166","ios":"levelo://app?vid=15efa738-ef60-4964-84a1-177d132a0166"},"vehicle_type_id":"4","last_reported":1761210709,"current_range_meters":14400,"station_id":"ce4bgup2rcd13ifvqcn0","pricing_plan_id":"cebpf4jnsgd1na2vs0mg"},{"bike_id":"bda3ed1a-3199-4eb8-8229-577855d09dbb","system_id":"levelo_inurba_marseille","lat":43.3163,"lon":5.37876,"is_reserved":false,"is_disabled":false,"rental_uris":{"android":"levelo://app?vid=bda3ed1a-3199-4eb8-8229-577855d09dbb","ios":"levelo://app?vid=bda3ed1a-3199-4eb8-8229-577855d09dbb"},"vehicle_type_id":"4","last_reported":1761210709,"current_range_meters":14400,"station_id":"","pricing_plan_id":"cebpf4jnsgd1na2vs0mg"},{"bike_id":"77e8774a-1780-4f13-9562-1f8ec17a37ae","system_id":"levelo_inurba_marseille","lat":43.29676,"lon":5.37622,"is_reserved":false,"is_disabled":true,"rental_uris":{"android":"levelo://app?vid=77e8774a-1780-4f13-9562-1f8ec17a37ae","ios":"levelo://app?vid=77e8774a-1780-4f13-9562-1f8ec17a37ae"},"vehicle_type_id":"4","last_reported":1761210709,"current_range_meters":14400,"station_id":"ce4bgkh2rcd13ifvqbl0","pricing_plan_id":"cebpf4jnsgd1na2vs0mg"},{"bike_id":"4b1dc27e-158e-4387-ac73-0bce646bc1a6","system_id":"levelo_inurba_marseille","lat":43.309582,"lon":5.390424,"is_reserved":false,"is_disabled":false,"rental_uris":{"android":"levelo://app?vid=4b1dc27e-158e-4387-ac73-0bce646bc1a6","ios":"levelo://app?vid=4b1dc27e-158e-4387-ac73-0bce646bc1a6"},"vehicle_type_id":"4","last_reported":1761210709,"current_range_meters":14800,"station_id":"ce4bgup2rcd13ifvqco0","pricing_plan_id":"cebpf4jnsgd1na2vs0mg"},{"bike_id":"12336fbe-8f6a-4938-8ad0-ecffb440032a","system_id":"levelo_inurba_marseille","lat":43.25932,"lon":5.40908,"is_reserved":false,"is_disabled":false,"rental_uris":{"android":"levelo://app?vid=12336fbe-8f6a-4938-8ad0-ecffb440032a","ios":"levelo://app?vid=12336fbe-8f6a-4938-8ad0-ecffb440032a"},"vehicle_type_id":"4","last_reported":1761210709,"current_range_meters":14800,"station_id":"ce4bhm92rcd13ifvqglg","pricing_plan_id":"cebpf4jnsgd1na2vs0mg"},{"bike_id":"f30d474c-592d-470d-816b-bf7526dcf767","system_id":"levelo_inurba_marseille","lat":43.30835,"lon":5.38164,"is_reserved":false,"is_disabled":false,"rental_uris":{"android":"levelo://app?vid=f30d474c-592d-470d-816b-bf7526dcf767","ios":"levelo://app?vid=f30d474c-592d-470d-816b-bf7526dcf767"},"vehicle_type_id":"4","last_reported":1761210709,"current_range_meters":14800,"station_id":"ce4bgt12rcd13ifvqce0","pricing_plan_id":"cebpf4jnsgd1na2vs0mg"},{"bike_id":"10512e76-b63b-4ab4-9f41-e46a301376b0","system_id":"levelo_inurba_marseille","lat":43.31228,"lon":5.36872,"is_reserved":false,"is_disabled":false,"rental_uris":{"android":"levelo://app?vid=10512e76-b63b-4ab4-9f41-e46a301376b0","ios":"levelo://app?vid=10512e76-b63b-4ab4-9f41-e46a301376b0"},"vehicle_type_id":"4","last_reported":1761210709,"current_range_meters":14800,"station_id":"ce4bgl92rcd13ifvqbq0","pricing_plan_id":"cebpf4jnsgd1na2vs0mg"},{"bike_id":"c22a9ea6-971c-4878-b91a-f2de7d2de2dc","system_id":"levelo_inurba_marseille","lat":43.23142,"lon":5.43706,"is_reserved":false,"is_disabled":false,"rental_uris":{"android":"levelo://app?vid=c22a9ea6-971c-4878-b91a-f2de7d2de2dc","ios":"levelo://app?vid=c22a9ea6-971c-4878-b91a-f2de7d2de2dc"},"vehicle_type_id":"4","last_reported":1761210709,"current_range_meters":14800,"station_id":"ce4bhmp2rcd13ifvqgog","pricing_plan_id":"cebpf4jnsgd1na2vs0mg"},{"bike_id":"13ffca06-ecc4-46ee-aa82-6818647126c8","system_id":"levelo_inurba_marseille","lat":43.29903,"lon":5.43585,"is_reserved":false,"is_disabled":false,"rental_uris":{"android":"levelo://app?vid=13ffca06-ecc4-46ee-aa82-6818647126c8","ios":"levelo://app?vid=13ffca06-ecc4-46ee-aa82-6818647126c8"},"vehicle_type_id":"4","last_reported":1761210709,"current_range_meters":14800,"station_id":"ce4bhpp2rcd13ifvqhfg","pricing_plan_id":"cebpf4jnsgd1na2vs0mg"},{"bike_id":"2651ac43-9bfe-421b-9a5d-c0350e3911d6","system_id":"levelo_inurba_marseille","lat":43.31326,"lon":5.39694,"is_reserved":false,"is_disabled":false,"rental_uris":{"android":"levelo://app?vid=2651ac43-9bfe-421b-9a5d-c0350e3911d6","ios":"levelo://app?vid=2651ac43-9bfe-421b-9a5d-c0350e3911d6"},"vehicle_type_id":"4","last_reported":1761210709,"current_range_meters":14800,"station_id":"ce4bgvp2rcd13ifvqcu0","pricing_plan_id":"cebpf4jnsgd1na2vs0mg"},{"bike_id":"12f3f073-c041-4658-a7f4-1022f577aab2","system_id":"levelo_inurba_marseille","lat":43.305406,"lon":5.367065,"is_reserved":false,"is_disabled":false,"rental_uris":{"android":"levelo://app?vid=12f3f073-c041-4658-a7f4-1022f577aab2","ios":"levelo://app?vid=12f3f073-c041-4658-a7f4-1022f577aab2"},"vehicle_type_id":"4","last_reported":1761210709,"current_range_meters":15200,"station_id":"ce4bh3h2rcd13ifvqdn0","pricing_plan_id":"cebpf4jnsgd1na2vs0mg"},{"bike_id":"2a6e49f6-4e9c-468c-ad7b-cdbe88b409dc","system_id":"levelo_inurba_marseille","lat":43.29152,"lon":5.384495,"is_reserved":false,"is_disabled":false,"rental_uris":{"android":"levelo://app?vid=2a6e49f6-4e9c-468c-ad7b-cdbe88b409dc","ios":"levelo://app?vid=2a6e49f6-4e9c-468c-ad7b-cdbe88b409dc"},"vehicle_type_id":"4","last_reported":1761210709,"current_range_meters":15200,"station_id":"","pricing_plan_id":"cebpf4jnsgd1na2vs0mg"},{"bike_id":"70e827b9-8b0a-4b0d-b24e-95c15e450dce","system_id":"levelo_inurba_marseille","lat":43.27203,"lon":5.39183,"is_reserved":false,"is_disabled":false,"rental_uris":{"android":"levelo://app?vid=70e827b9-8b0a-4b0d-b24e-95c15e450dce","ios":"levelo://app?vid=70e827b9-8b0a-4b0d-b24e-95c15e450dce"},"vehicle_type_id":"4","last_reported":1761210709,"current_range_meters":15200,"station_id":"ce4bhhp2rcd13ifvqfm0","pricing_plan_id":"cebpf4jnsgd1na2vs0mg"},{"bike_id":"23ab1692-4da8-4725-aac3-a4ce940a94e8","system_id":"levelo_inurba_marseille","lat":43.30947,"lon":5.39032,"is_reserved":false,"is_disabled":false,"rental_uris":{"android":"levelo://app?vid=23ab1692-4da8-4725-aac3-a4ce940a94e8","ios":"levelo://app?vid=23ab1692-4da8-4725-aac3-a4ce940a94e8"},"vehicle_type_id":"4","last_reported":1761210709,"current_range_meters":15200,"station_id":"ce4bgup2rcd13ifvqco0","pricing_plan_id":"cebpf4jnsgd1na2vs0mg"},{"bike_id":"300e82eb-b9bf-4d40-9ec1-7f057c5ad6e8","system_id":"levelo_inurba_marseille","lat":43.308922,"lon":5.396506,"is_reserved":false,"is_disabled":false,"rental_uris":{"android":"levelo://app?vid=300e82eb-b9bf-4d40-9ec1-7f057c5ad6e8","ios":"levelo://app?vid=300e82eb-b9bf-4d40-9ec1-7f057c5ad6e8"},"vehicle_type_id":"4","last_reported":1761210709,"current_range_meters":16000,"station_id":"ce4bh012rcd13ifvqcv0","pricing_plan_id":"cebpf4jnsgd1na2vs0mg"},{"bike_id":"a51a39c4-08ae-4424-854a-be2ed0591b74","system_id":"levelo_inurba_marseille","lat":43.31883,"lon":5.40737,"is_reserved":false,"is_disabled":false,"rental_uris":{"android":"levelo://app?vid=a51a39c4-08ae-4424-854a-be2ed0591b74","ios":"levelo://app?vid=a51a39c4-08ae-4424-854a-be2ed0591b74"},"vehicle_type_id":"4","last_reported":1761210709,"current_range_meters":16400,"station_id":"ce4bhq12rcd13ifvqhig","pricing_plan_id":"cebpf4jnsgd1na2vs0mg"},{"bike_id":"48f81bc6-14ce-4085-a23c-e8908f44acab","system_id":"levelo_inurba_marseille","lat":43.24643,"lon":5.39642,"is_reserved":false,"is_disabled":true,"rental_uris":{"android":"levelo://app?vid=48f81bc6-14ce-4085-a23c-e8908f44acab","ios":"levelo://app?vid=48f81bc6-14ce-4085-a23c-e8908f44acab"},"vehicle_type_id":"4","last_reported":1761210709,"current_range_meters":16400,"station_id":"","pricing_plan_id":"cebpf4jnsgd1na2vs0mg"},{"bike_id":"a5e10cb3-d280-4b4c-8176-279276f1fb2a","system_id":"levelo_inurba_marseille","lat":43.25111,"lon":5.4031,"is_reserved":false,"is_disabled":false,"rental_uris":{"android":"levelo://app?vid=a5e10cb3-d280-4b4c-8176-279276f1fb2a","ios":"levelo://app?vid=a5e10cb3-d280-4b4c-8176-279276f1fb2a"},"vehicle_type_id":"4","last_reported":1761210709,"current_range_meters":16400,"station_id":"ce4bhlh2rcd13ifvqgig","pricing_plan_id":"cebpf4jnsgd1na2vs0mg"},{"bike_id":"6b37a1b8-5eb3-475e-b683-fd0eb1dbf02a","system_id":"levelo_inurba_marseille","lat":43.24804,"lon":5.37444,"is_reserved":false,"is_disabled":true,"rental_uris":{"android":"levelo://app?vid=6b37a1b8-5eb3-475e-b683-fd0eb1dbf02a","ios":"levelo://app?vid=6b37a1b8-5eb3-475e-b683-fd0eb1dbf02a"},"vehicle_type_id":"4","last_reported":1761210709,"current_range_meters":16400,"station_id":"ce4bhgh2rcd13ifvqfb0","pricing_plan_id":"cebpf4jnsgd1na2vs0mg"},{"bike_id":"d217877a-f518-46e1-af73-d33d50b5109d","system_id":"levelo_inurba_marseille","lat":43.26939,"lon":5.38642,"is_reserved":false,"is_disabled":false,"rental_uris":{"android":"levelo://app?vid=d217877a-f518-46e1-af73-d33d50b5109d","ios":"levelo://app?vid=d217877a-f518-46e1-af73-d33d50b5109d"},"vehicle_type_id":"4","last_reported":1761210709,"current_range_meters":16400,"station_id":"ce4bhh92rcd13ifvqfh0","pricing_plan_id":"cebpf4jnsgd1na2vs0mg"},{"bike_id":"32fca576-7bbd-43c5-9ee3-418ca028c84f","system_id":"levelo_inurba_marseille","lat":43.305453,"lon":5.367005,"is_reserved":false,"is_disabled":false,"rental_uris":{"android":"levelo://app?vid=32fca576-7bbd-43c5-9ee3-418ca028c84f","ios":"levelo://app?vid=32fca576-7bbd-43c5-9ee3-418ca028c84f"},"vehicle_type_id":"4","last_reported":1761210709,"current_range_meters":16400,"station_id":"ce4bgrp2rcd13ifvqc9g","pricing_plan_id":"cebpf4jnsgd1na2vs0mg"},{"bike_id":"008e2b3d-d3be-4bf9-a7d5-522d6e7138ce","system_id":"levelo_inurba_marseille","lat":43.237808,"lon":5.366257,"is_reserved":false,"is_disabled":false,"rental_uris":{"android":"levelo://app?vid=008e2b3d-d3be-4bf9-a7d5-522d6e7138ce","ios":"levelo://app?vid=008e2b3d-d3be-4bf9-a7d5-522d6e7138ce"},"vehicle_type_id":"4","last_reported":1761210709,"current_range_meters":16400,"station_id":"st_d3nk18o9ro0c73en2l3g","pricing_plan_id":"cebpf4jnsgd1na2vs0mg"},{"bike_id":"f35113ad-3bc2-482a-82e3-c110a5af2643","system_id":"levelo_inurba_marseille","lat":43.30909,"lon":5.36852,"is_reserved":false,"is_disabled":false,"rental_uris":{"android":"levelo://app?vid=f35113ad-3bc2-482a-82e3-c110a5af2643","ios":"levelo://app?vid=f35113ad-3bc2-482a-82e3-c110a5af2643"},"vehicle_type_id":"4","last_reported":1761210709,"current_range_meters":16400,"station_id":"ce4bgn92rcd13ifvqbvg","pricing_plan_id":"cebpf4jnsgd1na2vs0mg"},{"bike_id":"1996ea89-9471-4d12-8066-1a9d0b7c69da","system_id":"levelo_inurba_marseille","lat":43.244111,"lon":5.370592,"is_reserved":false,"is_disabled":false,"rental_uris":{"android":"levelo://app?vid=1996ea89-9471-4d12-8066-1a9d0b7c69da","ios":"levelo://app?vid=1996ea89-9471-4d12-8066-1a9d0b7c69da"},"vehicle_type_id":"4","last_reported":1761210709,"current_range_meters":16400,"station_id":"ce4bhhh2rcd13ifvqfk0","pricing_plan_id":"cebpf4jnsgd1na2vs0mg"},{"bike_id":"8bcacd78-80de-4026-af75-b37ebe3030fe","system_id":"levelo_inurba_marseille","lat":43.334756,"lon":5.404255,"is_reserved":false,"is_disabled":false,"rental_uris":{"android":"levelo://app?vid=8bcacd78-80de-4026-af75-b37ebe3030fe","ios":"levelo://app?vid=8bcacd78-80de-4026-af75-b37ebe3030fe"},"vehicle_type_id":"4","last_reported":1761210709,"current_range_meters":16400,"station_id":"","pricing_plan_id":"cebpf4jnsgd1na2vs0mg"},{"bike_id":"9c023054-f387-47db-bf1d-2774b5d6d642","system_id":"levelo_inurba_marseille","lat":43.31729,"lon":5.38143,"is_reserved":false,"is_disabled":false,"rental_uris":{"android":"levelo://app?vid=9c023054-f387-47db-bf1d-2774b5d6d642","ios":"levelo://app?vid=9c023054-f387-47db-bf1d-2774b5d6d642"},"vehicle_type_id":"4","last_reported":1761210709,"current_range_meters":16400,"station_id":"","pricing_plan_id":"cebpf4jnsgd1na2vs0mg"},{"bike_id":"b284a5b8-145b-4b18-970a-f541b5c0ebef","system_id":"levelo_inurba_marseille","lat":43.285528,"lon":5.394296,"is_reserved":false,"is_disabled":false,"rental_uris":{"android":"levelo://app?vid=b284a5b8-145b-4b18-970a-f541b5c0ebef","ios":"levelo://app?vid=b284a5b8-145b-4b18-970a-f541b5c0ebef"},"vehicle_type_id":"4","last_reported":1761210709,"current_range_meters":16400,"station_id":"","pricing_plan_id":"cebpf4jnsgd1na2vs0mg"},{"bike_id":"3c473905-25d9-4b81-b6e9-f094d3554e55","system_id":"levelo_inurba_marseille","lat":43.22934,"lon":5.35376,"is_reserved":false,"is_disabled":false,"rental_uris":{"android":"levelo://app?vid=3c473905-25d9-4b81-b6e9-f094d3554e55","ios":"levelo://app?vid=3c473905-25d9-4b81-b6e9-f094d3554e55"},"vehicle_type_id":"4","last_reported":1761210709,"current_range_meters":16400,"station_id":"cpo3532slgdg3j2ikp40","pricing_plan_id":"cebpf4jnsgd1na2vs0mg"},{"bike_id":"f4b2367a-12ef-4353-b463-a7e26fc0cfa2","system_id":"levelo_inurba_marseille","lat":43.29004,"lon":5.3812,"is_reserved":false,"is_disabled":false,"rental_uris":{"android":"levelo://app?vid=f4b2367a-12ef-4353-b463-a7e26fc0cfa2","ios":"levelo://app?vid=f4b2367a-12ef-4353-b463-a7e26fc0cfa2"},"vehicle_type_id":"4","last_reported":1761210709,"current_range_meters":16800,"station_id":"ce4bh4p2rcd13ifvqe1g","pricing_plan_id":"cebpf4jnsgd1na2vs0mg"},{"bike_id":"206ce9bb-93f8-4a08-b561-f32d594a1852","system_id":"levelo_inurba_marseille","lat":43.29828,"lon":5.44069,"is_reserved":false,"is_disabled":false,"rental_uris":{"android":"levelo://app?vid=206ce9bb-93f8-4a08-b561-f32d594a1852","ios":"levelo://app?vid=206ce9bb-93f8-4a08-b561-f32d594a1852"},"vehicle_type_id":"4","last_reported":1761210709,"current_range_meters":16800,"station_id":"st_d3jp68qikq2c7381ktn0","pricing_plan_id":"cebpf4jnsgd1na2vs0mg"},{"bike_id":"e769906a-6115-425c-84a0-aab1fda48d3f","system_id":"levelo_inurba_marseille","lat":43.29641,"lon":5.37576,"is_reserved":false,"is_disabled":false,"rental_uris":{"android":"levelo://app?vid=e769906a-6115-425c-84a0-aab1fda48d3f","ios":"levelo://app?vid=e769906a-6115-425c-84a0-aab1fda48d3f"},"vehicle_type_id":"4","last_reported":1761210709,"current_range_meters":16800,"station_id":"","pricing_plan_id":"cebpf4jnsgd1na2vs0mg"},{"bike_id":"3ccbea60-dcc8-4616-af6f-10202f7d15c9","system_id":"levelo_inurba_marseille","lat":43.27977,"lon":5.38744,"is_reserved":false,"is_disabled":false,"rental_uris":{"android":"levelo://app?vid=3ccbea60-dcc8-4616-af6f-10202f7d15c9","ios":"levelo://app?vid=3ccbea60-dcc8-4616-af6f-10202f7d15c9"},"vehicle_type_id":"4","last_reported":1761210709,"current_range_meters":16800,"station_id":"ce4bhg12rcd13ifvqf80","pricing_plan_id":"cebpf4jnsgd1na2vs0mg"},{"bike_id":"af301788-42ae-4758-b541-27895560b480","system_id":"levelo_inurba_marseille","lat":43.29715,"lon":5.36598,"is_reserved":false,"is_disabled":false,"rental_uris":{"android":"levelo://app?vid=af301788-42ae-4758-b541-27895560b480","ios":"levelo://app?vid=af301788-42ae-4758-b541-27895560b480"},"vehicle_type_id":"4","last_reported":1761210709,"current_range_meters":16800,"station_id":"ce4bgn12rcd13ifvqbt0","pricing_plan_id":"cebpf4jnsgd1na2vs0mg"},{"bike_id":"b9764ed2-f91a-421e-b54e-d7527bd8af22","system_id":"levelo_inurba_marseille","lat":43.29811,"lon":5.36588,"is_reserved":false,"is_disabled":false,"rental_uris":{"android":"levelo://app?vid=b9764ed2-f91a-421e-b54e-d7527bd8af22","ios":"levelo://app?vid=b9764ed2-f91a-421e-b54e-d7527bd8af22"},"vehicle_type_id":"4","last_reported":1761210709,"current_range_meters":16800,"station_id":"","pricing_plan_id":"cebpf4jnsgd1na2vs0mg"},{"bike_id":"78553153-3cdb-4f5d-8361-78e780c4e41f","system_id":"levelo_inurba_marseille","lat":43.30941,"lon":5.39081,"is_reserved":false,"is_disabled":false,"rental_uris":{"android":"levelo://app?vid=78553153-3cdb-4f5d-8361-78e780c4e41f","ios":"levelo://app?vid=78553153-3cdb-4f5d-8361-78e780c4e41f"},"vehicle_type_id":"4","last_reported":1761210709,"current_range_meters":16800,"station_id":"ce4bgup2rcd13ifvqco0","pricing_plan_id":"cebpf4jnsgd1na2vs0mg"},{"bike_id":"2617b07a-bfe1-486a-a657-590c454f7dd1","system_id":"levelo_inurba_marseille","lat":43.309447,"lon":5.390218,"is_reserved":false,"is_disabled":false,"rental_uris":{"android":"levelo://app?vid=2617b07a-bfe1-486a-a657-590c454f7dd1","ios":"levelo://app?vid=2617b07a-bfe1-486a-a657-590c454f7dd1"},"vehicle_type_id":"4","last_reported":1761210709,"current_range_meters":16800,"station_id":"","pricing_plan_id":"cebpf4jnsgd1na2vs0mg"},{"bike_id":"ab142d5b-a631-4b39-9d0a-6a841897b389","system_id":"levelo_inurba_marseille","lat":43.26783,"lon":5.39422,"is_reserved":false,"is_disabled":false,"rental_uris":{"android":"levelo://app?vid=ab142d5b-a631-4b39-9d0a-6a841897b389","ios":"levelo://app?vid=ab142d5b-a631-4b39-9d0a-6a841897b389"},"vehicle_type_id":"4","last_reported":1761210709,"current_range_meters":17200,"station_id":"ce4bhh12rcd13ifvqfg0","pricing_plan_id":"cebpf4jnsgd1na2vs0mg"},{"bike_id":"96939117-35ce-41f0-9af0-fcff4726b36a","system_id":"levelo_inurba_marseille","lat":43.30385,"lon":5.42458,"is_reserved":false,"is_disabled":false,"rental_uris":{"android":"levelo://app?vid=96939117-35ce-41f0-9af0-fcff4726b36a","ios":"levelo://app?vid=96939117-35ce-41f0-9af0-fcff4726b36a"},"vehicle_type_id":"4","last_reported":1761210709,"current_range_meters":17200,"station_id":"ce4bhoh2rcd13ifvqh6g","pricing_plan_id":"cebpf4jnsgd1na2vs0mg"},{"bike_id":"f91a001c-0614-4fe8-b235-d5afce6ff6eb","system_id":"levelo_inurba_marseille","lat":43.30463,"lon":5.37906,"is_reserved":false,"is_disabled":false,"rental_uris":{"android":"levelo://app?vid=f91a001c-0614-4fe8-b235-d5afce6ff6eb","ios":"levelo://app?vid=f91a001c-0614-4fe8-b235-d5afce6ff6eb"},"vehicle_type_id":"4","last_reported":1761210709,"current_range_meters":17200,"station_id":"ce4bgup2rcd13ifvqcn0","pricing_plan_id":"cebpf4jnsgd1na2vs0mg"},{"bike_id":"d1229fdb-df7c-411f-b79e-7b9f1523d47b","system_id":"levelo_inurba_marseille","lat":43.30469,"lon":5.37903,"is_reserved":false,"is_disabled":false,"rental_uris":{"android":"levelo://app?vid=d1229fdb-df7c-411f-b79e-7b9f1523d47b","ios":"levelo://app?vid=d1229fdb-df7c-411f-b79e-7b9f1523d47b"},"vehicle_type_id":"4","last_reported":1761210709,"current_range_meters":17200,"station_id":"ce4bgup2rcd13ifvqcn0","pricing_plan_id":"cebpf4jnsgd1na2vs0mg"},{"bike_id":"444ad99b-7ae3-4c55-a123-a1c695a479fa","system_id":"levelo_inurba_marseille","lat":43.29035,"lon":5.38634,"is_reserved":false,"is_disabled":false,"rental_uris":{"android":"levelo://app?vid=444ad99b-7ae3-4c55-a123-a1c695a479fa","ios":"levelo://app?vid=444ad99b-7ae3-4c55-a123-a1c695a479fa"},"vehicle_type_id":"4","last_reported":1761210709,"current_range_meters":17200,"station_id":"ce4bh4p2rcd13ifvqe0g","pricing_plan_id":"cebpf4jnsgd1na2vs0mg"},{"bike_id":"7b113150-9a3e-408d-be60-f73dcbe6efbf","system_id":"levelo_inurba_marseille","lat":43.24806,"lon":5.37448,"is_reserved":false,"is_disabled":false,"rental_uris":{"android":"levelo://app?vid=7b113150-9a3e-408d-be60-f73dcbe6efbf","ios":"levelo://app?vid=7b113150-9a3e-408d-be60-f73dcbe6efbf"},"vehicle_type_id":"4","last_reported":1761210709,"current_range_meters":17200,"station_id":"ce4bhgh2rcd13ifvqfb0","pricing_plan_id":"cebpf4jnsgd1na2vs0mg"},{"bike_id":"f8b9abdd-87fa-4d8c-b47e-88551f8ff906","system_id":"levelo_inurba_marseille","lat":43.24386,"lon":5.3706,"is_reserved":false,"is_disabled":false,"rental_uris":{"android":"levelo://app?vid=f8b9abdd-87fa-4d8c-b47e-88551f8ff906","ios":"levelo://app?vid=f8b9abdd-87fa-4d8c-b47e-88551f8ff906"},"vehicle_type_id":"4","last_reported":1761210709,"current_range_meters":17200,"station_id":"ce4bhhh2rcd13ifvqfk0","pricing_plan_id":"cebpf4jnsgd1na2vs0mg"},{"bike_id":"2172ef7f-240b-4c72-bf8d-26c79cc1f73d","system_id":"levelo_inurba_marseille","lat":43.29902,"lon":5.43681,"is_reserved":false,"is_disabled":false,"rental_uris":{"android":"levelo://app?vid=2172ef7f-240b-4c72-bf8d-26c79cc1f73d","ios":"levelo://app?vid=2172ef7f-240b-4c72-bf8d-26c79cc1f73d"},"vehicle_type_id":"4","last_reported":1761210709,"current_range_meters":17600,"station_id":"ce4bhpp2rcd13ifvqhfg","pricing_plan_id":"cebpf4jnsgd1na2vs0mg"},{"bike_id":"e986eb56-ca00-4dbf-ada0-578bc3d8f529","system_id":"levelo_inurba_marseille","lat":43.27323,"lon":5.41411,"is_reserved":false,"is_disabled":false,"rental_uris":{"android":"levelo://app?vid=e986eb56-ca00-4dbf-ada0-578bc3d8f529","ios":"levelo://app?vid=e986eb56-ca00-4dbf-ada0-578bc3d8f529"},"vehicle_type_id":"4","last_reported":1761210709,"current_range_meters":17600,"station_id":"","pricing_plan_id":"cebpf4jnsgd1na2vs0mg"},{"bike_id":"75eebb0f-2447-4bf8-b846-45b5b359059b","system_id":"levelo_inurba_marseille","lat":43.33762,"lon":5.37487,"is_reserved":false,"is_disabled":false,"rental_uris":{"android":"levelo://app?vid=75eebb0f-2447-4bf8-b846-45b5b359059b","ios":"levelo://app?vid=75eebb0f-2447-4bf8-b846-45b5b359059b"},"vehicle_type_id":"4","last_reported":1761210709,"current_range_meters":17600,"station_id":"","pricing_plan_id":"cebpf4jnsgd1na2vs0mg"},{"bike_id":"ff3fcf70-c183-4046-b310-5c316a40bd51","system_id":"levelo_inurba_marseille","lat":43.30726,"lon":5.42439,"is_reserved":false,"is_disabled":false,"rental_uris":{"android":"levelo://app?vid=ff3fcf70-c183-4046-b310-5c316a40bd51","ios":"levelo://app?vid=ff3fcf70-c183-4046-b310-5c316a40bd51"},"vehicle_type_id":"4","last_reported":1761210709,"current_range_meters":17600,"station_id":"st_cvj6ca6bvosntc0bfgr0","pricing_plan_id":"cebpf4jnsgd1na2vs0mg"},{"bike_id":"de6614d3-f5d0-4631-a6ac-aad439cfe511","system_id":"levelo_inurba_marseille","lat":43.24547,"lon":5.39527,"is_reserved":false,"is_disabled":true,"rental_uris":{"android":"levelo://app?vid=de6614d3-f5d0-4631-a6ac-aad439cfe511","ios":"levelo://app?vid=de6614d3-f5d0-4631-a6ac-aad439cfe511"},"vehicle_type_id":"4","last_reported":1761210709,"current_range_meters":17600,"station_id":"ce4bhlp2rcd13ifvqgjg","pricing_plan_id":"cebpf4jnsgd1na2vs0mg"},{"bike_id":"0e693f24-b475-4e05-8789-fe144bc148e8","system_id":"levelo_inurba_marseille","lat":43.28866,"lon":5.42533,"is_reserved":false,"is_disabled":false,"rental_uris":{"android":"levelo://app?vid=0e693f24-b475-4e05-8789-fe144bc148e8","ios":"levelo://app?vid=0e693f24-b475-4e05-8789-fe144bc148e8"},"vehicle_type_id":"4","last_reported":1761210709,"current_range_meters":17600,"station_id":"st_d3b462108ojc7389ooeg","pricing_plan_id":"cebpf4jnsgd1na2vs0mg"},{"bike_id":"181d2c2e-cbb2-406f-989e-7e5f165a71d6","system_id":"levelo_inurba_marseille","lat":43.31354,"lon":5.36709,"is_reserved":false,"is_disabled":false,"rental_uris":{"android":"levelo://app?vid=181d2c2e-cbb2-406f-989e-7e5f165a71d6","ios":"levelo://app?vid=181d2c2e-cbb2-406f-989e-7e5f165a71d6"},"vehicle_type_id":"4","last_reported":1761210709,"current_range_meters":17600,"station_id":"ce4bgr92rcd13ifvqc6g","pricing_plan_id":"cebpf4jnsgd1na2vs0mg"},{"bike_id":"3eb0a2fa-b740-420d-bf27-5edc77183aa0","system_id":"levelo_inurba_marseille","lat":43.290187,"lon":5.381273,"is_reserved":false,"is_disabled":false,"rental_uris":{"android":"levelo://app?vid=3eb0a2fa-b740-420d-bf27-5edc77183aa0","ios":"levelo://app?vid=3eb0a2fa-b740-420d-bf27-5edc77183aa0"},"vehicle_type_id":"4","last_reported":1761210709,"current_range_meters":18000,"station_id":"ce4bh4p2rcd13ifvqe1g","pricing_plan_id":"cebpf4jnsgd1na2vs0mg"},{"bike_id":"3e4783b6-28d8-4737-a4ef-6a1b0da02476","system_id":"levelo_inurba_marseille","lat":43.294467,"lon":5.407097,"is_reserved":false,"is_disabled":false,"rental_uris":{"android":"levelo://app?vid=3e4783b6-28d8-4737-a4ef-6a1b0da02476","ios":"levelo://app?vid=3e4783b6-28d8-4737-a4ef-6a1b0da02476"},"vehicle_type_id":"4","last_reported":1761210709,"current_range_meters":18000,"station_id":"","pricing_plan_id":"cebpf4jnsgd1na2vs0mg"},{"bike_id":"25510b45-08cd-431b-9096-a61c2284a027","system_id":"levelo_inurba_marseille","lat":43.31701,"lon":5.382004,"is_reserved":false,"is_disabled":false,"rental_uris":{"android":"levelo://app?vid=25510b45-08cd-431b-9096-a61c2284a027","ios":"levelo://app?vid=25510b45-08cd-431b-9096-a61c2284a027"},"vehicle_type_id":"4","last_reported":1761210709,"current_range_meters":18000,"station_id":"","pricing_plan_id":"cebpf4jnsgd1na2vs0mg"},{"bike_id":"bee9ad2f-aaea-4607-9ffa-be6bd0213b89","system_id":"levelo_inurba_marseille","lat":43.33726,"lon":5.39184,"is_reserved":false,"is_disabled":true,"rental_uris":{"android":"levelo://app?vid=bee9ad2f-aaea-4607-9ffa-be6bd0213b89","ios":"levelo://app?vid=bee9ad2f-aaea-4607-9ffa-be6bd0213b89"},"vehicle_type_id":"4","last_reported":1761210709,"current_range_meters":18000,"station_id":"ce4bhr92rcd13ifvqhsg","pricing_plan_id":"cebpf4jnsgd1na2vs0mg"},{"bike_id":"20fee652-018b-4cb5-9fa8-fe24435e706a","system_id":"levelo_inurba_marseille","lat":43.24998,"lon":5.38932,"is_reserved":false,"is_disabled":false,"rental_uris":{"android":"levelo://app?vid=20fee652-018b-4cb5-9fa8-fe24435e706a","ios":"levelo://app?vid=20fee652-018b-4cb5-9fa8-fe24435e706a"},"vehicle_type_id":"4","last_reported":1761210709,"current_range_meters":18000,"station_id":"ce4bhgp2rcd13ifvqfd0","pricing_plan_id":"cebpf4jnsgd1na2vs0mg"},{"bike_id":"d9ecb998-ceaa-4a39-8aba-9f0e44069447","system_id":"levelo_inurba_marseille","lat":43.32147,"lon":5.38731,"is_reserved":false,"is_disabled":false,"rental_uris":{"android":"levelo://app?vid=d9ecb998-ceaa-4a39-8aba-9f0e44069447","ios":"levelo://app?vid=d9ecb998-ceaa-4a39-8aba-9f0e44069447"},"vehicle_type_id":"4","last_reported":1761210709,"current_range_meters":18000,"station_id":"","pricing_plan_id":"cebpf4jnsgd1na2vs0mg"},{"bike_id":"b21b6ff6-0929-4acd-a3b0-3f248e63c66d","system_id":"levelo_inurba_marseille","lat":43.32153,"lon":5.36791,"is_reserved":false,"is_disabled":false,"rental_uris":{"android":"levelo://app?vid=b21b6ff6-0929-4acd-a3b0-3f248e63c66d","ios":"levelo://app?vid=b21b6ff6-0929-4acd-a3b0-3f248e63c66d"},"vehicle_type_id":"4","last_reported":1761210709,"current_range_meters":18800,"station_id":"","pricing_plan_id":"cebpf4jnsgd1na2vs0mg"},{"bike_id":"6552118e-9997-496d-8ae3-3aae82824535","system_id":"levelo_inurba_marseille","lat":43.32246,"lon":5.38357,"is_reserved":false,"is_disabled":false,"rental_uris":{"android":"levelo://app?vid=6552118e-9997-496d-8ae3-3aae82824535","ios":"levelo://app?vid=6552118e-9997-496d-8ae3-3aae82824535"},"vehicle_type_id":"4","last_reported":1761210709,"current_range_meters":18800,"station_id":"","pricing_plan_id":"cebpf4jnsgd1na2vs0mg"},{"bike_id":"f1c3e3ec-55ef-42d0-b93b-f9e2e46d2741","system_id":"levelo_inurba_marseille","lat":43.26781,"lon":5.39415,"is_reserved":false,"is_disabled":false,"rental_uris":{"android":"levelo://app?vid=f1c3e3ec-55ef-42d0-b93b-f9e2e46d2741","ios":"levelo://app?vid=f1c3e3ec-55ef-42d0-b93b-f9e2e46d2741"},"vehicle_type_id":"4","last_reported":1761210709,"current_range_meters":18800,"station_id":"ce4bhh12rcd13ifvqfg0","pricing_plan_id":"cebpf4jnsgd1na2vs0mg"},{"bike_id":"700ba852-502b-4548-93e2-c530c2b9889c","system_id":"levelo_inurba_marseille","lat":43.305435,"lon":5.365576,"is_reserved":false,"is_disabled":false,"rental_uris":{"android":"levelo://app?vid=700ba852-502b-4548-93e2-c530c2b9889c","ios":"levelo://app?vid=700ba852-502b-4548-93e2-c530c2b9889c"},"vehicle_type_id":"4","last_reported":1761210709,"current_range_meters":18800,"station_id":"ce4bgs12rcd13ifvqcag","pricing_plan_id":"cebpf4jnsgd1na2vs0mg"},{"bike_id":"bffb735b-ffc6-4145-9add-7ad3988de99c","system_id":"levelo_inurba_marseille","lat":43.32482,"lon":5.36565,"is_reserved":false,"is_disabled":false,"rental_uris":{"android":"levelo://app?vid=bffb735b-ffc6-4145-9add-7ad3988de99c","ios":"levelo://app?vid=bffb735b-ffc6-4145-9add-7ad3988de99c"},"vehicle_type_id":"4","last_reported":1761210709,"current_range_meters":19200,"station_id":"ce4bhs12rcd13ifvqhvg","pricing_plan_id":"cebpf4jnsgd1na2vs0mg"},{"bike_id":"0a4d81c6-2647-4e67-bde2-b7adbc7ef2ba","system_id":"levelo_inurba_marseille","lat":43.285335,"lon":5.440893,"is_reserved":false,"is_disabled":true,"rental_uris":{"android":"levelo://app?vid=0a4d81c6-2647-4e67-bde2-b7adbc7ef2ba","ios":"levelo://app?vid=0a4d81c6-2647-4e67-bde2-b7adbc7ef2ba"},"vehicle_type_id":"4","last_reported":1761210709,"current_range_meters":19200,"station_id":"st_d3j3df2ikq2c7380ej80","pricing_plan_id":"cebpf4jnsgd1na2vs0mg"},{"bike_id":"6250ac27-ee37-41d1-bc0f-a615c7912f4a","system_id":"levelo_inurba_marseille","lat":43.32363,"lon":5.36767,"is_reserved":false,"is_disabled":false,"rental_uris":{"android":"levelo://app?vid=6250ac27-ee37-41d1-bc0f-a615c7912f4a","ios":"levelo://app?vid=6250ac27-ee37-41d1-bc0f-a615c7912f4a"},"vehicle_type_id":"4","last_reported":1761210709,"current_range_meters":19200,"station_id":"ce4bhsh2rcd13ifvqi2g","pricing_plan_id":"cebpf4jnsgd1na2vs0mg"},{"bike_id":"5c3427ac-4ff2-4dd4-9f10-18e1f09def38","system_id":"levelo_inurba_marseille","lat":43.29756,"lon":5.38113,"is_reserved":false,"is_disabled":false,"rental_uris":{"android":"levelo://app?vid=5c3427ac-4ff2-4dd4-9f10-18e1f09def38","ios":"levelo://app?vid=5c3427ac-4ff2-4dd4-9f10-18e1f09def38"},"vehicle_type_id":"4","last_reported":1761210709,"current_range_meters":19200,"station_id":"","pricing_plan_id":"cebpf4jnsgd1na2vs0mg"},{"bike_id":"5db0d44d-18b4-422a-9766-a3218057e91c","system_id":"levelo_inurba_marseille","lat":43.22931,"lon":5.3539,"is_reserved":false,"is_disabled":false,"rental_uris":{"android":"levelo://app?vid=5db0d44d-18b4-422a-9766-a3218057e91c","ios":"levelo://app?vid=5db0d44d-18b4-422a-9766-a3218057e91c"},"vehicle_type_id":"4","last_reported":1761210709,"current_range_meters":19200,"station_id":"cpo3532slgdg3j2ikp40","pricing_plan_id":"cebpf4jnsgd1na2vs0mg"},{"bike_id":"4b4ff7b8-16e4-4dd3-b6f9-faa3e768f998","system_id":"levelo_inurba_marseille","lat":43.29839,"lon":5.36268,"is_reserved":false,"is_disabled":false,"rental_uris":{"android":"levelo://app?vid=4b4ff7b8-16e4-4dd3-b6f9-faa3e768f998","ios":"levelo://app?vid=4b4ff7b8-16e4-4dd3-b6f9-faa3e768f998"},"vehicle_type_id":"4","last_reported":1761210709,"current_range_meters":19200,"station_id":"ce4bgpp2rcd13ifvqc3g","pricing_plan_id":"cebpf4jnsgd1na2vs0mg"},{"bike_id":"7877ff7b-2c57-444b-afd5-738313840c1f","system_id":"levelo_inurba_marseille","lat":43.30133,"lon":5.37417,"is_reserved":false,"is_disabled":false,"rental_uris":{"android":"levelo://app?vid=7877ff7b-2c57-444b-afd5-738313840c1f","ios":"levelo://app?vid=7877ff7b-2c57-444b-afd5-738313840c1f"},"vehicle_type_id":"4","last_reported":1761210709,"current_range_meters":19200,"station_id":"ce4bgs92rcd13ifvqcc0","pricing_plan_id":"cebpf4jnsgd1na2vs0mg"},{"bike_id":"3aca6cbf-1274-4610-a65a-293e32d1958b","system_id":"levelo_inurba_marseille","lat":43.33596,"lon":5.40999,"is_reserved":false,"is_disabled":false,"rental_uris":{"android":"levelo://app?vid=3aca6cbf-1274-4610-a65a-293e32d1958b","ios":"levelo://app?vid=3aca6cbf-1274-4610-a65a-293e32d1958b"},"vehicle_type_id":"4","last_reported":1761210709,"current_range_meters":19200,"station_id":"ce4bhqh2rcd13ifvqhmg","pricing_plan_id":"cebpf4jnsgd1na2vs0mg"},{"bike_id":"68331855-b34a-4cd3-8007-514c7b2f284b","system_id":"levelo_inurba_marseille","lat":43.26945,"lon":5.38636,"is_reserved":false,"is_disabled":false,"rental_uris":{"android":"levelo://app?vid=68331855-b34a-4cd3-8007-514c7b2f284b","ios":"levelo://app?vid=68331855-b34a-4cd3-8007-514c7b2f284b"},"vehicle_type_id":"4","last_reported":1761210709,"current_range_meters":19600,"station_id":"ce4bhh92rcd13ifvqfh0","pricing_plan_id":"cebpf4jnsgd1na2vs0mg"},{"bike_id":"f8c755d7-1bb8-4fcd-bb3f-74aeb49951cc","system_id":"levelo_inurba_marseille","lat":43.313693,"lon":5.37901,"is_reserved":false,"is_disabled":false,"rental_uris":{"android":"levelo://app?vid=f8c755d7-1bb8-4fcd-bb3f-74aeb49951cc","ios":"levelo://app?vid=f8c755d7-1bb8-4fcd-bb3f-74aeb49951cc"},"vehicle_type_id":"4","last_reported":1761210709,"current_range_meters":19600,"station_id":"","pricing_plan_id":"cebpf4jnsgd1na2vs0mg"},{"bike_id":"75552eb5-38a2-43ca-9291-cacb859b6f73","system_id":"levelo_inurba_marseille","lat":43.284215,"lon":5.349847,"is_reserved":false,"is_disabled":false,"rental_uris":{"android":"levelo://app?vid=75552eb5-38a2-43ca-9291-cacb859b6f73","ios":"levelo://app?vid=75552eb5-38a2-43ca-9291-cacb859b6f73"},"vehicle_type_id":"4","last_reported":1761210709,"current_range_meters":19600,"station_id":"","pricing_plan_id":"cebpf4jnsgd1na2vs0mg"},{"bike_id":"7e3f0c29-c7cf-4648-8c63-90f647962dab","system_id":"levelo_inurba_marseille","lat":43.29894,"lon":5.43668,"is_reserved":false,"is_disabled":false,"rental_uris":{"android":"levelo://app?vid=7e3f0c29-c7cf-4648-8c63-90f647962dab","ios":"levelo://app?vid=7e3f0c29-c7cf-4648-8c63-90f647962dab"},"vehicle_type_id":"4","last_reported":1761210709,"current_range_meters":19600,"station_id":"ce4bhpp2rcd13ifvqhfg","pricing_plan_id":"cebpf4jnsgd1na2vs0mg"},{"bike_id":"27d2104d-1b8f-4689-8074-7a744a934c06","system_id":"levelo_inurba_marseille","lat":43.241801,"lon":5.397221,"is_reserved":false,"is_disabled":false,"rental_uris":{"android":"levelo://app?vid=27d2104d-1b8f-4689-8074-7a744a934c06","ios":"levelo://app?vid=27d2104d-1b8f-4689-8074-7a744a934c06"},"vehicle_type_id":"4","last_reported":1761210709,"current_range_meters":19600,"station_id":"ce4bhn12rcd13ifvqgpg","pricing_plan_id":"cebpf4jnsgd1na2vs0mg"},{"bike_id":"692a999f-f646-43fe-b949-d58fd32447f4","system_id":"levelo_inurba_marseille","lat":43.32254,"lon":5.3944,"is_reserved":false,"is_disabled":false,"rental_uris":{"android":"levelo://app?vid=692a999f-f646-43fe-b949-d58fd32447f4","ios":"levelo://app?vid=692a999f-f646-43fe-b949-d58fd32447f4"},"vehicle_type_id":"4","last_reported":1761210709,"current_range_meters":19600,"station_id":"","pricing_plan_id":"cebpf4jnsgd1na2vs0mg"},{"bike_id":"aba9a550-3851-4684-b07d-5266d742b3b7","system_id":"levelo_inurba_marseille","lat":43.23155,"lon":5.4371,"is_reserved":false,"is_disabled":false,"rental_uris":{"android":"levelo://app?vid=aba9a550-3851-4684-b07d-5266d742b3b7","ios":"levelo://app?vid=aba9a550-3851-4684-b07d-5266d742b3b7"},"vehicle_type_id":"4","last_reported":1761210709,"current_range_meters":19600,"station_id":"ce4bhmp2rcd13ifvqgog","pricing_plan_id":"cebpf4jnsgd1na2vs0mg"},{"bike_id":"210b689d-7ad0-4ae5-b610-9b5ca09192ec","system_id":"levelo_inurba_marseille","lat":43.26773,"lon":5.39418,"is_reserved":false,"is_disabled":false,"rental_uris":{"android":"levelo://app?vid=210b689d-7ad0-4ae5-b610-9b5ca09192ec","ios":"levelo://app?vid=210b689d-7ad0-4ae5-b610-9b5ca09192ec"},"vehicle_type_id":"4","last_reported":1761210709,"current_range_meters":20000,"station_id":"ce4bhh12rcd13ifvqfg0","pricing_plan_id":"cebpf4jnsgd1na2vs0mg"},{"bike_id":"6db8ef95-2e7c-4eaa-865b-bf19cbffa797","system_id":"levelo_inurba_marseille","lat":43.23149,"lon":5.43723,"is_reserved":false,"is_disabled":false,"rental_uris":{"android":"levelo://app?vid=6db8ef95-2e7c-4eaa-865b-bf19cbffa797","ios":"levelo://app?vid=6db8ef95-2e7c-4eaa-865b-bf19cbffa797"},"vehicle_type_id":"4","last_reported":1761210709,"current_range_meters":20000,"station_id":"ce4bhmp2rcd13ifvqgog","pricing_plan_id":"cebpf4jnsgd1na2vs0mg"},{"bike_id":"62f0a2f8-d352-4580-a096-e8ce56ffccdb","system_id":"levelo_inurba_marseille","lat":43.32087,"lon":5.36773,"is_reserved":false,"is_disabled":false,"rental_uris":{"android":"levelo://app?vid=62f0a2f8-d352-4580-a096-e8ce56ffccdb","ios":"levelo://app?vid=62f0a2f8-d352-4580-a096-e8ce56ffccdb"},"vehicle_type_id":"4","last_reported":1761210709,"current_range_meters":20000,"station_id":"ce4bhrh2rcd13ifvqhug","pricing_plan_id":"cebpf4jnsgd1na2vs0mg"},{"bike_id":"e2b2fac4-26fb-45b8-bec7-47c0ff3ad25c","system_id":"levelo_inurba_marseille","lat":43.276646,"lon":5.388952,"is_reserved":false,"is_disabled":false,"rental_uris":{"android":"levelo://app?vid=e2b2fac4-26fb-45b8-bec7-47c0ff3ad25c","ios":"levelo://app?vid=e2b2fac4-26fb-45b8-bec7-47c0ff3ad25c"},"vehicle_type_id":"4","last_reported":1761210709,"current_range_meters":20000,"station_id":"ce4bhi12rcd13ifvqfo0","pricing_plan_id":"cebpf4jnsgd1na2vs0mg"},{"bike_id":"52a04b7c-586f-491c-aded-7c538741c912","system_id":"levelo_inurba_marseille","lat":43.30329,"lon":5.36914,"is_reserved":false,"is_disabled":false,"rental_uris":{"android":"levelo://app?vid=52a04b7c-586f-491c-aded-7c538741c912","ios":"levelo://app?vid=52a04b7c-586f-491c-aded-7c538741c912"},"vehicle_type_id":"4","last_reported":1761210709,"current_range_meters":20000,"station_id":"ce4bgqh2rcd13ifvqc5g","pricing_plan_id":"cebpf4jnsgd1na2vs0mg"},{"bike_id":"c83857bd-e0ee-462d-9350-b6b6e22f6eb4","system_id":"levelo_inurba_marseille","lat":43.24801,"lon":5.37453,"is_reserved":false,"is_disabled":false,"rental_uris":{"android":"levelo://app?vid=c83857bd-e0ee-462d-9350-b6b6e22f6eb4","ios":"levelo://app?vid=c83857bd-e0ee-462d-9350-b6b6e22f6eb4"},"vehicle_type_id":"4","last_reported":1761210709,"current_range_meters":20000,"station_id":"ce4bhgh2rcd13ifvqfb0","pricing_plan_id":"cebpf4jnsgd1na2vs0mg"},{"bike_id":"0b4950d2-b3b6-45cd-bf04-c6c52cbc5cef","system_id":"levelo_inurba_marseille","lat":43.24659,"lon":5.38159,"is_reserved":false,"is_disabled":false,"rental_uris":{"android":"levelo://app?vid=0b4950d2-b3b6-45cd-bf04-c6c52cbc5cef","ios":"levelo://app?vid=0b4950d2-b3b6-45cd-bf04-c6c52cbc5cef"},"vehicle_type_id":"4","last_reported":1761210709,"current_range_meters":20000,"station_id":"ce4bhih2rcd13ifvqfr0","pricing_plan_id":"cebpf4jnsgd1na2vs0mg"},{"bike_id":"77124793-d73a-43ea-8840-1a1b5476fa23","system_id":"levelo_inurba_marseille","lat":43.31051,"lon":5.38075,"is_reserved":false,"is_disabled":false,"rental_uris":{"android":"levelo://app?vid=77124793-d73a-43ea-8840-1a1b5476fa23","ios":"levelo://app?vid=77124793-d73a-43ea-8840-1a1b5476fa23"},"vehicle_type_id":"4","last_reported":1761210709,"current_range_meters":20000,"station_id":"","pricing_plan_id":"cebpf4jnsgd1na2vs0mg"},{"bike_id":"e5ff593c-e71b-4a9d-9d24-73f33c7740d7","system_id":"levelo_inurba_marseille","lat":43.28101,"lon":5.37831,"is_reserved":false,"is_disabled":false,"rental_uris":{"android":"levelo://app?vid=e5ff593c-e71b-4a9d-9d24-73f33c7740d7","ios":"levelo://app?vid=e5ff593c-e71b-4a9d-9d24-73f33c7740d7"},"vehicle_type_id":"4","last_reported":1761210709,"current_range_meters":20400,"station_id":"ce4bha12rcd13ifvqee0","pricing_plan_id":"cebpf4jnsgd1na2vs0mg"},{"bike_id":"ea2ca8c6-659a-424c-af60-77200c913dab","system_id":"levelo_inurba_marseille","lat":43.28608,"lon":5.37067,"is_reserved":false,"is_disabled":false,"rental_uris":{"android":"levelo://app?vid=ea2ca8c6-659a-424c-af60-77200c913dab","ios":"levelo://app?vid=ea2ca8c6-659a-424c-af60-77200c913dab"},"vehicle_type_id":"4","last_reported":1761210709,"current_range_meters":20400,"station_id":"ce4bht12rcd13ifvqi60","pricing_plan_id":"cebpf4jnsgd1na2vs0mg"},{"bike_id":"94432ee3-3c4f-4ec3-bebb-0c4529b88e89","system_id":"levelo_inurba_marseille","lat":43.29028,"lon":5.38642,"is_reserved":false,"is_disabled":false,"rental_uris":{"android":"levelo://app?vid=94432ee3-3c4f-4ec3-bebb-0c4529b88e89","ios":"levelo://app?vid=94432ee3-3c4f-4ec3-bebb-0c4529b88e89"},"vehicle_type_id":"4","last_reported":1761210709,"current_range_meters":20400,"station_id":"ce4bh4p2rcd13ifvqe0g","pricing_plan_id":"cebpf4jnsgd1na2vs0mg"},{"bike_id":"47f09c0c-92a9-44eb-a23c-69934b3ff134","system_id":"levelo_inurba_marseille","lat":43.30116,"lon":5.43112,"is_reserved":false,"is_disabled":false,"rental_uris":{"android":"levelo://app?vid=47f09c0c-92a9-44eb-a23c-69934b3ff134","ios":"levelo://app?vid=47f09c0c-92a9-44eb-a23c-69934b3ff134"},"vehicle_type_id":"4","last_reported":1761210709,"current_range_meters":20400,"station_id":"st_d3js3co5814s73ftftug","pricing_plan_id":"cebpf4jnsgd1na2vs0mg"},{"bike_id":"0c4ce8cb-cdf8-43ed-b3c6-3754ebb7fdcb","system_id":"levelo_inurba_marseille","lat":43.29207,"lon":5.358064,"is_reserved":false,"is_disabled":false,"rental_uris":{"android":"levelo://app?vid=0c4ce8cb-cdf8-43ed-b3c6-3754ebb7fdcb","ios":"levelo://app?vid=0c4ce8cb-cdf8-43ed-b3c6-3754ebb7fdcb"},"vehicle_type_id":"4","last_reported":1761210709,"current_range_meters":20400,"station_id":"ce4bhb12rcd13ifvqel0","pricing_plan_id":"cebpf4jnsgd1na2vs0mg"},{"bike_id":"7449c88d-86df-4c58-951f-1e7602552c48","system_id":"levelo_inurba_marseille","lat":43.30469,"lon":5.379,"is_reserved":false,"is_disabled":false,"rental_uris":{"android":"levelo://app?vid=7449c88d-86df-4c58-951f-1e7602552c48","ios":"levelo://app?vid=7449c88d-86df-4c58-951f-1e7602552c48"},"vehicle_type_id":"4","last_reported":1761210709,"current_range_meters":20800,"station_id":"ce4bgup2rcd13ifvqcn0","pricing_plan_id":"cebpf4jnsgd1na2vs0mg"},{"bike_id":"d9499b7a-7d9b-402b-98ef-d8120667beb9","system_id":"levelo_inurba_marseille","lat":43.26775,"lon":5.39418,"is_reserved":false,"is_disabled":false,"rental_uris":{"android":"levelo://app?vid=d9499b7a-7d9b-402b-98ef-d8120667beb9","ios":"levelo://app?vid=d9499b7a-7d9b-402b-98ef-d8120667beb9"},"vehicle_type_id":"4","last_reported":1761210709,"current_range_meters":20800,"station_id":"ce4bhh12rcd13ifvqfg0","pricing_plan_id":"cebpf4jnsgd1na2vs0mg"},{"bike_id":"1316ae57-eb56-4e6b-a70d-c7eecf200875","system_id":"levelo_inurba_marseille","lat":43.296017,"lon":5.380827,"is_reserved":false,"is_disabled":true,"rental_uris":{"android":"levelo://app?vid=1316ae57-eb56-4e6b-a70d-c7eecf200875","ios":"levelo://app?vid=1316ae57-eb56-4e6b-a70d-c7eecf200875"},"vehicle_type_id":"4","last_reported":1761210709,"current_range_meters":20800,"station_id":"ce4bgl12rcd13ifvqbo0","pricing_plan_id":"cebpf4jnsgd1na2vs0mg"},{"bike_id":"6e413169-4f07-48f8-9049-c5a7da660ded","system_id":"levelo_inurba_marseille","lat":43.28284,"lon":5.35071,"is_reserved":false,"is_disabled":false,"rental_uris":{"android":"levelo://app?vid=6e413169-4f07-48f8-9049-c5a7da660ded","ios":"levelo://app?vid=6e413169-4f07-48f8-9049-c5a7da660ded"},"vehicle_type_id":"4","last_reported":1761210709,"current_range_meters":20800,"station_id":"ce4bhnh2rcd13ifvqgug","pricing_plan_id":"cebpf4jnsgd1na2vs0mg"},{"bike_id":"5e8bce98-6553-45b5-86e7-a94d01aaaa60","system_id":"levelo_inurba_marseille","lat":43.33613,"lon":5.41008,"is_reserved":false,"is_disabled":false,"rental_uris":{"android":"levelo://app?vid=5e8bce98-6553-45b5-86e7-a94d01aaaa60","ios":"levelo://app?vid=5e8bce98-6553-45b5-86e7-a94d01aaaa60"},"vehicle_type_id":"4","last_reported":1761210709,"current_range_meters":20800,"station_id":"ce4bhqh2rcd13ifvqhmg","pricing_plan_id":"cebpf4jnsgd1na2vs0mg"},{"bike_id":"136da621-2d9c-4f20-a292-90e86c48711c","system_id":"levelo_inurba_marseille","lat":43.23148,"lon":5.43713,"is_reserved":false,"is_disabled":false,"rental_uris":{"android":"levelo://app?vid=136da621-2d9c-4f20-a292-90e86c48711c","ios":"levelo://app?vid=136da621-2d9c-4f20-a292-90e86c48711c"},"vehicle_type_id":"4","last_reported":1761210709,"current_range_meters":20800,"station_id":"ce4bhmp2rcd13ifvqgog","pricing_plan_id":"cebpf4jnsgd1na2vs0mg"},{"bike_id":"a90255ef-b0de-402f-a055-2d6a8edcb2d5","system_id":"levelo_inurba_marseille","lat":43.2799,"lon":5.40015,"is_reserved":false,"is_disabled":false,"rental_uris":{"android":"levelo://app?vid=a90255ef-b0de-402f-a055-2d6a8edcb2d5","ios":"levelo://app?vid=a90255ef-b0de-402f-a055-2d6a8edcb2d5"},"vehicle_type_id":"4","last_reported":1761210709,"current_range_meters":20800,"station_id":"ce4bho92rcd13ifvqh4g","pricing_plan_id":"cebpf4jnsgd1na2vs0mg"},{"bike_id":"73b8425f-6aeb-4b1f-92b7-d0322fd0cf2c","system_id":"levelo_inurba_marseille","lat":43.287,"lon":5.39979,"is_reserved":false,"is_disabled":false,"rental_uris":{"android":"levelo://app?vid=73b8425f-6aeb-4b1f-92b7-d0322fd0cf2c","ios":"levelo://app?vid=73b8425f-6aeb-4b1f-92b7-d0322fd0cf2c"},"vehicle_type_id":"4","last_reported":1761210709,"current_range_meters":20800,"station_id":"ce4bho92rcd13ifvqh3g","pricing_plan_id":"cebpf4jnsgd1na2vs0mg"},{"bike_id":"066976ea-16f9-460f-8d96-13a7e07be392","system_id":"levelo_inurba_marseille","lat":43.30138,"lon":5.38056,"is_reserved":false,"is_disabled":false,"rental_uris":{"android":"levelo://app?vid=066976ea-16f9-460f-8d96-13a7e07be392","ios":"levelo://app?vid=066976ea-16f9-460f-8d96-13a7e07be392"},"vehicle_type_id":"4","last_reported":1761210709,"current_range_meters":20800,"station_id":"ce4bgjp2rcd13ifvqbh0","pricing_plan_id":"cebpf4jnsgd1na2vs0mg"},{"bike_id":"ed7ed02d-d57c-4224-9075-7d0ce7819fa0","system_id":"levelo_inurba_marseille","lat":43.30146,"lon":5.37423,"is_reserved":false,"is_disabled":false,"rental_uris":{"android":"levelo://app?vid=ed7ed02d-d57c-4224-9075-7d0ce7819fa0","ios":"levelo://app?vid=ed7ed02d-d57c-4224-9075-7d0ce7819fa0"},"vehicle_type_id":"4","last_reported":1761210709,"current_range_meters":21600,"station_id":"ce4bgs92rcd13ifvqcc0","pricing_plan_id":"cebpf4jnsgd1na2vs0mg"},{"bike_id":"dc568a15-4de4-4cc4-a5ad-f205d87f2e00","system_id":"levelo_inurba_marseille","lat":43.31239,"lon":5.36863,"is_reserved":false,"is_disabled":false,"rental_uris":{"android":"levelo://app?vid=dc568a15-4de4-4cc4-a5ad-f205d87f2e00","ios":"levelo://app?vid=dc568a15-4de4-4cc4-a5ad-f205d87f2e00"},"vehicle_type_id":"4","last_reported":1761210709,"current_range_meters":21600,"station_id":"ce4bgl92rcd13ifvqbq0","pricing_plan_id":"cebpf4jnsgd1na2vs0mg"},{"bike_id":"3b22550e-05c3-472a-9a98-652dcfc2fc42","system_id":"levelo_inurba_marseille","lat":43.301343,"lon":5.374099,"is_reserved":false,"is_disabled":false,"rental_uris":{"android":"levelo://app?vid=3b22550e-05c3-472a-9a98-652dcfc2fc42","ios":"levelo://app?vid=3b22550e-05c3-472a-9a98-652dcfc2fc42"},"vehicle_type_id":"4","last_reported":1761210709,"current_range_meters":21600,"station_id":"ce4bgs92rcd13ifvqcc0","pricing_plan_id":"cebpf4jnsgd1na2vs0mg"},{"bike_id":"4b321ad0-460d-49df-b13f-6eb9ca1e031e","system_id":"levelo_inurba_marseille","lat":43.28581,"lon":5.39494,"is_reserved":false,"is_disabled":false,"rental_uris":{"android":"levelo://app?vid=4b321ad0-460d-49df-b13f-6eb9ca1e031e","ios":"levelo://app?vid=4b321ad0-460d-49df-b13f-6eb9ca1e031e"},"vehicle_type_id":"4","last_reported":1761210709,"current_range_meters":21600,"station_id":"ce4bh292rcd13ifvqdg0","pricing_plan_id":"cebpf4jnsgd1na2vs0mg"},{"bike_id":"32bb4d75-ed98-4c0b-90e7-eb8dc590aff8","system_id":"levelo_inurba_marseille","lat":43.30358,"lon":5.40758,"is_reserved":false,"is_disabled":false,"rental_uris":{"android":"levelo://app?vid=32bb4d75-ed98-4c0b-90e7-eb8dc590aff8","ios":"levelo://app?vid=32bb4d75-ed98-4c0b-90e7-eb8dc590aff8"},"vehicle_type_id":"4","last_reported":1761210709,"current_range_meters":21600,"station_id":"","pricing_plan_id":"cebpf4jnsgd1na2vs0mg"},{"bike_id":"0cc790f6-8b3a-465f-8d8f-bdb462c47613","system_id":"levelo_inurba_marseille","lat":43.30416,"lon":5.39731,"is_reserved":false,"is_disabled":false,"rental_uris":{"android":"levelo://app?vid=0cc790f6-8b3a-465f-8d8f-bdb462c47613","ios":"levelo://app?vid=0cc790f6-8b3a-465f-8d8f-bdb462c47613"},"vehicle_type_id":"4","last_reported":1761210709,"current_range_meters":21600,"station_id":"ce4bh092rcd13ifvqd20","pricing_plan_id":"cebpf4jnsgd1na2vs0mg"},{"bike_id":"ebd13387-5d7b-4cae-a0fc-14085b73b88b","system_id":"levelo_inurba_marseille","lat":43.30282,"lon":5.37698,"is_reserved":false,"is_disabled":false,"rental_uris":{"android":"levelo://app?vid=ebd13387-5d7b-4cae-a0fc-14085b73b88b","ios":"levelo://app?vid=ebd13387-5d7b-4cae-a0fc-14085b73b88b"},"vehicle_type_id":"4","last_reported":1761210709,"current_range_meters":21600,"station_id":"ce4bguh2rcd13ifvqcj0","pricing_plan_id":"cebpf4jnsgd1na2vs0mg"},{"bike_id":"4c43eb30-4eb5-4c38-af70-7de4bb36ec15","system_id":"levelo_inurba_marseille","lat":43.296753,"lon":5.377494,"is_reserved":false,"is_disabled":false,"rental_uris":{"android":"levelo://app?vid=4c43eb30-4eb5-4c38-af70-7de4bb36ec15","ios":"levelo://app?vid=4c43eb30-4eb5-4c38-af70-7de4bb36ec15"},"vehicle_type_id":"4","last_reported":1761210709,"current_range_meters":21600,"station_id":"ce4bgkh2rcd13ifvqbl0","pricing_plan_id":"cebpf4jnsgd1na2vs0mg"},{"bike_id":"362e4cf8-1318-4b12-84cf-f1a2feee3c19","system_id":"levelo_inurba_marseille","lat":43.26486,"lon":5.39553,"is_reserved":false,"is_disabled":false,"rental_uris":{"android":"levelo://app?vid=362e4cf8-1318-4b12-84cf-f1a2feee3c19","ios":"levelo://app?vid=362e4cf8-1318-4b12-84cf-f1a2feee3c19"},"vehicle_type_id":"4","last_reported":1761210709,"current_range_meters":21600,"station_id":"ce4bhi12rcd13ifvqfq0","pricing_plan_id":"cebpf4jnsgd1na2vs0mg"},{"bike_id":"149561c8-c656-42ad-8d50-f4d8cd588673","system_id":"levelo_inurba_marseille","lat":43.31246,"lon":5.36824,"is_reserved":false,"is_disabled":false,"rental_uris":{"android":"levelo://app?vid=149561c8-c656-42ad-8d50-f4d8cd588673","ios":"levelo://app?vid=149561c8-c656-42ad-8d50-f4d8cd588673"},"vehicle_type_id":"4","last_reported":1761210709,"current_range_meters":21600,"station_id":"ce4bgl92rcd13ifvqbq0","pricing_plan_id":"cebpf4jnsgd1na2vs0mg"},{"bike_id":"7e5b4000-65fb-4ee9-ab54-cb6090dece55","system_id":"levelo_inurba_marseille","lat":43.30533,"lon":5.36694,"is_reserved":false,"is_disabled":false,"rental_uris":{"android":"levelo://app?vid=7e5b4000-65fb-4ee9-ab54-cb6090dece55","ios":"levelo://app?vid=7e5b4000-65fb-4ee9-ab54-cb6090dece55"},"vehicle_type_id":"4","last_reported":1761210709,"current_range_meters":21600,"station_id":"ce4bgrp2rcd13ifvqc9g","pricing_plan_id":"cebpf4jnsgd1na2vs0mg"},{"bike_id":"ace3309e-9a2e-46b8-802d-e7cc0a911f9d","system_id":"levelo_inurba_marseille","lat":43.32357,"lon":5.36768,"is_reserved":false,"is_disabled":false,"rental_uris":{"android":"levelo://app?vid=ace3309e-9a2e-46b8-802d-e7cc0a911f9d","ios":"levelo://app?vid=ace3309e-9a2e-46b8-802d-e7cc0a911f9d"},"vehicle_type_id":"4","last_reported":1761210709,"current_range_meters":21600,"station_id":"ce4bhsh2rcd13ifvqi2g","pricing_plan_id":"cebpf4jnsgd1na2vs0mg"},{"bike_id":"d216f701-d039-416d-8464-d2169e2c53fe","system_id":"levelo_inurba_marseille","lat":43.22937,"lon":5.35362,"is_reserved":false,"is_disabled":false,"rental_uris":{"android":"levelo://app?vid=d216f701-d039-416d-8464-d2169e2c53fe","ios":"levelo://app?vid=d216f701-d039-416d-8464-d2169e2c53fe"},"vehicle_type_id":"4","last_reported":1761210709,"current_range_meters":21600,"station_id":"cpo3532slgdg3j2ikp40","pricing_plan_id":"cebpf4jnsgd1na2vs0mg"},{"bike_id":"e8d601b0-a167-46e8-bdbe-6cab2d1d99e2","system_id":"levelo_inurba_marseille","lat":43.30137,"lon":5.37411,"is_reserved":false,"is_disabled":false,"rental_uris":{"android":"levelo://app?vid=e8d601b0-a167-46e8-bdbe-6cab2d1d99e2","ios":"levelo://app?vid=e8d601b0-a167-46e8-bdbe-6cab2d1d99e2"},"vehicle_type_id":"4","last_reported":1761210709,"current_range_meters":21600,"station_id":"ce4bgs92rcd13ifvqcc0","pricing_plan_id":"cebpf4jnsgd1na2vs0mg"},{"bike_id":"58965090-9c49-4622-900b-2537a598e432","system_id":"levelo_inurba_marseille","lat":43.24191,"lon":5.39728,"is_reserved":false,"is_disabled":false,"rental_uris":{"android":"levelo://app?vid=58965090-9c49-4622-900b-2537a598e432","ios":"levelo://app?vid=58965090-9c49-4622-900b-2537a598e432"},"vehicle_type_id":"4","last_reported":1761210709,"current_range_meters":21600,"station_id":"ce4bhn12rcd13ifvqgpg","pricing_plan_id":"cebpf4jnsgd1na2vs0mg"},{"bike_id":"0d3eec90-02bb-4c37-9a6e-7c8ccd139a05","system_id":"levelo_inurba_marseille","lat":43.31239,"lon":5.36865,"is_reserved":false,"is_disabled":false,"rental_uris":{"android":"levelo://app?vid=0d3eec90-02bb-4c37-9a6e-7c8ccd139a05","ios":"levelo://app?vid=0d3eec90-02bb-4c37-9a6e-7c8ccd139a05"},"vehicle_type_id":"4","last_reported":1761210709,"current_range_meters":22000,"station_id":"ce4bgl92rcd13ifvqbq0","pricing_plan_id":"cebpf4jnsgd1na2vs0mg"},{"bike_id":"9f342bfe-280d-4a8d-bb77-7a005df6628c","system_id":"levelo_inurba_marseille","lat":43.288735,"lon":5.425236,"is_reserved":false,"is_disabled":false,"rental_uris":{"android":"levelo://app?vid=9f342bfe-280d-4a8d-bb77-7a005df6628c","ios":"levelo://app?vid=9f342bfe-280d-4a8d-bb77-7a005df6628c"},"vehicle_type_id":"4","last_reported":1761210709,"current_range_meters":22000,"station_id":"st_d3b462108ojc7389ooeg","pricing_plan_id":"cebpf4jnsgd1na2vs0mg"},{"bike_id":"3c897e7a-ca67-4c02-b1ad-be4bdeb2680f","system_id":"levelo_inurba_marseille","lat":43.2315,"lon":5.43714,"is_reserved":false,"is_disabled":false,"rental_uris":{"android":"levelo://app?vid=3c897e7a-ca67-4c02-b1ad-be4bdeb2680f","ios":"levelo://app?vid=3c897e7a-ca67-4c02-b1ad-be4bdeb2680f"},"vehicle_type_id":"4","last_reported":1761210709,"current_range_meters":22000,"station_id":"ce4bhmp2rcd13ifvqgog","pricing_plan_id":"cebpf4jnsgd1na2vs0mg"},{"bike_id":"18639f94-2e90-4394-abfb-ade632d59406","system_id":"levelo_inurba_marseille","lat":43.25946,"lon":5.40896,"is_reserved":false,"is_disabled":false,"rental_uris":{"android":"levelo://app?vid=18639f94-2e90-4394-abfb-ade632d59406","ios":"levelo://app?vid=18639f94-2e90-4394-abfb-ade632d59406"},"vehicle_type_id":"4","last_reported":1761210709,"current_range_meters":22000,"station_id":"ce4bhm92rcd13ifvqglg","pricing_plan_id":"cebpf4jnsgd1na2vs0mg"},{"bike_id":"17585014-36d0-4d96-ab97-1812e8c7fbe7","system_id":"levelo_inurba_marseille","lat":43.31667,"lon":5.38241,"is_reserved":false,"is_disabled":false,"rental_uris":{"android":"levelo://app?vid=17585014-36d0-4d96-ab97-1812e8c7fbe7","ios":"levelo://app?vid=17585014-36d0-4d96-ab97-1812e8c7fbe7"},"vehicle_type_id":"4","last_reported":1761210709,"current_range_meters":22000,"station_id":"","pricing_plan_id":"cebpf4jnsgd1na2vs0mg"},{"bike_id":"b5641329-6254-484b-8916-95ed843300da","system_id":"levelo_inurba_marseille","lat":43.33594,"lon":5.40982,"is_reserved":false,"is_disabled":false,"rental_uris":{"android":"levelo://app?vid=b5641329-6254-484b-8916-95ed843300da","ios":"levelo://app?vid=b5641329-6254-484b-8916-95ed843300da"},"vehicle_type_id":"4","last_reported":1761210709,"current_range_meters":22000,"station_id":"ce4bhqh2rcd13ifvqhmg","pricing_plan_id":"cebpf4jnsgd1na2vs0mg"},{"bike_id":"9249026c-9f1a-4658-a325-698877187f79","system_id":"levelo_inurba_marseille","lat":43.30145,"lon":5.38082,"is_reserved":false,"is_disabled":false,"rental_uris":{"android":"levelo://app?vid=9249026c-9f1a-4658-a325-698877187f79","ios":"levelo://app?vid=9249026c-9f1a-4658-a325-698877187f79"},"vehicle_type_id":"4","last_reported":1761210709,"current_range_meters":22000,"station_id":"ce4bgjp2rcd13ifvqbh0","pricing_plan_id":"cebpf4jnsgd1na2vs0mg"},{"bike_id":"e4d9d28d-de5d-4eba-b45f-0315c6967297","system_id":"levelo_inurba_marseille","lat":43.25087,"lon":5.39519,"is_reserved":false,"is_disabled":false,"rental_uris":{"android":"levelo://app?vid=e4d9d28d-de5d-4eba-b45f-0315c6967297","ios":"levelo://app?vid=e4d9d28d-de5d-4eba-b45f-0315c6967297"},"vehicle_type_id":"4","last_reported":1761210709,"current_range_meters":22000,"station_id":"ce4bhm12rcd13ifvqgkg","pricing_plan_id":"cebpf4jnsgd1na2vs0mg"},{"bike_id":"6e9fdfd9-2d9a-4dc8-ab2b-5fc88fbd341e","system_id":"levelo_inurba_marseille","lat":43.2926,"lon":5.40909,"is_reserved":false,"is_disabled":false,"rental_uris":{"android":"levelo://app?vid=6e9fdfd9-2d9a-4dc8-ab2b-5fc88fbd341e","ios":"levelo://app?vid=6e9fdfd9-2d9a-4dc8-ab2b-5fc88fbd341e"},"vehicle_type_id":"4","last_reported":1761210709,"current_range_meters":22000,"station_id":"ce4bh192rcd13ifvqdc0","pricing_plan_id":"cebpf4jnsgd1na2vs0mg"},{"bike_id":"df4a5149-caa0-44e4-8017-c00522871307","system_id":"levelo_inurba_marseille","lat":43.259313,"lon":5.409139,"is_reserved":false,"is_disabled":true,"rental_uris":{"android":"levelo://app?vid=df4a5149-caa0-44e4-8017-c00522871307","ios":"levelo://app?vid=df4a5149-caa0-44e4-8017-c00522871307"},"vehicle_type_id":"4","last_reported":1761210709,"current_range_meters":22400,"station_id":"","pricing_plan_id":"cebpf4jnsgd1na2vs0mg"},