{"last_updated":1700859953,"ttl":30,"version":"2.2","data":{"bikes":[{"bike_id":"ac82cc03-8a36-485c-a553-fd671067e196","system_id":"levelo_inurba_marseille","lat":43.31341,"lon":5.367098,"is_reserved":false,"is_disabled":false,"rental_uris":{"android":"levelo://app?vid=ac82cc03-8a36-485c-a553-fd671067e196","ios":"levelo://app?vid=ac82cc03-8a36-485c-a553-fd671067e196"},"vehicle_type_id":"4","last_reported":1700859953,"current_range_meters":28000,"station_id":"ce4bgr92rcd13ifvqc6g","pricing_plan_id":"free"},{"bike_id":"4a49f3f2-574d-41e5-8d22-0af75eb2ddc7","system_id":"levelo_inurba_marseille","lat":43.309076,"lon":5.368465,"is_reserved":false,"is_disabled":false,"rental_uris":{"android":"levelo://app?vid=4a49f3f2-574d-41e5-8d22-0af75eb2ddc7","ios":"levelo://app?vid=4a49f3f2-574d-41e5-8d22-0af75eb2ddc7"},"vehicle_type_id":"4","last_reported":1700859953,"current_range_meters":16800,"station_id":"ce4bgn92rcd13ifvqbvg","pricing_plan_id":"free"},{"bike_id":"e86ec09a-431c-4db9-89e9-f4647826db5b","system_id":"levelo_inurba_marseille","lat":43.309039,"lon":5.371797,"is_reserved":false,"is_disabled":false,"rental_uris":{"android":"levelo://app?vid=e86ec09a-431c-4db9-89e9-f4647826db5b","ios":"levelo://app?vid=e86ec09a-431c-4db9-89e9-f4647826db5b"},"vehicle_type_id":"4","last_reported":1700859953,"current_range_meters":4800,"station_id":"ce4bguh2rcd13ifvqckg","pricing_plan_id":"free"},{"bike_id":"0e3a20c0-fbe4-4be1-8a70-167c2d1fc9f6","system_id":"levelo_inurba_marseille","lat":43.305204,"lon":5.365484,"is_reserved":false,"is_disabled":false,"rental_uris":{"android":"levelo://app?vid=0e3a20c0-fbe4-4be1-8a70-167c2d1fc9f6","ios":"levelo://app?vid=0e3a20c0-fbe4-4be1-8a70-167c2d1fc9f6"},"vehicle_type_id":"4","last_reported":1700859953,"current_range_meters":2000,"station_id":"ce4bgs12rcd13ifvqcag","pricing_plan_id":"free"},{"bike_id":"5d222eb2-0360-4ec1-a896-f18ef9ec1751","system_id":"levelo_inurba_marseille","lat":43.305989,"lon":5.37225,"is_reserved":false,"is_disabled":false,"rental_uris":{"android":"levelo://app?vid=5d222eb2-0360-4ec1-a896-f18ef9ec1751","ios":"levelo://app?vid=5d222eb2-0360-4ec1-a896-f18ef9ec1751"},"vehicle_type_id":"4","last_reported":1700859953,"current_range_meters":13200,"station_id":"ce4bgqh2rcd13ifvqc4g","pricing_plan_id":"free"},{"bike_id":"4f42c2e8-e45b-4b94-9dab-4e9525bc01d1","system_id":"levelo_inurba_marseille","lat":43.306,"lon":5.37226,"is_reserved":false,"is_disabled":false,"rental_uris":{"android":"levelo://app?vid=4f42c2e8-e45b-4b94-9dab-4e9525bc01d1","ios":"levelo://app?vid=4f42c2e8-e45b-4b94-9dab-4e9525bc01d1"},"vehicle_type_id":"4","last_reported":1700859953,"current_range_meters":6800,"station_id":"ce4bgqh2rcd13ifvqc4g","pricing_plan_id":"free"},{"bike_id":"5bdfa50c-34b1-47f9-975a-05dc8d97860b","system_id":"levelo_inurba_marseille","lat":43.311131,"lon":5.377651,"is_reserved":false,"is_disabled":false,"rental_uris":{"android":"levelo://app?vid=5bdfa50c-34b1-47f9-975a-05dc8d97860b","ios":"levelo://app?vid=5bdfa50c-34b1-47f9-975a-05dc8d97860b"},"vehicle_type_id":"4","last_reported":1700859953,"current_range_meters":22400,"station_id":"ce4bgt92rcd13ifvqcg0","pricing_plan_id":"free"},{"bike_id":"f348eb13-6df2-4071-96fd-06e7fd023d26","system_id":"levelo_inurba_marseille","lat":43.31112,"lon":5.37766,"is_reserved":false,"is_disabled":false,"rental_uris":{"android":"levelo://app?vid=f348eb13-6df2-4071-96fd-06e7fd023d26","ios":"levelo://app?vid=f348eb13-6df2-4071-96fd-06e7fd023d26"},"vehicle_type_id":"4","last_reported":1700859953,"current_range_meters":1600,"station_id":"ce4bgt92rcd13ifvqcg0","pricing_plan_id":"free"},{"bike_id":"44423134-2ba7-42de-9363-7a6e01814e4b","system_id":"levelo_inurba_marseille","lat":43.311131,"lon":5.377651,"is_reserved":false,"is_disabled":false,"rental_uris":{"android":"levelo://app?vid=44423134-2ba7-42de-9363-7a6e01814e4b","ios":"levelo://app?vid=44423134-2ba7-42de-9363-7a6e01814e4b"},"vehicle_type_id":"4","last_reported":1700859953,"current_range_meters":6400,"station_id":"ce4bgt92rcd13ifvqcg0","pricing_plan_id":"free"},{"bike_id":"573a870a-b6c4-429d-8587-8103772b84bc","system_id":"levelo_inurba_marseille","lat":43.308193,"lon":5.3766,"is_reserved":false,"is_disabled":false,"rental_uris":{"android":"levelo://app?vid=573a870a-b6c4-429d-8587-8103772b84bc","ios":"levelo://app?vid=573a870a-b6c4-429d-8587-8103772b84bc"},"vehicle_type_id":"4","last_reported":1700859953,"current_range_meters":7200,"station_id":"ce4bgv92rcd13ifvqcq0","pricing_plan_id":"free"},{"bike_id":"f427a2c3-6e4a-446b-ae2f-9be8aa7f4122","system_id":"levelo_inurba_marseille","lat":43.31719,"lon":5.376813,"is_reserved":false,"is_disabled":false,"rental_uris":{"android":"levelo://app?vid=f427a2c3-6e4a-446b-ae2f-9be8aa7f4122","ios":"levelo://app?vid=f427a2c3-6e4a-446b-ae2f-9be8aa7f4122"},"vehicle_type_id":"4","last_reported":1700859953,"current_range_meters":27600,"station_id":"ce4bgth2rcd13ifvqch0","pricing_plan_id":"free"},{"bike_id":"b898b018-f57d-4901-bab2-fdd15d391de9","system_id":"levelo_inurba_marseille","lat":43.317168,"lon":5.376883,"is_reserved":false,"is_disabled":false,"rental_uris":{"android":"levelo://app?vid=b898b018-f57d-4901-bab2-fdd15d391de9","ios":"levelo://app?vid=b898b018-f57d-4901-bab2-fdd15d391de9"},"vehicle_type_id":"4","last_reported":1700859953,"current_range_meters":29600,"station_id":"ce4bgth2rcd13ifvqch0","pricing_plan_id":"free"},{"bike_id":"0859c7fb-85cd-4f17-a645-6f44506a0114","system_id":"levelo_inurba_marseille","lat":43.30304,"lon":5.368987,"is_reserved":false,"is_disabled":false,"rental_uris":{"android":"levelo://app?vid=0859c7fb-85cd-4f17-a645-6f44506a0114","ios":"levelo://app?vid=0859c7fb-85cd-4f17-a645-6f44506a0114"},"vehicle_type_id":"4","last_reported":1700859953,"current_range_meters":12400,"station_id":"ce4bgqh2rcd13ifvqc5g","pricing_plan_id":"free"},{"bike_id":"3bc732c6-bcee-4315-bc9c-4749260f64d8","system_id":"levelo_inurba_marseille","lat":43.31541,"lon":5.38027,"is_reserved":false,"is_disabled":false,"rental_uris":{"android":"levelo://app?vid=3bc732c6-bcee-4315-bc9c-4749260f64d8","ios":"levelo://app?vid=3bc732c6-bcee-4315-bc9c-4749260f64d8"},"vehicle_type_id":"4","last_reported":1700859953,"current_range_meters":3600,"station_id":"ce4bhsp2rcd13ifvqi50","pricing_plan_id":"free"},{"bike_id":"8976f3ec-3e31-411d-a061-99d640565f46","system_id":"levelo_inurba_marseille","lat":43.315263,"lon":5.38039,"is_reserved":false,"is_disabled":false,"rental_uris":{"android":"levelo://app?vid=8976f3ec-3e31-411d-a061-99d640565f46","ios":"levelo://app?vid=8976f3ec-3e31-411d-a061-99d640565f46"},"vehicle_type_id":"4","last_reported":1700859953,"current_range_meters":29200,"station_id":"ce4bhsp2rcd13ifvqi50","pricing_plan_id":"free"},{"bike_id":"0109dba6-d5bd-4ae3-815d-4c101d8be0c5","system_id":"levelo_inurba_marseille","lat":43.30272,"lon":5.36906,"is_reserved":false,"is_disabled":false,"rental_uris":{"android":"levelo://app?vid=0109dba6-d5bd-4ae3-815d-4c101d8be0c5","ios":"levelo://app?vid=0109dba6-d5bd-4ae3-815d-4c101d8be0c5"},"vehicle_type_id":"4","last_reported":1700859953,"current_range_meters":19600,"station_id":"","pricing_plan_id":"free"},{"bike_id":"40651570-2caa-481e-83f2-ed9b577fc84a","system_id":"levelo_inurba_marseille","lat":43.323152,"lon":5.374616,"is_reserved":false,"is_disabled":false,"rental_uris":{"android":"levelo://app?vid=40651570-2caa-481e-83f2-ed9b577fc84a","ios":"levelo://app?vid=40651570-2caa-481e-83f2-ed9b577fc84a"},"vehicle_type_id":"4","last_reported":1700859953,"current_range_meters":12400,"station_id":"","pricing_plan_id":"free"},{"bike_id":"bbd7c10c-db03-4741-a6c8-89f1871a4335","system_id":"levelo_inurba_marseille","lat":43.304098,"lon":5.378116,"is_reserved":false,"is_disabled":false,"rental_uris":{"android":"levelo://app?vid=bbd7c10c-db03-4741-a6c8-89f1871a4335","ios":"levelo://app?vid=bbd7c10c-db03-4741-a6c8-89f1871a4335"},"vehicle_type_id":"4","last_reported":1700859953,"current_range_meters":0,"station_id":"","pricing_plan_id":"free"},{"bike_id":"4d7bb1dd-2cbe-49e1-854d-7f6768c7785f","system_id":"levelo_inurba_marseille","lat":43.304606,"lon":5.379026,"is_reserved":false,"is_disabled":false,"rental_uris":{"android":"levelo://app?vid=4d7bb1dd-2cbe-49e1-854d-7f6768c7785f","ios":"levelo://app?vid=4d7bb1dd-2cbe-49e1-854d-7f6768c7785f"},"vehicle_type_id":"4","last_reported":1700859953,"current_range_meters":14800,"station_id":"ce4bgup2rcd13ifvqcn0","pricing_plan_id":"free"},{"bike_id":"ee7b2315-1ca6-4f8e-a62a-6313cf5cda28","system_id":"levelo_inurba_marseille","lat":43.324771,"lon":5.36557,"is_reserved":false,"is_disabled":false,"rental_uris":{"android":"levelo://app?vid=ee7b2315-1ca6-4f8e-a62a-6313cf5cda28","ios":"levelo://app?vid=ee7b2315-1ca6-4f8e-a62a-6313cf5cda28"},"vehicle_type_id":"4","last_reported":1700859953,"current_range_meters":16000,"station_id":"ce4bhs12rcd13ifvqhvg","pricing_plan_id":"free"},{"bike_id":"2cc5698c-c332-45ea-b66b-1c93725a4a55","system_id":"levelo_inurba_marseille","lat":43.302784,"lon":5.377158,"is_reserved":false,"is_disabled":false,"rental_uris":{"android":"levelo://app?vid=2cc5698c-c332-45ea-b66b-1c93725a4a55","ios":"levelo://app?vid=2cc5698c-c332-45ea-b66b-1c93725a4a55"},"vehicle_type_id":"4","last_reported":1700859953,"current_range_meters":9600,"station_id":"ce4bguh2rcd13ifvqcj0","pricing_plan_id":"free"},{"bike_id":"babfdd7e-6cd2-4e72-8866-ac8539f5db7f","system_id":"levelo_inurba_marseille","lat":43.319935,"lon":5.381699,"is_reserved":false,"is_disabled":false,"rental_uris":{"android":"levelo://app?vid=babfdd7e-6cd2-4e72-8866-ac8539f5db7f","ios":"levelo://app?vid=babfdd7e-6cd2-4e72-8866-ac8539f5db7f"},"vehicle_type_id":"4","last_reported":1700859953,"current_range_meters":400,"station_id":"ce4bhr12rcd13ifvqhpg","pricing_plan_id":"free"},{"bike_id":"d3044786-2431-4822-96f8-37c5954b4b4c","system_id":"levelo_inurba_marseille","lat":43.32296,"lon":5.37864,"is_reserved":false,"is_disabled":false,"rental_uris":{"android":"levelo://app?vid=d3044786-2431-4822-96f8-37c5954b4b4c","ios":"levelo://app?vid=d3044786-2431-4822-96f8-37c5954b4b4c"},"vehicle_type_id":"4","last_reported":1700859953,"current_range_meters":29200,"station_id":"","pricing_plan_id":"free"},{"bike_id":"3cf7df4e-117c-401f-a50b-b48096222f3f","system_id":"levelo_inurba_marseille","lat":43.299209,"lon":5.365547,"is_reserved":false,"is_disabled":false,"rental_uris":{"android":"levelo://app?vid=3cf7df4e-117c-401f-a50b-b48096222f3f","ios":"levelo://app?vid=3cf7df4e-117c-401f-a50b-b48096222f3f"},"vehicle_type_id":"4","last_reported":1700859953,"current_range_meters":0,"station_id":"ce4bgm92rcd13ifvqbr0","pricing_plan_id":"free"},{"bike_id":"8eccf735-9f13-4d66-89ee-04a7bf59eec2","system_id":"levelo_inurba_marseille","lat":43.320711,"lon":5.383016,"is_reserved":false,"is_disabled":false,"rental_uris":{"android":"levelo://app?vid=8eccf735-9f13-4d66-89ee-04a7bf59eec2","ios":"levelo://app?vid=8eccf735-9f13-4d66-89ee-04a7bf59eec2"},"vehicle_type_id":"4","last_reported":1700859953,"current_range_meters":30800,"station_id":"","pricing_plan_id":"free"},{"bike_id":"799f10c9-81c3-4d79-a9aa-505ce434ae93","system_id":"levelo_inurba_marseille","lat":43.298433,"lon":5.362774,"is_reserved":false,"is_disabled":false,"rental_uris":{"android":"levelo://app?vid=799f10c9-81c3-4d79-a9aa-505ce434ae93","ios":"levelo://app?vid=799f10c9-81c3-4d79-a9aa-505ce434ae93"},"vehicle_type_id":"4","last_reported":1700859953,"current_range_meters":17600,"station_id":"ce4bgpp2rcd13ifvqc3g","pricing_plan_id":"free"},{"bike_id":"77aee093-ce08-4159-b42e-e16f16269df9","system_id":"levelo_inurba_marseille","lat":43.305364,"lon":5.384119,"is_reserved":false,"is_disabled":false,"rental_uris":{"android":"levelo://app?vid=77aee093-ce08-4159-b42e-e16f16269df9","ios":"levelo://app?vid=77aee093-ce08-4159-b42e-e16f16269df9"},"vehicle_type_id":"4","last_reported":1700859953,"current_range_meters":7600,"station_id":"ce4bgg92rcd13ifvqb30","pricing_plan_id":"free"},{"bike_id":"1a40b385-68ba-48d5-a1cb-20965b2f9dc5","system_id":"levelo_inurba_marseille","lat":43.320401,"lon":5.384196,"is_reserved":false,"is_disabled":false,"rental_uris":{"android":"levelo://app?vid=1a40b385-68ba-48d5-a1cb-20965b2f9dc5","ios":"levelo://app?vid=1a40b385-68ba-48d5-a1cb-20965b2f9dc5"},"vehicle_type_id":"4","last_reported":1700859953,"current_range_meters":1200,"station_id":"","pricing_plan_id":"free"},{"bike_id":"d6f53266-d9ca-4f87-8e1e-b55d74000c54","system_id":"levelo_inurba_marseille","lat":43.299243,"lon":5.374807,"is_reserved":false,"is_disabled":false,"rental_uris":{"android":"levelo://app?vid=d6f53266-d9ca-4f87-8e1e-b55d74000c54","ios":"levelo://app?vid=d6f53266-d9ca-4f87-8e1e-b55d74000c54"},"vehicle_type_id":"4","last_reported":1700859953,"current_range_meters":7200,"station_id":"ce4bgjh2rcd13ifvqbg0","pricing_plan_id":"free"},{"bike_id":"1dc10d0c-20c7-4b1d-aa42-9b3e112f50a1","system_id":"levelo_inurba_marseille","lat":43.299243,"lon":5.37481,"is_reserved":false,"is_disabled":false,"rental_uris":{"android":"levelo://app?vid=1dc10d0c-20c7-4b1d-aa42-9b3e112f50a1","ios":"levelo://app?vid=1dc10d0c-20c7-4b1d-aa42-9b3e112f50a1"},"vehicle_type_id":"4","last_reported":1700859953,"current_range_meters":5600,"station_id":"ce4bgjh2rcd13ifvqbg0","pricing_plan_id":"free"},{"bike_id":"6434b66c-b8aa-4b45-bf4d-51373fe159c6","system_id":"levelo_inurba_marseille","lat":43.311722,"lon":5.387247,"is_reserved":false,"is_disabled":false,"rental_uris":{"android":"levelo://app?vid=6434b66c-b8aa-4b45-bf4d-51373fe159c6","ios":"levelo://app?vid=6434b66c-b8aa-4b45-bf4d-51373fe159c6"},"vehicle_type_id":"4","last_reported":1700859953,"current_range_meters":10400,"station_id":"ce4bgv12rcd13ifvqcp0","pricing_plan_id":"free"},{"bike_id":"7c93eefc-07fe-4a09-b42f-ee22a5cbe113","system_id":"levelo_inurba_marseille","lat":43.322872,"lon":5.382756,"is_reserved":false,"is_disabled":false,"rental_uris":{"android":"levelo://app?vid=7c93eefc-07fe-4a09-b42f-ee22a5cbe113","ios":"levelo://app?vid=7c93eefc-07fe-4a09-b42f-ee22a5cbe113"},"vehicle_type_id":"4","last_reported":1700859953,"current_range_meters":26000,"station_id":"ce4bhr12rcd13ifvqhqg","pricing_plan_id":"free"},{"bike_id":"57f07daa-f979-41b2-bf81-49ff7a829b2a","system_id":"levelo_inurba_marseille","lat":43.322859,"lon":5.382613,"is_reserved":false,"is_disabled":false,"rental_uris":{"android":"levelo://app?vid=57f07daa-f979-41b2-bf81-49ff7a829b2a","ios":"levelo://app?vid=57f07daa-f979-41b2-bf81-49ff7a829b2a"},"vehicle_type_id":"4","last_reported":1700859953,"current_range_meters":31200,"station_id":"ce4bhr12rcd13ifvqhqg","pricing_plan_id":"free"},{"bike_id":"f8736720-e966-45a6-a671-1e9c1c844291","system_id":"levelo_inurba_marseille","lat":43.322872,"lon":5.382756,"is_reserved":false,"is_disabled":false,"rental_uris":{"android":"levelo://app?vid=f8736720-e966-45a6-a671-1e9c1c844291","ios":"levelo://app?vid=f8736720-e966-45a6-a671-1e9c1c844291"},"vehicle_type_id":"4","last_reported":1700859953,"current_range_meters":25600,"station_id":"ce4bhr12rcd13ifvqhqg","pricing_plan_id":"free"},{"bike_id":"f9ce9c3f-5ce0-442f-986c-f1a94ddddd6a","system_id":"levelo_inurba_marseille","lat":43.322872,"lon":5.382756,"is_reserved":false,"is_disabled":false,"rental_uris":{"android":"levelo://app?vid=f9ce9c3f-5ce0-442f-986c-f1a94ddddd6a","ios":"levelo://app?vid=f9ce9c3f-5ce0-442f-986c-f1a94ddddd6a"},"vehicle_type_id":"4","last_reported":1700859953,"current_range_meters":30800,"station_id":"ce4bhr12rcd13ifvqhqg","pricing_plan_id":"free"},{"bike_id":"1a43851e-90fe-4bd3-bf83-8e67c213fe9f","system_id":"levelo_inurba_marseille","lat":43.322872,"lon":5.382756,"is_reserved":false,"is_disabled":false,"rental_uris":{"android":"levelo://app?vid=1a43851e-90fe-4bd3-bf83-8e67c213fe9f","ios":"levelo://app?vid=1a43851e-90fe-4bd3-bf83-8e67c213fe9f"},"vehicle_type_id":"4","last_reported":1700859953,"current_range_meters":28800,"station_id":"ce4bhr12rcd13ifvqhqg","pricing_plan_id":"free"},{"bike_id":"4625bec6-4af3-44cb-8699-3acd72afd201","system_id":"levelo_inurba_marseille","lat":43.322872,"lon":5.382756,"is_reserved":false,"is_disabled":false,"rental_uris":{"android":"levelo://app?vid=4625bec6-4af3-44cb-8699-3acd72afd201","ios":"levelo://app?vid=4625bec6-4af3-44cb-8699-3acd72afd201"},"vehicle_type_id":"4","last_reported":1700859953,"current_range_meters":22800,"station_id":"ce4bhr12rcd13ifvqhqg","pricing_plan_id":"free"},{"bike_id":"e275a45c-bfaf-4d19-897d-782d652e5c0c","system_id":"levelo_inurba_marseille","lat":43.32823,"lon":5.3668,"is_reserved":false,"is_disabled":false,"rental_uris":{"android":"levelo://app?vid=e275a45c-bfaf-4d19-897d-782d652e5c0c","ios":"levelo://app?vid=e275a45c-bfaf-4d19-897d-782d652e5c0c"},"vehicle_type_id":"4","last_reported":1700859953,"current_range_meters":20000,"station_id":"ce4bhs92rcd13ifvqi0g","pricing_plan_id":"free"},{"bike_id":"4d7509f5-9559-42ca-a60d-bef9e80f0981","system_id":"levelo_inurba_marseille","lat":43.2996,"lon":5.37917,"is_reserved":false,"is_disabled":false,"rental_uris":{"android":"levelo://app?vid=4d7509f5-9559-42ca-a60d-bef9e80f0981","ios":"levelo://app?vid=4d7509f5-9559-42ca-a60d-bef9e80f0981"},"vehicle_type_id":"4","last_reported":1700859953,"current_range_meters":0,"station_id":"","pricing_plan_id":"free"},{"bike_id":"a4603200-a956-4b27-bc52-8f22fc00857f","system_id":"levelo_inurba_marseille","lat":43.29602,"lon":5.36826,"is_reserved":false,"is_disabled":false,"rental_uris":{"android":"levelo://app?vid=a4603200-a956-4b27-bc52-8f22fc00857f","ios":"levelo://app?vid=a4603200-a956-4b27-bc52-8f22fc00857f"},"vehicle_type_id":"4","last_reported":1700859953,"current_range_meters":12400,"station_id":"","pricing_plan_id":"free"},{"bike_id":"948a1e94-182f-4509-be65-399a07623263","system_id":"levelo_inurba_marseille","lat":43.295826,"lon":5.36779,"is_reserved":false,"is_disabled":false,"rental_uris":{"android":"levelo://app?vid=948a1e94-182f-4509-be65-399a07623263","ios":"levelo://app?vid=948a1e94-182f-4509-be65-399a07623263"},"vehicle_type_id":"4","last_reported":1700859953,"current_range_meters":16000,"station_id":"ce4bgph2rcd13ifvqc2g","pricing_plan_id":"free"},{"bike_id":"276db2b5-536d-4a54-a313-111c3bed3d3d","system_id":"levelo_inurba_marseille","lat":43.299028,"lon":5.381509,"is_reserved":false,"is_disabled":false,"rental_uris":{"android":"levelo://app?vid=276db2b5-536d-4a54-a313-111c3bed3d3d","ios":"levelo://app?vid=276db2b5-536d-4a54-a313-111c3bed3d3d"},"vehicle_type_id":"4","last_reported":1700859953,"current_range_meters":26400,"station_id":"ce4bgj12rcd13ifvqbc0","pricing_plan_id":"free"},{"bike_id":"d8d0a0e6-545f-4ca7-93d6-6b1cee338043","system_id":"levelo_inurba_marseille","lat":43.317557,"lon":5.390173,"is_reserved":false,"is_disabled":false,"rental_uris":{"android":"levelo://app?vid=d8d0a0e6-545f-4ca7-93d6-6b1cee338043","ios":"levelo://app?vid=d8d0a0e6-545f-4ca7-93d6-6b1cee338043"},"vehicle_type_id":"4","last_reported":1700859953,"current_range_meters":26000,"station_id":"ce4bhqp2rcd13ifvqhng","pricing_plan_id":"free"},{"bike_id":"656459cf-498f-49a1-bb2c-2df4545f7de5","system_id":"levelo_inurba_marseille","lat":43.317568,"lon":5.390204,"is_reserved":false,"is_disabled":false,"rental_uris":{"android":"levelo://app?vid=656459cf-498f-49a1-bb2c-2df4545f7de5","ios":"levelo://app?vid=656459cf-498f-49a1-bb2c-2df4545f7de5"},"vehicle_type_id":"4","last_reported":1700859953,"current_range_meters":28400,"station_id":"ce4bhqp2rcd13ifvqhng","pricing_plan_id":"free"},{"bike_id":"b6ee9bcc-0fbd-43f3-aa80-cf4a5aabf6ef","system_id":"levelo_inurba_marseille","lat":43.304274,"lon":5.388873,"is_reserved":false,"is_disabled":false,"rental_uris":{"android":"levelo://app?vid=b6ee9bcc-0fbd-43f3-aa80-cf4a5aabf6ef","ios":"levelo://app?vid=b6ee9bcc-0fbd-43f3-aa80-cf4a5aabf6ef"},"vehicle_type_id":"4","last_reported":1700859953,"current_range_meters":0,"station_id":"ce4bgk12rcd13ifvqbi0","pricing_plan_id":"free"},{"bike_id":"849f60cb-b5f6-4a27-80a0-ab19547c9ab7","system_id":"levelo_inurba_marseille","lat":43.299707,"lon":5.384859,"is_reserved":false,"is_disabled":false,"rental_uris":{"android":"levelo://app?vid=849f60cb-b5f6-4a27-80a0-ab19547c9ab7","ios":"levelo://app?vid=849f60cb-b5f6-4a27-80a0-ab19547c9ab7"},"vehicle_type_id":"4","last_reported":1700859953,"current_range_meters":23600,"station_id":"ce4bgj92rcd13ifvqbd0","pricing_plan_id":"free"},{"bike_id":"bb2dbe62-1dbf-472b-9ae0-dddb56fa3a33","system_id":"levelo_inurba_marseille","lat":43.299707,"lon":5.384859,"is_reserved":false,"is_disabled":false,"rental_uris":{"android":"levelo://app?vid=bb2dbe62-1dbf-472b-9ae0-dddb56fa3a33","ios":"levelo://app?vid=bb2dbe62-1dbf-472b-9ae0-dddb56fa3a33"},"vehicle_type_id":"4","last_reported":1700859953,"current_range_meters":26800,"station_id":"ce4bgj92rcd13ifvqbd0","pricing_plan_id":"free"},{"bike_id":"1147be4e-e3fa-4886-b6bb-342b83deec6a","system_id":"levelo_inurba_marseille","lat":43.299717,"lon":5.384845,"is_reserved":false,"is_disabled":false,"rental_uris":{"android":"levelo://app?vid=1147be4e-e3fa-4886-b6bb-342b83deec6a","ios":"levelo://app?vid=1147be4e-e3fa-4886-b6bb-342b83deec6a"},"vehicle_type_id":"4","last_reported":1700859953,"current_range_meters":2000,"station_id":"ce4bgj92rcd13ifvqbd0","pricing_plan_id":"free"},{"bike_id":"8d111612-203b-4807-b2d5-daa6fc380343","system_id":"levelo_inurba_marseille","lat":43.299724,"lon":5.384848,"is_reserved":false,"is_disabled":false,"rental_uris":{"android":"levelo://app?vid=8d111612-203b-4807-b2d5-daa6fc380343","ios":"levelo://app?vid=8d111612-203b-4807-b2d5-daa6fc380343"},"vehicle_type_id":"4","last_reported":1700859953,"current_range_meters":20800,"station_id":"ce4bgj92rcd13ifvqbd0","pricing_plan_id":"free"},{"bike_id":"ff822368-00cb-4dfa-8697-959628b6f270","system_id":"levelo_inurba_marseille","lat":43.330311,"lon":5.358915,"is_reserved":false,"is_disabled":false,"rental_uris":{"android":"levelo://app?vid=ff822368-00cb-4dfa-8697-959628b6f270","ios":"levelo://app?vid=ff822368-00cb-4dfa-8697-959628b6f270"},"vehicle_type_id":"4","last_reported":1700859953,"current_range_meters":20400,"station_id":"","pricing_plan_id":"free"},{"bike_id":"14bd1af8-db78-47df-9330-a7d707a7dec5","system_id":"levelo_inurba_marseille","lat":43.299707,"lon":5.384859,"is_reserved":false,"is_disabled":false,"rental_uris":{"android":"levelo://app?vid=14bd1af8-db78-47df-9330-a7d707a7dec5","ios":"levelo://app?vid=14bd1af8-db78-47df-9330-a7d707a7dec5"},"vehicle_type_id":"4","last_reported":1700859953,"current_range_meters":0,"station_id":"ce4bgj92rcd13ifvqbd0","pricing_plan_id":"free"},{"bike_id":"9d23f36b-ece2-4641-803c-fc6656f36f8e","system_id":"levelo_inurba_marseille","lat":43.299717,"lon":5.384845,"is_reserved":false,"is_disabled":false,"rental_uris":{"android":"levelo://app?vid=9d23f36b-ece2-4641-803c-fc6656f36f8e","ios":"levelo://app?vid=9d23f36b-ece2-4641-803c-fc6656f36f8e"},"vehicle_type_id":"4","last_reported":1700859953,"current_range_meters":29600,"station_id":"ce4bgj92rcd13ifvqbd0","pricing_plan_id":"free"},{"bike_id":"6b621983-5e9e-42f7-990d-ad5a093820d2","system_id":"levelo_inurba_marseille","lat":43.293801,"lon":5.363066,"is_reserved":false,"is_disabled":false,"rental_uris":{"android":"levelo://app?vid=6b621983-5e9e-42f7-990d-ad5a093820d2","ios":"levelo://app?vid=6b621983-5e9e-42f7-990d-ad5a093820d2"},"vehicle_type_id":"4","last_reported":1700859953,"current_range_meters":3200,"station_id":"","pricing_plan_id":"free"},{"bike_id":"3579b072-efa9-4e62-b324-30ad6abef829","system_id":"levelo_inurba_marseille","lat":43.32368,"lon":5.38886,"is_reserved":false,"is_disabled":false,"rental_uris":{"android":"levelo://app?vid=3579b072-efa9-4e62-b324-30ad6abef829","ios":"levelo://app?vid=3579b072-efa9-4e62-b324-30ad6abef829"},"vehicle_type_id":"4","last_reported":1700859953,"current_range_meters":24400,"station_id":"ce4bhqp2rcd13ifvqhog","pricing_plan_id":"free"},{"bike_id":"8e282774-dc1e-4759-ac4a-ebd42052cacd","system_id":"levelo_inurba_marseille","lat":43.293249,"lon":5.371578,"is_reserved":false,"is_disabled":false,"rental_uris":{"android":"levelo://app?vid=8e282774-dc1e-4759-ac4a-ebd42052cacd","ios":"levelo://app?vid=8e282774-dc1e-4759-ac4a-ebd42052cacd"},"vehicle_type_id":"4","last_reported":1700859953,"current_range_meters":26800,"station_id":"ce4bgh92rcd13ifvqb40","pricing_plan_id":"free"},{"bike_id":"492238fd-00c4-48fb-8adc-26890f603943","system_id":"levelo_inurba_marseille","lat":43.293009,"lon":5.374584,"is_reserved":false,"is_disabled":false,"rental_uris":{"android":"levelo://app?vid=492238fd-00c4-48fb-8adc-26890f603943","ios":"levelo://app?vid=492238fd-00c4-48fb-8adc-26890f603943"},"vehicle_type_id":"4","last_reported":1700859953,"current_range_meters":15600,"station_id":"ce4bgi12rcd13ifvqb70","pricing_plan_id":"free"},{"bike_id":"9b8829c4-272f-4e78-b2c4-79fb5c0da66b","system_id":"levelo_inurba_marseille","lat":43.299063,"lon":5.388007,"is_reserved":false,"is_disabled":false,"rental_uris":{"android":"levelo://app?vid=9b8829c4-272f-4e78-b2c4-79fb5c0da66b","ios":"levelo://app?vid=9b8829c4-272f-4e78-b2c4-79fb5c0da66b"},"vehicle_type_id":"4","last_reported":1700859953,"current_range_meters":0,"station_id":"","pricing_plan_id":"free"},{"bike_id":"bff2a709-271b-483e-8d76-ce00edcf2ab0","system_id":"levelo_inurba_marseille","lat":43.293009,"lon":5.374584,"is_reserved":false,"is_disabled":false,"rental_uris":{"android":"levelo://app?vid=bff2a709-271b-483e-8d76-ce00edcf2ab0","ios":"levelo://app?vid=bff2a709-271b-483e-8d76-ce00edcf2ab0"},"vehicle_type_id":"4","last_reported":1700859953,"current_range_meters":10800,"station_id":"ce4bgi12rcd13ifvqb70","pricing_plan_id":"free"},{"bike_id":"fe578520-2bdc-4b26-8e35-03f84dc4f4da","system_id":"levelo_inurba_marseille","lat":43.293009,"lon":5.374584,"is_reserved":false,"is_disabled":false,"rental_uris":{"android":"levelo://app?vid=fe578520-2bdc-4b26-8e35-03f84dc4f4da","ios":"levelo://app?vid=fe578520-2bdc-4b26-8e35-03f84dc4f4da"},"vehicle_type_id":"4","last_reported":1700859953,"current_range_meters":18800,"station_id":"ce4bgi12rcd13ifvqb70","pricing_plan_id":"free"},{"bike_id":"cd4cbadd-7d75-4903-89bb-e94805729270","system_id":"levelo_inurba_marseille","lat":43.302992,"lon":5.392136,"is_reserved":false,"is_disabled":false,"rental_uris":{"android":"levelo://app?vid=cd4cbadd-7d75-4903-89bb-e94805729270","ios":"levelo://app?vid=cd4cbadd-7d75-4903-89bb-e94805729270"},"vehicle_type_id":"4","last_reported":1700859953,"current_range_meters":22400,"station_id":"ce4bgkh2rcd13ifvqbk0","pricing_plan_id":"free"},{"bike_id":"52b02a98-3ece-4998-958f-94ce2be157ea","system_id":"levelo_inurba_marseille","lat":43.300852,"lon":5.390859,"is_reserved":false,"is_disabled":false,"rental_uris":{"android":"levelo://app?vid=52b02a98-3ece-4998-958f-94ce2be157ea","ios":"levelo://app?vid=52b02a98-3ece-4998-958f-94ce2be157ea"},"vehicle_type_id":"4","last_reported":1700859953,"current_range_meters":16400,"station_id":"ce4bh192rcd13ifvqdb0","pricing_plan_id":"free"},{"bike_id":"c477e283-3aab-41f4-b09f-d0fd2b21d4cd","system_id":"levelo_inurba_marseille","lat":43.291675,"lon":5.371583,"is_reserved":false,"is_disabled":false,"rental_uris":{"android":"levelo://app?vid=c477e283-3aab-41f4-b09f-d0fd2b21d4cd","ios":"levelo://app?vid=c477e283-3aab-41f4-b09f-d0fd2b21d4cd"},"vehicle_type_id":"4","last_reported":1700859953,"current_range_meters":4400,"station_id":"ce4bha92rcd13ifvqeh0","pricing_plan_id":"free"},{"bike_id":"178eb7c0-6a62-4bf1-a56f-a82d0e477eba","system_id":"levelo_inurba_marseille","lat":43.333657,"lon":5.360126,"is_reserved":false,"is_disabled":false,"rental_uris":{"android":"levelo://app?vid=178eb7c0-6a62-4bf1-a56f-a82d0e477eba","ios":"levelo://app?vid=178eb7c0-6a62-4bf1-a56f-a82d0e477eba"},"vehicle_type_id":"4","last_reported":1700859953,"current_range_meters":3600,"station_id":"","pricing_plan_id":"free"},{"bike_id":"adf0d2a5-e627-47d1-a985-70bda9200c74","system_id":"levelo_inurba_marseille","lat":43.313291,"lon":5.396838,"is_reserved":false,"is_disabled":false,"rental_uris":{"android":"levelo://app?vid=adf0d2a5-e627-47d1-a985-70bda9200c74","ios":"levelo://app?vid=adf0d2a5-e627-47d1-a985-70bda9200c74"},"vehicle_type_id":"4","last_reported":1700859953,"current_range_meters":4400,"station_id":"ce4bgvp2rcd13ifvqcu0","pricing_plan_id":"free"},{"bike_id":"08e318de-e6be-4d92-bb43-f34e2aee1130","system_id":"levelo_inurba_marseille","lat":43.31332,"lon":5.39691,"is_reserved":false,"is_disabled":false,"rental_uris":{"android":"levelo://app?vid=08e318de-e6be-4d92-bb43-f34e2aee1130","ios":"levelo://app?vid=08e318de-e6be-4d92-bb43-f34e2aee1130"},"vehicle_type_id":"4","last_reported":1700859953,"current_range_meters":28000,"station_id":"ce4bgvp2rcd13ifvqcu0","pricing_plan_id":"free"},{"bike_id":"1d10a1b1-d55f-4279-928a-9c6858f32ca9","system_id":"levelo_inurba_marseille","lat":43.33211,"lon":5.38112,"is_reserved":false,"is_disabled":false,"rental_uris":{"android":"levelo://app?vid=1d10a1b1-d55f-4279-928a-9c6858f32ca9","ios":"levelo://app?vid=1d10a1b1-d55f-4279-928a-9c6858f32ca9"},"vehicle_type_id":"4","last_reported":1700859953,"current_range_meters":0,"station_id":"","pricing_plan_id":"free"},{"bike_id":"97c6cab7-d67c-4b92-9ae7-d133701eed81","system_id":"levelo_inurba_marseille","lat":43.295265,"lon":5.385279,"is_reserved":false,"is_disabled":false,"rental_uris":{"android":"levelo://app?vid=97c6cab7-d67c-4b92-9ae7-d133701eed81","ios":"levelo://app?vid=97c6cab7-d67c-4b92-9ae7-d133701eed81"},"vehicle_type_id":"4","last_reported":1700859953,"current_range_meters":16400,"station_id":"","pricing_plan_id":"free"},{"bike_id":"a063d1c3-1411-4291-83ef-38c739f69fc4","system_id":"levelo_inurba_marseille","lat":43.29529,"lon":5.385581,"is_reserved":false,"is_disabled":false,"rental_uris":{"android":"levelo://app?vid=a063d1c3-1411-4291-83ef-38c739f69fc4","ios":"levelo://app?vid=a063d1c3-1411-4291-83ef-38c739f69fc4"},"vehicle_type_id":"4","last_reported":1700859953,"current_range_meters":400,"station_id":"ce4bgih2rcd13ifvqba0","pricing_plan_id":"free"},{"bike_id":"21af2ca4-456c-4474-a9fb-3a1162d6cf69","system_id":"levelo_inurba_marseille","lat":43.29529,"lon":5.385581,"is_reserved":false,"is_disabled":false,"rental_uris":{"android":"levelo://app?vid=21af2ca4-456c-4474-a9fb-3a1162d6cf69","ios":"levelo://app?vid=21af2ca4-456c-4474-a9fb-3a1162d6cf69"},"vehicle_type_id":"4","last_reported":1700859953,"current_range_meters":5600,"station_id":"ce4bgih2rcd13ifvqba0","pricing_plan_id":"free"},{"bike_id":"d36ae548-65ad-4946-8c33-3895ff7f0420","system_id":"levelo_inurba_marseille","lat":43.29529,"lon":5.385581,"is_reserved":false,"is_disabled":false,"rental_uris":{"android":"levelo://app?vid=d36ae548-65ad-4946-8c33-3895ff7f0420","ios":"levelo://app?vid=d36ae548-65ad-4946-8c33-3895ff7f0420"},"vehicle_type_id":"4","last_reported":1700859953,"current_range_meters":1200,"station_id":"ce4bgih2rcd13ifvqba0","pricing_plan_id":"free"},{"bike_id":"85a2ff4a-055f-4327-a93f-7cfe99a11b03","system_id":"levelo_inurba_marseille","lat":43.30207,"lon":5.39461,"is_reserved":false,"is_disabled":false,"rental_uris":{"android":"levelo://app?vid=85a2ff4a-055f-4327-a93f-7cfe99a11b03","ios":"levelo://app?vid=85a2ff4a-055f-4327-a93f-7cfe99a11b03"},"vehicle_type_id":"4","last_reported":1700859953,"current_range_meters":0,"station_id":"ce4bh0p2rcd13ifvqd70","pricing_plan_id":"free"},{"bike_id":"43cdf951-3b65-4a63-ac1d-646ed0436392","system_id":"levelo_inurba_marseille","lat":43.290062,"lon":5.371734,"is_reserved":false,"is_disabled":false,"rental_uris":{"android":"levelo://app?vid=43cdf951-3b65-4a63-ac1d-646ed0436392","ios":"levelo://app?vid=43cdf951-3b65-4a63-ac1d-646ed0436392"},"vehicle_type_id":"4","last_reported":1700859953,"current_range_meters":27200,"station_id":"","pricing_plan_id":"free"},{"bike_id":"64241012-51a3-4847-af7d-097629aa2455","system_id":"levelo_inurba_marseille","lat":43.290327,"lon":5.375711,"is_reserved":false,"is_disabled":false,"rental_uris":{"android":"levelo://app?vid=64241012-51a3-4847-af7d-097629aa2455","ios":"levelo://app?vid=64241012-51a3-4847-af7d-097629aa2455"},"vehicle_type_id":"4","last_reported":1700859953,"current_range_meters":16800,"station_id":"ce4bh692rcd13ifvqe90","pricing_plan_id":"free"},{"bike_id":"9652489c-dcca-48fb-8903-d53431e50d71","system_id":"levelo_inurba_marseille","lat":43.294153,"lon":5.386305,"is_reserved":false,"is_disabled":false,"rental_uris":{"android":"levelo://app?vid=9652489c-dcca-48fb-8903-d53431e50d71","ios":"levelo://app?vid=9652489c-dcca-48fb-8903-d53431e50d71"},"vehicle_type_id":"4","last_reported":1700859953,"current_range_meters":0,"station_id":"ce4bh2h2rcd13ifvqdh0","pricing_plan_id":"free"},{"bike_id":"3232c7cc-f846-460e-96e5-cacd3aac9570","system_id":"levelo_inurba_marseille","lat":43.294153,"lon":5.386305,"is_reserved":false,"is_disabled":false,"rental_uris":{"android":"levelo://app?vid=3232c7cc-f846-460e-96e5-cacd3aac9570","ios":"levelo://app?vid=3232c7cc-f846-460e-96e5-cacd3aac9570"},"vehicle_type_id":"4","last_reported":1700859953,"current_range_meters":0,"station_id":"ce4bh2h2rcd13ifvqdh0","pricing_plan_id":"free"},{"bike_id":"7fa9a759-e2bc-44f4-aadb-afd961684ee9","system_id":"levelo_inurba_marseille","lat":43.294153,"lon":5.386305,"is_reserved":false,"is_disabled":false,"rental_uris":{"android":"levelo://app?vid=7fa9a759-e2bc-44f4-aadb-afd961684ee9","ios":"levelo://app?vid=7fa9a759-e2bc-44f4-aadb-afd961684ee9"},"vehicle_type_id":"4","last_reported":1700859953,"current_range_meters":0,"station_id":"ce4bh2h2rcd13ifvqdh0","pricing_plan_id":"free"},{"bike_id":"94198a8d-d725-41c6-abe3-71ddc5942d18","system_id":"levelo_inurba_marseille","lat":43.290327,"lon":5.375711,"is_reserved":false,"is_disabled":false,"rental_uris":{"android":"levelo://app?vid=94198a8d-d725-41c6-abe3-71ddc5942d18","ios":"levelo://app?vid=94198a8d-d725-41c6-abe3-71ddc5942d18"},"vehicle_type_id":"4","last_reported":1700859953,"current_range_meters":17600,"station_id":"ce4bh692rcd13ifvqe90","pricing_plan_id":"free"},{"bike_id":"be8ebd4d-5f02-4a47-956d-360903f2330c","system_id":"levelo_inurba_marseille","lat":43.289184,"lon":5.366408,"is_reserved":false,"is_disabled":false,"rental_uris":{"android":"levelo://app?vid=be8ebd4d-5f02-4a47-956d-360903f2330c","ios":"levelo://app?vid=be8ebd4d-5f02-4a47-956d-360903f2330c"},"vehicle_type_id":"4","last_reported":1700859953,"current_range_meters":3200,"station_id":"ce4bhap2rcd13ifvqek0","pricing_plan_id":"free"},{"bike_id":"107bcf04-9be0-442c-bf2d-644b087b74fa","system_id":"levelo_inurba_marseille","lat":43.292642,"lon":5.384254,"is_reserved":false,"is_disabled":false,"rental_uris":{"android":"levelo://app?vid=107bcf04-9be0-442c-bf2d-644b087b74fa","ios":"levelo://app?vid=107bcf04-9be0-442c-bf2d-644b087b74fa"},"vehicle_type_id":"4","last_reported":1700859953,"current_range_meters":31200,"station_id":"ce4bh692rcd13ifvqea0","pricing_plan_id":"free"},{"bike_id":"4559beb5-62e6-4d14-bd2c-137bc5f27c58","system_id":"levelo_inurba_marseille","lat":43.292642,"lon":5.384254,"is_reserved":false,"is_disabled":false,"rental_uris":{"android":"levelo://app?vid=4559beb5-62e6-4d14-bd2c-137bc5f27c58","ios":"levelo://app?vid=4559beb5-62e6-4d14-bd2c-137bc5f27c58"},"vehicle_type_id":"4","last_reported":1700859953,"current_range_meters":18400,"station_id":"ce4bh692rcd13ifvqea0","pricing_plan_id":"free"},{"bike_id":"0b71b1a5-bb8f-4c25-9480-9ddd9e678aa1","system_id":"levelo_inurba_marseille","lat":43.29529,"lon":5.385581,"is_reserved":false,"is_disabled":false,"rental_uris":{"android":"levelo://app?vid=0b71b1a5-bb8f-4c25-9480-9ddd9e678aa1","ios":"levelo://app?vid=0b71b1a5-bb8f-4c25-9480-9ddd9e678aa1"},"vehicle_type_id":"4","last_reported":1700859953,"current_range_meters":29600,"station_id":"ce4bgih2rcd13ifvqba0","pricing_plan_id":"free"},{"bike_id":"b81653ca-d6f9-496d-a70d-e72955536cd8","system_id":"levelo_inurba_marseille","lat":43.292642,"lon":5.384254,"is_reserved":false,"is_disabled":false,"rental_uris":{"android":"levelo://app?vid=b81653ca-d6f9-496d-a70d-e72955536cd8","ios":"levelo://app?vid=b81653ca-d6f9-496d-a70d-e72955536cd8"},"vehicle_type_id":"4","last_reported":1700859953,"current_range_meters":29200,"station_id":"ce4bh692rcd13ifvqea0","pricing_plan_id":"free"},{"bike_id":"af4822c9-521f-4bcd-b461-78aed0342933","system_id":"levelo_inurba_marseille","lat":43.292644,"lon":5.384257,"is_reserved":false,"is_disabled":false,"rental_uris":{"android":"levelo://app?vid=af4822c9-521f-4bcd-b461-78aed0342933","ios":"levelo://app?vid=af4822c9-521f-4bcd-b461-78aed0342933"},"vehicle_type_id":"4","last_reported":1700859953,"current_range_meters":31200,"station_id":"ce4bh692rcd13ifvqea0","pricing_plan_id":"free"},{"bike_id":"66174760-4d4e-410f-bfa0-046282ce683f","system_id":"levelo_inurba_marseille","lat":43.290104,"lon":5.356111,"is_reserved":false,"is_disabled":false,"rental_uris":{"android":"levelo://app?vid=66174760-4d4e-410f-bfa0-046282ce683f","ios":"levelo://app?vid=66174760-4d4e-410f-bfa0-046282ce683f"},"vehicle_type_id":"4","last_reported":1700859953,"current_range_meters":15600,"station_id":"ce4bhb92rcd13ifvqen0","pricing_plan_id":"free"},{"bike_id":"4f080e12-3419-4997-bd7e-b716121d92a2","system_id":"levelo_inurba_marseille","lat":43.33031,"lon":5.38973,"is_reserved":false,"is_disabled":false,"rental_uris":{"android":"levelo://app?vid=4f080e12-3419-4997-bd7e-b716121d92a2","ios":"levelo://app?vid=4f080e12-3419-4997-bd7e-b716121d92a2"},"vehicle_type_id":"4","last_reported":1700859953,"current_range_meters":0,"station_id":"ce4bhr92rcd13ifvqhrg","pricing_plan_id":"free"},{"bike_id":"eeb7de2c-6a57-4a40-ba43-f50fe9269868","system_id":"levelo_inurba_marseille","lat":43.290995,"lon":5.381361,"is_reserved":false,"is_disabled":false,"rental_uris":{"android":"levelo://app?vid=eeb7de2c-6a57-4a40-ba43-f50fe9269868","ios":"levelo://app?vid=eeb7de2c-6a57-4a40-ba43-f50fe9269868"},"vehicle_type_id":"4","last_reported":1700859953,"current_range_meters":0,"station_id":"ce4bh512rcd13ifvqe2g","pricing_plan_id":"free"},{"bike_id":"da612cfb-173c-4127-a564-48140971b542","system_id":"levelo_inurba_marseille","lat":43.29784,"lon":5.39323,"is_reserved":false,"is_disabled":false,"rental_uris":{"android":"levelo://app?vid=da612cfb-173c-4127-a564-48140971b542","ios":"levelo://app?vid=da612cfb-173c-4127-a564-48140971b542"},"vehicle_type_id":"4","last_reported":1700859953,"current_range_meters":16800,"station_id":"chh1huq6cuj3fo74tm60","pricing_plan_id":"free"},{"bike_id":"90b7a911-df89-4e70-96c8-667bf672669f","system_id":"levelo_inurba_marseille","lat":43.29782,"lon":5.3934,"is_reserved":false,"is_disabled":false,"rental_uris":{"android":"levelo://app?vid=90b7a911-df89-4e70-96c8-667bf672669f","ios":"levelo://app?vid=90b7a911-df89-4e70-96c8-667bf672669f"},"vehicle_type_id":"4","last_reported":1700859953,"current_range_meters":2800,"station_id":"chh1huq6cuj3fo74tm60","pricing_plan_id":"free"},{"bike_id":"101a2e13-d46e-4f5a-a5a1-c88e17acb51f","system_id":"levelo_inurba_marseille","lat":43.295169,"lon":5.390426,"is_reserved":false,"is_disabled":false,"rental_uris":{"android":"levelo://app?vid=101a2e13-d46e-4f5a-a5a1-c88e17acb51f","ios":"levelo://app?vid=101a2e13-d46e-4f5a-a5a1-c88e17acb51f"},"vehicle_type_id":"4","last_reported":1700859953,"current_range_meters":18400,"station_id":"ce4bh3p2rcd13ifvqdp0","pricing_plan_id":"free"},{"bike_id":"4a7725a9-5e4a-4275-9abb-7a6b8300122b","system_id":"levelo_inurba_marseille","lat":43.295169,"lon":5.390426,"is_reserved":false,"is_disabled":false,"rental_uris":{"android":"levelo://app?vid=4a7725a9-5e4a-4275-9abb-7a6b8300122b","ios":"levelo://app?vid=4a7725a9-5e4a-4275-9abb-7a6b8300122b"},"vehicle_type_id":"4","last_reported":1700859953,"current_range_meters":6800,"station_id":"ce4bh3p2rcd13ifvqdp0","pricing_plan_id":"free"},{"bike_id":"e2c6ca20-7a4d-4a25-bf64-138be8cf61d8","system_id":"levelo_inurba_marseille","lat":43.295169,"lon":5.390426,"is_reserved":false,"is_disabled":false,"rental_uris":{"android":"levelo://app?vid=e2c6ca20-7a4d-4a25-bf64-138be8cf61d8","ios":"levelo://app?vid=e2c6ca20-7a4d-4a25-bf64-138be8cf61d8"},"vehicle_type_id":"4","last_reported":1700859953,"current_range_meters":14800,"station_id":"ce4bh3p2rcd13ifvqdp0","pricing_plan_id":"free"},{"bike_id":"bbc75377-ad37-4762-b574-6ad5e52c0b79","system_id":"levelo_inurba_marseille","lat":43.28856,"lon":5.358371,"is_reserved":false,"is_disabled":false,"rental_uris":{"android":"levelo://app?vid=bbc75377-ad37-4762-b574-6ad5e52c0b79","ios":"levelo://app?vid=bbc75377-ad37-4762-b574-6ad5e52c0b79"},"vehicle_type_id":"4","last_reported":1700859953,"current_range_meters":28000,"station_id":"ce4bhb12rcd13ifvqem0","pricing_plan_id":"free"},{"bike_id":"32c0edf0-87f9-4be3-959c-d09f04278846","system_id":"levelo_inurba_marseille","lat":43.309389,"lon":5.401469,"is_reserved":false,"is_disabled":false,"rental_uris":{"android":"levelo://app?vid=32c0edf0-87f9-4be3-959c-d09f04278846","ios":"levelo://app?vid=32c0edf0-87f9-4be3-959c-d09f04278846"},"vehicle_type_id":"4","last_reported":1700859953,"current_range_meters":10400,"station_id":"","pricing_plan_id":"free"},{"bike_id":"77f2f73a-02a1-4429-9a70-af2aa2a1c3ee","system_id":"levelo_inurba_marseille","lat":43.30928,"lon":5.40145,"is_reserved":false,"is_disabled":false,"rental_uris":{"android":"levelo://app?vid=77f2f73a-02a1-4429-9a70-af2aa2a1c3ee","ios":"levelo://app?vid=77f2f73a-02a1-4429-9a70-af2aa2a1c3ee"},"vehicle_type_id":"4","last_reported":1700859953,"current_range_meters":29600,"station_id":"ce4bgvp2rcd13ifvqct0","pricing_plan_id":"free"},{"bike_id":"6ebf7f46-15ee-4bf6-a076-b183e2921d50","system_id":"levelo_inurba_marseille","lat":43.306412,"lon":5.401035,"is_reserved":false,"is_disabled":false,"rental_uris":{"android":"levelo://app?vid=6ebf7f46-15ee-4bf6-a076-b183e2921d50","ios":"levelo://app?vid=6ebf7f46-15ee-4bf6-a076-b183e2921d50"},"vehicle_type_id":"4","last_reported":1700859953,"current_range_meters":23600,"station_id":"ce4bh112rcd13ifvqda0","pricing_plan_id":"free"},{"bike_id":"611c7336-64e4-4156-819d-267223504a0f","system_id":"levelo_inurba_marseille","lat":43.3092,"lon":5.40149,"is_reserved":false,"is_disabled":false,"rental_uris":{"android":"levelo://app?vid=611c7336-64e4-4156-819d-267223504a0f","ios":"levelo://app?vid=611c7336-64e4-4156-819d-267223504a0f"},"vehicle_type_id":"4","last_reported":1700859953,"current_range_meters":30400,"station_id":"ce4bgvp2rcd13ifvqct0","pricing_plan_id":"free"},{"bike_id":"6d3380cd-34a6-405f-9e14-9dfad01eb06b","system_id":"levelo_inurba_marseille","lat":43.31268,"lon":5.40186,"is_reserved":false,"is_disabled":false,"rental_uris":{"android":"levelo://app?vid=6d3380cd-34a6-405f-9e14-9dfad01eb06b","ios":"levelo://app?vid=6d3380cd-34a6-405f-9e14-9dfad01eb06b"},"vehicle_type_id":"4","last_reported":1700859953,"current_range_meters":28800,"station_id":"ce4bh092rcd13ifvqd30","pricing_plan_id":"free"},{"bike_id":"8c5c5e75-50e8-42f2-96d5-9b986876459b","system_id":"levelo_inurba_marseille","lat":43.306412,"lon":5.401035,"is_reserved":false,"is_disabled":false,"rental_uris":{"android":"levelo://app?vid=8c5c5e75-50e8-42f2-96d5-9b986876459b","ios":"levelo://app?vid=8c5c5e75-50e8-42f2-96d5-9b986876459b"},"vehicle_type_id":"4","last_reported":1700859953,"current_range_meters":2000,"station_id":"ce4bh112rcd13ifvqda0","pricing_plan_id":"free"},{"bike_id":"892704f3-1d77-4404-9d73-158b8203f713","system_id":"levelo_inurba_marseille","lat":43.306412,"lon":5.401035,"is_reserved":false,"is_disabled":false,"rental_uris":{"android":"levelo://app?vid=892704f3-1d77-4404-9d73-158b8203f713","ios":"levelo://app?vid=892704f3-1d77-4404-9d73-158b8203f713"},"vehicle_type_id":"4","last_reported":1700859953,"current_range_meters":11200,"station_id":"ce4bh112rcd13ifvqda0","pricing_plan_id":"free"},{"bike_id":"ed13027d-004e-49e1-bd94-829722873a5c","system_id":"levelo_inurba_marseille","lat":43.287073,"lon":5.373963,"is_reserved":false,"is_disabled":false,"rental_uris":{"android":"levelo://app?vid=ed13027d-004e-49e1-bd94-829722873a5c","ios":"levelo://app?vid=ed13027d-004e-49e1-bd94-829722873a5c"},"vehicle_type_id":"4","last_reported":1700859953,"current_range_meters":5200,"station_id":"ce4bh3p2rcd13ifvqdq0","pricing_plan_id":"free"},{"bike_id":"1e8bff97-5fa1-4093-bf10-454d48ef8bfd","system_id":"levelo_inurba_marseille","lat":43.295196,"lon":5.39397,"is_reserved":false,"is_disabled":false,"rental_uris":{"android":"levelo://app?vid=1e8bff97-5fa1-4093-bf10-454d48ef8bfd","ios":"levelo://app?vid=1e8bff97-5fa1-4093-bf10-454d48ef8bfd"},"vehicle_type_id":"4","last_reported":1700859953,"current_range_meters":4400,"station_id":"ce4bh292rcd13ifvqdf0","pricing_plan_id":"free"},{"bike_id":"97c6ce70-1a7f-4e9a-8388-1b100d5d2d78","system_id":"levelo_inurba_marseille","lat":43.290347,"lon":5.386433,"is_reserved":false,"is_disabled":false,"rental_uris":{"android":"levelo://app?vid=97c6ce70-1a7f-4e9a-8388-1b100d5d2d78","ios":"levelo://app?vid=97c6ce70-1a7f-4e9a-8388-1b100d5d2d78"},"vehicle_type_id":"4","last_reported":1700859953,"current_range_meters":31200,"station_id":"ce4bh4p2rcd13ifvqe0g","pricing_plan_id":"free"},{"bike_id":"aeea8f7f-c24d-43b5-901f-ccb44bed323e","system_id":"levelo_inurba_marseille","lat":43.29031,"lon":5.38648,"is_reserved":false,"is_disabled":false,"rental_uris":{"android":"levelo://app?vid=aeea8f7f-c24d-43b5-901f-ccb44bed323e","ios":"levelo://app?vid=aeea8f7f-c24d-43b5-901f-ccb44bed323e"},"vehicle_type_id":"4","last_reported":1700859953,"current_range_meters":23600,"station_id":"","pricing_plan_id":"free"},{"bike_id":"e1debb5b-8dc1-4787-84d3-7a8b8b6b0b58","system_id":"levelo_inurba_marseille","lat":43.29031,"lon":5.38649,"is_reserved":false,"is_disabled":false,"rental_uris":{"android":"levelo://app?vid=e1debb5b-8dc1-4787-84d3-7a8b8b6b0b58","ios":"levelo://app?vid=e1debb5b-8dc1-4787-84d3-7a8b8b6b0b58"},"vehicle_type_id":"4","last_reported":1700859953,"current_range_meters":21600,"station_id":"ce4bh4p2rcd13ifvqe0g","pricing_plan_id":"free"},{"bike_id":"6849b89a-11e0-444d-9772-a041d1be0c28","system_id":"levelo_inurba_marseille","lat":43.29026,"lon":5.38643,"is_reserved":false,"is_disabled":false,"rental_uris":{"android":"levelo://app?vid=6849b89a-11e0-444d-9772-a041d1be0c28","ios":"levelo://app?vid=6849b89a-11e0-444d-9772-a041d1be0c28"},"vehicle_type_id":"4","last_reported":1700859953,"current_range_meters":28000,"station_id":"ce4bh4p2rcd13ifvqe0g","pricing_plan_id":"free"},{"bike_id":"ae79dff4-5d66-495e-9277-2e93728b2c02","system_id":"levelo_inurba_marseille","lat":43.29192,"lon":5.39315,"is_reserved":false,"is_disabled":false,"rental_uris":{"android":"levelo://app?vid=ae79dff4-5d66-495e-9277-2e93728b2c02","ios":"levelo://app?vid=ae79dff4-5d66-495e-9277-2e93728b2c02"},"vehicle_type_id":"4","last_reported":1700859953,"current_range_meters":13200,"station_id":"ce4bh192rcd13ifvqdd0","pricing_plan_id":"free"},{"bike_id":"46d31dc1-2ef6-4382-aaad-a606d253ec5d","system_id":"levelo_inurba_marseille","lat":43.294314,"lon":5.397498,"is_reserved":false,"is_disabled":false,"rental_uris":{"android":"levelo://app?vid=46d31dc1-2ef6-4382-aaad-a606d253ec5d","ios":"levelo://app?vid=46d31dc1-2ef6-4382-aaad-a606d253ec5d"},"vehicle_type_id":"4","last_reported":1700859953,"current_range_meters":7200,"station_id":"ce4bh3h2rcd13ifvqdo0","pricing_plan_id":"free"},{"bike_id":"64be3bbe-3e62-46ea-a07c-c897856db173","system_id":"levelo_inurba_marseille","lat":43.287155,"lon":5.3851,"is_reserved":false,"is_disabled":false,"rental_uris":{"android":"levelo://app?vid=64be3bbe-3e62-46ea-a07c-c897856db173","ios":"levelo://app?vid=64be3bbe-3e62-46ea-a07c-c897856db173"},"vehicle_type_id":"4","last_reported":1700859953,"current_range_meters":14000,"station_id":"","pricing_plan_id":"free"},{"bike_id":"8b0c0f21-2129-450f-9aec-2d7803ef4b0f","system_id":"levelo_inurba_marseille","lat":43.28616,"lon":5.35108,"is_reserved":false,"is_disabled":false,"rental_uris":{"android":"levelo://app?vid=8b0c0f21-2129-450f-9aec-2d7803ef4b0f","ios":"levelo://app?vid=8b0c0f21-2129-450f-9aec-2d7803ef4b0f"},"vehicle_type_id":"4","last_reported":1700859953,"current_range_meters":800,"station_id":"ce4bhch2rcd13ifvqeug","pricing_plan_id":"free"},{"bike_id":"3d158c96-b0c1-4dec-af6b-16fcc376ce85","system_id":"levelo_inurba_marseille","lat":43.286595,"lon":5.386795,"is_reserved":false,"is_disabled":false,"rental_uris":{"android":"levelo://app?vid=3d158c96-b0c1-4dec-af6b-16fcc376ce85","ios":"levelo://app?vid=3d158c96-b0c1-4dec-af6b-16fcc376ce85"},"vehicle_type_id":"4","last_reported":1700859953,"current_range_meters":25200,"station_id":"ce4bh492rcd13ifvqdug","pricing_plan_id":"free"},{"bike_id":"ad2b7c85-a38c-45ec-82e3-b17fe4c818ad","system_id":"levelo_inurba_marseille","lat":43.286595,"lon":5.386795,"is_reserved":false,"is_disabled":false,"rental_uris":{"android":"levelo://app?vid=ad2b7c85-a38c-45ec-82e3-b17fe4c818ad","ios":"levelo://app?vid=ad2b7c85-a38c-45ec-82e3-b17fe4c818ad"},"vehicle_type_id":"4","last_reported":1700859953,"current_range_meters":20400,"station_id":"ce4bh492rcd13ifvqdug","pricing_plan_id":"free"},{"bike_id":"23d6d803-8c50-4975-a542-d4f319fb9276","system_id":"levelo_inurba_marseille","lat":43.286595,"lon":5.386795,"is_reserved":false,"is_disabled":false,"rental_uris":{"android":"levelo://app?vid=23d6d803-8c50-4975-a542-d4f319fb9276","ios":"levelo://app?vid=23d6d803-8c50-4975-a542-d4f319fb9276"},"vehicle_type_id":"4","last_reported":1700859953,"current_range_meters":21200,"station_id":"ce4bh492rcd13ifvqdug","pricing_plan_id":"free"},{"bike_id":"60fb846c-95d4-493d-8ff0-fc77dde513c4","system_id":"levelo_inurba_marseille","lat":43.337222,"lon":5.391586,"is_reserved":false,"is_disabled":false,"rental_uris":{"android":"levelo://app?vid=60fb846c-95d4-493d-8ff0-fc77dde513c4","ios":"levelo://app?vid=60fb846c-95d4-493d-8ff0-fc77dde513c4"},"vehicle_type_id":"4","last_reported":1700859953,"current_range_meters":9600,"station_id":"ce4bhr92rcd13ifvqhsg","pricing_plan_id":"free"},{"bike_id":"b4bc6c19-20e6-4b1e-b989-40d4ba171e93","system_id":"levelo_inurba_marseille","lat":43.33223,"lon":5.398963,"is_reserved":false,"is_disabled":false,"rental_uris":{"android":"levelo://app?vid=b4bc6c19-20e6-4b1e-b989-40d4ba171e93","ios":"levelo://app?vid=b4bc6c19-20e6-4b1e-b989-40d4ba171e93"},"vehicle_type_id":"4","last_reported":1700859953,"current_range_meters":6800,"station_id":"","pricing_plan_id":"free"},{"bike_id":"fbed67cb-7d52-4e0c-8488-1d40e28e0960","system_id":"levelo_inurba_marseille","lat":43.32339,"lon":5.40616,"is_reserved":false,"is_disabled":false,"rental_uris":{"android":"levelo://app?vid=fbed67cb-7d52-4e0c-8488-1d40e28e0960","ios":"levelo://app?vid=fbed67cb-7d52-4e0c-8488-1d40e28e0960"},"vehicle_type_id":"4","last_reported":1700859953,"current_range_meters":400,"station_id":"ce4bhq92rcd13ifvqhjg","pricing_plan_id":"free"},{"bike_id":"78e51493-a8d4-41c4-9337-8c5776471ed2","system_id":"levelo_inurba_marseille","lat":43.284793,"lon":5.384119,"is_reserved":false,"is_disabled":false,"rental_uris":{"android":"levelo://app?vid=78e51493-a8d4-41c4-9337-8c5776471ed2","ios":"levelo://app?vid=78e51493-a8d4-41c4-9337-8c5776471ed2"},"vehicle_type_id":"4","last_reported":1700859953,"current_range_meters":0,"station_id":"ce4bh512rcd13ifvqe3g","pricing_plan_id":"free"},{"bike_id":"dfb33e5d-c6c1-4997-8671-fd06be6c7e7b","system_id":"levelo_inurba_marseille","lat":43.284793,"lon":5.384119,"is_reserved":false,"is_disabled":false,"rental_uris":{"android":"levelo://app?vid=dfb33e5d-c6c1-4997-8671-fd06be6c7e7b","ios":"levelo://app?vid=dfb33e5d-c6c1-4997-8671-fd06be6c7e7b"},"vehicle_type_id":"4","last_reported":1700859953,"current_range_meters":0,"station_id":"ce4bh512rcd13ifvqe3g","pricing_plan_id":"free"},{"bike_id":"2758dd14-b7c3-4191-8e51-dc327f32832b","system_id":"levelo_inurba_marseille","lat":43.297946,"lon":5.404063,"is_reserved":false,"is_disabled":false,"rental_uris":{"android":"levelo://app?vid=2758dd14-b7c3-4191-8e51-dc327f32832b","ios":"levelo://app?vid=2758dd14-b7c3-4191-8e51-dc327f32832b"},"vehicle_type_id":"4","last_reported":1700859953,"current_range_meters":0,"station_id":"ce4bh112rcd13ifvqd90","pricing_plan_id":"free"},{"bike_id":"1e2fb96a-d74f-45c4-a3d3-fecc262bc732","system_id":"levelo_inurba_marseille","lat":43.288501,"lon":5.393087,"is_reserved":false,"is_disabled":false,"rental_uris":{"android":"levelo://app?vid=1e2fb96a-d74f-45c4-a3d3-fecc262bc732","ios":"levelo://app?vid=1e2fb96a-d74f-45c4-a3d3-fecc262bc732"},"vehicle_type_id":"4","last_reported":1700859953,"current_range_meters":800,"station_id":"ce4bh2p2rcd13ifvqdi0","pricing_plan_id":"free"},{"bike_id":"efa3f2be-6e4b-40ed-98f9-fd49acdfd1fb","system_id":"levelo_inurba_marseille","lat":43.28847,"lon":5.39325,"is_reserved":false,"is_disabled":false,"rental_uris":{"android":"levelo://app?vid=efa3f2be-6e4b-40ed-98f9-fd49acdfd1fb","ios":"levelo://app?vid=efa3f2be-6e4b-40ed-98f9-fd49acdfd1fb"},"vehicle_type_id":"4","last_reported":1700859953,"current_range_meters":2000,"station_id":"ce4bh2p2rcd13ifvqdi0","pricing_plan_id":"free"},{"bike_id":"1de6f8ad-481f-451f-b7d7-54ed12cf1f26","system_id":"levelo_inurba_marseille","lat":43.283494,"lon":5.380945,"is_reserved":false,"is_disabled":false,"rental_uris":{"android":"levelo://app?vid=1de6f8ad-481f-451f-b7d7-54ed12cf1f26","ios":"levelo://app?vid=1de6f8ad-481f-451f-b7d7-54ed12cf1f26"},"vehicle_type_id":"4","last_reported":1700859953,"current_range_meters":2400,"station_id":"ce4bh412rcd13ifvqdr0","pricing_plan_id":"free"},{"bike_id":"13b5b379-e7de-4215-b8c4-bd10897b039b","system_id":"levelo_inurba_marseille","lat":43.284217,"lon":5.349697,"is_reserved":false,"is_disabled":false,"rental_uris":{"android":"levelo://app?vid=13b5b379-e7de-4215-b8c4-bd10897b039b","ios":"levelo://app?vid=13b5b379-e7de-4215-b8c4-bd10897b039b"},"vehicle_type_id":"4","last_reported":1700859953,"current_range_meters":22000,"station_id":"ce4bhbh2rcd13ifvqepg","pricing_plan_id":"free"},{"bike_id":"142e96e6-a82b-4d09-8358-94e26d393744","system_id":"levelo_inurba_marseille","lat":43.321537,"lon":5.408117,"is_reserved":false,"is_disabled":false,"rental_uris":{"android":"levelo://app?vid=142e96e6-a82b-4d09-8358-94e26d393744","ios":"levelo://app?vid=142e96e6-a82b-4d09-8358-94e26d393744"},"vehicle_type_id":"4","last_reported":1700859953,"current_range_meters":14800,"station_id":"","pricing_plan_id":"free"},{"bike_id":"e2284003-4e46-4e0a-93e7-73d05c3666d9","system_id":"levelo_inurba_marseille","lat":43.33508,"lon":5.397755,"is_reserved":false,"is_disabled":false,"rental_uris":{"android":"levelo://app?vid=e2284003-4e46-4e0a-93e7-73d05c3666d9","ios":"levelo://app?vid=e2284003-4e46-4e0a-93e7-73d05c3666d9"},"vehicle_type_id":"4","last_reported":1700859953,"current_range_meters":25200,"station_id":"","pricing_plan_id":"free"},{"bike_id":"45021811-e288-458f-9797-ad109133f2a7","system_id":"levelo_inurba_marseille","lat":43.28039,"lon":5.369297,"is_reserved":false,"is_disabled":false,"rental_uris":{"android":"levelo://app?vid=45021811-e288-458f-9797-ad109133f2a7","ios":"levelo://app?vid=45021811-e288-458f-9797-ad109133f2a7"},"vehicle_type_id":"4","last_reported":1700859953,"current_range_meters":14400,"station_id":"ce4bha12rcd13ifvqef0","pricing_plan_id":"free"},{"bike_id":"71fa4f66-6296-4d0d-8deb-36851ec20f31","system_id":"levelo_inurba_marseille","lat":43.28039,"lon":5.369297,"is_reserved":false,"is_disabled":false,"rental_uris":{"android":"levelo://app?vid=71fa4f66-6296-4d0d-8deb-36851ec20f31","ios":"levelo://app?vid=71fa4f66-6296-4d0d-8deb-36851ec20f31"},"vehicle_type_id":"4","last_reported":1700859953,"current_range_meters":14400,"station_id":"ce4bha12rcd13ifvqef0","pricing_plan_id":"free"},{"bike_id":"09a88198-c1d5-46a8-9a74-3393cd531e27","system_id":"levelo_inurba_marseille","lat":43.28039,"lon":5.369297,"is_reserved":false,"is_disabled":false,"rental_uris":{"android":"levelo://app?vid=09a88198-c1d5-46a8-9a74-3393cd531e27","ios":"levelo://app?vid=09a88198-c1d5-46a8-9a74-3393cd531e27"},"vehicle_type_id":"4","last_reported":1700859953,"current_range_meters":19200,"station_id":"ce4bha12rcd13ifvqef0","pricing_plan_id":"free"},{"bike_id":"ef175fde-db91-416b-a9c9-6cdce62e9b5b","system_id":"levelo_inurba_marseille","lat":43.290412,"lon":5.399633,"is_reserved":false,"is_disabled":false,"rental_uris":{"android":"levelo://app?vid=ef175fde-db91-416b-a9c9-6cdce62e9b5b","ios":"levelo://app?vid=ef175fde-db91-416b-a9c9-6cdce62e9b5b"},"vehicle_type_id":"4","last_reported":1700859953,"current_range_meters":10800,"station_id":"ce4bh392rcd13ifvqdm0","pricing_plan_id":"free"},{"bike_id":"f8c269f0-b3be-4a2d-b649-d292c51dac5d","system_id":"levelo_inurba_marseille","lat":43.28096,"lon":5.37839,"is_reserved":false,"is_disabled":false,"rental_uris":{"android":"levelo://app?vid=f8c269f0-b3be-4a2d-b649-d292c51dac5d","ios":"levelo://app?vid=f8c269f0-b3be-4a2d-b649-d292c51dac5d"},"vehicle_type_id":"4","last_reported":1700859953,"current_range_meters":12400,"station_id":"ce4bha12rcd13ifvqee0","pricing_plan_id":"free"},{"bike_id":"924e4f11-17e7-46b8-8669-3a88327d779f","system_id":"levelo_inurba_marseille","lat":43.281044,"lon":5.378308,"is_reserved":false,"is_disabled":false,"rental_uris":{"android":"levelo://app?vid=924e4f11-17e7-46b8-8669-3a88327d779f","ios":"levelo://app?vid=924e4f11-17e7-46b8-8669-3a88327d779f"},"vehicle_type_id":"4","last_reported":1700859953,"current_range_meters":27200,"station_id":"ce4bha12rcd13ifvqee0","pricing_plan_id":"free"},{"bike_id":"d30f3ec1-7683-443f-9ba3-896d09e32f53","system_id":"levelo_inurba_marseille","lat":43.284462,"lon":5.392121,"is_reserved":false,"is_disabled":false,"rental_uris":{"android":"levelo://app?vid=d30f3ec1-7683-443f-9ba3-896d09e32f53","ios":"levelo://app?vid=d30f3ec1-7683-443f-9ba3-896d09e32f53"},"vehicle_type_id":"4","last_reported":1700859953,"current_range_meters":4400,"station_id":"ce4bhoh2rcd13ifvqh5g","pricing_plan_id":"free"},{"bike_id":"137d9af3-2e1e-4256-8db9-92c5a8c9a336","system_id":"levelo_inurba_marseille","lat":43.284462,"lon":5.392121,"is_reserved":false,"is_disabled":false,"rental_uris":{"android":"levelo://app?vid=137d9af3-2e1e-4256-8db9-92c5a8c9a336","ios":"levelo://app?vid=137d9af3-2e1e-4256-8db9-92c5a8c9a336"},"vehicle_type_id":"4","last_reported":1700859953,"current_range_meters":14000,"station_id":"ce4bhoh2rcd13ifvqh5g","pricing_plan_id":"free"},{"bike_id":"59e761ea-e1c4-4aaa-a75f-dcc85eab25c7","system_id":"levelo_inurba_marseille","lat":43.285742,"lon":5.395004,"is_reserved":false,"is_disabled":false,"rental_uris":{"android":"levelo://app?vid=59e761ea-e1c4-4aaa-a75f-dcc85eab25c7","ios":"levelo://app?vid=59e761ea-e1c4-4aaa-a75f-dcc85eab25c7"},"vehicle_type_id":"4","last_reported":1700859953,"current_range_meters":0,"station_id":"ce4bh292rcd13ifvqdg0","pricing_plan_id":"free"},{"bike_id":"9321b615-81e4-4e68-a661-8544453fdb2b","system_id":"levelo_inurba_marseille","lat":43.28573,"lon":5.394992,"is_reserved":false,"is_disabled":false,"rental_uris":{"android":"levelo://app?vid=9321b615-81e4-4e68-a661-8544453fdb2b","ios":"levelo://app?vid=9321b615-81e4-4e68-a661-8544453fdb2b"},"vehicle_type_id":"4","last_reported":1700859953,"current_range_meters":8800,"station_id":"ce4bh292rcd13ifvqdg0","pricing_plan_id":"free"},{"bike_id":"c371bff1-b3d2-4c0b-a23c-92960c679caf","system_id":"levelo_inurba_marseille","lat":43.326605,"lon":5.409903,"is_reserved":false,"is_disabled":false,"rental_uris":{"android":"levelo://app?vid=c371bff1-b3d2-4c0b-a23c-92960c679caf","ios":"levelo://app?vid=c371bff1-b3d2-4c0b-a23c-92960c679caf"},"vehicle_type_id":"4","last_reported":1700859953,"current_range_meters":3200,"station_id":"ce4bhpp2rcd13ifvqhgg","pricing_plan_id":"free"},{"bike_id":"fd114853-7457-45d8-9582-8acd9b09cf99","system_id":"levelo_inurba_marseille","lat":43.326605,"lon":5.409903,"is_reserved":false,"is_disabled":false,"rental_uris":{"android":"levelo://app?vid=fd114853-7457-45d8-9582-8acd9b09cf99","ios":"levelo://app?vid=fd114853-7457-45d8-9582-8acd9b09cf99"},"vehicle_type_id":"4","last_reported":1700859953,"current_range_meters":18400,"station_id":"ce4bhpp2rcd13ifvqhgg","pricing_plan_id":"free"},{"bike_id":"495c9886-34e3-479d-a1e0-c47a9c43931c","system_id":"levelo_inurba_marseille","lat":43.287154,"lon":5.399979,"is_reserved":false,"is_disabled":false,"rental_uris":{"android":"levelo://app?vid=495c9886-34e3-479d-a1e0-c47a9c43931c","ios":"levelo://app?vid=495c9886-34e3-479d-a1e0-c47a9c43931c"},"vehicle_type_id":"4","last_reported":1700859953,"current_range_meters":19200,"station_id":"ce4bho92rcd13ifvqh3g","pricing_plan_id":"free"},{"bike_id":"d0bb53f7-f1b8-4609-a668-27efdac67f66","system_id":"levelo_inurba_marseille","lat":43.27959,"lon":5.38764,"is_reserved":false,"is_disabled":false,"rental_uris":{"android":"levelo://app?vid=d0bb53f7-f1b8-4609-a668-27efdac67f66","ios":"levelo://app?vid=d0bb53f7-f1b8-4609-a668-27efdac67f66"},"vehicle_type_id":"4","last_reported":1700859953,"current_range_meters":0,"station_id":"ce4bhg12rcd13ifvqf80","pricing_plan_id":"free"},{"bike_id":"22d347e4-9673-489d-af28-13b064fc6114","system_id":"levelo_inurba_marseille","lat":43.292571,"lon":5.409107,"is_reserved":false,"is_disabled":false,"rental_uris":{"android":"levelo://app?vid=22d347e4-9673-489d-af28-13b064fc6114","ios":"levelo://app?vid=22d347e4-9673-489d-af28-13b064fc6114"},"vehicle_type_id":"4","last_reported":1700859953,"current_range_meters":24400,"station_id":"ce4bh192rcd13ifvqdc0","pricing_plan_id":"free"},{"bike_id":"80ad672d-7cda-49f4-843e-7a8540e0770d","system_id":"levelo_inurba_marseille","lat":43.280784,"lon":5.396622,"is_reserved":false,"is_disabled":false,"rental_uris":{"android":"levelo://app?vid=80ad672d-7cda-49f4-843e-7a8540e0770d","ios":"levelo://app?vid=80ad672d-7cda-49f4-843e-7a8540e0770d"},"vehicle_type_id":"4","last_reported":1700859953,"current_range_meters":31200,"station_id":"ce4bho12rcd13ifvqh2g","pricing_plan_id":"free"},{"bike_id":"505bc0ec-0c48-4841-90f3-ca45b286b8db","system_id":"levelo_inurba_marseille","lat":43.280784,"lon":5.396622,"is_reserved":false,"is_disabled":false,"rental_uris":{"android":"levelo://app?vid=505bc0ec-0c48-4841-90f3-ca45b286b8db","ios":"levelo://app?vid=505bc0ec-0c48-4841-90f3-ca45b286b8db"},"vehicle_type_id":"4","last_reported":1700859953,"current_range_meters":31200,"station_id":"ce4bho12rcd13ifvqh2g","pricing_plan_id":"free"},{"bike_id":"354adf10-a6cf-4fdf-ad28-995d5514f5ec","system_id":"levelo_inurba_marseille","lat":43.30349,"lon":5.41879,"is_reserved":false,"is_disabled":false,"rental_uris":{"android":"levelo://app?vid=354adf10-a6cf-4fdf-ad28-995d5514f5ec","ios":"levelo://app?vid=354adf10-a6cf-4fdf-ad28-995d5514f5ec"},"vehicle_type_id":"4","last_reported":1700859953,"current_range_meters":2400,"station_id":"ce4bhop2rcd13ifvqh7g","pricing_plan_id":"free"},{"bike_id":"218e8d92-3a37-45f8-986c-da110f8373b6","system_id":"levelo_inurba_marseille","lat":43.278401,"lon":5.392152,"is_reserved":false,"is_disabled":false,"rental_uris":{"android":"levelo://app?vid=218e8d92-3a37-45f8-986c-da110f8373b6","ios":"levelo://app?vid=218e8d92-3a37-45f8-986c-da110f8373b6"},"vehicle_type_id":"4","last_reported":1700859953,"current_range_meters":13600,"station_id":"ce4bhjp2rcd13ifvqga0","pricing_plan_id":"free"},{"bike_id":"d7e96dab-8a31-411e-9eb2-a0c89e002e0c","system_id":"levelo_inurba_marseille","lat":43.3031,"lon":5.41916,"is_reserved":false,"is_disabled":false,"rental_uris":{"android":"levelo://app?vid=d7e96dab-8a31-411e-9eb2-a0c89e002e0c","ios":"levelo://app?vid=d7e96dab-8a31-411e-9eb2-a0c89e002e0c"},"vehicle_type_id":"4","last_reported":1700859953,"current_range_meters":25600,"station_id":"","pricing_plan_id":"free"},{"bike_id":"34f17b7e-f45a-46e3-8e07-ea0b73554d52","system_id":"levelo_inurba_marseille","lat":43.27999,"lon":5.40006,"is_reserved":false,"is_disabled":false,"rental_uris":{"android":"levelo://app?vid=34f17b7e-f45a-46e3-8e07-ea0b73554d52","ios":"levelo://app?vid=34f17b7e-f45a-46e3-8e07-ea0b73554d52"},"vehicle_type_id":"4","last_reported":1700859953,"current_range_meters":9200,"station_id":"ce4bho92rcd13ifvqh4g","pricing_plan_id":"free"},{"bike_id":"561d56c0-616a-4955-bd15-b0e0ddd3d6ba","system_id":"levelo_inurba_marseille","lat":43.279952,"lon":5.400085,"is_reserved":false,"is_disabled":false,"rental_uris":{"android":"levelo://app?vid=561d56c0-616a-4955-bd15-b0e0ddd3d6ba","ios":"levelo://app?vid=561d56c0-616a-4955-bd15-b0e0ddd3d6ba"},"vehicle_type_id":"4","last_reported":1700859953,"current_range_meters":24400,"station_id":"ce4bho92rcd13ifvqh4g","pricing_plan_id":"free"},{"bike_id":"fc8a50fc-7fb9-4b58-ae5e-3658ebaf4b71","system_id":"levelo_inurba_marseille","lat":43.34181,"lon":5.40612,"is_reserved":false,"is_disabled":false,"rental_uris":{"android":"levelo://app?vid=fc8a50fc-7fb9-4b58-ae5e-3658ebaf4b71","ios":"levelo://app?vid=fc8a50fc-7fb9-4b58-ae5e-3658ebaf4b71"},"vehicle_type_id":"4","last_reported":1700859953,"current_range_meters":0,"station_id":"","pricing_plan_id":"free"},{"bike_id":"3b5836a7-12bc-4eeb-81a3-25b20505d9af","system_id":"levelo_inurba_marseille","lat":43.317121,"lon":5.423936,"is_reserved":false,"is_disabled":false,"rental_uris":{"android":"levelo://app?vid=3b5836a7-12bc-4eeb-81a3-25b20505d9af","ios":"levelo://app?vid=3b5836a7-12bc-4eeb-81a3-25b20505d9af"},"vehicle_type_id":"4","last_reported":1700859953,"current_range_meters":24000,"station_id":"ce4bhp92rcd13ifvqhbg","pricing_plan_id":"free"},{"bike_id":"4fcce5d9-071c-4eeb-873d-e2b8131ef5b1","system_id":"levelo_inurba_marseille","lat":43.317121,"lon":5.423936,"is_reserved":false,"is_disabled":false,"rental_uris":{"android":"levelo://app?vid=4fcce5d9-071c-4eeb-873d-e2b8131ef5b1","ios":"levelo://app?vid=4fcce5d9-071c-4eeb-873d-e2b8131ef5b1"},"vehicle_type_id":"4","last_reported":1700859953,"current_range_meters":23200,"station_id":"ce4bhp92rcd13ifvqhbg","pricing_plan_id":"free"},{"bike_id":"62a4131c-a361-4342-8c26-db721e4c4d35","system_id":"levelo_inurba_marseille","lat":43.274099,"lon":5.394019,"is_reserved":false,"is_disabled":false,"rental_uris":{"android":"levelo://app?vid=62a4131c-a361-4342-8c26-db721e4c4d35","ios":"levelo://app?vid=62a4131c-a361-4342-8c26-db721e4c4d35"},"vehicle_type_id":"4","last_reported":1700859953,"current_range_meters":17200,"station_id":"ce4bhdp2rcd13ifvqf20","pricing_plan_id":"free"},{"bike_id":"886b94e7-3f0f-4f28-ab90-06e9345b689d","system_id":"levelo_inurba_marseille","lat":43.295523,"lon":5.422926,"is_reserved":false,"is_disabled":false,"rental_uris":{"android":"levelo://app?vid=886b94e7-3f0f-4f28-ab90-06e9345b689d","ios":"levelo://app?vid=886b94e7-3f0f-4f28-ab90-06e9345b689d"},"vehicle_type_id":"4","last_reported":1700859953,"current_range_meters":3200,"station_id":"ce4bhph2rcd13ifvqhdg","pricing_plan_id":"free"},{"bike_id":"36c661af-b1d4-4283-adeb-a6b360ed03cd","system_id":"levelo_inurba_marseille","lat":43.29555,"lon":5.42277,"is_reserved":false,"is_disabled":false,"rental_uris":{"android":"levelo://app?vid=36c661af-b1d4-4283-adeb-a6b360ed03cd","ios":"levelo://app?vid=36c661af-b1d4-4283-adeb-a6b360ed03cd"},"vehicle_type_id":"4","last_reported":1700859953,"current_range_meters":14800,"station_id":"ce4bhph2rcd13ifvqhdg","pricing_plan_id":"free"},{"bike_id":"1a90ad96-70fc-4155-86e7-f16ea0bf6707","system_id":"levelo_inurba_marseille","lat":43.295523,"lon":5.422926,"is_reserved":false,"is_disabled":false,"rental_uris":{"android":"levelo://app?vid=1a90ad96-70fc-4155-86e7-f16ea0bf6707","ios":"levelo://app?vid=1a90ad96-70fc-4155-86e7-f16ea0bf6707"},"vehicle_type_id":"4","last_reported":1700859953,"current_range_meters":28400,"station_id":"ce4bhph2rcd13ifvqhdg","pricing_plan_id":"free"},{"bike_id":"6d892d9f-8bb7-466b-91e4-6b4cd5e06b20","system_id":"levelo_inurba_marseille","lat":43.295511,"lon":5.422926,"is_reserved":false,"is_disabled":false,"rental_uris":{"android":"levelo://app?vid=6d892d9f-8bb7-466b-91e4-6b4cd5e06b20","ios":"levelo://app?vid=6d892d9f-8bb7-466b-91e4-6b4cd5e06b20"},"vehicle_type_id":"4","last_reported":1700859953,"current_range_meters":27600,"station_id":"ce4bhph2rcd13ifvqhdg","pricing_plan_id":"free"},{"bike_id":"ec3d03da-78c9-4642-80f1-267154a38bb0","system_id":"levelo_inurba_marseille","lat":43.295511,"lon":5.422926,"is_reserved":false,"is_disabled":false,"rental_uris":{"android":"levelo://app?vid=ec3d03da-78c9-4642-80f1-267154a38bb0","ios":"levelo://app?vid=ec3d03da-78c9-4642-80f1-267154a38bb0"},"vehicle_type_id":"4","last_reported":1700859953,"current_range_meters":31600,"station_id":"ce4bhph2rcd13ifvqhdg","pricing_plan_id":"free"},{"bike_id":"39ba2a28-4e45-47ae-b54e-2e865e84aa2a","system_id":"levelo_inurba_marseille","lat":43.295523,"lon":5.422926,"is_reserved":false,"is_disabled":false,"rental_uris":{"android":"levelo://app?vid=39ba2a28-4e45-47ae-b54e-2e865e84aa2a","ios":"levelo://app?vid=39ba2a28-4e45-47ae-b54e-2e865e84aa2a"},"vehicle_type_id":"4","last_reported":1700859953,"current_range_meters":29200,"station_id":"ce4bhph2rcd13ifvqhdg","pricing_plan_id":"free"},{"bike_id":"9830637b-caf5-476f-85b7-c02033487ff2","system_id":"levelo_inurba_marseille","lat":43.295511,"lon":5.422926,"is_reserved":false,"is_disabled":false,"rental_uris":{"android":"levelo://app?vid=9830637b-caf5-476f-85b7-c02033487ff2","ios":"levelo://app?vid=9830637b-caf5-476f-85b7-c02033487ff2"},"vehicle_type_id":"4","last_reported":1700859953,"current_range_meters":31600,"station_id":"ce4bhph2rcd13ifvqhdg","pricing_plan_id":"free"},{"bike_id":"118822d8-6e1e-4e74-a488-66c0b9bac4ea","system_id":"levelo_inurba_marseille","lat":43.29561,"lon":5.42289,"is_reserved":false,"is_disabled":false,"rental_uris":{"android":"levelo://app?vid=118822d8-6e1e-4e74-a488-66c0b9bac4ea","ios":"levelo://app?vid=118822d8-6e1e-4e74-a488-66c0b9bac4ea"},"vehicle_type_id":"4","last_reported":1700859953,"current_range_meters":22400,"station_id":"ce4bhph2rcd13ifvqhdg","pricing_plan_id":"free"},{"bike_id":"9f3ea0ae-761e-43b1-ad64-979f3efc0236","system_id":"levelo_inurba_marseille","lat":43.295511,"lon":5.422926,"is_reserved":false,"is_disabled":false,"rental_uris":{"android":"levelo://app?vid=9f3ea0ae-761e-43b1-ad64-979f3efc0236","ios":"levelo://app?vid=9f3ea0ae-761e-43b1-ad64-979f3efc0236"},"vehicle_type_id":"4","last_reported":1700859953,"current_range_meters":24400,"station_id":"ce4bhph2rcd13ifvqhdg","pricing_plan_id":"free"},{"bike_id":"0d59a7aa-71a7-4b34-9c6a-90f78040711d","system_id":"levelo_inurba_marseille","lat":43.26909,"lon":5.37657,"is_reserved":false,"is_disabled":false,"rental_uris":{"android":"levelo://app?vid=0d59a7aa-71a7-4b34-9c6a-90f78040711d","ios":"levelo://app?vid=0d59a7aa-71a7-4b34-9c6a-90f78040711d"},"vehicle_type_id":"4","last_reported":1700859953,"current_range_meters":1600,"station_id":"ce4bhgh2rcd13ifvqfb0","pricing_plan_id":"free"},{"bike_id":"c0e7c921-2f34-4325-9644-1440c95e11ac","system_id":"levelo_inurba_marseille","lat":43.295523,"lon":5.422926,"is_reserved":false,"is_disabled":false,"rental_uris":{"android":"levelo://app?vid=c0e7c921-2f34-4325-9644-1440c95e11ac","ios":"levelo://app?vid=c0e7c921-2f34-4325-9644-1440c95e11ac"},"vehicle_type_id":"4","last_reported":1700859953,"current_range_meters":21600,"station_id":"ce4bhph2rcd13ifvqhdg","pricing_plan_id":"free"},{"bike_id":"60384595-5838-46d3-8ef9-ce34760ba3f9","system_id":"levelo_inurba_marseille","lat":43.295511,"lon":5.422926,"is_reserved":false,"is_disabled":false,"rental_uris":{"android":"levelo://app?vid=60384595-5838-46d3-8ef9-ce34760ba3f9","ios":"levelo://app?vid=60384595-5838-46d3-8ef9-ce34760ba3f9"},"vehicle_type_id":"4","last_reported":1700859953,"current_range_meters":31600,"station_id":"ce4bhph2rcd13ifvqhdg","pricing_plan_id":"free"},{"bike_id":"db0e19ee-ec25-4c34-8e29-8f41b2c14953","system_id":"levelo_inurba_marseille","lat":43.295523,"lon":5.422926,"is_reserved":false,"is_disabled":false,"rental_uris":{"android":"levelo://app?vid=db0e19ee-ec25-4c34-8e29-8f41b2c14953","ios":"levelo://app?vid=db0e19ee-ec25-4c34-8e29-8f41b2c14953"},"vehicle_type_id":"4","last_reported":1700859953,"current_range_meters":22000,"station_id":"ce4bhph2rcd13ifvqhdg","pricing_plan_id":"free"},{"bike_id":"64182f69-ed8f-42e2-a611-4044e31cb71b","system_id":"levelo_inurba_marseille","lat":43.272124,"lon":5.391768,"is_reserved":false,"is_disabled":false,"rental_uris":{"android":"levelo://app?vid=64182f69-ed8f-42e2-a611-4044e31cb71b","ios":"levelo://app?vid=64182f69-ed8f-42e2-a611-4044e31cb71b"},"vehicle_type_id":"4","last_reported":1700859953,"current_range_meters":0,"station_id":"ce4bhhp2rcd13ifvqfm0","pricing_plan_id":"free"},{"bike_id":"229fd7f6-ab14-4456-9aa5-22c620e5a4f0","system_id":"levelo_inurba_marseille","lat":43.278128,"lon":5.407195,"is_reserved":false,"is_disabled":false,"rental_uris":{"android":"levelo://app?vid=229fd7f6-ab14-4456-9aa5-22c620e5a4f0","ios":"levelo://app?vid=229fd7f6-ab14-4456-9aa5-22c620e5a4f0"},"vehicle_type_id":"4","last_reported":1700859953,"current_range_meters":30800,"station_id":"ce4bhnh2rcd13ifvqgtg","pricing_plan_id":"free"},{"bike_id":"58ba1594-dbb6-46f4-89e7-d4cbdd79499a","system_id":"levelo_inurba_marseille","lat":43.278128,"lon":5.407195,"is_reserved":false,"is_disabled":false,"rental_uris":{"android":"levelo://app?vid=58ba1594-dbb6-46f4-89e7-d4cbdd79499a","ios":"levelo://app?vid=58ba1594-dbb6-46f4-89e7-d4cbdd79499a"},"vehicle_type_id":"4","last_reported":1700859953,"current_range_meters":20400,"station_id":"ce4bhnh2rcd13ifvqgtg","pricing_plan_id":"free"},{"bike_id":"89a1ff33-0e14-4cd3-a8bc-87a198c4f371","system_id":"levelo_inurba_marseille","lat":43.278128,"lon":5.407195,"is_reserved":false,"is_disabled":false,"rental_uris":{"android":"levelo://app?vid=89a1ff33-0e14-4cd3-a8bc-87a198c4f371","ios":"levelo://app?vid=89a1ff33-0e14-4cd3-a8bc-87a198c4f371"},"vehicle_type_id":"4","last_reported":1700859953,"current_range_meters":31200,"station_id":"ce4bhnh2rcd13ifvqgtg","pricing_plan_id":"free"},{"bike_id":"28e8ce00-6b21-4e06-9930-c7c4408cc650","system_id":"levelo_inurba_marseille","lat":43.278164,"lon":5.407143,"is_reserved":false,"is_disabled":false,"rental_uris":{"android":"levelo://app?vid=28e8ce00-6b21-4e06-9930-c7c4408cc650","ios":"levelo://app?vid=28e8ce00-6b21-4e06-9930-c7c4408cc650"},"vehicle_type_id":"4","last_reported":1700859953,"current_range_meters":0,"station_id":"","pricing_plan_id":"free"},{"bike_id":"143b2fff-69da-4899-a45d-9740b6b83a8b","system_id":"levelo_inurba_marseille","lat":43.278128,"lon":5.407195,"is_reserved":false,"is_disabled":false,"rental_uris":{"android":"levelo://app?vid=143b2fff-69da-4899-a45d-9740b6b83a8b","ios":"levelo://app?vid=143b2fff-69da-4899-a45d-9740b6b83a8b"},"vehicle_type_id":"4","last_reported":1700859953,"current_range_meters":29600,"station_id":"ce4bhnh2rcd13ifvqgtg","pricing_plan_id":"free"},{"bike_id":"fc3c3486-b5e3-401b-9cc4-f32844ec20e0","system_id":"levelo_inurba_marseille","lat":43.279577,"lon":5.410485,"is_reserved":false,"is_disabled":false,"rental_uris":{"android":"levelo://app?vid=fc3c3486-b5e3-401b-9cc4-f32844ec20e0","ios":"levelo://app?vid=fc3c3486-b5e3-401b-9cc4-f32844ec20e0"},"vehicle_type_id":"4","last_reported":1700859953,"current_range_meters":0,"station_id":"ce4bhnp2rcd13ifvqh0g","pricing_plan_id":"free"},{"bike_id":"a13e0206-7b53-4b21-a0b5-6b5a21dd730e","system_id":"levelo_inurba_marseille","lat":43.279388,"lon":5.410385,"is_reserved":false,"is_disabled":false,"rental_uris":{"android":"levelo://app?vid=a13e0206-7b53-4b21-a0b5-6b5a21dd730e","ios":"levelo://app?vid=a13e0206-7b53-4b21-a0b5-6b5a21dd730e"},"vehicle_type_id":"4","last_reported":1700859953,"current_range_meters":6000,"station_id":"ce4bhnp2rcd13ifvqh0g","pricing_plan_id":"free"},{"bike_id":"ba40459b-fa92-48ea-89ea-ba99173bc463","system_id":"levelo_inurba_marseille","lat":43.2658,"lon":5.3806,"is_reserved":false,"is_disabled":false,"rental_uris":{"android":"levelo://app?vid=ba40459b-fa92-48ea-89ea-ba99173bc463","ios":"levelo://app?vid=ba40459b-fa92-48ea-89ea-ba99173bc463"},"vehicle_type_id":"4","last_reported":1700859953,"current_range_meters":25200,"station_id":"ce4bhgh2rcd13ifvqfb0","pricing_plan_id":"free"},{"bike_id":"f23d8119-b478-4639-98c5-6883279f9f84","system_id":"levelo_inurba_marseille","lat":43.32592,"lon":5.43067,"is_reserved":false,"is_disabled":false,"rental_uris":{"android":"levelo://app?vid=f23d8119-b478-4639-98c5-6883279f9f84","ios":"levelo://app?vid=f23d8119-b478-4639-98c5-6883279f9f84"},"vehicle_type_id":"4","last_reported":1700859953,"current_range_meters":29200,"station_id":"","pricing_plan_id":"free"},{"bike_id":"e7b368e8-9edf-4ac8-acef-7e9558d427aa","system_id":"levelo_inurba_marseille","lat":43.32591,"lon":5.430713,"is_reserved":false,"is_disabled":false,"rental_uris":{"android":"levelo://app?vid=e7b368e8-9edf-4ac8-acef-7e9558d427aa","ios":"levelo://app?vid=e7b368e8-9edf-4ac8-acef-7e9558d427aa"},"vehicle_type_id":"4","last_reported":1700859953,"current_range_meters":0,"station_id":"","pricing_plan_id":"free"},{"bike_id":"ed30d6a1-b23a-49e5-9c83-5546be72a734","system_id":"levelo_inurba_marseille","lat":43.3259,"lon":5.43075,"is_reserved":false,"is_disabled":false,"rental_uris":{"android":"levelo://app?vid=ed30d6a1-b23a-49e5-9c83-5546be72a734","ios":"levelo://app?vid=ed30d6a1-b23a-49e5-9c83-5546be72a734"},"vehicle_type_id":"4","last_reported":1700859953,"current_range_meters":24000,"station_id":"","pricing_plan_id":"free"},{"bike_id":"d67469ee-5362-4610-a163-fe05ae3cf4f7","system_id":"levelo_inurba_marseille","lat":43.32604,"lon":5.430817,"is_reserved":false,"is_disabled":false,"rental_uris":{"android":"levelo://app?vid=d67469ee-5362-4610-a163-fe05ae3cf4f7","ios":"levelo://app?vid=d67469ee-5362-4610-a163-fe05ae3cf4f7"},"vehicle_type_id":"4","last_reported":1700859953,"current_range_meters":12400,"station_id":"","pricing_plan_id":"free"},{"bike_id":"2b5f0b27-ae58-4e9e-bd76-c585f78e8a73","system_id":"levelo_inurba_marseille","lat":43.26386,"lon":5.37454,"is_reserved":false,"is_disabled":false,"rental_uris":{"android":"levelo://app?vid=2b5f0b27-ae58-4e9e-bd76-c585f78e8a73","ios":"levelo://app?vid=2b5f0b27-ae58-4e9e-bd76-c585f78e8a73"},"vehicle_type_id":"4","last_reported":1700859953,"current_range_meters":13200,"station_id":"","pricing_plan_id":"free"},{"bike_id":"a1d95e35-bc72-40fd-9474-104870c03b88","system_id":"levelo_inurba_marseille","lat":43.308051,"lon":5.43527,"is_reserved":false,"is_disabled":false,"rental_uris":{"android":"levelo://app?vid=a1d95e35-bc72-40fd-9474-104870c03b88","ios":"levelo://app?vid=a1d95e35-bc72-40fd-9474-104870c03b88"},"vehicle_type_id":"4","last_reported":1700859953,"current_range_meters":5600,"station_id":"ce4bhph2rcd13ifvqheg","pricing_plan_id":"free"},{"bike_id":"8bb5fb4c-f033-472d-9384-8c187d29c15f","system_id":"levelo_inurba_marseille","lat":43.308051,"lon":5.43527,"is_reserved":false,"is_disabled":false,"rental_uris":{"android":"levelo://app?vid=8bb5fb4c-f033-472d-9384-8c187d29c15f","ios":"levelo://app?vid=8bb5fb4c-f033-472d-9384-8c187d29c15f"},"vehicle_type_id":"4","last_reported":1700859953,"current_range_meters":31600,"station_id":"ce4bhph2rcd13ifvqheg","pricing_plan_id":"free"},{"bike_id":"a6cf9b04-855d-4dc5-9c72-ce4a8e5bbb9c","system_id":"levelo_inurba_marseille","lat":43.31724,"lon":5.43696,"is_reserved":false,"is_disabled":false,"rental_uris":{"android":"levelo://app?vid=a6cf9b04-855d-4dc5-9c72-ce4a8e5bbb9c","ios":"levelo://app?vid=a6cf9b04-855d-4dc5-9c72-ce4a8e5bbb9c"},"vehicle_type_id":"4","last_reported":1700859953,"current_range_meters":1200,"station_id":"ce4bhp92rcd13ifvqhcg","pricing_plan_id":"free"},{"bike_id":"2f057b81-6fc8-4570-8186-e577abd426a5","system_id":"levelo_inurba_marseille","lat":43.262012,"lon":5.379307,"is_reserved":false,"is_disabled":false,"rental_uris":{"android":"levelo://app?vid=2f057b81-6fc8-4570-8186-e577abd426a5","ios":"levelo://app?vid=2f057b81-6fc8-4570-8186-e577abd426a5"},"vehicle_type_id":"4","last_reported":1700859953,"current_range_meters":6000,"station_id":"ce4bhjp2rcd13ifvqg90","pricing_plan_id":"free"},{"bike_id":"3f071054-5750-40df-87c2-67c9e3371e59","system_id":"levelo_inurba_marseille","lat":43.267959,"lon":5.402687,"is_reserved":false,"is_disabled":false,"rental_uris":{"android":"levelo://app?vid=3f071054-5750-40df-87c2-67c9e3371e59","ios":"levelo://app?vid=3f071054-5750-40df-87c2-67c9e3371e59"},"vehicle_type_id":"4","last_reported":1700859953,"current_range_meters":400,"station_id":"ce501612rcd8frsf0b60","pricing_plan_id":"free"},{"bike_id":"8af0d2ed-93d1-485d-9803-40c71e52d0d9","system_id":"levelo_inurba_marseille","lat":43.298768,"lon":5.43643,"is_reserved":false,"is_disabled":false,"rental_uris":{"android":"levelo://app?vid=8af0d2ed-93d1-485d-9803-40c71e52d0d9","ios":"levelo://app?vid=8af0d2ed-93d1-485d-9803-40c71e52d0d9"},"vehicle_type_id":"4","last_reported":1700859953,"current_range_meters":6800,"station_id":"ce4bhpp2rcd13ifvqhfg","pricing_plan_id":"free"},{"bike_id":"91794d0e-e2e6-4dd9-a1b6-ff7501e49342","system_id":"levelo_inurba_marseille","lat":43.298768,"lon":5.43643,"is_reserved":false,"is_disabled":false,"rental_uris":{"android":"levelo://app?vid=91794d0e-e2e6-4dd9-a1b6-ff7501e49342","ios":"levelo://app?vid=91794d0e-e2e6-4dd9-a1b6-ff7501e49342"},"vehicle_type_id":"4","last_reported":1700859953,"current_range_meters":400,"station_id":"ce4bhpp2rcd13ifvqhfg","pricing_plan_id":"free"},{"bike_id":"1e272c67-0721-4a45-a082-8c54474509d1","system_id":"levelo_inurba_marseille","lat":43.29901,"lon":5.436851,"is_reserved":false,"is_disabled":false,"rental_uris":{"android":"levelo://app?vid=1e272c67-0721-4a45-a082-8c54474509d1","ios":"levelo://app?vid=1e272c67-0721-4a45-a082-8c54474509d1"},"vehicle_type_id":"4","last_reported":1700859953,"current_range_meters":0,"station_id":"ce4bhpp2rcd13ifvqhfg","pricing_plan_id":"free"},{"bike_id":"5cc76595-4035-4213-b74e-41dabe622aaf","system_id":"levelo_inurba_marseille","lat":43.28151,"lon":5.42632,"is_reserved":false,"is_disabled":false,"rental_uris":{"android":"levelo://app?vid=5cc76595-4035-4213-b74e-41dabe622aaf","ios":"levelo://app?vid=5cc76595-4035-4213-b74e-41dabe622aaf"},"vehicle_type_id":"4","last_reported":1700859953,"current_range_meters":7200,"station_id":"ce4bhnh2rcd13ifvqgug","pricing_plan_id":"free"},{"bike_id":"a490993e-37f7-483a-a40b-3a1888958a96","system_id":"levelo_inurba_marseille","lat":43.28157,"lon":5.42641,"is_reserved":false,"is_disabled":false,"rental_uris":{"android":"levelo://app?vid=a490993e-37f7-483a-a40b-3a1888958a96","ios":"levelo://app?vid=a490993e-37f7-483a-a40b-3a1888958a96"},"vehicle_type_id":"4","last_reported":1700859953,"current_range_meters":2400,"station_id":"ce4bhnh2rcd13ifvqgug","pricing_plan_id":"free"},{"bike_id":"a397e803-15ed-4f7f-93b9-1d8a8de9f50a","system_id":"levelo_inurba_marseille","lat":43.29785,"lon":5.43732,"is_reserved":false,"is_disabled":false,"rental_uris":{"android":"levelo://app?vid=a397e803-15ed-4f7f-93b9-1d8a8de9f50a","ios":"levelo://app?vid=a397e803-15ed-4f7f-93b9-1d8a8de9f50a"},"vehicle_type_id":"4","last_reported":1700859953,"current_range_meters":1600,"station_id":"","pricing_plan_id":"free"},{"bike_id":"5ac38179-4d98-4b89-80f2-dc6cd474e479","system_id":"levelo_inurba_marseille","lat":43.28155,"lon":5.42647,"is_reserved":false,"is_disabled":false,"rental_uris":{"android":"levelo://app?vid=5ac38179-4d98-4b89-80f2-dc6cd474e479","ios":"levelo://app?vid=5ac38179-4d98-4b89-80f2-dc6cd474e479"},"vehicle_type_id":"4","last_reported":1700859953,"current_range_meters":20400,"station_id":"ce4bhnh2rcd13ifvqgug","pricing_plan_id":"free"},{"bike_id":"f154e957-88bd-4034-90de-05374419501a","system_id":"levelo_inurba_marseille","lat":43.281548,"lon":5.42643,"is_reserved":false,"is_disabled":false,"rental_uris":{"android":"levelo://app?vid=f154e957-88bd-4034-90de-05374419501a","ios":"levelo://app?vid=f154e957-88bd-4034-90de-05374419501a"},"vehicle_type_id":"4","last_reported":1700859953,"current_range_meters":10800,"station_id":"ce4bhnh2rcd13ifvqgug","pricing_plan_id":"free"},{"bike_id":"6181795c-d57f-4dce-a524-f46690bf06cb","system_id":"levelo_inurba_marseille","lat":43.28152,"lon":5.42649,"is_reserved":false,"is_disabled":false,"rental_uris":{"android":"levelo://app?vid=6181795c-d57f-4dce-a524-f46690bf06cb","ios":"levelo://app?vid=6181795c-d57f-4dce-a524-f46690bf06cb"},"vehicle_type_id":"4","last_reported":1700859953,"current_range_meters":28000,"station_id":"ce4bhnh2rcd13ifvqgug","pricing_plan_id":"free"},{"bike_id":"eef0a041-3e0b-4505-a138-030cf8af53bc","system_id":"levelo_inurba_marseille","lat":43.2607,"lon":5.393983,"is_reserved":false,"is_disabled":false,"rental_uris":{"android":"levelo://app?vid=eef0a041-3e0b-4505-a138-030cf8af53bc","ios":"levelo://app?vid=eef0a041-3e0b-4505-a138-030cf8af53bc"},"vehicle_type_id":"4","last_reported":1700859953,"current_range_meters":15600,"station_id":"ce4bhh92rcd13ifvqfj0","pricing_plan_id":"free"},{"bike_id":"24f1bf1f-5268-45e6-a816-869a92bcc51d","system_id":"levelo_inurba_marseille","lat":43.275028,"lon":5.424534,"is_reserved":false,"is_disabled":false,"rental_uris":{"android":"levelo://app?vid=24f1bf1f-5268-45e6-a816-869a92bcc51d","ios":"levelo://app?vid=24f1bf1f-5268-45e6-a816-869a92bcc51d"},"vehicle_type_id":"4","last_reported":1700859953,"current_range_meters":22400,"station_id":"ce4bhn92rcd13ifvqgrg","pricing_plan_id":"free"},{"bike_id":"ff385c11-2b7e-45df-b8ce-aac89ab149ad","system_id":"levelo_inurba_marseille","lat":43.275028,"lon":5.424534,"is_reserved":false,"is_disabled":false,"rental_uris":{"android":"levelo://app?vid=ff385c11-2b7e-45df-b8ce-aac89ab149ad","ios":"levelo://app?vid=ff385c11-2b7e-45df-b8ce-aac89ab149ad"},"vehicle_type_id":"4","last_reported":1700859953,"current_range_meters":12000,"station_id":"ce4bhn92rcd13ifvqgrg","pricing_plan_id":"free"},{"bike_id":"d17c369d-52ad-4a88-a869-88a8b1196620","system_id":"levelo_inurba_marseille","lat":43.260909,"lon":5.397591,"is_reserved":false,"is_disabled":false,"rental_uris":{"android":"levelo://app?vid=d17c369d-52ad-4a88-a869-88a8b1196620","ios":"levelo://app?vid=d17c369d-52ad-4a88-a869-88a8b1196620"},"vehicle_type_id":"4","last_reported":1700859953,"current_range_meters":15200,"station_id":"ce4bhi12rcd13ifvqfq0","pricing_plan_id":"free"},{"bike_id":"c85f7616-3a9e-47a4-ae16-28a03e51ab4f","system_id":"levelo_inurba_marseille","lat":43.28932,"lon":5.43858,"is_reserved":false,"is_disabled":false,"rental_uris":{"android":"levelo://app?vid=c85f7616-3a9e-47a4-ae16-28a03e51ab4f","ios":"levelo://app?vid=c85f7616-3a9e-47a4-ae16-28a03e51ab4f"},"vehicle_type_id":"4","last_reported":1700859953,"current_range_meters":1200,"station_id":"","pricing_plan_id":"free"},{"bike_id":"c4d54089-7d7d-4a09-85b9-e70e49f97247","system_id":"levelo_inurba_marseille","lat":43.25827,"lon":5.394334,"is_reserved":false,"is_disabled":false,"rental_uris":{"android":"levelo://app?vid=c4d54089-7d7d-4a09-85b9-e70e49f97247","ios":"levelo://app?vid=c4d54089-7d7d-4a09-85b9-e70e49f97247"},"vehicle_type_id":"4","last_reported":1700859953,"current_range_meters":8000,"station_id":"ce4bhip2rcd13ifvqft0","pricing_plan_id":"free"},{"bike_id":"fc2ddff9-0694-4655-b9ff-b79c8125f7fd","system_id":"levelo_inurba_marseille","lat":43.258224,"lon":5.394369,"is_reserved":false,"is_disabled":false,"rental_uris":{"android":"levelo://app?vid=fc2ddff9-0694-4655-b9ff-b79c8125f7fd","ios":"levelo://app?vid=fc2ddff9-0694-4655-b9ff-b79c8125f7fd"},"vehicle_type_id":"4","last_reported":1700859953,"current_range_meters":16000,"station_id":"ce4bhip2rcd13ifvqft0","pricing_plan_id":"free"},{"bike_id":"33365e98-9ada-4f35-b9c4-ebe09a662b13","system_id":"levelo_inurba_marseille","lat":43.254947,"lon":5.376454,"is_reserved":false,"is_disabled":false,"rental_uris":{"android":"levelo://app?vid=33365e98-9ada-4f35-b9c4-ebe09a662b13","ios":"levelo://app?vid=33365e98-9ada-4f35-b9c4-ebe09a662b13"},"vehicle_type_id":"4","last_reported":1700859953,"current_range_meters":10000,"station_id":"ce4bhh12rcd13ifvqff0","pricing_plan_id":"free"},{"bike_id":"cfd2dccf-2ef8-4b4a-8469-7caa00dd869f","system_id":"levelo_inurba_marseille","lat":43.270721,"lon":5.422764,"is_reserved":false,"is_disabled":false,"rental_uris":{"android":"levelo://app?vid=cfd2dccf-2ef8-4b4a-8469-7caa00dd869f","ios":"levelo://app?vid=cfd2dccf-2ef8-4b4a-8469-7caa00dd869f"},"vehicle_type_id":"4","last_reported":1700859953,"current_range_meters":26400,"station_id":"ce4bhk92rcd13ifvqgb0","pricing_plan_id":"free"},{"bike_id":"ad657e31-d5a7-459b-a7ef-89532e280c6c","system_id":"levelo_inurba_marseille","lat":43.270721,"lon":5.422764,"is_reserved":false,"is_disabled":false,"rental_uris":{"android":"levelo://app?vid=ad657e31-d5a7-459b-a7ef-89532e280c6c","ios":"levelo://app?vid=ad657e31-d5a7-459b-a7ef-89532e280c6c"},"vehicle_type_id":"4","last_reported":1700859953,"current_range_meters":20800,"station_id":"ce4bhk92rcd13ifvqgb0","pricing_plan_id":"free"},{"bike_id":"6e55057c-225a-49d9-92b8-4a4d26b84634","system_id":"levelo_inurba_marseille","lat":43.26897,"lon":5.420966,"is_reserved":false,"is_disabled":false,"rental_uris":{"android":"levelo://app?vid=6e55057c-225a-49d9-92b8-4a4d26b84634","ios":"levelo://app?vid=6e55057c-225a-49d9-92b8-4a4d26b84634"},"vehicle_type_id":"4","last_reported":1700859953,"current_range_meters":31200,"station_id":"","pricing_plan_id":"free"},{"bike_id":"88519be8-7050-4d98-8f39-11b31a4d68cd","system_id":"levelo_inurba_marseille","lat":43.2479,"lon":5.374457,"is_reserved":false,"is_disabled":false,"rental_uris":{"android":"levelo://app?vid=88519be8-7050-4d98-8f39-11b31a4d68cd","ios":"levelo://app?vid=88519be8-7050-4d98-8f39-11b31a4d68cd"},"vehicle_type_id":"4","last_reported":1700859953,"current_range_meters":0,"station_id":"ce4bhgh2rcd13ifvqfb0","pricing_plan_id":"free"},{"bike_id":"7cc5c991-5865-4d9b-b1db-3548f54cfc5d","system_id":"levelo_inurba_marseille","lat":43.2481,"lon":5.37458,"is_reserved":false,"is_disabled":false,"rental_uris":{"android":"levelo://app?vid=7cc5c991-5865-4d9b-b1db-3548f54cfc5d","ios":"levelo://app?vid=7cc5c991-5865-4d9b-b1db-3548f54cfc5d"},"vehicle_type_id":"4","last_reported":1700859953,"current_range_meters":25600,"station_id":"ce4bhgh2rcd13ifvqfb0","pricing_plan_id":"free"},{"bike_id":"3bb4aa65-2a83-46a2-a9f9-eac1cd7cb602","system_id":"levelo_inurba_marseille","lat":43.2479,"lon":5.374457,"is_reserved":false,"is_disabled":false,"rental_uris":{"android":"levelo://app?vid=3bb4aa65-2a83-46a2-a9f9-eac1cd7cb602","ios":"levelo://app?vid=3bb4aa65-2a83-46a2-a9f9-eac1cd7cb602"},"vehicle_type_id":"4","last_reported":1700859953,"current_range_meters":9200,"station_id":"ce4bhgh2rcd13ifvqfb0","pricing_plan_id":"free"},{"bike_id":"2527788f-c29a-4f1e-bf20-ae741335880f","system_id":"levelo_inurba_marseille","lat":43.24801,"lon":5.37462,"is_reserved":false,"is_disabled":false,"rental_uris":{"android":"levelo://app?vid=2527788f-c29a-4f1e-bf20-ae741335880f","ios":"levelo://app?vid=2527788f-c29a-4f1e-bf20-ae741335880f"},"vehicle_type_id":"4","last_reported":1700859953,"current_range_meters":4400,"station_id":"ce4bhgh2rcd13ifvqfb0","pricing_plan_id":"free"},{"bike_id":"4ef0619b-5e9b-4bba-b8d3-4779dab6deef","system_id":"levelo_inurba_marseille","lat":43.250869,"lon":5.395083,"is_reserved":false,"is_disabled":false,"rental_uris":{"android":"levelo://app?vid=4ef0619b-5e9b-4bba-b8d3-4779dab6deef","ios":"levelo://app?vid=4ef0619b-5e9b-4bba-b8d3-4779dab6deef"},"vehicle_type_id":"4","last_reported":1700859953,"current_range_meters":10400,"station_id":"ce4bhm12rcd13ifvqgkg","pricing_plan_id":"free"},{"bike_id":"eae92935-d2e4-436e-884b-389e9d56d41a","system_id":"levelo_inurba_marseille","lat":43.250966,"lon":5.395186,"is_reserved":false,"is_disabled":false,"rental_uris":{"android":"levelo://app?vid=eae92935-d2e4-436e-884b-389e9d56d41a","ios":"levelo://app?vid=eae92935-d2e4-436e-884b-389e9d56d41a"},"vehicle_type_id":"4","last_reported":1700859953,"current_range_meters":30800,"station_id":"ce4bhm12rcd13ifvqgkg","pricing_plan_id":"free"},{"bike_id":"42f49140-9965-47cd-8af7-3e161c2f7b46","system_id":"levelo_inurba_marseille","lat":43.250966,"lon":5.395186,"is_reserved":false,"is_disabled":false,"rental_uris":{"android":"levelo://app?vid=42f49140-9965-47cd-8af7-3e161c2f7b46","ios":"levelo://app?vid=42f49140-9965-47cd-8af7-3e161c2f7b46"},"vehicle_type_id":"4","last_reported":1700859953,"current_range_meters":30400,"station_id":"ce4bhm12rcd13ifvqgkg","pricing_plan_id":"free"},{"bike_id":"957b7262-74a7-4086-b66e-ee2415a42a5a","system_id":"levelo_inurba_marseille","lat":43.250966,"lon":5.395186,"is_reserved":false,"is_disabled":false,"rental_uris":{"android":"levelo://app?vid=957b7262-74a7-4086-b66e-ee2415a42a5a","ios":"levelo://app?vid=957b7262-74a7-4086-b66e-ee2415a42a5a"},"vehicle_type_id":"4","last_reported":1700859953,"current_range_meters":30400,"station_id":"ce4bhm12rcd13ifvqgkg","pricing_plan_id":"free"},{"bike_id":"f701d975-8718-4aef-8565-cdc46e0b7582","system_id":"levelo_inurba_marseille","lat":43.25102,"lon":5.403214,"is_reserved":false,"is_disabled":false,"rental_uris":{"android":"levelo://app?vid=f701d975-8718-4aef-8565-cdc46e0b7582","ios":"levelo://app?vid=f701d975-8718-4aef-8565-cdc46e0b7582"},"vehicle_type_id":"4","last_reported":1700859953,"current_range_meters":30000,"station_id":"ce4bhlh2rcd13ifvqgig","pricing_plan_id":"free"},{"bike_id":"6938b06d-41a4-4063-a043-1b2565c1fa8a","system_id":"levelo_inurba_marseille","lat":43.25114,"lon":5.40319,"is_reserved":false,"is_disabled":false,"rental_uris":{"android":"levelo://app?vid=6938b06d-41a4-4063-a043-1b2565c1fa8a","ios":"levelo://app?vid=6938b06d-41a4-4063-a043-1b2565c1fa8a"},"vehicle_type_id":"4","last_reported":1700859953,"current_range_meters":3600,"station_id":"ce4bhlh2rcd13ifvqgig","pricing_plan_id":"free"},{"bike_id":"11ff4b60-83a3-44cf-a8dc-b8ec034549c4","system_id":"levelo_inurba_marseille","lat":43.25113,"lon":5.403263,"is_reserved":false,"is_disabled":false,"rental_uris":{"android":"levelo://app?vid=11ff4b60-83a3-44cf-a8dc-b8ec034549c4","ios":"levelo://app?vid=11ff4b60-83a3-44cf-a8dc-b8ec034549c4"},"vehicle_type_id":"4","last_reported":1700859953,"current_range_meters":0,"station_id":"ce4bhlh2rcd13ifvqgig","pricing_plan_id":"free"},{"bike_id":"56106fb9-b5bc-4e5f-8d13-6c12a01bdd98","system_id":"levelo_inurba_marseille","lat":43.25102,"lon":5.403214,"is_reserved":false,"is_disabled":false,"rental_uris":{"android":"levelo://app?vid=56106fb9-b5bc-4e5f-8d13-6c12a01bdd98","ios":"levelo://app?vid=56106fb9-b5bc-4e5f-8d13-6c12a01bdd98"},"vehicle_type_id":"4","last_reported":1700859953,"current_range_meters":16800,"station_id":"ce4bhlh2rcd13ifvqgig","pricing_plan_id":"free"},{"bike_id":"449872f6-26aa-49c2-b577-3c85a5a94b19","system_id":"levelo_inurba_marseille","lat":43.246461,"lon":5.389014,"is_reserved":false,"is_disabled":false,"rental_uris":{"android":"levelo://app?vid=449872f6-26aa-49c2-b577-3c85a5a94b19","ios":"levelo://app?vid=449872f6-26aa-49c2-b577-3c85a5a94b19"},"vehicle_type_id":"4","last_reported":1700859953,"current_range_meters":10800,"station_id":"ce4bhg12rcd13ifvqf60","pricing_plan_id":"free"},{"bike_id":"9e0e1c2a-a834-4c7d-8995-be2edb86a5df","system_id":"levelo_inurba_marseille","lat":43.243884,"lon":5.370737,"is_reserved":false,"is_disabled":false,"rental_uris":{"android":"levelo://app?vid=9e0e1c2a-a834-4c7d-8995-be2edb86a5df","ios":"levelo://app?vid=9e0e1c2a-a834-4c7d-8995-be2edb86a5df"},"vehicle_type_id":"4","last_reported":1700859953,"current_range_meters":28400,"station_id":"ce4bhhh2rcd13ifvqfk0","pricing_plan_id":"free"},{"bike_id":"5a8a1267-10f3-45c3-9c2b-7e20416542b5","system_id":"levelo_inurba_marseille","lat":43.245581,"lon":5.395069,"is_reserved":false,"is_disabled":false,"rental_uris":{"android":"levelo://app?vid=5a8a1267-10f3-45c3-9c2b-7e20416542b5","ios":"levelo://app?vid=5a8a1267-10f3-45c3-9c2b-7e20416542b5"},"vehicle_type_id":"4","last_reported":1700859953,"current_range_meters":3200,"station_id":"ce4bhlp2rcd13ifvqgjg","pricing_plan_id":"free"},{"bike_id":"1cb96f04-f422-460b-925f-998463caffcc","system_id":"levelo_inurba_marseille","lat":43.24071,"lon":5.37763,"is_reserved":false,"is_disabled":false,"rental_uris":{"android":"levelo://app?vid=1cb96f04-f422-460b-925f-998463caffcc","ios":"levelo://app?vid=1cb96f04-f422-460b-925f-998463caffcc"},"vehicle_type_id":"4","last_reported":1700859953,"current_range_meters":14800,"station_id":"ce4bhnp2rcd13ifvqgvg","pricing_plan_id":"free"},{"bike_id":"3c7fa71f-eea3-4dca-beba-593f51f59c9c","system_id":"levelo_inurba_marseille","lat":43.239686,"lon":5.366345,"is_reserved":false,"is_disabled":false,"rental_uris":{"android":"levelo://app?vid=3c7fa71f-eea3-4dca-beba-593f51f59c9c","ios":"levelo://app?vid=3c7fa71f-eea3-4dca-beba-593f51f59c9c"},"vehicle_type_id":"4","last_reported":1700859953,"current_range_meters":14800,"station_id":"ce4bhi12rcd13ifvqfp0","pricing_plan_id":"free"},{"bike_id":"3230c7d1-644f-45ad-b14a-e355b2b6b66e","system_id":"levelo_inurba_marseille","lat":43.23966,"lon":5.36635,"is_reserved":false,"is_disabled":false,"rental_uris":{"android":"levelo://app?vid=3230c7d1-644f-45ad-b14a-e355b2b6b66e","ios":"levelo://app?vid=3230c7d1-644f-45ad-b14a-e355b2b6b66e"},"vehicle_type_id":"4","last_reported":1700859953,"current_range_meters":20800,"station_id":"ce4bhi12rcd13ifvqfp0","pricing_plan_id":"free"},{"bike_id":"56b0f98d-ecc1-47fa-bd3e-9dc560c42354","system_id":"levelo_inurba_marseille","lat":43.23966,"lon":5.3663,"is_reserved":false,"is_disabled":false,"rental_uris":{"android":"levelo://app?vid=56b0f98d-ecc1-47fa-bd3e-9dc560c42354","ios":"levelo://app?vid=56b0f98d-ecc1-47fa-bd3e-9dc560c42354"},"vehicle_type_id":"4","last_reported":1700859953,"current_range_meters":20000,"station_id":"ce4bhi12rcd13ifvqfp0","pricing_plan_id":"free"},{"bike_id":"15742252-95da-4bdb-8112-ce95178755dc","system_id":"levelo_inurba_marseille","lat":43.23966,"lon":5.36629,"is_reserved":false,"is_disabled":false,"rental_uris":{"android":"levelo://app?vid=15742252-95da-4bdb-8112-ce95178755dc","ios":"levelo://app?vid=15742252-95da-4bdb-8112-ce95178755dc"},"vehicle_type_id":"4","last_reported":1700859953,"current_range_meters":8000,"station_id":"ce4bhi12rcd13ifvqfp0","pricing_plan_id":"free"},{"bike_id":"8ce3aabf-1913-43c2-9ac8-a071171e85a8","system_id":"levelo_inurba_marseille","lat":43.23965,"lon":5.36628,"is_reserved":false,"is_disabled":false,"rental_uris":{"android":"levelo://app?vid=8ce3aabf-1913-43c2-9ac8-a071171e85a8","ios":"levelo://app?vid=8ce3aabf-1913-43c2-9ac8-a071171e85a8"},"vehicle_type_id":"4","last_reported":1700859953,"current_range_meters":28400,"station_id":"ce4bhi12rcd13ifvqfp0","pricing_plan_id":"free"},{"bike_id":"1c07a5ad-1fa3-4b2f-ad72-6a07be76875e","system_id":"levelo_inurba_marseille","lat":43.239649,"lon":5.366307,"is_reserved":false,"is_disabled":false,"rental_uris":{"android":"levelo://app?vid=1c07a5ad-1fa3-4b2f-ad72-6a07be76875e","ios":"levelo://app?vid=1c07a5ad-1fa3-4b2f-ad72-6a07be76875e"},"vehicle_type_id":"4","last_reported":1700859953,"current_range_meters":17200,"station_id":"ce4bhi12rcd13ifvqfp0","pricing_plan_id":"free"},{"bike_id":"124f1bf7-9af9-4782-a052-dd6aa38caf9d","system_id":"levelo_inurba_marseille","lat":43.239642,"lon":5.366345,"is_reserved":false,"is_disabled":false,"rental_uris":{"android":"levelo://app?vid=124f1bf7-9af9-4782-a052-dd6aa38caf9d","ios":"levelo://app?vid=124f1bf7-9af9-4782-a052-dd6aa38caf9d"},"vehicle_type_id":"4","last_reported":1700859953,"current_range_meters":28800,"station_id":"ce4bhi12rcd13ifvqfp0","pricing_plan_id":"free"},{"bike_id":"7ed82735-fc0b-4fa0-9f0c-2b545e5720cc","system_id":"levelo_inurba_marseille","lat":43.23964,"lon":5.36627,"is_reserved":false,"is_disabled":false,"rental_uris":{"android":"levelo://app?vid=7ed82735-fc0b-4fa0-9f0c-2b545e5720cc","ios":"levelo://app?vid=7ed82735-fc0b-4fa0-9f0c-2b545e5720cc"},"vehicle_type_id":"4","last_reported":1700859953,"current_range_meters":16800,"station_id":"ce4bhi12rcd13ifvqfp0","pricing_plan_id":"free"},{"bike_id":"3ef70aed-f117-47c7-8cf5-f087e626237b","system_id":"levelo_inurba_marseille","lat":43.23963,"lon":5.36644,"is_reserved":false,"is_disabled":false,"rental_uris":{"android":"levelo://app?vid=3ef70aed-f117-47c7-8cf5-f087e626237b","ios":"levelo://app?vid=3ef70aed-f117-47c7-8cf5-f087e626237b"},"vehicle_type_id":"4","last_reported":1700859953,"current_range_meters":10800,"station_id":"ce4bhi12rcd13ifvqfp0","pricing_plan_id":"free"},{"bike_id":"6a80754d-d19c-44e3-b85f-afe20e8d4da1","system_id":"levelo_inurba_marseille","lat":43.23963,"lon":5.36633,"is_reserved":false,"is_disabled":false,"rental_uris":{"android":"levelo://app?vid=6a80754d-d19c-44e3-b85f-afe20e8d4da1","ios":"levelo://app?vid=6a80754d-d19c-44e3-b85f-afe20e8d4da1"},