{"last_updated":1703091975,"ttl":30,"version":"2.2","data":{"bikes":[{"bike_id":"15c7edea-86ab-4b62-9286-30eaeca9bae0","system_id":"levelo_inurba_marseille","lat":43.31341,"lon":5.367098,"is_reserved":false,"is_disabled":false,"rental_uris":{"android":"levelo://app?vid=15c7edea-86ab-4b62-9286-30eaeca9bae0","ios":"levelo://app?vid=15c7edea-86ab-4b62-9286-30eaeca9bae0"},"vehicle_type_id":"4","last_reported":1703091975,"current_range_meters":31200,"station_id":"ce4bgr92rcd13ifvqc6g","pricing_plan_id":"free"},{"bike_id":"385c4116-b7eb-4dc1-8ab8-4cd9cad30c5b","system_id":"levelo_inurba_marseille","lat":43.31341,"lon":5.367098,"is_reserved":false,"is_disabled":false,"rental_uris":{"android":"levelo://app?vid=385c4116-b7eb-4dc1-8ab8-4cd9cad30c5b","ios":"levelo://app?vid=385c4116-b7eb-4dc1-8ab8-4cd9cad30c5b"},"vehicle_type_id":"4","last_reported":1703091975,"current_range_meters":31200,"station_id":"ce4bgr92rcd13ifvqc6g","pricing_plan_id":"free"},{"bike_id":"dc02301a-e25b-4088-96c9-2c95bbdc42aa","system_id":"levelo_inurba_marseille","lat":43.31341,"lon":5.367098,"is_reserved":false,"is_disabled":false,"rental_uris":{"android":"levelo://app?vid=dc02301a-e25b-4088-96c9-2c95bbdc42aa","ios":"levelo://app?vid=dc02301a-e25b-4088-96c9-2c95bbdc42aa"},"vehicle_type_id":"4","last_reported":1703091975,"current_range_meters":31200,"station_id":"ce4bgr92rcd13ifvqc6g","pricing_plan_id":"free"},{"bike_id":"9d52a925-323b-4a5e-9c24-9e0718f8c66b","system_id":"levelo_inurba_marseille","lat":43.313391,"lon":5.36706,"is_reserved":false,"is_disabled":false,"rental_uris":{"android":"levelo://app?vid=9d52a925-323b-4a5e-9c24-9e0718f8c66b","ios":"levelo://app?vid=9d52a925-323b-4a5e-9c24-9e0718f8c66b"},"vehicle_type_id":"4","last_reported":1703091975,"current_range_meters":31600,"station_id":"ce4bgr92rcd13ifvqc6g","pricing_plan_id":"free"},{"bike_id":"cdc1f6b5-253b-459c-867e-da6142322fdc","system_id":"levelo_inurba_marseille","lat":43.312239,"lon":5.368562,"is_reserved":false,"is_disabled":false,"rental_uris":{"android":"levelo://app?vid=cdc1f6b5-253b-459c-867e-da6142322fdc","ios":"levelo://app?vid=cdc1f6b5-253b-459c-867e-da6142322fdc"},"vehicle_type_id":"4","last_reported":1703091975,"current_range_meters":25200,"station_id":"ce4bgl92rcd13ifvqbq0","pricing_plan_id":"free"},{"bike_id":"0425153e-87da-4d2c-bf00-0c11427680e5","system_id":"levelo_inurba_marseille","lat":43.312239,"lon":5.368562,"is_reserved":false,"is_disabled":false,"rental_uris":{"android":"levelo://app?vid=0425153e-87da-4d2c-bf00-0c11427680e5","ios":"levelo://app?vid=0425153e-87da-4d2c-bf00-0c11427680e5"},"vehicle_type_id":"4","last_reported":1703091975,"current_range_meters":4800,"station_id":"ce4bgl92rcd13ifvqbq0","pricing_plan_id":"free"},{"bike_id":"0fbee78f-1827-4995-84da-985f78885531","system_id":"levelo_inurba_marseille","lat":43.312239,"lon":5.368562,"is_reserved":false,"is_disabled":false,"rental_uris":{"android":"levelo://app?vid=0fbee78f-1827-4995-84da-985f78885531","ios":"levelo://app?vid=0fbee78f-1827-4995-84da-985f78885531"},"vehicle_type_id":"4","last_reported":1703091975,"current_range_meters":22000,"station_id":"ce4bgl92rcd13ifvqbq0","pricing_plan_id":"free"},{"bike_id":"ecab8d7a-222b-49b7-bf56-4db35f6b0661","system_id":"levelo_inurba_marseille","lat":43.312239,"lon":5.368562,"is_reserved":false,"is_disabled":false,"rental_uris":{"android":"levelo://app?vid=ecab8d7a-222b-49b7-bf56-4db35f6b0661","ios":"levelo://app?vid=ecab8d7a-222b-49b7-bf56-4db35f6b0661"},"vehicle_type_id":"4","last_reported":1703091975,"current_range_meters":28800,"station_id":"ce4bgl92rcd13ifvqbq0","pricing_plan_id":"free"},{"bike_id":"edc15dfe-1a79-4a6b-911a-829faf59c710","system_id":"levelo_inurba_marseille","lat":43.309039,"lon":5.371797,"is_reserved":false,"is_disabled":false,"rental_uris":{"android":"levelo://app?vid=edc15dfe-1a79-4a6b-911a-829faf59c710","ios":"levelo://app?vid=edc15dfe-1a79-4a6b-911a-829faf59c710"},"vehicle_type_id":"4","last_reported":1703091975,"current_range_meters":20800,"station_id":"ce4bguh2rcd13ifvqckg","pricing_plan_id":"free"},{"bike_id":"31d5209a-2b43-43bb-940d-301d0e2f55b0","system_id":"levelo_inurba_marseille","lat":43.309039,"lon":5.371797,"is_reserved":false,"is_disabled":false,"rental_uris":{"android":"levelo://app?vid=31d5209a-2b43-43bb-940d-301d0e2f55b0","ios":"levelo://app?vid=31d5209a-2b43-43bb-940d-301d0e2f55b0"},"vehicle_type_id":"4","last_reported":1703091975,"current_range_meters":21200,"station_id":"ce4bguh2rcd13ifvqckg","pricing_plan_id":"free"},{"bike_id":"0d72f583-b998-476d-9f0c-db6900b6039b","system_id":"levelo_inurba_marseille","lat":43.305527,"lon":5.365343,"is_reserved":false,"is_disabled":false,"rental_uris":{"android":"levelo://app?vid=0d72f583-b998-476d-9f0c-db6900b6039b","ios":"levelo://app?vid=0d72f583-b998-476d-9f0c-db6900b6039b"},"vehicle_type_id":"4","last_reported":1703091975,"current_range_meters":26000,"station_id":"ce4bgs12rcd13ifvqcag","pricing_plan_id":"free"},{"bike_id":"ddf97e31-6a7d-4c03-a5f9-285902a84671","system_id":"levelo_inurba_marseille","lat":43.303046,"lon":5.368981,"is_reserved":false,"is_disabled":false,"rental_uris":{"android":"levelo://app?vid=ddf97e31-6a7d-4c03-a5f9-285902a84671","ios":"levelo://app?vid=ddf97e31-6a7d-4c03-a5f9-285902a84671"},"vehicle_type_id":"4","last_reported":1703091975,"current_range_meters":22000,"station_id":"ce4bgqh2rcd13ifvqc5g","pricing_plan_id":"free"},{"bike_id":"df5b2a6f-a36b-4652-a4e5-f37d5573c850","system_id":"levelo_inurba_marseille","lat":43.305989,"lon":5.37225,"is_reserved":false,"is_disabled":false,"rental_uris":{"android":"levelo://app?vid=df5b2a6f-a36b-4652-a4e5-f37d5573c850","ios":"levelo://app?vid=df5b2a6f-a36b-4652-a4e5-f37d5573c850"},"vehicle_type_id":"4","last_reported":1703091975,"current_range_meters":18000,"station_id":"ce4bgqh2rcd13ifvqc4g","pricing_plan_id":"free"},{"bike_id":"23415b54-81cf-4182-ae47-ba2459cf2f98","system_id":"levelo_inurba_marseille","lat":43.305969,"lon":5.372484,"is_reserved":false,"is_disabled":false,"rental_uris":{"android":"levelo://app?vid=23415b54-81cf-4182-ae47-ba2459cf2f98","ios":"levelo://app?vid=23415b54-81cf-4182-ae47-ba2459cf2f98"},"vehicle_type_id":"4","last_reported":1703091975,"current_range_meters":30000,"station_id":"ce4bgqh2rcd13ifvqc4g","pricing_plan_id":"free"},{"bike_id":"fcabea78-215c-4a99-904a-c5e9f0ea2b0d","system_id":"levelo_inurba_marseille","lat":43.311157,"lon":5.37764,"is_reserved":false,"is_disabled":false,"rental_uris":{"android":"levelo://app?vid=fcabea78-215c-4a99-904a-c5e9f0ea2b0d","ios":"levelo://app?vid=fcabea78-215c-4a99-904a-c5e9f0ea2b0d"},"vehicle_type_id":"4","last_reported":1703091975,"current_range_meters":0,"station_id":"ce4bgt92rcd13ifvqcg0","pricing_plan_id":"free"},{"bike_id":"2e62151a-223f-4f2b-a611-f2776d6c1e22","system_id":"levelo_inurba_marseille","lat":43.31116,"lon":5.37769,"is_reserved":false,"is_disabled":false,"rental_uris":{"android":"levelo://app?vid=2e62151a-223f-4f2b-a611-f2776d6c1e22","ios":"levelo://app?vid=2e62151a-223f-4f2b-a611-f2776d6c1e22"},"vehicle_type_id":"4","last_reported":1703091975,"current_range_meters":31600,"station_id":"ce4bgt92rcd13ifvqcg0","pricing_plan_id":"free"},{"bike_id":"1d7c49db-16b2-4a78-badc-86fc2045012e","system_id":"levelo_inurba_marseille","lat":43.307945,"lon":5.376487,"is_reserved":false,"is_disabled":false,"rental_uris":{"android":"levelo://app?vid=1d7c49db-16b2-4a78-badc-86fc2045012e","ios":"levelo://app?vid=1d7c49db-16b2-4a78-badc-86fc2045012e"},"vehicle_type_id":"4","last_reported":1703091975,"current_range_meters":400,"station_id":"ce4bgv92rcd13ifvqcq0","pricing_plan_id":"free"},{"bike_id":"1a63a2b3-689f-431c-acd2-6cef381bb723","system_id":"levelo_inurba_marseille","lat":43.307945,"lon":5.376487,"is_reserved":false,"is_disabled":false,"rental_uris":{"android":"levelo://app?vid=1a63a2b3-689f-431c-acd2-6cef381bb723","ios":"levelo://app?vid=1a63a2b3-689f-431c-acd2-6cef381bb723"},"vehicle_type_id":"4","last_reported":1703091975,"current_range_meters":14400,"station_id":"ce4bgv92rcd13ifvqcq0","pricing_plan_id":"free"},{"bike_id":"eff27c4c-ed36-46d0-9b15-c668ae59eeff","system_id":"levelo_inurba_marseille","lat":43.307945,"lon":5.376487,"is_reserved":false,"is_disabled":false,"rental_uris":{"android":"levelo://app?vid=eff27c4c-ed36-46d0-9b15-c668ae59eeff","ios":"levelo://app?vid=eff27c4c-ed36-46d0-9b15-c668ae59eeff"},"vehicle_type_id":"4","last_reported":1703091975,"current_range_meters":16400,"station_id":"ce4bgv92rcd13ifvqcq0","pricing_plan_id":"free"},{"bike_id":"2c7b20cc-f6af-442e-91c1-7a38d39d9bea","system_id":"levelo_inurba_marseille","lat":43.307945,"lon":5.376487,"is_reserved":false,"is_disabled":false,"rental_uris":{"android":"levelo://app?vid=2c7b20cc-f6af-442e-91c1-7a38d39d9bea","ios":"levelo://app?vid=2c7b20cc-f6af-442e-91c1-7a38d39d9bea"},"vehicle_type_id":"4","last_reported":1703091975,"current_range_meters":28800,"station_id":"ce4bgv92rcd13ifvqcq0","pricing_plan_id":"free"},{"bike_id":"3ddbc120-220d-4103-a977-aca519a666e4","system_id":"levelo_inurba_marseille","lat":43.307945,"lon":5.376487,"is_reserved":false,"is_disabled":false,"rental_uris":{"android":"levelo://app?vid=3ddbc120-220d-4103-a977-aca519a666e4","ios":"levelo://app?vid=3ddbc120-220d-4103-a977-aca519a666e4"},"vehicle_type_id":"4","last_reported":1703091975,"current_range_meters":30000,"station_id":"ce4bgv92rcd13ifvqcq0","pricing_plan_id":"free"},{"bike_id":"51177a7b-3a6f-4094-b234-b499e5c3b5d8","system_id":"levelo_inurba_marseille","lat":43.307945,"lon":5.376487,"is_reserved":false,"is_disabled":false,"rental_uris":{"android":"levelo://app?vid=51177a7b-3a6f-4094-b234-b499e5c3b5d8","ios":"levelo://app?vid=51177a7b-3a6f-4094-b234-b499e5c3b5d8"},"vehicle_type_id":"4","last_reported":1703091975,"current_range_meters":28000,"station_id":"ce4bgv92rcd13ifvqcq0","pricing_plan_id":"free"},{"bike_id":"94094c1c-7e5c-46ce-8f85-e8723ecf109a","system_id":"levelo_inurba_marseille","lat":43.303046,"lon":5.368981,"is_reserved":false,"is_disabled":false,"rental_uris":{"android":"levelo://app?vid=94094c1c-7e5c-46ce-8f85-e8723ecf109a","ios":"levelo://app?vid=94094c1c-7e5c-46ce-8f85-e8723ecf109a"},"vehicle_type_id":"4","last_reported":1703091975,"current_range_meters":2000,"station_id":"ce4bgqh2rcd13ifvqc5g","pricing_plan_id":"free"},{"bike_id":"93a543da-c833-466d-b778-9f97e454926c","system_id":"levelo_inurba_marseille","lat":43.303046,"lon":5.368981,"is_reserved":false,"is_disabled":false,"rental_uris":{"android":"levelo://app?vid=93a543da-c833-466d-b778-9f97e454926c","ios":"levelo://app?vid=93a543da-c833-466d-b778-9f97e454926c"},"vehicle_type_id":"4","last_reported":1703091975,"current_range_meters":26800,"station_id":"ce4bgqh2rcd13ifvqc5g","pricing_plan_id":"free"},{"bike_id":"3b97ccef-45a2-470f-9a0c-c9f79bd78859","system_id":"levelo_inurba_marseille","lat":43.304606,"lon":5.379026,"is_reserved":false,"is_disabled":false,"rental_uris":{"android":"levelo://app?vid=3b97ccef-45a2-470f-9a0c-c9f79bd78859","ios":"levelo://app?vid=3b97ccef-45a2-470f-9a0c-c9f79bd78859"},"vehicle_type_id":"4","last_reported":1703091975,"current_range_meters":28400,"station_id":"ce4bgup2rcd13ifvqcn0","pricing_plan_id":"free"},{"bike_id":"9871161d-96ba-4982-9a9c-5ef5a706c0aa","system_id":"levelo_inurba_marseille","lat":43.304606,"lon":5.379026,"is_reserved":false,"is_disabled":false,"rental_uris":{"android":"levelo://app?vid=9871161d-96ba-4982-9a9c-5ef5a706c0aa","ios":"levelo://app?vid=9871161d-96ba-4982-9a9c-5ef5a706c0aa"},"vehicle_type_id":"4","last_reported":1703091975,"current_range_meters":11200,"station_id":"ce4bgup2rcd13ifvqcn0","pricing_plan_id":"free"},{"bike_id":"8def9984-7de8-4314-ba42-98de51e62ff8","system_id":"levelo_inurba_marseille","lat":43.301429,"lon":5.37413,"is_reserved":false,"is_disabled":false,"rental_uris":{"android":"levelo://app?vid=8def9984-7de8-4314-ba42-98de51e62ff8","ios":"levelo://app?vid=8def9984-7de8-4314-ba42-98de51e62ff8"},"vehicle_type_id":"4","last_reported":1703091975,"current_range_meters":0,"station_id":"ce4bgs92rcd13ifvqcc0","pricing_plan_id":"free"},{"bike_id":"14643b94-01c5-48f3-9cea-003ff81d1e0e","system_id":"levelo_inurba_marseille","lat":43.30143,"lon":5.37413,"is_reserved":false,"is_disabled":false,"rental_uris":{"android":"levelo://app?vid=14643b94-01c5-48f3-9cea-003ff81d1e0e","ios":"levelo://app?vid=14643b94-01c5-48f3-9cea-003ff81d1e0e"},"vehicle_type_id":"4","last_reported":1703091975,"current_range_meters":22000,"station_id":"ce4bgs92rcd13ifvqcc0","pricing_plan_id":"free"},{"bike_id":"680bedd7-d73c-4aca-9049-89257ec440a9","system_id":"levelo_inurba_marseille","lat":43.301429,"lon":5.37413,"is_reserved":false,"is_disabled":false,"rental_uris":{"android":"levelo://app?vid=680bedd7-d73c-4aca-9049-89257ec440a9","ios":"levelo://app?vid=680bedd7-d73c-4aca-9049-89257ec440a9"},"vehicle_type_id":"4","last_reported":1703091975,"current_range_meters":5200,"station_id":"ce4bgs92rcd13ifvqcc0","pricing_plan_id":"free"},{"bike_id":"c6f162a0-7fd8-4735-b9de-ff160b7297b8","system_id":"levelo_inurba_marseille","lat":43.309039,"lon":5.371797,"is_reserved":false,"is_disabled":false,"rental_uris":{"android":"levelo://app?vid=c6f162a0-7fd8-4735-b9de-ff160b7297b8","ios":"levelo://app?vid=c6f162a0-7fd8-4735-b9de-ff160b7297b8"},"vehicle_type_id":"4","last_reported":1703091975,"current_range_meters":17600,"station_id":"ce4bguh2rcd13ifvqckg","pricing_plan_id":"free"},{"bike_id":"ba6cbad7-6cc3-4c9a-8c82-6f78fa4bed2a","system_id":"levelo_inurba_marseille","lat":43.301429,"lon":5.37413,"is_reserved":false,"is_disabled":false,"rental_uris":{"android":"levelo://app?vid=ba6cbad7-6cc3-4c9a-8c82-6f78fa4bed2a","ios":"levelo://app?vid=ba6cbad7-6cc3-4c9a-8c82-6f78fa4bed2a"},"vehicle_type_id":"4","last_reported":1703091975,"current_range_meters":15600,"station_id":"ce4bgs92rcd13ifvqcc0","pricing_plan_id":"free"},{"bike_id":"ca97ad3b-df4e-4212-a4ee-a26e06cd076e","system_id":"levelo_inurba_marseille","lat":43.30143,"lon":5.37413,"is_reserved":false,"is_disabled":false,"rental_uris":{"android":"levelo://app?vid=ca97ad3b-df4e-4212-a4ee-a26e06cd076e","ios":"levelo://app?vid=ca97ad3b-df4e-4212-a4ee-a26e06cd076e"},"vehicle_type_id":"4","last_reported":1703091975,"current_range_meters":800,"station_id":"ce4bgs92rcd13ifvqcc0","pricing_plan_id":"free"},{"bike_id":"6bd330e5-be91-4c6a-bd12-6b4c0748505e","system_id":"levelo_inurba_marseille","lat":43.31992,"lon":5.38152,"is_reserved":false,"is_disabled":false,"rental_uris":{"android":"levelo://app?vid=6bd330e5-be91-4c6a-bd12-6b4c0748505e","ios":"levelo://app?vid=6bd330e5-be91-4c6a-bd12-6b4c0748505e"},"vehicle_type_id":"4","last_reported":1703091975,"current_range_meters":11600,"station_id":"ce4bhr12rcd13ifvqhpg","pricing_plan_id":"free"},{"bike_id":"953d5feb-48a7-427e-a3e1-b62f811507e8","system_id":"levelo_inurba_marseille","lat":43.319935,"lon":5.381699,"is_reserved":false,"is_disabled":false,"rental_uris":{"android":"levelo://app?vid=953d5feb-48a7-427e-a3e1-b62f811507e8","ios":"levelo://app?vid=953d5feb-48a7-427e-a3e1-b62f811507e8"},"vehicle_type_id":"4","last_reported":1703091975,"current_range_meters":4800,"station_id":"ce4bhr12rcd13ifvqhpg","pricing_plan_id":"free"},{"bike_id":"0e164099-13a9-4719-a152-6c4100c13849","system_id":"levelo_inurba_marseille","lat":43.299724,"lon":5.371829,"is_reserved":false,"is_disabled":false,"rental_uris":{"android":"levelo://app?vid=0e164099-13a9-4719-a152-6c4100c13849","ios":"levelo://app?vid=0e164099-13a9-4719-a152-6c4100c13849"},"vehicle_type_id":"4","last_reported":1703091975,"current_range_meters":30800,"station_id":"ce4bgr92rcd13ifvqc7g","pricing_plan_id":"free"},{"bike_id":"3fba1442-87d1-4ede-8d21-fa4b5b4cd0dd","system_id":"levelo_inurba_marseille","lat":43.299222,"lon":5.365554,"is_reserved":false,"is_disabled":false,"rental_uris":{"android":"levelo://app?vid=3fba1442-87d1-4ede-8d21-fa4b5b4cd0dd","ios":"levelo://app?vid=3fba1442-87d1-4ede-8d21-fa4b5b4cd0dd"},"vehicle_type_id":"4","last_reported":1703091975,"current_range_meters":26000,"station_id":"ce4bgm92rcd13ifvqbr0","pricing_plan_id":"free"},{"bike_id":"3c1206e4-f532-4126-95f2-8a897c8b3457","system_id":"levelo_inurba_marseille","lat":43.299243,"lon":5.374807,"is_reserved":false,"is_disabled":false,"rental_uris":{"android":"levelo://app?vid=3c1206e4-f532-4126-95f2-8a897c8b3457","ios":"levelo://app?vid=3c1206e4-f532-4126-95f2-8a897c8b3457"},"vehicle_type_id":"4","last_reported":1703091975,"current_range_meters":6000,"station_id":"ce4bgjh2rcd13ifvqbg0","pricing_plan_id":"free"},{"bike_id":"693ca8aa-1321-4c1b-8629-2ffeb7544b1f","system_id":"levelo_inurba_marseille","lat":43.311722,"lon":5.387247,"is_reserved":false,"is_disabled":false,"rental_uris":{"android":"levelo://app?vid=693ca8aa-1321-4c1b-8629-2ffeb7544b1f","ios":"levelo://app?vid=693ca8aa-1321-4c1b-8629-2ffeb7544b1f"},"vehicle_type_id":"4","last_reported":1703091975,"current_range_meters":18800,"station_id":"ce4bgv12rcd13ifvqcp0","pricing_plan_id":"free"},{"bike_id":"29836f7a-fab1-489e-bb1d-0aedc14f3bd9","system_id":"levelo_inurba_marseille","lat":43.311722,"lon":5.387247,"is_reserved":false,"is_disabled":false,"rental_uris":{"android":"levelo://app?vid=29836f7a-fab1-489e-bb1d-0aedc14f3bd9","ios":"levelo://app?vid=29836f7a-fab1-489e-bb1d-0aedc14f3bd9"},"vehicle_type_id":"4","last_reported":1703091975,"current_range_meters":11200,"station_id":"ce4bgv12rcd13ifvqcp0","pricing_plan_id":"free"},{"bike_id":"b8d2d249-a3a6-4543-b1c7-6b3650de13c5","system_id":"levelo_inurba_marseille","lat":43.322872,"lon":5.382756,"is_reserved":false,"is_disabled":false,"rental_uris":{"android":"levelo://app?vid=b8d2d249-a3a6-4543-b1c7-6b3650de13c5","ios":"levelo://app?vid=b8d2d249-a3a6-4543-b1c7-6b3650de13c5"},"vehicle_type_id":"4","last_reported":1703091975,"current_range_meters":30400,"station_id":"ce4bhr12rcd13ifvqhqg","pricing_plan_id":"free"},{"bike_id":"c22e4b9f-ba20-4a7c-a7c8-fd0a73d903e0","system_id":"levelo_inurba_marseille","lat":43.328371,"lon":5.366909,"is_reserved":false,"is_disabled":false,"rental_uris":{"android":"levelo://app?vid=c22e4b9f-ba20-4a7c-a7c8-fd0a73d903e0","ios":"levelo://app?vid=c22e4b9f-ba20-4a7c-a7c8-fd0a73d903e0"},"vehicle_type_id":"4","last_reported":1703091975,"current_range_meters":22400,"station_id":"ce4bhs92rcd13ifvqi0g","pricing_plan_id":"free"},{"bike_id":"c12df297-168e-4ca3-95d9-a300ff1ffbd9","system_id":"levelo_inurba_marseille","lat":43.328371,"lon":5.366909,"is_reserved":false,"is_disabled":false,"rental_uris":{"android":"levelo://app?vid=c12df297-168e-4ca3-95d9-a300ff1ffbd9","ios":"levelo://app?vid=c12df297-168e-4ca3-95d9-a300ff1ffbd9"},"vehicle_type_id":"4","last_reported":1703091975,"current_range_meters":29600,"station_id":"ce4bhs92rcd13ifvqi0g","pricing_plan_id":"free"},{"bike_id":"2a8a59a2-86cc-48a9-8714-ae0edcb4d489","system_id":"levelo_inurba_marseille","lat":43.328371,"lon":5.366909,"is_reserved":false,"is_disabled":false,"rental_uris":{"android":"levelo://app?vid=2a8a59a2-86cc-48a9-8714-ae0edcb4d489","ios":"levelo://app?vid=2a8a59a2-86cc-48a9-8714-ae0edcb4d489"},"vehicle_type_id":"4","last_reported":1703091975,"current_range_meters":2000,"station_id":"ce4bhs92rcd13ifvqi0g","pricing_plan_id":"free"},{"bike_id":"cb97846c-9508-4ec4-82fd-1a637ef7dd90","system_id":"levelo_inurba_marseille","lat":43.328371,"lon":5.366909,"is_reserved":false,"is_disabled":false,"rental_uris":{"android":"levelo://app?vid=cb97846c-9508-4ec4-82fd-1a637ef7dd90","ios":"levelo://app?vid=cb97846c-9508-4ec4-82fd-1a637ef7dd90"},"vehicle_type_id":"4","last_reported":1703091975,"current_range_meters":400,"station_id":"ce4bhs92rcd13ifvqi0g","pricing_plan_id":"free"},{"bike_id":"59581a9c-f177-4a96-aea6-b7baaa49a6a3","system_id":"levelo_inurba_marseille","lat":43.328371,"lon":5.366909,"is_reserved":false,"is_disabled":false,"rental_uris":{"android":"levelo://app?vid=59581a9c-f177-4a96-aea6-b7baaa49a6a3","ios":"levelo://app?vid=59581a9c-f177-4a96-aea6-b7baaa49a6a3"},"vehicle_type_id":"4","last_reported":1703091975,"current_range_meters":29200,"station_id":"ce4bhs92rcd13ifvqi0g","pricing_plan_id":"free"},{"bike_id":"eb8ebe7d-6983-4780-997c-9447c3c0c6e2","system_id":"levelo_inurba_marseille","lat":43.328371,"lon":5.366909,"is_reserved":false,"is_disabled":false,"rental_uris":{"android":"levelo://app?vid=eb8ebe7d-6983-4780-997c-9447c3c0c6e2","ios":"levelo://app?vid=eb8ebe7d-6983-4780-997c-9447c3c0c6e2"},"vehicle_type_id":"4","last_reported":1703091975,"current_range_meters":28000,"station_id":"ce4bhs92rcd13ifvqi0g","pricing_plan_id":"free"},{"bike_id":"bc81749c-97ac-487a-bc93-76443e598803","system_id":"levelo_inurba_marseille","lat":43.328371,"lon":5.366909,"is_reserved":false,"is_disabled":false,"rental_uris":{"android":"levelo://app?vid=bc81749c-97ac-487a-bc93-76443e598803","ios":"levelo://app?vid=bc81749c-97ac-487a-bc93-76443e598803"},"vehicle_type_id":"4","last_reported":1703091975,"current_range_meters":4400,"station_id":"ce4bhs92rcd13ifvqi0g","pricing_plan_id":"free"},{"bike_id":"10d303c2-6c21-4890-ac12-d7ff51535b30","system_id":"levelo_inurba_marseille","lat":43.297163,"lon":5.365866,"is_reserved":false,"is_disabled":false,"rental_uris":{"android":"levelo://app?vid=10d303c2-6c21-4890-ac12-d7ff51535b30","ios":"levelo://app?vid=10d303c2-6c21-4890-ac12-d7ff51535b30"},"vehicle_type_id":"4","last_reported":1703091975,"current_range_meters":6800,"station_id":"ce4bgn12rcd13ifvqbt0","pricing_plan_id":"free"},{"bike_id":"9926b31f-a5f8-4554-bf5a-c49cc40412b9","system_id":"levelo_inurba_marseille","lat":43.297163,"lon":5.365866,"is_reserved":false,"is_disabled":false,"rental_uris":{"android":"levelo://app?vid=9926b31f-a5f8-4554-bf5a-c49cc40412b9","ios":"levelo://app?vid=9926b31f-a5f8-4554-bf5a-c49cc40412b9"},"vehicle_type_id":"4","last_reported":1703091975,"current_range_meters":28000,"station_id":"ce4bgn12rcd13ifvqbt0","pricing_plan_id":"free"},{"bike_id":"aa46aa34-4907-4128-9f2e-1ccebd1c0d30","system_id":"levelo_inurba_marseille","lat":43.2968,"lon":5.37291,"is_reserved":false,"is_disabled":false,"rental_uris":{"android":"levelo://app?vid=aa46aa34-4907-4128-9f2e-1ccebd1c0d30","ios":"levelo://app?vid=aa46aa34-4907-4128-9f2e-1ccebd1c0d30"},"vehicle_type_id":"4","last_reported":1703091975,"current_range_meters":16000,"station_id":"ce4bgk12rcd13ifvqbj0","pricing_plan_id":"free"},{"bike_id":"a4b945da-444a-4fae-980a-d9b23d1e5d82","system_id":"levelo_inurba_marseille","lat":43.297403,"lon":5.376473,"is_reserved":false,"is_disabled":false,"rental_uris":{"android":"levelo://app?vid=a4b945da-444a-4fae-980a-d9b23d1e5d82","ios":"levelo://app?vid=a4b945da-444a-4fae-980a-d9b23d1e5d82"},"vehicle_type_id":"4","last_reported":1703091975,"current_range_meters":17600,"station_id":"","pricing_plan_id":"free"},{"bike_id":"1ecda5c9-a624-4bb0-b6f3-7884ec72c6ad","system_id":"levelo_inurba_marseille","lat":43.296131,"lon":5.370791,"is_reserved":false,"is_disabled":false,"rental_uris":{"android":"levelo://app?vid=1ecda5c9-a624-4bb0-b6f3-7884ec72c6ad","ios":"levelo://app?vid=1ecda5c9-a624-4bb0-b6f3-7884ec72c6ad"},"vehicle_type_id":"4","last_reported":1703091975,"current_range_meters":22000,"station_id":"ce4bgnh2rcd13ifvqc0g","pricing_plan_id":"free"},{"bike_id":"1fd6c5ba-d4ce-4a74-86b1-e291748ee380","system_id":"levelo_inurba_marseille","lat":43.296129,"lon":5.370777,"is_reserved":false,"is_disabled":false,"rental_uris":{"android":"levelo://app?vid=1fd6c5ba-d4ce-4a74-86b1-e291748ee380","ios":"levelo://app?vid=1fd6c5ba-d4ce-4a74-86b1-e291748ee380"},"vehicle_type_id":"4","last_reported":1703091975,"current_range_meters":24800,"station_id":"ce4bgnh2rcd13ifvqc0g","pricing_plan_id":"free"},{"bike_id":"c66868f1-8100-4377-8f05-505414e491ea","system_id":"levelo_inurba_marseille","lat":43.29573,"lon":5.367355,"is_reserved":false,"is_disabled":false,"rental_uris":{"android":"levelo://app?vid=c66868f1-8100-4377-8f05-505414e491ea","ios":"levelo://app?vid=c66868f1-8100-4377-8f05-505414e491ea"},"vehicle_type_id":"4","last_reported":1703091975,"current_range_meters":30000,"station_id":"ce4bgph2rcd13ifvqc2g","pricing_plan_id":"free"},{"bike_id":"1b506b0b-7d79-48fe-a458-1f93a110f3ee","system_id":"levelo_inurba_marseille","lat":43.29573,"lon":5.367355,"is_reserved":false,"is_disabled":false,"rental_uris":{"android":"levelo://app?vid=1b506b0b-7d79-48fe-a458-1f93a110f3ee","ios":"levelo://app?vid=1b506b0b-7d79-48fe-a458-1f93a110f3ee"},"vehicle_type_id":"4","last_reported":1703091975,"current_range_meters":14000,"station_id":"ce4bgph2rcd13ifvqc2g","pricing_plan_id":"free"},{"bike_id":"efad94a1-c9be-4a00-8031-b1eb80564737","system_id":"levelo_inurba_marseille","lat":43.29573,"lon":5.367355,"is_reserved":false,"is_disabled":false,"rental_uris":{"android":"levelo://app?vid=efad94a1-c9be-4a00-8031-b1eb80564737","ios":"levelo://app?vid=efad94a1-c9be-4a00-8031-b1eb80564737"},"vehicle_type_id":"4","last_reported":1703091975,"current_range_meters":22800,"station_id":"ce4bgph2rcd13ifvqc2g","pricing_plan_id":"free"},{"bike_id":"876dcc2b-7cb6-47e7-9f55-ce59d678cfd6","system_id":"levelo_inurba_marseille","lat":43.296921,"lon":5.376579,"is_reserved":false,"is_disabled":false,"rental_uris":{"android":"levelo://app?vid=876dcc2b-7cb6-47e7-9f55-ce59d678cfd6","ios":"levelo://app?vid=876dcc2b-7cb6-47e7-9f55-ce59d678cfd6"},"vehicle_type_id":"4","last_reported":1703091975,"current_range_meters":0,"station_id":"ce4bgkh2rcd13ifvqbl0","pricing_plan_id":"free"},{"bike_id":"9b798613-6226-4b4a-afd6-7890d955608e","system_id":"levelo_inurba_marseille","lat":43.299028,"lon":5.381509,"is_reserved":false,"is_disabled":false,"rental_uris":{"android":"levelo://app?vid=9b798613-6226-4b4a-afd6-7890d955608e","ios":"levelo://app?vid=9b798613-6226-4b4a-afd6-7890d955608e"},"vehicle_type_id":"4","last_reported":1703091975,"current_range_meters":4400,"station_id":"ce4bgj12rcd13ifvqbc0","pricing_plan_id":"free"},{"bike_id":"392ffa4a-f234-4762-8c53-72a4d2893aff","system_id":"levelo_inurba_marseille","lat":43.304274,"lon":5.388873,"is_reserved":false,"is_disabled":false,"rental_uris":{"android":"levelo://app?vid=392ffa4a-f234-4762-8c53-72a4d2893aff","ios":"levelo://app?vid=392ffa4a-f234-4762-8c53-72a4d2893aff"},"vehicle_type_id":"4","last_reported":1703091975,"current_range_meters":3200,"station_id":"ce4bgk12rcd13ifvqbi0","pricing_plan_id":"free"},{"bike_id":"888818a1-60f4-40a4-b8f9-5a951ddf6788","system_id":"levelo_inurba_marseille","lat":43.298037,"lon":5.381066,"is_reserved":false,"is_disabled":false,"rental_uris":{"android":"levelo://app?vid=888818a1-60f4-40a4-b8f9-5a951ddf6788","ios":"levelo://app?vid=888818a1-60f4-40a4-b8f9-5a951ddf6788"},"vehicle_type_id":"4","last_reported":1703091975,"current_range_meters":24000,"station_id":"ce4bgip2rcd13ifvqbb0","pricing_plan_id":"free"},{"bike_id":"a203fe91-9a73-495f-a387-b820e5290ff9","system_id":"levelo_inurba_marseille","lat":43.29788,"lon":5.38065,"is_reserved":false,"is_disabled":false,"rental_uris":{"android":"levelo://app?vid=a203fe91-9a73-495f-a387-b820e5290ff9","ios":"levelo://app?vid=a203fe91-9a73-495f-a387-b820e5290ff9"},"vehicle_type_id":"4","last_reported":1703091975,"current_range_meters":26000,"station_id":"ce4bgip2rcd13ifvqbb0","pricing_plan_id":"free"},{"bike_id":"353c36b0-c05e-4ecc-84e6-9e6206b57343","system_id":"levelo_inurba_marseille","lat":43.298037,"lon":5.381066,"is_reserved":false,"is_disabled":false,"rental_uris":{"android":"levelo://app?vid=353c36b0-c05e-4ecc-84e6-9e6206b57343","ios":"levelo://app?vid=353c36b0-c05e-4ecc-84e6-9e6206b57343"},"vehicle_type_id":"4","last_reported":1703091975,"current_range_meters":11200,"station_id":"ce4bgip2rcd13ifvqbb0","pricing_plan_id":"free"},{"bike_id":"a6ccd66e-bd87-49c9-98e2-7aca923fadac","system_id":"levelo_inurba_marseille","lat":43.29784,"lon":5.38078,"is_reserved":false,"is_disabled":false,"rental_uris":{"android":"levelo://app?vid=a6ccd66e-bd87-49c9-98e2-7aca923fadac","ios":"levelo://app?vid=a6ccd66e-bd87-49c9-98e2-7aca923fadac"},"vehicle_type_id":"4","last_reported":1703091975,"current_range_meters":30000,"station_id":"ce4bgip2rcd13ifvqbb0","pricing_plan_id":"free"},{"bike_id":"7cd5fcbd-3939-4bb3-9e36-2477399e9840","system_id":"levelo_inurba_marseille","lat":43.2979,"lon":5.38092,"is_reserved":false,"is_disabled":false,"rental_uris":{"android":"levelo://app?vid=7cd5fcbd-3939-4bb3-9e36-2477399e9840","ios":"levelo://app?vid=7cd5fcbd-3939-4bb3-9e36-2477399e9840"},"vehicle_type_id":"4","last_reported":1703091975,"current_range_meters":22000,"station_id":"ce4bgip2rcd13ifvqbb0","pricing_plan_id":"free"},{"bike_id":"0ae4c004-80e5-4c62-8fee-8d19adddb603","system_id":"levelo_inurba_marseille","lat":43.29618,"lon":5.37722,"is_reserved":false,"is_disabled":false,"rental_uris":{"android":"levelo://app?vid=0ae4c004-80e5-4c62-8fee-8d19adddb603","ios":"levelo://app?vid=0ae4c004-80e5-4c62-8fee-8d19adddb603"},"vehicle_type_id":"4","last_reported":1703091975,"current_range_meters":0,"station_id":"ce4bgi92rcd13ifvqb90","pricing_plan_id":"free"},{"bike_id":"18b830b4-248e-487b-add9-a2fc03605d09","system_id":"levelo_inurba_marseille","lat":43.32367,"lon":5.388836,"is_reserved":false,"is_disabled":false,"rental_uris":{"android":"levelo://app?vid=18b830b4-248e-487b-add9-a2fc03605d09","ios":"levelo://app?vid=18b830b4-248e-487b-add9-a2fc03605d09"},"vehicle_type_id":"4","last_reported":1703091975,"current_range_meters":6400,"station_id":"ce4bhqp2rcd13ifvqhog","pricing_plan_id":"free"},{"bike_id":"39a5a7f1-613e-4ce9-85dc-bf406e7675c4","system_id":"levelo_inurba_marseille","lat":43.32367,"lon":5.388836,"is_reserved":false,"is_disabled":false,"rental_uris":{"android":"levelo://app?vid=39a5a7f1-613e-4ce9-85dc-bf406e7675c4","ios":"levelo://app?vid=39a5a7f1-613e-4ce9-85dc-bf406e7675c4"},"vehicle_type_id":"4","last_reported":1703091975,"current_range_meters":4000,"station_id":"ce4bhqp2rcd13ifvqhog","pricing_plan_id":"free"},{"bike_id":"d89a6a0f-5ebb-492a-bb7f-450b4e71a42c","system_id":"levelo_inurba_marseille","lat":43.32367,"lon":5.388836,"is_reserved":false,"is_disabled":false,"rental_uris":{"android":"levelo://app?vid=d89a6a0f-5ebb-492a-bb7f-450b4e71a42c","ios":"levelo://app?vid=d89a6a0f-5ebb-492a-bb7f-450b4e71a42c"},"vehicle_type_id":"4","last_reported":1703091975,"current_range_meters":17600,"station_id":"ce4bhqp2rcd13ifvqhog","pricing_plan_id":"free"},{"bike_id":"fc0429e1-6ed1-4ec9-942e-40f3eb09c364","system_id":"levelo_inurba_marseille","lat":43.29601,"lon":5.381084,"is_reserved":false,"is_disabled":false,"rental_uris":{"android":"levelo://app?vid=fc0429e1-6ed1-4ec9-942e-40f3eb09c364","ios":"levelo://app?vid=fc0429e1-6ed1-4ec9-942e-40f3eb09c364"},"vehicle_type_id":"4","last_reported":1703091975,"current_range_meters":21600,"station_id":"ce4bgl12rcd13ifvqbo0","pricing_plan_id":"free"},{"bike_id":"67527d62-7adb-44f8-b1cd-7288b83769dc","system_id":"levelo_inurba_marseille","lat":43.29601,"lon":5.381084,"is_reserved":false,"is_disabled":false,"rental_uris":{"android":"levelo://app?vid=67527d62-7adb-44f8-b1cd-7288b83769dc","ios":"levelo://app?vid=67527d62-7adb-44f8-b1cd-7288b83769dc"},"vehicle_type_id":"4","last_reported":1703091975,"current_range_meters":10400,"station_id":"ce4bgl12rcd13ifvqbo0","pricing_plan_id":"free"},{"bike_id":"6ba20c0f-b851-44ba-ab3d-35b7c97781a8","system_id":"levelo_inurba_marseille","lat":43.292749,"lon":5.368402,"is_reserved":false,"is_disabled":false,"rental_uris":{"android":"levelo://app?vid=6ba20c0f-b851-44ba-ab3d-35b7c97781a8","ios":"levelo://app?vid=6ba20c0f-b851-44ba-ab3d-35b7c97781a8"},"vehicle_type_id":"4","last_reported":1703091975,"current_range_meters":16400,"station_id":"ce4bhbp2rcd13ifvqesg","pricing_plan_id":"free"},{"bike_id":"5b787812-7823-4001-94aa-5c656cb0bcb0","system_id":"levelo_inurba_marseille","lat":43.293009,"lon":5.374584,"is_reserved":false,"is_disabled":false,"rental_uris":{"android":"levelo://app?vid=5b787812-7823-4001-94aa-5c656cb0bcb0","ios":"levelo://app?vid=5b787812-7823-4001-94aa-5c656cb0bcb0"},"vehicle_type_id":"4","last_reported":1703091975,"current_range_meters":1200,"station_id":"ce4bgi12rcd13ifvqb70","pricing_plan_id":"free"},{"bike_id":"9e73e954-d370-43d5-96f1-6ebbb4b74f41","system_id":"levelo_inurba_marseille","lat":43.302992,"lon":5.392136,"is_reserved":false,"is_disabled":false,"rental_uris":{"android":"levelo://app?vid=9e73e954-d370-43d5-96f1-6ebbb4b74f41","ios":"levelo://app?vid=9e73e954-d370-43d5-96f1-6ebbb4b74f41"},"vehicle_type_id":"4","last_reported":1703091975,"current_range_meters":3600,"station_id":"ce4bgkh2rcd13ifvqbk0","pricing_plan_id":"free"},{"bike_id":"30b2a041-1d0e-4400-ad93-a76ee74a0f22","system_id":"levelo_inurba_marseille","lat":43.302992,"lon":5.392136,"is_reserved":false,"is_disabled":false,"rental_uris":{"android":"levelo://app?vid=30b2a041-1d0e-4400-ad93-a76ee74a0f22","ios":"levelo://app?vid=30b2a041-1d0e-4400-ad93-a76ee74a0f22"},"vehicle_type_id":"4","last_reported":1703091975,"current_range_meters":27200,"station_id":"ce4bgkh2rcd13ifvqbk0","pricing_plan_id":"free"},{"bike_id":"26d1b5be-11a3-4fc9-93ac-22a8f1c9f556","system_id":"levelo_inurba_marseille","lat":43.2936,"lon":5.37835,"is_reserved":false,"is_disabled":false,"rental_uris":{"android":"levelo://app?vid=26d1b5be-11a3-4fc9-93ac-22a8f1c9f556","ios":"levelo://app?vid=26d1b5be-11a3-4fc9-93ac-22a8f1c9f556"},"vehicle_type_id":"4","last_reported":1703091975,"current_range_meters":15600,"station_id":"ce4bgjh2rcd13ifvqbf0","pricing_plan_id":"free"},{"bike_id":"7292012f-da9d-4ad7-9b4e-d7a0ddf2cd79","system_id":"levelo_inurba_marseille","lat":43.292311,"lon":5.360731,"is_reserved":false,"is_disabled":false,"rental_uris":{"android":"levelo://app?vid=7292012f-da9d-4ad7-9b4e-d7a0ddf2cd79","ios":"levelo://app?vid=7292012f-da9d-4ad7-9b4e-d7a0ddf2cd79"},"vehicle_type_id":"4","last_reported":1703091975,"current_range_meters":0,"station_id":"ce4bhbh2rcd13ifvqeqg","pricing_plan_id":"free"},{"bike_id":"67dbc710-e248-4701-92da-b94e6f063a32","system_id":"levelo_inurba_marseille","lat":43.32297,"lon":5.39239,"is_reserved":false,"is_disabled":false,"rental_uris":{"android":"levelo://app?vid=67dbc710-e248-4701-92da-b94e6f063a32","ios":"levelo://app?vid=67dbc710-e248-4701-92da-b94e6f063a32"},"vehicle_type_id":"4","last_reported":1703091975,"current_range_meters":3600,"station_id":"","pricing_plan_id":"free"},{"bike_id":"d334c886-b6e8-48a8-b49b-94a4bc9d2b2e","system_id":"levelo_inurba_marseille","lat":43.29265,"lon":5.376156,"is_reserved":false,"is_disabled":false,"rental_uris":{"android":"levelo://app?vid=d334c886-b6e8-48a8-b49b-94a4bc9d2b2e","ios":"levelo://app?vid=d334c886-b6e8-48a8-b49b-94a4bc9d2b2e"},"vehicle_type_id":"4","last_reported":1703091975,"current_range_meters":28800,"station_id":"","pricing_plan_id":"free"},{"bike_id":"e5eca80e-f16a-41ee-b5ac-f2f5e49f023b","system_id":"levelo_inurba_marseille","lat":43.29875,"lon":5.38895,"is_reserved":false,"is_disabled":false,"rental_uris":{"android":"levelo://app?vid=e5eca80e-f16a-41ee-b5ac-f2f5e49f023b","ios":"levelo://app?vid=e5eca80e-f16a-41ee-b5ac-f2f5e49f023b"},"vehicle_type_id":"4","last_reported":1703091975,"current_range_meters":18000,"station_id":"","pricing_plan_id":"free"},{"bike_id":"d80aacb1-1de2-4c97-bfa7-d79fbffbe39f","system_id":"levelo_inurba_marseille","lat":43.29872,"lon":5.38896,"is_reserved":false,"is_disabled":false,"rental_uris":{"android":"levelo://app?vid=d80aacb1-1de2-4c97-bfa7-d79fbffbe39f","ios":"levelo://app?vid=d80aacb1-1de2-4c97-bfa7-d79fbffbe39f"},"vehicle_type_id":"4","last_reported":1703091975,"current_range_meters":16800,"station_id":"","pricing_plan_id":"free"},{"bike_id":"03d4057c-cd87-4c14-886d-9464a2a51805","system_id":"levelo_inurba_marseille","lat":43.291675,"lon":5.371583,"is_reserved":false,"is_disabled":false,"rental_uris":{"android":"levelo://app?vid=03d4057c-cd87-4c14-886d-9464a2a51805","ios":"levelo://app?vid=03d4057c-cd87-4c14-886d-9464a2a51805"},"vehicle_type_id":"4","last_reported":1703091975,"current_range_meters":15600,"station_id":"ce4bha92rcd13ifvqeh0","pricing_plan_id":"free"},{"bike_id":"ded80d27-0eb4-467f-b4e5-5342fb3c91a0","system_id":"levelo_inurba_marseille","lat":43.2987,"lon":5.38903,"is_reserved":false,"is_disabled":false,"rental_uris":{"android":"levelo://app?vid=ded80d27-0eb4-467f-b4e5-5342fb3c91a0","ios":"levelo://app?vid=ded80d27-0eb4-467f-b4e5-5342fb3c91a0"},"vehicle_type_id":"4","last_reported":1703091975,"current_range_meters":18800,"station_id":"","pricing_plan_id":"free"},{"bike_id":"9f5f1681-4586-41f5-a6b1-461842c0ffc3","system_id":"levelo_inurba_marseille","lat":43.29872,"lon":5.38907,"is_reserved":false,"is_disabled":false,"rental_uris":{"android":"levelo://app?vid=9f5f1681-4586-41f5-a6b1-461842c0ffc3","ios":"levelo://app?vid=9f5f1681-4586-41f5-a6b1-461842c0ffc3"},"vehicle_type_id":"4","last_reported":1703091975,"current_range_meters":11600,"station_id":"","pricing_plan_id":"free"},{"bike_id":"424efcfc-c1cb-4edd-ad57-49cab31daf39","system_id":"levelo_inurba_marseille","lat":43.291671,"lon":5.371575,"is_reserved":false,"is_disabled":false,"rental_uris":{"android":"levelo://app?vid=424efcfc-c1cb-4edd-ad57-49cab31daf39","ios":"levelo://app?vid=424efcfc-c1cb-4edd-ad57-49cab31daf39"},"vehicle_type_id":"4","last_reported":1703091975,"current_range_meters":4000,"station_id":"ce4bha92rcd13ifvqeh0","pricing_plan_id":"free"},{"bike_id":"df478808-8bcb-44d9-b175-88738a5453c3","system_id":"levelo_inurba_marseille","lat":43.2987,"lon":5.38909,"is_reserved":false,"is_disabled":false,"rental_uris":{"android":"levelo://app?vid=df478808-8bcb-44d9-b175-88738a5453c3","ios":"levelo://app?vid=df478808-8bcb-44d9-b175-88738a5453c3"},"vehicle_type_id":"4","last_reported":1703091975,"current_range_meters":0,"station_id":"","pricing_plan_id":"free"},{"bike_id":"21dfc036-c837-4cbd-aefb-105e52e68237","system_id":"levelo_inurba_marseille","lat":43.2986,"lon":5.3891,"is_reserved":false,"is_disabled":false,"rental_uris":{"android":"levelo://app?vid=21dfc036-c837-4cbd-aefb-105e52e68237","ios":"levelo://app?vid=21dfc036-c837-4cbd-aefb-105e52e68237"},"vehicle_type_id":"4","last_reported":1703091975,"current_range_meters":10400,"station_id":"","pricing_plan_id":"free"},{"bike_id":"2f5becfb-a8c2-424a-a5ef-6e0a252de848","system_id":"levelo_inurba_marseille","lat":43.313291,"lon":5.396838,"is_reserved":false,"is_disabled":false,"rental_uris":{"android":"levelo://app?vid=2f5becfb-a8c2-424a-a5ef-6e0a252de848","ios":"levelo://app?vid=2f5becfb-a8c2-424a-a5ef-6e0a252de848"},"vehicle_type_id":"4","last_reported":1703091975,"current_range_meters":21600,"station_id":"ce4bgvp2rcd13ifvqcu0","pricing_plan_id":"free"},{"bike_id":"0b10d520-15f8-4088-8abe-3a72d817270e","system_id":"levelo_inurba_marseille","lat":43.291994,"lon":5.357886,"is_reserved":false,"is_disabled":false,"rental_uris":{"android":"levelo://app?vid=0b10d520-15f8-4088-8abe-3a72d817270e","ios":"levelo://app?vid=0b10d520-15f8-4088-8abe-3a72d817270e"},"vehicle_type_id":"4","last_reported":1703091975,"current_range_meters":20400,"station_id":"ce4bhb12rcd13ifvqel0","pricing_plan_id":"free"},{"bike_id":"d2f39892-6603-404c-80ed-e850e6a70a6d","system_id":"levelo_inurba_marseille","lat":43.29529,"lon":5.385581,"is_reserved":false,"is_disabled":false,"rental_uris":{"android":"levelo://app?vid=d2f39892-6603-404c-80ed-e850e6a70a6d","ios":"levelo://app?vid=d2f39892-6603-404c-80ed-e850e6a70a6d"},"vehicle_type_id":"4","last_reported":1703091975,"current_range_meters":16400,"station_id":"ce4bgih2rcd13ifvqba0","pricing_plan_id":"free"},{"bike_id":"0abfc3d9-0c45-4c76-8018-209370273c2d","system_id":"levelo_inurba_marseille","lat":43.29529,"lon":5.385581,"is_reserved":false,"is_disabled":false,"rental_uris":{"android":"levelo://app?vid=0abfc3d9-0c45-4c76-8018-209370273c2d","ios":"levelo://app?vid=0abfc3d9-0c45-4c76-8018-209370273c2d"},"vehicle_type_id":"4","last_reported":1703091975,"current_range_meters":3200,"station_id":"ce4bgih2rcd13ifvqba0","pricing_plan_id":"free"},{"bike_id":"4448332e-edc0-4472-bc14-27d1ac46785b","system_id":"levelo_inurba_marseille","lat":43.302008,"lon":5.394694,"is_reserved":false,"is_disabled":false,"rental_uris":{"android":"levelo://app?vid=4448332e-edc0-4472-bc14-27d1ac46785b","ios":"levelo://app?vid=4448332e-edc0-4472-bc14-27d1ac46785b"},"vehicle_type_id":"4","last_reported":1703091975,"current_range_meters":10000,"station_id":"ce4bh0p2rcd13ifvqd70","pricing_plan_id":"free"},{"bike_id":"8a0e857a-6c33-442f-9dab-114bb50e825c","system_id":"levelo_inurba_marseille","lat":43.302008,"lon":5.394694,"is_reserved":false,"is_disabled":false,"rental_uris":{"android":"levelo://app?vid=8a0e857a-6c33-442f-9dab-114bb50e825c","ios":"levelo://app?vid=8a0e857a-6c33-442f-9dab-114bb50e825c"},"vehicle_type_id":"4","last_reported":1703091975,"current_range_meters":18000,"station_id":"ce4bh0p2rcd13ifvqd70","pricing_plan_id":"free"},{"bike_id":"7d3ce409-1b47-4d1c-b6af-39275bf34616","system_id":"levelo_inurba_marseille","lat":43.290327,"lon":5.375711,"is_reserved":false,"is_disabled":false,"rental_uris":{"android":"levelo://app?vid=7d3ce409-1b47-4d1c-b6af-39275bf34616","ios":"levelo://app?vid=7d3ce409-1b47-4d1c-b6af-39275bf34616"},"vehicle_type_id":"4","last_reported":1703091975,"current_range_meters":6400,"station_id":"ce4bh692rcd13ifvqe90","pricing_plan_id":"free"},{"bike_id":"350ac30b-e400-41db-b80c-be15537423d3","system_id":"levelo_inurba_marseille","lat":43.289184,"lon":5.366408,"is_reserved":false,"is_disabled":false,"rental_uris":{"android":"levelo://app?vid=350ac30b-e400-41db-b80c-be15537423d3","ios":"levelo://app?vid=350ac30b-e400-41db-b80c-be15537423d3"},"vehicle_type_id":"4","last_reported":1703091975,"current_range_meters":15600,"station_id":"ce4bhap2rcd13ifvqek0","pricing_plan_id":"free"},{"bike_id":"34c65641-4bc1-4197-b217-a76243cd6c9c","system_id":"levelo_inurba_marseille","lat":43.33042,"lon":5.3892,"is_reserved":false,"is_disabled":false,"rental_uris":{"android":"levelo://app?vid=34c65641-4bc1-4197-b217-a76243cd6c9c","ios":"levelo://app?vid=34c65641-4bc1-4197-b217-a76243cd6c9c"},"vehicle_type_id":"4","last_reported":1703091975,"current_range_meters":29600,"station_id":"ce4bhr92rcd13ifvqhrg","pricing_plan_id":"free"},{"bike_id":"39e98c13-8bf5-4359-b4b2-7b9441a1d969","system_id":"levelo_inurba_marseille","lat":43.330442,"lon":5.389148,"is_reserved":false,"is_disabled":false,"rental_uris":{"android":"levelo://app?vid=39e98c13-8bf5-4359-b4b2-7b9441a1d969","ios":"levelo://app?vid=39e98c13-8bf5-4359-b4b2-7b9441a1d969"},"vehicle_type_id":"4","last_reported":1703091975,"current_range_meters":25200,"station_id":"ce4bhr92rcd13ifvqhrg","pricing_plan_id":"free"},{"bike_id":"03792874-86d9-468e-be10-3c6851108053","system_id":"levelo_inurba_marseille","lat":43.33041,"lon":5.38924,"is_reserved":false,"is_disabled":false,"rental_uris":{"android":"levelo://app?vid=03792874-86d9-468e-be10-3c6851108053","ios":"levelo://app?vid=03792874-86d9-468e-be10-3c6851108053"},"vehicle_type_id":"4","last_reported":1703091975,"current_range_meters":17600,"station_id":"ce4bhr92rcd13ifvqhrg","pricing_plan_id":"free"},{"bike_id":"90536312-f14b-4c7d-9b1a-bee06a58535e","system_id":"levelo_inurba_marseille","lat":43.290103,"lon":5.356114,"is_reserved":false,"is_disabled":false,"rental_uris":{"android":"levelo://app?vid=90536312-f14b-4c7d-9b1a-bee06a58535e","ios":"levelo://app?vid=90536312-f14b-4c7d-9b1a-bee06a58535e"},"vehicle_type_id":"4","last_reported":1703091975,"current_range_meters":27600,"station_id":"ce4bhb92rcd13ifvqen0","pricing_plan_id":"free"},{"bike_id":"a44c4c9a-083e-42e6-8e6d-8958a860af21","system_id":"levelo_inurba_marseille","lat":43.33042,"lon":5.38925,"is_reserved":false,"is_disabled":false,"rental_uris":{"android":"levelo://app?vid=a44c4c9a-083e-42e6-8e6d-8958a860af21","ios":"levelo://app?vid=a44c4c9a-083e-42e6-8e6d-8958a860af21"},"vehicle_type_id":"4","last_reported":1703091975,"current_range_meters":19200,"station_id":"ce4bhr92rcd13ifvqhrg","pricing_plan_id":"free"},{"bike_id":"4c85ba6e-24c2-4430-9374-d6a2a6881bb8","system_id":"levelo_inurba_marseille","lat":43.29791,"lon":5.39336,"is_reserved":false,"is_disabled":false,"rental_uris":{"android":"levelo://app?vid=4c85ba6e-24c2-4430-9374-d6a2a6881bb8","ios":"levelo://app?vid=4c85ba6e-24c2-4430-9374-d6a2a6881bb8"},"vehicle_type_id":"4","last_reported":1703091975,"current_range_meters":27200,"station_id":"chh1huq6cuj3fo74tm60","pricing_plan_id":"free"},{"bike_id":"bf8f9544-a29b-40ec-a47a-a0f07e90874f","system_id":"levelo_inurba_marseille","lat":43.297912,"lon":5.393432,"is_reserved":false,"is_disabled":false,"rental_uris":{"android":"levelo://app?vid=bf8f9544-a29b-40ec-a47a-a0f07e90874f","ios":"levelo://app?vid=bf8f9544-a29b-40ec-a47a-a0f07e90874f"},"vehicle_type_id":"4","last_reported":1703091975,"current_range_meters":24800,"station_id":"","pricing_plan_id":"free"},{"bike_id":"22227a0a-bc66-4226-a47c-bd7e24f4241e","system_id":"levelo_inurba_marseille","lat":43.29788,"lon":5.39342,"is_reserved":false,"is_disabled":false,"rental_uris":{"android":"levelo://app?vid=22227a0a-bc66-4226-a47c-bd7e24f4241e","ios":"levelo://app?vid=22227a0a-bc66-4226-a47c-bd7e24f4241e"},"vehicle_type_id":"4","last_reported":1703091975,"current_range_meters":6800,"station_id":"chh1huq6cuj3fo74tm60","pricing_plan_id":"free"},{"bike_id":"44cccc67-114a-4395-bf12-f968dd0da0fd","system_id":"levelo_inurba_marseille","lat":43.29786,"lon":5.393425,"is_reserved":false,"is_disabled":false,"rental_uris":{"android":"levelo://app?vid=44cccc67-114a-4395-bf12-f968dd0da0fd","ios":"levelo://app?vid=44cccc67-114a-4395-bf12-f968dd0da0fd"},"vehicle_type_id":"4","last_reported":1703091975,"current_range_meters":21600,"station_id":"chh1huq6cuj3fo74tm60","pricing_plan_id":"free"},{"bike_id":"42824f4f-94a1-4990-891e-a2b143f1a530","system_id":"levelo_inurba_marseille","lat":43.297827,"lon":5.393455,"is_reserved":false,"is_disabled":false,"rental_uris":{"android":"levelo://app?vid=42824f4f-94a1-4990-891e-a2b143f1a530","ios":"levelo://app?vid=42824f4f-94a1-4990-891e-a2b143f1a530"},"vehicle_type_id":"4","last_reported":1703091975,"current_range_meters":14000,"station_id":"","pricing_plan_id":"free"},{"bike_id":"d4a9588d-75d7-433f-9ec7-2d7cf5d12941","system_id":"levelo_inurba_marseille","lat":43.295169,"lon":5.390426,"is_reserved":false,"is_disabled":false,"rental_uris":{"android":"levelo://app?vid=d4a9588d-75d7-433f-9ec7-2d7cf5d12941","ios":"levelo://app?vid=d4a9588d-75d7-433f-9ec7-2d7cf5d12941"},"vehicle_type_id":"4","last_reported":1703091975,"current_range_meters":400,"station_id":"ce4bh3p2rcd13ifvqdp0","pricing_plan_id":"free"},{"bike_id":"5041b4ed-1d47-427a-acde-62682335f13d","system_id":"levelo_inurba_marseille","lat":43.2929,"lon":5.38755,"is_reserved":false,"is_disabled":false,"rental_uris":{"android":"levelo://app?vid=5041b4ed-1d47-427a-acde-62682335f13d","ios":"levelo://app?vid=5041b4ed-1d47-427a-acde-62682335f13d"},"vehicle_type_id":"4","last_reported":1703091975,"current_range_meters":0,"station_id":"","pricing_plan_id":"free"},{"bike_id":"371251f1-a02b-48a9-b9c1-9a19f3e19394","system_id":"levelo_inurba_marseille","lat":43.28856,"lon":5.358371,"is_reserved":false,"is_disabled":false,"rental_uris":{"android":"levelo://app?vid=371251f1-a02b-48a9-b9c1-9a19f3e19394","ios":"levelo://app?vid=371251f1-a02b-48a9-b9c1-9a19f3e19394"},"vehicle_type_id":"4","last_reported":1703091975,"current_range_meters":20400,"station_id":"ce4bhb12rcd13ifvqem0","pricing_plan_id":"free"},{"bike_id":"84290c74-fdc9-4ddc-b55d-05e91e45ad6e","system_id":"levelo_inurba_marseille","lat":43.312609,"lon":5.401662,"is_reserved":false,"is_disabled":false,"rental_uris":{"android":"levelo://app?vid=84290c74-fdc9-4ddc-b55d-05e91e45ad6e","ios":"levelo://app?vid=84290c74-fdc9-4ddc-b55d-05e91e45ad6e"},"vehicle_type_id":"4","last_reported":1703091975,"current_range_meters":4400,"station_id":"ce4bh092rcd13ifvqd30","pricing_plan_id":"free"},{"bike_id":"ba0ac998-5884-4814-8733-4b594c0fc159","system_id":"levelo_inurba_marseille","lat":43.309371,"lon":5.401449,"is_reserved":false,"is_disabled":false,"rental_uris":{"android":"levelo://app?vid=ba0ac998-5884-4814-8733-4b594c0fc159","ios":"levelo://app?vid=ba0ac998-5884-4814-8733-4b594c0fc159"},"vehicle_type_id":"4","last_reported":1703091975,"current_range_meters":10800,"station_id":"ce4bgvp2rcd13ifvqct0","pricing_plan_id":"free"},{"bike_id":"efc8b483-666b-48da-afa0-0447382868fd","system_id":"levelo_inurba_marseille","lat":43.337448,"lon":5.374743,"is_reserved":false,"is_disabled":false,"rental_uris":{"android":"levelo://app?vid=efc8b483-666b-48da-afa0-0447382868fd","ios":"levelo://app?vid=efc8b483-666b-48da-afa0-0447382868fd"},"vehicle_type_id":"4","last_reported":1703091975,"current_range_meters":26400,"station_id":"","pricing_plan_id":"free"},{"bike_id":"fd4e7f60-d5f5-47e2-a4e2-0283faae9197","system_id":"levelo_inurba_marseille","lat":43.33758,"lon":5.37467,"is_reserved":false,"is_disabled":false,"rental_uris":{"android":"levelo://app?vid=fd4e7f60-d5f5-47e2-a4e2-0283faae9197","ios":"levelo://app?vid=fd4e7f60-d5f5-47e2-a4e2-0283faae9197"},"vehicle_type_id":"4","last_reported":1703091975,"current_range_meters":26400,"station_id":"","pricing_plan_id":"free"},{"bike_id":"a35da876-137a-44e6-9b86-4988eecbba7c","system_id":"levelo_inurba_marseille","lat":43.33767,"lon":5.37449,"is_reserved":false,"is_disabled":false,"rental_uris":{"android":"levelo://app?vid=a35da876-137a-44e6-9b86-4988eecbba7c","ios":"levelo://app?vid=a35da876-137a-44e6-9b86-4988eecbba7c"},"vehicle_type_id":"4","last_reported":1703091975,"current_range_meters":25200,"station_id":"","pricing_plan_id":"free"},{"bike_id":"bf69f7d4-0449-48c6-b11b-aaa92f9e19c8","system_id":"levelo_inurba_marseille","lat":43.30132,"lon":5.39846,"is_reserved":false,"is_disabled":false,"rental_uris":{"android":"levelo://app?vid=bf69f7d4-0449-48c6-b11b-aaa92f9e19c8","ios":"levelo://app?vid=bf69f7d4-0449-48c6-b11b-aaa92f9e19c8"},"vehicle_type_id":"4","last_reported":1703091975,"current_range_meters":11600,"station_id":"ce4bh0h2rcd13ifvqd40","pricing_plan_id":"free"},{"bike_id":"ec0f5464-c007-42e5-9519-8e29b5b5cbeb","system_id":"levelo_inurba_marseille","lat":43.29874,"lon":5.39723,"is_reserved":false,"is_disabled":false,"rental_uris":{"android":"levelo://app?vid=ec0f5464-c007-42e5-9519-8e29b5b5cbeb","ios":"levelo://app?vid=ec0f5464-c007-42e5-9519-8e29b5b5cbeb"},"vehicle_type_id":"4","last_reported":1703091975,"current_range_meters":19200,"station_id":"ce4bh0h2rcd13ifvqd50","pricing_plan_id":"free"},{"bike_id":"27eff000-985e-42ad-a167-6b69297a10eb","system_id":"levelo_inurba_marseille","lat":43.286591,"lon":5.363346,"is_reserved":false,"is_disabled":false,"rental_uris":{"android":"levelo://app?vid=27eff000-985e-42ad-a167-6b69297a10eb","ios":"levelo://app?vid=27eff000-985e-42ad-a167-6b69297a10eb"},"vehicle_type_id":"4","last_reported":1703091975,"current_range_meters":4000,"station_id":"ce4bhah2rcd13ifvqej0","pricing_plan_id":"free"},{"bike_id":"0de21e19-60a4-42a9-94ae-c2e3ec93c1fc","system_id":"levelo_inurba_marseille","lat":43.298681,"lon":5.397225,"is_reserved":false,"is_disabled":false,"rental_uris":{"android":"levelo://app?vid=0de21e19-60a4-42a9-94ae-c2e3ec93c1fc","ios":"levelo://app?vid=0de21e19-60a4-42a9-94ae-c2e3ec93c1fc"},"vehicle_type_id":"4","last_reported":1703091975,"current_range_meters":24800,"station_id":"ce4bh0h2rcd13ifvqd50","pricing_plan_id":"free"},{"bike_id":"677a6ef5-f6ef-42dd-8bc6-8a71fdd2cc26","system_id":"levelo_inurba_marseille","lat":43.298681,"lon":5.397225,"is_reserved":false,"is_disabled":false,"rental_uris":{"android":"levelo://app?vid=677a6ef5-f6ef-42dd-8bc6-8a71fdd2cc26","ios":"levelo://app?vid=677a6ef5-f6ef-42dd-8bc6-8a71fdd2cc26"},"vehicle_type_id":"4","last_reported":1703091975,"current_range_meters":10800,"station_id":"ce4bh0h2rcd13ifvqd50","pricing_plan_id":"free"},{"bike_id":"65976054-7a1a-4668-b5b6-1d90e979123a","system_id":"levelo_inurba_marseille","lat":43.286593,"lon":5.363346,"is_reserved":false,"is_disabled":false,"rental_uris":{"android":"levelo://app?vid=65976054-7a1a-4668-b5b6-1d90e979123a","ios":"levelo://app?vid=65976054-7a1a-4668-b5b6-1d90e979123a"},"vehicle_type_id":"4","last_reported":1703091975,"current_range_meters":22000,"station_id":"ce4bhah2rcd13ifvqej0","pricing_plan_id":"free"},{"bike_id":"789ef25a-9eda-42fb-b86d-4c86c381e0c8","system_id":"levelo_inurba_marseille","lat":43.298681,"lon":5.397225,"is_reserved":false,"is_disabled":false,"rental_uris":{"android":"levelo://app?vid=789ef25a-9eda-42fb-b86d-4c86c381e0c8","ios":"levelo://app?vid=789ef25a-9eda-42fb-b86d-4c86c381e0c8"},"vehicle_type_id":"4","last_reported":1703091975,"current_range_meters":17600,"station_id":"ce4bh0h2rcd13ifvqd50","pricing_plan_id":"free"},{"bike_id":"3dc9db82-1161-4d29-b4c4-c801e14db936","system_id":"levelo_inurba_marseille","lat":43.295196,"lon":5.39397,"is_reserved":false,"is_disabled":false,"rental_uris":{"android":"levelo://app?vid=3dc9db82-1161-4d29-b4c4-c801e14db936","ios":"levelo://app?vid=3dc9db82-1161-4d29-b4c4-c801e14db936"},"vehicle_type_id":"4","last_reported":1703091975,"current_range_meters":23200,"station_id":"ce4bh292rcd13ifvqdf0","pricing_plan_id":"free"},{"bike_id":"4ff5873f-ae0a-4131-8e76-8cc1e4bf2479","system_id":"levelo_inurba_marseille","lat":43.298681,"lon":5.397225,"is_reserved":false,"is_disabled":false,"rental_uris":{"android":"levelo://app?vid=4ff5873f-ae0a-4131-8e76-8cc1e4bf2479","ios":"levelo://app?vid=4ff5873f-ae0a-4131-8e76-8cc1e4bf2479"},"vehicle_type_id":"4","last_reported":1703091975,"current_range_meters":31200,"station_id":"ce4bh0h2rcd13ifvqd50","pricing_plan_id":"free"},{"bike_id":"dcf59d93-b4fe-49ab-8d28-17c194b7271f","system_id":"levelo_inurba_marseille","lat":43.290336,"lon":5.386425,"is_reserved":false,"is_disabled":false,"rental_uris":{"android":"levelo://app?vid=dcf59d93-b4fe-49ab-8d28-17c194b7271f","ios":"levelo://app?vid=dcf59d93-b4fe-49ab-8d28-17c194b7271f"},"vehicle_type_id":"4","last_reported":1703091975,"current_range_meters":0,"station_id":"ce4bh4p2rcd13ifvqe0g","pricing_plan_id":"free"},{"bike_id":"6dac1b56-4cee-4a89-955c-679cf6ba0705","system_id":"levelo_inurba_marseille","lat":43.289307,"lon":5.38406,"is_reserved":false,"is_disabled":false,"rental_uris":{"android":"levelo://app?vid=6dac1b56-4cee-4a89-955c-679cf6ba0705","ios":"levelo://app?vid=6dac1b56-4cee-4a89-955c-679cf6ba0705"},"vehicle_type_id":"4","last_reported":1703091975,"current_range_meters":5600,"station_id":"ce4bh612rcd13ifvqe6g","pricing_plan_id":"free"},{"bike_id":"2611b209-1d0d-416c-b631-4369aaef304a","system_id":"levelo_inurba_marseille","lat":43.290336,"lon":5.386425,"is_reserved":false,"is_disabled":false,"rental_uris":{"android":"levelo://app?vid=2611b209-1d0d-416c-b631-4369aaef304a","ios":"levelo://app?vid=2611b209-1d0d-416c-b631-4369aaef304a"},"vehicle_type_id":"4","last_reported":1703091975,"current_range_meters":0,"station_id":"ce4bh4p2rcd13ifvqe0g","pricing_plan_id":"free"},{"bike_id":"077a1fd8-529e-4184-8707-c1433c047307","system_id":"levelo_inurba_marseille","lat":43.290336,"lon":5.386425,"is_reserved":false,"is_disabled":false,"rental_uris":{"android":"levelo://app?vid=077a1fd8-529e-4184-8707-c1433c047307","ios":"levelo://app?vid=077a1fd8-529e-4184-8707-c1433c047307"},"vehicle_type_id":"4","last_reported":1703091975,"current_range_meters":10400,"station_id":"ce4bh4p2rcd13ifvqe0g","pricing_plan_id":"free"},{"bike_id":"b0290fad-a983-4508-b43f-6c53fdd5c18a","system_id":"levelo_inurba_marseille","lat":43.286039,"lon":5.370679,"is_reserved":false,"is_disabled":false,"rental_uris":{"android":"levelo://app?vid=b0290fad-a983-4508-b43f-6c53fdd5c18a","ios":"levelo://app?vid=b0290fad-a983-4508-b43f-6c53fdd5c18a"},"vehicle_type_id":"4","last_reported":1703091975,"current_range_meters":13600,"station_id":"ce4bht12rcd13ifvqi60","pricing_plan_id":"free"},{"bike_id":"9cc51e2a-7f59-4169-98f2-63ab47a03796","system_id":"levelo_inurba_marseille","lat":43.291994,"lon":5.392907,"is_reserved":false,"is_disabled":false,"rental_uris":{"android":"levelo://app?vid=9cc51e2a-7f59-4169-98f2-63ab47a03796","ios":"levelo://app?vid=9cc51e2a-7f59-4169-98f2-63ab47a03796"},"vehicle_type_id":"4","last_reported":1703091975,"current_range_meters":23600,"station_id":"ce4bh192rcd13ifvqdd0","pricing_plan_id":"free"},{"bike_id":"6c8b91a6-d235-4645-b1d6-8691d7c3c41b","system_id":"levelo_inurba_marseille","lat":43.284538,"lon":5.358657,"is_reserved":false,"is_disabled":false,"rental_uris":{"android":"levelo://app?vid=6c8b91a6-d235-4645-b1d6-8691d7c3c41b","ios":"levelo://app?vid=6c8b91a6-d235-4645-b1d6-8691d7c3c41b"},"vehicle_type_id":"4","last_reported":1703091975,"current_range_meters":25200,"station_id":"ce4bhah2rcd13ifvqei0","pricing_plan_id":"free"},{"bike_id":"21e57269-6342-4a55-8be9-3e94ecd31163","system_id":"levelo_inurba_marseille","lat":43.28459,"lon":5.359,"is_reserved":false,"is_disabled":false,"rental_uris":{"android":"levelo://app?vid=21e57269-6342-4a55-8be9-3e94ecd31163","ios":"levelo://app?vid=21e57269-6342-4a55-8be9-3e94ecd31163"},"vehicle_type_id":"4","last_reported":1703091975,"current_range_meters":800,"station_id":"ce4bhah2rcd13ifvqei0","pricing_plan_id":"free"},{"bike_id":"194be222-b466-45a0-bc26-af5babcc0061","system_id":"levelo_inurba_marseille","lat":43.28458,"lon":5.35895,"is_reserved":false,"is_disabled":false,"rental_uris":{"android":"levelo://app?vid=194be222-b466-45a0-bc26-af5babcc0061","ios":"levelo://app?vid=194be222-b466-45a0-bc26-af5babcc0061"},"vehicle_type_id":"4","last_reported":1703091975,"current_range_meters":0,"station_id":"ce4bhah2rcd13ifvqei0","pricing_plan_id":"free"},{"bike_id":"b7c24e1c-ee55-4747-8b41-23ac307dc28e","system_id":"levelo_inurba_marseille","lat":43.294314,"lon":5.397498,"is_reserved":false,"is_disabled":false,"rental_uris":{"android":"levelo://app?vid=b7c24e1c-ee55-4747-8b41-23ac307dc28e","ios":"levelo://app?vid=b7c24e1c-ee55-4747-8b41-23ac307dc28e"},"vehicle_type_id":"4","last_reported":1703091975,"current_range_meters":27200,"station_id":"ce4bh3h2rcd13ifvqdo0","pricing_plan_id":"free"},{"bike_id":"7f31c261-b4c3-4ece-809c-0175459e0962","system_id":"levelo_inurba_marseille","lat":43.294314,"lon":5.397498,"is_reserved":false,"is_disabled":false,"rental_uris":{"android":"levelo://app?vid=7f31c261-b4c3-4ece-809c-0175459e0962","ios":"levelo://app?vid=7f31c261-b4c3-4ece-809c-0175459e0962"},"vehicle_type_id":"4","last_reported":1703091975,"current_range_meters":12000,"station_id":"ce4bh3h2rcd13ifvqdo0","pricing_plan_id":"free"},{"bike_id":"4af4415d-ec7c-4d1e-a5ec-dc0e908efe10","system_id":"levelo_inurba_marseille","lat":43.294314,"lon":5.397498,"is_reserved":false,"is_disabled":false,"rental_uris":{"android":"levelo://app?vid=4af4415d-ec7c-4d1e-a5ec-dc0e908efe10","ios":"levelo://app?vid=4af4415d-ec7c-4d1e-a5ec-dc0e908efe10"},"vehicle_type_id":"4","last_reported":1703091975,"current_range_meters":18800,"station_id":"ce4bh3h2rcd13ifvqdo0","pricing_plan_id":"free"},{"bike_id":"a87d463d-b6e1-4933-957f-95263872b3c6","system_id":"levelo_inurba_marseille","lat":43.285856,"lon":5.350771,"is_reserved":false,"is_disabled":false,"rental_uris":{"android":"levelo://app?vid=a87d463d-b6e1-4933-957f-95263872b3c6","ios":"levelo://app?vid=a87d463d-b6e1-4933-957f-95263872b3c6"},"vehicle_type_id":"4","last_reported":1703091975,"current_range_meters":20800,"station_id":"ce4bhch2rcd13ifvqeug","pricing_plan_id":"free"},{"bike_id":"cd0c99aa-0b49-422c-882e-cd7d21d05d95","system_id":"levelo_inurba_marseille","lat":43.285856,"lon":5.350771,"is_reserved":false,"is_disabled":false,"rental_uris":{"android":"levelo://app?vid=cd0c99aa-0b49-422c-882e-cd7d21d05d95","ios":"levelo://app?vid=cd0c99aa-0b49-422c-882e-cd7d21d05d95"},"vehicle_type_id":"4","last_reported":1703091975,"current_range_meters":12800,"station_id":"ce4bhch2rcd13ifvqeug","pricing_plan_id":"free"},{"bike_id":"4ea381ba-f5ca-4402-a8ad-56297ca58f6f","system_id":"levelo_inurba_marseille","lat":43.285856,"lon":5.350771,"is_reserved":false,"is_disabled":false,"rental_uris":{"android":"levelo://app?vid=4ea381ba-f5ca-4402-a8ad-56297ca58f6f","ios":"levelo://app?vid=4ea381ba-f5ca-4402-a8ad-56297ca58f6f"},"vehicle_type_id":"4","last_reported":1703091975,"current_range_meters":21200,"station_id":"ce4bhch2rcd13ifvqeug","pricing_plan_id":"free"},{"bike_id":"4005d67c-e580-47a4-893b-53bd0a817d88","system_id":"levelo_inurba_marseille","lat":43.285848,"lon":5.350787,"is_reserved":false,"is_disabled":false,"rental_uris":{"android":"levelo://app?vid=4005d67c-e580-47a4-893b-53bd0a817d88","ios":"levelo://app?vid=4005d67c-e580-47a4-893b-53bd0a817d88"},"vehicle_type_id":"4","last_reported":1703091975,"current_range_meters":13600,"station_id":"ce4bhch2rcd13ifvqeug","pricing_plan_id":"free"},{"bike_id":"b0d93208-ca47-4c43-9c18-0b96cf27fa60","system_id":"levelo_inurba_marseille","lat":43.28414,"lon":5.37507,"is_reserved":false,"is_disabled":false,"rental_uris":{"android":"levelo://app?vid=b0d93208-ca47-4c43-9c18-0b96cf27fa60","ios":"levelo://app?vid=b0d93208-ca47-4c43-9c18-0b96cf27fa60"},"vehicle_type_id":"4","last_reported":1703091975,"current_range_meters":12800,"station_id":"ce4bh412rcd13ifvqds0","pricing_plan_id":"free"},{"bike_id":"c714b37c-1e3f-4308-b91c-ba7a2008ed49","system_id":"levelo_inurba_marseille","lat":43.283998,"lon":5.375062,"is_reserved":false,"is_disabled":false,"rental_uris":{"android":"levelo://app?vid=c714b37c-1e3f-4308-b91c-ba7a2008ed49","ios":"levelo://app?vid=c714b37c-1e3f-4308-b91c-ba7a2008ed49"},"vehicle_type_id":"4","last_reported":1703091975,"current_range_meters":11600,"station_id":"ce4bh412rcd13ifvqds0","pricing_plan_id":"free"},{"bike_id":"8538e6dd-dbef-4a5a-a119-9a857fd021ad","system_id":"levelo_inurba_marseille","lat":43.33218,"lon":5.397067,"is_reserved":false,"is_disabled":false,"rental_uris":{"android":"levelo://app?vid=8538e6dd-dbef-4a5a-a119-9a857fd021ad","ios":"levelo://app?vid=8538e6dd-dbef-4a5a-a119-9a857fd021ad"},"vehicle_type_id":"4","last_reported":1703091975,"current_range_meters":0,"station_id":"","pricing_plan_id":"free"},{"bike_id":"4a28435e-5a4c-4024-87ac-95063efa446a","system_id":"levelo_inurba_marseille","lat":43.286595,"lon":5.386795,"is_reserved":false,"is_disabled":false,"rental_uris":{"android":"levelo://app?vid=4a28435e-5a4c-4024-87ac-95063efa446a","ios":"levelo://app?vid=4a28435e-5a4c-4024-87ac-95063efa446a"},"vehicle_type_id":"4","last_reported":1703091975,"current_range_meters":19600,"station_id":"ce4bh492rcd13ifvqdug","pricing_plan_id":"free"},{"bike_id":"2c408855-2c8b-4c91-8a59-2fa0905ff140","system_id":"levelo_inurba_marseille","lat":43.319179,"lon":5.407725,"is_reserved":false,"is_disabled":false,"rental_uris":{"android":"levelo://app?vid=2c408855-2c8b-4c91-8a59-2fa0905ff140","ios":"levelo://app?vid=2c408855-2c8b-4c91-8a59-2fa0905ff140"},"vehicle_type_id":"4","last_reported":1703091975,"current_range_meters":24000,"station_id":"ce4bhq12rcd13ifvqhig","pricing_plan_id":"free"},{"bike_id":"30b41aed-b375-4cfa-b849-c47f4e650fc0","system_id":"levelo_inurba_marseille","lat":43.28358,"lon":5.3785,"is_reserved":false,"is_disabled":false,"rental_uris":{"android":"levelo://app?vid=30b41aed-b375-4cfa-b849-c47f4e650fc0","ios":"levelo://app?vid=30b41aed-b375-4cfa-b849-c47f4e650fc0"},"vehicle_type_id":"4","last_reported":1703091975,"current_range_meters":24800,"station_id":"","pricing_plan_id":"free"},{"bike_id":"dfb799e0-6b52-4b93-891e-f427333dec88","system_id":"levelo_inurba_marseille","lat":43.33717,"lon":5.391857,"is_reserved":false,"is_disabled":false,"rental_uris":{"android":"levelo://app?vid=dfb799e0-6b52-4b93-891e-f427333dec88","ios":"levelo://app?vid=dfb799e0-6b52-4b93-891e-f427333dec88"},"vehicle_type_id":"4","last_reported":1703091975,"current_range_meters":25200,"station_id":"ce4bhr92rcd13ifvqhsg","pricing_plan_id":"free"},{"bike_id":"89d5a772-0eff-4014-ac44-7ebb7f9d5a4a","system_id":"levelo_inurba_marseille","lat":43.323464,"lon":5.406297,"is_reserved":false,"is_disabled":false,"rental_uris":{"android":"levelo://app?vid=89d5a772-0eff-4014-ac44-7ebb7f9d5a4a","ios":"levelo://app?vid=89d5a772-0eff-4014-ac44-7ebb7f9d5a4a"},"vehicle_type_id":"4","last_reported":1703091975,"current_range_meters":14800,"station_id":"ce4bhq92rcd13ifvqhjg","pricing_plan_id":"free"},{"bike_id":"0e6bbc92-cec6-497f-ad89-d75d7e889db3","system_id":"levelo_inurba_marseille","lat":43.33717,"lon":5.391857,"is_reserved":false,"is_disabled":false,"rental_uris":{"android":"levelo://app?vid=0e6bbc92-cec6-497f-ad89-d75d7e889db3","ios":"levelo://app?vid=0e6bbc92-cec6-497f-ad89-d75d7e889db3"},"vehicle_type_id":"4","last_reported":1703091975,"current_range_meters":31200,"station_id":"ce4bhr92rcd13ifvqhsg","pricing_plan_id":"free"},{"bike_id":"4a6b46ed-a76c-4be2-8eed-50ff9c4008ee","system_id":"levelo_inurba_marseille","lat":43.297946,"lon":5.404063,"is_reserved":false,"is_disabled":false,"rental_uris":{"android":"levelo://app?vid=4a6b46ed-a76c-4be2-8eed-50ff9c4008ee","ios":"levelo://app?vid=4a6b46ed-a76c-4be2-8eed-50ff9c4008ee"},"vehicle_type_id":"4","last_reported":1703091975,"current_range_meters":14400,"station_id":"ce4bh112rcd13ifvqd90","pricing_plan_id":"free"},{"bike_id":"4ba6f957-9744-40e7-9694-a1537b08033b","system_id":"levelo_inurba_marseille","lat":43.283494,"lon":5.380945,"is_reserved":false,"is_disabled":false,"rental_uris":{"android":"levelo://app?vid=4ba6f957-9744-40e7-9694-a1537b08033b","ios":"levelo://app?vid=4ba6f957-9744-40e7-9694-a1537b08033b"},"vehicle_type_id":"4","last_reported":1703091975,"current_range_meters":14400,"station_id":"ce4bh412rcd13ifvqdr0","pricing_plan_id":"free"},{"bike_id":"d6ceaf01-26b8-4886-ac1f-d274beda68aa","system_id":"levelo_inurba_marseille","lat":43.333404,"lon":5.39867,"is_reserved":false,"is_disabled":false,"rental_uris":{"android":"levelo://app?vid=d6ceaf01-26b8-4886-ac1f-d274beda68aa","ios":"levelo://app?vid=d6ceaf01-26b8-4886-ac1f-d274beda68aa"},"vehicle_type_id":"4","last_reported":1703091975,"current_range_meters":0,"station_id":"","pricing_plan_id":"free"},{"bike_id":"88ff39b7-d3bf-47b2-a8a2-e2aff1ad19a5","system_id":"levelo_inurba_marseille","lat":43.283508,"lon":5.381065,"is_reserved":false,"is_disabled":false,"rental_uris":{"android":"levelo://app?vid=88ff39b7-d3bf-47b2-a8a2-e2aff1ad19a5","ios":"levelo://app?vid=88ff39b7-d3bf-47b2-a8a2-e2aff1ad19a5"},"vehicle_type_id":"4","last_reported":1703091975,"current_range_meters":31200,"station_id":"ce4bh412rcd13ifvqdr0","pricing_plan_id":"free"},{"bike_id":"25acf729-0c15-45f0-8053-2c35b0919b50","system_id":"levelo_inurba_marseille","lat":43.284219,"lon":5.3497,"is_reserved":false,"is_disabled":false,"rental_uris":{"android":"levelo://app?vid=25acf729-0c15-45f0-8053-2c35b0919b50","ios":"levelo://app?vid=25acf729-0c15-45f0-8053-2c35b0919b50"},"vehicle_type_id":"4","last_reported":1703091975,"current_range_meters":14400,"station_id":"ce4bhbh2rcd13ifvqepg","pricing_plan_id":"free"},{"bike_id":"e68ad7a3-9f73-42da-8e90-59adcc6ccfbd","system_id":"levelo_inurba_marseille","lat":43.284219,"lon":5.3497,"is_reserved":false,"is_disabled":false,"rental_uris":{"android":"levelo://app?vid=e68ad7a3-9f73-42da-8e90-59adcc6ccfbd","ios":"levelo://app?vid=e68ad7a3-9f73-42da-8e90-59adcc6ccfbd"},"vehicle_type_id":"4","last_reported":1703091975,"current_range_meters":18800,"station_id":"ce4bhbh2rcd13ifvqepg","pricing_plan_id":"free"},{"bike_id":"99c0c118-61e8-4cea-80ff-9be3c4ac7cf7","system_id":"levelo_inurba_marseille","lat":43.28421,"lon":5.34986,"is_reserved":false,"is_disabled":false,"rental_uris":{"android":"levelo://app?vid=99c0c118-61e8-4cea-80ff-9be3c4ac7cf7","ios":"levelo://app?vid=99c0c118-61e8-4cea-80ff-9be3c4ac7cf7"},"vehicle_type_id":"4","last_reported":1703091975,"current_range_meters":2400,"station_id":"ce4bhbh2rcd13ifvqepg","pricing_plan_id":"free"},{"bike_id":"6dbebcfd-5cef-46d3-b6b1-24659f7d377a","system_id":"levelo_inurba_marseille","lat":43.28553,"lon":5.389703,"is_reserved":false,"is_disabled":false,"rental_uris":{"android":"levelo://app?vid=6dbebcfd-5cef-46d3-b6b1-24659f7d377a","ios":"levelo://app?vid=6dbebcfd-5cef-46d3-b6b1-24659f7d377a"},"vehicle_type_id":"4","last_reported":1703091975,"current_range_meters":0,"station_id":"","pricing_plan_id":"free"},{"bike_id":"7e161498-5b36-43ef-ba55-a2c8371d88d8","system_id":"levelo_inurba_marseille","lat":43.282744,"lon":5.350533,"is_reserved":false,"is_disabled":false,"rental_uris":{"android":"levelo://app?vid=7e161498-5b36-43ef-ba55-a2c8371d88d8","ios":"levelo://app?vid=7e161498-5b36-43ef-ba55-a2c8371d88d8"},"vehicle_type_id":"4","last_reported":1703091975,"current_range_meters":4800,"station_id":"ce4bhbp2rcd13ifvqerg","pricing_plan_id":"free"},{"bike_id":"7e3e6caf-235f-4f73-85f3-3ebbbc0bf0d0","system_id":"levelo_inurba_marseille","lat":43.29051,"lon":5.39948,"is_reserved":false,"is_disabled":false,"rental_uris":{"android":"levelo://app?vid=7e3e6caf-235f-4f73-85f3-3ebbbc0bf0d0","ios":"levelo://app?vid=7e3e6caf-235f-4f73-85f3-3ebbbc0bf0d0"},"vehicle_type_id":"4","last_reported":1703091975,"current_range_meters":30000,"station_id":"ce4bh392rcd13ifvqdm0","pricing_plan_id":"free"},{"bike_id":"ee2f8319-eb9b-4777-ad14-b411c1f0125f","system_id":"levelo_inurba_marseille","lat":43.29042,"lon":5.39961,"is_reserved":false,"is_disabled":false,"rental_uris":{"android":"levelo://app?vid=ee2f8319-eb9b-4777-ad14-b411c1f0125f","ios":"levelo://app?vid=ee2f8319-eb9b-4777-ad14-b411c1f0125f"},"vehicle_type_id":"4","last_reported":1703091975,"current_range_meters":29600,"station_id":"ce4bh392rcd13ifvqdm0","pricing_plan_id":"free"},{"bike_id":"5a1ab169-c376-44b3-b784-2ed153f34432","system_id":"levelo_inurba_marseille","lat":43.29037,"lon":5.39959,"is_reserved":false,"is_disabled":false,"rental_uris":{"android":"levelo://app?vid=5a1ab169-c376-44b3-b784-2ed153f34432","ios":"levelo://app?vid=5a1ab169-c376-44b3-b784-2ed153f34432"},"vehicle_type_id":"4","last_reported":1703091975,"current_range_meters":24400,"station_id":"ce4bh392rcd13ifvqdm0","pricing_plan_id":"free"},{"bike_id":"e1b0f13b-5f6f-4ae1-a402-bcd98b7027d9","system_id":"levelo_inurba_marseille","lat":43.2904,"lon":5.39972,"is_reserved":false,"is_disabled":false,"rental_uris":{"android":"levelo://app?vid=e1b0f13b-5f6f-4ae1-a402-bcd98b7027d9","ios":"levelo://app?vid=e1b0f13b-5f6f-4ae1-a402-bcd98b7027d9"},"vehicle_type_id":"4","last_reported":1703091975,"current_range_meters":26400,"station_id":"ce4bh392rcd13ifvqdm0","pricing_plan_id":"free"},{"bike_id":"93d5d90d-b41d-4f51-b22a-5843508f4110","system_id":"levelo_inurba_marseille","lat":43.29037,"lon":5.39977,"is_reserved":false,"is_disabled":false,"rental_uris":{"android":"levelo://app?vid=93d5d90d-b41d-4f51-b22a-5843508f4110","ios":"levelo://app?vid=93d5d90d-b41d-4f51-b22a-5843508f4110"},"vehicle_type_id":"4","last_reported":1703091975,"current_range_meters":22400,"station_id":"ce4bh392rcd13ifvqdm0","pricing_plan_id":"free"},{"bike_id":"6dd6f2a2-ae77-4747-b127-8f78c75eb962","system_id":"levelo_inurba_marseille","lat":43.29029,"lon":5.39971,"is_reserved":false,"is_disabled":false,"rental_uris":{"android":"levelo://app?vid=6dd6f2a2-ae77-4747-b127-8f78c75eb962","ios":"levelo://app?vid=6dd6f2a2-ae77-4747-b127-8f78c75eb962"},"vehicle_type_id":"4","last_reported":1703091975,"current_range_meters":4400,"station_id":"ce4bh392rcd13ifvqdm0","pricing_plan_id":"free"},{"bike_id":"74327dfb-7b03-4653-a591-687a12e1bfe4","system_id":"levelo_inurba_marseille","lat":43.290453,"lon":5.399937,"is_reserved":false,"is_disabled":false,"rental_uris":{"android":"levelo://app?vid=74327dfb-7b03-4653-a591-687a12e1bfe4","ios":"levelo://app?vid=74327dfb-7b03-4653-a591-687a12e1bfe4"},"vehicle_type_id":"4","last_reported":1703091975,"current_range_meters":30000,"station_id":"","pricing_plan_id":"free"},{"bike_id":"c0ba5c14-f4ba-4fd2-85df-1c77f15f6ba5","system_id":"levelo_inurba_marseille","lat":43.296263,"lon":5.40601,"is_reserved":false,"is_disabled":false,"rental_uris":{"android":"levelo://app?vid=c0ba5c14-f4ba-4fd2-85df-1c77f15f6ba5","ios":"levelo://app?vid=c0ba5c14-f4ba-4fd2-85df-1c77f15f6ba5"},"vehicle_type_id":"4","last_reported":1703091975,"current_range_meters":25200,"station_id":"ce4bh0h2rcd13ifvqd60","pricing_plan_id":"free"},{"bike_id":"bbba44f1-dac9-4a5b-9f25-3bc11df32bdd","system_id":"levelo_inurba_marseille","lat":43.296263,"lon":5.40601,"is_reserved":false,"is_disabled":false,"rental_uris":{"android":"levelo://app?vid=bbba44f1-dac9-4a5b-9f25-3bc11df32bdd","ios":"levelo://app?vid=bbba44f1-dac9-4a5b-9f25-3bc11df32bdd"},"vehicle_type_id":"4","last_reported":1703091975,"current_range_meters":16000,"station_id":"ce4bh0h2rcd13ifvqd60","pricing_plan_id":"free"},{"bike_id":"1f22ba46-6784-48d7-8d58-b3957d07b10a","system_id":"levelo_inurba_marseille","lat":43.29021,"lon":5.3997,"is_reserved":false,"is_disabled":false,"rental_uris":{"android":"levelo://app?vid=1f22ba46-6784-48d7-8d58-b3957d07b10a","ios":"levelo://app?vid=1f22ba46-6784-48d7-8d58-b3957d07b10a"},"vehicle_type_id":"4","last_reported":1703091975,"current_range_meters":28400,"station_id":"ce4bh392rcd13ifvqdm0","pricing_plan_id":"free"},{"bike_id":"28527e0a-9796-4265-a693-2e63e9adaddb","system_id":"levelo_inurba_marseille","lat":43.290309,"lon":5.399923,"is_reserved":false,"is_disabled":false,"rental_uris":{"android":"levelo://app?vid=28527e0a-9796-4265-a693-2e63e9adaddb","ios":"levelo://app?vid=28527e0a-9796-4265-a693-2e63e9adaddb"},"vehicle_type_id":"4","last_reported":1703091975,"current_range_meters":29200,"station_id":"ce4bh392rcd13ifvqdm0","pricing_plan_id":"free"},{"bike_id":"7f3db8bc-bf28-4278-9d81-fc091da22cae","system_id":"levelo_inurba_marseille","lat":43.290346,"lon":5.400013,"is_reserved":false,"is_disabled":false,"rental_uris":{"android":"levelo://app?vid=7f3db8bc-bf28-4278-9d81-fc091da22cae","ios":"levelo://app?vid=7f3db8bc-bf28-4278-9d81-fc091da22cae"},"vehicle_type_id":"4","last_reported":1703091975,"current_range_meters":30000,"station_id":"","pricing_plan_id":"free"},{"bike_id":"65fb8513-bc1e-4a4f-a9a2-e7c610b31a7a","system_id":"levelo_inurba_marseille","lat":43.28573,"lon":5.394992,"is_reserved":false,"is_disabled":false,"rental_uris":{"android":"levelo://app?vid=65fb8513-bc1e-4a4f-a9a2-e7c610b31a7a","ios":"levelo://app?vid=65fb8513-bc1e-4a4f-a9a2-e7c610b31a7a"},"vehicle_type_id":"4","last_reported":1703091975,"current_range_meters":4400,"station_id":"ce4bh292rcd13ifvqdg0","pricing_plan_id":"free"},{"bike_id":"a1d25454-7632-4acd-bf54-abf118ddb163","system_id":"levelo_inurba_marseille","lat":43.285742,"lon":5.395004,"is_reserved":false,"is_disabled":false,"rental_uris":{"android":"levelo://app?vid=a1d25454-7632-4acd-bf54-abf118ddb163","ios":"levelo://app?vid=a1d25454-7632-4acd-bf54-abf118ddb163"},"vehicle_type_id":"4","last_reported":1703091975,"current_range_meters":16000,"station_id":"ce4bh292rcd13ifvqdg0","pricing_plan_id":"free"},{"bike_id":"40045bb5-3bda-42c2-ba22-3f7c409263b4","system_id":"levelo_inurba_marseille","lat":43.285742,"lon":5.395004,"is_reserved":false,"is_disabled":false,"rental_uris":{"android":"levelo://app?vid=40045bb5-3bda-42c2-ba22-3f7c409263b4","ios":"levelo://app?vid=40045bb5-3bda-42c2-ba22-3f7c409263b4"},"vehicle_type_id":"4","last_reported":1703091975,"current_range_meters":16800,"station_id":"ce4bh292rcd13ifvqdg0","pricing_plan_id":"free"},{"bike_id":"81d71080-fbec-48f4-96b9-6519c9d5232a","system_id":"levelo_inurba_marseille","lat":43.285742,"lon":5.395004,"is_reserved":false,"is_disabled":false,"rental_uris":{"android":"levelo://app?vid=81d71080-fbec-48f4-96b9-6519c9d5232a","ios":"levelo://app?vid=81d71080-fbec-48f4-96b9-6519c9d5232a"},"vehicle_type_id":"4","last_reported":1703091975,"current_range_meters":14400,"station_id":"ce4bh292rcd13ifvqdg0","pricing_plan_id":"free"},{"bike_id":"47e83c4a-7d19-4730-b119-6fedfcee2825","system_id":"levelo_inurba_marseille","lat":43.28573,"lon":5.394992,"is_reserved":false,"is_disabled":false,"rental_uris":{"android":"levelo://app?vid=47e83c4a-7d19-4730-b119-6fedfcee2825","ios":"levelo://app?vid=47e83c4a-7d19-4730-b119-6fedfcee2825"},"vehicle_type_id":"4","last_reported":1703091975,"current_range_meters":14800,"station_id":"ce4bh292rcd13ifvqdg0","pricing_plan_id":"free"},{"bike_id":"18575a5b-62b5-4a58-9bc0-f9e1eedfd7b3","system_id":"levelo_inurba_marseille","lat":43.28573,"lon":5.394992,"is_reserved":false,"is_disabled":false,"rental_uris":{"android":"levelo://app?vid=18575a5b-62b5-4a58-9bc0-f9e1eedfd7b3","ios":"levelo://app?vid=18575a5b-62b5-4a58-9bc0-f9e1eedfd7b3"},"vehicle_type_id":"4","last_reported":1703091975,"current_range_meters":31200,"station_id":"ce4bh292rcd13ifvqdg0","pricing_plan_id":"free"},{"bike_id":"fcaafd9e-2e7a-463b-bfba-46c2135cf4c4","system_id":"levelo_inurba_marseille","lat":43.285742,"lon":5.395004,"is_reserved":false,"is_disabled":false,"rental_uris":{"android":"levelo://app?vid=fcaafd9e-2e7a-463b-bfba-46c2135cf4c4","ios":"levelo://app?vid=fcaafd9e-2e7a-463b-bfba-46c2135cf4c4"},"vehicle_type_id":"4","last_reported":1703091975,"current_range_meters":22400,"station_id":"ce4bh292rcd13ifvqdg0","pricing_plan_id":"free"},{"bike_id":"4c42cbb9-8d68-4e1c-a930-308e035b758b","system_id":"levelo_inurba_marseille","lat":43.304188,"lon":5.412904,"is_reserved":false,"is_disabled":false,"rental_uris":{"android":"levelo://app?vid=4c42cbb9-8d68-4e1c-a930-308e035b758b","ios":"levelo://app?vid=4c42cbb9-8d68-4e1c-a930-308e035b758b"},"vehicle_type_id":"4","last_reported":1703091975,"current_range_meters":7600,"station_id":"ce4bhop2rcd13ifvqh8g","pricing_plan_id":"free"},{"bike_id":"4f431c2b-271d-450a-8a67-7834ada7acf5","system_id":"levelo_inurba_marseille","lat":43.287154,"lon":5.399979,"is_reserved":false,"is_disabled":false,"rental_uris":{"android":"levelo://app?vid=4f431c2b-271d-450a-8a67-7834ada7acf5","ios":"levelo://app?vid=4f431c2b-271d-450a-8a67-7834ada7acf5"},"vehicle_type_id":"4","last_reported":1703091975,"current_range_meters":2800,"station_id":"ce4bho92rcd13ifvqh3g","pricing_plan_id":"free"},{"bike_id":"0e2239d7-7aa5-4258-977c-9356d3ecb777","system_id":"levelo_inurba_marseille","lat":43.279087,"lon":5.380114,"is_reserved":false,"is_disabled":false,"rental_uris":{"android":"levelo://app?vid=0e2239d7-7aa5-4258-977c-9356d3ecb777","ios":"levelo://app?vid=0e2239d7-7aa5-4258-977c-9356d3ecb777"},"vehicle_type_id":"4","last_reported":1703091975,"current_range_meters":27200,"station_id":"ce4bhf92rcd13ifvqf50","pricing_plan_id":"free"},{"bike_id":"cb0668d4-d46c-4efe-a7e0-185ebe495ab4","system_id":"levelo_inurba_marseille","lat":43.280581,"lon":5.389261,"is_reserved":false,"is_disabled":false,"rental_uris":{"android":"levelo://app?vid=cb0668d4-d46c-4efe-a7e0-185ebe495ab4","ios":"levelo://app?vid=cb0668d4-d46c-4efe-a7e0-185ebe495ab4"},"vehicle_type_id":"4","last_reported":1703091975,"current_range_meters":6800,"station_id":"","pricing_plan_id":"free"},{"bike_id":"72bc92a6-38fa-4103-a7c5-e587069ed2eb","system_id":"levelo_inurba_marseille","lat":43.279742,"lon":5.38744,"is_reserved":false,"is_disabled":false,"rental_uris":{"android":"levelo://app?vid=72bc92a6-38fa-4103-a7c5-e587069ed2eb","ios":"levelo://app?vid=72bc92a6-38fa-4103-a7c5-e587069ed2eb"},"vehicle_type_id":"4","last_reported":1703091975,"current_range_meters":0,"station_id":"ce4bhg12rcd13ifvqf80","pricing_plan_id":"free"},{"bike_id":"267f9eb2-6b24-4b36-ac79-714e9e9f7295","system_id":"levelo_inurba_marseille","lat":43.292571,"lon":5.409107,"is_reserved":false,"is_disabled":false,"rental_uris":{"android":"levelo://app?vid=267f9eb2-6b24-4b36-ac79-714e9e9f7295","ios":"levelo://app?vid=267f9eb2-6b24-4b36-ac79-714e9e9f7295"},"vehicle_type_id":"4","last_reported":1703091975,"current_range_meters":2400,"station_id":"ce4bh192rcd13ifvqdc0","pricing_plan_id":"free"},{"bike_id":"753999ae-669d-46ea-8f1a-dfbc4490858a","system_id":"levelo_inurba_marseille","lat":43.276179,"lon":5.361009,"is_reserved":false,"is_disabled":false,"rental_uris":{"android":"levelo://app?vid=753999ae-669d-46ea-8f1a-dfbc4490858a","ios":"levelo://app?vid=753999ae-669d-46ea-8f1a-dfbc4490858a"},"vehicle_type_id":"4","last_reported":1703091975,"current_range_meters":8000,"station_id":"ce4bgj92rcd13ifvqbe0","pricing_plan_id":"free"},{"bike_id":"8b15046b-41d7-456b-afad-6a5e9f61ccb5","system_id":"levelo_inurba_marseille","lat":43.29167,"lon":5.41003,"is_reserved":false,"is_disabled":false,"rental_uris":{"android":"levelo://app?vid=8b15046b-41d7-456b-afad-6a5e9f61ccb5","ios":"levelo://app?vid=8b15046b-41d7-456b-afad-6a5e9f61ccb5"},"vehicle_type_id":"4","last_reported":1703091975,"current_range_meters":17200,"station_id":"","pricing_plan_id":"free"},{"bike_id":"7ac45ed6-cdf2-458d-a425-f0ac1fc85d1f","system_id":"levelo_inurba_marseille","lat":43.278401,"lon":5.392152,"is_reserved":false,"is_disabled":false,"rental_uris":{"android":"levelo://app?vid=7ac45ed6-cdf2-458d-a425-f0ac1fc85d1f","ios":"levelo://app?vid=7ac45ed6-cdf2-458d-a425-f0ac1fc85d1f"},"vehicle_type_id":"4","last_reported":1703091975,"current_range_meters":30800,"station_id":"ce4bhjp2rcd13ifvqga0","pricing_plan_id":"free"},{"bike_id":"8620807d-e7d9-49bd-a224-36b8c79adb00","system_id":"levelo_inurba_marseille","lat":43.303837,"lon":5.418724,"is_reserved":false,"is_disabled":false,"rental_uris":{"android":"levelo://app?vid=8620807d-e7d9-49bd-a224-36b8c79adb00","ios":"levelo://app?vid=8620807d-e7d9-49bd-a224-36b8c79adb00"},"vehicle_type_id":"4","last_reported":1703091975,"current_range_meters":29200,"station_id":"ce4bhop2rcd13ifvqh7g","pricing_plan_id":"free"},{"bike_id":"2cb2918d-7549-4b64-91e8-b946ca7ac185","system_id":"levelo_inurba_marseille","lat":43.278401,"lon":5.392152,"is_reserved":false,"is_disabled":false,"rental_uris":{"android":"levelo://app?vid=2cb2918d-7549-4b64-91e8-b946ca7ac185","ios":"levelo://app?vid=2cb2918d-7549-4b64-91e8-b946ca7ac185"},"vehicle_type_id":"4","last_reported":1703091975,"current_range_meters":3200,"station_id":"ce4bhjp2rcd13ifvqga0","pricing_plan_id":"free"},{"bike_id":"8e0e3e5d-1ce4-40e1-90a7-b49b535f36f2","system_id":"levelo_inurba_marseille","lat":43.279975,"lon":5.40009,"is_reserved":false,"is_disabled":false,"rental_uris":{"android":"levelo://app?vid=8e0e3e5d-1ce4-40e1-90a7-b49b535f36f2","ios":"levelo://app?vid=8e0e3e5d-1ce4-40e1-90a7-b49b535f36f2"},"vehicle_type_id":"4","last_reported":1703091975,"current_range_meters":21200,"station_id":"ce4bho92rcd13ifvqh4g","pricing_plan_id":"free"},{"bike_id":"976596e6-b5d1-46d4-af72-93026ab44ccb","system_id":"levelo_inurba_marseille","lat":43.279952,"lon":5.400085,"is_reserved":false,"is_disabled":false,"rental_uris":{"android":"levelo://app?vid=976596e6-b5d1-46d4-af72-93026ab44ccb","ios":"levelo://app?vid=976596e6-b5d1-46d4-af72-93026ab44ccb"},"vehicle_type_id":"4","last_reported":1703091975,"current_range_meters":20800,"station_id":"ce4bho92rcd13ifvqh4g","pricing_plan_id":"free"},{"bike_id":"6f05fa8e-86ea-415e-a9b2-b3cdbb7d4208","system_id":"levelo_inurba_marseille","lat":43.279975,"lon":5.40009,"is_reserved":false,"is_disabled":false,"rental_uris":{"android":"levelo://app?vid=6f05fa8e-86ea-415e-a9b2-b3cdbb7d4208","ios":"levelo://app?vid=6f05fa8e-86ea-415e-a9b2-b3cdbb7d4208"},"vehicle_type_id":"4","last_reported":1703091975,"current_range_meters":10000,"station_id":"ce4bho92rcd13ifvqh4g","pricing_plan_id":"free"},{"bike_id":"2b4c926e-f2ca-41ef-951f-c915cd8b7982","system_id":"levelo_inurba_marseille","lat":43.279952,"lon":5.400085,"is_reserved":false,"is_disabled":false,"rental_uris":{"android":"levelo://app?vid=2b4c926e-f2ca-41ef-951f-c915cd8b7982","ios":"levelo://app?vid=2b4c926e-f2ca-41ef-951f-c915cd8b7982"},"vehicle_type_id":"4","last_reported":1703091975,"current_range_meters":27200,"station_id":"ce4bho92rcd13ifvqh4g","pricing_plan_id":"free"},{"bike_id":"e62dfa17-99bc-4524-9872-8bf3e64eba1a","system_id":"levelo_inurba_marseille","lat":43.279952,"lon":5.400085,"is_reserved":false,"is_disabled":false,"rental_uris":{"android":"levelo://app?vid=e62dfa17-99bc-4524-9872-8bf3e64eba1a","ios":"levelo://app?vid=e62dfa17-99bc-4524-9872-8bf3e64eba1a"},"vehicle_type_id":"4","last_reported":1703091975,"current_range_meters":8800,"station_id":"ce4bho92rcd13ifvqh4g","pricing_plan_id":"free"},{"bike_id":"d04c46a2-68b4-4f99-b96a-186b6aa7a02e","system_id":"levelo_inurba_marseille","lat":43.317121,"lon":5.423936,"is_reserved":false,"is_disabled":false,"rental_uris":{"android":"levelo://app?vid=d04c46a2-68b4-4f99-b96a-186b6aa7a02e","ios":"levelo://app?vid=d04c46a2-68b4-4f99-b96a-186b6aa7a02e"},"vehicle_type_id":"4","last_reported":1703091975,"current_range_meters":400,"station_id":"ce4bhp92rcd13ifvqhbg","pricing_plan_id":"free"},{"bike_id":"974dc7db-ff3c-4554-8964-132f9db52d9b","system_id":"levelo_inurba_marseille","lat":43.276092,"lon":5.395289,"is_reserved":false,"is_disabled":false,"rental_uris":{"android":"levelo://app?vid=974dc7db-ff3c-4554-8964-132f9db52d9b","ios":"levelo://app?vid=974dc7db-ff3c-4554-8964-132f9db52d9b"},"vehicle_type_id":"4","last_reported":1703091975,"current_range_meters":3200,"station_id":"","pricing_plan_id":"free"},{"bike_id":"50605b45-4805-4bb9-943b-37b59da892f4","system_id":"levelo_inurba_marseille","lat":43.279975,"lon":5.40009,"is_reserved":false,"is_disabled":false,"rental_uris":{"android":"levelo://app?vid=50605b45-4805-4bb9-943b-37b59da892f4","ios":"levelo://app?vid=50605b45-4805-4bb9-943b-37b59da892f4"},"vehicle_type_id":"4","last_reported":1703091975,"current_range_meters":24400,"station_id":"ce4bho92rcd13ifvqh4g","pricing_plan_id":"free"},{"bike_id":"734004f6-e602-435e-82cc-5afccc25a9b9","system_id":"levelo_inurba_marseille","lat":43.274099,"lon":5.394019,"is_reserved":false,"is_disabled":false,"rental_uris":{"android":"levelo://app?vid=734004f6-e602-435e-82cc-5afccc25a9b9","ios":"levelo://app?vid=734004f6-e602-435e-82cc-5afccc25a9b9"},"vehicle_type_id":"4","last_reported":1703091975,"current_range_meters":15200,"station_id":"ce4bhdp2rcd13ifvqf20","pricing_plan_id":"free"},{"bike_id":"9a85d548-bdb3-40d2-8719-dfd102557a84","system_id":"levelo_inurba_marseille","lat":43.273125,"lon":5.390731,"is_reserved":false,"is_disabled":false,"rental_uris":{"android":"levelo://app?vid=9a85d548-bdb3-40d2-8719-dfd102557a84","ios":"levelo://app?vid=9a85d548-bdb3-40d2-8719-dfd102557a84"},"vehicle_type_id":"4","last_reported":1703091975,"current_range_meters":1200,"station_id":"ce4bhgp2rcd13ifvqfe0","pricing_plan_id":"free"},{"bike_id":"bd4ec920-3adc-4c2e-98ca-8474da7a123c","system_id":"levelo_inurba_marseille","lat":43.295511,"lon":5.422926,"is_reserved":false,"is_disabled":false,"rental_uris":{"android":"levelo://app?vid=bd4ec920-3adc-4c2e-98ca-8474da7a123c","ios":"levelo://app?vid=bd4ec920-3adc-4c2e-98ca-8474da7a123c"},"vehicle_type_id":"4","last_reported":1703091975,"current_range_meters":18000,"station_id":"ce4bhph2rcd13ifvqhdg","pricing_plan_id":"free"},{"bike_id":"f5f71290-e09c-4041-b2b4-2ce3e8cff220","system_id":"levelo_inurba_marseille","lat":43.278128,"lon":5.407195,"is_reserved":false,"is_disabled":false,"rental_uris":{"android":"levelo://app?vid=f5f71290-e09c-4041-b2b4-2ce3e8cff220","ios":"levelo://app?vid=f5f71290-e09c-4041-b2b4-2ce3e8cff220"},"vehicle_type_id":"4","last_reported":1703091975,"current_range_meters":16400,"station_id":"ce4bhnh2rcd13ifvqgtg","pricing_plan_id":"free"},{"bike_id":"17bfa877-7312-48a2-a899-42108ebcc443","system_id":"levelo_inurba_marseille","lat":43.278128,"lon":5.407195,"is_reserved":false,"is_disabled":false,"rental_uris":{"android":"levelo://app?vid=17bfa877-7312-48a2-a899-42108ebcc443","ios":"levelo://app?vid=17bfa877-7312-48a2-a899-42108ebcc443"},"vehicle_type_id":"4","last_reported":1703091975,"current_range_meters":20400,"station_id":"ce4bhnh2rcd13ifvqgtg","pricing_plan_id":"free"},{"bike_id":"e11c7c40-5dd8-4e08-8ab5-3f39cd9ffe1c","system_id":"levelo_inurba_marseille","lat":43.269467,"lon":5.386439,"is_reserved":false,"is_disabled":false,"rental_uris":{"android":"levelo://app?vid=e11c7c40-5dd8-4e08-8ab5-3f39cd9ffe1c","ios":"levelo://app?vid=e11c7c40-5dd8-4e08-8ab5-3f39cd9ffe1c"},"vehicle_type_id":"4","last_reported":1703091975,"current_range_meters":22000,"station_id":"ce4bhh92rcd13ifvqfh0","pricing_plan_id":"free"},{"bike_id":"b03150ed-958d-4b81-a3e6-0f91164b2a17","system_id":"levelo_inurba_marseille","lat":43.269319,"lon":5.389397,"is_reserved":false,"is_disabled":false,"rental_uris":{"android":"levelo://app?vid=b03150ed-958d-4b81-a3e6-0f91164b2a17","ios":"levelo://app?vid=b03150ed-958d-4b81-a3e6-0f91164b2a17"},"vehicle_type_id":"4","last_reported":1703091975,"current_range_meters":2400,"station_id":"ce4bhhh2rcd13ifvqfl0","pricing_plan_id":"free"},{"bike_id":"d3bdeec8-1d1f-4c67-ab71-b3a81fab050e","system_id":"levelo_inurba_marseille","lat":43.265714,"lon":5.372891,"is_reserved":false,"is_disabled":false,"rental_uris":{"android":"levelo://app?vid=d3bdeec8-1d1f-4c67-ab71-b3a81fab050e","ios":"levelo://app?vid=d3bdeec8-1d1f-4c67-ab71-b3a81fab050e"},"vehicle_type_id":"4","last_reported":1703091975,"current_range_meters":6000,"station_id":"ce4bhg12rcd13ifvqf70","pricing_plan_id":"free"},{"bike_id":"3b172c21-6d61-425e-9ab7-0b02d76f40f1","system_id":"levelo_inurba_marseille","lat":43.265714,"lon":5.372891,"is_reserved":false,"is_disabled":false,"rental_uris":{"android":"levelo://app?vid=3b172c21-6d61-425e-9ab7-0b02d76f40f1","ios":"levelo://app?vid=3b172c21-6d61-425e-9ab7-0b02d76f40f1"},"vehicle_type_id":"4","last_reported":1703091975,"current_range_meters":0,"station_id":"ce4bhg12rcd13ifvqf70","pricing_plan_id":"free"},{"bike_id":"62a0cfbe-0b99-4541-82ac-4ff9164e4a19","system_id":"levelo_inurba_marseille","lat":43.265714,"lon":5.372891,"is_reserved":false,"is_disabled":false,"rental_uris":{"android":"levelo://app?vid=62a0cfbe-0b99-4541-82ac-4ff9164e4a19","ios":"levelo://app?vid=62a0cfbe-0b99-4541-82ac-4ff9164e4a19"},"vehicle_type_id":"4","last_reported":1703091975,"current_range_meters":8800,"station_id":"ce4bhg12rcd13ifvqf70","pricing_plan_id":"free"},{"bike_id":"999f5cd5-6091-4be5-a448-0b60fb86cda3","system_id":"levelo_inurba_marseille","lat":43.27996,"lon":5.416624,"is_reserved":false,"is_disabled":false,"rental_uris":{"android":"levelo://app?vid=999f5cd5-6091-4be5-a448-0b60fb86cda3","ios":"levelo://app?vid=999f5cd5-6091-4be5-a448-0b60fb86cda3"},"vehicle_type_id":"4","last_reported":1703091975,"current_range_meters":5600,"station_id":"ce4bho12rcd13ifvqh1g","pricing_plan_id":"free"},{"bike_id":"a833b3db-2e0c-483f-bb94-b7d2f80d4229","system_id":"levelo_inurba_marseille","lat":43.267966,"lon":5.393976,"is_reserved":false,"is_disabled":false,"rental_uris":{"android":"levelo://app?vid=a833b3db-2e0c-483f-bb94-b7d2f80d4229","ios":"levelo://app?vid=a833b3db-2e0c-483f-bb94-b7d2f80d4229"},"vehicle_type_id":"4","last_reported":1703091975,"current_range_meters":16000,"station_id":"ce4bhh12rcd13ifvqfg0","pricing_plan_id":"free"},{"bike_id":"ad68354b-d6c3-4f16-a649-b36722f12dfb","system_id":"levelo_inurba_marseille","lat":43.308051,"lon":5.43527,"is_reserved":false,"is_disabled":false,"rental_uris":{"android":"levelo://app?vid=ad68354b-d6c3-4f16-a649-b36722f12dfb","ios":"levelo://app?vid=ad68354b-d6c3-4f16-a649-b36722f12dfb"},"vehicle_type_id":"4","last_reported":1703091975,"current_range_meters":2000,"station_id":"ce4bhph2rcd13ifvqheg","pricing_plan_id":"free"},{"bike_id":"aee58545-1074-462e-bac4-78e58b3851b8","system_id":"levelo_inurba_marseille","lat":43.308051,"lon":5.43527,"is_reserved":false,"is_disabled":false,"rental_uris":{"android":"levelo://app?vid=aee58545-1074-462e-bac4-78e58b3851b8","ios":"levelo://app?vid=aee58545-1074-462e-bac4-78e58b3851b8"},"vehicle_type_id":"4","last_reported":1703091975,"current_range_meters":31200,"station_id":"ce4bhph2rcd13ifvqheg","pricing_plan_id":"free"},{"bike_id":"5486a5cd-983c-411f-8da9-9d9a4be673bf","system_id":"levelo_inurba_marseille","lat":43.265569,"lon":5.390047,"is_reserved":false,"is_disabled":false,"rental_uris":{"android":"levelo://app?vid=5486a5cd-983c-411f-8da9-9d9a4be673bf","ios":"levelo://app?vid=5486a5cd-983c-411f-8da9-9d9a4be673bf"},"vehicle_type_id":"4","last_reported":1703091975,"current_range_meters":15600,"station_id":"ce4bhe12rcd13ifvqf30","pricing_plan_id":"free"},{"bike_id":"1eb8b81b-42d7-4e70-af00-0801906ce501","system_id":"levelo_inurba_marseille","lat":43.265571,"lon":5.390032,"is_reserved":false,"is_disabled":false,"rental_uris":{"android":"levelo://app?vid=1eb8b81b-42d7-4e70-af00-0801906ce501","ios":"levelo://app?vid=1eb8b81b-42d7-4e70-af00-0801906ce501"},"vehicle_type_id":"4","last_reported":1703091975,"current_range_meters":0,"station_id":"ce4bhe12rcd13ifvqf30","pricing_plan_id":"free"},{"bike_id":"95592f76-bb9a-43df-a1c5-ec9e34e3aeb5","system_id":"levelo_inurba_marseille","lat":43.26947,"lon":5.40248,"is_reserved":false,"is_disabled":false,"rental_uris":{"android":"levelo://app?vid=95592f76-bb9a-43df-a1c5-ec9e34e3aeb5","ios":"levelo://app?vid=95592f76-bb9a-43df-a1c5-ec9e34e3aeb5"},"vehicle_type_id":"4","last_reported":1703091975,"current_range_meters":0,"station_id":"cjm6bp8fraef2m0cb0m0","pricing_plan_id":"free"},{"bike_id":"2826f8cb-6d16-4ed9-b1fb-7b9914f84c2e","system_id":"levelo_inurba_marseille","lat":43.26949,"lon":5.40262,"is_reserved":false,"is_disabled":false,"rental_uris":{"android":"levelo://app?vid=2826f8cb-6d16-4ed9-b1fb-7b9914f84c2e","ios":"levelo://app?vid=2826f8cb-6d16-4ed9-b1fb-7b9914f84c2e"},"vehicle_type_id":"4","last_reported":1703091975,"current_range_meters":20400,"station_id":"cjm6bp8fraef2m0cb0m0","pricing_plan_id":"free"},{"bike_id":"7c7bda9c-0c24-4a9a-a682-69088dd9a72b","system_id":"levelo_inurba_marseille","lat":43.26949,"lon":5.40262,"is_reserved":false,"is_disabled":false,"rental_uris":{"android":"levelo://app?vid=7c7bda9c-0c24-4a9a-a682-69088dd9a72b","ios":"levelo://app?vid=7c7bda9c-0c24-4a9a-a682-69088dd9a72b"},"vehicle_type_id":"4","last_reported":1703091975,"current_range_meters":4000,"station_id":"cjm6bp8fraef2m0cb0m0","pricing_plan_id":"free"},{"bike_id":"29880cef-967b-4edc-bc26-8af0c55f8c9f","system_id":"levelo_inurba_marseille","lat":43.26949,"lon":5.40262,"is_reserved":false,"is_disabled":false,"rental_uris":{"android":"levelo://app?vid=29880cef-967b-4edc-bc26-8af0c55f8c9f","ios":"levelo://app?vid=29880cef-967b-4edc-bc26-8af0c55f8c9f"},"vehicle_type_id":"4","last_reported":1703091975,"current_range_meters":6000,"station_id":"cjm6bp8fraef2m0cb0m0","pricing_plan_id":"free"},{"bike_id":"ad28e483-36d4-48ac-9e0f-b7d268ca9026","system_id":"levelo_inurba_marseille","lat":43.271388,"lon":5.409269,"is_reserved":false,"is_disabled":false,"rental_uris":{"android":"levelo://app?vid=ad28e483-36d4-48ac-9e0f-b7d268ca9026","ios":"levelo://app?vid=ad28e483-36d4-48ac-9e0f-b7d268ca9026"},"vehicle_type_id":"4","last_reported":1703091975,"current_range_meters":10800,"station_id":"ce4bhl12rcd13ifvqgf0","pricing_plan_id":"free"},{"bike_id":"e0b195a2-9b60-4f57-bd9a-279d4707cc40","system_id":"levelo_inurba_marseille","lat":43.271388,"lon":5.409269,"is_reserved":false,"is_disabled":false,"rental_uris":{"android":"levelo://app?vid=e0b195a2-9b60-4f57-bd9a-279d4707cc40","ios":"levelo://app?vid=e0b195a2-9b60-4f57-bd9a-279d4707cc40"},"vehicle_type_id":"4","last_reported":1703091975,"current_range_meters":26000,"station_id":"ce4bhl12rcd13ifvqgf0","pricing_plan_id":"free"},{"bike_id":"fe1db1eb-ca4b-453f-8b5d-1c16af2b9569","system_id":"levelo_inurba_marseille","lat":43.26498,"lon":5.39546,"is_reserved":false,"is_disabled":false,"rental_uris":{"android":"levelo://app?vid=fe1db1eb-ca4b-453f-8b5d-1c16af2b9569","ios":"levelo://app?vid=fe1db1eb-ca4b-453f-8b5d-1c16af2b9569"},"vehicle_type_id":"4","last_reported":1703091975,"current_range_meters":18400,"station_id":"","pricing_plan_id":"free"},{"bike_id":"fc1c3b26-4abe-4440-b379-7ef61123bdd5","system_id":"levelo_inurba_marseille","lat":43.26493,"lon":5.39551,"is_reserved":false,"is_disabled":false,"rental_uris":{"android":"levelo://app?vid=fc1c3b26-4abe-4440-b379-7ef61123bdd5","ios":"levelo://app?vid=fc1c3b26-4abe-4440-b379-7ef61123bdd5"},"vehicle_type_id":"4","last_reported":1703091975,"current_range_meters":16000,"station_id":"","pricing_plan_id":"free"},{"bike_id":"1686fa15-0925-40b1-879b-c693042ec371","system_id":"levelo_inurba_marseille","lat":43.28155,"lon":5.42636,"is_reserved":false,"is_disabled":false,"rental_uris":{"android":"levelo://app?vid=1686fa15-0925-40b1-879b-c693042ec371","ios":"levelo://app?vid=1686fa15-0925-40b1-879b-c693042ec371"},"vehicle_type_id":"4","last_reported":1703091975,"current_range_meters":18000,"station_id":"ce4bhnh2rcd13ifvqgug","pricing_plan_id":"free"},{"bike_id":"184721d2-31bf-44d9-bb0d-05fdc6e3ff97","system_id":"levelo_inurba_marseille","lat":43.2607,"lon":5.393983,"is_reserved":false,"is_disabled":false,"rental_uris":{"android":"levelo://app?vid=184721d2-31bf-44d9-bb0d-05fdc6e3ff97","ios":"levelo://app?vid=184721d2-31bf-44d9-bb0d-05fdc6e3ff97"},"vehicle_type_id":"4","last_reported":1703091975,"current_range_meters":31200,"station_id":"ce4bhh92rcd13ifvqfj0","pricing_plan_id":"free"},{"bike_id":"3ab50a93-2c26-4336-b958-d1b9ea0bf095","system_id":"levelo_inurba_marseille","lat":43.2607,"lon":5.393983,"is_reserved":false,"is_disabled":false,"rental_uris":{"android":"levelo://app?vid=3ab50a93-2c26-4336-b958-d1b9ea0bf095","ios":"levelo://app?vid=3ab50a93-2c26-4336-b958-d1b9ea0bf095"},"vehicle_type_id":"4","last_reported":1703091975,"current_range_meters":18400,"station_id":"ce4bhh92rcd13ifvqfj0","pricing_plan_id":"free"},{"bike_id":"c7eda4fa-de3e-4aaf-8d64-af71222663dd","system_id":"levelo_inurba_marseille","lat":43.26826,"lon":5.41505,"is_reserved":false,"is_disabled":false,"rental_uris":{"android":"levelo://app?vid=c7eda4fa-de3e-4aaf-8d64-af71222663dd","ios":"levelo://app?vid=c7eda4fa-de3e-4aaf-8d64-af71222663dd"},"vehicle_type_id":"4","last_reported":1703091975,"current_range_meters":0,"station_id":"","pricing_plan_id":"free"},{"bike_id":"cd8cad3f-2bc6-4d72-a0fb-24bd4e8b97bc","system_id":"levelo_inurba_marseille","lat":43.25588,"lon":5.38234,"is_reserved":false,"is_disabled":false,"rental_uris":{"android":"levelo://app?vid=cd8cad3f-2bc6-4d72-a0fb-24bd4e8b97bc","ios":"levelo://app?vid=cd8cad3f-2bc6-4d72-a0fb-24bd4e8b97bc"},"vehicle_type_id":"4","last_reported":1703091975,"current_range_meters":26800,"station_id":"ce4bhih2rcd13ifvqfs0","pricing_plan_id":"free"},{"bike_id":"997b02f0-8e98-4301-b2c2-c2a034fb8570","system_id":"levelo_inurba_marseille","lat":43.25585,"lon":5.38224,"is_reserved":false,"is_disabled":false,"rental_uris":{"android":"levelo://app?vid=997b02f0-8e98-4301-b2c2-c2a034fb8570","ios":"levelo://app?vid=997b02f0-8e98-4301-b2c2-c2a034fb8570"},"vehicle_type_id":"4","last_reported":1703091975,"current_range_meters":26800,"station_id":"ce4bhih2rcd13ifvqfs0","pricing_plan_id":"free"},{"bike_id":"9a825d36-15b8-4b21-ad36-1c9e9958b05d","system_id":"levelo_inurba_marseille","lat":43.258224,"lon":5.394369,"is_reserved":false,"is_disabled":false,"rental_uris":{"android":"levelo://app?vid=9a825d36-15b8-4b21-ad36-1c9e9958b05d","ios":"levelo://app?vid=9a825d36-15b8-4b21-ad36-1c9e9958b05d"},"vehicle_type_id":"4","last_reported":1703091975,"current_range_meters":24400,"station_id":"ce4bhip2rcd13ifvqft0","pricing_plan_id":"free"},{"bike_id":"fe811f39-0c67-4c0d-adfd-810e7c89b61b","system_id":"levelo_inurba_marseille","lat":43.255756,"lon":5.382303,"is_reserved":false,"is_disabled":false,"rental_uris":{"android":"levelo://app?vid=fe811f39-0c67-4c0d-adfd-810e7c89b61b","ios":"levelo://app?vid=fe811f39-0c67-4c0d-adfd-810e7c89b61b"},"vehicle_type_id":"4","last_reported":1703091975,"current_range_meters":26000,"station_id":"ce4bhih2rcd13ifvqfs0","pricing_plan_id":"free"},{"bike_id":"18b25642-3c4a-468a-8798-2659860f6209","system_id":"levelo_inurba_marseille","lat":43.255756,"lon":5.382303,"is_reserved":false,"is_disabled":false,"rental_uris":{"android":"levelo://app?vid=18b25642-3c4a-468a-8798-2659860f6209","ios":"levelo://app?vid=18b25642-3c4a-468a-8798-2659860f6209"},"vehicle_type_id":"4","last_reported":1703091975,"current_range_meters":21600,"station_id":"ce4bhih2rcd13ifvqfs0","pricing_plan_id":"free"},{"bike_id":"cd9d6143-f7d5-4734-b3fb-a582026bf438","system_id":"levelo_inurba_marseille","lat":43.25828,"lon":5.39435,"is_reserved":false,"is_disabled":false,"rental_uris":{"android":"levelo://app?vid=cd9d6143-f7d5-4734-b3fb-a582026bf438","ios":"levelo://app?vid=cd9d6143-f7d5-4734-b3fb-a582026bf438"},"vehicle_type_id":"4","last_reported":1703091975,"current_range_meters":4400,"station_id":"ce4bhip2rcd13ifvqft0","pricing_plan_id":"free"},