{"last_updated":1729192105,"ttl":60,"version":"2.2","data":{"bikes":[{"bike_id":"ad3740dd-d1ed-4d39-a629-64e6b998150a","system_id":"levelo_inurba_marseille","lat":43.25108,"lon":5.40322,"is_reserved":false,"is_disabled":false,"rental_uris":{"android":"levelo://app?vid=ad3740dd-d1ed-4d39-a629-64e6b998150a","ios":"levelo://app?vid=ad3740dd-d1ed-4d39-a629-64e6b998150a"},"vehicle_type_id":"4","last_reported":1729192105,"current_range_meters":19200,"station_id":"ce4bhlh2rcd13ifvqgig","pricing_plan_id":"cebpf4jnsgd1na2vs0mg"},{"bike_id":"8f355697-e1aa-42aa-83d9-207d0aa44914","system_id":"levelo_inurba_marseille","lat":43.29724,"lon":5.37691,"is_reserved":false,"is_disabled":false,"rental_uris":{"android":"levelo://app?vid=8f355697-e1aa-42aa-83d9-207d0aa44914","ios":"levelo://app?vid=8f355697-e1aa-42aa-83d9-207d0aa44914"},"vehicle_type_id":"4","last_reported":1729192105,"current_range_meters":38800,"station_id":"ce4bgkh2rcd13ifvqbl0","pricing_plan_id":"cebpf4jnsgd1na2vs0mg"},{"bike_id":"78b7cb3b-80c9-48b4-a04e-17032e221c41","system_id":"levelo_inurba_marseille","lat":43.31762,"lon":5.39013,"is_reserved":false,"is_disabled":false,"rental_uris":{"android":"levelo://app?vid=78b7cb3b-80c9-48b4-a04e-17032e221c41","ios":"levelo://app?vid=78b7cb3b-80c9-48b4-a04e-17032e221c41"},"vehicle_type_id":"4","last_reported":1729192105,"current_range_meters":32400,"station_id":"ce4bhqp2rcd13ifvqhng","pricing_plan_id":"cebpf4jnsgd1na2vs0mg"},{"bike_id":"676ec6c4-6b42-43e0-81fe-327782965da5","system_id":"levelo_inurba_marseille","lat":43.33765,"lon":5.37484,"is_reserved":false,"is_disabled":false,"rental_uris":{"android":"levelo://app?vid=676ec6c4-6b42-43e0-81fe-327782965da5","ios":"levelo://app?vid=676ec6c4-6b42-43e0-81fe-327782965da5"},"vehicle_type_id":"4","last_reported":1729192105,"current_range_meters":21600,"station_id":"","pricing_plan_id":"cebpf4jnsgd1na2vs0mg"},{"bike_id":"468ee845-12e0-4809-ac44-2cf45923d150","system_id":"levelo_inurba_marseille","lat":43.29688,"lon":5.3729,"is_reserved":false,"is_disabled":false,"rental_uris":{"android":"levelo://app?vid=468ee845-12e0-4809-ac44-2cf45923d150","ios":"levelo://app?vid=468ee845-12e0-4809-ac44-2cf45923d150"},"vehicle_type_id":"4","last_reported":1729192105,"current_range_meters":37600,"station_id":"ce4bgk12rcd13ifvqbj0","pricing_plan_id":"cebpf4jnsgd1na2vs0mg"},{"bike_id":"873b7859-b3be-4cb3-9e0e-beff71b24f5b","system_id":"levelo_inurba_marseille","lat":43.31326,"lon":5.39687,"is_reserved":false,"is_disabled":false,"rental_uris":{"android":"levelo://app?vid=873b7859-b3be-4cb3-9e0e-beff71b24f5b","ios":"levelo://app?vid=873b7859-b3be-4cb3-9e0e-beff71b24f5b"},"vehicle_type_id":"4","last_reported":1729192105,"current_range_meters":24400,"station_id":"ce4bgvp2rcd13ifvqcu0","pricing_plan_id":"cebpf4jnsgd1na2vs0mg"},{"bike_id":"a197b021-dd74-482e-a732-42d0cf90c00d","system_id":"levelo_inurba_marseille","lat":43.31085,"lon":5.42436,"is_reserved":false,"is_disabled":false,"rental_uris":{"android":"levelo://app?vid=a197b021-dd74-482e-a732-42d0cf90c00d","ios":"levelo://app?vid=a197b021-dd74-482e-a732-42d0cf90c00d"},"vehicle_type_id":"4","last_reported":1729192105,"current_range_meters":8800,"station_id":"ce4bhp92rcd13ifvqhag","pricing_plan_id":"cebpf4jnsgd1na2vs0mg"},{"bike_id":"7d6759b7-5143-4f9a-9166-ec0f2a679981","system_id":"levelo_inurba_marseille","lat":43.31361,"lon":5.38499,"is_reserved":false,"is_disabled":false,"rental_uris":{"android":"levelo://app?vid=7d6759b7-5143-4f9a-9166-ec0f2a679981","ios":"levelo://app?vid=7d6759b7-5143-4f9a-9166-ec0f2a679981"},"vehicle_type_id":"4","last_reported":1729192105,"current_range_meters":36400,"station_id":"ce4bgt92rcd13ifvqcf0","pricing_plan_id":"cebpf4jnsgd1na2vs0mg"},{"bike_id":"53151744-0c5d-4345-81b4-b6da3d6c99a4","system_id":"levelo_inurba_marseille","lat":43.28268,"lon":5.35067,"is_reserved":false,"is_disabled":false,"rental_uris":{"android":"levelo://app?vid=53151744-0c5d-4345-81b4-b6da3d6c99a4","ios":"levelo://app?vid=53151744-0c5d-4345-81b4-b6da3d6c99a4"},"vehicle_type_id":"4","last_reported":1729192105,"current_range_meters":4800,"station_id":"ce4bhbp2rcd13ifvqerg","pricing_plan_id":"cebpf4jnsgd1na2vs0mg"},{"bike_id":"a7a9c125-54d9-440d-847f-49ac30798c25","system_id":"levelo_inurba_marseille","lat":43.31175,"lon":5.38717,"is_reserved":false,"is_disabled":false,"rental_uris":{"android":"levelo://app?vid=a7a9c125-54d9-440d-847f-49ac30798c25","ios":"levelo://app?vid=a7a9c125-54d9-440d-847f-49ac30798c25"},"vehicle_type_id":"4","last_reported":1729192105,"current_range_meters":39200,"station_id":"ce4bgv12rcd13ifvqcp0","pricing_plan_id":"cebpf4jnsgd1na2vs0mg"},{"bike_id":"3f66dd1c-9be6-4b94-886c-d04770b03feb","system_id":"levelo_inurba_marseille","lat":43.33024,"lon":5.39039,"is_reserved":false,"is_disabled":false,"rental_uris":{"android":"levelo://app?vid=3f66dd1c-9be6-4b94-886c-d04770b03feb","ios":"levelo://app?vid=3f66dd1c-9be6-4b94-886c-d04770b03feb"},"vehicle_type_id":"4","last_reported":1729192105,"current_range_meters":6000,"station_id":"ce4bhr92rcd13ifvqhrg","pricing_plan_id":"cebpf4jnsgd1na2vs0mg"},{"bike_id":"29689e71-334c-4200-aca7-1d7023ddf226","system_id":"levelo_inurba_marseille","lat":43.32287,"lon":5.3828,"is_reserved":false,"is_disabled":false,"rental_uris":{"android":"levelo://app?vid=29689e71-334c-4200-aca7-1d7023ddf226","ios":"levelo://app?vid=29689e71-334c-4200-aca7-1d7023ddf226"},"vehicle_type_id":"4","last_reported":1729192105,"current_range_meters":39200,"station_id":"ce4bhr12rcd13ifvqhqg","pricing_plan_id":"cebpf4jnsgd1na2vs0mg"},{"bike_id":"0e9ad9af-e89b-412e-a7df-344fe8f113f7","system_id":"levelo_inurba_marseille","lat":43.24998,"lon":5.38928,"is_reserved":false,"is_disabled":false,"rental_uris":{"android":"levelo://app?vid=0e9ad9af-e89b-412e-a7df-344fe8f113f7","ios":"levelo://app?vid=0e9ad9af-e89b-412e-a7df-344fe8f113f7"},"vehicle_type_id":"4","last_reported":1729192105,"current_range_meters":39200,"station_id":"ce4bhgp2rcd13ifvqfd0","pricing_plan_id":"cebpf4jnsgd1na2vs0mg"},{"bike_id":"91ac8fa7-b7c8-4143-be6d-e2ffbaedc096","system_id":"levelo_inurba_marseille","lat":43.270892,"lon":5.42339,"is_reserved":false,"is_disabled":false,"rental_uris":{"android":"levelo://app?vid=91ac8fa7-b7c8-4143-be6d-e2ffbaedc096","ios":"levelo://app?vid=91ac8fa7-b7c8-4143-be6d-e2ffbaedc096"},"vehicle_type_id":"4","last_reported":1729192105,"current_range_meters":4000,"station_id":"ce4bhk92rcd13ifvqgb0","pricing_plan_id":"cebpf4jnsgd1na2vs0mg"},{"bike_id":"3e4928a2-35b2-400a-8538-2c0e1cef19dd","system_id":"levelo_inurba_marseille","lat":43.29415,"lon":5.38624,"is_reserved":false,"is_disabled":false,"rental_uris":{"android":"levelo://app?vid=3e4928a2-35b2-400a-8538-2c0e1cef19dd","ios":"levelo://app?vid=3e4928a2-35b2-400a-8538-2c0e1cef19dd"},"vehicle_type_id":"4","last_reported":1729192105,"current_range_meters":38800,"station_id":"ce4bh2h2rcd13ifvqdh0","pricing_plan_id":"cebpf4jnsgd1na2vs0mg"},{"bike_id":"69b82cb4-9cb7-487d-bddc-2672459fd16e","system_id":"levelo_inurba_marseille","lat":43.29678,"lon":5.37296,"is_reserved":false,"is_disabled":false,"rental_uris":{"android":"levelo://app?vid=69b82cb4-9cb7-487d-bddc-2672459fd16e","ios":"levelo://app?vid=69b82cb4-9cb7-487d-bddc-2672459fd16e"},"vehicle_type_id":"4","last_reported":1729192105,"current_range_meters":38400,"station_id":"ce4bgk12rcd13ifvqbj0","pricing_plan_id":"cebpf4jnsgd1na2vs0mg"},{"bike_id":"4c9f75f2-9739-4dbb-81f3-1b20de756db3","system_id":"levelo_inurba_marseille","lat":43.29412,"lon":5.38615,"is_reserved":false,"is_disabled":false,"rental_uris":{"android":"levelo://app?vid=4c9f75f2-9739-4dbb-81f3-1b20de756db3","ios":"levelo://app?vid=4c9f75f2-9739-4dbb-81f3-1b20de756db3"},"vehicle_type_id":"4","last_reported":1729192105,"current_range_meters":32800,"station_id":"ce4bh2h2rcd13ifvqdh0","pricing_plan_id":"cebpf4jnsgd1na2vs0mg"},{"bike_id":"a71414de-d2ee-4a17-94ea-50f620ba8558","system_id":"levelo_inurba_marseille","lat":43.28419,"lon":5.34992,"is_reserved":false,"is_disabled":false,"rental_uris":{"android":"levelo://app?vid=a71414de-d2ee-4a17-94ea-50f620ba8558","ios":"levelo://app?vid=a71414de-d2ee-4a17-94ea-50f620ba8558"},"vehicle_type_id":"4","last_reported":1729192105,"current_range_meters":39200,"station_id":"ce4bhbh2rcd13ifvqepg","pricing_plan_id":"cebpf4jnsgd1na2vs0mg"},{"bike_id":"58f1231d-871d-4dfd-8ffe-5d8f562d27ee","system_id":"levelo_inurba_marseille","lat":43.29557,"lon":5.42285,"is_reserved":false,"is_disabled":false,"rental_uris":{"android":"levelo://app?vid=58f1231d-871d-4dfd-8ffe-5d8f562d27ee","ios":"levelo://app?vid=58f1231d-871d-4dfd-8ffe-5d8f562d27ee"},"vehicle_type_id":"4","last_reported":1729192105,"current_range_meters":24400,"station_id":"ce4bhph2rcd13ifvqhdg","pricing_plan_id":"cebpf4jnsgd1na2vs0mg"},{"bike_id":"4ae2c184-8c50-452d-87fb-8f7bf4f540f3","system_id":"levelo_inurba_marseille","lat":43.24656,"lon":5.38897,"is_reserved":false,"is_disabled":false,"rental_uris":{"android":"levelo://app?vid=4ae2c184-8c50-452d-87fb-8f7bf4f540f3","ios":"levelo://app?vid=4ae2c184-8c50-452d-87fb-8f7bf4f540f3"},"vehicle_type_id":"4","last_reported":1729192105,"current_range_meters":39200,"station_id":"ce4bhg12rcd13ifvqf60","pricing_plan_id":"cebpf4jnsgd1na2vs0mg"},{"bike_id":"791641b8-dabe-4982-982b-c8e7fc7abd5d","system_id":"levelo_inurba_marseille","lat":43.25127,"lon":5.40325,"is_reserved":false,"is_disabled":false,"rental_uris":{"android":"levelo://app?vid=791641b8-dabe-4982-982b-c8e7fc7abd5d","ios":"levelo://app?vid=791641b8-dabe-4982-982b-c8e7fc7abd5d"},"vehicle_type_id":"4","last_reported":1729192105,"current_range_meters":14400,"station_id":"ce4bhlh2rcd13ifvqgig","pricing_plan_id":"cebpf4jnsgd1na2vs0mg"},{"bike_id":"ccb21c06-b27a-4307-9e7c-1a0e8140fade","system_id":"levelo_inurba_marseille","lat":43.28455,"lon":5.35885,"is_reserved":false,"is_disabled":false,"rental_uris":{"android":"levelo://app?vid=ccb21c06-b27a-4307-9e7c-1a0e8140fade","ios":"levelo://app?vid=ccb21c06-b27a-4307-9e7c-1a0e8140fade"},"vehicle_type_id":"4","last_reported":1729192105,"current_range_meters":31200,"station_id":"ce4bhah2rcd13ifvqei0","pricing_plan_id":"cebpf4jnsgd1na2vs0mg"},{"bike_id":"2ada4cf5-dc3d-4f56-b6e4-69166a6b9590","system_id":"levelo_inurba_marseille","lat":43.2997,"lon":5.37191,"is_reserved":false,"is_disabled":false,"rental_uris":{"android":"levelo://app?vid=2ada4cf5-dc3d-4f56-b6e4-69166a6b9590","ios":"levelo://app?vid=2ada4cf5-dc3d-4f56-b6e4-69166a6b9590"},"vehicle_type_id":"4","last_reported":1729192105,"current_range_meters":38000,"station_id":"ce4bgr92rcd13ifvqc7g","pricing_plan_id":"cebpf4jnsgd1na2vs0mg"},{"bike_id":"7668ac82-f874-422b-bc29-d2ba352a44eb","system_id":"levelo_inurba_marseille","lat":43.25112,"lon":5.40325,"is_reserved":false,"is_disabled":false,"rental_uris":{"android":"levelo://app?vid=7668ac82-f874-422b-bc29-d2ba352a44eb","ios":"levelo://app?vid=7668ac82-f874-422b-bc29-d2ba352a44eb"},"vehicle_type_id":"4","last_reported":1729192105,"current_range_meters":38800,"station_id":"ce4bhlh2rcd13ifvqgig","pricing_plan_id":"cebpf4jnsgd1na2vs0mg"},{"bike_id":"5a4320fd-668e-47a8-9a0f-748e783877c2","system_id":"levelo_inurba_marseille","lat":43.31709,"lon":5.43715,"is_reserved":false,"is_disabled":false,"rental_uris":{"android":"levelo://app?vid=5a4320fd-668e-47a8-9a0f-748e783877c2","ios":"levelo://app?vid=5a4320fd-668e-47a8-9a0f-748e783877c2"},"vehicle_type_id":"4","last_reported":1729192105,"current_range_meters":20000,"station_id":"ce4bhp92rcd13ifvqhcg","pricing_plan_id":"cebpf4jnsgd1na2vs0mg"},{"bike_id":"2e411cf8-fb6f-4fb1-8e34-d915fe729c6a","system_id":"levelo_inurba_marseille","lat":43.29028,"lon":5.35932,"is_reserved":false,"is_disabled":false,"rental_uris":{"android":"levelo://app?vid=2e411cf8-fb6f-4fb1-8e34-d915fe729c6a","ios":"levelo://app?vid=2e411cf8-fb6f-4fb1-8e34-d915fe729c6a"},"vehicle_type_id":"4","last_reported":1729192105,"current_range_meters":8800,"station_id":"ce4bha92rcd13ifvqeg0","pricing_plan_id":"cebpf4jnsgd1na2vs0mg"},{"bike_id":"ba385696-1c00-4366-b0a7-b17da0e20789","system_id":"levelo_inurba_marseille","lat":43.31763,"lon":5.39009,"is_reserved":false,"is_disabled":false,"rental_uris":{"android":"levelo://app?vid=ba385696-1c00-4366-b0a7-b17da0e20789","ios":"levelo://app?vid=ba385696-1c00-4366-b0a7-b17da0e20789"},"vehicle_type_id":"4","last_reported":1729192105,"current_range_meters":10800,"station_id":"ce4bhqp2rcd13ifvqhng","pricing_plan_id":"cebpf4jnsgd1na2vs0mg"},{"bike_id":"3bf3ae38-ab55-4836-af40-8cc2a216feba","system_id":"levelo_inurba_marseille","lat":43.27318,"lon":5.42031,"is_reserved":false,"is_disabled":false,"rental_uris":{"android":"levelo://app?vid=3bf3ae38-ab55-4836-af40-8cc2a216feba","ios":"levelo://app?vid=3bf3ae38-ab55-4836-af40-8cc2a216feba"},"vehicle_type_id":"4","last_reported":1729192105,"current_range_meters":31200,"station_id":"ce4bhk92rcd13ifvqgb0","pricing_plan_id":"cebpf4jnsgd1na2vs0mg"},{"bike_id":"d5d87b96-496a-454b-9e81-b0e5a09c72cf","system_id":"levelo_inurba_marseille","lat":43.28607,"lon":5.37072,"is_reserved":false,"is_disabled":false,"rental_uris":{"android":"levelo://app?vid=d5d87b96-496a-454b-9e81-b0e5a09c72cf","ios":"levelo://app?vid=d5d87b96-496a-454b-9e81-b0e5a09c72cf"},"vehicle_type_id":"4","last_reported":1729192105,"current_range_meters":38800,"station_id":"ce4bht12rcd13ifvqi60","pricing_plan_id":"cebpf4jnsgd1na2vs0mg"},{"bike_id":"052b3563-392a-4857-8174-027696f961ab","system_id":"levelo_inurba_marseille","lat":43.24631,"lon":5.38899,"is_reserved":false,"is_disabled":false,"rental_uris":{"android":"levelo://app?vid=052b3563-392a-4857-8174-027696f961ab","ios":"levelo://app?vid=052b3563-392a-4857-8174-027696f961ab"},"vehicle_type_id":"4","last_reported":1729192105,"current_range_meters":22800,"station_id":"ce4bhg12rcd13ifvqf60","pricing_plan_id":"cebpf4jnsgd1na2vs0mg"},{"bike_id":"9373f069-8b2b-4182-971f-b65229ad60e9","system_id":"levelo_inurba_marseille","lat":43.34154,"lon":5.40899,"is_reserved":false,"is_disabled":false,"rental_uris":{"android":"levelo://app?vid=9373f069-8b2b-4182-971f-b65229ad60e9","ios":"levelo://app?vid=9373f069-8b2b-4182-971f-b65229ad60e9"},"vehicle_type_id":"4","last_reported":1729192105,"current_range_meters":38000,"station_id":"ce4bhqh2rcd13ifvqhlg","pricing_plan_id":"cebpf4jnsgd1na2vs0mg"},{"bike_id":"937a3f13-9596-43de-8817-cbbac6a7dc35","system_id":"levelo_inurba_marseille","lat":43.3176,"lon":5.39017,"is_reserved":false,"is_disabled":false,"rental_uris":{"android":"levelo://app?vid=937a3f13-9596-43de-8817-cbbac6a7dc35","ios":"levelo://app?vid=937a3f13-9596-43de-8817-cbbac6a7dc35"},"vehicle_type_id":"4","last_reported":1729192105,"current_range_meters":24000,"station_id":"ce4bhqp2rcd13ifvqhng","pricing_plan_id":"cebpf4jnsgd1na2vs0mg"},{"bike_id":"928e9932-3e65-4cad-a3ff-9bc5774ced49","system_id":"levelo_inurba_marseille","lat":43.29528,"lon":5.38551,"is_reserved":false,"is_disabled":false,"rental_uris":{"android":"levelo://app?vid=928e9932-3e65-4cad-a3ff-9bc5774ced49","ios":"levelo://app?vid=928e9932-3e65-4cad-a3ff-9bc5774ced49"},"vehicle_type_id":"4","last_reported":1729192105,"current_range_meters":17200,"station_id":"ce4bgih2rcd13ifvqba0","pricing_plan_id":"cebpf4jnsgd1na2vs0mg"},{"bike_id":"6e353322-bd9b-4745-bd15-5feb8ba1cb12","system_id":"levelo_inurba_marseille","lat":43.25728,"lon":5.41113,"is_reserved":false,"is_disabled":false,"rental_uris":{"android":"levelo://app?vid=6e353322-bd9b-4745-bd15-5feb8ba1cb12","ios":"levelo://app?vid=6e353322-bd9b-4745-bd15-5feb8ba1cb12"},"vehicle_type_id":"4","last_reported":1729192105,"current_range_meters":10000,"station_id":"ce4bhkp2rcd13ifvqgd0","pricing_plan_id":"cebpf4jnsgd1na2vs0mg"},{"bike_id":"58c69b12-7467-4279-b980-9aa21ca6358f","system_id":"levelo_inurba_marseille","lat":43.23963,"lon":5.36634,"is_reserved":false,"is_disabled":false,"rental_uris":{"android":"levelo://app?vid=58c69b12-7467-4279-b980-9aa21ca6358f","ios":"levelo://app?vid=58c69b12-7467-4279-b980-9aa21ca6358f"},"vehicle_type_id":"4","last_reported":1729192105,"current_range_meters":27600,"station_id":"ce4bhi12rcd13ifvqfp0","pricing_plan_id":"cebpf4jnsgd1na2vs0mg"},{"bike_id":"6edfbb9f-50f6-4551-b2e8-488a098f6ca1","system_id":"levelo_inurba_marseille","lat":43.28076,"lon":5.39658,"is_reserved":false,"is_disabled":false,"rental_uris":{"android":"levelo://app?vid=6edfbb9f-50f6-4551-b2e8-488a098f6ca1","ios":"levelo://app?vid=6edfbb9f-50f6-4551-b2e8-488a098f6ca1"},"vehicle_type_id":"4","last_reported":1729192105,"current_range_meters":38000,"station_id":"ce4bho12rcd13ifvqh2g","pricing_plan_id":"cebpf4jnsgd1na2vs0mg"},{"bike_id":"9a2f8233-dbca-46a1-a89b-4f356949fe08","system_id":"levelo_inurba_marseille","lat":43.31489,"lon":5.37309,"is_reserved":false,"is_disabled":false,"rental_uris":{"android":"levelo://app?vid=9a2f8233-dbca-46a1-a89b-4f356949fe08","ios":"levelo://app?vid=9a2f8233-dbca-46a1-a89b-4f356949fe08"},"vehicle_type_id":"4","last_reported":1729192105,"current_range_meters":13600,"station_id":"ce4bgt12rcd13ifvqcd0","pricing_plan_id":"cebpf4jnsgd1na2vs0mg"},{"bike_id":"a4e662bf-28b9-4ec7-85f7-a88ca0454b49","system_id":"levelo_inurba_marseille","lat":43.29531,"lon":5.39042,"is_reserved":false,"is_disabled":false,"rental_uris":{"android":"levelo://app?vid=a4e662bf-28b9-4ec7-85f7-a88ca0454b49","ios":"levelo://app?vid=a4e662bf-28b9-4ec7-85f7-a88ca0454b49"},"vehicle_type_id":"4","last_reported":1729192105,"current_range_meters":4000,"station_id":"ce4bh3p2rcd13ifvqdp0","pricing_plan_id":"cebpf4jnsgd1na2vs0mg"},{"bike_id":"f1f54018-12f5-4b4e-9d61-fc23fa4a951a","system_id":"levelo_inurba_marseille","lat":43.32286,"lon":5.38281,"is_reserved":false,"is_disabled":false,"rental_uris":{"android":"levelo://app?vid=f1f54018-12f5-4b4e-9d61-fc23fa4a951a","ios":"levelo://app?vid=f1f54018-12f5-4b4e-9d61-fc23fa4a951a"},"vehicle_type_id":"4","last_reported":1729192105,"current_range_meters":35200,"station_id":"ce4bhr12rcd13ifvqhqg","pricing_plan_id":"cebpf4jnsgd1na2vs0mg"},{"bike_id":"dcd02635-a722-43c9-94f7-989cd5fe04c6","system_id":"levelo_inurba_marseille","lat":43.24799,"lon":5.37457,"is_reserved":false,"is_disabled":false,"rental_uris":{"android":"levelo://app?vid=dcd02635-a722-43c9-94f7-989cd5fe04c6","ios":"levelo://app?vid=dcd02635-a722-43c9-94f7-989cd5fe04c6"},"vehicle_type_id":"4","last_reported":1729192105,"current_range_meters":25600,"station_id":"ce4bhgh2rcd13ifvqfb0","pricing_plan_id":"cebpf4jnsgd1na2vs0mg"},{"bike_id":"282b3d80-6821-487a-a914-810f553b0264","system_id":"levelo_inurba_marseille","lat":43.31715,"lon":5.43716,"is_reserved":false,"is_disabled":false,"rental_uris":{"android":"levelo://app?vid=282b3d80-6821-487a-a914-810f553b0264","ios":"levelo://app?vid=282b3d80-6821-487a-a914-810f553b0264"},"vehicle_type_id":"4","last_reported":1729192105,"current_range_meters":6800,"station_id":"ce4bhp92rcd13ifvqhcg","pricing_plan_id":"cebpf4jnsgd1na2vs0mg"},{"bike_id":"e20fafca-079a-403c-b57c-f7aca789639e","system_id":"levelo_inurba_marseille","lat":43.24812,"lon":5.37459,"is_reserved":false,"is_disabled":false,"rental_uris":{"android":"levelo://app?vid=e20fafca-079a-403c-b57c-f7aca789639e","ios":"levelo://app?vid=e20fafca-079a-403c-b57c-f7aca789639e"},"vehicle_type_id":"4","last_reported":1729192105,"current_range_meters":37600,"station_id":"ce4bhgh2rcd13ifvqfb0","pricing_plan_id":"cebpf4jnsgd1na2vs0mg"},{"bike_id":"8c670db3-0a21-4c9e-ad54-87bc390596a2","system_id":"levelo_inurba_marseille","lat":43.2841,"lon":5.37488,"is_reserved":false,"is_disabled":false,"rental_uris":{"android":"levelo://app?vid=8c670db3-0a21-4c9e-ad54-87bc390596a2","ios":"levelo://app?vid=8c670db3-0a21-4c9e-ad54-87bc390596a2"},"vehicle_type_id":"4","last_reported":1729192105,"current_range_meters":16400,"station_id":"ce4bh412rcd13ifvqds0","pricing_plan_id":"cebpf4jnsgd1na2vs0mg"},{"bike_id":"81839b38-4da2-4a7a-8301-49e058220568","system_id":"levelo_inurba_marseille","lat":43.32335,"lon":5.40622,"is_reserved":false,"is_disabled":false,"rental_uris":{"android":"levelo://app?vid=81839b38-4da2-4a7a-8301-49e058220568","ios":"levelo://app?vid=81839b38-4da2-4a7a-8301-49e058220568"},"vehicle_type_id":"4","last_reported":1729192105,"current_range_meters":20400,"station_id":"ce4bhq92rcd13ifvqhjg","pricing_plan_id":"cebpf4jnsgd1na2vs0mg"},{"bike_id":"53971ca3-0e53-4822-b421-5dc496158f05","system_id":"levelo_inurba_marseille","lat":43.3153,"lon":5.38037,"is_reserved":false,"is_disabled":false,"rental_uris":{"android":"levelo://app?vid=53971ca3-0e53-4822-b421-5dc496158f05","ios":"levelo://app?vid=53971ca3-0e53-4822-b421-5dc496158f05"},"vehicle_type_id":"4","last_reported":1729192105,"current_range_meters":9600,"station_id":"ce4bhsp2rcd13ifvqi50","pricing_plan_id":"cebpf4jnsgd1na2vs0mg"},{"bike_id":"e92df672-1900-415b-b390-a615a46c783b","system_id":"levelo_inurba_marseille","lat":43.29031,"lon":5.35923,"is_reserved":false,"is_disabled":false,"rental_uris":{"android":"levelo://app?vid=e92df672-1900-415b-b390-a615a46c783b","ios":"levelo://app?vid=e92df672-1900-415b-b390-a615a46c783b"},"vehicle_type_id":"4","last_reported":1729192105,"current_range_meters":28400,"station_id":"ce4bha92rcd13ifvqeg0","pricing_plan_id":"cebpf4jnsgd1na2vs0mg"},{"bike_id":"b1491400-0877-4e4a-94b9-0b74303ed910","system_id":"levelo_inurba_marseille","lat":43.27814,"lon":5.40713,"is_reserved":false,"is_disabled":false,"rental_uris":{"android":"levelo://app?vid=b1491400-0877-4e4a-94b9-0b74303ed910","ios":"levelo://app?vid=b1491400-0877-4e4a-94b9-0b74303ed910"},"vehicle_type_id":"4","last_reported":1729192105,"current_range_meters":39200,"station_id":"ce4bhnh2rcd13ifvqgtg","pricing_plan_id":"cebpf4jnsgd1na2vs0mg"},{"bike_id":"c0aea6bf-9822-4eef-a7c6-ea0b29185a8d","system_id":"levelo_inurba_marseille","lat":43.27927,"lon":5.4105,"is_reserved":false,"is_disabled":false,"rental_uris":{"android":"levelo://app?vid=c0aea6bf-9822-4eef-a7c6-ea0b29185a8d","ios":"levelo://app?vid=c0aea6bf-9822-4eef-a7c6-ea0b29185a8d"},"vehicle_type_id":"4","last_reported":1729192105,"current_range_meters":27200,"station_id":"ce4bhnp2rcd13ifvqh0g","pricing_plan_id":"cebpf4jnsgd1na2vs0mg"},{"bike_id":"3d7546d0-4dba-4212-88c9-dfe9a2032237","system_id":"levelo_inurba_marseille","lat":43.2417,"lon":5.36396,"is_reserved":false,"is_disabled":false,"rental_uris":{"android":"levelo://app?vid=3d7546d0-4dba-4212-88c9-dfe9a2032237","ios":"levelo://app?vid=3d7546d0-4dba-4212-88c9-dfe9a2032237"},"vehicle_type_id":"4","last_reported":1729192105,"current_range_meters":3600,"station_id":"cpo36qri1sfpv3e86is0","pricing_plan_id":"cebpf4jnsgd1na2vs0mg"},{"bike_id":"cce8ac8c-dc79-4fbd-b0ee-bcacb1b81eff","system_id":"levelo_inurba_marseille","lat":43.299573,"lon":5.384953,"is_reserved":false,"is_disabled":false,"rental_uris":{"android":"levelo://app?vid=cce8ac8c-dc79-4fbd-b0ee-bcacb1b81eff","ios":"levelo://app?vid=cce8ac8c-dc79-4fbd-b0ee-bcacb1b81eff"},"vehicle_type_id":"4","last_reported":1729192105,"current_range_meters":16800,"station_id":"ce4bgj92rcd13ifvqbd0","pricing_plan_id":"cebpf4jnsgd1na2vs0mg"},{"bike_id":"5f66d9b1-dc9b-46e4-ab6f-979d6221f9ab","system_id":"levelo_inurba_marseille","lat":43.3229,"lon":5.38269,"is_reserved":false,"is_disabled":false,"rental_uris":{"android":"levelo://app?vid=5f66d9b1-dc9b-46e4-ab6f-979d6221f9ab","ios":"levelo://app?vid=5f66d9b1-dc9b-46e4-ab6f-979d6221f9ab"},"vehicle_type_id":"4","last_reported":1729192105,"current_range_meters":14800,"station_id":"ce4bhr12rcd13ifvqhqg","pricing_plan_id":"cebpf4jnsgd1na2vs0mg"},{"bike_id":"fe4293fd-4913-4c83-8eda-27ae3656456c","system_id":"levelo_inurba_marseille","lat":43.29027,"lon":5.38649,"is_reserved":false,"is_disabled":false,"rental_uris":{"android":"levelo://app?vid=fe4293fd-4913-4c83-8eda-27ae3656456c","ios":"levelo://app?vid=fe4293fd-4913-4c83-8eda-27ae3656456c"},"vehicle_type_id":"4","last_reported":1729192105,"current_range_meters":38800,"station_id":"ce4bh4p2rcd13ifvqe0g","pricing_plan_id":"cebpf4jnsgd1na2vs0mg"},{"bike_id":"c5b8426f-893a-4d58-bca2-4f32b0cde765","system_id":"levelo_inurba_marseille","lat":43.28152,"lon":5.42643,"is_reserved":false,"is_disabled":false,"rental_uris":{"android":"levelo://app?vid=c5b8426f-893a-4d58-bca2-4f32b0cde765","ios":"levelo://app?vid=c5b8426f-893a-4d58-bca2-4f32b0cde765"},"vehicle_type_id":"4","last_reported":1729192105,"current_range_meters":28400,"station_id":"ce4bhnh2rcd13ifvqgug","pricing_plan_id":"cebpf4jnsgd1na2vs0mg"},{"bike_id":"bbbafeea-83a4-4ce4-b783-e2d87aa234da","system_id":"levelo_inurba_marseille","lat":43.320299,"lon":5.415414,"is_reserved":false,"is_disabled":false,"rental_uris":{"android":"levelo://app?vid=bbbafeea-83a4-4ce4-b783-e2d87aa234da","ios":"levelo://app?vid=bbbafeea-83a4-4ce4-b783-e2d87aa234da"},"vehicle_type_id":"4","last_reported":1729192105,"current_range_meters":16000,"station_id":"ce4bhq92rcd13ifvqhkg","pricing_plan_id":"cebpf4jnsgd1na2vs0mg"},{"bike_id":"2ed64d65-5f6a-456c-9a98-ecf92229c7d1","system_id":"levelo_inurba_marseille","lat":43.25866,"lon":5.39905,"is_reserved":false,"is_disabled":false,"rental_uris":{"android":"levelo://app?vid=2ed64d65-5f6a-456c-9a98-ecf92229c7d1","ios":"levelo://app?vid=2ed64d65-5f6a-456c-9a98-ecf92229c7d1"},"vehicle_type_id":"4","last_reported":1729192105,"current_range_meters":39200,"station_id":"ce4bhl92rcd13ifvqghg","pricing_plan_id":"cebpf4jnsgd1na2vs0mg"},{"bike_id":"90b7df2b-2805-4913-a745-07d80216980c","system_id":"levelo_inurba_marseille","lat":43.30803,"lon":5.43522,"is_reserved":false,"is_disabled":false,"rental_uris":{"android":"levelo://app?vid=90b7df2b-2805-4913-a745-07d80216980c","ios":"levelo://app?vid=90b7df2b-2805-4913-a745-07d80216980c"},"vehicle_type_id":"4","last_reported":1729192105,"current_range_meters":16800,"station_id":"ce4bhph2rcd13ifvqheg","pricing_plan_id":"cebpf4jnsgd1na2vs0mg"},{"bike_id":"32ce68a3-3fc7-4257-974f-ab657619c295","system_id":"levelo_inurba_marseille","lat":43.33752,"lon":5.37447,"is_reserved":false,"is_disabled":false,"rental_uris":{"android":"levelo://app?vid=32ce68a3-3fc7-4257-974f-ab657619c295","ios":"levelo://app?vid=32ce68a3-3fc7-4257-974f-ab657619c295"},"vehicle_type_id":"4","last_reported":1729192105,"current_range_meters":34000,"station_id":"","pricing_plan_id":"cebpf4jnsgd1na2vs0mg"},{"bike_id":"ffe890f6-aa98-416d-afd1-2007a8d940f6","system_id":"levelo_inurba_marseille","lat":43.29531,"lon":5.38542,"is_reserved":false,"is_disabled":false,"rental_uris":{"android":"levelo://app?vid=ffe890f6-aa98-416d-afd1-2007a8d940f6","ios":"levelo://app?vid=ffe890f6-aa98-416d-afd1-2007a8d940f6"},"vehicle_type_id":"4","last_reported":1729192105,"current_range_meters":38000,"station_id":"ce4bgih2rcd13ifvqba0","pricing_plan_id":"cebpf4jnsgd1na2vs0mg"},{"bike_id":"5a1b62f7-8a9e-42be-aefa-217aca5b6f27","system_id":"levelo_inurba_marseille","lat":43.23959,"lon":5.36641,"is_reserved":false,"is_disabled":false,"rental_uris":{"android":"levelo://app?vid=5a1b62f7-8a9e-42be-aefa-217aca5b6f27","ios":"levelo://app?vid=5a1b62f7-8a9e-42be-aefa-217aca5b6f27"},"vehicle_type_id":"4","last_reported":1729192105,"current_range_meters":38800,"station_id":"ce4bhi12rcd13ifvqfp0","pricing_plan_id":"cebpf4jnsgd1na2vs0mg"},{"bike_id":"6457735b-fe2b-412b-aea4-d73ff48b4dc1","system_id":"levelo_inurba_marseille","lat":43.26937,"lon":5.38924,"is_reserved":false,"is_disabled":false,"rental_uris":{"android":"levelo://app?vid=6457735b-fe2b-412b-aea4-d73ff48b4dc1","ios":"levelo://app?vid=6457735b-fe2b-412b-aea4-d73ff48b4dc1"},"vehicle_type_id":"4","last_reported":1729192105,"current_range_meters":35200,"station_id":"ce4bhhh2rcd13ifvqfl0","pricing_plan_id":"cebpf4jnsgd1na2vs0mg"},{"bike_id":"fa7bbdc9-afbe-404d-8676-647037cc76a9","system_id":"levelo_inurba_marseille","lat":43.23203,"lon":5.35549,"is_reserved":false,"is_disabled":false,"rental_uris":{"android":"levelo://app?vid=fa7bbdc9-afbe-404d-8676-647037cc76a9","ios":"levelo://app?vid=fa7bbdc9-afbe-404d-8676-647037cc76a9"},"vehicle_type_id":"4","last_reported":1729192105,"current_range_meters":32800,"station_id":"ce4bhu92rcd13ifvqi70","pricing_plan_id":"cebpf4jnsgd1na2vs0mg"},{"bike_id":"9a4b7f99-e11e-4f0b-b857-0dbeb1b8e0a6","system_id":"levelo_inurba_marseille","lat":43.33022,"lon":5.39042,"is_reserved":false,"is_disabled":false,"rental_uris":{"android":"levelo://app?vid=9a4b7f99-e11e-4f0b-b857-0dbeb1b8e0a6","ios":"levelo://app?vid=9a4b7f99-e11e-4f0b-b857-0dbeb1b8e0a6"},"vehicle_type_id":"4","last_reported":1729192105,"current_range_meters":32000,"station_id":"ce4bhr92rcd13ifvqhrg","pricing_plan_id":"cebpf4jnsgd1na2vs0mg"},{"bike_id":"752671c2-9054-492c-9263-fc5cb1c19d98","system_id":"levelo_inurba_marseille","lat":43.33023,"lon":5.39039,"is_reserved":false,"is_disabled":false,"rental_uris":{"android":"levelo://app?vid=752671c2-9054-492c-9263-fc5cb1c19d98","ios":"levelo://app?vid=752671c2-9054-492c-9263-fc5cb1c19d98"},"vehicle_type_id":"4","last_reported":1729192105,"current_range_meters":8800,"station_id":"ce4bhr92rcd13ifvqhrg","pricing_plan_id":"cebpf4jnsgd1na2vs0mg"},{"bike_id":"ff726813-2517-4302-b4b8-60455484d8f6","system_id":"levelo_inurba_marseille","lat":43.33019,"lon":5.39054,"is_reserved":false,"is_disabled":false,"rental_uris":{"android":"levelo://app?vid=ff726813-2517-4302-b4b8-60455484d8f6","ios":"levelo://app?vid=ff726813-2517-4302-b4b8-60455484d8f6"},"vehicle_type_id":"4","last_reported":1729192105,"current_range_meters":10000,"station_id":"ce4bhr92rcd13ifvqhrg","pricing_plan_id":"cebpf4jnsgd1na2vs0mg"},{"bike_id":"f8d2e239-573b-4f9d-8955-e6720aa9663e","system_id":"levelo_inurba_marseille","lat":43.24644,"lon":5.38901,"is_reserved":false,"is_disabled":false,"rental_uris":{"android":"levelo://app?vid=f8d2e239-573b-4f9d-8955-e6720aa9663e","ios":"levelo://app?vid=f8d2e239-573b-4f9d-8955-e6720aa9663e"},"vehicle_type_id":"4","last_reported":1729192105,"current_range_meters":36000,"station_id":"ce4bhg12rcd13ifvqf60","pricing_plan_id":"cebpf4jnsgd1na2vs0mg"},{"bike_id":"05040b23-f681-4250-8225-a5b87e3bc6d7","system_id":"levelo_inurba_marseille","lat":43.300629,"lon":5.386641,"is_reserved":false,"is_disabled":false,"rental_uris":{"android":"levelo://app?vid=05040b23-f681-4250-8225-a5b87e3bc6d7","ios":"levelo://app?vid=05040b23-f681-4250-8225-a5b87e3bc6d7"},"vehicle_type_id":"4","last_reported":1729192105,"current_range_meters":38400,"station_id":"ce4bgj92rcd13ifvqbd0","pricing_plan_id":"cebpf4jnsgd1na2vs0mg"},{"bike_id":"139c35c4-8018-4db9-ad1e-9ab572b93210","system_id":"levelo_inurba_marseille","lat":43.30883,"lon":5.37203,"is_reserved":false,"is_disabled":false,"rental_uris":{"android":"levelo://app?vid=139c35c4-8018-4db9-ad1e-9ab572b93210","ios":"levelo://app?vid=139c35c4-8018-4db9-ad1e-9ab572b93210"},"vehicle_type_id":"4","last_reported":1729192105,"current_range_meters":9600,"station_id":"ce4bguh2rcd13ifvqckg","pricing_plan_id":"cebpf4jnsgd1na2vs0mg"},{"bike_id":"9313a787-13e9-4747-aa6d-776c45943b9d","system_id":"levelo_inurba_marseille","lat":43.28083,"lon":5.3967,"is_reserved":false,"is_disabled":false,"rental_uris":{"android":"levelo://app?vid=9313a787-13e9-4747-aa6d-776c45943b9d","ios":"levelo://app?vid=9313a787-13e9-4747-aa6d-776c45943b9d"},"vehicle_type_id":"4","last_reported":1729192105,"current_range_meters":34800,"station_id":"ce4bho12rcd13ifvqh2g","pricing_plan_id":"cebpf4jnsgd1na2vs0mg"},{"bike_id":"4e82a983-4406-4fc1-9c7d-45090c1e4862","system_id":"levelo_inurba_marseille","lat":43.24545,"lon":5.39527,"is_reserved":false,"is_disabled":false,"rental_uris":{"android":"levelo://app?vid=4e82a983-4406-4fc1-9c7d-45090c1e4862","ios":"levelo://app?vid=4e82a983-4406-4fc1-9c7d-45090c1e4862"},"vehicle_type_id":"4","last_reported":1729192105,"current_range_meters":34800,"station_id":"ce4bhlp2rcd13ifvqgjg","pricing_plan_id":"cebpf4jnsgd1na2vs0mg"},{"bike_id":"8c1ec6cb-2291-4814-837b-be8625c706f3","system_id":"levelo_inurba_marseille","lat":43.23196,"lon":5.35547,"is_reserved":false,"is_disabled":false,"rental_uris":{"android":"levelo://app?vid=8c1ec6cb-2291-4814-837b-be8625c706f3","ios":"levelo://app?vid=8c1ec6cb-2291-4814-837b-be8625c706f3"},"vehicle_type_id":"4","last_reported":1729192105,"current_range_meters":36400,"station_id":"ce4bhu92rcd13ifvqi70","pricing_plan_id":"cebpf4jnsgd1na2vs0mg"},{"bike_id":"4ba0d524-228c-47ba-9ee4-e7ec9003220e","system_id":"levelo_inurba_marseille","lat":43.2481,"lon":5.37461,"is_reserved":false,"is_disabled":false,"rental_uris":{"android":"levelo://app?vid=4ba0d524-228c-47ba-9ee4-e7ec9003220e","ios":"levelo://app?vid=4ba0d524-228c-47ba-9ee4-e7ec9003220e"},"vehicle_type_id":"4","last_reported":1729192105,"current_range_meters":38800,"station_id":"ce4bhgh2rcd13ifvqfb0","pricing_plan_id":"cebpf4jnsgd1na2vs0mg"},{"bike_id":"6d26bf93-8429-4ce6-b1fb-03339786450a","system_id":"levelo_inurba_marseille","lat":43.24069,"lon":5.37759,"is_reserved":false,"is_disabled":false,"rental_uris":{"android":"levelo://app?vid=6d26bf93-8429-4ce6-b1fb-03339786450a","ios":"levelo://app?vid=6d26bf93-8429-4ce6-b1fb-03339786450a"},"vehicle_type_id":"4","last_reported":1729192105,"current_range_meters":2800,"station_id":"ce4bhnp2rcd13ifvqgvg","pricing_plan_id":"cebpf4jnsgd1na2vs0mg"},{"bike_id":"95c9aee3-2077-4420-8a8f-1a8d9e322ab5","system_id":"levelo_inurba_marseille","lat":43.29419,"lon":5.38616,"is_reserved":false,"is_disabled":false,"rental_uris":{"android":"levelo://app?vid=95c9aee3-2077-4420-8a8f-1a8d9e322ab5","ios":"levelo://app?vid=95c9aee3-2077-4420-8a8f-1a8d9e322ab5"},"vehicle_type_id":"4","last_reported":1729192105,"current_range_meters":38800,"station_id":"ce4bh2h2rcd13ifvqdh0","pricing_plan_id":"cebpf4jnsgd1na2vs0mg"},{"bike_id":"2eba3065-28ec-4a73-88a8-95f722698f8c","system_id":"levelo_inurba_marseille","lat":43.33024,"lon":5.39045,"is_reserved":false,"is_disabled":false,"rental_uris":{"android":"levelo://app?vid=2eba3065-28ec-4a73-88a8-95f722698f8c","ios":"levelo://app?vid=2eba3065-28ec-4a73-88a8-95f722698f8c"},"vehicle_type_id":"4","last_reported":1729192105,"current_range_meters":23200,"station_id":"ce4bhr92rcd13ifvqhrg","pricing_plan_id":"cebpf4jnsgd1na2vs0mg"},{"bike_id":"c89c2319-61a9-47ef-9229-e31c9eaab143","system_id":"levelo_inurba_marseille","lat":43.23195,"lon":5.3555,"is_reserved":false,"is_disabled":false,"rental_uris":{"android":"levelo://app?vid=c89c2319-61a9-47ef-9229-e31c9eaab143","ios":"levelo://app?vid=c89c2319-61a9-47ef-9229-e31c9eaab143"},"vehicle_type_id":"4","last_reported":1729192105,"current_range_meters":38800,"station_id":"ce4bhu92rcd13ifvqi70","pricing_plan_id":"cebpf4jnsgd1na2vs0mg"},{"bike_id":"9e70f111-f55e-488f-9e29-01959ec5b34a","system_id":"levelo_inurba_marseille","lat":43.33022,"lon":5.39044,"is_reserved":false,"is_disabled":false,"rental_uris":{"android":"levelo://app?vid=9e70f111-f55e-488f-9e29-01959ec5b34a","ios":"levelo://app?vid=9e70f111-f55e-488f-9e29-01959ec5b34a"},"vehicle_type_id":"4","last_reported":1729192105,"current_range_meters":29600,"station_id":"ce4bhr92rcd13ifvqhrg","pricing_plan_id":"cebpf4jnsgd1na2vs0mg"},{"bike_id":"c1b4d58c-7d67-4800-b5de-bf664ea422e8","system_id":"levelo_inurba_marseille","lat":43.2465,"lon":5.38894,"is_reserved":false,"is_disabled":false,"rental_uris":{"android":"levelo://app?vid=c1b4d58c-7d67-4800-b5de-bf664ea422e8","ios":"levelo://app?vid=c1b4d58c-7d67-4800-b5de-bf664ea422e8"},"vehicle_type_id":"4","last_reported":1729192105,"current_range_meters":9600,"station_id":"ce4bhg12rcd13ifvqf60","pricing_plan_id":"cebpf4jnsgd1na2vs0mg"},{"bike_id":"b8a9b9e2-9183-41af-bb73-eaa06410c390","system_id":"levelo_inurba_marseille","lat":43.29798,"lon":5.404,"is_reserved":false,"is_disabled":false,"rental_uris":{"android":"levelo://app?vid=b8a9b9e2-9183-41af-bb73-eaa06410c390","ios":"levelo://app?vid=b8a9b9e2-9183-41af-bb73-eaa06410c390"},"vehicle_type_id":"4","last_reported":1729192105,"current_range_meters":26000,"station_id":"ce4bh192rcd13ifvqdb0","pricing_plan_id":"cebpf4jnsgd1na2vs0mg"},{"bike_id":"1f83888a-b6f2-480c-87e7-6b07142c1dd0","system_id":"levelo_inurba_marseille","lat":43.29896,"lon":5.43687,"is_reserved":false,"is_disabled":false,"rental_uris":{"android":"levelo://app?vid=1f83888a-b6f2-480c-87e7-6b07142c1dd0","ios":"levelo://app?vid=1f83888a-b6f2-480c-87e7-6b07142c1dd0"},"vehicle_type_id":"4","last_reported":1729192105,"current_range_meters":29600,"station_id":"ce4bhpp2rcd13ifvqhfg","pricing_plan_id":"cebpf4jnsgd1na2vs0mg"},{"bike_id":"794acdc8-c17c-4149-b903-ed4baea396b4","system_id":"levelo_inurba_marseille","lat":43.23187,"lon":5.39983,"is_reserved":false,"is_disabled":false,"rental_uris":{"android":"levelo://app?vid=794acdc8-c17c-4149-b903-ed4baea396b4","ios":"levelo://app?vid=794acdc8-c17c-4149-b903-ed4baea396b4"},"vehicle_type_id":"4","last_reported":1729192105,"current_range_meters":16000,"station_id":"ce4bhn12rcd13ifvqgqg","pricing_plan_id":"cebpf4jnsgd1na2vs0mg"},{"bike_id":"a638a42f-2c86-4a47-9fce-e8d77bee8966","system_id":"levelo_inurba_marseille","lat":43.30798,"lon":5.43538,"is_reserved":false,"is_disabled":false,"rental_uris":{"android":"levelo://app?vid=a638a42f-2c86-4a47-9fce-e8d77bee8966","ios":"levelo://app?vid=a638a42f-2c86-4a47-9fce-e8d77bee8966"},"vehicle_type_id":"4","last_reported":1729192105,"current_range_meters":32000,"station_id":"ce4bhph2rcd13ifvqheg","pricing_plan_id":"cebpf4jnsgd1na2vs0mg"},{"bike_id":"a12fd2c3-b5fe-497f-a9a1-b48106f9e4f3","system_id":"levelo_inurba_marseille","lat":43.2861,"lon":5.37063,"is_reserved":false,"is_disabled":false,"rental_uris":{"android":"levelo://app?vid=a12fd2c3-b5fe-497f-a9a1-b48106f9e4f3","ios":"levelo://app?vid=a12fd2c3-b5fe-497f-a9a1-b48106f9e4f3"},"vehicle_type_id":"4","last_reported":1729192105,"current_range_meters":38800,"station_id":"ce4bht12rcd13ifvqi60","pricing_plan_id":"cebpf4jnsgd1na2vs0mg"},{"bike_id":"8336c7f3-2ed8-4b1b-8a8b-9d58ecd5b99c","system_id":"levelo_inurba_marseille","lat":43.31361,"lon":5.38492,"is_reserved":false,"is_disabled":false,"rental_uris":{"android":"levelo://app?vid=8336c7f3-2ed8-4b1b-8a8b-9d58ecd5b99c","ios":"levelo://app?vid=8336c7f3-2ed8-4b1b-8a8b-9d58ecd5b99c"},"vehicle_type_id":"4","last_reported":1729192105,"current_range_meters":36400,"station_id":"ce4bgt92rcd13ifvqcf0","pricing_plan_id":"cebpf4jnsgd1na2vs0mg"},{"bike_id":"c6ef7807-f387-424b-8ef0-0612d41c79a5","system_id":"levelo_inurba_marseille","lat":43.28412,"lon":5.37522,"is_reserved":false,"is_disabled":false,"rental_uris":{"android":"levelo://app?vid=c6ef7807-f387-424b-8ef0-0612d41c79a5","ios":"levelo://app?vid=c6ef7807-f387-424b-8ef0-0612d41c79a5"},"vehicle_type_id":"4","last_reported":1729192105,"current_range_meters":8000,"station_id":"ce4bh412rcd13ifvqds0","pricing_plan_id":"cebpf4jnsgd1na2vs0mg"},{"bike_id":"90831790-beaa-47cf-8b23-24a5cbdf0cdb","system_id":"levelo_inurba_marseille","lat":43.31272,"lon":5.40169,"is_reserved":false,"is_disabled":false,"rental_uris":{"android":"levelo://app?vid=90831790-beaa-47cf-8b23-24a5cbdf0cdb","ios":"levelo://app?vid=90831790-beaa-47cf-8b23-24a5cbdf0cdb"},"vehicle_type_id":"4","last_reported":1729192105,"current_range_meters":14000,"station_id":"ce4bh092rcd13ifvqd30","pricing_plan_id":"cebpf4jnsgd1na2vs0mg"},{"bike_id":"874494de-7452-4f47-9fec-c5ec79478035","system_id":"levelo_inurba_marseille","lat":43.23958,"lon":5.36645,"is_reserved":false,"is_disabled":false,"rental_uris":{"android":"levelo://app?vid=874494de-7452-4f47-9fec-c5ec79478035","ios":"levelo://app?vid=874494de-7452-4f47-9fec-c5ec79478035"},"vehicle_type_id":"4","last_reported":1729192105,"current_range_meters":27600,"station_id":"ce4bhi12rcd13ifvqfp0","pricing_plan_id":"cebpf4jnsgd1na2vs0mg"},{"bike_id":"8b33911e-5d42-46bd-b00d-c1d5ce72f577","system_id":"levelo_inurba_marseille","lat":43.23185,"lon":5.39986,"is_reserved":false,"is_disabled":false,"rental_uris":{"android":"levelo://app?vid=8b33911e-5d42-46bd-b00d-c1d5ce72f577","ios":"levelo://app?vid=8b33911e-5d42-46bd-b00d-c1d5ce72f577"},"vehicle_type_id":"4","last_reported":1729192105,"current_range_meters":26000,"station_id":"ce4bhn12rcd13ifvqgqg","pricing_plan_id":"cebpf4jnsgd1na2vs0mg"},{"bike_id":"b196623d-40c9-457a-b146-e98b9715f134","system_id":"levelo_inurba_marseille","lat":43.30881,"lon":5.37203,"is_reserved":false,"is_disabled":false,"rental_uris":{"android":"levelo://app?vid=b196623d-40c9-457a-b146-e98b9715f134","ios":"levelo://app?vid=b196623d-40c9-457a-b146-e98b9715f134"},"vehicle_type_id":"4","last_reported":1729192105,"current_range_meters":38000,"station_id":"ce4bguh2rcd13ifvqckg","pricing_plan_id":"cebpf4jnsgd1na2vs0mg"},{"bike_id":"0663cb3e-2298-4341-8e68-9da737d98414","system_id":"levelo_inurba_marseille","lat":43.284385,"lon":5.39203,"is_reserved":false,"is_disabled":false,"rental_uris":{"android":"levelo://app?vid=0663cb3e-2298-4341-8e68-9da737d98414","ios":"levelo://app?vid=0663cb3e-2298-4341-8e68-9da737d98414"},"vehicle_type_id":"4","last_reported":1729192105,"current_range_meters":17600,"station_id":"ce4bhoh2rcd13ifvqh5g","pricing_plan_id":"cebpf4jnsgd1na2vs0mg"},{"bike_id":"0994d7f0-fa2e-480f-b967-2b1e1b476b78","system_id":"levelo_inurba_marseille","lat":43.23193,"lon":5.35558,"is_reserved":false,"is_disabled":false,"rental_uris":{"android":"levelo://app?vid=0994d7f0-fa2e-480f-b967-2b1e1b476b78","ios":"levelo://app?vid=0994d7f0-fa2e-480f-b967-2b1e1b476b78"},"vehicle_type_id":"4","last_reported":1729192105,"current_range_meters":12400,"station_id":"ce4bhu92rcd13ifvqi70","pricing_plan_id":"cebpf4jnsgd1na2vs0mg"},{"bike_id":"cafacf31-3dc4-4662-b543-8a143108fe4d","system_id":"levelo_inurba_marseille","lat":43.23186,"lon":5.39979,"is_reserved":false,"is_disabled":false,"rental_uris":{"android":"levelo://app?vid=cafacf31-3dc4-4662-b543-8a143108fe4d","ios":"levelo://app?vid=cafacf31-3dc4-4662-b543-8a143108fe4d"},"vehicle_type_id":"4","last_reported":1729192105,"current_range_meters":24000,"station_id":"ce4bhn12rcd13ifvqgqg","pricing_plan_id":"cebpf4jnsgd1na2vs0mg"},{"bike_id":"ca127f3a-6871-4235-aa95-1fb757d1dc55","system_id":"levelo_inurba_marseille","lat":43.32287,"lon":5.38271,"is_reserved":false,"is_disabled":false,"rental_uris":{"android":"levelo://app?vid=ca127f3a-6871-4235-aa95-1fb757d1dc55","ios":"levelo://app?vid=ca127f3a-6871-4235-aa95-1fb757d1dc55"},"vehicle_type_id":"4","last_reported":1729192105,"current_range_meters":39200,"station_id":"ce4bhr12rcd13ifvqhqg","pricing_plan_id":"cebpf4jnsgd1na2vs0mg"},{"bike_id":"d89ec09f-fe91-4a61-9b9f-a3abe3c8f6d8","system_id":"levelo_inurba_marseille","lat":43.32365,"lon":5.38883,"is_reserved":false,"is_disabled":false,"rental_uris":{"android":"levelo://app?vid=d89ec09f-fe91-4a61-9b9f-a3abe3c8f6d8","ios":"levelo://app?vid=d89ec09f-fe91-4a61-9b9f-a3abe3c8f6d8"},"vehicle_type_id":"4","last_reported":1729192105,"current_range_meters":34000,"station_id":"ce4bhqp2rcd13ifvqhog","pricing_plan_id":"cebpf4jnsgd1na2vs0mg"},{"bike_id":"66ccc46d-618e-4760-b09c-27382152bdab","system_id":"levelo_inurba_marseille","lat":43.23201,"lon":5.35548,"is_reserved":false,"is_disabled":false,"rental_uris":{"android":"levelo://app?vid=66ccc46d-618e-4760-b09c-27382152bdab","ios":"levelo://app?vid=66ccc46d-618e-4760-b09c-27382152bdab"},"vehicle_type_id":"4","last_reported":1729192105,"current_range_meters":31200,"station_id":"ce4bhu92rcd13ifvqi70","pricing_plan_id":"cebpf4jnsgd1na2vs0mg"},{"bike_id":"d570bf15-c581-447d-ab84-783890c29ca9","system_id":"levelo_inurba_marseille","lat":43.29069,"lon":5.37162,"is_reserved":false,"is_disabled":false,"rental_uris":{"android":"levelo://app?vid=d570bf15-c581-447d-ab84-783890c29ca9","ios":"levelo://app?vid=d570bf15-c581-447d-ab84-783890c29ca9"},"vehicle_type_id":"4","last_reported":1729192105,"current_range_meters":18800,"station_id":"ce4bh5p2rcd13ifvqe4g","pricing_plan_id":"cebpf4jnsgd1na2vs0mg"},{"bike_id":"1070ebfa-7575-426c-82da-2ce4dd1e2817","system_id":"levelo_inurba_marseille","lat":43.28455,"lon":5.35881,"is_reserved":false,"is_disabled":false,"rental_uris":{"android":"levelo://app?vid=1070ebfa-7575-426c-82da-2ce4dd1e2817","ios":"levelo://app?vid=1070ebfa-7575-426c-82da-2ce4dd1e2817"},"vehicle_type_id":"4","last_reported":1729192105,"current_range_meters":38800,"station_id":"ce4bhah2rcd13ifvqei0","pricing_plan_id":"cebpf4jnsgd1na2vs0mg"},{"bike_id":"800a1375-7b6a-4134-b3e7-7589a17a6504","system_id":"levelo_inurba_marseille","lat":43.29976,"lon":5.37184,"is_reserved":false,"is_disabled":false,"rental_uris":{"android":"levelo://app?vid=800a1375-7b6a-4134-b3e7-7589a17a6504","ios":"levelo://app?vid=800a1375-7b6a-4134-b3e7-7589a17a6504"},"vehicle_type_id":"4","last_reported":1729192105,"current_range_meters":38400,"station_id":"ce4bgr92rcd13ifvqc7g","pricing_plan_id":"cebpf4jnsgd1na2vs0mg"},{"bike_id":"bbe66b0c-f948-4098-9176-25cf08229990","system_id":"levelo_inurba_marseille","lat":43.2926,"lon":5.40137,"is_reserved":false,"is_disabled":false,"rental_uris":{"android":"levelo://app?vid=bbe66b0c-f948-4098-9176-25cf08229990","ios":"levelo://app?vid=bbe66b0c-f948-4098-9176-25cf08229990"},"vehicle_type_id":"4","last_reported":1729192105,"current_range_meters":37600,"station_id":"ce4bh312rcd13ifvqdk0","pricing_plan_id":"cebpf4jnsgd1na2vs0mg"},{"bike_id":"1ccc4d4a-35d4-4379-8c56-d2014129cd67","system_id":"levelo_inurba_marseille","lat":43.3111,"lon":5.37786,"is_reserved":false,"is_disabled":false,"rental_uris":{"android":"levelo://app?vid=1ccc4d4a-35d4-4379-8c56-d2014129cd67","ios":"levelo://app?vid=1ccc4d4a-35d4-4379-8c56-d2014129cd67"},"vehicle_type_id":"4","last_reported":1729192105,"current_range_meters":27600,"station_id":"ce4bgt92rcd13ifvqcg0","pricing_plan_id":"cebpf4jnsgd1na2vs0mg"},{"bike_id":"6300df2c-b9fe-4275-916d-dd75e59140c9","system_id":"levelo_inurba_marseille","lat":43.23196,"lon":5.35547,"is_reserved":false,"is_disabled":false,"rental_uris":{"android":"levelo://app?vid=6300df2c-b9fe-4275-916d-dd75e59140c9","ios":"levelo://app?vid=6300df2c-b9fe-4275-916d-dd75e59140c9"},"vehicle_type_id":"4","last_reported":1729192105,"current_range_meters":32400,"station_id":"ce4bhu92rcd13ifvqi70","pricing_plan_id":"cebpf4jnsgd1na2vs0mg"},{"bike_id":"7c10f502-6f27-4db9-a8b9-d342e24d0c94","system_id":"levelo_inurba_marseille","lat":43.29768,"lon":5.40087,"is_reserved":false,"is_disabled":false,"rental_uris":{"android":"levelo://app?vid=7c10f502-6f27-4db9-a8b9-d342e24d0c94","ios":"levelo://app?vid=7c10f502-6f27-4db9-a8b9-d342e24d0c94"},"vehicle_type_id":"4","last_reported":1729192105,"current_range_meters":24800,"station_id":"","pricing_plan_id":"cebpf4jnsgd1na2vs0mg"},{"bike_id":"217d36cc-bb89-49d9-8719-57188c40467f","system_id":"levelo_inurba_marseille","lat":43.24994,"lon":5.38935,"is_reserved":false,"is_disabled":false,"rental_uris":{"android":"levelo://app?vid=217d36cc-bb89-49d9-8719-57188c40467f","ios":"levelo://app?vid=217d36cc-bb89-49d9-8719-57188c40467f"},"vehicle_type_id":"4","last_reported":1729192105,"current_range_meters":24000,"station_id":"ce4bhgp2rcd13ifvqfd0","pricing_plan_id":"cebpf4jnsgd1na2vs0mg"},{"bike_id":"59238a0c-de64-46a6-a64a-5a5563ed932a","system_id":"levelo_inurba_marseille","lat":43.22937,"lon":5.35378,"is_reserved":false,"is_disabled":false,"rental_uris":{"android":"levelo://app?vid=59238a0c-de64-46a6-a64a-5a5563ed932a","ios":"levelo://app?vid=59238a0c-de64-46a6-a64a-5a5563ed932a"},"vehicle_type_id":"4","last_reported":1729192105,"current_range_meters":29600,"station_id":"cpo3532slgdg3j2ikp40","pricing_plan_id":"cebpf4jnsgd1na2vs0mg"},{"bike_id":"16d5eaa8-8ad5-42ab-8b1c-3a09e6a597ae","system_id":"levelo_inurba_marseille","lat":43.299895,"lon":5.384733,"is_reserved":false,"is_disabled":false,"rental_uris":{"android":"levelo://app?vid=16d5eaa8-8ad5-42ab-8b1c-3a09e6a597ae","ios":"levelo://app?vid=16d5eaa8-8ad5-42ab-8b1c-3a09e6a597ae"},"vehicle_type_id":"4","last_reported":1729192105,"current_range_meters":14400,"station_id":"ce4bgj92rcd13ifvqbd0","pricing_plan_id":"cebpf4jnsgd1na2vs0mg"},{"bike_id":"c15b47ce-26c6-4fd6-ab72-248e2b851f0f","system_id":"levelo_inurba_marseille","lat":43.2942,"lon":5.38619,"is_reserved":false,"is_disabled":false,"rental_uris":{"android":"levelo://app?vid=c15b47ce-26c6-4fd6-ab72-248e2b851f0f","ios":"levelo://app?vid=c15b47ce-26c6-4fd6-ab72-248e2b851f0f"},"vehicle_type_id":"4","last_reported":1729192105,"current_range_meters":14800,"station_id":"ce4bh2h2rcd13ifvqdh0","pricing_plan_id":"cebpf4jnsgd1na2vs0mg"},{"bike_id":"a1d51594-a39b-44a5-b654-aab59ea7e7db","system_id":"levelo_inurba_marseille","lat":43.28147,"lon":5.42648,"is_reserved":false,"is_disabled":false,"rental_uris":{"android":"levelo://app?vid=a1d51594-a39b-44a5-b654-aab59ea7e7db","ios":"levelo://app?vid=a1d51594-a39b-44a5-b654-aab59ea7e7db"},"vehicle_type_id":"4","last_reported":1729192105,"current_range_meters":36400,"station_id":"ce4bhnh2rcd13ifvqgug","pricing_plan_id":"cebpf4jnsgd1na2vs0mg"},{"bike_id":"0a12077a-64ea-4f82-9cc2-6d30cd8f221d","system_id":"levelo_inurba_marseille","lat":43.25111,"lon":5.40325,"is_reserved":false,"is_disabled":false,"rental_uris":{"android":"levelo://app?vid=0a12077a-64ea-4f82-9cc2-6d30cd8f221d","ios":"levelo://app?vid=0a12077a-64ea-4f82-9cc2-6d30cd8f221d"},"vehicle_type_id":"4","last_reported":1729192105,"current_range_meters":25600,"station_id":"ce4bhlh2rcd13ifvqgig","pricing_plan_id":"cebpf4jnsgd1na2vs0mg"},{"bike_id":"5a45ef33-47d8-4428-bfec-011c61ab96af","system_id":"levelo_inurba_marseille","lat":43.29565,"lon":5.39722,"is_reserved":false,"is_disabled":false,"rental_uris":{"android":"levelo://app?vid=5a45ef33-47d8-4428-bfec-011c61ab96af","ios":"levelo://app?vid=5a45ef33-47d8-4428-bfec-011c61ab96af"},"vehicle_type_id":"4","last_reported":1729192105,"current_range_meters":39200,"station_id":"ce4bgj92rcd13ifvqbd0","pricing_plan_id":"cebpf4jnsgd1na2vs0mg"},{"bike_id":"dc0bcfa8-2e23-4d89-b93c-cd58f6209e16","system_id":"levelo_inurba_marseille","lat":43.23963,"lon":5.36635,"is_reserved":false,"is_disabled":false,"rental_uris":{"android":"levelo://app?vid=dc0bcfa8-2e23-4d89-b93c-cd58f6209e16","ios":"levelo://app?vid=dc0bcfa8-2e23-4d89-b93c-cd58f6209e16"},"vehicle_type_id":"4","last_reported":1729192105,"current_range_meters":6800,"station_id":"ce4bhi12rcd13ifvqfp0","pricing_plan_id":"cebpf4jnsgd1na2vs0mg"},{"bike_id":"94dad7f8-6585-4b37-b691-74420d23ef13","system_id":"levelo_inurba_marseille","lat":43.30801,"lon":5.43536,"is_reserved":false,"is_disabled":false,"rental_uris":{"android":"levelo://app?vid=94dad7f8-6585-4b37-b691-74420d23ef13","ios":"levelo://app?vid=94dad7f8-6585-4b37-b691-74420d23ef13"},"vehicle_type_id":"4","last_reported":1729192105,"current_range_meters":38800,"station_id":"ce4bhph2rcd13ifvqheg","pricing_plan_id":"cebpf4jnsgd1na2vs0mg"},{"bike_id":"4562e9bb-7c1e-4e0e-95e1-858d0f8d86d1","system_id":"levelo_inurba_marseille","lat":43.23192,"lon":5.35563,"is_reserved":false,"is_disabled":false,"rental_uris":{"android":"levelo://app?vid=4562e9bb-7c1e-4e0e-95e1-858d0f8d86d1","ios":"levelo://app?vid=4562e9bb-7c1e-4e0e-95e1-858d0f8d86d1"},"vehicle_type_id":"4","last_reported":1729192105,"current_range_meters":38800,"station_id":"ce4bhu92rcd13ifvqi70","pricing_plan_id":"cebpf4jnsgd1na2vs0mg"},{"bike_id":"439234c6-7189-4dab-95ff-c08c915402ac","system_id":"levelo_inurba_marseille","lat":43.30881,"lon":5.39647,"is_reserved":false,"is_disabled":false,"rental_uris":{"android":"levelo://app?vid=439234c6-7189-4dab-95ff-c08c915402ac","ios":"levelo://app?vid=439234c6-7189-4dab-95ff-c08c915402ac"},"vehicle_type_id":"4","last_reported":1729192105,"current_range_meters":28400,"station_id":"ce4bh012rcd13ifvqcv0","pricing_plan_id":"cebpf4jnsgd1na2vs0mg"},{"bike_id":"6837ac97-30a8-4145-8047-b6d6df61ac48","system_id":"levelo_inurba_marseille","lat":43.23188,"lon":5.39987,"is_reserved":false,"is_disabled":false,"rental_uris":{"android":"levelo://app?vid=6837ac97-30a8-4145-8047-b6d6df61ac48","ios":"levelo://app?vid=6837ac97-30a8-4145-8047-b6d6df61ac48"},"vehicle_type_id":"4","last_reported":1729192105,"current_range_meters":38000,"station_id":"ce4bhn12rcd13ifvqgqg","pricing_plan_id":"cebpf4jnsgd1na2vs0mg"},{"bike_id":"2140b6a3-5118-4150-823e-9225aeb56201","system_id":"levelo_inurba_marseille","lat":43.23197,"lon":5.3555,"is_reserved":false,"is_disabled":false,"rental_uris":{"android":"levelo://app?vid=2140b6a3-5118-4150-823e-9225aeb56201","ios":"levelo://app?vid=2140b6a3-5118-4150-823e-9225aeb56201"},"vehicle_type_id":"4","last_reported":1729192105,"current_range_meters":36000,"station_id":"ce4bhu92rcd13ifvqi70","pricing_plan_id":"cebpf4jnsgd1na2vs0mg"},{"bike_id":"2d26828d-d90f-4409-8e3f-2bdaa5ca0cb2","system_id":"levelo_inurba_marseille","lat":43.23188,"lon":5.39988,"is_reserved":false,"is_disabled":false,"rental_uris":{"android":"levelo://app?vid=2d26828d-d90f-4409-8e3f-2bdaa5ca0cb2","ios":"levelo://app?vid=2d26828d-d90f-4409-8e3f-2bdaa5ca0cb2"},"vehicle_type_id":"4","last_reported":1729192105,"current_range_meters":37600,"station_id":"ce4bhn12rcd13ifvqgqg","pricing_plan_id":"cebpf4jnsgd1na2vs0mg"},{"bike_id":"375aba81-68ac-47d6-a3f1-cc6de7755cb9","system_id":"levelo_inurba_marseille","lat":43.25575,"lon":5.38234,"is_reserved":false,"is_disabled":false,"rental_uris":{"android":"levelo://app?vid=375aba81-68ac-47d6-a3f1-cc6de7755cb9","ios":"levelo://app?vid=375aba81-68ac-47d6-a3f1-cc6de7755cb9"},"vehicle_type_id":"4","last_reported":1729192105,"current_range_meters":30800,"station_id":"ce4bhih2rcd13ifvqfs0","pricing_plan_id":"cebpf4jnsgd1na2vs0mg"},{"bike_id":"7cda3f4a-d91d-40ed-af5a-14b7cb3b421c","system_id":"levelo_inurba_marseille","lat":43.29426,"lon":5.3862,"is_reserved":false,"is_disabled":false,"rental_uris":{"android":"levelo://app?vid=7cda3f4a-d91d-40ed-af5a-14b7cb3b421c","ios":"levelo://app?vid=7cda3f4a-d91d-40ed-af5a-14b7cb3b421c"},"vehicle_type_id":"4","last_reported":1729192105,"current_range_meters":25600,"station_id":"ce4bh2h2rcd13ifvqdh0","pricing_plan_id":"cebpf4jnsgd1na2vs0mg"},{"bike_id":"7180b101-6957-496b-b5e2-67f598931762","system_id":"levelo_inurba_marseille","lat":43.27993,"lon":5.40009,"is_reserved":false,"is_disabled":false,"rental_uris":{"android":"levelo://app?vid=7180b101-6957-496b-b5e2-67f598931762","ios":"levelo://app?vid=7180b101-6957-496b-b5e2-67f598931762"},"vehicle_type_id":"4","last_reported":1729192105,"current_range_meters":6800,"station_id":"ce4bho92rcd13ifvqh4g","pricing_plan_id":"cebpf4jnsgd1na2vs0mg"},{"bike_id":"66273aaf-4a3f-4ab1-95c9-9102359831d5","system_id":"levelo_inurba_marseille","lat":43.26028,"lon":5.37552,"is_reserved":false,"is_disabled":false,"rental_uris":{"android":"levelo://app?vid=66273aaf-4a3f-4ab1-95c9-9102359831d5","ios":"levelo://app?vid=66273aaf-4a3f-4ab1-95c9-9102359831d5"},"vehicle_type_id":"4","last_reported":1729192105,"current_range_meters":39200,"station_id":"ce4bhgh2rcd13ifvqfa0","pricing_plan_id":"cebpf4jnsgd1na2vs0mg"},{"bike_id":"f3045f19-215b-4100-899f-aeb32bfa81aa","system_id":"levelo_inurba_marseille","lat":43.298795,"lon":5.397435,"is_reserved":false,"is_disabled":false,"rental_uris":{"android":"levelo://app?vid=f3045f19-215b-4100-899f-aeb32bfa81aa","ios":"levelo://app?vid=f3045f19-215b-4100-899f-aeb32bfa81aa"},"vehicle_type_id":"4","last_reported":1729192105,"current_range_meters":3600,"station_id":"ce4bh0h2rcd13ifvqd50","pricing_plan_id":"cebpf4jnsgd1na2vs0mg"},{"bike_id":"974e9931-6d20-4545-9e5e-b40e518c0577","system_id":"levelo_inurba_marseille","lat":43.27817,"lon":5.40713,"is_reserved":false,"is_disabled":false,"rental_uris":{"android":"levelo://app?vid=974e9931-6d20-4545-9e5e-b40e518c0577","ios":"levelo://app?vid=974e9931-6d20-4545-9e5e-b40e518c0577"},"vehicle_type_id":"4","last_reported":1729192105,"current_range_meters":30400,"station_id":"ce4bhnh2rcd13ifvqgtg","pricing_plan_id":"cebpf4jnsgd1na2vs0mg"},{"bike_id":"8e38c3d2-b931-413b-a976-d335dbaab6fd","system_id":"levelo_inurba_marseille","lat":43.25859,"lon":5.39903,"is_reserved":false,"is_disabled":false,"rental_uris":{"android":"levelo://app?vid=8e38c3d2-b931-413b-a976-d335dbaab6fd","ios":"levelo://app?vid=8e38c3d2-b931-413b-a976-d335dbaab6fd"},"vehicle_type_id":"4","last_reported":1729192105,"current_range_meters":38800,"station_id":"ce4bhl92rcd13ifvqghg","pricing_plan_id":"cebpf4jnsgd1na2vs0mg"},{"bike_id":"83bcafb6-7740-4133-8b56-4bf302222f17","system_id":"levelo_inurba_marseille","lat":43.23962,"lon":5.36641,"is_reserved":false,"is_disabled":false,"rental_uris":{"android":"levelo://app?vid=83bcafb6-7740-4133-8b56-4bf302222f17","ios":"levelo://app?vid=83bcafb6-7740-4133-8b56-4bf302222f17"},"vehicle_type_id":"4","last_reported":1729192105,"current_range_meters":38800,"station_id":"ce4bhi12rcd13ifvqfp0","pricing_plan_id":"cebpf4jnsgd1na2vs0mg"},{"bike_id":"4ae184d9-36eb-4ec2-abc3-34749798da4c","system_id":"levelo_inurba_marseille","lat":43.3302,"lon":5.39045,"is_reserved":false,"is_disabled":false,"rental_uris":{"android":"levelo://app?vid=4ae184d9-36eb-4ec2-abc3-34749798da4c","ios":"levelo://app?vid=4ae184d9-36eb-4ec2-abc3-34749798da4c"},"vehicle_type_id":"4","last_reported":1729192105,"current_range_meters":14800,"station_id":"ce4bhr92rcd13ifvqhrg","pricing_plan_id":"cebpf4jnsgd1na2vs0mg"},{"bike_id":"7772d39f-5e28-445c-af91-069b0cf63793","system_id":"levelo_inurba_marseille","lat":43.33765,"lon":5.37438,"is_reserved":false,"is_disabled":false,"rental_uris":{"android":"levelo://app?vid=7772d39f-5e28-445c-af91-069b0cf63793","ios":"levelo://app?vid=7772d39f-5e28-445c-af91-069b0cf63793"},"vehicle_type_id":"4","last_reported":1729192105,"current_range_meters":16800,"station_id":"","pricing_plan_id":"cebpf4jnsgd1na2vs0mg"},{"bike_id":"15ba6c09-c7f4-4384-bb75-b77a33eb6249","system_id":"levelo_inurba_marseille","lat":43.33025,"lon":5.39053,"is_reserved":false,"is_disabled":false,"rental_uris":{"android":"levelo://app?vid=15ba6c09-c7f4-4384-bb75-b77a33eb6249","ios":"levelo://app?vid=15ba6c09-c7f4-4384-bb75-b77a33eb6249"},"vehicle_type_id":"4","last_reported":1729192105,"current_range_meters":17200,"station_id":"ce4bhr92rcd13ifvqhrg","pricing_plan_id":"cebpf4jnsgd1na2vs0mg"},{"bike_id":"d8eb113e-a350-4b67-9422-42aa94d51fec","system_id":"levelo_inurba_marseille","lat":43.281,"lon":5.3785,"is_reserved":false,"is_disabled":false,"rental_uris":{"android":"levelo://app?vid=d8eb113e-a350-4b67-9422-42aa94d51fec","ios":"levelo://app?vid=d8eb113e-a350-4b67-9422-42aa94d51fec"},"vehicle_type_id":"4","last_reported":1729192105,"current_range_meters":11600,"station_id":"ce4bha12rcd13ifvqee0","pricing_plan_id":"cebpf4jnsgd1na2vs0mg"},{"bike_id":"3213665e-989c-4d22-9f5a-31c8522597dd","system_id":"levelo_inurba_marseille","lat":43.296,"lon":5.36142,"is_reserved":false,"is_disabled":false,"rental_uris":{"android":"levelo://app?vid=3213665e-989c-4d22-9f5a-31c8522597dd","ios":"levelo://app?vid=3213665e-989c-4d22-9f5a-31c8522597dd"},"vehicle_type_id":"4","last_reported":1729192105,"current_range_meters":27200,"station_id":"","pricing_plan_id":"cebpf4jnsgd1na2vs0mg"},{"bike_id":"891df56f-eb65-466b-908a-1fb801bc3464","system_id":"levelo_inurba_marseille","lat":43.31124,"lon":5.37767,"is_reserved":false,"is_disabled":false,"rental_uris":{"android":"levelo://app?vid=891df56f-eb65-466b-908a-1fb801bc3464","ios":"levelo://app?vid=891df56f-eb65-466b-908a-1fb801bc3464"},"vehicle_type_id":"4","last_reported":1729192105,"current_range_meters":8000,"station_id":"ce4bgt92rcd13ifvqcg0","pricing_plan_id":"cebpf4jnsgd1na2vs0mg"},{"bike_id":"cddb2538-acdb-46a5-bc95-6e0a8d74ef0c","system_id":"levelo_inurba_marseille","lat":43.30803,"lon":5.43532,"is_reserved":false,"is_disabled":false,"rental_uris":{"android":"levelo://app?vid=cddb2538-acdb-46a5-bc95-6e0a8d74ef0c","ios":"levelo://app?vid=cddb2538-acdb-46a5-bc95-6e0a8d74ef0c"},"vehicle_type_id":"4","last_reported":1729192105,"current_range_meters":36000,"station_id":"ce4bhph2rcd13ifvqheg","pricing_plan_id":"cebpf4jnsgd1na2vs0mg"},{"bike_id":"245d8487-1b88-4b97-9945-0896fa3e7cbe","system_id":"levelo_inurba_marseille","lat":43.31759,"lon":5.39016,"is_reserved":false,"is_disabled":false,"rental_uris":{"android":"levelo://app?vid=245d8487-1b88-4b97-9945-0896fa3e7cbe","ios":"levelo://app?vid=245d8487-1b88-4b97-9945-0896fa3e7cbe"},"vehicle_type_id":"4","last_reported":1729192105,"current_range_meters":18800,"station_id":"ce4bhqp2rcd13ifvqhng","pricing_plan_id":"cebpf4jnsgd1na2vs0mg"},{"bike_id":"232c9916-430c-4f2f-99b6-45e55a18a493","system_id":"levelo_inurba_marseille","lat":43.24073,"lon":5.37757,"is_reserved":false,"is_disabled":false,"rental_uris":{"android":"levelo://app?vid=232c9916-430c-4f2f-99b6-45e55a18a493","ios":"levelo://app?vid=232c9916-430c-4f2f-99b6-45e55a18a493"},"vehicle_type_id":"4","last_reported":1729192105,"current_range_meters":38800,"station_id":"ce4bhnp2rcd13ifvqgvg","pricing_plan_id":"cebpf4jnsgd1na2vs0mg"},{"bike_id":"a4a51fcb-1888-4497-828f-7fca9243e8e7","system_id":"levelo_inurba_marseille","lat":43.29531,"lon":5.38544,"is_reserved":false,"is_disabled":false,"rental_uris":{"android":"levelo://app?vid=a4a51fcb-1888-4497-828f-7fca9243e8e7","ios":"levelo://app?vid=a4a51fcb-1888-4497-828f-7fca9243e8e7"},"vehicle_type_id":"4","last_reported":1729192105,"current_range_meters":3200,"station_id":"ce4bgih2rcd13ifvqba0","pricing_plan_id":"cebpf4jnsgd1na2vs0mg"},{"bike_id":"1641b826-604a-4181-8231-dca386f637a6","system_id":"levelo_inurba_marseille","lat":43.23195,"lon":5.35549,"is_reserved":false,"is_disabled":false,"rental_uris":{"android":"levelo://app?vid=1641b826-604a-4181-8231-dca386f637a6","ios":"levelo://app?vid=1641b826-604a-4181-8231-dca386f637a6"},"vehicle_type_id":"4","last_reported":1729192105,"current_range_meters":32800,"station_id":"ce4bhu92rcd13ifvqi70","pricing_plan_id":"cebpf4jnsgd1na2vs0mg"},{"bike_id":"89211ee2-076f-4df3-92bd-cd8885f2e76d","system_id":"levelo_inurba_marseille","lat":43.23195,"lon":5.35551,"is_reserved":false,"is_disabled":false,"rental_uris":{"android":"levelo://app?vid=89211ee2-076f-4df3-92bd-cd8885f2e76d","ios":"levelo://app?vid=89211ee2-076f-4df3-92bd-cd8885f2e76d"},"vehicle_type_id":"4","last_reported":1729192105,"current_range_meters":32000,"station_id":"ce4bhu92rcd13ifvqi70","pricing_plan_id":"cebpf4jnsgd1na2vs0mg"},{"bike_id":"3006d2e9-2181-4c00-9dc2-e200a90526fb","system_id":"levelo_inurba_marseille","lat":43.27812,"lon":5.40711,"is_reserved":false,"is_disabled":false,"rental_uris":{"android":"levelo://app?vid=3006d2e9-2181-4c00-9dc2-e200a90526fb","ios":"levelo://app?vid=3006d2e9-2181-4c00-9dc2-e200a90526fb"},"vehicle_type_id":"4","last_reported":1729192105,"current_range_meters":10000,"station_id":"ce4bhnh2rcd13ifvqgtg","pricing_plan_id":"cebpf4jnsgd1na2vs0mg"},{"bike_id":"62158087-59e7-46d4-913f-60cc6216af09","system_id":"levelo_inurba_marseille","lat":43.303619,"lon":5.386383,"is_reserved":false,"is_disabled":false,"rental_uris":{"android":"levelo://app?vid=62158087-59e7-46d4-913f-60cc6216af09","ios":"levelo://app?vid=62158087-59e7-46d4-913f-60cc6216af09"},"vehicle_type_id":"4","last_reported":1729192105,"current_range_meters":23200,"station_id":"ce4bh312rcd13ifvqdj0","pricing_plan_id":"cebpf4jnsgd1na2vs0mg"},{"bike_id":"35c933d6-0efe-4363-9428-3f39de1cb728","system_id":"levelo_inurba_marseille","lat":43.25824,"lon":5.39438,"is_reserved":false,"is_disabled":false,"rental_uris":{"android":"levelo://app?vid=35c933d6-0efe-4363-9428-3f39de1cb728","ios":"levelo://app?vid=35c933d6-0efe-4363-9428-3f39de1cb728"},"vehicle_type_id":"4","last_reported":1729192105,"current_range_meters":13600,"station_id":"ce4bhip2rcd13ifvqft0","pricing_plan_id":"cebpf4jnsgd1na2vs0mg"},{"bike_id":"6fa72718-c3ec-4938-ab97-d70593572a1b","system_id":"levelo_inurba_marseille","lat":43.29425,"lon":5.38624,"is_reserved":false,"is_disabled":false,"rental_uris":{"android":"levelo://app?vid=6fa72718-c3ec-4938-ab97-d70593572a1b","ios":"levelo://app?vid=6fa72718-c3ec-4938-ab97-d70593572a1b"},"vehicle_type_id":"4","last_reported":1729192105,"current_range_meters":39200,"station_id":"ce4bh2h2rcd13ifvqdh0","pricing_plan_id":"cebpf4jnsgd1na2vs0mg"},{"bike_id":"9bd2e337-9db1-4d20-b07f-7affe9a98d36","system_id":"levelo_inurba_marseille","lat":43.25501,"lon":5.37652,"is_reserved":false,"is_disabled":false,"rental_uris":{"android":"levelo://app?vid=9bd2e337-9db1-4d20-b07f-7affe9a98d36","ios":"levelo://app?vid=9bd2e337-9db1-4d20-b07f-7affe9a98d36"},"vehicle_type_id":"4","last_reported":1729192105,"current_range_meters":20000,"station_id":"ce4bhh12rcd13ifvqff0","pricing_plan_id":"cebpf4jnsgd1na2vs0mg"},{"bike_id":"7e04bfe4-5526-44cc-98f1-213aea1ceb34","system_id":"levelo_inurba_marseille","lat":43.29165,"lon":5.37151,"is_reserved":false,"is_disabled":false,"rental_uris":{"android":"levelo://app?vid=7e04bfe4-5526-44cc-98f1-213aea1ceb34","ios":"levelo://app?vid=7e04bfe4-5526-44cc-98f1-213aea1ceb34"},"vehicle_type_id":"4","last_reported":1729192105,"current_range_meters":9200,"station_id":"ce4bha92rcd13ifvqeh0","pricing_plan_id":"cebpf4jnsgd1na2vs0mg"},{"bike_id":"0e13585a-fc0c-4e33-a87b-c089ca018c90","system_id":"levelo_inurba_marseille","lat":43.29698,"lon":5.36606,"is_reserved":false,"is_disabled":false,"rental_uris":{"android":"levelo://app?vid=0e13585a-fc0c-4e33-a87b-c089ca018c90","ios":"levelo://app?vid=0e13585a-fc0c-4e33-a87b-c089ca018c90"},"vehicle_type_id":"4","last_reported":1729192105,"current_range_meters":39200,"station_id":"ce4bgn12rcd13ifvqbt0","pricing_plan_id":"cebpf4jnsgd1na2vs0mg"},{"bike_id":"f88c7e01-bc8c-4735-8a37-e29425c30c87","system_id":"levelo_inurba_marseille","lat":43.2319,"lon":5.39992,"is_reserved":false,"is_disabled":false,"rental_uris":{"android":"levelo://app?vid=f88c7e01-bc8c-4735-8a37-e29425c30c87","ios":"levelo://app?vid=f88c7e01-bc8c-4735-8a37-e29425c30c87"},"vehicle_type_id":"4","last_reported":1729192105,"current_range_meters":11200,"station_id":"ce4bhn12rcd13ifvqgqg","pricing_plan_id":"cebpf4jnsgd1na2vs0mg"},{"bike_id":"e8fa0c67-c553-4a87-9c32-6644007fca22","system_id":"levelo_inurba_marseille","lat":43.28615,"lon":5.35102,"is_reserved":false,"is_disabled":false,"rental_uris":{"android":"levelo://app?vid=e8fa0c67-c553-4a87-9c32-6644007fca22","ios":"levelo://app?vid=e8fa0c67-c553-4a87-9c32-6644007fca22"},"vehicle_type_id":"4","last_reported":1729192105,"current_range_meters":17200,"station_id":"ce4bhch2rcd13ifvqeug","pricing_plan_id":"cebpf4jnsgd1na2vs0mg"},{"bike_id":"14deb1b1-b495-4b35-97c2-895a5ef7ad23","system_id":"levelo_inurba_marseille","lat":43.32342,"lon":5.40617,"is_reserved":false,"is_disabled":false,"rental_uris":{"android":"levelo://app?vid=14deb1b1-b495-4b35-97c2-895a5ef7ad23","ios":"levelo://app?vid=14deb1b1-b495-4b35-97c2-895a5ef7ad23"},"vehicle_type_id":"4","last_reported":1729192105,"current_range_meters":40000,"station_id":"ce4bhq92rcd13ifvqhjg","pricing_plan_id":"cebpf4jnsgd1na2vs0mg"},{"bike_id":"cb04240c-86cb-4622-93eb-64d3b27352e1","system_id":"levelo_inurba_marseille","lat":43.30529,"lon":5.36715,"is_reserved":false,"is_disabled":false,"rental_uris":{"android":"levelo://app?vid=cb04240c-86cb-4622-93eb-64d3b27352e1","ios":"levelo://app?vid=cb04240c-86cb-4622-93eb-64d3b27352e1"},"vehicle_type_id":"4","last_reported":1729192105,"current_range_meters":4000,"station_id":"ce4bgrp2rcd13ifvqc9g","pricing_plan_id":"cebpf4jnsgd1na2vs0mg"},{"bike_id":"30c55a8a-6a68-4ff6-8463-1cd5f3cf2578","system_id":"levelo_inurba_marseille","lat":43.31364,"lon":5.38495,"is_reserved":false,"is_disabled":false,"rental_uris":{"android":"levelo://app?vid=30c55a8a-6a68-4ff6-8463-1cd5f3cf2578","ios":"levelo://app?vid=30c55a8a-6a68-4ff6-8463-1cd5f3cf2578"},"vehicle_type_id":"4","last_reported":1729192105,"current_range_meters":11200,"station_id":"ce4bgt92rcd13ifvqcf0","pricing_plan_id":"cebpf4jnsgd1na2vs0mg"},{"bike_id":"857dfd06-175b-44e1-81f0-cc9f57cd18df","system_id":"levelo_inurba_marseille","lat":43.294201,"lon":5.386181,"is_reserved":false,"is_disabled":false,"rental_uris":{"android":"levelo://app?vid=857dfd06-175b-44e1-81f0-cc9f57cd18df","ios":"levelo://app?vid=857dfd06-175b-44e1-81f0-cc9f57cd18df"},"vehicle_type_id":"4","last_reported":1729192105,"current_range_meters":18000,"station_id":"ce4bh2h2rcd13ifvqdh0","pricing_plan_id":"cebpf4jnsgd1na2vs0mg"},{"bike_id":"87440bd7-4730-412f-b52f-03b263c3d6ba","system_id":"levelo_inurba_marseille","lat":43.23195,"lon":5.35551,"is_reserved":false,"is_disabled":false,"rental_uris":{"android":"levelo://app?vid=87440bd7-4730-412f-b52f-03b263c3d6ba","ios":"levelo://app?vid=87440bd7-4730-412f-b52f-03b263c3d6ba"},"vehicle_type_id":"4","last_reported":1729192105,"current_range_meters":17600,"station_id":"ce4bhu92rcd13ifvqi70","pricing_plan_id":"cebpf4jnsgd1na2vs0mg"},{"bike_id":"c4153079-9745-41c3-857b-88e44f1eec0d","system_id":"levelo_inurba_marseille","lat":43.28458,"lon":5.35888,"is_reserved":false,"is_disabled":false,"rental_uris":{"android":"levelo://app?vid=c4153079-9745-41c3-857b-88e44f1eec0d","ios":"levelo://app?vid=c4153079-9745-41c3-857b-88e44f1eec0d"},"vehicle_type_id":"4","last_reported":1729192105,"current_range_meters":6400,"station_id":"ce4bhah2rcd13ifvqei0","pricing_plan_id":"cebpf4jnsgd1na2vs0mg"},{"bike_id":"8d665f6d-80bd-42ed-9db1-a54bcdbf834a","system_id":"levelo_inurba_marseille","lat":43.29572,"lon":5.37513,"is_reserved":false,"is_disabled":false,"rental_uris":{"android":"levelo://app?vid=8d665f6d-80bd-42ed-9db1-a54bcdbf834a","ios":"levelo://app?vid=8d665f6d-80bd-42ed-9db1-a54bcdbf834a"},"vehicle_type_id":"4","last_reported":1729192105,"current_range_meters":38800,"station_id":"ce4bgh92rcd13ifvqb50","pricing_plan_id":"cebpf4jnsgd1na2vs0mg"},{"bike_id":"8b52cae9-7e47-4af1-ba65-5f35a0a09f7f","system_id":"levelo_inurba_marseille","lat":43.28456,"lon":5.35888,"is_reserved":false,"is_disabled":false,"rental_uris":{"android":"levelo://app?vid=8b52cae9-7e47-4af1-ba65-5f35a0a09f7f","ios":"levelo://app?vid=8b52cae9-7e47-4af1-ba65-5f35a0a09f7f"},"vehicle_type_id":"4","last_reported":1729192105,"current_range_meters":28000,"station_id":"ce4bhah2rcd13ifvqei0","pricing_plan_id":"cebpf4jnsgd1na2vs0mg"},{"bike_id":"384fc17d-da3f-4ef9-9eef-55479fb56c35","system_id":"levelo_inurba_marseille","lat":43.33022,"lon":5.39046,"is_reserved":false,"is_disabled":false,"rental_uris":{"android":"levelo://app?vid=384fc17d-da3f-4ef9-9eef-55479fb56c35","ios":"levelo://app?vid=384fc17d-da3f-4ef9-9eef-55479fb56c35"},"vehicle_type_id":"4","last_reported":1729192105,"current_range_meters":7200,"station_id":"ce4bhr92rcd13ifvqhrg","pricing_plan_id":"cebpf4jnsgd1na2vs0mg"},{"bike_id":"b3cdb7dd-5591-4a62-8798-d823d18a49bf","system_id":"levelo_inurba_marseille","lat":43.2681,"lon":5.40269,"is_reserved":false,"is_disabled":false,"rental_uris":{"android":"levelo://app?vid=b3cdb7dd-5591-4a62-8798-d823d18a49bf","ios":"levelo://app?vid=b3cdb7dd-5591-4a62-8798-d823d18a49bf"},"vehicle_type_id":"4","last_reported":1729192105,"current_range_meters":32400,"station_id":"ce501612rcd8frsf0b60","pricing_plan_id":"cebpf4jnsgd1na2vs0mg"},{"bike_id":"42f264b5-ce90-44e6-8adf-ecc77c1fd4b7","system_id":"levelo_inurba_marseille","lat":43.31074,"lon":5.38345,"is_reserved":false,"is_disabled":false,"rental_uris":{"android":"levelo://app?vid=42f264b5-ce90-44e6-8adf-ecc77c1fd4b7","ios":"levelo://app?vid=42f264b5-ce90-44e6-8adf-ecc77c1fd4b7"},"vehicle_type_id":"4","last_reported":1729192105,"current_range_meters":6800,"station_id":"ce4bgv92rcd13ifvqcr0","pricing_plan_id":"cebpf4jnsgd1na2vs0mg"},{"bike_id":"45adde32-0f81-4550-9961-b9aebf331119","system_id":"levelo_inurba_marseille","lat":43.31178,"lon":5.38701,"is_reserved":false,"is_disabled":false,"rental_uris":{"android":"levelo://app?vid=45adde32-0f81-4550-9961-b9aebf331119","ios":"levelo://app?vid=45adde32-0f81-4550-9961-b9aebf331119"},"vehicle_type_id":"4","last_reported":1729192105,"current_range_meters":19200,"station_id":"ce4bgv12rcd13ifvqcp0","pricing_plan_id":"cebpf4jnsgd1na2vs0mg"},{"bike_id":"037e7d08-a78c-4974-ac0b-96c939dea0e0","system_id":"levelo_inurba_marseille","lat":43.3081,"lon":5.43522,"is_reserved":false,"is_disabled":false,"rental_uris":{"android":"levelo://app?vid=037e7d08-a78c-4974-ac0b-96c939dea0e0","ios":"levelo://app?vid=037e7d08-a78c-4974-ac0b-96c939dea0e0"},"vehicle_type_id":"4","last_reported":1729192105,"current_range_meters":16000,"station_id":"ce4bhph2rcd13ifvqheg","pricing_plan_id":"cebpf4jnsgd1na2vs0mg"},{"bike_id":"722be19f-2d24-44a2-b3cc-ac8597c3719b","system_id":"levelo_inurba_marseille","lat":43.28147,"lon":5.42647,"is_reserved":false,"is_disabled":false,"rental_uris":{"android":"levelo://app?vid=722be19f-2d24-44a2-b3cc-ac8597c3719b","ios":"levelo://app?vid=722be19f-2d24-44a2-b3cc-ac8597c3719b"},"vehicle_type_id":"4","last_reported":1729192105,"current_range_meters":8800,"station_id":"ce4bhnh2rcd13ifvqgug","pricing_plan_id":"cebpf4jnsgd1na2vs0mg"},{"bike_id":"6a53f35f-762f-4592-9a8f-ca1c22a37d5c","system_id":"levelo_inurba_marseille","lat":43.31719,"lon":5.42407,"is_reserved":false,"is_disabled":false,"rental_uris":{"android":"levelo://app?vid=6a53f35f-762f-4592-9a8f-ca1c22a37d5c","ios":"levelo://app?vid=6a53f35f-762f-4592-9a8f-ca1c22a37d5c"},"vehicle_type_id":"4","last_reported":1729192105,"current_range_meters":27600,"station_id":"ce4bhp92rcd13ifvqhbg","pricing_plan_id":"cebpf4jnsgd1na2vs0mg"},{"bike_id":"0bddf13a-c6ee-4477-84da-09c1c0e311d4","system_id":"levelo_inurba_marseille","lat":43.23193,"lon":5.35551,"is_reserved":false,"is_disabled":false,"rental_uris":{"android":"levelo://app?vid=0bddf13a-c6ee-4477-84da-09c1c0e311d4","ios":"levelo://app?vid=0bddf13a-c6ee-4477-84da-09c1c0e311d4"},"vehicle_type_id":"4","last_reported":1729192105,"current_range_meters":14000,"station_id":"ce4bhu92rcd13ifvqi70","pricing_plan_id":"cebpf4jnsgd1na2vs0mg"},{"bike_id":"ecdffe81-4124-4f3a-8ea8-000d22b7503b","system_id":"levelo_inurba_marseille","lat":43.2511,"lon":5.40325,"is_reserved":false,"is_disabled":false,"rental_uris":{"android":"levelo://app?vid=ecdffe81-4124-4f3a-8ea8-000d22b7503b","ios":"levelo://app?vid=ecdffe81-4124-4f3a-8ea8-000d22b7503b"},"vehicle_type_id":"4","last_reported":1729192105,"current_range_meters":24000,"station_id":"ce4bhlh2rcd13ifvqgig","pricing_plan_id":"cebpf4jnsgd1na2vs0mg"},{"bike_id":"64a9906c-ff1b-4ca1-8e36-9ae1f1643e19","system_id":"levelo_inurba_marseille","lat":43.29525,"lon":5.39041,"is_reserved":false,"is_disabled":false,"rental_uris":{"android":"levelo://app?vid=64a9906c-ff1b-4ca1-8e36-9ae1f1643e19","ios":"levelo://app?vid=64a9906c-ff1b-4ca1-8e36-9ae1f1643e19"},"vehicle_type_id":"4","last_reported":1729192105,"current_range_meters":35600,"station_id":"ce4bh3p2rcd13ifvqdp0","pricing_plan_id":"cebpf4jnsgd1na2vs0mg"},{"bike_id":"a42336f1-6fcd-4045-891e-701347f41b85","system_id":"levelo_inurba_marseille","lat":43.23188,"lon":5.39983,"is_reserved":false,"is_disabled":false,"rental_uris":{"android":"levelo://app?vid=a42336f1-6fcd-4045-891e-701347f41b85","ios":"levelo://app?vid=a42336f1-6fcd-4045-891e-701347f41b85"},"vehicle_type_id":"4","last_reported":1729192105,"current_range_meters":7200,"station_id":"ce4bhn12rcd13ifvqgqg","pricing_plan_id":"cebpf4jnsgd1na2vs0mg"},{"bike_id":"2901ff37-0119-4f7b-91fb-d7fdf0736260","system_id":"levelo_inurba_marseille","lat":43.2293,"lon":5.35374,"is_reserved":false,"is_disabled":false,"rental_uris":{"android":"levelo://app?vid=2901ff37-0119-4f7b-91fb-d7fdf0736260","ios":"levelo://app?vid=2901ff37-0119-4f7b-91fb-d7fdf0736260"},"vehicle_type_id":"4","last_reported":1729192105,"current_range_meters":30400,"station_id":"cpo3532slgdg3j2ikp40","pricing_plan_id":"cebpf4jnsgd1na2vs0mg"},{"bike_id":"cb76f825-9dab-46a9-8a65-cc589bf2be41","system_id":"levelo_inurba_marseille","lat":43.31076,"lon":5.38356,"is_reserved":false,"is_disabled":false,"rental_uris":{"android":"levelo://app?vid=cb76f825-9dab-46a9-8a65-cc589bf2be41","ios":"levelo://app?vid=cb76f825-9dab-46a9-8a65-cc589bf2be41"},"vehicle_type_id":"4","last_reported":1729192105,"current_range_meters":14400,"station_id":"ce4bgv92rcd13ifvqcr0","pricing_plan_id":"cebpf4jnsgd1na2vs0mg"},{"bike_id":"b76a5105-a423-43f5-aec7-bd99ea0efcb3","system_id":"levelo_inurba_marseille","lat":43.2799,"lon":5.40023,"is_reserved":false,"is_disabled":false,"rental_uris":{"android":"levelo://app?vid=b76a5105-a423-43f5-aec7-bd99ea0efcb3","ios":"levelo://app?vid=b76a5105-a423-43f5-aec7-bd99ea0efcb3"},"vehicle_type_id":"4","last_reported":1729192105,"current_range_meters":14400,"station_id":"ce4bho92rcd13ifvqh4g","pricing_plan_id":"cebpf4jnsgd1na2vs0mg"},{"bike_id":"61296efc-2989-4d06-bf1e-eb0e4d43d68e","system_id":"levelo_inurba_marseille","lat":43.29899,"lon":5.43664,"is_reserved":false,"is_disabled":false,"rental_uris":{"android":"levelo://app?vid=61296efc-2989-4d06-bf1e-eb0e4d43d68e","ios":"levelo://app?vid=61296efc-2989-4d06-bf1e-eb0e4d43d68e"},"vehicle_type_id":"4","last_reported":1729192105,"current_range_meters":20800,"station_id":"ce4bhpp2rcd13ifvqhfg","pricing_plan_id":"cebpf4jnsgd1na2vs0mg"},{"bike_id":"915d8fda-eaef-4a60-9d36-992c88c1e042","system_id":"levelo_inurba_marseille","lat":43.25005,"lon":5.38927,"is_reserved":false,"is_disabled":false,"rental_uris":{"android":"levelo://app?vid=915d8fda-eaef-4a60-9d36-992c88c1e042","ios":"levelo://app?vid=915d8fda-eaef-4a60-9d36-992c88c1e042"},"vehicle_type_id":"4","last_reported":1729192105,"current_range_meters":28800,"station_id":"ce4bhgp2rcd13ifvqfd0","pricing_plan_id":"cebpf4jnsgd1na2vs0mg"},{"bike_id":"7a76e164-6b75-4577-a223-fcbb4c2d551b","system_id":"levelo_inurba_marseille","lat":43.28082,"lon":5.39664,"is_reserved":false,"is_disabled":false,"rental_uris":{"android":"levelo://app?vid=7a76e164-6b75-4577-a223-fcbb4c2d551b","ios":"levelo://app?vid=7a76e164-6b75-4577-a223-fcbb4c2d551b"},"vehicle_type_id":"4","last_reported":1729192105,"current_range_meters":38400,"station_id":"ce4bho12rcd13ifvqh2g","pricing_plan_id":"cebpf4jnsgd1na2vs0mg"},{"bike_id":"8a8e14d6-1b1a-4430-b1ad-c14354c56425","system_id":"levelo_inurba_marseille","lat":43.28458,"lon":5.35899,"is_reserved":false,"is_disabled":false,"rental_uris":{"android":"levelo://app?vid=8a8e14d6-1b1a-4430-b1ad-c14354c56425","ios":"levelo://app?vid=8a8e14d6-1b1a-4430-b1ad-c14354c56425"},"vehicle_type_id":"4","last_reported":1729192105,"current_range_meters":38800,"station_id":"ce4bhah2rcd13ifvqei0","pricing_plan_id":"cebpf4jnsgd1na2vs0mg"},{"bike_id":"292b9425-1372-40d4-bf0a-fe57aa779a41","system_id":"levelo_inurba_marseille","lat":43.23065,"lon":5.35492,"is_reserved":false,"is_disabled":false,"rental_uris":{"android":"levelo://app?vid=292b9425-1372-40d4-bf0a-fe57aa779a41","ios":"levelo://app?vid=292b9425-1372-40d4-bf0a-fe57aa779a41"},"vehicle_type_id":"4","last_reported":1729192105,"current_range_meters":23200,"station_id":"cpo3342slgdg3j2ifvpg","pricing_plan_id":"cebpf4jnsgd1na2vs0mg"},{"bike_id":"3dbda14f-65e6-47c6-a8cf-4547a83f3613","system_id":"levelo_inurba_marseille","lat":43.291992,"lon":5.393288,"is_reserved":false,"is_disabled":false,"rental_uris":{"android":"levelo://app?vid=3dbda14f-65e6-47c6-a8cf-4547a83f3613","ios":"levelo://app?vid=3dbda14f-65e6-47c6-a8cf-4547a83f3613"},"vehicle_type_id":"4","last_reported":1729192105,"current_range_meters":30800,"station_id":"ce4bh192rcd13ifvqdd0","pricing_plan_id":"cebpf4jnsgd1na2vs0mg"},{"bike_id":"16580aa2-3913-4275-905a-ecfa1227a14b","system_id":"levelo_inurba_marseille","lat":43.28613,"lon":5.35102,"is_reserved":false,"is_disabled":false,"rental_uris":{"android":"levelo://app?vid=16580aa2-3913-4275-905a-ecfa1227a14b","ios":"levelo://app?vid=16580aa2-3913-4275-905a-ecfa1227a14b"},"vehicle_type_id":"4","last_reported":1729192105,"current_range_meters":8000,"station_id":"ce4bhch2rcd13ifvqeug","pricing_plan_id":"cebpf4jnsgd1na2vs0mg"},{"bike_id":"afe9ff89-1b31-492e-9dea-f8a33b0bd764","system_id":"levelo_inurba_marseille","lat":43.27823,"lon":5.40717,"is_reserved":false,"is_disabled":false,"rental_uris":{"android":"levelo://app?vid=afe9ff89-1b31-492e-9dea-f8a33b0bd764","ios":"levelo://app?vid=afe9ff89-1b31-492e-9dea-f8a33b0bd764"},"vehicle_type_id":"4","last_reported":1729192105,"current_range_meters":12000,"station_id":"ce4bhnh2rcd13ifvqgtg","pricing_plan_id":"cebpf4jnsgd1na2vs0mg"},{"bike_id":"5bcb5e61-f472-4c2a-b277-4bd62bfbf6a7","system_id":"levelo_inurba_marseille","lat":43.29196,"lon":5.39317,"is_reserved":false,"is_disabled":false,"rental_uris":{"android":"levelo://app?vid=5bcb5e61-f472-4c2a-b277-4bd62bfbf6a7","ios":"levelo://app?vid=5bcb5e61-f472-4c2a-b277-4bd62bfbf6a7"},"vehicle_type_id":"4","last_reported":1729192105,"current_range_meters":24400,"station_id":"ce4bh192rcd13ifvqdd0","pricing_plan_id":"cebpf4jnsgd1na2vs0mg"},{"bike_id":"4cebcee5-3373-4e86-a6a3-a560ed2906ec","system_id":"levelo_inurba_marseille","lat":43.28453,"lon":5.39206,"is_reserved":false,"is_disabled":false,"rental_uris":{"android":"levelo://app?vid=4cebcee5-3373-4e86-a6a3-a560ed2906ec","ios":"levelo://app?vid=4cebcee5-3373-4e86-a6a3-a560ed2906ec"},"vehicle_type_id":"4","last_reported":1729192105,"current_range_meters":4400,"station_id":"ce4bhoh2rcd13ifvqh5g","pricing_plan_id":"cebpf4jnsgd1na2vs0mg"},{"bike_id":"572612ea-6211-4e75-b878-624a22c01cde","system_id":"levelo_inurba_marseille","lat":43.24645,"lon":5.38893,"is_reserved":false,"is_disabled":false,"rental_uris":{"android":"levelo://app?vid=572612ea-6211-4e75-b878-624a22c01cde","ios":"levelo://app?vid=572612ea-6211-4e75-b878-624a22c01cde"},"vehicle_type_id":"4","last_reported":1729192105,"current_range_meters":38800,"station_id":"ce4bhg12rcd13ifvqf60","pricing_plan_id":"cebpf4jnsgd1na2vs0mg"},{"bike_id":"d737db63-e61b-491d-91ae-c87cec7c93b2","system_id":"levelo_inurba_marseille","lat":43.30807,"lon":5.38162,"is_reserved":false,"is_disabled":false,"rental_uris":{"android":"levelo://app?vid=d737db63-e61b-491d-91ae-c87cec7c93b2","ios":"levelo://app?vid=d737db63-e61b-491d-91ae-c87cec7c93b2"},"vehicle_type_id":"4","last_reported":1729192105,"current_range_meters":24400,"station_id":"ce4bgt12rcd13ifvqce0","pricing_plan_id":"cebpf4jnsgd1na2vs0mg"},{"bike_id":"fe36cf2f-484f-4855-beea-2190084a4047","system_id":"levelo_inurba_marseille","lat":43.28846,"lon":5.39312,"is_reserved":false,"is_disabled":false,"rental_uris":{"android":"levelo://app?vid=fe36cf2f-484f-4855-beea-2190084a4047","ios":"levelo://app?vid=fe36cf2f-484f-4855-beea-2190084a4047"},"vehicle_type_id":"4","last_reported":1729192105,"current_range_meters":4000,"station_id":"ce4bh2p2rcd13ifvqdi0","pricing_plan_id":"cebpf4jnsgd1na2vs0mg"},{"bike_id":"c22cc316-efef-4edc-b256-5bf15dfdbbda","system_id":"levelo_inurba_marseille","lat":43.30436,"lon":5.38884,"is_reserved":false,"is_disabled":false,"rental_uris":{"android":"levelo://app?vid=c22cc316-efef-4edc-b256-5bf15dfdbbda","ios":"levelo://app?vid=c22cc316-efef-4edc-b256-5bf15dfdbbda"},"vehicle_type_id":"4","last_reported":1729192105,"current_range_meters":3600,"station_id":"ce4bgk12rcd13ifvqbi0","pricing_plan_id":"cebpf4jnsgd1na2vs0mg"},{"bike_id":"607fceee-bbfb-4d63-8db4-6e74918a30fc","system_id":"levelo_inurba_marseille","lat":43.28708,"lon":5.37936,"is_reserved":false,"is_disabled":false,"rental_uris":{"android":"levelo://app?vid=607fceee-bbfb-4d63-8db4-6e74918a30fc","ios":"levelo://app?vid=607fceee-bbfb-4d63-8db4-6e74918a30fc"},"vehicle_type_id":"4","last_reported":1729192105,"current_range_meters":3600,"station_id":"ce4bh9p2rcd13ifvqec0","pricing_plan_id":"cebpf4jnsgd1na2vs0mg"},{"bike_id":"01cbf671-4826-495e-a376-b47a0ddca874","system_id":"levelo_inurba_marseille","lat":43.32338,"lon":5.40629,"is_reserved":false,"is_disabled":false,"rental_uris":{"android":"levelo://app?vid=01cbf671-4826-495e-a376-b47a0ddca874","ios":"levelo://app?vid=01cbf671-4826-495e-a376-b47a0ddca874"},"vehicle_type_id":"4","last_reported":1729192105,"current_range_meters":12000,"station_id":"ce4bhq92rcd13ifvqhjg","pricing_plan_id":"cebpf4jnsgd1na2vs0mg"},{"bike_id":"fc27bc53-e3fb-43eb-a7f4-11d3d36ed39f","system_id":"levelo_inurba_marseille","lat":43.28473,"lon":5.38431,"is_reserved":false,"is_disabled":false,"rental_uris":{"android":"levelo://app?vid=fc27bc53-e3fb-43eb-a7f4-11d3d36ed39f","ios":"levelo://app?vid=fc27bc53-e3fb-43eb-a7f4-11d3d36ed39f"},"vehicle_type_id":"4","last_reported":1729192105,"current_range_meters":8800,"station_id":"ce4bh512rcd13ifvqe3g","pricing_plan_id":"cebpf4jnsgd1na2vs0mg"},{"bike_id":"e3ca7803-aaa7-4ddf-8937-86afb5d1cee8","system_id":"levelo_inurba_marseille","lat":43.31714,"lon":5.43719,"is_reserved":false,"is_disabled":false,"rental_uris":{"android":"levelo://app?vid=e3ca7803-aaa7-4ddf-8937-86afb5d1cee8","ios":"levelo://app?vid=e3ca7803-aaa7-4ddf-8937-86afb5d1cee8"},"vehicle_type_id":"4","last_reported":1729192105,"current_range_meters":24800,"station_id":"ce4bhp92rcd13ifvqhcg","pricing_plan_id":"cebpf4jnsgd1na2vs0mg"},{"bike_id":"d8da4323-1978-489d-accb-b2a2e78b9360","system_id":"levelo_inurba_marseille","lat":43.29555,"lon":5.42273,"is_reserved":false,"is_disabled":false,"rental_uris":{"android":"levelo://app?vid=d8da4323-1978-489d-accb-b2a2e78b9360","ios":"levelo://app?vid=d8da4323-1978-489d-accb-b2a2e78b9360"},"vehicle_type_id":"4","last_reported":1729192105,"current_range_meters":34800,"station_id":"ce4bhph2rcd13ifvqhdg","pricing_plan_id":"cebpf4jnsgd1na2vs0mg"},{"bike_id":"3c450ea1-bb1c-461e-a5f8-4dbd2054ea3f","system_id":"levelo_inurba_marseille","lat":43.28136,"lon":5.42644,"is_reserved":false,"is_disabled":false,"rental_uris":{"android":"levelo://app?vid=3c450ea1-bb1c-461e-a5f8-4dbd2054ea3f","ios":"levelo://app?vid=3c450ea1-bb1c-461e-a5f8-4dbd2054ea3f"},"vehicle_type_id":"4","last_reported":1729192105,"current_range_meters":35200,"station_id":"ce4bhnh2rcd13ifvqgug","pricing_plan_id":"cebpf4jnsgd1na2vs0mg"},{"bike_id":"568ad7c3-61ab-4891-8036-e9ee4ec77a40","system_id":"levelo_inurba_marseille","lat":43.23191,"lon":5.39989,"is_reserved":false,"is_disabled":false,"rental_uris":{"android":"levelo://app?vid=568ad7c3-61ab-4891-8036-e9ee4ec77a40","ios":"levelo://app?vid=568ad7c3-61ab-4891-8036-e9ee4ec77a40"},"vehicle_type_id":"4","last_reported":1729192105,"current_range_meters":38800,"station_id":"ce4bhn12rcd13ifvqgqg","pricing_plan_id":"cebpf4jnsgd1na2vs0mg"},{"bike_id":"0a037391-6b40-44cf-8987-f9254d45bbea","system_id":"levelo_inurba_marseille","lat":43.30951,"lon":5.39041,"is_reserved":false,"is_disabled":false,"rental_uris":{"android":"levelo://app?vid=0a037391-6b40-44cf-8987-f9254d45bbea","ios":"levelo://app?vid=0a037391-6b40-44cf-8987-f9254d45bbea"},"vehicle_type_id":"4","last_reported":1729192105,"current_range_meters":35200,"station_id":"ce4bgup2rcd13ifvqco0","pricing_plan_id":"cebpf4jnsgd1na2vs0mg"},{"bike_id":"3664398f-378f-46f2-bd12-30042ad8db9d","system_id":"levelo_inurba_marseille","lat":43.23184,"lon":5.39981,"is_reserved":false,"is_disabled":false,"rental_uris":{"android":"levelo://app?vid=3664398f-378f-46f2-bd12-30042ad8db9d","ios":"levelo://app?vid=3664398f-378f-46f2-bd12-30042ad8db9d"},"vehicle_type_id":"4","last_reported":1729192105,"current_range_meters":33600,"station_id":"ce4bhn12rcd13ifvqgqg","pricing_plan_id":"cebpf4jnsgd1na2vs0mg"},{"bike_id":"f17779a9-5022-42b5-beb5-0ab99a26452b","system_id":"levelo_inurba_marseille","lat":43.27813,"lon":5.40709,"is_reserved":false,"is_disabled":false,"rental_uris":{"android":"levelo://app?vid=f17779a9-5022-42b5-beb5-0ab99a26452b","ios":"levelo://app?vid=f17779a9-5022-42b5-beb5-0ab99a26452b"},"vehicle_type_id":"4","last_reported":1729192105,"current_range_meters":31200,"station_id":"ce4bhnh2rcd13ifvqgtg","pricing_plan_id":"cebpf4jnsgd1na2vs0mg"},{"bike_id":"3c0b4095-688f-4a0f-88cc-dfe9db2b3c79","system_id":"levelo_inurba_marseille","lat":43.29852,"lon":5.36296,"is_reserved":false,"is_disabled":false,"rental_uris":{"android":"levelo://app?vid=3c0b4095-688f-4a0f-88cc-dfe9db2b3c79","ios":"levelo://app?vid=3c0b4095-688f-4a0f-88cc-dfe9db2b3c79"},"vehicle_type_id":"4","last_reported":1729192105,"current_range_meters":26000,"station_id":"ce4bgpp2rcd13ifvqc3g","pricing_plan_id":"cebpf4jnsgd1na2vs0mg"},{"bike_id":"a9d80141-cb04-4f88-bcc5-9763572e3517","system_id":"levelo_inurba_marseille","lat":43.23194,"lon":5.3555,"is_reserved":false,"is_disabled":false,"rental_uris":{"android":"levelo://app?vid=a9d80141-cb04-4f88-bcc5-9763572e3517","ios":"levelo://app?vid=a9d80141-cb04-4f88-bcc5-9763572e3517"},"vehicle_type_id":"4","last_reported":1729192105,"current_range_meters":32000,"station_id":"ce4bhu92rcd13ifvqi70","pricing_plan_id":"cebpf4jnsgd1na2vs0mg"},{"bike_id":"35a22db4-7e9d-4709-be91-f373b0a75e57","system_id":"levelo_inurba_marseille","lat":43.33756,"lon":5.37449,"is_reserved":false,"is_disabled":false,"rental_uris":{"android":"levelo://app?vid=35a22db4-7e9d-4709-be91-f373b0a75e57","ios":"levelo://app?vid=35a22db4-7e9d-4709-be91-f373b0a75e57"},"vehicle_type_id":"4","last_reported":1729192105,"current_range_meters":13600,"station_id":"","pricing_plan_id":"cebpf4jnsgd1na2vs0mg"},{"bike_id":"cfac2588-9e78-4f47-af5d-5b9faa7c9d4d","system_id":"levelo_inurba_marseille","lat":43.29885,"lon":5.38907,"is_reserved":false,"is_disabled":false,"rental_uris":{"android":"levelo://app?vid=cfac2588-9e78-4f47-af5d-5b9faa7c9d4d","ios":"levelo://app?vid=cfac2588-9e78-4f47-af5d-5b9faa7c9d4d"},"vehicle_type_id":"4","last_reported":1729192105,"current_range_meters":2800,"station_id":"ce4bh392rcd13ifvqdl0","pricing_plan_id":"cebpf4jnsgd1na2vs0mg"},{"bike_id":"14406e0e-8ca6-48a1-9d86-526485b44499","system_id":"levelo_inurba_marseille","lat":43.31319,"lon":5.397,"is_reserved":false,"is_disabled":false,"rental_uris":{"android":"levelo://app?vid=14406e0e-8ca6-48a1-9d86-526485b44499","ios":"levelo://app?vid=14406e0e-8ca6-48a1-9d86-526485b44499"},"vehicle_type_id":"4","last_reported":1729192105,"current_range_meters":38800,"station_id":"ce4bgvp2rcd13ifvqcu0","pricing_plan_id":"cebpf4jnsgd1na2vs0mg"},{"bike_id":"232859b9-fe55-49da-8d70-54008c900b9a","system_id":"levelo_inurba_marseille","lat":43.29895,"lon":5.43673,"is_reserved":false,"is_disabled":false,"rental_uris":{"android":"levelo://app?vid=232859b9-fe55-49da-8d70-54008c900b9a","ios":"levelo://app?vid=232859b9-fe55-49da-8d70-54008c900b9a"},"vehicle_type_id":"4","last_reported":1729192105,"current_range_meters":26800,"station_id":"ce4bhpp2rcd13ifvqhfg","pricing_plan_id":"cebpf4jnsgd1na2vs0mg"},{"bike_id":"78f98990-63b7-4d69-aa5d-950162093610","system_id":"levelo_inurba_marseille","lat":43.31329,"lon":5.39699,"is_reserved":false,"is_disabled":false,"rental_uris":{"android":"levelo://app?vid=78f98990-63b7-4d69-aa5d-950162093610","ios":"levelo://app?vid=78f98990-63b7-4d69-aa5d-950162093610"},"vehicle_type_id":"4","last_reported":1729192105,"current_range_meters":8400,"station_id":"ce4bgvp2rcd13ifvqcu0","pricing_plan_id":"cebpf4jnsgd1na2vs0mg"},{"bike_id":"4ce6a8a4-f543-406e-9b3b-bf69a485e2ff","system_id":"levelo_inurba_marseille","lat":43.2465,"lon":5.38893,"is_reserved":false,"is_disabled":false,"rental_uris":{"android":"levelo://app?vid=4ce6a8a4-f543-406e-9b3b-bf69a485e2ff","ios":"levelo://app?vid=4ce6a8a4-f543-406e-9b3b-bf69a485e2ff"},"vehicle_type_id":"4","last_reported":1729192105,"current_range_meters":32400,"station_id":"ce4bhg12rcd13ifvqf60","pricing_plan_id":"cebpf4jnsgd1na2vs0mg"},{"bike_id":"c9bf4f2f-c395-4348-a61a-af22ef7e335a","system_id":"levelo_inurba_marseille","lat":43.28617,"lon":5.351,"is_reserved":false,"is_disabled":false,"rental_uris":{"android":"levelo://app?vid=c9bf4f2f-c395-4348-a61a-af22ef7e335a","ios":"levelo://app?vid=c9bf4f2f-c395-4348-a61a-af22ef7e335a"},"vehicle_type_id":"4","last_reported":1729192105,"current_range_meters":24400,"station_id":"ce4bhch2rcd13ifvqeug","pricing_plan_id":"cebpf4jnsgd1na2vs0mg"},{"bike_id":"ea58ccff-b254-4a3b-a942-83e50d62f8b5","system_id":"levelo_inurba_marseille","lat":43.30422,"lon":5.38893,"is_reserved":false,"is_disabled":false,"rental_uris":{"android":"levelo://app?vid=ea58ccff-b254-4a3b-a942-83e50d62f8b5","ios":"levelo://app?vid=ea58ccff-b254-4a3b-a942-83e50d62f8b5"},"vehicle_type_id":"4","last_reported":1729192105,"current_range_meters":32000,"station_id":"ce4bgk12rcd13ifvqbi0","pricing_plan_id":"cebpf4jnsgd1na2vs0mg"},{"bike_id":"d41309ab-1a1f-4395-acaa-455483c3f8e1","system_id":"levelo_inurba_marseille","lat":43.23194,"lon":5.35559,"is_reserved":false,"is_disabled":false,"rental_uris":{"android":"levelo://app?vid=d41309ab-1a1f-4395-acaa-455483c3f8e1","ios":"levelo://app?vid=d41309ab-1a1f-4395-acaa-455483c3f8e1"},"vehicle_type_id":"4","last_reported":1729192105,"current_range_meters":35600,"station_id":"ce4bhu92rcd13ifvqi70","pricing_plan_id":"cebpf4jnsgd1na2vs0mg"},{"bike_id":"426a7769-25b2-493d-9bfe-80e8e462560a","system_id":"levelo_inurba_marseille","lat":43.29025,"lon":5.35921,"is_reserved":false,"is_disabled":false,"rental_uris":{"android":"levelo://app?vid=426a7769-25b2-493d-9bfe-80e8e462560a","ios":"levelo://app?vid=426a7769-25b2-493d-9bfe-80e8e462560a"},"vehicle_type_id":"4","last_reported":1729192105,"current_range_meters":39200,"station_id":"ce4bha92rcd13ifvqeg0","pricing_plan_id":"cebpf4jnsgd1na2vs0mg"},{"bike_id":"5d7fa87f-896d-4050-b095-97a49d3728a4","system_id":"levelo_inurba_marseille","lat":43.32291,"lon":5.3826,"is_reserved":false,"is_disabled":false,"rental_uris":{"android":"levelo://app?vid=5d7fa87f-896d-4050-b095-97a49d3728a4","ios":"levelo://app?vid=5d7fa87f-896d-4050-b095-97a49d3728a4"},"vehicle_type_id":"4","last_reported":1729192105,"current_range_meters":21600,"station_id":"ce4bhr12rcd13ifvqhqg","pricing_plan_id":"cebpf4jnsgd1na2vs0mg"},{"bike_id":"8492a2cf-69a3-49e8-aa89-101d80f390e5","system_id":"levelo_inurba_marseille","lat":43.29176,"lon":5.37156,"is_reserved":false,"is_disabled":false,"rental_uris":{"android":"levelo://app?vid=8492a2cf-69a3-49e8-aa89-101d80f390e5","ios":"levelo://app?vid=8492a2cf-69a3-49e8-aa89-101d80f390e5"},"vehicle_type_id":"4","last_reported":1729192105,"current_range_meters":12400,"station_id":"ce4bha92rcd13ifvqeh0","pricing_plan_id":"cebpf4jnsgd1na2vs0mg"},{"bike_id":"d7549997-4341-483a-8fd9-86b42a4b9e0d","system_id":"levelo_inurba_marseille","lat":43.31709,"lon":5.43718,"is_reserved":false,"is_disabled":false,"rental_uris":{"android":"levelo://app?vid=d7549997-4341-483a-8fd9-86b42a4b9e0d","ios":"levelo://app?vid=d7549997-4341-483a-8fd9-86b42a4b9e0d"},"vehicle_type_id":"4","last_reported":1729192105,"current_range_meters":39200,"station_id":"ce4bhp92rcd13ifvqhcg","pricing_plan_id":"cebpf4jnsgd1na2vs0mg"},{"bike_id":"2f089458-0c46-4cfd-9e11-bdbf8618b077","system_id":"levelo_inurba_marseille","lat":43.2942,"lon":5.38629,"is_reserved":false,"is_disabled":false,"rental_uris":{"android":"levelo://app?vid=2f089458-0c46-4cfd-9e11-bdbf8618b077","ios":"levelo://app?vid=2f089458-0c46-4cfd-9e11-bdbf8618b077"},"vehicle_type_id":"4","last_reported":1729192105,"current_range_meters":38800,"station_id":"ce4bh2h2rcd13ifvqdh0","pricing_plan_id":"cebpf4jnsgd1na2vs0mg"},{"bike_id":"0b319da6-684e-4798-a59c-1ed85a0372ba","system_id":"levelo_inurba_marseille","lat":43.25084,"lon":5.39515,"is_reserved":false,"is_disabled":false,"rental_uris":{"android":"levelo://app?vid=0b319da6-684e-4798-a59c-1ed85a0372ba","ios":"levelo://app?vid=0b319da6-684e-4798-a59c-1ed85a0372ba"},"vehicle_type_id":"4","last_reported":1729192105,"current_range_meters":11600,"station_id":"ce4bhm12rcd13ifvqgkg","pricing_plan_id":"cebpf4jnsgd1na2vs0mg"},{"bike_id":"f63915bf-31d8-4f44-860c-90acc1df9376","system_id":"levelo_inurba_marseille","lat":43.28617,"lon":5.37082,"is_reserved":false,"is_disabled":false,"rental_uris":{"android":"levelo://app?vid=f63915bf-31d8-4f44-860c-90acc1df9376","ios":"levelo://app?vid=f63915bf-31d8-4f44-860c-90acc1df9376"},"vehicle_type_id":"4","last_reported":1729192105,"current_range_meters":38800,"station_id":"ce4bht12rcd13ifvqi60","pricing_plan_id":"cebpf4jnsgd1na2vs0mg"},{"bike_id":"a8daef43-5a21-4776-8b76-60c76a8caefc","system_id":"levelo_inurba_marseille","lat":43.27826,"lon":5.40703,"is_reserved":false,"is_disabled":false,"rental_uris":{"android":"levelo://app?vid=a8daef43-5a21-4776-8b76-60c76a8caefc","ios":"levelo://app?vid=a8daef43-5a21-4776-8b76-60c76a8caefc"},"vehicle_type_id":"4","last_reported":1729192105,"current_range_meters":4400,"station_id":"ce4bhnh2rcd13ifvqgtg","pricing_plan_id":"cebpf4jnsgd1na2vs0mg"},{"bike_id":"daea0827-aea6-4d46-8ffe-7d2a7d138f2b","system_id":"levelo_inurba_marseille","lat":43.24803,"lon":5.37455,"is_reserved":false,"is_disabled":false,"rental_uris":{"android":"levelo://app?vid=daea0827-aea6-4d46-8ffe-7d2a7d138f2b","ios":"levelo://app?vid=daea0827-aea6-4d46-8ffe-7d2a7d138f2b"},"vehicle_type_id":"4","last_reported":1729192105,"current_range_meters":38800,"station_id":"ce4bhgh2rcd13ifvqfb0","pricing_plan_id":"cebpf4jnsgd1na2vs0mg"},{"bike_id":"033a7f68-f273-426e-84a9-8a3b2c56f6f5","system_id":"levelo_inurba_marseille","lat":43.35133,"lon":5.36817,"is_reserved":false,"is_disabled":false,"rental_uris":{"android":"levelo://app?vid=033a7f68-f273-426e-84a9-8a3b2c56f6f5","ios":"levelo://app?vid=033a7f68-f273-426e-84a9-8a3b2c56f6f5"},"vehicle_type_id":"4","last_reported":1729192105,"current_range_meters":11200,"station_id":"","pricing_plan_id":"cebpf4jnsgd1na2vs0mg"},{"bike_id":"90f91f09-973b-44d9-a013-f32276ec1b61","system_id":"levelo_inurba_marseille","lat":43.29421,"lon":5.38633,"is_reserved":false,"is_disabled":false,"rental_uris":{"android":"levelo://app?vid=90f91f09-973b-44d9-a013-f32276ec1b61","ios":"levelo://app?vid=90f91f09-973b-44d9-a013-f32276ec1b61"},"vehicle_type_id":"4","last_reported":1729192105,"current_range_meters":18800,"station_id":"ce4bh2h2rcd13ifvqdh0","pricing_plan_id":"cebpf4jnsgd1na2vs0mg"},{"bike_id":"358b1384-bc3e-4c8d-a204-7daf642c474a","system_id":"levelo_inurba_marseille","lat":43.31359,"lon":5.38499,"is_reserved":false,"is_disabled":false,"rental_uris":{"android":"levelo://app?vid=358b1384-bc3e-4c8d-a204-7daf642c474a","ios":"levelo://app?vid=358b1384-bc3e-4c8d-a204-7daf642c474a"},"vehicle_type_id":"4","last_reported":1729192105,"current_range_meters":9600,"station_id":"ce4bgt92rcd13ifvqcf0","pricing_plan_id":"cebpf4jnsgd1na2vs0mg"},{"bike_id":"3026f182-856a-46b0-af93-756e0e171941","system_id":"levelo_inurba_marseille","lat":43.29531,"lon":5.3855,"is_reserved":false,"is_disabled":false,"rental_uris":{"android":"levelo://app?vid=3026f182-856a-46b0-af93-756e0e171941","ios":"levelo://app?vid=3026f182-856a-46b0-af93-756e0e171941"},"vehicle_type_id":"4","last_reported":1729192105,"current_range_meters":38800,"station_id":"ce4bgih2rcd13ifvqba0","pricing_plan_id":"cebpf4jnsgd1na2vs0mg"},{"bike_id":"2f69633a-3baf-4011-a32e-87e956c23886","system_id":"levelo_inurba_marseille","lat":43.29725,"lon":5.36597,"is_reserved":false,"is_disabled":false,"rental_uris":{"android":"levelo://app?vid=2f69633a-3baf-4011-a32e-87e956c23886","ios":"levelo://app?vid=2f69633a-3baf-4011-a32e-87e956c23886"},"vehicle_type_id":"4","last_reported":1729192105,"current_range_meters":38800,"station_id":"ce4bgn12rcd13ifvqbt0","pricing_plan_id":"cebpf4jnsgd1na2vs0mg"},{"bike_id":"04c4cf79-556b-4e40-a4bb-e2e4af5139b5","system_id":"levelo_inurba_marseille","lat":43.281677,"lon":5.381776,"is_reserved":false,"is_disabled":false,"rental_uris":{"android":"levelo://app?vid=04c4cf79-556b-4e40-a4bb-e2e4af5139b5","ios":"levelo://app?vid=04c4cf79-556b-4e40-a4bb-e2e4af5139b5"},"vehicle_type_id":"4","last_reported":1729192105,"current_range_meters":30000,"station_id":"ce4bh412rcd13ifvqdr0","pricing_plan_id":"cebpf4jnsgd1na2vs0mg"},{"bike_id":"895463c7-46e9-40f9-a79e-ba8d0a3a9d8e","system_id":"levelo_inurba_marseille","lat":43.33024,"lon":5.39038,"is_reserved":false,"is_disabled":false,"rental_uris":{"android":"levelo://app?vid=895463c7-46e9-40f9-a79e-ba8d0a3a9d8e","ios":"levelo://app?vid=895463c7-46e9-40f9-a79e-ba8d0a3a9d8e"},"vehicle_type_id":"4","last_reported":1729192105,"current_range_meters":22800,"station_id":"ce4bhr92rcd13ifvqhrg","pricing_plan_id":"cebpf4jnsgd1na2vs0mg"},{"bike_id":"027581b2-6557-4572-b996-b38a41204cbc","system_id":"levelo_inurba_marseille","lat":43.29795,"lon":5.38111,"is_reserved":false,"is_disabled":false,"rental_uris":{"android":"levelo://app?vid=027581b2-6557-4572-b996-b38a41204cbc","ios":"levelo://app?vid=027581b2-6557-4572-b996-b38a41204cbc"},"vehicle_type_id":"4","last_reported":1729192105,"current_range_meters":8000,"station_id":"ce4bgip2rcd13ifvqbb0","pricing_plan_id":"cebpf4jnsgd1na2vs0mg"},{"bike_id":"6c752c55-2526-455b-9ad8-79330a177e42","system_id":"levelo_inurba_marseille","lat":43.31721,"lon":5.42406,"is_reserved":false,"is_disabled":false,"rental_uris":{"android":"levelo://app?vid=6c752c55-2526-455b-9ad8-79330a177e42","ios":"levelo://app?vid=6c752c55-2526-455b-9ad8-79330a177e42"},"vehicle_type_id":"4","last_reported":1729192105,"current_range_meters":3200,"station_id":"ce4bhp92rcd13ifvqhbg","pricing_plan_id":"cebpf4jnsgd1na2vs0mg"},