{"last_updated":1706818040,"ttl":30,"version":"2.2","data":{"bikes":[{"bike_id":"bdbb7867-0c28-41f8-94bd-a4517ab72c61","system_id":"levelo_inurba_marseille","lat":43.312239,"lon":5.368562,"is_reserved":false,"is_disabled":false,"rental_uris":{"android":"levelo://app?vid=bdbb7867-0c28-41f8-94bd-a4517ab72c61","ios":"levelo://app?vid=bdbb7867-0c28-41f8-94bd-a4517ab72c61"},"vehicle_type_id":"4","last_reported":1706818040,"current_range_meters":10400,"station_id":"ce4bgl92rcd13ifvqbq0","pricing_plan_id":"free"},{"bike_id":"def64640-9359-4eac-9481-985fafb91e5e","system_id":"levelo_inurba_marseille","lat":43.312239,"lon":5.368562,"is_reserved":false,"is_disabled":false,"rental_uris":{"android":"levelo://app?vid=def64640-9359-4eac-9481-985fafb91e5e","ios":"levelo://app?vid=def64640-9359-4eac-9481-985fafb91e5e"},"vehicle_type_id":"4","last_reported":1706818040,"current_range_meters":31200,"station_id":"ce4bgl92rcd13ifvqbq0","pricing_plan_id":"free"},{"bike_id":"5153265e-9aa3-48d8-b4ef-aead9d0f1140","system_id":"levelo_inurba_marseille","lat":43.312239,"lon":5.368562,"is_reserved":false,"is_disabled":false,"rental_uris":{"android":"levelo://app?vid=5153265e-9aa3-48d8-b4ef-aead9d0f1140","ios":"levelo://app?vid=5153265e-9aa3-48d8-b4ef-aead9d0f1140"},"vehicle_type_id":"4","last_reported":1706818040,"current_range_meters":16800,"station_id":"ce4bgl92rcd13ifvqbq0","pricing_plan_id":"free"},{"bike_id":"522fb62c-946c-4c55-96e5-453a7bb1d25c","system_id":"levelo_inurba_marseille","lat":43.312239,"lon":5.368562,"is_reserved":false,"is_disabled":false,"rental_uris":{"android":"levelo://app?vid=522fb62c-946c-4c55-96e5-453a7bb1d25c","ios":"levelo://app?vid=522fb62c-946c-4c55-96e5-453a7bb1d25c"},"vehicle_type_id":"4","last_reported":1706818040,"current_range_meters":9600,"station_id":"ce4bgl92rcd13ifvqbq0","pricing_plan_id":"free"},{"bike_id":"93195d14-9b4c-4988-ab39-aee30b45c49e","system_id":"levelo_inurba_marseille","lat":43.309076,"lon":5.368465,"is_reserved":false,"is_disabled":false,"rental_uris":{"android":"levelo://app?vid=93195d14-9b4c-4988-ab39-aee30b45c49e","ios":"levelo://app?vid=93195d14-9b4c-4988-ab39-aee30b45c49e"},"vehicle_type_id":"4","last_reported":1706818040,"current_range_meters":17600,"station_id":"ce4bgn92rcd13ifvqbvg","pricing_plan_id":"free"},{"bike_id":"d182da40-ec5a-4dbd-8b4d-bca3b55efceb","system_id":"levelo_inurba_marseille","lat":43.309076,"lon":5.368465,"is_reserved":false,"is_disabled":false,"rental_uris":{"android":"levelo://app?vid=d182da40-ec5a-4dbd-8b4d-bca3b55efceb","ios":"levelo://app?vid=d182da40-ec5a-4dbd-8b4d-bca3b55efceb"},"vehicle_type_id":"4","last_reported":1706818040,"current_range_meters":19200,"station_id":"ce4bgn92rcd13ifvqbvg","pricing_plan_id":"free"},{"bike_id":"3a7f311c-a7ef-4019-b708-5ba935abfbfc","system_id":"levelo_inurba_marseille","lat":43.31306,"lon":5.37258,"is_reserved":false,"is_disabled":false,"rental_uris":{"android":"levelo://app?vid=3a7f311c-a7ef-4019-b708-5ba935abfbfc","ios":"levelo://app?vid=3a7f311c-a7ef-4019-b708-5ba935abfbfc"},"vehicle_type_id":"4","last_reported":1706818040,"current_range_meters":18800,"station_id":"","pricing_plan_id":"free"},{"bike_id":"1c16901d-858a-449e-ab72-37797c027f84","system_id":"levelo_inurba_marseille","lat":43.31489,"lon":5.37303,"is_reserved":false,"is_disabled":false,"rental_uris":{"android":"levelo://app?vid=1c16901d-858a-449e-ab72-37797c027f84","ios":"levelo://app?vid=1c16901d-858a-449e-ab72-37797c027f84"},"vehicle_type_id":"4","last_reported":1706818040,"current_range_meters":0,"station_id":"ce4bgt12rcd13ifvqcd0","pricing_plan_id":"free"},{"bike_id":"1173d58c-b3af-438b-8c92-c4c88fa762ef","system_id":"levelo_inurba_marseille","lat":43.314811,"lon":5.373103,"is_reserved":false,"is_disabled":false,"rental_uris":{"android":"levelo://app?vid=1173d58c-b3af-438b-8c92-c4c88fa762ef","ios":"levelo://app?vid=1173d58c-b3af-438b-8c92-c4c88fa762ef"},"vehicle_type_id":"4","last_reported":1706818040,"current_range_meters":22800,"station_id":"ce4bgt12rcd13ifvqcd0","pricing_plan_id":"free"},{"bike_id":"415525b4-76fe-4f47-a34d-731d474f8ff0","system_id":"levelo_inurba_marseille","lat":43.308884,"lon":5.372029,"is_reserved":false,"is_disabled":false,"rental_uris":{"android":"levelo://app?vid=415525b4-76fe-4f47-a34d-731d474f8ff0","ios":"levelo://app?vid=415525b4-76fe-4f47-a34d-731d474f8ff0"},"vehicle_type_id":"4","last_reported":1706818040,"current_range_meters":20000,"station_id":"","pricing_plan_id":"free"},{"bike_id":"077a6166-7218-4a58-a436-0c6a4d789236","system_id":"levelo_inurba_marseille","lat":43.305567,"lon":5.366969,"is_reserved":false,"is_disabled":false,"rental_uris":{"android":"levelo://app?vid=077a6166-7218-4a58-a436-0c6a4d789236","ios":"levelo://app?vid=077a6166-7218-4a58-a436-0c6a4d789236"},"vehicle_type_id":"4","last_reported":1706818040,"current_range_meters":20800,"station_id":"ce4bgrp2rcd13ifvqc9g","pricing_plan_id":"free"},{"bike_id":"3c579170-605f-4914-b206-8956cfedc47d","system_id":"levelo_inurba_marseille","lat":43.305712,"lon":5.365641,"is_reserved":false,"is_disabled":false,"rental_uris":{"android":"levelo://app?vid=3c579170-605f-4914-b206-8956cfedc47d","ios":"levelo://app?vid=3c579170-605f-4914-b206-8956cfedc47d"},"vehicle_type_id":"4","last_reported":1706818040,"current_range_meters":800,"station_id":"ce4bgs12rcd13ifvqcag","pricing_plan_id":"free"},{"bike_id":"50432010-b880-464d-8771-37ac37b17958","system_id":"levelo_inurba_marseille","lat":43.305712,"lon":5.365641,"is_reserved":false,"is_disabled":false,"rental_uris":{"android":"levelo://app?vid=50432010-b880-464d-8771-37ac37b17958","ios":"levelo://app?vid=50432010-b880-464d-8771-37ac37b17958"},"vehicle_type_id":"4","last_reported":1706818040,"current_range_meters":9200,"station_id":"ce4bgs12rcd13ifvqcag","pricing_plan_id":"free"},{"bike_id":"c4e545a5-2a78-4e62-b3df-790fae313d28","system_id":"levelo_inurba_marseille","lat":43.305712,"lon":5.365641,"is_reserved":false,"is_disabled":false,"rental_uris":{"android":"levelo://app?vid=c4e545a5-2a78-4e62-b3df-790fae313d28","ios":"levelo://app?vid=c4e545a5-2a78-4e62-b3df-790fae313d28"},"vehicle_type_id":"4","last_reported":1706818040,"current_range_meters":11200,"station_id":"ce4bgs12rcd13ifvqcag","pricing_plan_id":"free"},{"bike_id":"1e2d9b78-459b-4af5-8b66-e03b0dde964a","system_id":"levelo_inurba_marseille","lat":43.30549,"lon":5.36547,"is_reserved":false,"is_disabled":false,"rental_uris":{"android":"levelo://app?vid=1e2d9b78-459b-4af5-8b66-e03b0dde964a","ios":"levelo://app?vid=1e2d9b78-459b-4af5-8b66-e03b0dde964a"},"vehicle_type_id":"4","last_reported":1706818040,"current_range_meters":0,"station_id":"ce4bgs12rcd13ifvqcag","pricing_plan_id":"free"},{"bike_id":"9271d791-bd77-4289-a009-5525d7e40623","system_id":"levelo_inurba_marseille","lat":43.305714,"lon":5.365633,"is_reserved":false,"is_disabled":false,"rental_uris":{"android":"levelo://app?vid=9271d791-bd77-4289-a009-5525d7e40623","ios":"levelo://app?vid=9271d791-bd77-4289-a009-5525d7e40623"},"vehicle_type_id":"4","last_reported":1706818040,"current_range_meters":25600,"station_id":"ce4bgs12rcd13ifvqcag","pricing_plan_id":"free"},{"bike_id":"8a6fccc3-e563-48ae-a67f-4d28be9b2014","system_id":"levelo_inurba_marseille","lat":43.311203,"lon":5.377664,"is_reserved":false,"is_disabled":false,"rental_uris":{"android":"levelo://app?vid=8a6fccc3-e563-48ae-a67f-4d28be9b2014","ios":"levelo://app?vid=8a6fccc3-e563-48ae-a67f-4d28be9b2014"},"vehicle_type_id":"4","last_reported":1706818040,"current_range_meters":400,"station_id":"ce4bgt92rcd13ifvqcg0","pricing_plan_id":"free"},{"bike_id":"e4620124-2ed1-4a12-87e1-36685f2159bb","system_id":"levelo_inurba_marseille","lat":43.31117,"lon":5.37771,"is_reserved":false,"is_disabled":false,"rental_uris":{"android":"levelo://app?vid=e4620124-2ed1-4a12-87e1-36685f2159bb","ios":"levelo://app?vid=e4620124-2ed1-4a12-87e1-36685f2159bb"},"vehicle_type_id":"4","last_reported":1706818040,"current_range_meters":0,"station_id":"ce4bgt92rcd13ifvqcg0","pricing_plan_id":"free"},{"bike_id":"bf25c3d5-a3c7-4dd1-8cc3-5175b2008027","system_id":"levelo_inurba_marseille","lat":43.31117,"lon":5.37772,"is_reserved":false,"is_disabled":false,"rental_uris":{"android":"levelo://app?vid=bf25c3d5-a3c7-4dd1-8cc3-5175b2008027","ios":"levelo://app?vid=bf25c3d5-a3c7-4dd1-8cc3-5175b2008027"},"vehicle_type_id":"4","last_reported":1706818040,"current_range_meters":19600,"station_id":"ce4bgt92rcd13ifvqcg0","pricing_plan_id":"free"},{"bike_id":"85598167-a032-4e77-bb18-327dab60000e","system_id":"levelo_inurba_marseille","lat":43.311125,"lon":5.377624,"is_reserved":false,"is_disabled":false,"rental_uris":{"android":"levelo://app?vid=85598167-a032-4e77-bb18-327dab60000e","ios":"levelo://app?vid=85598167-a032-4e77-bb18-327dab60000e"},"vehicle_type_id":"4","last_reported":1706818040,"current_range_meters":5600,"station_id":"ce4bgt92rcd13ifvqcg0","pricing_plan_id":"free"},{"bike_id":"226beb80-4277-4c1b-9116-4d291f8dd004","system_id":"levelo_inurba_marseille","lat":43.317075,"lon":5.377367,"is_reserved":false,"is_disabled":false,"rental_uris":{"android":"levelo://app?vid=226beb80-4277-4c1b-9116-4d291f8dd004","ios":"levelo://app?vid=226beb80-4277-4c1b-9116-4d291f8dd004"},"vehicle_type_id":"4","last_reported":1706818040,"current_range_meters":5600,"station_id":"ce4bgth2rcd13ifvqch0","pricing_plan_id":"free"},{"bike_id":"fba8f1ce-1af3-4c2e-b41f-531c50a370ee","system_id":"levelo_inurba_marseille","lat":43.31174,"lon":5.37876,"is_reserved":false,"is_disabled":false,"rental_uris":{"android":"levelo://app?vid=fba8f1ce-1af3-4c2e-b41f-531c50a370ee","ios":"levelo://app?vid=fba8f1ce-1af3-4c2e-b41f-531c50a370ee"},"vehicle_type_id":"4","last_reported":1706818040,"current_range_meters":6400,"station_id":"","pricing_plan_id":"free"},{"bike_id":"b21f5c34-98e9-40a4-9595-318511423343","system_id":"levelo_inurba_marseille","lat":43.317075,"lon":5.377367,"is_reserved":false,"is_disabled":false,"rental_uris":{"android":"levelo://app?vid=b21f5c34-98e9-40a4-9595-318511423343","ios":"levelo://app?vid=b21f5c34-98e9-40a4-9595-318511423343"},"vehicle_type_id":"4","last_reported":1706818040,"current_range_meters":22800,"station_id":"ce4bgth2rcd13ifvqch0","pricing_plan_id":"free"},{"bike_id":"80dbc99c-37db-4f7d-80e9-8269de1293dd","system_id":"levelo_inurba_marseille","lat":43.301939,"lon":5.366286,"is_reserved":false,"is_disabled":false,"rental_uris":{"android":"levelo://app?vid=80dbc99c-37db-4f7d-80e9-8269de1293dd","ios":"levelo://app?vid=80dbc99c-37db-4f7d-80e9-8269de1293dd"},"vehicle_type_id":"4","last_reported":1706818040,"current_range_meters":4400,"station_id":"ce4bgrh2rcd13ifvqc8g","pricing_plan_id":"free"},{"bike_id":"fc3c1539-28c3-4dd0-b015-753980613546","system_id":"levelo_inurba_marseille","lat":43.301939,"lon":5.366286,"is_reserved":false,"is_disabled":false,"rental_uris":{"android":"levelo://app?vid=fc3c1539-28c3-4dd0-b015-753980613546","ios":"levelo://app?vid=fc3c1539-28c3-4dd0-b015-753980613546"},"vehicle_type_id":"4","last_reported":1706818040,"current_range_meters":400,"station_id":"ce4bgrh2rcd13ifvqc8g","pricing_plan_id":"free"},{"bike_id":"ae3bbbdf-94ec-412b-ac7c-83c20afd0aff","system_id":"levelo_inurba_marseille","lat":43.3048,"lon":5.37888,"is_reserved":false,"is_disabled":false,"rental_uris":{"android":"levelo://app?vid=ae3bbbdf-94ec-412b-ac7c-83c20afd0aff","ios":"levelo://app?vid=ae3bbbdf-94ec-412b-ac7c-83c20afd0aff"},"vehicle_type_id":"4","last_reported":1706818040,"current_range_meters":0,"station_id":"ce4bgup2rcd13ifvqcn0","pricing_plan_id":"free"},{"bike_id":"26a2256d-b5f3-47f2-8f88-fd49bb301d72","system_id":"levelo_inurba_marseille","lat":43.30466,"lon":5.37901,"is_reserved":false,"is_disabled":false,"rental_uris":{"android":"levelo://app?vid=26a2256d-b5f3-47f2-8f88-fd49bb301d72","ios":"levelo://app?vid=26a2256d-b5f3-47f2-8f88-fd49bb301d72"},"vehicle_type_id":"4","last_reported":1706818040,"current_range_meters":0,"station_id":"ce4bgup2rcd13ifvqcn0","pricing_plan_id":"free"},{"bike_id":"3280dc05-3bad-43d5-9c67-66a75b8e776b","system_id":"levelo_inurba_marseille","lat":43.324771,"lon":5.36557,"is_reserved":false,"is_disabled":false,"rental_uris":{"android":"levelo://app?vid=3280dc05-3bad-43d5-9c67-66a75b8e776b","ios":"levelo://app?vid=3280dc05-3bad-43d5-9c67-66a75b8e776b"},"vehicle_type_id":"4","last_reported":1706818040,"current_range_meters":25600,"station_id":"ce4bhs12rcd13ifvqhvg","pricing_plan_id":"free"},{"bike_id":"913b59fd-c2f1-4722-8693-c3993314d595","system_id":"levelo_inurba_marseille","lat":43.31341,"lon":5.367098,"is_reserved":false,"is_disabled":false,"rental_uris":{"android":"levelo://app?vid=913b59fd-c2f1-4722-8693-c3993314d595","ios":"levelo://app?vid=913b59fd-c2f1-4722-8693-c3993314d595"},"vehicle_type_id":"4","last_reported":1706818040,"current_range_meters":24400,"station_id":"ce4bgr92rcd13ifvqc6g","pricing_plan_id":"free"},{"bike_id":"5ce54fda-b7e4-43be-b9f7-2a2f65c6823e","system_id":"levelo_inurba_marseille","lat":43.302784,"lon":5.377158,"is_reserved":false,"is_disabled":false,"rental_uris":{"android":"levelo://app?vid=5ce54fda-b7e4-43be-b9f7-2a2f65c6823e","ios":"levelo://app?vid=5ce54fda-b7e4-43be-b9f7-2a2f65c6823e"},"vehicle_type_id":"4","last_reported":1706818040,"current_range_meters":4800,"station_id":"ce4bguh2rcd13ifvqcj0","pricing_plan_id":"free"},{"bike_id":"b29aff8a-d845-486d-9610-4eb264c2c178","system_id":"levelo_inurba_marseille","lat":43.30139,"lon":5.37408,"is_reserved":false,"is_disabled":false,"rental_uris":{"android":"levelo://app?vid=b29aff8a-d845-486d-9610-4eb264c2c178","ios":"levelo://app?vid=b29aff8a-d845-486d-9610-4eb264c2c178"},"vehicle_type_id":"4","last_reported":1706818040,"current_range_meters":0,"station_id":"ce4bgs92rcd13ifvqcc0","pricing_plan_id":"free"},{"bike_id":"b6c32f89-fcfa-4e98-81d1-c8a72f8e3d56","system_id":"levelo_inurba_marseille","lat":43.30143,"lon":5.37413,"is_reserved":false,"is_disabled":false,"rental_uris":{"android":"levelo://app?vid=b6c32f89-fcfa-4e98-81d1-c8a72f8e3d56","ios":"levelo://app?vid=b6c32f89-fcfa-4e98-81d1-c8a72f8e3d56"},"vehicle_type_id":"4","last_reported":1706818040,"current_range_meters":3200,"station_id":"ce4bgs92rcd13ifvqcc0","pricing_plan_id":"free"},{"bike_id":"64d78273-fffd-4887-a48e-68932349843e","system_id":"levelo_inurba_marseille","lat":43.319923,"lon":5.381415,"is_reserved":false,"is_disabled":false,"rental_uris":{"android":"levelo://app?vid=64d78273-fffd-4887-a48e-68932349843e","ios":"levelo://app?vid=64d78273-fffd-4887-a48e-68932349843e"},"vehicle_type_id":"4","last_reported":1706818040,"current_range_meters":25600,"station_id":"","pricing_plan_id":"free"},{"bike_id":"750ede20-1a92-4656-b5f3-684b58e12ed0","system_id":"levelo_inurba_marseille","lat":43.319935,"lon":5.381699,"is_reserved":false,"is_disabled":false,"rental_uris":{"android":"levelo://app?vid=750ede20-1a92-4656-b5f3-684b58e12ed0","ios":"levelo://app?vid=750ede20-1a92-4656-b5f3-684b58e12ed0"},"vehicle_type_id":"4","last_reported":1706818040,"current_range_meters":1600,"station_id":"ce4bhr12rcd13ifvqhpg","pricing_plan_id":"free"},{"bike_id":"33aa6591-fee3-4190-8337-a93734a2451e","system_id":"levelo_inurba_marseille","lat":43.319935,"lon":5.381699,"is_reserved":false,"is_disabled":false,"rental_uris":{"android":"levelo://app?vid=33aa6591-fee3-4190-8337-a93734a2451e","ios":"levelo://app?vid=33aa6591-fee3-4190-8337-a93734a2451e"},"vehicle_type_id":"4","last_reported":1706818040,"current_range_meters":26400,"station_id":"ce4bhr12rcd13ifvqhpg","pricing_plan_id":"free"},{"bike_id":"0a431524-38b9-4c1b-956e-85b95de4b027","system_id":"levelo_inurba_marseille","lat":43.319935,"lon":5.381699,"is_reserved":false,"is_disabled":false,"rental_uris":{"android":"levelo://app?vid=0a431524-38b9-4c1b-956e-85b95de4b027","ios":"levelo://app?vid=0a431524-38b9-4c1b-956e-85b95de4b027"},"vehicle_type_id":"4","last_reported":1706818040,"current_range_meters":400,"station_id":"ce4bhr12rcd13ifvqhpg","pricing_plan_id":"free"},{"bike_id":"71d56451-cebf-4006-aa6b-bed0df139352","system_id":"levelo_inurba_marseille","lat":43.305364,"lon":5.384119,"is_reserved":false,"is_disabled":false,"rental_uris":{"android":"levelo://app?vid=71d56451-cebf-4006-aa6b-bed0df139352","ios":"levelo://app?vid=71d56451-cebf-4006-aa6b-bed0df139352"},"vehicle_type_id":"4","last_reported":1706818040,"current_range_meters":13600,"station_id":"ce4bgg92rcd13ifvqb30","pricing_plan_id":"free"},{"bike_id":"d44ce61f-67ef-4d51-b216-d9251b48baa0","system_id":"levelo_inurba_marseille","lat":43.319935,"lon":5.381699,"is_reserved":false,"is_disabled":false,"rental_uris":{"android":"levelo://app?vid=d44ce61f-67ef-4d51-b216-d9251b48baa0","ios":"levelo://app?vid=d44ce61f-67ef-4d51-b216-d9251b48baa0"},"vehicle_type_id":"4","last_reported":1706818040,"current_range_meters":14400,"station_id":"ce4bhr12rcd13ifvqhpg","pricing_plan_id":"free"},{"bike_id":"5d1f62cd-175b-4219-aa13-aee81343a1e5","system_id":"levelo_inurba_marseille","lat":43.319935,"lon":5.381699,"is_reserved":false,"is_disabled":false,"rental_uris":{"android":"levelo://app?vid=5d1f62cd-175b-4219-aa13-aee81343a1e5","ios":"levelo://app?vid=5d1f62cd-175b-4219-aa13-aee81343a1e5"},"vehicle_type_id":"4","last_reported":1706818040,"current_range_meters":17600,"station_id":"ce4bhr12rcd13ifvqhpg","pricing_plan_id":"free"},{"bike_id":"894b44a7-54f7-41b4-bb98-30de2e4f98db","system_id":"levelo_inurba_marseille","lat":43.31374,"lon":5.38482,"is_reserved":false,"is_disabled":false,"rental_uris":{"android":"levelo://app?vid=894b44a7-54f7-41b4-bb98-30de2e4f98db","ios":"levelo://app?vid=894b44a7-54f7-41b4-bb98-30de2e4f98db"},"vehicle_type_id":"4","last_reported":1706818040,"current_range_meters":18000,"station_id":"ce4bgt92rcd13ifvqcf0","pricing_plan_id":"free"},{"bike_id":"46c5fcf0-2722-4bbe-a99d-0958e8038721","system_id":"levelo_inurba_marseille","lat":43.313661,"lon":5.384955,"is_reserved":false,"is_disabled":false,"rental_uris":{"android":"levelo://app?vid=46c5fcf0-2722-4bbe-a99d-0958e8038721","ios":"levelo://app?vid=46c5fcf0-2722-4bbe-a99d-0958e8038721"},"vehicle_type_id":"4","last_reported":1706818040,"current_range_meters":0,"station_id":"ce4bgt92rcd13ifvqcf0","pricing_plan_id":"free"},{"bike_id":"5c199c4d-d926-4aca-922d-0a76e5953173","system_id":"levelo_inurba_marseille","lat":43.299222,"lon":5.365554,"is_reserved":false,"is_disabled":false,"rental_uris":{"android":"levelo://app?vid=5c199c4d-d926-4aca-922d-0a76e5953173","ios":"levelo://app?vid=5c199c4d-d926-4aca-922d-0a76e5953173"},"vehicle_type_id":"4","last_reported":1706818040,"current_range_meters":3600,"station_id":"ce4bgm92rcd13ifvqbr0","pricing_plan_id":"free"},{"bike_id":"d953fffb-30be-4a7c-bd0a-20472681dcd8","system_id":"levelo_inurba_marseille","lat":43.299209,"lon":5.365547,"is_reserved":false,"is_disabled":false,"rental_uris":{"android":"levelo://app?vid=d953fffb-30be-4a7c-bd0a-20472681dcd8","ios":"levelo://app?vid=d953fffb-30be-4a7c-bd0a-20472681dcd8"},"vehicle_type_id":"4","last_reported":1706818040,"current_range_meters":17600,"station_id":"ce4bgm92rcd13ifvqbr0","pricing_plan_id":"free"},{"bike_id":"95a7a16b-e739-443f-89bc-9af6f6456f04","system_id":"levelo_inurba_marseille","lat":43.3055,"lon":5.38423,"is_reserved":false,"is_disabled":false,"rental_uris":{"android":"levelo://app?vid=95a7a16b-e739-443f-89bc-9af6f6456f04","ios":"levelo://app?vid=95a7a16b-e739-443f-89bc-9af6f6456f04"},"vehicle_type_id":"4","last_reported":1706818040,"current_range_meters":2400,"station_id":"ce4bgg92rcd13ifvqb30","pricing_plan_id":"free"},{"bike_id":"57169314-ff87-4841-afd6-b61cb14eb6a0","system_id":"levelo_inurba_marseille","lat":43.298433,"lon":5.362774,"is_reserved":false,"is_disabled":false,"rental_uris":{"android":"levelo://app?vid=57169314-ff87-4841-afd6-b61cb14eb6a0","ios":"levelo://app?vid=57169314-ff87-4841-afd6-b61cb14eb6a0"},"vehicle_type_id":"4","last_reported":1706818040,"current_range_meters":23600,"station_id":"ce4bgpp2rcd13ifvqc3g","pricing_plan_id":"free"},{"bike_id":"9a43be86-225a-40b4-844e-4fbb685e1c05","system_id":"levelo_inurba_marseille","lat":43.298433,"lon":5.362774,"is_reserved":false,"is_disabled":false,"rental_uris":{"android":"levelo://app?vid=9a43be86-225a-40b4-844e-4fbb685e1c05","ios":"levelo://app?vid=9a43be86-225a-40b4-844e-4fbb685e1c05"},"vehicle_type_id":"4","last_reported":1706818040,"current_range_meters":5600,"station_id":"ce4bgpp2rcd13ifvqc3g","pricing_plan_id":"free"},{"bike_id":"89cded1e-925b-4bdf-9d5e-064be6f9784f","system_id":"levelo_inurba_marseille","lat":43.298433,"lon":5.362774,"is_reserved":false,"is_disabled":false,"rental_uris":{"android":"levelo://app?vid=89cded1e-925b-4bdf-9d5e-064be6f9784f","ios":"levelo://app?vid=89cded1e-925b-4bdf-9d5e-064be6f9784f"},"vehicle_type_id":"4","last_reported":1706818040,"current_range_meters":27600,"station_id":"ce4bgpp2rcd13ifvqc3g","pricing_plan_id":"free"},{"bike_id":"1ee319aa-4037-484f-a455-a561c1c9a4f6","system_id":"levelo_inurba_marseille","lat":43.311722,"lon":5.387247,"is_reserved":false,"is_disabled":false,"rental_uris":{"android":"levelo://app?vid=1ee319aa-4037-484f-a455-a561c1c9a4f6","ios":"levelo://app?vid=1ee319aa-4037-484f-a455-a561c1c9a4f6"},"vehicle_type_id":"4","last_reported":1706818040,"current_range_meters":0,"station_id":"ce4bgv12rcd13ifvqcp0","pricing_plan_id":"free"},{"bike_id":"5432b4d5-6f3f-4046-a600-0c38ec8ae75f","system_id":"levelo_inurba_marseille","lat":43.311722,"lon":5.387247,"is_reserved":false,"is_disabled":false,"rental_uris":{"android":"levelo://app?vid=5432b4d5-6f3f-4046-a600-0c38ec8ae75f","ios":"levelo://app?vid=5432b4d5-6f3f-4046-a600-0c38ec8ae75f"},"vehicle_type_id":"4","last_reported":1706818040,"current_range_meters":9200,"station_id":"ce4bgv12rcd13ifvqcp0","pricing_plan_id":"free"},{"bike_id":"f039b650-f9ed-4d60-9c22-76c164f663f3","system_id":"levelo_inurba_marseille","lat":43.29962,"lon":5.377215,"is_reserved":false,"is_disabled":false,"rental_uris":{"android":"levelo://app?vid=f039b650-f9ed-4d60-9c22-76c164f663f3","ios":"levelo://app?vid=f039b650-f9ed-4d60-9c22-76c164f663f3"},"vehicle_type_id":"4","last_reported":1706818040,"current_range_meters":15600,"station_id":"ce4bgqh2rcd13ifvqc4g","pricing_plan_id":"free"},{"bike_id":"ababc665-0323-4196-966a-430eb84efd6d","system_id":"levelo_inurba_marseille","lat":43.322872,"lon":5.382756,"is_reserved":false,"is_disabled":false,"rental_uris":{"android":"levelo://app?vid=ababc665-0323-4196-966a-430eb84efd6d","ios":"levelo://app?vid=ababc665-0323-4196-966a-430eb84efd6d"},"vehicle_type_id":"4","last_reported":1706818040,"current_range_meters":3600,"station_id":"ce4bhr12rcd13ifvqhqg","pricing_plan_id":"free"},{"bike_id":"0c18ba4b-3de6-4a68-a3a7-70a0572153b9","system_id":"levelo_inurba_marseille","lat":43.297794,"lon":5.370888,"is_reserved":false,"is_disabled":false,"rental_uris":{"android":"levelo://app?vid=0c18ba4b-3de6-4a68-a3a7-70a0572153b9","ios":"levelo://app?vid=0c18ba4b-3de6-4a68-a3a7-70a0572153b9"},"vehicle_type_id":"4","last_reported":1706818040,"current_range_meters":17600,"station_id":"ce4bgop2rcd13ifvqc1g","pricing_plan_id":"free"},{"bike_id":"c5d0d7d5-9b16-4eb0-a7f6-5fa1faf28471","system_id":"levelo_inurba_marseille","lat":43.322872,"lon":5.382756,"is_reserved":false,"is_disabled":false,"rental_uris":{"android":"levelo://app?vid=c5d0d7d5-9b16-4eb0-a7f6-5fa1faf28471","ios":"levelo://app?vid=c5d0d7d5-9b16-4eb0-a7f6-5fa1faf28471"},"vehicle_type_id":"4","last_reported":1706818040,"current_range_meters":6400,"station_id":"ce4bhr12rcd13ifvqhqg","pricing_plan_id":"free"},{"bike_id":"a4d68b0a-4423-409c-ab55-90eedde5d8f9","system_id":"levelo_inurba_marseille","lat":43.322872,"lon":5.382756,"is_reserved":false,"is_disabled":false,"rental_uris":{"android":"levelo://app?vid=a4d68b0a-4423-409c-ab55-90eedde5d8f9","ios":"levelo://app?vid=a4d68b0a-4423-409c-ab55-90eedde5d8f9"},"vehicle_type_id":"4","last_reported":1706818040,"current_range_meters":12800,"station_id":"ce4bhr12rcd13ifvqhqg","pricing_plan_id":"free"},{"bike_id":"b43645aa-f2e5-486d-a2fa-bf46e0a03dc2","system_id":"levelo_inurba_marseille","lat":43.322872,"lon":5.382756,"is_reserved":false,"is_disabled":false,"rental_uris":{"android":"levelo://app?vid=b43645aa-f2e5-486d-a2fa-bf46e0a03dc2","ios":"levelo://app?vid=b43645aa-f2e5-486d-a2fa-bf46e0a03dc2"},"vehicle_type_id":"4","last_reported":1706818040,"current_range_meters":14000,"station_id":"ce4bhr12rcd13ifvqhqg","pricing_plan_id":"free"},{"bike_id":"2f814de7-ab89-4e81-bd56-ab00af80498f","system_id":"levelo_inurba_marseille","lat":43.322872,"lon":5.382756,"is_reserved":false,"is_disabled":false,"rental_uris":{"android":"levelo://app?vid=2f814de7-ab89-4e81-bd56-ab00af80498f","ios":"levelo://app?vid=2f814de7-ab89-4e81-bd56-ab00af80498f"},"vehicle_type_id":"4","last_reported":1706818040,"current_range_meters":18800,"station_id":"ce4bhr12rcd13ifvqhqg","pricing_plan_id":"free"},{"bike_id":"b069e964-d710-4a2f-993a-1ab0b01ca06a","system_id":"levelo_inurba_marseille","lat":43.322872,"lon":5.382756,"is_reserved":false,"is_disabled":false,"rental_uris":{"android":"levelo://app?vid=b069e964-d710-4a2f-993a-1ab0b01ca06a","ios":"levelo://app?vid=b069e964-d710-4a2f-993a-1ab0b01ca06a"},"vehicle_type_id":"4","last_reported":1706818040,"current_range_meters":8000,"station_id":"ce4bhr12rcd13ifvqhqg","pricing_plan_id":"free"},{"bike_id":"b667764d-fe48-4325-becc-a4e6eea43d1a","system_id":"levelo_inurba_marseille","lat":43.322872,"lon":5.382756,"is_reserved":false,"is_disabled":false,"rental_uris":{"android":"levelo://app?vid=b667764d-fe48-4325-becc-a4e6eea43d1a","ios":"levelo://app?vid=b667764d-fe48-4325-becc-a4e6eea43d1a"},"vehicle_type_id":"4","last_reported":1706818040,"current_range_meters":800,"station_id":"ce4bhr12rcd13ifvqhqg","pricing_plan_id":"free"},{"bike_id":"6268e9ea-d457-41cb-b090-f7f91ef35cfb","system_id":"levelo_inurba_marseille","lat":43.322872,"lon":5.382756,"is_reserved":false,"is_disabled":false,"rental_uris":{"android":"levelo://app?vid=6268e9ea-d457-41cb-b090-f7f91ef35cfb","ios":"levelo://app?vid=6268e9ea-d457-41cb-b090-f7f91ef35cfb"},"vehicle_type_id":"4","last_reported":1706818040,"current_range_meters":31200,"station_id":"ce4bhr12rcd13ifvqhqg","pricing_plan_id":"free"},{"bike_id":"04133053-7e22-49fe-9a8e-cfae27a54d05","system_id":"levelo_inurba_marseille","lat":43.322872,"lon":5.382756,"is_reserved":false,"is_disabled":false,"rental_uris":{"android":"levelo://app?vid=04133053-7e22-49fe-9a8e-cfae27a54d05","ios":"levelo://app?vid=04133053-7e22-49fe-9a8e-cfae27a54d05"},"vehicle_type_id":"4","last_reported":1706818040,"current_range_meters":10800,"station_id":"ce4bhr12rcd13ifvqhqg","pricing_plan_id":"free"},{"bike_id":"fe8c23ed-2d2c-440e-af96-53c10d2bb158","system_id":"levelo_inurba_marseille","lat":43.297794,"lon":5.370888,"is_reserved":false,"is_disabled":false,"rental_uris":{"android":"levelo://app?vid=fe8c23ed-2d2c-440e-af96-53c10d2bb158","ios":"levelo://app?vid=fe8c23ed-2d2c-440e-af96-53c10d2bb158"},"vehicle_type_id":"4","last_reported":1706818040,"current_range_meters":18400,"station_id":"ce4bgop2rcd13ifvqc1g","pricing_plan_id":"free"},{"bike_id":"9781ebb3-155f-4467-bcb9-a79d2aadab6e","system_id":"levelo_inurba_marseille","lat":43.322872,"lon":5.382756,"is_reserved":false,"is_disabled":false,"rental_uris":{"android":"levelo://app?vid=9781ebb3-155f-4467-bcb9-a79d2aadab6e","ios":"levelo://app?vid=9781ebb3-155f-4467-bcb9-a79d2aadab6e"},"vehicle_type_id":"4","last_reported":1706818040,"current_range_meters":4000,"station_id":"ce4bhr12rcd13ifvqhqg","pricing_plan_id":"free"},{"bike_id":"df7ed42e-867b-4350-aaa4-7ed8af048e36","system_id":"levelo_inurba_marseille","lat":43.328371,"lon":5.366909,"is_reserved":false,"is_disabled":false,"rental_uris":{"android":"levelo://app?vid=df7ed42e-867b-4350-aaa4-7ed8af048e36","ios":"levelo://app?vid=df7ed42e-867b-4350-aaa4-7ed8af048e36"},"vehicle_type_id":"4","last_reported":1706818040,"current_range_meters":30400,"station_id":"ce4bhs92rcd13ifvqi0g","pricing_plan_id":"free"},{"bike_id":"54d2e451-9cd4-400a-bfa8-eb46cefbc970","system_id":"levelo_inurba_marseille","lat":43.328371,"lon":5.366909,"is_reserved":false,"is_disabled":false,"rental_uris":{"android":"levelo://app?vid=54d2e451-9cd4-400a-bfa8-eb46cefbc970","ios":"levelo://app?vid=54d2e451-9cd4-400a-bfa8-eb46cefbc970"},"vehicle_type_id":"4","last_reported":1706818040,"current_range_meters":30800,"station_id":"ce4bhs92rcd13ifvqi0g","pricing_plan_id":"free"},{"bike_id":"c5941e73-0993-401d-9783-32e45f8ef8be","system_id":"levelo_inurba_marseille","lat":43.328371,"lon":5.366909,"is_reserved":false,"is_disabled":false,"rental_uris":{"android":"levelo://app?vid=c5941e73-0993-401d-9783-32e45f8ef8be","ios":"levelo://app?vid=c5941e73-0993-401d-9783-32e45f8ef8be"},"vehicle_type_id":"4","last_reported":1706818040,"current_range_meters":4000,"station_id":"ce4bhs92rcd13ifvqi0g","pricing_plan_id":"free"},{"bike_id":"7a73dd0a-9b40-43d1-a84e-8ae1c03f96f6","system_id":"levelo_inurba_marseille","lat":43.297163,"lon":5.365866,"is_reserved":false,"is_disabled":false,"rental_uris":{"android":"levelo://app?vid=7a73dd0a-9b40-43d1-a84e-8ae1c03f96f6","ios":"levelo://app?vid=7a73dd0a-9b40-43d1-a84e-8ae1c03f96f6"},"vehicle_type_id":"4","last_reported":1706818040,"current_range_meters":4000,"station_id":"ce4bgn12rcd13ifvqbt0","pricing_plan_id":"free"},{"bike_id":"9efb79d0-e2ba-456d-ba9a-99a10d4c7b7e","system_id":"levelo_inurba_marseille","lat":43.328371,"lon":5.366909,"is_reserved":false,"is_disabled":false,"rental_uris":{"android":"levelo://app?vid=9efb79d0-e2ba-456d-ba9a-99a10d4c7b7e","ios":"levelo://app?vid=9efb79d0-e2ba-456d-ba9a-99a10d4c7b7e"},"vehicle_type_id":"4","last_reported":1706818040,"current_range_meters":19200,"station_id":"ce4bhs92rcd13ifvqi0g","pricing_plan_id":"free"},{"bike_id":"e0a25449-b015-4798-8793-6cbf12c34aed","system_id":"levelo_inurba_marseille","lat":43.297163,"lon":5.365866,"is_reserved":false,"is_disabled":false,"rental_uris":{"android":"levelo://app?vid=e0a25449-b015-4798-8793-6cbf12c34aed","ios":"levelo://app?vid=e0a25449-b015-4798-8793-6cbf12c34aed"},"vehicle_type_id":"4","last_reported":1706818040,"current_range_meters":0,"station_id":"ce4bgn12rcd13ifvqbt0","pricing_plan_id":"free"},{"bike_id":"8871bc6d-98fe-4829-9ae1-edd6050b7f32","system_id":"levelo_inurba_marseille","lat":43.297163,"lon":5.365866,"is_reserved":false,"is_disabled":false,"rental_uris":{"android":"levelo://app?vid=8871bc6d-98fe-4829-9ae1-edd6050b7f32","ios":"levelo://app?vid=8871bc6d-98fe-4829-9ae1-edd6050b7f32"},"vehicle_type_id":"4","last_reported":1706818040,"current_range_meters":12000,"station_id":"ce4bgn12rcd13ifvqbt0","pricing_plan_id":"free"},{"bike_id":"65fc335e-45c8-4311-b5d8-53a51b4b3050","system_id":"levelo_inurba_marseille","lat":43.2968,"lon":5.37291,"is_reserved":false,"is_disabled":false,"rental_uris":{"android":"levelo://app?vid=65fc335e-45c8-4311-b5d8-53a51b4b3050","ios":"levelo://app?vid=65fc335e-45c8-4311-b5d8-53a51b4b3050"},"vehicle_type_id":"4","last_reported":1706818040,"current_range_meters":0,"station_id":"ce4bgk12rcd13ifvqbj0","pricing_plan_id":"free"},{"bike_id":"9f123490-797c-48bf-b0fe-6381975956a5","system_id":"levelo_inurba_marseille","lat":43.31751,"lon":5.38907,"is_reserved":false,"is_disabled":false,"rental_uris":{"android":"levelo://app?vid=9f123490-797c-48bf-b0fe-6381975956a5","ios":"levelo://app?vid=9f123490-797c-48bf-b0fe-6381975956a5"},"vehicle_type_id":"4","last_reported":1706818040,"current_range_meters":22800,"station_id":"","pricing_plan_id":"free"},{"bike_id":"8e8d5e09-fbcd-42ba-971e-4812e2d543b1","system_id":"levelo_inurba_marseille","lat":43.29584,"lon":5.36742,"is_reserved":false,"is_disabled":false,"rental_uris":{"android":"levelo://app?vid=8e8d5e09-fbcd-42ba-971e-4812e2d543b1","ios":"levelo://app?vid=8e8d5e09-fbcd-42ba-971e-4812e2d543b1"},"vehicle_type_id":"4","last_reported":1706818040,"current_range_meters":20400,"station_id":"ce4bgph2rcd13ifvqc2g","pricing_plan_id":"free"},{"bike_id":"5b46968d-d1ed-4159-91fe-1f7e078c653f","system_id":"levelo_inurba_marseille","lat":43.29573,"lon":5.367355,"is_reserved":false,"is_disabled":false,"rental_uris":{"android":"levelo://app?vid=5b46968d-d1ed-4159-91fe-1f7e078c653f","ios":"levelo://app?vid=5b46968d-d1ed-4159-91fe-1f7e078c653f"},"vehicle_type_id":"4","last_reported":1706818040,"current_range_meters":31200,"station_id":"ce4bgph2rcd13ifvqc2g","pricing_plan_id":"free"},{"bike_id":"ebbf2fcb-3a7c-4d8c-b58b-ea21259bfeb1","system_id":"levelo_inurba_marseille","lat":43.309589,"lon":5.390258,"is_reserved":false,"is_disabled":false,"rental_uris":{"android":"levelo://app?vid=ebbf2fcb-3a7c-4d8c-b58b-ea21259bfeb1","ios":"levelo://app?vid=ebbf2fcb-3a7c-4d8c-b58b-ea21259bfeb1"},"vehicle_type_id":"4","last_reported":1706818040,"current_range_meters":0,"station_id":"ce4bgup2rcd13ifvqco0","pricing_plan_id":"free"},{"bike_id":"418e32ea-a077-4df8-b4d2-80239f018d54","system_id":"levelo_inurba_marseille","lat":43.299028,"lon":5.381509,"is_reserved":false,"is_disabled":false,"rental_uris":{"android":"levelo://app?vid=418e32ea-a077-4df8-b4d2-80239f018d54","ios":"levelo://app?vid=418e32ea-a077-4df8-b4d2-80239f018d54"},"vehicle_type_id":"4","last_reported":1706818040,"current_range_meters":22800,"station_id":"ce4bgj12rcd13ifvqbc0","pricing_plan_id":"free"},{"bike_id":"646447d3-b90a-4c79-80bc-61cfee8e1fb0","system_id":"levelo_inurba_marseille","lat":43.317557,"lon":5.390173,"is_reserved":false,"is_disabled":false,"rental_uris":{"android":"levelo://app?vid=646447d3-b90a-4c79-80bc-61cfee8e1fb0","ios":"levelo://app?vid=646447d3-b90a-4c79-80bc-61cfee8e1fb0"},"vehicle_type_id":"4","last_reported":1706818040,"current_range_meters":400,"station_id":"ce4bhqp2rcd13ifvqhng","pricing_plan_id":"free"},{"bike_id":"ae8f0e56-9237-4255-b933-26929014c570","system_id":"levelo_inurba_marseille","lat":43.317557,"lon":5.390173,"is_reserved":false,"is_disabled":false,"rental_uris":{"android":"levelo://app?vid=ae8f0e56-9237-4255-b933-26929014c570","ios":"levelo://app?vid=ae8f0e56-9237-4255-b933-26929014c570"},"vehicle_type_id":"4","last_reported":1706818040,"current_range_meters":17200,"station_id":"ce4bhqp2rcd13ifvqhng","pricing_plan_id":"free"},{"bike_id":"3fecf167-fccf-451d-8a9a-2c9fc14b9ce3","system_id":"levelo_inurba_marseille","lat":43.317557,"lon":5.390173,"is_reserved":false,"is_disabled":false,"rental_uris":{"android":"levelo://app?vid=3fecf167-fccf-451d-8a9a-2c9fc14b9ce3","ios":"levelo://app?vid=3fecf167-fccf-451d-8a9a-2c9fc14b9ce3"},"vehicle_type_id":"4","last_reported":1706818040,"current_range_meters":23200,"station_id":"ce4bhqp2rcd13ifvqhng","pricing_plan_id":"free"},{"bike_id":"d925a1da-be64-4882-ac77-835bcb4ad324","system_id":"levelo_inurba_marseille","lat":43.29808,"lon":5.38103,"is_reserved":false,"is_disabled":false,"rental_uris":{"android":"levelo://app?vid=d925a1da-be64-4882-ac77-835bcb4ad324","ios":"levelo://app?vid=d925a1da-be64-4882-ac77-835bcb4ad324"},"vehicle_type_id":"4","last_reported":1706818040,"current_range_meters":7600,"station_id":"ce4bgip2rcd13ifvqbb0","pricing_plan_id":"free"},{"bike_id":"6efa8381-1d10-41dd-badd-ff119dcea354","system_id":"levelo_inurba_marseille","lat":43.304274,"lon":5.388873,"is_reserved":false,"is_disabled":false,"rental_uris":{"android":"levelo://app?vid=6efa8381-1d10-41dd-badd-ff119dcea354","ios":"levelo://app?vid=6efa8381-1d10-41dd-badd-ff119dcea354"},"vehicle_type_id":"4","last_reported":1706818040,"current_range_meters":18400,"station_id":"ce4bgk12rcd13ifvqbi0","pricing_plan_id":"free"},{"bike_id":"eee1951d-b97c-4a0e-a30a-4c3c7d919031","system_id":"levelo_inurba_marseille","lat":43.304278,"lon":5.388868,"is_reserved":false,"is_disabled":false,"rental_uris":{"android":"levelo://app?vid=eee1951d-b97c-4a0e-a30a-4c3c7d919031","ios":"levelo://app?vid=eee1951d-b97c-4a0e-a30a-4c3c7d919031"},"vehicle_type_id":"4","last_reported":1706818040,"current_range_meters":10800,"station_id":"ce4bgk12rcd13ifvqbi0","pricing_plan_id":"free"},{"bike_id":"289d563e-f4a5-40bb-8d44-de8cc3cc3f8f","system_id":"levelo_inurba_marseille","lat":43.295748,"lon":5.37522,"is_reserved":false,"is_disabled":false,"rental_uris":{"android":"levelo://app?vid=289d563e-f4a5-40bb-8d44-de8cc3cc3f8f","ios":"levelo://app?vid=289d563e-f4a5-40bb-8d44-de8cc3cc3f8f"},"vehicle_type_id":"4","last_reported":1706818040,"current_range_meters":18000,"station_id":"ce4bgh92rcd13ifvqb50","pricing_plan_id":"free"},{"bike_id":"da2e859d-9fe4-4363-8db9-85d3b7f31804","system_id":"levelo_inurba_marseille","lat":43.295748,"lon":5.37522,"is_reserved":false,"is_disabled":false,"rental_uris":{"android":"levelo://app?vid=da2e859d-9fe4-4363-8db9-85d3b7f31804","ios":"levelo://app?vid=da2e859d-9fe4-4363-8db9-85d3b7f31804"},"vehicle_type_id":"4","last_reported":1706818040,"current_range_meters":2400,"station_id":"ce4bgh92rcd13ifvqb50","pricing_plan_id":"free"},{"bike_id":"0f139272-6f67-4685-8718-38ab061d180e","system_id":"levelo_inurba_marseille","lat":43.304274,"lon":5.388873,"is_reserved":false,"is_disabled":false,"rental_uris":{"android":"levelo://app?vid=0f139272-6f67-4685-8718-38ab061d180e","ios":"levelo://app?vid=0f139272-6f67-4685-8718-38ab061d180e"},"vehicle_type_id":"4","last_reported":1706818040,"current_range_meters":13600,"station_id":"ce4bgk12rcd13ifvqbi0","pricing_plan_id":"free"},{"bike_id":"c523ffbb-6e55-4cc1-832b-f292abee9e4c","system_id":"levelo_inurba_marseille","lat":43.304278,"lon":5.388868,"is_reserved":false,"is_disabled":false,"rental_uris":{"android":"levelo://app?vid=c523ffbb-6e55-4cc1-832b-f292abee9e4c","ios":"levelo://app?vid=c523ffbb-6e55-4cc1-832b-f292abee9e4c"},"vehicle_type_id":"4","last_reported":1706818040,"current_range_meters":18400,"station_id":"ce4bgk12rcd13ifvqbi0","pricing_plan_id":"free"},{"bike_id":"aa28cc17-424c-4950-9381-191a9debdc95","system_id":"levelo_inurba_marseille","lat":43.296263,"lon":5.377094,"is_reserved":false,"is_disabled":false,"rental_uris":{"android":"levelo://app?vid=aa28cc17-424c-4950-9381-191a9debdc95","ios":"levelo://app?vid=aa28cc17-424c-4950-9381-191a9debdc95"},"vehicle_type_id":"4","last_reported":1706818040,"current_range_meters":0,"station_id":"ce4bgi92rcd13ifvqb90","pricing_plan_id":"free"},{"bike_id":"36fd07d9-9faf-4ce6-b087-524889d9a466","system_id":"levelo_inurba_marseille","lat":43.29785,"lon":5.38114,"is_reserved":false,"is_disabled":false,"rental_uris":{"android":"levelo://app?vid=36fd07d9-9faf-4ce6-b087-524889d9a466","ios":"levelo://app?vid=36fd07d9-9faf-4ce6-b087-524889d9a466"},"vehicle_type_id":"4","last_reported":1706818040,"current_range_meters":0,"station_id":"ce4bgip2rcd13ifvqbb0","pricing_plan_id":"free"},{"bike_id":"2f6cbeb2-fba4-4f20-864b-c8a973123662","system_id":"levelo_inurba_marseille","lat":43.29544,"lon":5.37501,"is_reserved":false,"is_disabled":false,"rental_uris":{"android":"levelo://app?vid=2f6cbeb2-fba4-4f20-864b-c8a973123662","ios":"levelo://app?vid=2f6cbeb2-fba4-4f20-864b-c8a973123662"},"vehicle_type_id":"4","last_reported":1706818040,"current_range_meters":8400,"station_id":"ce4bgkp2rcd13ifvqbmg","pricing_plan_id":"free"},{"bike_id":"3d0aa9a8-71ed-4ab2-b363-88969fc9321f","system_id":"levelo_inurba_marseille","lat":43.295279,"lon":5.375048,"is_reserved":false,"is_disabled":false,"rental_uris":{"android":"levelo://app?vid=3d0aa9a8-71ed-4ab2-b363-88969fc9321f","ios":"levelo://app?vid=3d0aa9a8-71ed-4ab2-b363-88969fc9321f"},"vehicle_type_id":"4","last_reported":1706818040,"current_range_meters":13600,"station_id":"ce4bgkp2rcd13ifvqbmg","pricing_plan_id":"free"},{"bike_id":"df49dca8-eff4-4fb6-b5ec-7abf9e25044f","system_id":"levelo_inurba_marseille","lat":43.32367,"lon":5.388836,"is_reserved":false,"is_disabled":false,"rental_uris":{"android":"levelo://app?vid=df49dca8-eff4-4fb6-b5ec-7abf9e25044f","ios":"levelo://app?vid=df49dca8-eff4-4fb6-b5ec-7abf9e25044f"},"vehicle_type_id":"4","last_reported":1706818040,"current_range_meters":17600,"station_id":"ce4bhqp2rcd13ifvqhog","pricing_plan_id":"free"},{"bike_id":"ba6df169-e42e-41e1-9099-8133b958ca2c","system_id":"levelo_inurba_marseille","lat":43.32367,"lon":5.388836,"is_reserved":false,"is_disabled":false,"rental_uris":{"android":"levelo://app?vid=ba6df169-e42e-41e1-9099-8133b958ca2c","ios":"levelo://app?vid=ba6df169-e42e-41e1-9099-8133b958ca2c"},"vehicle_type_id":"4","last_reported":1706818040,"current_range_meters":4800,"station_id":"ce4bhqp2rcd13ifvqhog","pricing_plan_id":"free"},{"bike_id":"7ab581a0-3933-4376-b965-8072a9b2dd64","system_id":"levelo_inurba_marseille","lat":43.32367,"lon":5.388836,"is_reserved":false,"is_disabled":false,"rental_uris":{"android":"levelo://app?vid=7ab581a0-3933-4376-b965-8072a9b2dd64","ios":"levelo://app?vid=7ab581a0-3933-4376-b965-8072a9b2dd64"},"vehicle_type_id":"4","last_reported":1706818040,"current_range_meters":4000,"station_id":"ce4bhqp2rcd13ifvqhog","pricing_plan_id":"free"},{"bike_id":"2a37d63c-d71d-4e9b-a9b7-8c3c2525a16f","system_id":"levelo_inurba_marseille","lat":43.32367,"lon":5.388836,"is_reserved":false,"is_disabled":false,"rental_uris":{"android":"levelo://app?vid=2a37d63c-d71d-4e9b-a9b7-8c3c2525a16f","ios":"levelo://app?vid=2a37d63c-d71d-4e9b-a9b7-8c3c2525a16f"},"vehicle_type_id":"4","last_reported":1706818040,"current_range_meters":5200,"station_id":"ce4bhqp2rcd13ifvqhog","pricing_plan_id":"free"},{"bike_id":"50e7ecc8-37e3-4fdf-8029-d6592c9bdba6","system_id":"levelo_inurba_marseille","lat":43.32367,"lon":5.388836,"is_reserved":false,"is_disabled":false,"rental_uris":{"android":"levelo://app?vid=50e7ecc8-37e3-4fdf-8029-d6592c9bdba6","ios":"levelo://app?vid=50e7ecc8-37e3-4fdf-8029-d6592c9bdba6"},"vehicle_type_id":"4","last_reported":1706818040,"current_range_meters":9600,"station_id":"ce4bhqp2rcd13ifvqhog","pricing_plan_id":"free"},{"bike_id":"d245749e-1cc3-4f73-8b63-addd261ec499","system_id":"levelo_inurba_marseille","lat":43.32367,"lon":5.388836,"is_reserved":false,"is_disabled":false,"rental_uris":{"android":"levelo://app?vid=d245749e-1cc3-4f73-8b63-addd261ec499","ios":"levelo://app?vid=d245749e-1cc3-4f73-8b63-addd261ec499"},"vehicle_type_id":"4","last_reported":1706818040,"current_range_meters":5200,"station_id":"ce4bhqp2rcd13ifvqhog","pricing_plan_id":"free"},{"bike_id":"5118de90-c727-4c12-bf98-99f5b63d7830","system_id":"levelo_inurba_marseille","lat":43.32367,"lon":5.388836,"is_reserved":false,"is_disabled":false,"rental_uris":{"android":"levelo://app?vid=5118de90-c727-4c12-bf98-99f5b63d7830","ios":"levelo://app?vid=5118de90-c727-4c12-bf98-99f5b63d7830"},"vehicle_type_id":"4","last_reported":1706818040,"current_range_meters":4800,"station_id":"ce4bhqp2rcd13ifvqhog","pricing_plan_id":"free"},{"bike_id":"efa6bd51-c94f-4107-9e97-437d3697b8cb","system_id":"levelo_inurba_marseille","lat":43.32367,"lon":5.388836,"is_reserved":false,"is_disabled":false,"rental_uris":{"android":"levelo://app?vid=efa6bd51-c94f-4107-9e97-437d3697b8cb","ios":"levelo://app?vid=efa6bd51-c94f-4107-9e97-437d3697b8cb"},"vehicle_type_id":"4","last_reported":1706818040,"current_range_meters":5600,"station_id":"ce4bhqp2rcd13ifvqhog","pricing_plan_id":"free"},{"bike_id":"8a95fa2d-22e9-49e9-b83e-c425ecfb1916","system_id":"levelo_inurba_marseille","lat":43.323717,"lon":5.38888,"is_reserved":false,"is_disabled":false,"rental_uris":{"android":"levelo://app?vid=8a95fa2d-22e9-49e9-b83e-c425ecfb1916","ios":"levelo://app?vid=8a95fa2d-22e9-49e9-b83e-c425ecfb1916"},"vehicle_type_id":"4","last_reported":1706818040,"current_range_meters":26400,"station_id":"ce4bhqp2rcd13ifvqhog","pricing_plan_id":"free"},{"bike_id":"78e54708-26d6-4641-ba3a-56fab91b7e0e","system_id":"levelo_inurba_marseille","lat":43.29602,"lon":5.381084,"is_reserved":false,"is_disabled":false,"rental_uris":{"android":"levelo://app?vid=78e54708-26d6-4641-ba3a-56fab91b7e0e","ios":"levelo://app?vid=78e54708-26d6-4641-ba3a-56fab91b7e0e"},"vehicle_type_id":"4","last_reported":1706818040,"current_range_meters":0,"station_id":"ce4bgl12rcd13ifvqbo0","pricing_plan_id":"free"},{"bike_id":"ce65d65d-0811-486a-a293-ea2aa489aaab","system_id":"levelo_inurba_marseille","lat":43.29595,"lon":5.381037,"is_reserved":false,"is_disabled":false,"rental_uris":{"android":"levelo://app?vid=ce65d65d-0811-486a-a293-ea2aa489aaab","ios":"levelo://app?vid=ce65d65d-0811-486a-a293-ea2aa489aaab"},"vehicle_type_id":"4","last_reported":1706818040,"current_range_meters":0,"station_id":"ce4bgl12rcd13ifvqbo0","pricing_plan_id":"free"},{"bike_id":"49a97404-72bd-46c3-a483-f508344e67e7","system_id":"levelo_inurba_marseille","lat":43.293249,"lon":5.371578,"is_reserved":false,"is_disabled":false,"rental_uris":{"android":"levelo://app?vid=49a97404-72bd-46c3-a483-f508344e67e7","ios":"levelo://app?vid=49a97404-72bd-46c3-a483-f508344e67e7"},"vehicle_type_id":"4","last_reported":1706818040,"current_range_meters":6800,"station_id":"ce4bgh92rcd13ifvqb40","pricing_plan_id":"free"},{"bike_id":"89ff45ae-f551-4795-9105-ca8fb0c5d6e7","system_id":"levelo_inurba_marseille","lat":43.292749,"lon":5.368398,"is_reserved":false,"is_disabled":false,"rental_uris":{"android":"levelo://app?vid=89ff45ae-f551-4795-9105-ca8fb0c5d6e7","ios":"levelo://app?vid=89ff45ae-f551-4795-9105-ca8fb0c5d6e7"},"vehicle_type_id":"4","last_reported":1706818040,"current_range_meters":9200,"station_id":"ce4bhbp2rcd13ifvqesg","pricing_plan_id":"free"},{"bike_id":"20fcfa3a-5f86-43e9-a0c7-a5ca67922ac0","system_id":"levelo_inurba_marseille","lat":43.293259,"lon":5.371586,"is_reserved":false,"is_disabled":false,"rental_uris":{"android":"levelo://app?vid=20fcfa3a-5f86-43e9-a0c7-a5ca67922ac0","ios":"levelo://app?vid=20fcfa3a-5f86-43e9-a0c7-a5ca67922ac0"},"vehicle_type_id":"4","last_reported":1706818040,"current_range_meters":16400,"station_id":"ce4bgh92rcd13ifvqb40","pricing_plan_id":"free"},{"bike_id":"317012b3-a904-4233-b09e-6a2bff5d1b57","system_id":"levelo_inurba_marseille","lat":43.292749,"lon":5.368402,"is_reserved":false,"is_disabled":false,"rental_uris":{"android":"levelo://app?vid=317012b3-a904-4233-b09e-6a2bff5d1b57","ios":"levelo://app?vid=317012b3-a904-4233-b09e-6a2bff5d1b57"},"vehicle_type_id":"4","last_reported":1706818040,"current_range_meters":4400,"station_id":"ce4bhbp2rcd13ifvqesg","pricing_plan_id":"free"},{"bike_id":"aa3e57ea-dbe7-40f0-b521-f7139236e7f2","system_id":"levelo_inurba_marseille","lat":43.292749,"lon":5.368398,"is_reserved":false,"is_disabled":false,"rental_uris":{"android":"levelo://app?vid=aa3e57ea-dbe7-40f0-b521-f7139236e7f2","ios":"levelo://app?vid=aa3e57ea-dbe7-40f0-b521-f7139236e7f2"},"vehicle_type_id":"4","last_reported":1706818040,"current_range_meters":10400,"station_id":"ce4bhbp2rcd13ifvqesg","pricing_plan_id":"free"},{"bike_id":"e311eba2-c901-4dcc-aadb-4a829e46de51","system_id":"levelo_inurba_marseille","lat":43.292749,"lon":5.368402,"is_reserved":false,"is_disabled":false,"rental_uris":{"android":"levelo://app?vid=e311eba2-c901-4dcc-aadb-4a829e46de51","ios":"levelo://app?vid=e311eba2-c901-4dcc-aadb-4a829e46de51"},"vehicle_type_id":"4","last_reported":1706818040,"current_range_meters":23600,"station_id":"ce4bhbp2rcd13ifvqesg","pricing_plan_id":"free"},{"bike_id":"5535d129-8743-400a-bd2c-5f51d3a0807c","system_id":"levelo_inurba_marseille","lat":43.29277,"lon":5.36839,"is_reserved":false,"is_disabled":false,"rental_uris":{"android":"levelo://app?vid=5535d129-8743-400a-bd2c-5f51d3a0807c","ios":"levelo://app?vid=5535d129-8743-400a-bd2c-5f51d3a0807c"},"vehicle_type_id":"4","last_reported":1706818040,"current_range_meters":23200,"station_id":"ce4bhbp2rcd13ifvqesg","pricing_plan_id":"free"},{"bike_id":"3d22a4e2-53d1-41fc-a54e-53acf5f7d7f9","system_id":"levelo_inurba_marseille","lat":43.292749,"lon":5.368402,"is_reserved":false,"is_disabled":false,"rental_uris":{"android":"levelo://app?vid=3d22a4e2-53d1-41fc-a54e-53acf5f7d7f9","ios":"levelo://app?vid=3d22a4e2-53d1-41fc-a54e-53acf5f7d7f9"},"vehicle_type_id":"4","last_reported":1706818040,"current_range_meters":22000,"station_id":"ce4bhbp2rcd13ifvqesg","pricing_plan_id":"free"},{"bike_id":"78aad8d7-19b9-4760-9614-d317706800d4","system_id":"levelo_inurba_marseille","lat":43.292749,"lon":5.368402,"is_reserved":false,"is_disabled":false,"rental_uris":{"android":"levelo://app?vid=78aad8d7-19b9-4760-9614-d317706800d4","ios":"levelo://app?vid=78aad8d7-19b9-4760-9614-d317706800d4"},"vehicle_type_id":"4","last_reported":1706818040,"current_range_meters":20800,"station_id":"ce4bhbp2rcd13ifvqesg","pricing_plan_id":"free"},{"bike_id":"ea724b38-3269-4e2b-9538-5e666e3f8efa","system_id":"levelo_inurba_marseille","lat":43.292749,"lon":5.368398,"is_reserved":false,"is_disabled":false,"rental_uris":{"android":"levelo://app?vid=ea724b38-3269-4e2b-9538-5e666e3f8efa","ios":"levelo://app?vid=ea724b38-3269-4e2b-9538-5e666e3f8efa"},"vehicle_type_id":"4","last_reported":1706818040,"current_range_meters":3600,"station_id":"ce4bhbp2rcd13ifvqesg","pricing_plan_id":"free"},{"bike_id":"8cf46eff-a068-4f15-81e3-a2c9c1291c7c","system_id":"levelo_inurba_marseille","lat":43.29276,"lon":5.3684,"is_reserved":false,"is_disabled":false,"rental_uris":{"android":"levelo://app?vid=8cf46eff-a068-4f15-81e3-a2c9c1291c7c","ios":"levelo://app?vid=8cf46eff-a068-4f15-81e3-a2c9c1291c7c"},"vehicle_type_id":"4","last_reported":1706818040,"current_range_meters":9600,"station_id":"ce4bhbp2rcd13ifvqesg","pricing_plan_id":"free"},{"bike_id":"5a27ee9d-d168-43a1-8005-5b175a522e9d","system_id":"levelo_inurba_marseille","lat":43.292749,"lon":5.368402,"is_reserved":false,"is_disabled":false,"rental_uris":{"android":"levelo://app?vid=5a27ee9d-d168-43a1-8005-5b175a522e9d","ios":"levelo://app?vid=5a27ee9d-d168-43a1-8005-5b175a522e9d"},"vehicle_type_id":"4","last_reported":1706818040,"current_range_meters":26400,"station_id":"ce4bhbp2rcd13ifvqesg","pricing_plan_id":"free"},{"bike_id":"9c3723f9-a95c-446f-b4f2-6095c4fc7d4d","system_id":"levelo_inurba_marseille","lat":43.292749,"lon":5.368402,"is_reserved":false,"is_disabled":false,"rental_uris":{"android":"levelo://app?vid=9c3723f9-a95c-446f-b4f2-6095c4fc7d4d","ios":"levelo://app?vid=9c3723f9-a95c-446f-b4f2-6095c4fc7d4d"},"vehicle_type_id":"4","last_reported":1706818040,"current_range_meters":10400,"station_id":"ce4bhbp2rcd13ifvqesg","pricing_plan_id":"free"},{"bike_id":"931efab2-03ca-4fd5-b5e4-11e9acd23146","system_id":"levelo_inurba_marseille","lat":43.292749,"lon":5.368398,"is_reserved":false,"is_disabled":false,"rental_uris":{"android":"levelo://app?vid=931efab2-03ca-4fd5-b5e4-11e9acd23146","ios":"levelo://app?vid=931efab2-03ca-4fd5-b5e4-11e9acd23146"},"vehicle_type_id":"4","last_reported":1706818040,"current_range_meters":16800,"station_id":"ce4bhbp2rcd13ifvqesg","pricing_plan_id":"free"},{"bike_id":"dd82ae11-8d33-4733-a293-2895ba296241","system_id":"levelo_inurba_marseille","lat":43.29275,"lon":5.36842,"is_reserved":false,"is_disabled":false,"rental_uris":{"android":"levelo://app?vid=dd82ae11-8d33-4733-a293-2895ba296241","ios":"levelo://app?vid=dd82ae11-8d33-4733-a293-2895ba296241"},"vehicle_type_id":"4","last_reported":1706818040,"current_range_meters":2400,"station_id":"ce4bhbp2rcd13ifvqesg","pricing_plan_id":"free"},{"bike_id":"46ce8125-9a91-43e2-8ea4-9a1c7b4a6327","system_id":"levelo_inurba_marseille","lat":43.294162,"lon":5.386292,"is_reserved":false,"is_disabled":false,"rental_uris":{"android":"levelo://app?vid=46ce8125-9a91-43e2-8ea4-9a1c7b4a6327","ios":"levelo://app?vid=46ce8125-9a91-43e2-8ea4-9a1c7b4a6327"},"vehicle_type_id":"4","last_reported":1706818040,"current_range_meters":15600,"station_id":"ce4bh2h2rcd13ifvqdh0","pricing_plan_id":"free"},{"bike_id":"43d2aa9e-3050-43b1-9645-839105dd7976","system_id":"levelo_inurba_marseille","lat":43.292749,"lon":5.368402,"is_reserved":false,"is_disabled":false,"rental_uris":{"android":"levelo://app?vid=43d2aa9e-3050-43b1-9645-839105dd7976","ios":"levelo://app?vid=43d2aa9e-3050-43b1-9645-839105dd7976"},"vehicle_type_id":"4","last_reported":1706818040,"current_range_meters":0,"station_id":"ce4bhbp2rcd13ifvqesg","pricing_plan_id":"free"},{"bike_id":"d95fa448-0dd1-47be-b016-0ba368234a52","system_id":"levelo_inurba_marseille","lat":43.292749,"lon":5.368402,"is_reserved":false,"is_disabled":false,"rental_uris":{"android":"levelo://app?vid=d95fa448-0dd1-47be-b016-0ba368234a52","ios":"levelo://app?vid=d95fa448-0dd1-47be-b016-0ba368234a52"},"vehicle_type_id":"4","last_reported":1706818040,"current_range_meters":6400,"station_id":"ce4bhbp2rcd13ifvqesg","pricing_plan_id":"free"},{"bike_id":"017b0daf-e82a-425d-9b11-add5f496a4e2","system_id":"levelo_inurba_marseille","lat":43.292749,"lon":5.368402,"is_reserved":false,"is_disabled":false,"rental_uris":{"android":"levelo://app?vid=017b0daf-e82a-425d-9b11-add5f496a4e2","ios":"levelo://app?vid=017b0daf-e82a-425d-9b11-add5f496a4e2"},"vehicle_type_id":"4","last_reported":1706818040,"current_range_meters":400,"station_id":"ce4bhbp2rcd13ifvqesg","pricing_plan_id":"free"},{"bike_id":"f169fcfa-d3c4-4a60-8112-0607ef004037","system_id":"levelo_inurba_marseille","lat":43.29272,"lon":5.36837,"is_reserved":false,"is_disabled":false,"rental_uris":{"android":"levelo://app?vid=f169fcfa-d3c4-4a60-8112-0607ef004037","ios":"levelo://app?vid=f169fcfa-d3c4-4a60-8112-0607ef004037"},"vehicle_type_id":"4","last_reported":1706818040,"current_range_meters":0,"station_id":"ce4bhbp2rcd13ifvqesg","pricing_plan_id":"free"},{"bike_id":"042c9333-f09a-4385-b574-5f9abd88a319","system_id":"levelo_inurba_marseille","lat":43.292749,"lon":5.368402,"is_reserved":false,"is_disabled":false,"rental_uris":{"android":"levelo://app?vid=042c9333-f09a-4385-b574-5f9abd88a319","ios":"levelo://app?vid=042c9333-f09a-4385-b574-5f9abd88a319"},"vehicle_type_id":"4","last_reported":1706818040,"current_range_meters":2800,"station_id":"ce4bhbp2rcd13ifvqesg","pricing_plan_id":"free"},{"bike_id":"46751822-489a-4960-8d58-fa22e83b9cae","system_id":"levelo_inurba_marseille","lat":43.292749,"lon":5.368402,"is_reserved":false,"is_disabled":false,"rental_uris":{"android":"levelo://app?vid=46751822-489a-4960-8d58-fa22e83b9cae","ios":"levelo://app?vid=46751822-489a-4960-8d58-fa22e83b9cae"},"vehicle_type_id":"4","last_reported":1706818040,"current_range_meters":0,"station_id":"ce4bhbp2rcd13ifvqesg","pricing_plan_id":"free"},{"bike_id":"c2c6a545-e08e-49a7-acf9-26cbd8f13aab","system_id":"levelo_inurba_marseille","lat":43.2927,"lon":5.36839,"is_reserved":false,"is_disabled":false,"rental_uris":{"android":"levelo://app?vid=c2c6a545-e08e-49a7-acf9-26cbd8f13aab","ios":"levelo://app?vid=c2c6a545-e08e-49a7-acf9-26cbd8f13aab"},"vehicle_type_id":"4","last_reported":1706818040,"current_range_meters":4800,"station_id":"ce4bhbp2rcd13ifvqesg","pricing_plan_id":"free"},{"bike_id":"8fa160d0-6228-4d23-9ad3-69c81c46ab5d","system_id":"levelo_inurba_marseille","lat":43.292749,"lon":5.368402,"is_reserved":false,"is_disabled":false,"rental_uris":{"android":"levelo://app?vid=8fa160d0-6228-4d23-9ad3-69c81c46ab5d","ios":"levelo://app?vid=8fa160d0-6228-4d23-9ad3-69c81c46ab5d"},"vehicle_type_id":"4","last_reported":1706818040,"current_range_meters":6000,"station_id":"ce4bhbp2rcd13ifvqesg","pricing_plan_id":"free"},{"bike_id":"7be72cc3-3301-4613-83e0-99d037a8723f","system_id":"levelo_inurba_marseille","lat":43.292749,"lon":5.368402,"is_reserved":false,"is_disabled":false,"rental_uris":{"android":"levelo://app?vid=7be72cc3-3301-4613-83e0-99d037a8723f","ios":"levelo://app?vid=7be72cc3-3301-4613-83e0-99d037a8723f"},"vehicle_type_id":"4","last_reported":1706818040,"current_range_meters":5600,"station_id":"ce4bhbp2rcd13ifvqesg","pricing_plan_id":"free"},{"bike_id":"48b7a46c-4b4e-4c3f-8d02-8ae9e3bf3a19","system_id":"levelo_inurba_marseille","lat":43.292749,"lon":5.368402,"is_reserved":false,"is_disabled":false,"rental_uris":{"android":"levelo://app?vid=48b7a46c-4b4e-4c3f-8d02-8ae9e3bf3a19","ios":"levelo://app?vid=48b7a46c-4b4e-4c3f-8d02-8ae9e3bf3a19"},"vehicle_type_id":"4","last_reported":1706818040,"current_range_meters":26800,"station_id":"ce4bhbp2rcd13ifvqesg","pricing_plan_id":"free"},{"bike_id":"3e523946-a610-4b17-9847-aaf10210e7db","system_id":"levelo_inurba_marseille","lat":43.292749,"lon":5.368402,"is_reserved":false,"is_disabled":false,"rental_uris":{"android":"levelo://app?vid=3e523946-a610-4b17-9847-aaf10210e7db","ios":"levelo://app?vid=3e523946-a610-4b17-9847-aaf10210e7db"},"vehicle_type_id":"4","last_reported":1706818040,"current_range_meters":20400,"station_id":"ce4bhbp2rcd13ifvqesg","pricing_plan_id":"free"},{"bike_id":"61082777-a711-46cb-9d0e-858779c375b5","system_id":"levelo_inurba_marseille","lat":43.305994,"lon":5.393687,"is_reserved":false,"is_disabled":false,"rental_uris":{"android":"levelo://app?vid=61082777-a711-46cb-9d0e-858779c375b5","ios":"levelo://app?vid=61082777-a711-46cb-9d0e-858779c375b5"},"vehicle_type_id":"4","last_reported":1706818040,"current_range_meters":18400,"station_id":"ce4bh0p2rcd13ifvqd80","pricing_plan_id":"free"},{"bike_id":"d6f73900-3fda-461c-8d6c-f9b42b692c6e","system_id":"levelo_inurba_marseille","lat":43.302992,"lon":5.392136,"is_reserved":false,"is_disabled":false,"rental_uris":{"android":"levelo://app?vid=d6f73900-3fda-461c-8d6c-f9b42b692c6e","ios":"levelo://app?vid=d6f73900-3fda-461c-8d6c-f9b42b692c6e"},"vehicle_type_id":"4","last_reported":1706818040,"current_range_meters":26000,"station_id":"ce4bgkh2rcd13ifvqbk0","pricing_plan_id":"free"},{"bike_id":"6b45e8d4-c301-4f0c-bfd8-0897797db8fe","system_id":"levelo_inurba_marseille","lat":43.29381,"lon":5.37834,"is_reserved":false,"is_disabled":false,"rental_uris":{"android":"levelo://app?vid=6b45e8d4-c301-4f0c-bfd8-0897797db8fe","ios":"levelo://app?vid=6b45e8d4-c301-4f0c-bfd8-0897797db8fe"},"vehicle_type_id":"4","last_reported":1706818040,"current_range_meters":28400,"station_id":"ce4bgjh2rcd13ifvqbf0","pricing_plan_id":"free"},{"bike_id":"514716b6-1f8d-4d32-997e-b9fb8c885a7c","system_id":"levelo_inurba_marseille","lat":43.303046,"lon":5.392089,"is_reserved":false,"is_disabled":false,"rental_uris":{"android":"levelo://app?vid=514716b6-1f8d-4d32-997e-b9fb8c885a7c","ios":"levelo://app?vid=514716b6-1f8d-4d32-997e-b9fb8c885a7c"},"vehicle_type_id":"4","last_reported":1706818040,"current_range_meters":0,"station_id":"ce4bgkh2rcd13ifvqbk0","pricing_plan_id":"free"},{"bike_id":"ef4ac8e2-0bf3-49b4-94aa-25557a4109c9","system_id":"levelo_inurba_marseille","lat":43.2936,"lon":5.37835,"is_reserved":false,"is_disabled":false,"rental_uris":{"android":"levelo://app?vid=ef4ac8e2-0bf3-49b4-94aa-25557a4109c9","ios":"levelo://app?vid=ef4ac8e2-0bf3-49b4-94aa-25557a4109c9"},"vehicle_type_id":"4","last_reported":1706818040,"current_range_meters":22400,"station_id":"ce4bgjh2rcd13ifvqbf0","pricing_plan_id":"free"},{"bike_id":"9fc57076-e02e-4ccc-b490-2f3e94a8e7d8","system_id":"levelo_inurba_marseille","lat":43.29372,"lon":5.37833,"is_reserved":false,"is_disabled":false,"rental_uris":{"android":"levelo://app?vid=9fc57076-e02e-4ccc-b490-2f3e94a8e7d8","ios":"levelo://app?vid=9fc57076-e02e-4ccc-b490-2f3e94a8e7d8"},"vehicle_type_id":"4","last_reported":1706818040,"current_range_meters":16000,"station_id":"ce4bgjh2rcd13ifvqbf0","pricing_plan_id":"free"},{"bike_id":"8552547a-2dbc-457b-a463-dd47d80e701d","system_id":"levelo_inurba_marseille","lat":43.30085,"lon":5.390856,"is_reserved":false,"is_disabled":false,"rental_uris":{"android":"levelo://app?vid=8552547a-2dbc-457b-a463-dd47d80e701d","ios":"levelo://app?vid=8552547a-2dbc-457b-a463-dd47d80e701d"},"vehicle_type_id":"4","last_reported":1706818040,"current_range_meters":10800,"station_id":"ce4bh192rcd13ifvqdb0","pricing_plan_id":"free"},{"bike_id":"560a4723-dd3b-4bec-8d53-fc03741899cf","system_id":"levelo_inurba_marseille","lat":43.298764,"lon":5.388973,"is_reserved":false,"is_disabled":false,"rental_uris":{"android":"levelo://app?vid=560a4723-dd3b-4bec-8d53-fc03741899cf","ios":"levelo://app?vid=560a4723-dd3b-4bec-8d53-fc03741899cf"},"vehicle_type_id":"4","last_reported":1706818040,"current_range_meters":13600,"station_id":"ce4bh392rcd13ifvqdl0","pricing_plan_id":"free"},{"bike_id":"d8e89909-70dc-4717-a68e-0779493500bf","system_id":"levelo_inurba_marseille","lat":43.291671,"lon":5.371575,"is_reserved":false,"is_disabled":false,"rental_uris":{"android":"levelo://app?vid=d8e89909-70dc-4717-a68e-0779493500bf","ios":"levelo://app?vid=d8e89909-70dc-4717-a68e-0779493500bf"},"vehicle_type_id":"4","last_reported":1706818040,"current_range_meters":17200,"station_id":"ce4bha92rcd13ifvqeh0","pricing_plan_id":"free"},{"bike_id":"15984a25-403a-4a90-bfc4-aa9ceacd3513","system_id":"levelo_inurba_marseille","lat":43.291671,"lon":5.371575,"is_reserved":false,"is_disabled":false,"rental_uris":{"android":"levelo://app?vid=15984a25-403a-4a90-bfc4-aa9ceacd3513","ios":"levelo://app?vid=15984a25-403a-4a90-bfc4-aa9ceacd3513"},"vehicle_type_id":"4","last_reported":1706818040,"current_range_meters":9200,"station_id":"ce4bha92rcd13ifvqeh0","pricing_plan_id":"free"},{"bike_id":"3cb84d99-a630-4d0d-b151-4386949045dd","system_id":"levelo_inurba_marseille","lat":43.298764,"lon":5.388973,"is_reserved":false,"is_disabled":false,"rental_uris":{"android":"levelo://app?vid=3cb84d99-a630-4d0d-b151-4386949045dd","ios":"levelo://app?vid=3cb84d99-a630-4d0d-b151-4386949045dd"},"vehicle_type_id":"4","last_reported":1706818040,"current_range_meters":4000,"station_id":"ce4bh392rcd13ifvqdl0","pricing_plan_id":"free"},{"bike_id":"92c4fa1c-1c51-4413-9062-5a7dd2712817","system_id":"levelo_inurba_marseille","lat":43.298764,"lon":5.388973,"is_reserved":false,"is_disabled":false,"rental_uris":{"android":"levelo://app?vid=92c4fa1c-1c51-4413-9062-5a7dd2712817","ios":"levelo://app?vid=92c4fa1c-1c51-4413-9062-5a7dd2712817"},"vehicle_type_id":"4","last_reported":1706818040,"current_range_meters":1600,"station_id":"ce4bh392rcd13ifvqdl0","pricing_plan_id":"free"},{"bike_id":"b67d32b6-d53a-4bc3-ac8e-4086407151f4","system_id":"levelo_inurba_marseille","lat":43.313373,"lon":5.396833,"is_reserved":false,"is_disabled":false,"rental_uris":{"android":"levelo://app?vid=b67d32b6-d53a-4bc3-ac8e-4086407151f4","ios":"levelo://app?vid=b67d32b6-d53a-4bc3-ac8e-4086407151f4"},"vehicle_type_id":"4","last_reported":1706818040,"current_range_meters":3200,"station_id":"ce4bgvp2rcd13ifvqcu0","pricing_plan_id":"free"},{"bike_id":"eb402e66-ea55-41c3-88f1-8afbe8afb56e","system_id":"levelo_inurba_marseille","lat":43.31333,"lon":5.39687,"is_reserved":false,"is_disabled":false,"rental_uris":{"android":"levelo://app?vid=eb402e66-ea55-41c3-88f1-8afbe8afb56e","ios":"levelo://app?vid=eb402e66-ea55-41c3-88f1-8afbe8afb56e"},"vehicle_type_id":"4","last_reported":1706818040,"current_range_meters":2800,"station_id":"ce4bgvp2rcd13ifvqcu0","pricing_plan_id":"free"},{"bike_id":"6d2c466f-99b8-442b-a3d9-3355026f4aea","system_id":"levelo_inurba_marseille","lat":43.31326,"lon":5.39688,"is_reserved":false,"is_disabled":false,"rental_uris":{"android":"levelo://app?vid=6d2c466f-99b8-442b-a3d9-3355026f4aea","ios":"levelo://app?vid=6d2c466f-99b8-442b-a3d9-3355026f4aea"},"vehicle_type_id":"4","last_reported":1706818040,"current_range_meters":21200,"station_id":"ce4bgvp2rcd13ifvqcu0","pricing_plan_id":"free"},{"bike_id":"f448e916-3647-423b-a728-5f525867e401","system_id":"levelo_inurba_marseille","lat":43.31335,"lon":5.39688,"is_reserved":false,"is_disabled":false,"rental_uris":{"android":"levelo://app?vid=f448e916-3647-423b-a728-5f525867e401","ios":"levelo://app?vid=f448e916-3647-423b-a728-5f525867e401"},"vehicle_type_id":"4","last_reported":1706818040,"current_range_meters":5600,"station_id":"ce4bgvp2rcd13ifvqcu0","pricing_plan_id":"free"},{"bike_id":"7f911037-81fc-42db-a46e-20ae80ece393","system_id":"levelo_inurba_marseille","lat":43.3133,"lon":5.39689,"is_reserved":false,"is_disabled":false,"rental_uris":{"android":"levelo://app?vid=7f911037-81fc-42db-a46e-20ae80ece393","ios":"levelo://app?vid=7f911037-81fc-42db-a46e-20ae80ece393"},"vehicle_type_id":"4","last_reported":1706818040,"current_range_meters":5200,"station_id":"ce4bgvp2rcd13ifvqcu0","pricing_plan_id":"free"},{"bike_id":"87989443-7fa3-4b52-a83a-15f62c484860","system_id":"levelo_inurba_marseille","lat":43.313291,"lon":5.396838,"is_reserved":false,"is_disabled":false,"rental_uris":{"android":"levelo://app?vid=87989443-7fa3-4b52-a83a-15f62c484860","ios":"levelo://app?vid=87989443-7fa3-4b52-a83a-15f62c484860"},"vehicle_type_id":"4","last_reported":1706818040,"current_range_meters":18400,"station_id":"ce4bgvp2rcd13ifvqcu0","pricing_plan_id":"free"},{"bike_id":"9bca7773-0269-4da2-84e2-2245ac834de6","system_id":"levelo_inurba_marseille","lat":43.31325,"lon":5.39691,"is_reserved":false,"is_disabled":false,"rental_uris":{"android":"levelo://app?vid=9bca7773-0269-4da2-84e2-2245ac834de6","ios":"levelo://app?vid=9bca7773-0269-4da2-84e2-2245ac834de6"},"vehicle_type_id":"4","last_reported":1706818040,"current_range_meters":3200,"station_id":"ce4bgvp2rcd13ifvqcu0","pricing_plan_id":"free"},{"bike_id":"34f9b118-51c9-4565-a5fd-502a141f777e","system_id":"levelo_inurba_marseille","lat":43.313291,"lon":5.396838,"is_reserved":false,"is_disabled":false,"rental_uris":{"android":"levelo://app?vid=34f9b118-51c9-4565-a5fd-502a141f777e","ios":"levelo://app?vid=34f9b118-51c9-4565-a5fd-502a141f777e"},"vehicle_type_id":"4","last_reported":1706818040,"current_range_meters":0,"station_id":"ce4bgvp2rcd13ifvqcu0","pricing_plan_id":"free"},{"bike_id":"67272d4c-5d0c-4edf-a12e-1790b8a03d98","system_id":"levelo_inurba_marseille","lat":43.31329,"lon":5.39692,"is_reserved":false,"is_disabled":false,"rental_uris":{"android":"levelo://app?vid=67272d4c-5d0c-4edf-a12e-1790b8a03d98","ios":"levelo://app?vid=67272d4c-5d0c-4edf-a12e-1790b8a03d98"},"vehicle_type_id":"4","last_reported":1706818040,"current_range_meters":16000,"station_id":"ce4bgvp2rcd13ifvqcu0","pricing_plan_id":"free"},{"bike_id":"4e4365e4-a262-4917-9c3a-1ce9d4fd8b13","system_id":"levelo_inurba_marseille","lat":43.31346,"lon":5.39697,"is_reserved":false,"is_disabled":false,"rental_uris":{"android":"levelo://app?vid=4e4365e4-a262-4917-9c3a-1ce9d4fd8b13","ios":"levelo://app?vid=4e4365e4-a262-4917-9c3a-1ce9d4fd8b13"},"vehicle_type_id":"4","last_reported":1706818040,"current_range_meters":4800,"station_id":"ce4bgvp2rcd13ifvqcu0","pricing_plan_id":"free"},{"bike_id":"a9c8d04d-db39-4533-afe8-3c027a580322","system_id":"levelo_inurba_marseille","lat":43.309038,"lon":5.396546,"is_reserved":false,"is_disabled":false,"rental_uris":{"android":"levelo://app?vid=a9c8d04d-db39-4533-afe8-3c027a580322","ios":"levelo://app?vid=a9c8d04d-db39-4533-afe8-3c027a580322"},"vehicle_type_id":"4","last_reported":1706818040,"current_range_meters":11200,"station_id":"ce4bh012rcd13ifvqcv0","pricing_plan_id":"free"},{"bike_id":"6c89bae1-942b-48ad-b5ba-aace7c5ee035","system_id":"levelo_inurba_marseille","lat":43.309047,"lon":5.396551,"is_reserved":false,"is_disabled":false,"rental_uris":{"android":"levelo://app?vid=6c89bae1-942b-48ad-b5ba-aace7c5ee035","ios":"levelo://app?vid=6c89bae1-942b-48ad-b5ba-aace7c5ee035"},"vehicle_type_id":"4","last_reported":1706818040,"current_range_meters":3600,"station_id":"ce4bh012rcd13ifvqcv0","pricing_plan_id":"free"},{"bike_id":"81e4f0b4-8c20-4b1d-a3e2-4d6b9731d31e","system_id":"levelo_inurba_marseille","lat":43.309047,"lon":5.396551,"is_reserved":false,"is_disabled":false,"rental_uris":{"android":"levelo://app?vid=81e4f0b4-8c20-4b1d-a3e2-4d6b9731d31e","ios":"levelo://app?vid=81e4f0b4-8c20-4b1d-a3e2-4d6b9731d31e"},"vehicle_type_id":"4","last_reported":1706818040,"current_range_meters":800,"station_id":"ce4bh012rcd13ifvqcv0","pricing_plan_id":"free"},{"bike_id":"6059cdb7-e586-4f49-bdd1-50519a1f0f1e","system_id":"levelo_inurba_marseille","lat":43.29539,"lon":5.38537,"is_reserved":false,"is_disabled":false,"rental_uris":{"android":"levelo://app?vid=6059cdb7-e586-4f49-bdd1-50519a1f0f1e","ios":"levelo://app?vid=6059cdb7-e586-4f49-bdd1-50519a1f0f1e"},"vehicle_type_id":"4","last_reported":1706818040,"current_range_meters":3600,"station_id":"ce4bgih2rcd13ifvqba0","pricing_plan_id":"free"},{"bike_id":"87f346ed-bfc3-40a8-995b-0c1363fb1aaa","system_id":"levelo_inurba_marseille","lat":43.29539,"lon":5.38544,"is_reserved":false,"is_disabled":false,"rental_uris":{"android":"levelo://app?vid=87f346ed-bfc3-40a8-995b-0c1363fb1aaa","ios":"levelo://app?vid=87f346ed-bfc3-40a8-995b-0c1363fb1aaa"},"vehicle_type_id":"4","last_reported":1706818040,"current_range_meters":0,"station_id":"ce4bgih2rcd13ifvqba0","pricing_plan_id":"free"},{"bike_id":"2aa0c0ab-545b-44c1-8bbb-5d6ff0c109ca","system_id":"levelo_inurba_marseille","lat":43.293417,"lon":5.381957,"is_reserved":false,"is_disabled":false,"rental_uris":{"android":"levelo://app?vid=2aa0c0ab-545b-44c1-8bbb-5d6ff0c109ca","ios":"levelo://app?vid=2aa0c0ab-545b-44c1-8bbb-5d6ff0c109ca"},"vehicle_type_id":"4","last_reported":1706818040,"current_range_meters":18000,"station_id":"","pricing_plan_id":"free"},{"bike_id":"b4b16144-62c4-466d-a1bc-60ceadfcc9a6","system_id":"levelo_inurba_marseille","lat":43.328614,"lon":5.388945,"is_reserved":false,"is_disabled":false,"rental_uris":{"android":"levelo://app?vid=b4b16144-62c4-466d-a1bc-60ceadfcc9a6","ios":"levelo://app?vid=b4b16144-62c4-466d-a1bc-60ceadfcc9a6"},"vehicle_type_id":"4","last_reported":1706818040,"current_range_meters":19200,"station_id":"","pricing_plan_id":"free"},{"bike_id":"4f408207-dc00-4162-805a-29a0c53f336d","system_id":"levelo_inurba_marseille","lat":43.302008,"lon":5.394694,"is_reserved":false,"is_disabled":false,"rental_uris":{"android":"levelo://app?vid=4f408207-dc00-4162-805a-29a0c53f336d","ios":"levelo://app?vid=4f408207-dc00-4162-805a-29a0c53f336d"},"vehicle_type_id":"4","last_reported":1706818040,"current_range_meters":16400,"station_id":"ce4bh0p2rcd13ifvqd70","pricing_plan_id":"free"},{"bike_id":"a57fa556-09a8-4b4c-84f7-5102de93df33","system_id":"levelo_inurba_marseille","lat":43.302008,"lon":5.394694,"is_reserved":false,"is_disabled":false,"rental_uris":{"android":"levelo://app?vid=a57fa556-09a8-4b4c-84f7-5102de93df33","ios":"levelo://app?vid=a57fa556-09a8-4b4c-84f7-5102de93df33"},"vehicle_type_id":"4","last_reported":1706818040,"current_range_meters":6400,"station_id":"ce4bh0p2rcd13ifvqd70","pricing_plan_id":"free"},{"bike_id":"85925803-15bc-4800-b841-9a6450c59a12","system_id":"levelo_inurba_marseille","lat":43.302008,"lon":5.394694,"is_reserved":false,"is_disabled":false,"rental_uris":{"android":"levelo://app?vid=85925803-15bc-4800-b841-9a6450c59a12","ios":"levelo://app?vid=85925803-15bc-4800-b841-9a6450c59a12"},"vehicle_type_id":"4","last_reported":1706818040,"current_range_meters":20800,"station_id":"ce4bh0p2rcd13ifvqd70","pricing_plan_id":"free"},{"bike_id":"f9aab88e-dce4-4ce2-a44f-2cfeeabcf585","system_id":"levelo_inurba_marseille","lat":43.302008,"lon":5.394694,"is_reserved":false,"is_disabled":false,"rental_uris":{"android":"levelo://app?vid=f9aab88e-dce4-4ce2-a44f-2cfeeabcf585","ios":"levelo://app?vid=f9aab88e-dce4-4ce2-a44f-2cfeeabcf585"},"vehicle_type_id":"4","last_reported":1706818040,"current_range_meters":23200,"station_id":"ce4bh0p2rcd13ifvqd70","pricing_plan_id":"free"},{"bike_id":"51979d1f-ec71-4eaf-939a-a4c322f0a4d2","system_id":"levelo_inurba_marseille","lat":43.30207,"lon":5.39471,"is_reserved":false,"is_disabled":false,"rental_uris":{"android":"levelo://app?vid=51979d1f-ec71-4eaf-939a-a4c322f0a4d2","ios":"levelo://app?vid=51979d1f-ec71-4eaf-939a-a4c322f0a4d2"},"vehicle_type_id":"4","last_reported":1706818040,"current_range_meters":0,"station_id":"ce4bh0p2rcd13ifvqd70","pricing_plan_id":"free"},{"bike_id":"5cccaa3a-8b18-4508-a20f-13b822480392","system_id":"levelo_inurba_marseille","lat":43.290624,"lon":5.359245,"is_reserved":false,"is_disabled":false,"rental_uris":{"android":"levelo://app?vid=5cccaa3a-8b18-4508-a20f-13b822480392","ios":"levelo://app?vid=5cccaa3a-8b18-4508-a20f-13b822480392"},"vehicle_type_id":"4","last_reported":1706818040,"current_range_meters":13200,"station_id":"ce4bha92rcd13ifvqeg0","pricing_plan_id":"free"},{"bike_id":"2c1e47ad-3478-424c-8c66-23a600b1f0dc","system_id":"levelo_inurba_marseille","lat":43.290441,"lon":5.359123,"is_reserved":false,"is_disabled":false,"rental_uris":{"android":"levelo://app?vid=2c1e47ad-3478-424c-8c66-23a600b1f0dc","ios":"levelo://app?vid=2c1e47ad-3478-424c-8c66-23a600b1f0dc"},"vehicle_type_id":"4","last_reported":1706818040,"current_range_meters":9200,"station_id":"","pricing_plan_id":"free"},{"bike_id":"4cac580a-8f6f-4860-92a8-2edc91f097b3","system_id":"levelo_inurba_marseille","lat":43.290631,"lon":5.359244,"is_reserved":false,"is_disabled":false,"rental_uris":{"android":"levelo://app?vid=4cac580a-8f6f-4860-92a8-2edc91f097b3","ios":"levelo://app?vid=4cac580a-8f6f-4860-92a8-2edc91f097b3"},"vehicle_type_id":"4","last_reported":1706818040,"current_range_meters":4800,"station_id":"ce4bha92rcd13ifvqeg0","pricing_plan_id":"free"},{"bike_id":"37769296-b878-4e26-9406-e1f202b48715","system_id":"levelo_inurba_marseille","lat":43.29427,"lon":5.38619,"is_reserved":false,"is_disabled":false,"rental_uris":{"android":"levelo://app?vid=37769296-b878-4e26-9406-e1f202b48715","ios":"levelo://app?vid=37769296-b878-4e26-9406-e1f202b48715"},"vehicle_type_id":"4","last_reported":1706818040,"current_range_meters":29600,"station_id":"ce4bh2h2rcd13ifvqdh0","pricing_plan_id":"free"},{"bike_id":"c09e57a0-d271-4298-8fc1-fb9242e8ec03","system_id":"levelo_inurba_marseille","lat":43.2942,"lon":5.38619,"is_reserved":false,"is_disabled":false,"rental_uris":{"android":"levelo://app?vid=c09e57a0-d271-4298-8fc1-fb9242e8ec03","ios":"levelo://app?vid=c09e57a0-d271-4298-8fc1-fb9242e8ec03"},"vehicle_type_id":"4","last_reported":1706818040,"current_range_meters":0,"station_id":"ce4bh2h2rcd13ifvqdh0","pricing_plan_id":"free"},{"bike_id":"3b83a550-9473-47ad-ac51-9182964844de","system_id":"levelo_inurba_marseille","lat":43.294162,"lon":5.386292,"is_reserved":false,"is_disabled":false,"rental_uris":{"android":"levelo://app?vid=3b83a550-9473-47ad-ac51-9182964844de","ios":"levelo://app?vid=3b83a550-9473-47ad-ac51-9182964844de"},"vehicle_type_id":"4","last_reported":1706818040,"current_range_meters":12000,"station_id":"ce4bh2h2rcd13ifvqdh0","pricing_plan_id":"free"},{"bike_id":"c8c365c9-72f9-4361-9578-1ec9fd4b89cd","system_id":"levelo_inurba_marseille","lat":43.289184,"lon":5.366408,"is_reserved":false,"is_disabled":false,"rental_uris":{"android":"levelo://app?vid=c8c365c9-72f9-4361-9578-1ec9fd4b89cd","ios":"levelo://app?vid=c8c365c9-72f9-4361-9578-1ec9fd4b89cd"},"vehicle_type_id":"4","last_reported":1706818040,"current_range_meters":0,"station_id":"ce4bhap2rcd13ifvqek0","pricing_plan_id":"free"},{"bike_id":"25ffcb4c-4614-4d38-a99d-e24275f42a23","system_id":"levelo_inurba_marseille","lat":43.289184,"lon":5.366408,"is_reserved":false,"is_disabled":false,"rental_uris":{"android":"levelo://app?vid=25ffcb4c-4614-4d38-a99d-e24275f42a23","ios":"levelo://app?vid=25ffcb4c-4614-4d38-a99d-e24275f42a23"},"vehicle_type_id":"4","last_reported":1706818040,"current_range_meters":0,"station_id":"ce4bhap2rcd13ifvqek0","pricing_plan_id":"free"},{"bike_id":"105feb2c-171f-41d6-a0d9-8fdc10e3c257","system_id":"levelo_inurba_marseille","lat":43.289184,"lon":5.366408,"is_reserved":false,"is_disabled":false,"rental_uris":{"android":"levelo://app?vid=105feb2c-171f-41d6-a0d9-8fdc10e3c257","ios":"levelo://app?vid=105feb2c-171f-41d6-a0d9-8fdc10e3c257"},"vehicle_type_id":"4","last_reported":1706818040,"current_range_meters":0,"station_id":"ce4bhap2rcd13ifvqek0","pricing_plan_id":"free"},{"bike_id":"67fe4afa-5a13-478d-9ca2-c203ca2214b0","system_id":"levelo_inurba_marseille","lat":43.289184,"lon":5.366408,"is_reserved":false,"is_disabled":false,"rental_uris":{"android":"levelo://app?vid=67fe4afa-5a13-478d-9ca2-c203ca2214b0","ios":"levelo://app?vid=67fe4afa-5a13-478d-9ca2-c203ca2214b0"},"vehicle_type_id":"4","last_reported":1706818040,"current_range_meters":0,"station_id":"ce4bhap2rcd13ifvqek0","pricing_plan_id":"free"},{"bike_id":"d0b61783-3ed3-4e27-905c-351ee1c04d7d","system_id":"levelo_inurba_marseille","lat":43.289184,"lon":5.366408,"is_reserved":false,"is_disabled":false,"rental_uris":{"android":"levelo://app?vid=d0b61783-3ed3-4e27-905c-351ee1c04d7d","ios":"levelo://app?vid=d0b61783-3ed3-4e27-905c-351ee1c04d7d"},"vehicle_type_id":"4","last_reported":1706818040,"current_range_meters":31200,"station_id":"ce4bhap2rcd13ifvqek0","pricing_plan_id":"free"},{"bike_id":"c912b22d-7828-451a-8678-c7b2a981d7bc","system_id":"levelo_inurba_marseille","lat":43.289184,"lon":5.366408,"is_reserved":false,"is_disabled":false,"rental_uris":{"android":"levelo://app?vid=c912b22d-7828-451a-8678-c7b2a981d7bc","ios":"levelo://app?vid=c912b22d-7828-451a-8678-c7b2a981d7bc"},"vehicle_type_id":"4","last_reported":1706818040,"current_range_meters":14400,"station_id":"ce4bhap2rcd13ifvqek0","pricing_plan_id":"free"},{"bike_id":"39a5b2fc-1160-473c-a9ce-f66035edb8b9","system_id":"levelo_inurba_marseille","lat":43.289184,"lon":5.366408,"is_reserved":false,"is_disabled":false,"rental_uris":{"android":"levelo://app?vid=39a5b2fc-1160-473c-a9ce-f66035edb8b9","ios":"levelo://app?vid=39a5b2fc-1160-473c-a9ce-f66035edb8b9"},"vehicle_type_id":"4","last_reported":1706818040,"current_range_meters":27600,"station_id":"ce4bhap2rcd13ifvqek0","pricing_plan_id":"free"},{"bike_id":"b0c58f94-81dd-4919-aef7-11df3eedefa1","system_id":"levelo_inurba_marseille","lat":43.28944,"lon":5.36397,"is_reserved":false,"is_disabled":false,"rental_uris":{"android":"levelo://app?vid=b0c58f94-81dd-4919-aef7-11df3eedefa1","ios":"levelo://app?vid=b0c58f94-81dd-4919-aef7-11df3eedefa1"},"vehicle_type_id":"4","last_reported":1706818040,"current_range_meters":0,"station_id":"ce4bhc92rcd13ifvqetg","pricing_plan_id":"free"},{"bike_id":"2f12ef4e-92f0-45c3-8d3f-38161ca29894","system_id":"levelo_inurba_marseille","lat":43.289433,"lon":5.364029,"is_reserved":false,"is_disabled":false,"rental_uris":{"android":"levelo://app?vid=2f12ef4e-92f0-45c3-8d3f-38161ca29894","ios":"levelo://app?vid=2f12ef4e-92f0-45c3-8d3f-38161ca29894"},"vehicle_type_id":"4","last_reported":1706818040,"current_range_meters":9200,"station_id":"ce4bhc92rcd13ifvqetg","pricing_plan_id":"free"},{"bike_id":"2bfde91a-d68f-4ae7-99ce-7e2414dfbf22","system_id":"levelo_inurba_marseille","lat":43.289184,"lon":5.366408,"is_reserved":false,"is_disabled":false,"rental_uris":{"android":"levelo://app?vid=2bfde91a-d68f-4ae7-99ce-7e2414dfbf22","ios":"levelo://app?vid=2bfde91a-d68f-4ae7-99ce-7e2414dfbf22"},"vehicle_type_id":"4","last_reported":1706818040,"current_range_meters":12400,"station_id":"ce4bhap2rcd13ifvqek0","pricing_plan_id":"free"},{"bike_id":"a90d8c3b-b633-458c-b602-78acabbbee05","system_id":"levelo_inurba_marseille","lat":43.289184,"lon":5.366408,"is_reserved":false,"is_disabled":false,"rental_uris":{"android":"levelo://app?vid=a90d8c3b-b633-458c-b602-78acabbbee05","ios":"levelo://app?vid=a90d8c3b-b633-458c-b602-78acabbbee05"},"vehicle_type_id":"4","last_reported":1706818040,"current_range_meters":31200,"station_id":"ce4bhap2rcd13ifvqek0","pricing_plan_id":"free"},{"bike_id":"6e655cfd-fb09-4d8d-a46e-fc6e8cf967e9","system_id":"levelo_inurba_marseille","lat":43.289468,"lon":5.363719,"is_reserved":false,"is_disabled":false,"rental_uris":{"android":"levelo://app?vid=6e655cfd-fb09-4d8d-a46e-fc6e8cf967e9","ios":"levelo://app?vid=6e655cfd-fb09-4d8d-a46e-fc6e8cf967e9"},"vehicle_type_id":"4","last_reported":1706818040,"current_range_meters":23200,"station_id":"ce4bhc92rcd13ifvqetg","pricing_plan_id":"free"},{"bike_id":"b8d21f03-11ac-4602-9ebf-b56c137c8ce5","system_id":"levelo_inurba_marseille","lat":43.289468,"lon":5.363719,"is_reserved":false,"is_disabled":false,"rental_uris":{"android":"levelo://app?vid=b8d21f03-11ac-4602-9ebf-b56c137c8ce5","ios":"levelo://app?vid=b8d21f03-11ac-4602-9ebf-b56c137c8ce5"},"vehicle_type_id":"4","last_reported":1706818040,"current_range_meters":12400,"station_id":"ce4bhc92rcd13ifvqetg","pricing_plan_id":"free"},{"bike_id":"30417686-f01a-4056-b433-1cb0d602a66b","system_id":"levelo_inurba_marseille","lat":43.29272,"lon":5.38446,"is_reserved":false,"is_disabled":false,"rental_uris":{"android":"levelo://app?vid=30417686-f01a-4056-b433-1cb0d602a66b","ios":"levelo://app?vid=30417686-f01a-4056-b433-1cb0d602a66b"},"vehicle_type_id":"4","last_reported":1706818040,"current_range_meters":12800,"station_id":"ce4bh692rcd13ifvqea0","pricing_plan_id":"free"},{"bike_id":"b3aa138d-e894-4b29-a745-be34e64185d5","system_id":"levelo_inurba_marseille","lat":43.29269,"lon":5.38442,"is_reserved":false,"is_disabled":false,"rental_uris":{"android":"levelo://app?vid=b3aa138d-e894-4b29-a745-be34e64185d5","ios":"levelo://app?vid=b3aa138d-e894-4b29-a745-be34e64185d5"},"vehicle_type_id":"4","last_reported":1706818040,"current_range_meters":18800,"station_id":"ce4bh692rcd13ifvqea0","pricing_plan_id":"free"},{"bike_id":"53494036-26a1-474d-a7c9-6ea425d3786b","system_id":"levelo_inurba_marseille","lat":43.29268,"lon":5.38441,"is_reserved":false,"is_disabled":false,"rental_uris":{"android":"levelo://app?vid=53494036-26a1-474d-a7c9-6ea425d3786b","ios":"levelo://app?vid=53494036-26a1-474d-a7c9-6ea425d3786b"},"vehicle_type_id":"4","last_reported":1706818040,"current_range_meters":0,"station_id":"ce4bh692rcd13ifvqea0","pricing_plan_id":"free"},{"bike_id":"28addacc-7e7f-4239-9b69-cbed716656e4","system_id":"levelo_inurba_marseille","lat":43.292658,"lon":5.384383,"is_reserved":false,"is_disabled":false,"rental_uris":{"android":"levelo://app?vid=28addacc-7e7f-4239-9b69-cbed716656e4","ios":"levelo://app?vid=28addacc-7e7f-4239-9b69-cbed716656e4"},"vehicle_type_id":"4","last_reported":1706818040,"current_range_meters":13600,"station_id":"ce4bh692rcd13ifvqea0","pricing_plan_id":"free"},{"bike_id":"3b7c2289-22af-47b7-b34d-c568f42ad1c5","system_id":"levelo_inurba_marseille","lat":43.29262,"lon":5.38442,"is_reserved":false,"is_disabled":false,"rental_uris":{"android":"levelo://app?vid=3b7c2289-22af-47b7-b34d-c568f42ad1c5","ios":"levelo://app?vid=3b7c2289-22af-47b7-b34d-c568f42ad1c5"},"vehicle_type_id":"4","last_reported":1706818040,"current_range_meters":23200,"station_id":"ce4bh692rcd13ifvqea0","pricing_plan_id":"free"},{"bike_id":"bf63e0d8-4ca9-4fae-94ae-0dbd6b5e65c6","system_id":"levelo_inurba_marseille","lat":43.292642,"lon":5.384254,"is_reserved":false,"is_disabled":false,"rental_uris":{"android":"levelo://app?vid=bf63e0d8-4ca9-4fae-94ae-0dbd6b5e65c6","ios":"levelo://app?vid=bf63e0d8-4ca9-4fae-94ae-0dbd6b5e65c6"},"vehicle_type_id":"4","last_reported":1706818040,"current_range_meters":10400,"station_id":"ce4bh692rcd13ifvqea0","pricing_plan_id":"free"},{"bike_id":"e95f8a77-3ca9-45a6-9a59-71ed75655c1a","system_id":"levelo_inurba_marseille","lat":43.29011,"lon":5.3562,"is_reserved":false,"is_disabled":false,"rental_uris":{"android":"levelo://app?vid=e95f8a77-3ca9-45a6-9a59-71ed75655c1a","ios":"levelo://app?vid=e95f8a77-3ca9-45a6-9a59-71ed75655c1a"},"vehicle_type_id":"4","last_reported":1706818040,"current_range_meters":27600,"station_id":"ce4bhb92rcd13ifvqen0","pricing_plan_id":"free"},{"bike_id":"b336cafc-f3f4-4d05-9435-f081523f9abe","system_id":"levelo_inurba_marseille","lat":43.29005,"lon":5.35609,"is_reserved":false,"is_disabled":false,"rental_uris":{"android":"levelo://app?vid=b336cafc-f3f4-4d05-9435-f081523f9abe","ios":"levelo://app?vid=b336cafc-f3f4-4d05-9435-f081523f9abe"},"vehicle_type_id":"4","last_reported":1706818040,"current_range_meters":14400,"station_id":"ce4bhb92rcd13ifvqen0","pricing_plan_id":"free"},{"bike_id":"8ef880e7-4650-4aeb-95b4-95ba1f2bea59","system_id":"levelo_inurba_marseille","lat":43.29534,"lon":5.39021,"is_reserved":false,"is_disabled":false,"rental_uris":{"android":"levelo://app?vid=8ef880e7-4650-4aeb-95b4-95ba1f2bea59","ios":"levelo://app?vid=8ef880e7-4650-4aeb-95b4-95ba1f2bea59"},"vehicle_type_id":"4","last_reported":1706818040,"current_range_meters":5200,"station_id":"ce4bh3p2rcd13ifvqdp0","pricing_plan_id":"free"},{"bike_id":"de0b2a19-a75b-4f1a-a843-bb85cf004731","system_id":"levelo_inurba_marseille","lat":43.29794,"lon":5.3934,"is_reserved":false,"is_disabled":false,"rental_uris":{"android":"levelo://app?vid=de0b2a19-a75b-4f1a-a843-bb85cf004731","ios":"levelo://app?vid=de0b2a19-a75b-4f1a-a843-bb85cf004731"},"vehicle_type_id":"4","last_reported":1706818040,"current_range_meters":15200,"station_id":"chh1huq6cuj3fo74tm60","pricing_plan_id":"free"},{"bike_id":"ab3d309f-4077-4455-9a30-97842917f5e4","system_id":"levelo_inurba_marseille","lat":43.297815,"lon":5.393548,"is_reserved":false,"is_disabled":false,"rental_uris":{"android":"levelo://app?vid=ab3d309f-4077-4455-9a30-97842917f5e4","ios":"levelo://app?vid=ab3d309f-4077-4455-9a30-97842917f5e4"},"vehicle_type_id":"4","last_reported":1706818040,"current_range_meters":30400,"station_id":"chh1huq6cuj3fo74tm60","pricing_plan_id":"free"},{"bike_id":"a491302e-3c65-41f7-a413-5a567107ab32","system_id":"levelo_inurba_marseille","lat":43.295169,"lon":5.390426,"is_reserved":false,"is_disabled":false,"rental_uris":{"android":"levelo://app?vid=a491302e-3c65-41f7-a413-5a567107ab32","ios":"levelo://app?vid=a491302e-3c65-41f7-a413-5a567107ab32"},"vehicle_type_id":"4","last_reported":1706818040,"current_range_meters":0,"station_id":"ce4bh3p2rcd13ifvqdp0","pricing_plan_id":"free"},{"bike_id":"5ef6c031-a2da-411e-ac46-bc5c9a72bb40","system_id":"levelo_inurba_marseille","lat":43.295278,"lon":5.390345,"is_reserved":false,"is_disabled":false,"rental_uris":{"android":"levelo://app?vid=5ef6c031-a2da-411e-ac46-bc5c9a72bb40","ios":"levelo://app?vid=5ef6c031-a2da-411e-ac46-bc5c9a72bb40"},"vehicle_type_id":"4","last_reported":1706818040,"current_range_meters":0,"station_id":"ce4bh3p2rcd13ifvqdp0","pricing_plan_id":"free"},{"bike_id":"7aa9bf11-8278-40ca-80fa-77b214e7719f","system_id":"levelo_inurba_marseille","lat":43.295169,"lon":5.390426,"is_reserved":false,"is_disabled":false,"rental_uris":{"android":"levelo://app?vid=7aa9bf11-8278-40ca-80fa-77b214e7719f","ios":"levelo://app?vid=7aa9bf11-8278-40ca-80fa-77b214e7719f"},"vehicle_type_id":"4","last_reported":1706818040,"current_range_meters":4000,"station_id":"ce4bh3p2rcd13ifvqdp0","pricing_plan_id":"free"},{"bike_id":"4f3e8428-a987-4219-8d81-7eaf62aa4307","system_id":"levelo_inurba_marseille","lat":43.289743,"lon":5.378304,"is_reserved":false,"is_disabled":false,"rental_uris":{"android":"levelo://app?vid=4f3e8428-a987-4219-8d81-7eaf62aa4307","ios":"levelo://app?vid=4f3e8428-a987-4219-8d81-7eaf62aa4307"},"vehicle_type_id":"4","last_reported":1706818040,"current_range_meters":0,"station_id":"ce4bh9p2rcd13ifvqed0","pricing_plan_id":"free"},{"bike_id":"8c39aaef-0301-4d0d-92a4-496e554859f9","system_id":"levelo_inurba_marseille","lat":43.297815,"lon":5.393548,"is_reserved":false,"is_disabled":false,"rental_uris":{"android":"levelo://app?vid=8c39aaef-0301-4d0d-92a4-496e554859f9","ios":"levelo://app?vid=8c39aaef-0301-4d0d-92a4-496e554859f9"},"vehicle_type_id":"4","last_reported":1706818040,"current_range_meters":400,"station_id":"chh1huq6cuj3fo74tm60","pricing_plan_id":"free"},{"bike_id":"67de9637-ff71-4038-8216-b2dd0de6902f","system_id":"levelo_inurba_marseille","lat":43.29529,"lon":5.39042,"is_reserved":false,"is_disabled":false,"rental_uris":{"android":"levelo://app?vid=67de9637-ff71-4038-8216-b2dd0de6902f","ios":"levelo://app?vid=67de9637-ff71-4038-8216-b2dd0de6902f"},"vehicle_type_id":"4","last_reported":1706818040,"current_range_meters":12000,"station_id":"ce4bh3p2rcd13ifvqdp0","pricing_plan_id":"free"},{"bike_id":"1b26e9c4-7fc6-49aa-9499-cf686af3f3aa","system_id":"levelo_inurba_marseille","lat":43.330442,"lon":5.389148,"is_reserved":false,"is_disabled":false,"rental_uris":{"android":"levelo://app?vid=1b26e9c4-7fc6-49aa-9499-cf686af3f3aa","ios":"levelo://app?vid=1b26e9c4-7fc6-49aa-9499-cf686af3f3aa"},"vehicle_type_id":"4","last_reported":1706818040,"current_range_meters":13600,"station_id":"ce4bhr92rcd13ifvqhrg","pricing_plan_id":"free"},{"bike_id":"64a64528-8754-45b2-97f2-2ab770af81c1","system_id":"levelo_inurba_marseille","lat":43.295169,"lon":5.390426,"is_reserved":false,"is_disabled":false,"rental_uris":{"android":"levelo://app?vid=64a64528-8754-45b2-97f2-2ab770af81c1","ios":"levelo://app?vid=64a64528-8754-45b2-97f2-2ab770af81c1"},"vehicle_type_id":"4","last_reported":1706818040,"current_range_meters":31200,"station_id":"ce4bh3p2rcd13ifvqdp0","pricing_plan_id":"free"},{"bike_id":"fc5e1abd-c6a8-49fe-a177-bd96f74a41e2","system_id":"levelo_inurba_marseille","lat":43.28856,"lon":5.358371,"is_reserved":false,"is_disabled":false,"rental_uris":{"android":"levelo://app?vid=fc5e1abd-c6a8-49fe-a177-bd96f74a41e2","ios":"levelo://app?vid=fc5e1abd-c6a8-49fe-a177-bd96f74a41e2"},"vehicle_type_id":"4","last_reported":1706818040,"current_range_meters":16400,"station_id":"ce4bhb12rcd13ifvqem0","pricing_plan_id":"free"},{"bike_id":"9a163306-55f4-452b-abb8-1fc8b6192e5f","system_id":"levelo_inurba_marseille","lat":43.28856,"lon":5.358371,"is_reserved":false,"is_disabled":false,"rental_uris":{"android":"levelo://app?vid=9a163306-55f4-452b-abb8-1fc8b6192e5f","ios":"levelo://app?vid=9a163306-55f4-452b-abb8-1fc8b6192e5f"},"vehicle_type_id":"4","last_reported":1706818040,"current_range_meters":2000,"station_id":"ce4bhb12rcd13ifvqem0","pricing_plan_id":"free"},{"bike_id":"5e529af9-c9b1-40aa-91f3-25d6c3ef02dc","system_id":"levelo_inurba_marseille","lat":43.28856,"lon":5.358371,"is_reserved":false,"is_disabled":false,"rental_uris":{"android":"levelo://app?vid=5e529af9-c9b1-40aa-91f3-25d6c3ef02dc","ios":"levelo://app?vid=5e529af9-c9b1-40aa-91f3-25d6c3ef02dc"},"vehicle_type_id":"4","last_reported":1706818040,"current_range_meters":0,"station_id":"ce4bhb12rcd13ifvqem0","pricing_plan_id":"free"},{"bike_id":"4dea2505-7482-4166-a6c1-d47027e35e33","system_id":"levelo_inurba_marseille","lat":43.28856,"lon":5.358371,"is_reserved":false,"is_disabled":false,"rental_uris":{"android":"levelo://app?vid=4dea2505-7482-4166-a6c1-d47027e35e33","ios":"levelo://app?vid=4dea2505-7482-4166-a6c1-d47027e35e33"},"vehicle_type_id":"4","last_reported":1706818040,"current_range_meters":8000,"station_id":"ce4bhb12rcd13ifvqem0","pricing_plan_id":"free"},{"bike_id":"722fda1d-1e67-4f7a-9f23-691f54699f10","system_id":"levelo_inurba_marseille","lat":43.28856,"lon":5.358371,"is_reserved":false,"is_disabled":false,"rental_uris":{"android":"levelo://app?vid=722fda1d-1e67-4f7a-9f23-691f54699f10","ios":"levelo://app?vid=722fda1d-1e67-4f7a-9f23-691f54699f10"},"vehicle_type_id":"4","last_reported":1706818040,"current_range_meters":19200,"station_id":"ce4bhb12rcd13ifvqem0","pricing_plan_id":"free"},{"bike_id":"02bbcf94-f878-4daa-83e1-66167daadfe4","system_id":"levelo_inurba_marseille","lat":43.28856,"lon":5.358371,"is_reserved":false,"is_disabled":false,"rental_uris":{"android":"levelo://app?vid=02bbcf94-f878-4daa-83e1-66167daadfe4","ios":"levelo://app?vid=02bbcf94-f878-4daa-83e1-66167daadfe4"},"vehicle_type_id":"4","last_reported":1706818040,"current_range_meters":23200,"station_id":"ce4bhb12rcd13ifvqem0","pricing_plan_id":"free"},{"bike_id":"7a1b413f-69ad-42d8-b859-a87b3362e77e","system_id":"levelo_inurba_marseille","lat":43.28856,"lon":5.358371,"is_reserved":false,"is_disabled":false,"rental_uris":{"android":"levelo://app?vid=7a1b413f-69ad-42d8-b859-a87b3362e77e","ios":"levelo://app?vid=7a1b413f-69ad-42d8-b859-a87b3362e77e"},"vehicle_type_id":"4","last_reported":1706818040,"current_range_meters":23600,"station_id":"ce4bhb12rcd13ifvqem0","pricing_plan_id":"free"},{"bike_id":"6a97b398-c464-41e9-91af-6c4d913a022e","system_id":"levelo_inurba_marseille","lat":43.288372,"lon":5.358586,"is_reserved":false,"is_disabled":false,"rental_uris":{"android":"levelo://app?vid=6a97b398-c464-41e9-91af-6c4d913a022e","ios":"levelo://app?vid=6a97b398-c464-41e9-91af-6c4d913a022e"},"vehicle_type_id":"4","last_reported":1706818040,"current_range_meters":18400,"station_id":"ce4bhb12rcd13ifvqem0","pricing_plan_id":"free"},{"bike_id":"aee033da-bbed-4c23-bd4f-1446986b6870","system_id":"levelo_inurba_marseille","lat":43.312609,"lon":5.401662,"is_reserved":false,"is_disabled":false,"rental_uris":{"android":"levelo://app?vid=aee033da-bbed-4c23-bd4f-1446986b6870","ios":"levelo://app?vid=aee033da-bbed-4c23-bd4f-1446986b6870"},"vehicle_type_id":"4","last_reported":1706818040,"current_range_meters":16000,"station_id":"ce4bh092rcd13ifvqd30","pricing_plan_id":"free"},{"bike_id":"dc335425-ae97-4b89-ad4a-ff048c7ec86b","system_id":"levelo_inurba_marseille","lat":43.30642,"lon":5.401031,"is_reserved":false,"is_disabled":false,"rental_uris":{"android":"levelo://app?vid=dc335425-ae97-4b89-ad4a-ff048c7ec86b","ios":"levelo://app?vid=dc335425-ae97-4b89-ad4a-ff048c7ec86b"},"vehicle_type_id":"4","last_reported":1706818040,"current_range_meters":14000,"station_id":"ce4bh112rcd13ifvqda0","pricing_plan_id":"free"},{"bike_id":"cfe68aef-9e8a-4093-bde9-feb1bf368a18","system_id":"levelo_inurba_marseille","lat":43.312609,"lon":5.401662,"is_reserved":false,"is_disabled":false,"rental_uris":{"android":"levelo://app?vid=cfe68aef-9e8a-4093-bde9-feb1bf368a18","ios":"levelo://app?vid=cfe68aef-9e8a-4093-bde9-feb1bf368a18"},"vehicle_type_id":"4","last_reported":1706818040,"current_range_meters":9600,"station_id":"ce4bh092rcd13ifvqd30","pricing_plan_id":"free"},{"bike_id":"0806c7ab-e343-4f0d-bf12-8a7646a48ddb","system_id":"levelo_inurba_marseille","lat":43.312609,"lon":5.401662,"is_reserved":false,"is_disabled":false,"rental_uris":{"android":"levelo://app?vid=0806c7ab-e343-4f0d-bf12-8a7646a48ddb","ios":"levelo://app?vid=0806c7ab-e343-4f0d-bf12-8a7646a48ddb"},"vehicle_type_id":"4","last_reported":1706818040,"current_range_meters":5200,"station_id":"ce4bh092rcd13ifvqd30","pricing_plan_id":"free"},{"bike_id":"7d8d1491-6e9a-4ad6-9a04-e543ec0a6c16","system_id":"levelo_inurba_marseille","lat":43.312609,"lon":5.401662,"is_reserved":false,"is_disabled":false,"rental_uris":{"android":"levelo://app?vid=7d8d1491-6e9a-4ad6-9a04-e543ec0a6c16","ios":"levelo://app?vid=7d8d1491-6e9a-4ad6-9a04-e543ec0a6c16"},"vehicle_type_id":"4","last_reported":1706818040,"current_range_meters":14400,"station_id":"ce4bh092rcd13ifvqd30","pricing_plan_id":"free"},{"bike_id":"c43c9ef4-4191-46f5-8e1b-94ff38a10d88","system_id":"levelo_inurba_marseille","lat":43.309371,"lon":5.401449,"is_reserved":false,"is_disabled":false,"rental_uris":{"android":"levelo://app?vid=c43c9ef4-4191-46f5-8e1b-94ff38a10d88","ios":"levelo://app?vid=c43c9ef4-4191-46f5-8e1b-94ff38a10d88"},"vehicle_type_id":"4","last_reported":1706818040,"current_range_meters":0,"station_id":"ce4bgvp2rcd13ifvqct0","pricing_plan_id":"free"},{"bike_id":"c95c05a4-3a8f-4345-9961-47941d22cd92","system_id":"levelo_inurba_marseille","lat":43.306412,"lon":5.401035,"is_reserved":false,"is_disabled":false,"rental_uris":{"android":"levelo://app?vid=c95c05a4-3a8f-4345-9961-47941d22cd92","ios":"levelo://app?vid=c95c05a4-3a8f-4345-9961-47941d22cd92"},"vehicle_type_id":"4","last_reported":1706818040,"current_range_meters":11200,"station_id":"ce4bh112rcd13ifvqda0","pricing_plan_id":"free"},{"bike_id":"ee505d07-8da2-42d9-ae7f-4fd74dbb66cf","system_id":"levelo_inurba_marseille","lat":43.306412,"lon":5.401035,"is_reserved":false,"is_disabled":false,"rental_uris":{"android":"levelo://app?vid=ee505d07-8da2-42d9-ae7f-4fd74dbb66cf","ios":"levelo://app?vid=ee505d07-8da2-42d9-ae7f-4fd74dbb66cf"},"vehicle_type_id":"4","last_reported":1706818040,"current_range_meters":6800,"station_id":"ce4bh112rcd13ifvqda0","pricing_plan_id":"free"},{"bike_id":"39b9e327-f3dc-4ebf-be46-20d556fa39e7","system_id":"levelo_inurba_marseille","lat":43.30642,"lon":5.401031,"is_reserved":false,"is_disabled":false,"rental_uris":{"android":"levelo://app?vid=39b9e327-f3dc-4ebf-be46-20d556fa39e7","ios":"levelo://app?vid=39b9e327-f3dc-4ebf-be46-20d556fa39e7"},"vehicle_type_id":"4","last_reported":1706818040,"current_range_meters":2000,"station_id":"ce4bh112rcd13ifvqda0","pricing_plan_id":"free"},{"bike_id":"755af9ae-b78b-4630-8802-53c91a2c3306","system_id":"levelo_inurba_marseille","lat":43.306412,"lon":5.401035,"is_reserved":false,"is_disabled":false,"rental_uris":{"android":"levelo://app?vid=755af9ae-b78b-4630-8802-53c91a2c3306","ios":"levelo://app?vid=755af9ae-b78b-4630-8802-53c91a2c3306"},"vehicle_type_id":"4","last_reported":1706818040,"current_range_meters":16800,"station_id":"ce4bh112rcd13ifvqda0","pricing_plan_id":"free"},{"bike_id":"a92fecb2-cce1-45fa-a6c6-174b16ca62fa","system_id":"levelo_inurba_marseille","lat":43.337834,"lon":5.374506,"is_reserved":false,"is_disabled":false,"rental_uris":{"android":"levelo://app?vid=a92fecb2-cce1-45fa-a6c6-174b16ca62fa","ios":"levelo://app?vid=a92fecb2-cce1-45fa-a6c6-174b16ca62fa"},"vehicle_type_id":"4","last_reported":1706818040,"current_range_meters":28800,"station_id":"","pricing_plan_id":"free"},{"bike_id":"63175c26-c156-466f-be5b-794cec8c153f","system_id":"levelo_inurba_marseille","lat":43.28727,"lon":5.36078,"is_reserved":false,"is_disabled":false,"rental_uris":{"android":"levelo://app?vid=63175c26-c156-466f-be5b-794cec8c153f","ios":"levelo://app?vid=63175c26-c156-466f-be5b-794cec8c153f"},"vehicle_type_id":"4","last_reported":1706818040,"current_range_meters":28800,"station_id":"cki0cbj6b192h4jlfktg","pricing_plan_id":"free"},{"bike_id":"11292ed4-7f89-4a31-80de-9eac6b278d46","system_id":"levelo_inurba_marseille","lat":43.28727,"lon":5.36078,"is_reserved":false,"is_disabled":false,"rental_uris":{"android":"levelo://app?vid=11292ed4-7f89-4a31-80de-9eac6b278d46","ios":"levelo://app?vid=11292ed4-7f89-4a31-80de-9eac6b278d46"},"vehicle_type_id":"4","last_reported":1706818040,"current_range_meters":14800,"station_id":"cki0cbj6b192h4jlfktg","pricing_plan_id":"free"},{"bike_id":"b664ef4d-4d0e-40d0-92a0-ecf760b3dc95","system_id":"levelo_inurba_marseille","lat":43.30456,"lon":5.40059,"is_reserved":false,"is_disabled":false,"rental_uris":{"android":"levelo://app?vid=b664ef4d-4d0e-40d0-92a0-ecf760b3dc95","ios":"levelo://app?vid=b664ef4d-4d0e-40d0-92a0-ecf760b3dc95"},"vehicle_type_id":"4","last_reported":1706818040,"current_range_meters":22000,"station_id":"","pricing_plan_id":"free"},{"bike_id":"ecf1b32c-a0f0-4809-9666-6adfbb3832cf","system_id":"levelo_inurba_marseille","lat":43.28727,"lon":5.36078,"is_reserved":false,"is_disabled":false,"rental_uris":{"android":"levelo://app?vid=ecf1b32c-a0f0-4809-9666-6adfbb3832cf","ios":"levelo://app?vid=ecf1b32c-a0f0-4809-9666-6adfbb3832cf"},"vehicle_type_id":"4","last_reported":1706818040,"current_range_meters":3200,"station_id":"cki0cbj6b192h4jlfktg","pricing_plan_id":"free"},{"bike_id":"9384cccd-0891-4c00-bd04-134f6c06196e","system_id":"levelo_inurba_marseille","lat":43.301117,"lon":5.398795,"is_reserved":false,"is_disabled":false,"rental_uris":{"android":"levelo://app?vid=9384cccd-0891-4c00-bd04-134f6c06196e","ios":"levelo://app?vid=9384cccd-0891-4c00-bd04-134f6c06196e"},"vehicle_type_id":"4","last_reported":1706818040,"current_range_meters":0,"station_id":"ce4bh0h2rcd13ifvqd40","pricing_plan_id":"free"},{"bike_id":"27e5110e-37d5-4e4b-a904-91fcd02a4b97","system_id":"levelo_inurba_marseille","lat":43.28727,"lon":5.36078,"is_reserved":false,"is_disabled":false,"rental_uris":{"android":"levelo://app?vid=27e5110e-37d5-4e4b-a904-91fcd02a4b97","ios":"levelo://app?vid=27e5110e-37d5-4e4b-a904-91fcd02a4b97"},"vehicle_type_id":"4","last_reported":1706818040,"current_range_meters":17600,"station_id":"cki0cbj6b192h4jlfktg","pricing_plan_id":"free"},{"bike_id":"e80112be-963e-439d-b39d-2be24efc54ea","system_id":"levelo_inurba_marseille","lat":43.28727,"lon":5.36078,"is_reserved":false,"is_disabled":false,"rental_uris":{"android":"levelo://app?vid=e80112be-963e-439d-b39d-2be24efc54ea","ios":"levelo://app?vid=e80112be-963e-439d-b39d-2be24efc54ea"},"vehicle_type_id":"4","last_reported":1706818040,"current_range_meters":0,"station_id":"cki0cbj6b192h4jlfktg","pricing_plan_id":"free"},{"bike_id":"1bee168c-ac37-4879-b914-ceff4d989cac","system_id":"levelo_inurba_marseille","lat":43.28727,"lon":5.36078,"is_reserved":false,"is_disabled":false,"rental_uris":{"android":"levelo://app?vid=1bee168c-ac37-4879-b914-ceff4d989cac","ios":"levelo://app?vid=1bee168c-ac37-4879-b914-ceff4d989cac"},"vehicle_type_id":"4","last_reported":1706818040,"current_range_meters":18000,"station_id":"cki0cbj6b192h4jlfktg","pricing_plan_id":"free"},{"bike_id":"933cb5fc-c3ed-4083-8134-4784226a658d","system_id":"levelo_inurba_marseille","lat":43.286961,"lon":5.373785,"is_reserved":false,"is_disabled":false,"rental_uris":{"android":"levelo://app?vid=933cb5fc-c3ed-4083-8134-4784226a658d","ios":"levelo://app?vid=933cb5fc-c3ed-4083-8134-4784226a658d"},