{"last_updated":1717254426,"ttl":30,"version":"2.2","data":{"bikes":[{"bike_id":"578d900a-f88b-4da2-ad35-ff2bbd11eb8f","system_id":"levelo_inurba_marseille","lat":43.31341,"lon":5.367098,"is_reserved":false,"is_disabled":false,"rental_uris":{"android":"levelo://app?vid=578d900a-f88b-4da2-ad35-ff2bbd11eb8f","ios":"levelo://app?vid=578d900a-f88b-4da2-ad35-ff2bbd11eb8f"},"vehicle_type_id":"4","last_reported":1717254426,"current_range_meters":28400,"station_id":"ce4bgr92rcd13ifvqc6g","pricing_plan_id":"cebpf4jnsgd1na2vs0mg"},{"bike_id":"4c8feb69-d09a-4b26-b00d-849f4cccd218","system_id":"levelo_inurba_marseille","lat":43.31341,"lon":5.367098,"is_reserved":false,"is_disabled":false,"rental_uris":{"android":"levelo://app?vid=4c8feb69-d09a-4b26-b00d-849f4cccd218","ios":"levelo://app?vid=4c8feb69-d09a-4b26-b00d-849f4cccd218"},"vehicle_type_id":"4","last_reported":1717254426,"current_range_meters":17200,"station_id":"ce4bgr92rcd13ifvqc6g","pricing_plan_id":"cebpf4jnsgd1na2vs0mg"},{"bike_id":"b7d49e90-c584-47aa-92e8-0d3697e559ce","system_id":"levelo_inurba_marseille","lat":43.31341,"lon":5.367098,"is_reserved":false,"is_disabled":false,"rental_uris":{"android":"levelo://app?vid=b7d49e90-c584-47aa-92e8-0d3697e559ce","ios":"levelo://app?vid=b7d49e90-c584-47aa-92e8-0d3697e559ce"},"vehicle_type_id":"4","last_reported":1717254426,"current_range_meters":26800,"station_id":"ce4bgr92rcd13ifvqc6g","pricing_plan_id":"cebpf4jnsgd1na2vs0mg"},{"bike_id":"b487ab8b-aa13-4a24-9964-e5f3d958e8fb","system_id":"levelo_inurba_marseille","lat":43.313391,"lon":5.36706,"is_reserved":false,"is_disabled":false,"rental_uris":{"android":"levelo://app?vid=b487ab8b-aa13-4a24-9964-e5f3d958e8fb","ios":"levelo://app?vid=b487ab8b-aa13-4a24-9964-e5f3d958e8fb"},"vehicle_type_id":"4","last_reported":1717254426,"current_range_meters":30800,"station_id":"ce4bgr92rcd13ifvqc6g","pricing_plan_id":"cebpf4jnsgd1na2vs0mg"},{"bike_id":"c8ed9c70-960b-4b7b-9b16-e3fe216e7ec6","system_id":"levelo_inurba_marseille","lat":43.312239,"lon":5.368562,"is_reserved":false,"is_disabled":false,"rental_uris":{"android":"levelo://app?vid=c8ed9c70-960b-4b7b-9b16-e3fe216e7ec6","ios":"levelo://app?vid=c8ed9c70-960b-4b7b-9b16-e3fe216e7ec6"},"vehicle_type_id":"4","last_reported":1717254426,"current_range_meters":0,"station_id":"ce4bgl92rcd13ifvqbq0","pricing_plan_id":"cebpf4jnsgd1na2vs0mg"},{"bike_id":"9a28e142-1384-4f7b-9ea8-2ea3baa848df","system_id":"levelo_inurba_marseille","lat":43.312239,"lon":5.368562,"is_reserved":false,"is_disabled":false,"rental_uris":{"android":"levelo://app?vid=9a28e142-1384-4f7b-9ea8-2ea3baa848df","ios":"levelo://app?vid=9a28e142-1384-4f7b-9ea8-2ea3baa848df"},"vehicle_type_id":"4","last_reported":1717254426,"current_range_meters":21600,"station_id":"ce4bgl92rcd13ifvqbq0","pricing_plan_id":"cebpf4jnsgd1na2vs0mg"},{"bike_id":"dbf720d3-5605-43f7-b64c-b0054cb52915","system_id":"levelo_inurba_marseille","lat":43.314811,"lon":5.373103,"is_reserved":false,"is_disabled":false,"rental_uris":{"android":"levelo://app?vid=dbf720d3-5605-43f7-b64c-b0054cb52915","ios":"levelo://app?vid=dbf720d3-5605-43f7-b64c-b0054cb52915"},"vehicle_type_id":"4","last_reported":1717254426,"current_range_meters":0,"station_id":"ce4bgt12rcd13ifvqcd0","pricing_plan_id":"cebpf4jnsgd1na2vs0mg"},{"bike_id":"3ce8cb16-98dd-41c8-a551-389ecdc77713","system_id":"levelo_inurba_marseille","lat":43.314844,"lon":5.372938,"is_reserved":false,"is_disabled":false,"rental_uris":{"android":"levelo://app?vid=3ce8cb16-98dd-41c8-a551-389ecdc77713","ios":"levelo://app?vid=3ce8cb16-98dd-41c8-a551-389ecdc77713"},"vehicle_type_id":"4","last_reported":1717254426,"current_range_meters":14400,"station_id":"ce4bgt12rcd13ifvqcd0","pricing_plan_id":"cebpf4jnsgd1na2vs0mg"},{"bike_id":"cd7ce561-ba06-4357-981a-6af8bd40d08d","system_id":"levelo_inurba_marseille","lat":43.314811,"lon":5.373103,"is_reserved":false,"is_disabled":false,"rental_uris":{"android":"levelo://app?vid=cd7ce561-ba06-4357-981a-6af8bd40d08d","ios":"levelo://app?vid=cd7ce561-ba06-4357-981a-6af8bd40d08d"},"vehicle_type_id":"4","last_reported":1717254426,"current_range_meters":5600,"station_id":"ce4bgt12rcd13ifvqcd0","pricing_plan_id":"cebpf4jnsgd1na2vs0mg"},{"bike_id":"b2397af0-1c35-4d30-9214-60591d4f32fa","system_id":"levelo_inurba_marseille","lat":43.314941,"lon":5.373037,"is_reserved":false,"is_disabled":false,"rental_uris":{"android":"levelo://app?vid=b2397af0-1c35-4d30-9214-60591d4f32fa","ios":"levelo://app?vid=b2397af0-1c35-4d30-9214-60591d4f32fa"},"vehicle_type_id":"4","last_reported":1717254426,"current_range_meters":0,"station_id":"ce4bgt12rcd13ifvqcd0","pricing_plan_id":"cebpf4jnsgd1na2vs0mg"},{"bike_id":"6f90157a-fe34-4732-a231-23ed3339f57a","system_id":"levelo_inurba_marseille","lat":43.314811,"lon":5.373103,"is_reserved":false,"is_disabled":false,"rental_uris":{"android":"levelo://app?vid=6f90157a-fe34-4732-a231-23ed3339f57a","ios":"levelo://app?vid=6f90157a-fe34-4732-a231-23ed3339f57a"},"vehicle_type_id":"4","last_reported":1717254426,"current_range_meters":6800,"station_id":"ce4bgt12rcd13ifvqcd0","pricing_plan_id":"cebpf4jnsgd1na2vs0mg"},{"bike_id":"6c1e61e3-b7fb-4215-9a77-1778899874bc","system_id":"levelo_inurba_marseille","lat":43.30901,"lon":5.37197,"is_reserved":false,"is_disabled":false,"rental_uris":{"android":"levelo://app?vid=6c1e61e3-b7fb-4215-9a77-1778899874bc","ios":"levelo://app?vid=6c1e61e3-b7fb-4215-9a77-1778899874bc"},"vehicle_type_id":"4","last_reported":1717254426,"current_range_meters":25600,"station_id":"ce4bguh2rcd13ifvqckg","pricing_plan_id":"cebpf4jnsgd1na2vs0mg"},{"bike_id":"9276a12b-6ed2-42fc-982f-10bab2c1f45f","system_id":"levelo_inurba_marseille","lat":43.317075,"lon":5.377367,"is_reserved":false,"is_disabled":false,"rental_uris":{"android":"levelo://app?vid=9276a12b-6ed2-42fc-982f-10bab2c1f45f","ios":"levelo://app?vid=9276a12b-6ed2-42fc-982f-10bab2c1f45f"},"vehicle_type_id":"4","last_reported":1717254426,"current_range_meters":7600,"station_id":"ce4bgth2rcd13ifvqch0","pricing_plan_id":"cebpf4jnsgd1na2vs0mg"},{"bike_id":"ad5c4692-bbe5-4f9e-a662-cdd898c2cc4d","system_id":"levelo_inurba_marseille","lat":43.305714,"lon":5.365633,"is_reserved":false,"is_disabled":false,"rental_uris":{"android":"levelo://app?vid=ad5c4692-bbe5-4f9e-a662-cdd898c2cc4d","ios":"levelo://app?vid=ad5c4692-bbe5-4f9e-a662-cdd898c2cc4d"},"vehicle_type_id":"4","last_reported":1717254426,"current_range_meters":18000,"station_id":"ce4bgs12rcd13ifvqcag","pricing_plan_id":"cebpf4jnsgd1na2vs0mg"},{"bike_id":"82a24086-c9c7-44b8-808b-0851fc5d1e0c","system_id":"levelo_inurba_marseille","lat":43.305706,"lon":5.365654,"is_reserved":false,"is_disabled":false,"rental_uris":{"android":"levelo://app?vid=82a24086-c9c7-44b8-808b-0851fc5d1e0c","ios":"levelo://app?vid=82a24086-c9c7-44b8-808b-0851fc5d1e0c"},"vehicle_type_id":"4","last_reported":1717254426,"current_range_meters":4000,"station_id":"ce4bgs12rcd13ifvqcag","pricing_plan_id":"cebpf4jnsgd1na2vs0mg"},{"bike_id":"bed96032-cc24-4740-b7f4-71db421cdca2","system_id":"levelo_inurba_marseille","lat":43.305714,"lon":5.365633,"is_reserved":false,"is_disabled":false,"rental_uris":{"android":"levelo://app?vid=bed96032-cc24-4740-b7f4-71db421cdca2","ios":"levelo://app?vid=bed96032-cc24-4740-b7f4-71db421cdca2"},"vehicle_type_id":"4","last_reported":1717254426,"current_range_meters":14000,"station_id":"ce4bgs12rcd13ifvqcag","pricing_plan_id":"cebpf4jnsgd1na2vs0mg"},{"bike_id":"95861060-da53-4230-8b6e-9b151b3fd546","system_id":"levelo_inurba_marseille","lat":43.305368,"lon":5.367343,"is_reserved":false,"is_disabled":false,"rental_uris":{"android":"levelo://app?vid=95861060-da53-4230-8b6e-9b151b3fd546","ios":"levelo://app?vid=95861060-da53-4230-8b6e-9b151b3fd546"},"vehicle_type_id":"4","last_reported":1717254426,"current_range_meters":8000,"station_id":"ce4bgrp2rcd13ifvqc9g","pricing_plan_id":"cebpf4jnsgd1na2vs0mg"},{"bike_id":"55dfeb53-9080-4441-8d02-774348f58593","system_id":"levelo_inurba_marseille","lat":43.311131,"lon":5.377651,"is_reserved":false,"is_disabled":false,"rental_uris":{"android":"levelo://app?vid=55dfeb53-9080-4441-8d02-774348f58593","ios":"levelo://app?vid=55dfeb53-9080-4441-8d02-774348f58593"},"vehicle_type_id":"4","last_reported":1717254426,"current_range_meters":10000,"station_id":"ce4bgt92rcd13ifvqcg0","pricing_plan_id":"cebpf4jnsgd1na2vs0mg"},{"bike_id":"8a4cf668-bdab-4566-9152-4b96976eb87e","system_id":"levelo_inurba_marseille","lat":43.317075,"lon":5.377367,"is_reserved":false,"is_disabled":false,"rental_uris":{"android":"levelo://app?vid=8a4cf668-bdab-4566-9152-4b96976eb87e","ios":"levelo://app?vid=8a4cf668-bdab-4566-9152-4b96976eb87e"},"vehicle_type_id":"4","last_reported":1717254426,"current_range_meters":4800,"station_id":"ce4bgth2rcd13ifvqch0","pricing_plan_id":"cebpf4jnsgd1na2vs0mg"},{"bike_id":"ce0fac75-5814-4d9c-800a-de407aae1d86","system_id":"levelo_inurba_marseille","lat":43.317123,"lon":5.377308,"is_reserved":false,"is_disabled":false,"rental_uris":{"android":"levelo://app?vid=ce0fac75-5814-4d9c-800a-de407aae1d86","ios":"levelo://app?vid=ce0fac75-5814-4d9c-800a-de407aae1d86"},"vehicle_type_id":"4","last_reported":1717254426,"current_range_meters":19600,"station_id":"ce4bgth2rcd13ifvqch0","pricing_plan_id":"cebpf4jnsgd1na2vs0mg"},{"bike_id":"048b712a-c903-4c25-b3e0-60bf345e6f63","system_id":"levelo_inurba_marseille","lat":43.317075,"lon":5.377367,"is_reserved":false,"is_disabled":false,"rental_uris":{"android":"levelo://app?vid=048b712a-c903-4c25-b3e0-60bf345e6f63","ios":"levelo://app?vid=048b712a-c903-4c25-b3e0-60bf345e6f63"},"vehicle_type_id":"4","last_reported":1717254426,"current_range_meters":26400,"station_id":"ce4bgth2rcd13ifvqch0","pricing_plan_id":"cebpf4jnsgd1na2vs0mg"},{"bike_id":"a5f39e32-366f-4c3f-ae5e-df929c6f742a","system_id":"levelo_inurba_marseille","lat":43.303046,"lon":5.368981,"is_reserved":false,"is_disabled":false,"rental_uris":{"android":"levelo://app?vid=a5f39e32-366f-4c3f-ae5e-df929c6f742a","ios":"levelo://app?vid=a5f39e32-366f-4c3f-ae5e-df929c6f742a"},"vehicle_type_id":"4","last_reported":1717254426,"current_range_meters":27200,"station_id":"ce4bgqh2rcd13ifvqc5g","pricing_plan_id":"cebpf4jnsgd1na2vs0mg"},{"bike_id":"8ca890a0-2fee-4062-b3a1-752192cef927","system_id":"levelo_inurba_marseille","lat":43.315281,"lon":5.380327,"is_reserved":false,"is_disabled":false,"rental_uris":{"android":"levelo://app?vid=8ca890a0-2fee-4062-b3a1-752192cef927","ios":"levelo://app?vid=8ca890a0-2fee-4062-b3a1-752192cef927"},"vehicle_type_id":"4","last_reported":1717254426,"current_range_meters":22000,"station_id":"ce4bhsp2rcd13ifvqi50","pricing_plan_id":"cebpf4jnsgd1na2vs0mg"},{"bike_id":"e4a5991d-9b22-4313-bec8-2787e033d630","system_id":"levelo_inurba_marseille","lat":43.301939,"lon":5.366286,"is_reserved":false,"is_disabled":false,"rental_uris":{"android":"levelo://app?vid=e4a5991d-9b22-4313-bec8-2787e033d630","ios":"levelo://app?vid=e4a5991d-9b22-4313-bec8-2787e033d630"},"vehicle_type_id":"4","last_reported":1717254426,"current_range_meters":12400,"station_id":"ce4bgrh2rcd13ifvqc8g","pricing_plan_id":"cebpf4jnsgd1na2vs0mg"},{"bike_id":"e3b3e7d4-ce76-45f1-ae27-03e913800706","system_id":"levelo_inurba_marseille","lat":43.301939,"lon":5.366286,"is_reserved":false,"is_disabled":false,"rental_uris":{"android":"levelo://app?vid=e3b3e7d4-ce76-45f1-ae27-03e913800706","ios":"levelo://app?vid=e3b3e7d4-ce76-45f1-ae27-03e913800706"},"vehicle_type_id":"4","last_reported":1717254426,"current_range_meters":19600,"station_id":"ce4bgrh2rcd13ifvqc8g","pricing_plan_id":"cebpf4jnsgd1na2vs0mg"},{"bike_id":"a5a0ec2f-046a-4dd4-b768-f015cfe56bd2","system_id":"levelo_inurba_marseille","lat":43.308012,"lon":5.381511,"is_reserved":false,"is_disabled":false,"rental_uris":{"android":"levelo://app?vid=a5a0ec2f-046a-4dd4-b768-f015cfe56bd2","ios":"levelo://app?vid=a5a0ec2f-046a-4dd4-b768-f015cfe56bd2"},"vehicle_type_id":"4","last_reported":1717254426,"current_range_meters":23200,"station_id":"ce4bgt12rcd13ifvqce0","pricing_plan_id":"cebpf4jnsgd1na2vs0mg"},{"bike_id":"347bd228-176b-4da5-b14e-e01dbe6bc17f","system_id":"levelo_inurba_marseille","lat":43.304606,"lon":5.379026,"is_reserved":false,"is_disabled":false,"rental_uris":{"android":"levelo://app?vid=347bd228-176b-4da5-b14e-e01dbe6bc17f","ios":"levelo://app?vid=347bd228-176b-4da5-b14e-e01dbe6bc17f"},"vehicle_type_id":"4","last_reported":1717254426,"current_range_meters":27600,"station_id":"ce4bgup2rcd13ifvqcn0","pricing_plan_id":"cebpf4jnsgd1na2vs0mg"},{"bike_id":"fd23e532-359a-4a62-9a92-e535da1611b1","system_id":"levelo_inurba_marseille","lat":43.32484,"lon":5.3657,"is_reserved":false,"is_disabled":false,"rental_uris":{"android":"levelo://app?vid=fd23e532-359a-4a62-9a92-e535da1611b1","ios":"levelo://app?vid=fd23e532-359a-4a62-9a92-e535da1611b1"},"vehicle_type_id":"4","last_reported":1717254426,"current_range_meters":3600,"station_id":"ce4bhs12rcd13ifvqhvg","pricing_plan_id":"cebpf4jnsgd1na2vs0mg"},{"bike_id":"d454f7ba-9dbc-4bb9-a0ed-5439b79fa984","system_id":"levelo_inurba_marseille","lat":43.324858,"lon":5.365698,"is_reserved":false,"is_disabled":false,"rental_uris":{"android":"levelo://app?vid=d454f7ba-9dbc-4bb9-a0ed-5439b79fa984","ios":"levelo://app?vid=d454f7ba-9dbc-4bb9-a0ed-5439b79fa984"},"vehicle_type_id":"4","last_reported":1717254426,"current_range_meters":800,"station_id":"ce4bhs12rcd13ifvqhvg","pricing_plan_id":"cebpf4jnsgd1na2vs0mg"},{"bike_id":"e7b5d43e-79e3-471c-8dbb-1d88bd546cd5","system_id":"levelo_inurba_marseille","lat":43.3249,"lon":5.36561,"is_reserved":false,"is_disabled":false,"rental_uris":{"android":"levelo://app?vid=e7b5d43e-79e3-471c-8dbb-1d88bd546cd5","ios":"levelo://app?vid=e7b5d43e-79e3-471c-8dbb-1d88bd546cd5"},"vehicle_type_id":"4","last_reported":1717254426,"current_range_meters":15600,"station_id":"ce4bhs12rcd13ifvqhvg","pricing_plan_id":"cebpf4jnsgd1na2vs0mg"},{"bike_id":"0f424c36-2abc-4a43-bed2-69a8b26575a2","system_id":"levelo_inurba_marseille","lat":43.324771,"lon":5.36557,"is_reserved":false,"is_disabled":false,"rental_uris":{"android":"levelo://app?vid=0f424c36-2abc-4a43-bed2-69a8b26575a2","ios":"levelo://app?vid=0f424c36-2abc-4a43-bed2-69a8b26575a2"},"vehicle_type_id":"4","last_reported":1717254426,"current_range_meters":18400,"station_id":"ce4bhs12rcd13ifvqhvg","pricing_plan_id":"cebpf4jnsgd1na2vs0mg"},{"bike_id":"111f8e7c-3b49-4293-84a1-72f822a86ce6","system_id":"levelo_inurba_marseille","lat":43.32491,"lon":5.36566,"is_reserved":false,"is_disabled":false,"rental_uris":{"android":"levelo://app?vid=111f8e7c-3b49-4293-84a1-72f822a86ce6","ios":"levelo://app?vid=111f8e7c-3b49-4293-84a1-72f822a86ce6"},"vehicle_type_id":"4","last_reported":1717254426,"current_range_meters":6800,"station_id":"ce4bhs12rcd13ifvqhvg","pricing_plan_id":"cebpf4jnsgd1na2vs0mg"},{"bike_id":"baf119c8-71e9-43af-aaef-d7f8a1c924b2","system_id":"levelo_inurba_marseille","lat":43.310804,"lon":5.38359,"is_reserved":false,"is_disabled":false,"rental_uris":{"android":"levelo://app?vid=baf119c8-71e9-43af-aaef-d7f8a1c924b2","ios":"levelo://app?vid=baf119c8-71e9-43af-aaef-d7f8a1c924b2"},"vehicle_type_id":"4","last_reported":1717254426,"current_range_meters":0,"station_id":"ce4bgv92rcd13ifvqcr0","pricing_plan_id":"cebpf4jnsgd1na2vs0mg"},{"bike_id":"a7d07e1e-b9bc-43ed-9ba0-a7ae2160645d","system_id":"levelo_inurba_marseille","lat":43.305706,"lon":5.365654,"is_reserved":false,"is_disabled":false,"rental_uris":{"android":"levelo://app?vid=a7d07e1e-b9bc-43ed-9ba0-a7ae2160645d","ios":"levelo://app?vid=a7d07e1e-b9bc-43ed-9ba0-a7ae2160645d"},"vehicle_type_id":"4","last_reported":1717254426,"current_range_meters":0,"station_id":"ce4bgs12rcd13ifvqcag","pricing_plan_id":"cebpf4jnsgd1na2vs0mg"},{"bike_id":"d08c83c0-214b-44bb-8c52-b43e6000d36a","system_id":"levelo_inurba_marseille","lat":43.301429,"lon":5.37413,"is_reserved":false,"is_disabled":false,"rental_uris":{"android":"levelo://app?vid=d08c83c0-214b-44bb-8c52-b43e6000d36a","ios":"levelo://app?vid=d08c83c0-214b-44bb-8c52-b43e6000d36a"},"vehicle_type_id":"4","last_reported":1717254426,"current_range_meters":27600,"station_id":"ce4bgs92rcd13ifvqcc0","pricing_plan_id":"cebpf4jnsgd1na2vs0mg"},{"bike_id":"2e643426-7799-4f45-aad3-8a6460db51b8","system_id":"levelo_inurba_marseille","lat":43.311131,"lon":5.377651,"is_reserved":false,"is_disabled":false,"rental_uris":{"android":"levelo://app?vid=2e643426-7799-4f45-aad3-8a6460db51b8","ios":"levelo://app?vid=2e643426-7799-4f45-aad3-8a6460db51b8"},"vehicle_type_id":"4","last_reported":1717254426,"current_range_meters":4400,"station_id":"ce4bgt92rcd13ifvqcg0","pricing_plan_id":"cebpf4jnsgd1na2vs0mg"},{"bike_id":"fba36964-7b11-4e6a-8721-ae3a9e7bed5f","system_id":"levelo_inurba_marseille","lat":43.319935,"lon":5.381699,"is_reserved":false,"is_disabled":false,"rental_uris":{"android":"levelo://app?vid=fba36964-7b11-4e6a-8721-ae3a9e7bed5f","ios":"levelo://app?vid=fba36964-7b11-4e6a-8721-ae3a9e7bed5f"},"vehicle_type_id":"4","last_reported":1717254426,"current_range_meters":18400,"station_id":"ce4bhr12rcd13ifvqhpg","pricing_plan_id":"cebpf4jnsgd1na2vs0mg"},{"bike_id":"d04fd5fb-b406-4e2e-8104-985e27b5e327","system_id":"levelo_inurba_marseille","lat":43.30046,"lon":5.37227,"is_reserved":false,"is_disabled":false,"rental_uris":{"android":"levelo://app?vid=d04fd5fb-b406-4e2e-8104-985e27b5e327","ios":"levelo://app?vid=d04fd5fb-b406-4e2e-8104-985e27b5e327"},"vehicle_type_id":"4","last_reported":1717254426,"current_range_meters":5600,"station_id":"","pricing_plan_id":"cebpf4jnsgd1na2vs0mg"},{"bike_id":"90fb8b9a-7b49-4a2b-838a-358c422de761","system_id":"levelo_inurba_marseille","lat":43.319935,"lon":5.381699,"is_reserved":false,"is_disabled":false,"rental_uris":{"android":"levelo://app?vid=90fb8b9a-7b49-4a2b-838a-358c422de761","ios":"levelo://app?vid=90fb8b9a-7b49-4a2b-838a-358c422de761"},"vehicle_type_id":"4","last_reported":1717254426,"current_range_meters":22800,"station_id":"ce4bhr12rcd13ifvqhpg","pricing_plan_id":"cebpf4jnsgd1na2vs0mg"},{"bike_id":"a1b324c3-4672-4178-8f46-8f15d360dea8","system_id":"levelo_inurba_marseille","lat":43.30326,"lon":5.37924,"is_reserved":false,"is_disabled":false,"rental_uris":{"android":"levelo://app?vid=a1b324c3-4672-4178-8f46-8f15d360dea8","ios":"levelo://app?vid=a1b324c3-4672-4178-8f46-8f15d360dea8"},"vehicle_type_id":"4","last_reported":1717254426,"current_range_meters":22000,"station_id":"","pricing_plan_id":"cebpf4jnsgd1na2vs0mg"},{"bike_id":"9b29e392-4073-4b8d-856b-88b0450ceaf8","system_id":"levelo_inurba_marseille","lat":43.299222,"lon":5.365554,"is_reserved":false,"is_disabled":false,"rental_uris":{"android":"levelo://app?vid=9b29e392-4073-4b8d-856b-88b0450ceaf8","ios":"levelo://app?vid=9b29e392-4073-4b8d-856b-88b0450ceaf8"},"vehicle_type_id":"4","last_reported":1717254426,"current_range_meters":0,"station_id":"ce4bgm92rcd13ifvqbr0","pricing_plan_id":"cebpf4jnsgd1na2vs0mg"},{"bike_id":"6afe4dc2-4882-4e5c-85ed-4cc50c3a6bea","system_id":"levelo_inurba_marseille","lat":43.29975,"lon":5.37181,"is_reserved":false,"is_disabled":false,"rental_uris":{"android":"levelo://app?vid=6afe4dc2-4882-4e5c-85ed-4cc50c3a6bea","ios":"levelo://app?vid=6afe4dc2-4882-4e5c-85ed-4cc50c3a6bea"},"vehicle_type_id":"4","last_reported":1717254426,"current_range_meters":31200,"station_id":"ce4bgr92rcd13ifvqc7g","pricing_plan_id":"cebpf4jnsgd1na2vs0mg"},{"bike_id":"7df24c99-db40-4693-85a9-42735514bf17","system_id":"levelo_inurba_marseille","lat":43.305364,"lon":5.384119,"is_reserved":false,"is_disabled":false,"rental_uris":{"android":"levelo://app?vid=7df24c99-db40-4693-85a9-42735514bf17","ios":"levelo://app?vid=7df24c99-db40-4693-85a9-42735514bf17"},"vehicle_type_id":"4","last_reported":1717254426,"current_range_meters":28000,"station_id":"ce4bgg92rcd13ifvqb30","pricing_plan_id":"cebpf4jnsgd1na2vs0mg"},{"bike_id":"8116e3c6-33d8-443a-a9b6-7c0b376536a1","system_id":"levelo_inurba_marseille","lat":43.298433,"lon":5.362774,"is_reserved":false,"is_disabled":false,"rental_uris":{"android":"levelo://app?vid=8116e3c6-33d8-443a-a9b6-7c0b376536a1","ios":"levelo://app?vid=8116e3c6-33d8-443a-a9b6-7c0b376536a1"},"vehicle_type_id":"4","last_reported":1717254426,"current_range_meters":0,"station_id":"ce4bgpp2rcd13ifvqc3g","pricing_plan_id":"cebpf4jnsgd1na2vs0mg"},{"bike_id":"7c0279c4-785e-41cc-9875-11b1aa5697b0","system_id":"levelo_inurba_marseille","lat":43.29844,"lon":5.36273,"is_reserved":false,"is_disabled":false,"rental_uris":{"android":"levelo://app?vid=7c0279c4-785e-41cc-9875-11b1aa5697b0","ios":"levelo://app?vid=7c0279c4-785e-41cc-9875-11b1aa5697b0"},"vehicle_type_id":"4","last_reported":1717254426,"current_range_meters":30400,"station_id":"ce4bgpp2rcd13ifvqc3g","pricing_plan_id":"cebpf4jnsgd1na2vs0mg"},{"bike_id":"48e37166-34e8-44c6-8f3c-502b4c71306a","system_id":"levelo_inurba_marseille","lat":43.29845,"lon":5.36263,"is_reserved":false,"is_disabled":false,"rental_uris":{"android":"levelo://app?vid=48e37166-34e8-44c6-8f3c-502b4c71306a","ios":"levelo://app?vid=48e37166-34e8-44c6-8f3c-502b4c71306a"},"vehicle_type_id":"4","last_reported":1717254426,"current_range_meters":3200,"station_id":"ce4bgpp2rcd13ifvqc3g","pricing_plan_id":"cebpf4jnsgd1na2vs0mg"},{"bike_id":"3c03feca-f148-4aac-a8e9-d394cfe3cbf9","system_id":"levelo_inurba_marseille","lat":43.298433,"lon":5.362774,"is_reserved":false,"is_disabled":false,"rental_uris":{"android":"levelo://app?vid=3c03feca-f148-4aac-a8e9-d394cfe3cbf9","ios":"levelo://app?vid=3c03feca-f148-4aac-a8e9-d394cfe3cbf9"},"vehicle_type_id":"4","last_reported":1717254426,"current_range_meters":0,"station_id":"ce4bgpp2rcd13ifvqc3g","pricing_plan_id":"cebpf4jnsgd1na2vs0mg"},{"bike_id":"bc9bf450-78b0-47ec-9cf8-7cc0e671aece","system_id":"levelo_inurba_marseille","lat":43.305364,"lon":5.384119,"is_reserved":false,"is_disabled":false,"rental_uris":{"android":"levelo://app?vid=bc9bf450-78b0-47ec-9cf8-7cc0e671aece","ios":"levelo://app?vid=bc9bf450-78b0-47ec-9cf8-7cc0e671aece"},"vehicle_type_id":"4","last_reported":1717254426,"current_range_meters":4000,"station_id":"ce4bgg92rcd13ifvqb30","pricing_plan_id":"cebpf4jnsgd1na2vs0mg"},{"bike_id":"62f81ed8-a93f-4d66-967e-e767545dc3a5","system_id":"levelo_inurba_marseille","lat":43.299243,"lon":5.37481,"is_reserved":false,"is_disabled":false,"rental_uris":{"android":"levelo://app?vid=62f81ed8-a93f-4d66-967e-e767545dc3a5","ios":"levelo://app?vid=62f81ed8-a93f-4d66-967e-e767545dc3a5"},"vehicle_type_id":"4","last_reported":1717254426,"current_range_meters":0,"station_id":"ce4bgjh2rcd13ifvqbg0","pricing_plan_id":"cebpf4jnsgd1na2vs0mg"},{"bike_id":"886245d2-c165-4e3e-90dc-aa3e8f6e34c8","system_id":"levelo_inurba_marseille","lat":43.311722,"lon":5.387247,"is_reserved":false,"is_disabled":false,"rental_uris":{"android":"levelo://app?vid=886245d2-c165-4e3e-90dc-aa3e8f6e34c8","ios":"levelo://app?vid=886245d2-c165-4e3e-90dc-aa3e8f6e34c8"},"vehicle_type_id":"4","last_reported":1717254426,"current_range_meters":16800,"station_id":"ce4bgv12rcd13ifvqcp0","pricing_plan_id":"cebpf4jnsgd1na2vs0mg"},{"bike_id":"445af231-3e5a-49e9-b201-fa1510d3fbe5","system_id":"levelo_inurba_marseille","lat":43.311722,"lon":5.387247,"is_reserved":false,"is_disabled":false,"rental_uris":{"android":"levelo://app?vid=445af231-3e5a-49e9-b201-fa1510d3fbe5","ios":"levelo://app?vid=445af231-3e5a-49e9-b201-fa1510d3fbe5"},"vehicle_type_id":"4","last_reported":1717254426,"current_range_meters":17600,"station_id":"ce4bgv12rcd13ifvqcp0","pricing_plan_id":"cebpf4jnsgd1na2vs0mg"},{"bike_id":"10fb4334-c940-4455-979b-d3f1ca32e262","system_id":"levelo_inurba_marseille","lat":43.297774,"lon":5.370875,"is_reserved":false,"is_disabled":false,"rental_uris":{"android":"levelo://app?vid=10fb4334-c940-4455-979b-d3f1ca32e262","ios":"levelo://app?vid=10fb4334-c940-4455-979b-d3f1ca32e262"},"vehicle_type_id":"4","last_reported":1717254426,"current_range_meters":29200,"station_id":"ce4bgop2rcd13ifvqc1g","pricing_plan_id":"cebpf4jnsgd1na2vs0mg"},{"bike_id":"c8674664-0329-42f4-a28d-5fe68827d1fa","system_id":"levelo_inurba_marseille","lat":43.322922,"lon":5.382668,"is_reserved":false,"is_disabled":false,"rental_uris":{"android":"levelo://app?vid=c8674664-0329-42f4-a28d-5fe68827d1fa","ios":"levelo://app?vid=c8674664-0329-42f4-a28d-5fe68827d1fa"},"vehicle_type_id":"4","last_reported":1717254426,"current_range_meters":29600,"station_id":"ce4bhr12rcd13ifvqhqg","pricing_plan_id":"cebpf4jnsgd1na2vs0mg"},{"bike_id":"f27e3382-c395-4c0a-a760-e9e307454899","system_id":"levelo_inurba_marseille","lat":43.322872,"lon":5.382756,"is_reserved":false,"is_disabled":false,"rental_uris":{"android":"levelo://app?vid=f27e3382-c395-4c0a-a760-e9e307454899","ios":"levelo://app?vid=f27e3382-c395-4c0a-a760-e9e307454899"},"vehicle_type_id":"4","last_reported":1717254426,"current_range_meters":16800,"station_id":"ce4bhr12rcd13ifvqhqg","pricing_plan_id":"cebpf4jnsgd1na2vs0mg"},{"bike_id":"a6850727-00b1-4dd8-bb80-3e158c4e1090","system_id":"levelo_inurba_marseille","lat":43.322872,"lon":5.382756,"is_reserved":false,"is_disabled":false,"rental_uris":{"android":"levelo://app?vid=a6850727-00b1-4dd8-bb80-3e158c4e1090","ios":"levelo://app?vid=a6850727-00b1-4dd8-bb80-3e158c4e1090"},"vehicle_type_id":"4","last_reported":1717254426,"current_range_meters":31600,"station_id":"ce4bhr12rcd13ifvqhqg","pricing_plan_id":"cebpf4jnsgd1na2vs0mg"},{"bike_id":"ad040ac0-c3ba-43b3-b70f-57e1b958b729","system_id":"levelo_inurba_marseille","lat":43.322872,"lon":5.382756,"is_reserved":false,"is_disabled":false,"rental_uris":{"android":"levelo://app?vid=ad040ac0-c3ba-43b3-b70f-57e1b958b729","ios":"levelo://app?vid=ad040ac0-c3ba-43b3-b70f-57e1b958b729"},"vehicle_type_id":"4","last_reported":1717254426,"current_range_meters":22800,"station_id":"ce4bhr12rcd13ifvqhqg","pricing_plan_id":"cebpf4jnsgd1na2vs0mg"},{"bike_id":"ffbcb031-19fc-4562-a59a-c0719ebcdffd","system_id":"levelo_inurba_marseille","lat":43.297163,"lon":5.365866,"is_reserved":false,"is_disabled":false,"rental_uris":{"android":"levelo://app?vid=ffbcb031-19fc-4562-a59a-c0719ebcdffd","ios":"levelo://app?vid=ffbcb031-19fc-4562-a59a-c0719ebcdffd"},"vehicle_type_id":"4","last_reported":1717254426,"current_range_meters":6800,"station_id":"ce4bgn12rcd13ifvqbt0","pricing_plan_id":"cebpf4jnsgd1na2vs0mg"},{"bike_id":"efcd78d8-8871-4861-a55f-f66a12416dc6","system_id":"levelo_inurba_marseille","lat":43.2968,"lon":5.37291,"is_reserved":false,"is_disabled":false,"rental_uris":{"android":"levelo://app?vid=efcd78d8-8871-4861-a55f-f66a12416dc6","ios":"levelo://app?vid=efcd78d8-8871-4861-a55f-f66a12416dc6"},"vehicle_type_id":"4","last_reported":1717254426,"current_range_meters":24400,"station_id":"ce4bgk12rcd13ifvqbj0","pricing_plan_id":"cebpf4jnsgd1na2vs0mg"},{"bike_id":"74ba3628-3169-41f6-ae6d-956e75863ead","system_id":"levelo_inurba_marseille","lat":43.2968,"lon":5.37291,"is_reserved":false,"is_disabled":false,"rental_uris":{"android":"levelo://app?vid=74ba3628-3169-41f6-ae6d-956e75863ead","ios":"levelo://app?vid=74ba3628-3169-41f6-ae6d-956e75863ead"},"vehicle_type_id":"4","last_reported":1717254426,"current_range_meters":24400,"station_id":"ce4bgk12rcd13ifvqbj0","pricing_plan_id":"cebpf4jnsgd1na2vs0mg"},{"bike_id":"1b298cee-5ed9-4440-9a47-fbfae737247e","system_id":"levelo_inurba_marseille","lat":43.296004,"lon":5.36827,"is_reserved":false,"is_disabled":false,"rental_uris":{"android":"levelo://app?vid=1b298cee-5ed9-4440-9a47-fbfae737247e","ios":"levelo://app?vid=1b298cee-5ed9-4440-9a47-fbfae737247e"},"vehicle_type_id":"4","last_reported":1717254426,"current_range_meters":0,"station_id":"ce4bgph2rcd13ifvqc2g","pricing_plan_id":"cebpf4jnsgd1na2vs0mg"},{"bike_id":"d17c2107-5f9a-4782-9df1-220e8fa99abc","system_id":"levelo_inurba_marseille","lat":43.296131,"lon":5.370791,"is_reserved":false,"is_disabled":false,"rental_uris":{"android":"levelo://app?vid=d17c2107-5f9a-4782-9df1-220e8fa99abc","ios":"levelo://app?vid=d17c2107-5f9a-4782-9df1-220e8fa99abc"},"vehicle_type_id":"4","last_reported":1717254426,"current_range_meters":26400,"station_id":"ce4bgnh2rcd13ifvqc0g","pricing_plan_id":"cebpf4jnsgd1na2vs0mg"},{"bike_id":"38d2e6c9-38d0-4a3d-b390-b844d71b15c5","system_id":"levelo_inurba_marseille","lat":43.295859,"lon":5.367401,"is_reserved":false,"is_disabled":false,"rental_uris":{"android":"levelo://app?vid=38d2e6c9-38d0-4a3d-b390-b844d71b15c5","ios":"levelo://app?vid=38d2e6c9-38d0-4a3d-b390-b844d71b15c5"},"vehicle_type_id":"4","last_reported":1717254426,"current_range_meters":0,"station_id":"ce4bgph2rcd13ifvqc2g","pricing_plan_id":"cebpf4jnsgd1na2vs0mg"},{"bike_id":"f80f4a88-f9de-4d35-938a-61f0d45ff969","system_id":"levelo_inurba_marseille","lat":43.295802,"lon":5.367345,"is_reserved":false,"is_disabled":false,"rental_uris":{"android":"levelo://app?vid=f80f4a88-f9de-4d35-938a-61f0d45ff969","ios":"levelo://app?vid=f80f4a88-f9de-4d35-938a-61f0d45ff969"},"vehicle_type_id":"4","last_reported":1717254426,"current_range_meters":31200,"station_id":"ce4bgph2rcd13ifvqc2g","pricing_plan_id":"cebpf4jnsgd1na2vs0mg"},{"bike_id":"cf398335-98db-4940-9184-fd281101984e","system_id":"levelo_inurba_marseille","lat":43.309597,"lon":5.39032,"is_reserved":false,"is_disabled":false,"rental_uris":{"android":"levelo://app?vid=cf398335-98db-4940-9184-fd281101984e","ios":"levelo://app?vid=cf398335-98db-4940-9184-fd281101984e"},"vehicle_type_id":"4","last_reported":1717254426,"current_range_meters":0,"station_id":"ce4bgup2rcd13ifvqco0","pricing_plan_id":"cebpf4jnsgd1na2vs0mg"},{"bike_id":"0cef5e6e-3be3-4dd7-bbeb-133770512228","system_id":"levelo_inurba_marseille","lat":43.309589,"lon":5.390258,"is_reserved":false,"is_disabled":false,"rental_uris":{"android":"levelo://app?vid=0cef5e6e-3be3-4dd7-bbeb-133770512228","ios":"levelo://app?vid=0cef5e6e-3be3-4dd7-bbeb-133770512228"},"vehicle_type_id":"4","last_reported":1717254426,"current_range_meters":18000,"station_id":"ce4bgup2rcd13ifvqco0","pricing_plan_id":"cebpf4jnsgd1na2vs0mg"},{"bike_id":"2b9fda96-df99-4656-84d3-ef393d8b1053","system_id":"levelo_inurba_marseille","lat":43.317557,"lon":5.390173,"is_reserved":false,"is_disabled":false,"rental_uris":{"android":"levelo://app?vid=2b9fda96-df99-4656-84d3-ef393d8b1053","ios":"levelo://app?vid=2b9fda96-df99-4656-84d3-ef393d8b1053"},"vehicle_type_id":"4","last_reported":1717254426,"current_range_meters":400,"station_id":"ce4bhqp2rcd13ifvqhng","pricing_plan_id":"cebpf4jnsgd1na2vs0mg"},{"bike_id":"b89a8b39-ad72-4851-ad20-d85cad02d54b","system_id":"levelo_inurba_marseille","lat":43.304435,"lon":5.388844,"is_reserved":false,"is_disabled":false,"rental_uris":{"android":"levelo://app?vid=b89a8b39-ad72-4851-ad20-d85cad02d54b","ios":"levelo://app?vid=b89a8b39-ad72-4851-ad20-d85cad02d54b"},"vehicle_type_id":"4","last_reported":1717254426,"current_range_meters":0,"station_id":"","pricing_plan_id":"cebpf4jnsgd1na2vs0mg"},{"bike_id":"5eb44640-b5df-4868-b0d7-b9aa1b833a48","system_id":"levelo_inurba_marseille","lat":43.295748,"lon":5.37522,"is_reserved":false,"is_disabled":false,"rental_uris":{"android":"levelo://app?vid=5eb44640-b5df-4868-b0d7-b9aa1b833a48","ios":"levelo://app?vid=5eb44640-b5df-4868-b0d7-b9aa1b833a48"},"vehicle_type_id":"4","last_reported":1717254426,"current_range_meters":0,"station_id":"ce4bgh92rcd13ifvqb50","pricing_plan_id":"cebpf4jnsgd1na2vs0mg"},{"bike_id":"bae3d46a-1ae2-43e1-a8a0-5f2a19f14406","system_id":"levelo_inurba_marseille","lat":43.304274,"lon":5.388873,"is_reserved":false,"is_disabled":false,"rental_uris":{"android":"levelo://app?vid=bae3d46a-1ae2-43e1-a8a0-5f2a19f14406","ios":"levelo://app?vid=bae3d46a-1ae2-43e1-a8a0-5f2a19f14406"},"vehicle_type_id":"4","last_reported":1717254426,"current_range_meters":10400,"station_id":"ce4bgk12rcd13ifvqbi0","pricing_plan_id":"cebpf4jnsgd1na2vs0mg"},{"bike_id":"c6144920-76ad-427e-ae8a-5643bec30960","system_id":"levelo_inurba_marseille","lat":43.299707,"lon":5.384859,"is_reserved":false,"is_disabled":false,"rental_uris":{"android":"levelo://app?vid=c6144920-76ad-427e-ae8a-5643bec30960","ios":"levelo://app?vid=c6144920-76ad-427e-ae8a-5643bec30960"},"vehicle_type_id":"4","last_reported":1717254426,"current_range_meters":24400,"station_id":"ce4bgj92rcd13ifvqbd0","pricing_plan_id":"cebpf4jnsgd1na2vs0mg"},{"bike_id":"6a77e41f-d102-4114-9f81-6da8c64dfe23","system_id":"levelo_inurba_marseille","lat":43.299707,"lon":5.384859,"is_reserved":false,"is_disabled":false,"rental_uris":{"android":"levelo://app?vid=6a77e41f-d102-4114-9f81-6da8c64dfe23","ios":"levelo://app?vid=6a77e41f-d102-4114-9f81-6da8c64dfe23"},"vehicle_type_id":"4","last_reported":1717254426,"current_range_meters":30800,"station_id":"ce4bgj92rcd13ifvqbd0","pricing_plan_id":"cebpf4jnsgd1na2vs0mg"},{"bike_id":"b07a756a-06b8-48eb-bc84-735ad49ec38d","system_id":"levelo_inurba_marseille","lat":43.29979,"lon":5.38487,"is_reserved":false,"is_disabled":false,"rental_uris":{"android":"levelo://app?vid=b07a756a-06b8-48eb-bc84-735ad49ec38d","ios":"levelo://app?vid=b07a756a-06b8-48eb-bc84-735ad49ec38d"},"vehicle_type_id":"4","last_reported":1717254426,"current_range_meters":24000,"station_id":"ce4bgj92rcd13ifvqbd0","pricing_plan_id":"cebpf4jnsgd1na2vs0mg"},{"bike_id":"2d72cf8f-dcae-4817-8b53-14748bb511a5","system_id":"levelo_inurba_marseille","lat":43.29973,"lon":5.3848,"is_reserved":false,"is_disabled":false,"rental_uris":{"android":"levelo://app?vid=2d72cf8f-dcae-4817-8b53-14748bb511a5","ios":"levelo://app?vid=2d72cf8f-dcae-4817-8b53-14748bb511a5"},"vehicle_type_id":"4","last_reported":1717254426,"current_range_meters":9200,"station_id":"ce4bgj92rcd13ifvqbd0","pricing_plan_id":"cebpf4jnsgd1na2vs0mg"},{"bike_id":"3d36be32-6304-46f1-9814-4a6212427d27","system_id":"levelo_inurba_marseille","lat":43.299717,"lon":5.384845,"is_reserved":false,"is_disabled":false,"rental_uris":{"android":"levelo://app?vid=3d36be32-6304-46f1-9814-4a6212427d27","ios":"levelo://app?vid=3d36be32-6304-46f1-9814-4a6212427d27"},"vehicle_type_id":"4","last_reported":1717254426,"current_range_meters":28400,"station_id":"ce4bgj92rcd13ifvqbd0","pricing_plan_id":"cebpf4jnsgd1na2vs0mg"},{"bike_id":"aedb0735-e72a-41f1-9272-815217771e99","system_id":"levelo_inurba_marseille","lat":43.299717,"lon":5.384845,"is_reserved":false,"is_disabled":false,"rental_uris":{"android":"levelo://app?vid=aedb0735-e72a-41f1-9272-815217771e99","ios":"levelo://app?vid=aedb0735-e72a-41f1-9272-815217771e99"},"vehicle_type_id":"4","last_reported":1717254426,"current_range_meters":19200,"station_id":"ce4bgj92rcd13ifvqbd0","pricing_plan_id":"cebpf4jnsgd1na2vs0mg"},{"bike_id":"03587c30-f12d-47a8-b261-70c1d4393b05","system_id":"levelo_inurba_marseille","lat":43.298037,"lon":5.381066,"is_reserved":false,"is_disabled":false,"rental_uris":{"android":"levelo://app?vid=03587c30-f12d-47a8-b261-70c1d4393b05","ios":"levelo://app?vid=03587c30-f12d-47a8-b261-70c1d4393b05"},"vehicle_type_id":"4","last_reported":1717254426,"current_range_meters":30800,"station_id":"ce4bgip2rcd13ifvqbb0","pricing_plan_id":"cebpf4jnsgd1na2vs0mg"},{"bike_id":"28b37aff-e790-4f36-9346-5011c0e6c33b","system_id":"levelo_inurba_marseille","lat":43.299724,"lon":5.384848,"is_reserved":false,"is_disabled":false,"rental_uris":{"android":"levelo://app?vid=28b37aff-e790-4f36-9346-5011c0e6c33b","ios":"levelo://app?vid=28b37aff-e790-4f36-9346-5011c0e6c33b"},"vehicle_type_id":"4","last_reported":1717254426,"current_range_meters":400,"station_id":"ce4bgj92rcd13ifvqbd0","pricing_plan_id":"cebpf4jnsgd1na2vs0mg"},{"bike_id":"df074a6f-9af9-4b51-a99f-6cba95ec41ed","system_id":"levelo_inurba_marseille","lat":43.29967,"lon":5.38484,"is_reserved":false,"is_disabled":false,"rental_uris":{"android":"levelo://app?vid=df074a6f-9af9-4b51-a99f-6cba95ec41ed","ios":"levelo://app?vid=df074a6f-9af9-4b51-a99f-6cba95ec41ed"},"vehicle_type_id":"4","last_reported":1717254426,"current_range_meters":8800,"station_id":"ce4bgj92rcd13ifvqbd0","pricing_plan_id":"cebpf4jnsgd1na2vs0mg"},{"bike_id":"96b79a97-0ab3-4464-bb24-b29d633dcbb1","system_id":"levelo_inurba_marseille","lat":43.29973,"lon":5.38494,"is_reserved":false,"is_disabled":false,"rental_uris":{"android":"levelo://app?vid=96b79a97-0ab3-4464-bb24-b29d633dcbb1","ios":"levelo://app?vid=96b79a97-0ab3-4464-bb24-b29d633dcbb1"},"vehicle_type_id":"4","last_reported":1717254426,"current_range_meters":7600,"station_id":"ce4bgj92rcd13ifvqbd0","pricing_plan_id":"cebpf4jnsgd1na2vs0mg"},{"bike_id":"a1f5df6f-987a-42f6-a16e-1debe3cfc019","system_id":"levelo_inurba_marseille","lat":43.29972,"lon":5.38493,"is_reserved":false,"is_disabled":false,"rental_uris":{"android":"levelo://app?vid=a1f5df6f-987a-42f6-a16e-1debe3cfc019","ios":"levelo://app?vid=a1f5df6f-987a-42f6-a16e-1debe3cfc019"},"vehicle_type_id":"4","last_reported":1717254426,"current_range_meters":0,"station_id":"ce4bgj92rcd13ifvqbd0","pricing_plan_id":"cebpf4jnsgd1na2vs0mg"},{"bike_id":"aea80db4-56a1-46f3-92ad-246b8ea562b7","system_id":"levelo_inurba_marseille","lat":43.29972,"lon":5.38494,"is_reserved":false,"is_disabled":false,"rental_uris":{"android":"levelo://app?vid=aea80db4-56a1-46f3-92ad-246b8ea562b7","ios":"levelo://app?vid=aea80db4-56a1-46f3-92ad-246b8ea562b7"},"vehicle_type_id":"4","last_reported":1717254426,"current_range_meters":30400,"station_id":"ce4bgj92rcd13ifvqbd0","pricing_plan_id":"cebpf4jnsgd1na2vs0mg"},{"bike_id":"886e3634-d349-407f-9bb8-d6848f03428c","system_id":"levelo_inurba_marseille","lat":43.299724,"lon":5.384848,"is_reserved":false,"is_disabled":false,"rental_uris":{"android":"levelo://app?vid=886e3634-d349-407f-9bb8-d6848f03428c","ios":"levelo://app?vid=886e3634-d349-407f-9bb8-d6848f03428c"},"vehicle_type_id":"4","last_reported":1717254426,"current_range_meters":20400,"station_id":"ce4bgj92rcd13ifvqbd0","pricing_plan_id":"cebpf4jnsgd1na2vs0mg"},{"bike_id":"c73383fb-b140-4fa5-bfc6-77652db936a0","system_id":"levelo_inurba_marseille","lat":43.299724,"lon":5.384848,"is_reserved":false,"is_disabled":false,"rental_uris":{"android":"levelo://app?vid=c73383fb-b140-4fa5-bfc6-77652db936a0","ios":"levelo://app?vid=c73383fb-b140-4fa5-bfc6-77652db936a0"},"vehicle_type_id":"4","last_reported":1717254426,"current_range_meters":6000,"station_id":"ce4bgj92rcd13ifvqbd0","pricing_plan_id":"cebpf4jnsgd1na2vs0mg"},{"bike_id":"9448a6ee-8d4b-43b6-aee1-2c07748ae101","system_id":"levelo_inurba_marseille","lat":43.299724,"lon":5.384848,"is_reserved":false,"is_disabled":false,"rental_uris":{"android":"levelo://app?vid=9448a6ee-8d4b-43b6-aee1-2c07748ae101","ios":"levelo://app?vid=9448a6ee-8d4b-43b6-aee1-2c07748ae101"},"vehicle_type_id":"4","last_reported":1717254426,"current_range_meters":0,"station_id":"ce4bgj92rcd13ifvqbd0","pricing_plan_id":"cebpf4jnsgd1na2vs0mg"},{"bike_id":"d7a26e0e-eebc-4d6f-aff4-048c71965845","system_id":"levelo_inurba_marseille","lat":43.32367,"lon":5.388836,"is_reserved":false,"is_disabled":false,"rental_uris":{"android":"levelo://app?vid=d7a26e0e-eebc-4d6f-aff4-048c71965845","ios":"levelo://app?vid=d7a26e0e-eebc-4d6f-aff4-048c71965845"},"vehicle_type_id":"4","last_reported":1717254426,"current_range_meters":7200,"station_id":"ce4bhqp2rcd13ifvqhog","pricing_plan_id":"cebpf4jnsgd1na2vs0mg"},{"bike_id":"7b54e974-479c-4320-befe-669d18ca164c","system_id":"levelo_inurba_marseille","lat":43.32367,"lon":5.388836,"is_reserved":false,"is_disabled":false,"rental_uris":{"android":"levelo://app?vid=7b54e974-479c-4320-befe-669d18ca164c","ios":"levelo://app?vid=7b54e974-479c-4320-befe-669d18ca164c"},"vehicle_type_id":"4","last_reported":1717254426,"current_range_meters":14800,"station_id":"ce4bhqp2rcd13ifvqhog","pricing_plan_id":"cebpf4jnsgd1na2vs0mg"},{"bike_id":"7e5bc325-9417-4424-a8a6-5c542b0409e1","system_id":"levelo_inurba_marseille","lat":43.29602,"lon":5.381084,"is_reserved":false,"is_disabled":false,"rental_uris":{"android":"levelo://app?vid=7e5bc325-9417-4424-a8a6-5c542b0409e1","ios":"levelo://app?vid=7e5bc325-9417-4424-a8a6-5c542b0409e1"},"vehicle_type_id":"4","last_reported":1717254426,"current_range_meters":0,"station_id":"ce4bgl12rcd13ifvqbo0","pricing_plan_id":"cebpf4jnsgd1na2vs0mg"},{"bike_id":"a4d474f1-a7ba-43f9-9803-a47d06d385ac","system_id":"levelo_inurba_marseille","lat":43.309038,"lon":5.396546,"is_reserved":false,"is_disabled":false,"rental_uris":{"android":"levelo://app?vid=a4d474f1-a7ba-43f9-9803-a47d06d385ac","ios":"levelo://app?vid=a4d474f1-a7ba-43f9-9803-a47d06d385ac"},"vehicle_type_id":"4","last_reported":1717254426,"current_range_meters":0,"station_id":"ce4bh012rcd13ifvqcv0","pricing_plan_id":"cebpf4jnsgd1na2vs0mg"},{"bike_id":"de7a4eb3-a6d3-4dc8-846b-437480f27ce3","system_id":"levelo_inurba_marseille","lat":43.32367,"lon":5.388836,"is_reserved":false,"is_disabled":false,"rental_uris":{"android":"levelo://app?vid=de7a4eb3-a6d3-4dc8-846b-437480f27ce3","ios":"levelo://app?vid=de7a4eb3-a6d3-4dc8-846b-437480f27ce3"},"vehicle_type_id":"4","last_reported":1717254426,"current_range_meters":12800,"station_id":"ce4bhqp2rcd13ifvqhog","pricing_plan_id":"cebpf4jnsgd1na2vs0mg"},{"bike_id":"d5703686-7b03-4cbc-9e65-f7f4186f05fe","system_id":"levelo_inurba_marseille","lat":43.292749,"lon":5.368398,"is_reserved":false,"is_disabled":false,"rental_uris":{"android":"levelo://app?vid=d5703686-7b03-4cbc-9e65-f7f4186f05fe","ios":"levelo://app?vid=d5703686-7b03-4cbc-9e65-f7f4186f05fe"},"vehicle_type_id":"4","last_reported":1717254426,"current_range_meters":14400,"station_id":"ce4bhbp2rcd13ifvqesg","pricing_plan_id":"cebpf4jnsgd1na2vs0mg"},{"bike_id":"72ae9386-c265-4a9c-b7b3-1689749e9f06","system_id":"levelo_inurba_marseille","lat":43.293259,"lon":5.371586,"is_reserved":false,"is_disabled":false,"rental_uris":{"android":"levelo://app?vid=72ae9386-c265-4a9c-b7b3-1689749e9f06","ios":"levelo://app?vid=72ae9386-c265-4a9c-b7b3-1689749e9f06"},"vehicle_type_id":"4","last_reported":1717254426,"current_range_meters":12800,"station_id":"ce4bgh92rcd13ifvqb40","pricing_plan_id":"cebpf4jnsgd1na2vs0mg"},{"bike_id":"e1bdd281-40db-45a5-b135-466c7bdfd9be","system_id":"levelo_inurba_marseille","lat":43.292749,"lon":5.368398,"is_reserved":false,"is_disabled":false,"rental_uris":{"android":"levelo://app?vid=e1bdd281-40db-45a5-b135-466c7bdfd9be","ios":"levelo://app?vid=e1bdd281-40db-45a5-b135-466c7bdfd9be"},"vehicle_type_id":"4","last_reported":1717254426,"current_range_meters":0,"station_id":"ce4bhbp2rcd13ifvqesg","pricing_plan_id":"cebpf4jnsgd1na2vs0mg"},{"bike_id":"4a494b57-9c1e-4e83-9aa1-390c52b66b23","system_id":"levelo_inurba_marseille","lat":43.293009,"lon":5.374584,"is_reserved":false,"is_disabled":false,"rental_uris":{"android":"levelo://app?vid=4a494b57-9c1e-4e83-9aa1-390c52b66b23","ios":"levelo://app?vid=4a494b57-9c1e-4e83-9aa1-390c52b66b23"},"vehicle_type_id":"4","last_reported":1717254426,"current_range_meters":17600,"station_id":"ce4bgi12rcd13ifvqb70","pricing_plan_id":"cebpf4jnsgd1na2vs0mg"},{"bike_id":"8b08f4c6-26ab-4c5a-b6d7-df474e3cd81d","system_id":"levelo_inurba_marseille","lat":43.282744,"lon":5.350533,"is_reserved":false,"is_disabled":false,"rental_uris":{"android":"levelo://app?vid=8b08f4c6-26ab-4c5a-b6d7-df474e3cd81d","ios":"levelo://app?vid=8b08f4c6-26ab-4c5a-b6d7-df474e3cd81d"},"vehicle_type_id":"4","last_reported":1717254426,"current_range_meters":26800,"station_id":"ce4bhbp2rcd13ifvqerg","pricing_plan_id":"cebpf4jnsgd1na2vs0mg"},{"bike_id":"57c60871-c468-4f8d-a68b-cc04aee8ee31","system_id":"levelo_inurba_marseille","lat":43.303002,"lon":5.392142,"is_reserved":false,"is_disabled":false,"rental_uris":{"android":"levelo://app?vid=57c60871-c468-4f8d-a68b-cc04aee8ee31","ios":"levelo://app?vid=57c60871-c468-4f8d-a68b-cc04aee8ee31"},"vehicle_type_id":"4","last_reported":1717254426,"current_range_meters":0,"station_id":"ce4bgkh2rcd13ifvqbk0","pricing_plan_id":"cebpf4jnsgd1na2vs0mg"},{"bike_id":"1b07e514-63c7-4570-8c73-abd1317b9bec","system_id":"levelo_inurba_marseille","lat":43.302992,"lon":5.392136,"is_reserved":false,"is_disabled":false,"rental_uris":{"android":"levelo://app?vid=1b07e514-63c7-4570-8c73-abd1317b9bec","ios":"levelo://app?vid=1b07e514-63c7-4570-8c73-abd1317b9bec"},"vehicle_type_id":"4","last_reported":1717254426,"current_range_meters":24000,"station_id":"ce4bgkh2rcd13ifvqbk0","pricing_plan_id":"cebpf4jnsgd1na2vs0mg"},{"bike_id":"9effdb31-5e2a-418b-923e-6b5db97875cd","system_id":"levelo_inurba_marseille","lat":43.292311,"lon":5.360731,"is_reserved":false,"is_disabled":false,"rental_uris":{"android":"levelo://app?vid=9effdb31-5e2a-418b-923e-6b5db97875cd","ios":"levelo://app?vid=9effdb31-5e2a-418b-923e-6b5db97875cd"},"vehicle_type_id":"4","last_reported":1717254426,"current_range_meters":31200,"station_id":"ce4bhbh2rcd13ifvqeqg","pricing_plan_id":"cebpf4jnsgd1na2vs0mg"},{"bike_id":"b8e7e2e9-5226-432c-ba45-092634e8c3b8","system_id":"levelo_inurba_marseille","lat":43.300852,"lon":5.390859,"is_reserved":false,"is_disabled":false,"rental_uris":{"android":"levelo://app?vid=b8e7e2e9-5226-432c-ba45-092634e8c3b8","ios":"levelo://app?vid=b8e7e2e9-5226-432c-ba45-092634e8c3b8"},"vehicle_type_id":"4","last_reported":1717254426,"current_range_meters":0,"station_id":"ce4bh192rcd13ifvqdb0","pricing_plan_id":"cebpf4jnsgd1na2vs0mg"},{"bike_id":"d204efde-b243-4d15-be9b-67e3796ca1f9","system_id":"levelo_inurba_marseille","lat":43.29231,"lon":5.36053,"is_reserved":false,"is_disabled":false,"rental_uris":{"android":"levelo://app?vid=d204efde-b243-4d15-be9b-67e3796ca1f9","ios":"levelo://app?vid=d204efde-b243-4d15-be9b-67e3796ca1f9"},"vehicle_type_id":"4","last_reported":1717254426,"current_range_meters":26800,"station_id":"ce4bhbh2rcd13ifvqeqg","pricing_plan_id":"cebpf4jnsgd1na2vs0mg"},{"bike_id":"e2c74b39-7d6b-4f59-90eb-b2415c1fdef2","system_id":"levelo_inurba_marseille","lat":43.292311,"lon":5.360731,"is_reserved":false,"is_disabled":false,"rental_uris":{"android":"levelo://app?vid=e2c74b39-7d6b-4f59-90eb-b2415c1fdef2","ios":"levelo://app?vid=e2c74b39-7d6b-4f59-90eb-b2415c1fdef2"},"vehicle_type_id":"4","last_reported":1717254426,"current_range_meters":2800,"station_id":"ce4bhbh2rcd13ifvqeqg","pricing_plan_id":"cebpf4jnsgd1na2vs0mg"},{"bike_id":"fba4041c-70c1-4ce6-94ad-fa8013a54231","system_id":"levelo_inurba_marseille","lat":43.292311,"lon":5.360731,"is_reserved":false,"is_disabled":false,"rental_uris":{"android":"levelo://app?vid=fba4041c-70c1-4ce6-94ad-fa8013a54231","ios":"levelo://app?vid=fba4041c-70c1-4ce6-94ad-fa8013a54231"},"vehicle_type_id":"4","last_reported":1717254426,"current_range_meters":25200,"station_id":"ce4bhbh2rcd13ifvqeqg","pricing_plan_id":"cebpf4jnsgd1na2vs0mg"},{"bike_id":"e7e2bd44-047c-417a-bb98-5475d9beb73c","system_id":"levelo_inurba_marseille","lat":43.298764,"lon":5.388973,"is_reserved":false,"is_disabled":false,"rental_uris":{"android":"levelo://app?vid=e7e2bd44-047c-417a-bb98-5475d9beb73c","ios":"levelo://app?vid=e7e2bd44-047c-417a-bb98-5475d9beb73c"},"vehicle_type_id":"4","last_reported":1717254426,"current_range_meters":28400,"station_id":"ce4bh392rcd13ifvqdl0","pricing_plan_id":"cebpf4jnsgd1na2vs0mg"},{"bike_id":"067f49aa-421f-4ffd-b8ad-f773354d8877","system_id":"levelo_inurba_marseille","lat":43.292311,"lon":5.360731,"is_reserved":false,"is_disabled":false,"rental_uris":{"android":"levelo://app?vid=067f49aa-421f-4ffd-b8ad-f773354d8877","ios":"levelo://app?vid=067f49aa-421f-4ffd-b8ad-f773354d8877"},"vehicle_type_id":"4","last_reported":1717254426,"current_range_meters":5600,"station_id":"ce4bhbh2rcd13ifvqeqg","pricing_plan_id":"cebpf4jnsgd1na2vs0mg"},{"bike_id":"37f881bf-2b52-4ee7-ab0d-9aac1b441e83","system_id":"levelo_inurba_marseille","lat":43.29216,"lon":5.3605,"is_reserved":false,"is_disabled":false,"rental_uris":{"android":"levelo://app?vid=37f881bf-2b52-4ee7-ab0d-9aac1b441e83","ios":"levelo://app?vid=37f881bf-2b52-4ee7-ab0d-9aac1b441e83"},"vehicle_type_id":"4","last_reported":1717254426,"current_range_meters":29200,"station_id":"ce4bhbh2rcd13ifvqeqg","pricing_plan_id":"cebpf4jnsgd1na2vs0mg"},{"bike_id":"42f4705c-7770-4658-bcdc-5e588dac1bab","system_id":"levelo_inurba_marseille","lat":43.298764,"lon":5.388973,"is_reserved":false,"is_disabled":false,"rental_uris":{"android":"levelo://app?vid=42f4705c-7770-4658-bcdc-5e588dac1bab","ios":"levelo://app?vid=42f4705c-7770-4658-bcdc-5e588dac1bab"},"vehicle_type_id":"4","last_reported":1717254426,"current_range_meters":1600,"station_id":"ce4bh392rcd13ifvqdl0","pricing_plan_id":"cebpf4jnsgd1na2vs0mg"},{"bike_id":"bfa6ea2c-7201-4587-94cb-caccb8a92523","system_id":"levelo_inurba_marseille","lat":43.291994,"lon":5.357886,"is_reserved":false,"is_disabled":false,"rental_uris":{"android":"levelo://app?vid=bfa6ea2c-7201-4587-94cb-caccb8a92523","ios":"levelo://app?vid=bfa6ea2c-7201-4587-94cb-caccb8a92523"},"vehicle_type_id":"4","last_reported":1717254426,"current_range_meters":31200,"station_id":"ce4bhb12rcd13ifvqel0","pricing_plan_id":"cebpf4jnsgd1na2vs0mg"},{"bike_id":"1f7dfc41-145c-4ac1-9097-8c5c727a87ca","system_id":"levelo_inurba_marseille","lat":43.292067,"lon":5.357927,"is_reserved":false,"is_disabled":false,"rental_uris":{"android":"levelo://app?vid=1f7dfc41-145c-4ac1-9097-8c5c727a87ca","ios":"levelo://app?vid=1f7dfc41-145c-4ac1-9097-8c5c727a87ca"},"vehicle_type_id":"4","last_reported":1717254426,"current_range_meters":21600,"station_id":"ce4bhb12rcd13ifvqel0","pricing_plan_id":"cebpf4jnsgd1na2vs0mg"},{"bike_id":"0b811582-377d-4123-af05-83f8ee068b03","system_id":"levelo_inurba_marseille","lat":43.292005,"lon":5.357875,"is_reserved":false,"is_disabled":false,"rental_uris":{"android":"levelo://app?vid=0b811582-377d-4123-af05-83f8ee068b03","ios":"levelo://app?vid=0b811582-377d-4123-af05-83f8ee068b03"},"vehicle_type_id":"4","last_reported":1717254426,"current_range_meters":31200,"station_id":"ce4bhb12rcd13ifvqel0","pricing_plan_id":"cebpf4jnsgd1na2vs0mg"},{"bike_id":"4f6454a0-6b81-468b-9616-95293b68ad73","system_id":"levelo_inurba_marseille","lat":43.291994,"lon":5.357886,"is_reserved":false,"is_disabled":false,"rental_uris":{"android":"levelo://app?vid=4f6454a0-6b81-468b-9616-95293b68ad73","ios":"levelo://app?vid=4f6454a0-6b81-468b-9616-95293b68ad73"},"vehicle_type_id":"4","last_reported":1717254426,"current_range_meters":4800,"station_id":"ce4bhb12rcd13ifvqel0","pricing_plan_id":"cebpf4jnsgd1na2vs0mg"},{"bike_id":"e82bb899-ac60-44bf-8d99-9a6d5f1d2932","system_id":"levelo_inurba_marseille","lat":43.292005,"lon":5.357875,"is_reserved":false,"is_disabled":false,"rental_uris":{"android":"levelo://app?vid=e82bb899-ac60-44bf-8d99-9a6d5f1d2932","ios":"levelo://app?vid=e82bb899-ac60-44bf-8d99-9a6d5f1d2932"},"vehicle_type_id":"4","last_reported":1717254426,"current_range_meters":31200,"station_id":"ce4bhb12rcd13ifvqel0","pricing_plan_id":"cebpf4jnsgd1na2vs0mg"},{"bike_id":"e23232e2-8c36-43c3-8f5e-faa67c8361c3","system_id":"levelo_inurba_marseille","lat":43.291994,"lon":5.357886,"is_reserved":false,"is_disabled":false,"rental_uris":{"android":"levelo://app?vid=e23232e2-8c36-43c3-8f5e-faa67c8361c3","ios":"levelo://app?vid=e23232e2-8c36-43c3-8f5e-faa67c8361c3"},"vehicle_type_id":"4","last_reported":1717254426,"current_range_meters":30800,"station_id":"ce4bhb12rcd13ifvqel0","pricing_plan_id":"cebpf4jnsgd1na2vs0mg"},{"bike_id":"b2317dc5-f959-4452-a942-9a6f341c48d9","system_id":"levelo_inurba_marseille","lat":43.292005,"lon":5.357875,"is_reserved":false,"is_disabled":false,"rental_uris":{"android":"levelo://app?vid=b2317dc5-f959-4452-a942-9a6f341c48d9","ios":"levelo://app?vid=b2317dc5-f959-4452-a942-9a6f341c48d9"},"vehicle_type_id":"4","last_reported":1717254426,"current_range_meters":31200,"station_id":"ce4bhb12rcd13ifvqel0","pricing_plan_id":"cebpf4jnsgd1na2vs0mg"},{"bike_id":"252c8d7a-b9c6-4390-b386-8d79bab4e3ac","system_id":"levelo_inurba_marseille","lat":43.291994,"lon":5.357886,"is_reserved":false,"is_disabled":false,"rental_uris":{"android":"levelo://app?vid=252c8d7a-b9c6-4390-b386-8d79bab4e3ac","ios":"levelo://app?vid=252c8d7a-b9c6-4390-b386-8d79bab4e3ac"},"vehicle_type_id":"4","last_reported":1717254426,"current_range_meters":19200,"station_id":"ce4bhb12rcd13ifvqel0","pricing_plan_id":"cebpf4jnsgd1na2vs0mg"},{"bike_id":"f0e92e58-dbe4-4d4f-931f-582e2e7ec542","system_id":"levelo_inurba_marseille","lat":43.3134,"lon":5.3969,"is_reserved":false,"is_disabled":false,"rental_uris":{"android":"levelo://app?vid=f0e92e58-dbe4-4d4f-931f-582e2e7ec542","ios":"levelo://app?vid=f0e92e58-dbe4-4d4f-931f-582e2e7ec542"},"vehicle_type_id":"4","last_reported":1717254426,"current_range_meters":0,"station_id":"ce4bgvp2rcd13ifvqcu0","pricing_plan_id":"cebpf4jnsgd1na2vs0mg"},{"bike_id":"4d3c82a3-c6c6-4d5c-a61a-301f82f9bcdc","system_id":"levelo_inurba_marseille","lat":43.313291,"lon":5.396838,"is_reserved":false,"is_disabled":false,"rental_uris":{"android":"levelo://app?vid=4d3c82a3-c6c6-4d5c-a61a-301f82f9bcdc","ios":"levelo://app?vid=4d3c82a3-c6c6-4d5c-a61a-301f82f9bcdc"},"vehicle_type_id":"4","last_reported":1717254426,"current_range_meters":28400,"station_id":"ce4bgvp2rcd13ifvqcu0","pricing_plan_id":"cebpf4jnsgd1na2vs0mg"},{"bike_id":"0ef4901a-9bfb-40b9-8439-2fec9d9725eb","system_id":"levelo_inurba_marseille","lat":43.309038,"lon":5.396546,"is_reserved":false,"is_disabled":false,"rental_uris":{"android":"levelo://app?vid=0ef4901a-9bfb-40b9-8439-2fec9d9725eb","ios":"levelo://app?vid=0ef4901a-9bfb-40b9-8439-2fec9d9725eb"},"vehicle_type_id":"4","last_reported":1717254426,"current_range_meters":14400,"station_id":"ce4bh012rcd13ifvqcv0","pricing_plan_id":"cebpf4jnsgd1na2vs0mg"},{"bike_id":"ae7629a5-bf32-4ed7-8bc7-f971bdf490a5","system_id":"levelo_inurba_marseille","lat":43.290718,"lon":5.371458,"is_reserved":false,"is_disabled":false,"rental_uris":{"android":"levelo://app?vid=ae7629a5-bf32-4ed7-8bc7-f971bdf490a5","ios":"levelo://app?vid=ae7629a5-bf32-4ed7-8bc7-f971bdf490a5"},"vehicle_type_id":"4","last_reported":1717254426,"current_range_meters":0,"station_id":"ce4bh5p2rcd13ifvqe4g","pricing_plan_id":"cebpf4jnsgd1na2vs0mg"},{"bike_id":"6b2dc119-509d-477d-b333-ede90f1f8d37","system_id":"levelo_inurba_marseille","lat":43.290104,"lon":5.356111,"is_reserved":false,"is_disabled":false,"rental_uris":{"android":"levelo://app?vid=6b2dc119-509d-477d-b333-ede90f1f8d37","ios":"levelo://app?vid=6b2dc119-509d-477d-b333-ede90f1f8d37"},"vehicle_type_id":"4","last_reported":1717254426,"current_range_meters":2000,"station_id":"ce4bhb92rcd13ifvqen0","pricing_plan_id":"cebpf4jnsgd1na2vs0mg"},{"bike_id":"cedd7b1d-c64a-4725-bb92-64e9f6c7e245","system_id":"levelo_inurba_marseille","lat":43.290995,"lon":5.381361,"is_reserved":false,"is_disabled":false,"rental_uris":{"android":"levelo://app?vid=cedd7b1d-c64a-4725-bb92-64e9f6c7e245","ios":"levelo://app?vid=cedd7b1d-c64a-4725-bb92-64e9f6c7e245"},"vehicle_type_id":"4","last_reported":1717254426,"current_range_meters":14400,"station_id":"ce4bh512rcd13ifvqe2g","pricing_plan_id":"cebpf4jnsgd1na2vs0mg"},{"bike_id":"0dea3fc6-2007-4237-bf6d-f3150910082f","system_id":"levelo_inurba_marseille","lat":43.2904,"lon":5.35594,"is_reserved":false,"is_disabled":false,"rental_uris":{"android":"levelo://app?vid=0dea3fc6-2007-4237-bf6d-f3150910082f","ios":"levelo://app?vid=0dea3fc6-2007-4237-bf6d-f3150910082f"},"vehicle_type_id":"4","last_reported":1717254426,"current_range_meters":16800,"station_id":"ce4bhbh2rcd13ifvqeo0","pricing_plan_id":"cebpf4jnsgd1na2vs0mg"},{"bike_id":"c6f4aebc-354d-4fd5-aa08-d9f175bbad7f","system_id":"levelo_inurba_marseille","lat":43.292644,"lon":5.384257,"is_reserved":false,"is_disabled":false,"rental_uris":{"android":"levelo://app?vid=c6f4aebc-354d-4fd5-aa08-d9f175bbad7f","ios":"levelo://app?vid=c6f4aebc-354d-4fd5-aa08-d9f175bbad7f"},"vehicle_type_id":"4","last_reported":1717254426,"current_range_meters":18000,"station_id":"ce4bh692rcd13ifvqea0","pricing_plan_id":"cebpf4jnsgd1na2vs0mg"},{"bike_id":"13053c5c-fd1b-45f0-a08d-2d155f8ffeb4","system_id":"levelo_inurba_marseille","lat":43.2927,"lon":5.38441,"is_reserved":false,"is_disabled":false,"rental_uris":{"android":"levelo://app?vid=13053c5c-fd1b-45f0-a08d-2d155f8ffeb4","ios":"levelo://app?vid=13053c5c-fd1b-45f0-a08d-2d155f8ffeb4"},"vehicle_type_id":"4","last_reported":1717254426,"current_range_meters":0,"station_id":"ce4bh692rcd13ifvqea0","pricing_plan_id":"cebpf4jnsgd1na2vs0mg"},{"bike_id":"56a3b09b-bd50-45a3-a6f3-26cd3403309e","system_id":"levelo_inurba_marseille","lat":43.29013,"lon":5.35617,"is_reserved":false,"is_disabled":false,"rental_uris":{"android":"levelo://app?vid=56a3b09b-bd50-45a3-a6f3-26cd3403309e","ios":"levelo://app?vid=56a3b09b-bd50-45a3-a6f3-26cd3403309e"},"vehicle_type_id":"4","last_reported":1717254426,"current_range_meters":0,"station_id":"ce4bhb92rcd13ifvqen0","pricing_plan_id":"cebpf4jnsgd1na2vs0mg"},{"bike_id":"203432ce-226c-43f2-bb52-a1334ea2efba","system_id":"levelo_inurba_marseille","lat":43.29012,"lon":5.35618,"is_reserved":false,"is_disabled":false,"rental_uris":{"android":"levelo://app?vid=203432ce-226c-43f2-bb52-a1334ea2efba","ios":"levelo://app?vid=203432ce-226c-43f2-bb52-a1334ea2efba"},"vehicle_type_id":"4","last_reported":1717254426,"current_range_meters":0,"station_id":"ce4bhb92rcd13ifvqen0","pricing_plan_id":"cebpf4jnsgd1na2vs0mg"},{"bike_id":"df1ed04b-a5d2-46ab-8095-87b8b4312fb0","system_id":"levelo_inurba_marseille","lat":43.290103,"lon":5.356114,"is_reserved":false,"is_disabled":false,"rental_uris":{"android":"levelo://app?vid=df1ed04b-a5d2-46ab-8095-87b8b4312fb0","ios":"levelo://app?vid=df1ed04b-a5d2-46ab-8095-87b8b4312fb0"},"vehicle_type_id":"4","last_reported":1717254426,"current_range_meters":3600,"station_id":"ce4bhb92rcd13ifvqen0","pricing_plan_id":"cebpf4jnsgd1na2vs0mg"},{"bike_id":"534ae4ce-279e-4f57-9d56-2189e2621005","system_id":"levelo_inurba_marseille","lat":43.290104,"lon":5.356111,"is_reserved":false,"is_disabled":false,"rental_uris":{"android":"levelo://app?vid=534ae4ce-279e-4f57-9d56-2189e2621005","ios":"levelo://app?vid=534ae4ce-279e-4f57-9d56-2189e2621005"},"vehicle_type_id":"4","last_reported":1717254426,"current_range_meters":1600,"station_id":"ce4bhb92rcd13ifvqen0","pricing_plan_id":"cebpf4jnsgd1na2vs0mg"},{"bike_id":"995e91e2-6f68-48dc-8901-9c9d85f22b84","system_id":"levelo_inurba_marseille","lat":43.29006,"lon":5.35617,"is_reserved":false,"is_disabled":false,"rental_uris":{"android":"levelo://app?vid=995e91e2-6f68-48dc-8901-9c9d85f22b84","ios":"levelo://app?vid=995e91e2-6f68-48dc-8901-9c9d85f22b84"},"vehicle_type_id":"4","last_reported":1717254426,"current_range_meters":0,"station_id":"ce4bhb92rcd13ifvqen0","pricing_plan_id":"cebpf4jnsgd1na2vs0mg"},{"bike_id":"4da21268-3bcd-458c-870e-d065c675488c","system_id":"levelo_inurba_marseille","lat":43.290104,"lon":5.356111,"is_reserved":false,"is_disabled":false,"rental_uris":{"android":"levelo://app?vid=4da21268-3bcd-458c-870e-d065c675488c","ios":"levelo://app?vid=4da21268-3bcd-458c-870e-d065c675488c"},"vehicle_type_id":"4","last_reported":1717254426,"current_range_meters":20000,"station_id":"ce4bhb92rcd13ifvqen0","pricing_plan_id":"cebpf4jnsgd1na2vs0mg"},{"bike_id":"818fa745-e842-45fc-94ba-0f8c051e785a","system_id":"levelo_inurba_marseille","lat":43.29112,"lon":5.38141,"is_reserved":false,"is_disabled":false,"rental_uris":{"android":"levelo://app?vid=818fa745-e842-45fc-94ba-0f8c051e785a","ios":"levelo://app?vid=818fa745-e842-45fc-94ba-0f8c051e785a"},"vehicle_type_id":"4","last_reported":1717254426,"current_range_meters":7200,"station_id":"ce4bh512rcd13ifvqe2g","pricing_plan_id":"cebpf4jnsgd1na2vs0mg"},{"bike_id":"0f51fa06-179d-407d-8a86-c59d7e9a88e1","system_id":"levelo_inurba_marseille","lat":43.290995,"lon":5.381361,"is_reserved":false,"is_disabled":false,"rental_uris":{"android":"levelo://app?vid=0f51fa06-179d-407d-8a86-c59d7e9a88e1","ios":"levelo://app?vid=0f51fa06-179d-407d-8a86-c59d7e9a88e1"},"vehicle_type_id":"4","last_reported":1717254426,"current_range_meters":16800,"station_id":"ce4bh512rcd13ifvqe2g","pricing_plan_id":"cebpf4jnsgd1na2vs0mg"},{"bike_id":"b1fd51ad-2e52-4720-b889-616aec6a7607","system_id":"levelo_inurba_marseille","lat":43.2979,"lon":5.39343,"is_reserved":false,"is_disabled":false,"rental_uris":{"android":"levelo://app?vid=b1fd51ad-2e52-4720-b889-616aec6a7607","ios":"levelo://app?vid=b1fd51ad-2e52-4720-b889-616aec6a7607"},"vehicle_type_id":"4","last_reported":1717254426,"current_range_meters":0,"station_id":"chh1huq6cuj3fo74tm60","pricing_plan_id":"cebpf4jnsgd1na2vs0mg"},{"bike_id":"80006007-76fa-41e4-9ef9-f0e094fe9684","system_id":"levelo_inurba_marseille","lat":43.29784,"lon":5.39341,"is_reserved":false,"is_disabled":false,"rental_uris":{"android":"levelo://app?vid=80006007-76fa-41e4-9ef9-f0e094fe9684","ios":"levelo://app?vid=80006007-76fa-41e4-9ef9-f0e094fe9684"},"vehicle_type_id":"4","last_reported":1717254426,"current_range_meters":6800,"station_id":"chh1huq6cuj3fo74tm60","pricing_plan_id":"cebpf4jnsgd1na2vs0mg"},{"bike_id":"8368bbf3-1ff1-43cb-a3ed-3f40a320e3c8","system_id":"levelo_inurba_marseille","lat":43.289741,"lon":5.378306,"is_reserved":false,"is_disabled":false,"rental_uris":{"android":"levelo://app?vid=8368bbf3-1ff1-43cb-a3ed-3f40a320e3c8","ios":"levelo://app?vid=8368bbf3-1ff1-43cb-a3ed-3f40a320e3c8"},"vehicle_type_id":"4","last_reported":1717254426,"current_range_meters":16400,"station_id":"ce4bh9p2rcd13ifvqed0","pricing_plan_id":"cebpf4jnsgd1na2vs0mg"},{"bike_id":"855d940e-6901-46a2-ae2f-27036f036888","system_id":"levelo_inurba_marseille","lat":43.289743,"lon":5.378304,"is_reserved":false,"is_disabled":false,"rental_uris":{"android":"levelo://app?vid=855d940e-6901-46a2-ae2f-27036f036888","ios":"levelo://app?vid=855d940e-6901-46a2-ae2f-27036f036888"},"vehicle_type_id":"4","last_reported":1717254426,"current_range_meters":14400,"station_id":"ce4bh9p2rcd13ifvqed0","pricing_plan_id":"cebpf4jnsgd1na2vs0mg"},{"bike_id":"bcbc3d88-4368-4873-830d-82af75094385","system_id":"levelo_inurba_marseille","lat":43.330442,"lon":5.389148,"is_reserved":false,"is_disabled":false,"rental_uris":{"android":"levelo://app?vid=bcbc3d88-4368-4873-830d-82af75094385","ios":"levelo://app?vid=bcbc3d88-4368-4873-830d-82af75094385"},"vehicle_type_id":"4","last_reported":1717254426,"current_range_meters":0,"station_id":"ce4bhr92rcd13ifvqhrg","pricing_plan_id":"cebpf4jnsgd1na2vs0mg"},{"bike_id":"7f4a3956-c2e8-41af-bf95-2c54e6b43090","system_id":"levelo_inurba_marseille","lat":43.330442,"lon":5.389148,"is_reserved":false,"is_disabled":false,"rental_uris":{"android":"levelo://app?vid=7f4a3956-c2e8-41af-bf95-2c54e6b43090","ios":"levelo://app?vid=7f4a3956-c2e8-41af-bf95-2c54e6b43090"},"vehicle_type_id":"4","last_reported":1717254426,"current_range_meters":14400,"station_id":"ce4bhr92rcd13ifvqhrg","pricing_plan_id":"cebpf4jnsgd1na2vs0mg"},{"bike_id":"3059bc13-2128-4e9d-b810-71bcda04bdfd","system_id":"levelo_inurba_marseille","lat":43.29028,"lon":5.38137,"is_reserved":false,"is_disabled":false,"rental_uris":{"android":"levelo://app?vid=3059bc13-2128-4e9d-b810-71bcda04bdfd","ios":"levelo://app?vid=3059bc13-2128-4e9d-b810-71bcda04bdfd"},"vehicle_type_id":"4","last_reported":1717254426,"current_range_meters":0,"station_id":"ce4bh4p2rcd13ifvqe1g","pricing_plan_id":"cebpf4jnsgd1na2vs0mg"},{"bike_id":"94241b89-be14-4ed4-9e17-e498b3a99b2f","system_id":"levelo_inurba_marseille","lat":43.331527,"lon":5.389893,"is_reserved":false,"is_disabled":false,"rental_uris":{"android":"levelo://app?vid=94241b89-be14-4ed4-9e17-e498b3a99b2f","ios":"levelo://app?vid=94241b89-be14-4ed4-9e17-e498b3a99b2f"},"vehicle_type_id":"4","last_reported":1717254426,"current_range_meters":11200,"station_id":"","pricing_plan_id":"cebpf4jnsgd1na2vs0mg"},{"bike_id":"c12a2f50-e6dd-4380-ac7c-a539931a9c48","system_id":"levelo_inurba_marseille","lat":43.30931,"lon":5.40137,"is_reserved":false,"is_disabled":false,"rental_uris":{"android":"levelo://app?vid=c12a2f50-e6dd-4380-ac7c-a539931a9c48","ios":"levelo://app?vid=c12a2f50-e6dd-4380-ac7c-a539931a9c48"},"vehicle_type_id":"4","last_reported":1717254426,"current_range_meters":0,"station_id":"ce4bgvp2rcd13ifvqct0","pricing_plan_id":"cebpf4jnsgd1na2vs0mg"},{"bike_id":"26e88c15-1ebf-4978-814d-f8bc280f73dc","system_id":"levelo_inurba_marseille","lat":43.33746,"lon":5.374831,"is_reserved":false,"is_disabled":false,"rental_uris":{"android":"levelo://app?vid=26e88c15-1ebf-4978-814d-f8bc280f73dc","ios":"levelo://app?vid=26e88c15-1ebf-4978-814d-f8bc280f73dc"},"vehicle_type_id":"4","last_reported":1717254426,"current_range_meters":29200,"station_id":"","pricing_plan_id":"cebpf4jnsgd1na2vs0mg"},{"bike_id":"ef2a9714-8bba-4b1e-84e3-54d1955882e4","system_id":"levelo_inurba_marseille","lat":43.28727,"lon":5.36078,"is_reserved":false,"is_disabled":false,"rental_uris":{"android":"levelo://app?vid=ef2a9714-8bba-4b1e-84e3-54d1955882e4","ios":"levelo://app?vid=ef2a9714-8bba-4b1e-84e3-54d1955882e4"},"vehicle_type_id":"4","last_reported":1717254426,"current_range_meters":31200,"station_id":"cki0cbj6b192h4jlfktg","pricing_plan_id":"cebpf4jnsgd1na2vs0mg"},{"bike_id":"d54a147f-07e0-457c-bc04-8d48ace491ec","system_id":"levelo_inurba_marseille","lat":43.30295,"lon":5.39954,"is_reserved":false,"is_disabled":false,"rental_uris":{"android":"levelo://app?vid=d54a147f-07e0-457c-bc04-8d48ace491ec","ios":"levelo://app?vid=d54a147f-07e0-457c-bc04-8d48ace491ec"},"vehicle_type_id":"4","last_reported":1717254426,"current_range_meters":28800,"station_id":"","pricing_plan_id":"cebpf4jnsgd1na2vs0mg"},{"bike_id":"4e1183d9-d739-4b9b-9a90-7705251b3010","system_id":"levelo_inurba_marseille","lat":43.301117,"lon":5.398795,"is_reserved":false,"is_disabled":false,"rental_uris":{"android":"levelo://app?vid=4e1183d9-d739-4b9b-9a90-7705251b3010","ios":"levelo://app?vid=4e1183d9-d739-4b9b-9a90-7705251b3010"},"vehicle_type_id":"4","last_reported":1717254426,"current_range_meters":15600,"station_id":"ce4bh0h2rcd13ifvqd40","pricing_plan_id":"cebpf4jnsgd1na2vs0mg"},{"bike_id":"126e3e1b-6273-414a-bff1-10fa6e9099c6","system_id":"levelo_inurba_marseille","lat":43.28727,"lon":5.36078,"is_reserved":false,"is_disabled":false,"rental_uris":{"android":"levelo://app?vid=126e3e1b-6273-414a-bff1-10fa6e9099c6","ios":"levelo://app?vid=126e3e1b-6273-414a-bff1-10fa6e9099c6"},"vehicle_type_id":"4","last_reported":1717254426,"current_range_meters":2400,"station_id":"cki0cbj6b192h4jlfktg","pricing_plan_id":"cebpf4jnsgd1na2vs0mg"},{"bike_id":"c0fd69b0-e7ac-41ee-83ee-6fab877b7de1","system_id":"levelo_inurba_marseille","lat":43.286961,"lon":5.373785,"is_reserved":false,"is_disabled":false,"rental_uris":{"android":"levelo://app?vid=c0fd69b0-e7ac-41ee-83ee-6fab877b7de1","ios":"levelo://app?vid=c0fd69b0-e7ac-41ee-83ee-6fab877b7de1"},"vehicle_type_id":"4","last_reported":1717254426,"current_range_meters":400,"station_id":"ce4bh3p2rcd13ifvqdq0","pricing_plan_id":"cebpf4jnsgd1na2vs0mg"},{"bike_id":"6d9f6618-931b-4883-908f-13d1b99e7b2c","system_id":"levelo_inurba_marseille","lat":43.286593,"lon":5.363346,"is_reserved":false,"is_disabled":false,"rental_uris":{"android":"levelo://app?vid=6d9f6618-931b-4883-908f-13d1b99e7b2c","ios":"levelo://app?vid=6d9f6618-931b-4883-908f-13d1b99e7b2c"},"vehicle_type_id":"4","last_reported":1717254426,"current_range_meters":14800,"station_id":"ce4bhah2rcd13ifvqej0","pricing_plan_id":"cebpf4jnsgd1na2vs0mg"},{"bike_id":"f4ce3954-7692-457c-bbef-3373eb511c87","system_id":"levelo_inurba_marseille","lat":43.286591,"lon":5.363346,"is_reserved":false,"is_disabled":false,"rental_uris":{"android":"levelo://app?vid=f4ce3954-7692-457c-bbef-3373eb511c87","ios":"levelo://app?vid=f4ce3954-7692-457c-bbef-3373eb511c87"},"vehicle_type_id":"4","last_reported":1717254426,"current_range_meters":15200,"station_id":"ce4bhah2rcd13ifvqej0","pricing_plan_id":"cebpf4jnsgd1na2vs0mg"},{"bike_id":"910c8398-c3ef-419c-a40b-d7de1032202b","system_id":"levelo_inurba_marseille","lat":43.298681,"lon":5.397225,"is_reserved":false,"is_disabled":false,"rental_uris":{"android":"levelo://app?vid=910c8398-c3ef-419c-a40b-d7de1032202b","ios":"levelo://app?vid=910c8398-c3ef-419c-a40b-d7de1032202b"},"vehicle_type_id":"4","last_reported":1717254426,"current_range_meters":10000,"station_id":"ce4bh0h2rcd13ifvqd50","pricing_plan_id":"cebpf4jnsgd1na2vs0mg"},{"bike_id":"e81312c2-b296-4c9f-96d6-56faf637f298","system_id":"levelo_inurba_marseille","lat":43.286551,"lon":5.363549,"is_reserved":false,"is_disabled":false,"rental_uris":{"android":"levelo://app?vid=e81312c2-b296-4c9f-96d6-56faf637f298","ios":"levelo://app?vid=e81312c2-b296-4c9f-96d6-56faf637f298"},"vehicle_type_id":"4","last_reported":1717254426,"current_range_meters":30400,"station_id":"ce4bhah2rcd13ifvqej0","pricing_plan_id":"cebpf4jnsgd1na2vs0mg"},{"bike_id":"92224942-c2d9-4da9-9d6e-b93b57d317b2","system_id":"levelo_inurba_marseille","lat":43.289307,"lon":5.38406,"is_reserved":false,"is_disabled":false,"rental_uris":{"android":"levelo://app?vid=92224942-c2d9-4da9-9d6e-b93b57d317b2","ios":"levelo://app?vid=92224942-c2d9-4da9-9d6e-b93b57d317b2"},"vehicle_type_id":"4","last_reported":1717254426,"current_range_meters":7200,"station_id":"ce4bh612rcd13ifvqe6g","pricing_plan_id":"cebpf4jnsgd1na2vs0mg"},{"bike_id":"83008d92-6337-435a-9a1a-79a3db3ca89b","system_id":"levelo_inurba_marseille","lat":43.302759,"lon":5.400793,"is_reserved":false,"is_disabled":false,"rental_uris":{"android":"levelo://app?vid=83008d92-6337-435a-9a1a-79a3db3ca89b","ios":"levelo://app?vid=83008d92-6337-435a-9a1a-79a3db3ca89b"},"vehicle_type_id":"4","last_reported":1717254426,"current_range_meters":8800,"station_id":"ce4bgvh2rcd13ifvqcs0","pricing_plan_id":"cebpf4jnsgd1na2vs0mg"},{"bike_id":"48b0ea12-a1cf-472d-9c35-b3fa8a5e3e5b","system_id":"levelo_inurba_marseille","lat":43.316735,"lon":5.404626,"is_reserved":false,"is_disabled":false,"rental_uris":{"android":"levelo://app?vid=48b0ea12-a1cf-472d-9c35-b3fa8a5e3e5b","ios":"levelo://app?vid=48b0ea12-a1cf-472d-9c35-b3fa8a5e3e5b"},"vehicle_type_id":"4","last_reported":1717254426,"current_range_meters":0,"station_id":"ce4bh012rcd13ifvqd00","pricing_plan_id":"cebpf4jnsgd1na2vs0mg"},{"bike_id":"6ea79987-0654-4185-8872-b86c66987669","system_id":"levelo_inurba_marseille","lat":43.301117,"lon":5.398795,"is_reserved":false,"is_disabled":false,"rental_uris":{"android":"levelo://app?vid=6ea79987-0654-4185-8872-b86c66987669","ios":"levelo://app?vid=6ea79987-0654-4185-8872-b86c66987669"},"vehicle_type_id":"4","last_reported":1717254426,"current_range_meters":15200,"station_id":"ce4bh0h2rcd13ifvqd40","pricing_plan_id":"cebpf4jnsgd1na2vs0mg"},{"bike_id":"c865dea9-f578-4f9c-88a7-e9d9899ad6f1","system_id":"levelo_inurba_marseille","lat":43.316821,"lon":5.404737,"is_reserved":false,"is_disabled":false,"rental_uris":{"android":"levelo://app?vid=c865dea9-f578-4f9c-88a7-e9d9899ad6f1","ios":"levelo://app?vid=c865dea9-f578-4f9c-88a7-e9d9899ad6f1"},"vehicle_type_id":"4","last_reported":1717254426,"current_range_meters":2400,"station_id":"ce4bh012rcd13ifvqd00","pricing_plan_id":"cebpf4jnsgd1na2vs0mg"},{"bike_id":"ae50a509-c112-45ab-9e99-200c457ea420","system_id":"levelo_inurba_marseille","lat":43.29212,"lon":5.393172,"is_reserved":false,"is_disabled":false,"rental_uris":{"android":"levelo://app?vid=ae50a509-c112-45ab-9e99-200c457ea420","ios":"levelo://app?vid=ae50a509-c112-45ab-9e99-200c457ea420"},"vehicle_type_id":"4","last_reported":1717254426,"current_range_meters":0,"station_id":"ce4bh192rcd13ifvqdd0","pricing_plan_id":"cebpf4jnsgd1na2vs0mg"},{"bike_id":"b9d54194-bab9-4b8c-ac90-b8668784c9cb","system_id":"levelo_inurba_marseille","lat":43.291994,"lon":5.392907,"is_reserved":false,"is_disabled":false,"rental_uris":{"android":"levelo://app?vid=b9d54194-bab9-4b8c-ac90-b8668784c9cb","ios":"levelo://app?vid=b9d54194-bab9-4b8c-ac90-b8668784c9cb"},"vehicle_type_id":"4","last_reported":1717254426,"current_range_meters":0,"station_id":"ce4bh192rcd13ifvqdd0","pricing_plan_id":"cebpf4jnsgd1na2vs0mg"},{"bike_id":"cc01d879-ab2c-4cc9-b011-bdffa062f18a","system_id":"levelo_inurba_marseille","lat":43.291994,"lon":5.392907,"is_reserved":false,"is_disabled":false,"rental_uris":{"android":"levelo://app?vid=cc01d879-ab2c-4cc9-b011-bdffa062f18a","ios":"levelo://app?vid=cc01d879-ab2c-4cc9-b011-bdffa062f18a"},"vehicle_type_id":"4","last_reported":1717254426,"current_range_meters":24000,"station_id":"ce4bh192rcd13ifvqdd0","pricing_plan_id":"cebpf4jnsgd1na2vs0mg"},{"bike_id":"b856f810-2a54-4086-a61e-15e06706fb70","system_id":"levelo_inurba_marseille","lat":43.291994,"lon":5.392907,"is_reserved":false,"is_disabled":false,"rental_uris":{"android":"levelo://app?vid=b856f810-2a54-4086-a61e-15e06706fb70","ios":"levelo://app?vid=b856f810-2a54-4086-a61e-15e06706fb70"},"vehicle_type_id":"4","last_reported":1717254426,"current_range_meters":18000,"station_id":"ce4bh192rcd13ifvqdd0","pricing_plan_id":"cebpf4jnsgd1na2vs0mg"},{"bike_id":"833bd9e5-fae2-4826-a3e8-7d9b6ef31083","system_id":"levelo_inurba_marseille","lat":43.282744,"lon":5.350533,"is_reserved":false,"is_disabled":false,"rental_uris":{"android":"levelo://app?vid=833bd9e5-fae2-4826-a3e8-7d9b6ef31083","ios":"levelo://app?vid=833bd9e5-fae2-4826-a3e8-7d9b6ef31083"},"vehicle_type_id":"4","last_reported":1717254426,"current_range_meters":0,"station_id":"ce4bhbp2rcd13ifvqerg","pricing_plan_id":"cebpf4jnsgd1na2vs0mg"},{"bike_id":"22a98968-4eaf-46fd-8908-aa8b404e8ee0","system_id":"levelo_inurba_marseille","lat":43.284534,"lon":5.358662,"is_reserved":false,"is_disabled":false,"rental_uris":{"android":"levelo://app?vid=22a98968-4eaf-46fd-8908-aa8b404e8ee0","ios":"levelo://app?vid=22a98968-4eaf-46fd-8908-aa8b404e8ee0"},"vehicle_type_id":"4","last_reported":1717254426,"current_range_meters":0,"station_id":"ce4bhah2rcd13ifvqei0","pricing_plan_id":"cebpf4jnsgd1na2vs0mg"},{"bike_id":"caf8f787-9cd8-43b5-a732-272b9912bfab","system_id":"levelo_inurba_marseille","lat":43.284538,"lon":5.358657,"is_reserved":false,"is_disabled":false,"rental_uris":{"android":"levelo://app?vid=caf8f787-9cd8-43b5-a732-272b9912bfab","ios":"levelo://app?vid=caf8f787-9cd8-43b5-a732-272b9912bfab"},"vehicle_type_id":"4","last_reported":1717254426,"current_range_meters":12000,"station_id":"ce4bhah2rcd13ifvqei0","pricing_plan_id":"cebpf4jnsgd1na2vs0mg"},{"bike_id":"d004be0c-471e-4380-a4d5-1fe7fbbd9b0d","system_id":"levelo_inurba_marseille","lat":43.284534,"lon":5.358662,"is_reserved":false,"is_disabled":false,"rental_uris":{"android":"levelo://app?vid=d004be0c-471e-4380-a4d5-1fe7fbbd9b0d","ios":"levelo://app?vid=d004be0c-471e-4380-a4d5-1fe7fbbd9b0d"},"vehicle_type_id":"4","last_reported":1717254426,"current_range_meters":10800,"station_id":"ce4bhah2rcd13ifvqei0","pricing_plan_id":"cebpf4jnsgd1na2vs0mg"},{"bike_id":"dd1585f2-4c5a-4074-b655-9f55cbe7f318","system_id":"levelo_inurba_marseille","lat":43.284534,"lon":5.358662,"is_reserved":false,"is_disabled":false,"rental_uris":{"android":"levelo://app?vid=dd1585f2-4c5a-4074-b655-9f55cbe7f318","ios":"levelo://app?vid=dd1585f2-4c5a-4074-b655-9f55cbe7f318"},"vehicle_type_id":"4","last_reported":1717254426,"current_range_meters":30000,"station_id":"ce4bhah2rcd13ifvqei0","pricing_plan_id":"cebpf4jnsgd1na2vs0mg"},{"bike_id":"d4ea7988-ec88-4070-ab1b-bee753c14306","system_id":"levelo_inurba_marseille","lat":43.284534,"lon":5.358662,"is_reserved":false,"is_disabled":false,"rental_uris":{"android":"levelo://app?vid=d4ea7988-ec88-4070-ab1b-bee753c14306","ios":"levelo://app?vid=d4ea7988-ec88-4070-ab1b-bee753c14306"},"vehicle_type_id":"4","last_reported":1717254426,"current_range_meters":5600,"station_id":"ce4bhah2rcd13ifvqei0","pricing_plan_id":"cebpf4jnsgd1na2vs0mg"},{"bike_id":"e3dcc251-6ebf-4d2e-b249-f02d23c4164c","system_id":"levelo_inurba_marseille","lat":43.284538,"lon":5.358657,"is_reserved":false,"is_disabled":false,"rental_uris":{"android":"levelo://app?vid=e3dcc251-6ebf-4d2e-b249-f02d23c4164c","ios":"levelo://app?vid=e3dcc251-6ebf-4d2e-b249-f02d23c4164c"},"vehicle_type_id":"4","last_reported":1717254426,"current_range_meters":0,"station_id":"ce4bhah2rcd13ifvqei0","pricing_plan_id":"cebpf4jnsgd1na2vs0mg"},{"bike_id":"48441cc3-c74e-48a7-8a2f-6167402a1613","system_id":"levelo_inurba_marseille","lat":43.29741,"lon":5.40067,"is_reserved":false,"is_disabled":false,"rental_uris":{"android":"levelo://app?vid=48441cc3-c74e-48a7-8a2f-6167402a1613","ios":"levelo://app?vid=48441cc3-c74e-48a7-8a2f-6167402a1613"},"vehicle_type_id":"4","last_reported":1717254426,"current_range_meters":22000,"station_id":"ce4bhgh2rcd13ifvqfa0","pricing_plan_id":"cebpf4jnsgd1na2vs0mg"},{"bike_id":"d070cbf1-4111-4c71-9b22-4ba89b205e2f","system_id":"levelo_inurba_marseille","lat":43.285856,"lon":5.350771,"is_reserved":false,"is_disabled":false,"rental_uris":{"android":"levelo://app?vid=d070cbf1-4111-4c71-9b22-4ba89b205e2f","ios":"levelo://app?vid=d070cbf1-4111-4c71-9b22-4ba89b205e2f"},"vehicle_type_id":"4","last_reported":1717254426,"current_range_meters":9600,"station_id":"ce4bhch2rcd13ifvqeug","pricing_plan_id":"cebpf4jnsgd1na2vs0mg"},{"bike_id":"d2536c5d-4b5d-4bac-80bb-74aaeff67a24","system_id":"levelo_inurba_marseille","lat":43.28618,"lon":5.35107,"is_reserved":false,"is_disabled":false,"rental_uris":{"android":"levelo://app?vid=d2536c5d-4b5d-4bac-80bb-74aaeff67a24","ios":"levelo://app?vid=d2536c5d-4b5d-4bac-80bb-74aaeff67a24"},"vehicle_type_id":"4","last_reported":1717254426,"current_range_meters":0,"station_id":"ce4bhch2rcd13ifvqeug","pricing_plan_id":"cebpf4jnsgd1na2vs0mg"},{"bike_id":"32b3a3f9-96ba-4d7a-986d-1d6d490ffeb7","system_id":"levelo_inurba_marseille","lat":43.286133,"lon":5.351043,"is_reserved":false,"is_disabled":false,"rental_uris":{"android":"levelo://app?vid=32b3a3f9-96ba-4d7a-986d-1d6d490ffeb7","ios":"levelo://app?vid=32b3a3f9-96ba-4d7a-986d-1d6d490ffeb7"},"vehicle_type_id":"4","last_reported":1717254426,"current_range_meters":11600,"station_id":"ce4bhch2rcd13ifvqeug","pricing_plan_id":"cebpf4jnsgd1na2vs0mg"},{"bike_id":"68be678c-b514-4e4c-845e-a3cff1b61deb","system_id":"levelo_inurba_marseille","lat":43.28615,"lon":5.35099,"is_reserved":false,"is_disabled":false,"rental_uris":{"android":"levelo://app?vid=68be678c-b514-4e4c-845e-a3cff1b61deb","ios":"levelo://app?vid=68be678c-b514-4e4c-845e-a3cff1b61deb"},"vehicle_type_id":"4","last_reported":1717254426,"current_range_meters":0,"station_id":"ce4bhch2rcd13ifvqeug","pricing_plan_id":"cebpf4jnsgd1na2vs0mg"},{"bike_id":"4b578e29-4565-4fff-b06e-13fe62e21890","system_id":"levelo_inurba_marseille","lat":43.283998,"lon":5.375062,"is_reserved":false,"is_disabled":false,"rental_uris":{"android":"levelo://app?vid=4b578e29-4565-4fff-b06e-13fe62e21890","ios":"levelo://app?vid=4b578e29-4565-4fff-b06e-13fe62e21890"},"vehicle_type_id":"4","last_reported":1717254426,"current_range_meters":6000,"station_id":"ce4bh412rcd13ifvqds0","pricing_plan_id":"cebpf4jnsgd1na2vs0mg"},{"bike_id":"66195646-5aaa-45f3-850b-377608983bdd","system_id":"levelo_inurba_marseille","lat":43.28611,"lon":5.35099,"is_reserved":false,"is_disabled":false,"rental_uris":{"android":"levelo://app?vid=66195646-5aaa-45f3-850b-377608983bdd","ios":"levelo://app?vid=66195646-5aaa-45f3-850b-377608983bdd"},"vehicle_type_id":"4","last_reported":1717254426,"current_range_meters":18400,"station_id":"ce4bhch2rcd13ifvqeug","pricing_plan_id":"cebpf4jnsgd1na2vs0mg"},{"bike_id":"e642b6ce-6545-46da-93ea-d15b57b7f322","system_id":"levelo_inurba_marseille","lat":43.316211,"lon":5.406614,"is_reserved":false,"is_disabled":false,"rental_uris":{"android":"levelo://app?vid=e642b6ce-6545-46da-93ea-d15b57b7f322","ios":"levelo://app?vid=e642b6ce-6545-46da-93ea-d15b57b7f322"},"vehicle_type_id":"4","last_reported":1717254426,"current_range_meters":9600,"station_id":"","pricing_plan_id":"cebpf4jnsgd1na2vs0mg"},{"bike_id":"66f20064-3a01-45cb-9946-60d887096be1","system_id":"levelo_inurba_marseille","lat":43.283998,"lon":5.375062,"is_reserved":false,"is_disabled":false,"rental_uris":{"android":"levelo://app?vid=66f20064-3a01-45cb-9946-60d887096be1","ios":"levelo://app?vid=66f20064-3a01-45cb-9946-60d887096be1"},"vehicle_type_id":"4","last_reported":1717254426,"current_range_meters":4000,"station_id":"ce4bh412rcd13ifvqds0","pricing_plan_id":"cebpf4jnsgd1na2vs0mg"},{"bike_id":"48ed129a-53a9-4b10-b1ef-b90d6209372b","system_id":"levelo_inurba_marseille","lat":43.319179,"lon":5.407725,"is_reserved":false,"is_disabled":false,"rental_uris":{"android":"levelo://app?vid=48ed129a-53a9-4b10-b1ef-b90d6209372b","ios":"levelo://app?vid=48ed129a-53a9-4b10-b1ef-b90d6209372b"},"vehicle_type_id":"4","last_reported":1717254426,"current_range_meters":17200,"station_id":"ce4bhq12rcd13ifvqhig","pricing_plan_id":"cebpf4jnsgd1na2vs0mg"},{"bike_id":"6c66a6e6-bd50-48f2-8322-48bccc17dc54","system_id":"levelo_inurba_marseille","lat":43.337168,"lon":5.391825,"is_reserved":false,"is_disabled":false,"rental_uris":{"android":"levelo://app?vid=6c66a6e6-bd50-48f2-8322-48bccc17dc54","ios":"levelo://app?vid=6c66a6e6-bd50-48f2-8322-48bccc17dc54"},"vehicle_type_id":"4","last_reported":1717254426,"current_range_meters":14000,"station_id":"ce4bhr92rcd13ifvqhsg","pricing_plan_id":"cebpf4jnsgd1na2vs0mg"},{"bike_id":"a5eb467d-c249-4337-a6d8-43bde2705459","system_id":"levelo_inurba_marseille","lat":43.284787,"lon":5.384116,"is_reserved":false,"is_disabled":false,"rental_uris":{"android":"levelo://app?vid=a5eb467d-c249-4337-a6d8-43bde2705459","ios":"levelo://app?vid=a5eb467d-c249-4337-a6d8-43bde2705459"},"vehicle_type_id":"4","last_reported":1717254426,"current_range_meters":0,"station_id":"ce4bh512rcd13ifvqe3g","pricing_plan_id":"cebpf4jnsgd1na2vs0mg"},{"bike_id":"b2463c7d-e7bf-429e-967b-f40736c4be4f","system_id":"levelo_inurba_marseille","lat":43.323464,"lon":5.406297,"is_reserved":false,"is_disabled":false,"rental_uris":{"android":"levelo://app?vid=b2463c7d-e7bf-429e-967b-f40736c4be4f","ios":"levelo://app?vid=b2463c7d-e7bf-429e-967b-f40736c4be4f"},"vehicle_type_id":"4","last_reported":1717254426,"current_range_meters":0,"station_id":"ce4bhq92rcd13ifvqhjg","pricing_plan_id":"cebpf4jnsgd1na2vs0mg"},{"bike_id":"9ac4c665-1712-4ec0-beac-5862a857733f","system_id":"levelo_inurba_marseille","lat":43.337168,"lon":5.391825,"is_reserved":false,"is_disabled":false,"rental_uris":{"android":"levelo://app?vid=9ac4c665-1712-4ec0-beac-5862a857733f","ios":"levelo://app?vid=9ac4c665-1712-4ec0-beac-5862a857733f"},"vehicle_type_id":"4","last_reported":1717254426,"current_range_meters":20400,"station_id":"ce4bhr92rcd13ifvqhsg","pricing_plan_id":"cebpf4jnsgd1na2vs0mg"},{"bike_id":"121cf3a4-15e2-444f-84e0-92e7f397d0b4","system_id":"levelo_inurba_marseille","lat":43.28773,"lon":5.39117,"is_reserved":false,"is_disabled":false,"rental_uris":{"android":"levelo://app?vid=121cf3a4-15e2-444f-84e0-92e7f397d0b4","ios":"levelo://app?vid=121cf3a4-15e2-444f-84e0-92e7f397d0b4"},"vehicle_type_id":"4","last_reported":1717254426,"current_range_meters":8000,"station_id":"","pricing_plan_id":"cebpf4jnsgd1na2vs0mg"},{"bike_id":"d44a986a-cd1c-4760-b0bc-975ddfe8dbd6","system_id":"levelo_inurba_marseille","lat":43.284793,"lon":5.384119,"is_reserved":false,"is_disabled":false,"rental_uris":{"android":"levelo://app?vid=d44a986a-cd1c-4760-b0bc-975ddfe8dbd6","ios":"levelo://app?vid=d44a986a-cd1c-4760-b0bc-975ddfe8dbd6"},"vehicle_type_id":"4","last_reported":1717254426,"current_range_meters":0,"station_id":"ce4bh512rcd13ifvqe3g","pricing_plan_id":"cebpf4jnsgd1na2vs0mg"},{"bike_id":"0333316d-85e2-44d6-832c-c22729aa041e","system_id":"levelo_inurba_marseille","lat":43.284787,"lon":5.384116,"is_reserved":false,"is_disabled":false,"rental_uris":{"android":"levelo://app?vid=0333316d-85e2-44d6-832c-c22729aa041e","ios":"levelo://app?vid=0333316d-85e2-44d6-832c-c22729aa041e"},"vehicle_type_id":"4","last_reported":1717254426,"current_range_meters":0,"station_id":"ce4bh512rcd13ifvqe3g","pricing_plan_id":"cebpf4jnsgd1na2vs0mg"},{"bike_id":"f8e62c76-bb99-4252-abff-eb52b6c16e20","system_id":"levelo_inurba_marseille","lat":43.284766,"lon":5.384068,"is_reserved":false,"is_disabled":false,"rental_uris":{"android":"levelo://app?vid=f8e62c76-bb99-4252-abff-eb52b6c16e20","ios":"levelo://app?vid=f8e62c76-bb99-4252-abff-eb52b6c16e20"},"vehicle_type_id":"4","last_reported":1717254426,"current_range_meters":0,"station_id":"","pricing_plan_id":"cebpf4jnsgd1na2vs0mg"},{"bike_id":"ec782723-6801-4ae9-bc0a-f726cefaf411","system_id":"levelo_inurba_marseille","lat":43.284396,"lon":5.349874,"is_reserved":false,"is_disabled":false,"rental_uris":{"android":"levelo://app?vid=ec782723-6801-4ae9-bc0a-f726cefaf411","ios":"levelo://app?vid=ec782723-6801-4ae9-bc0a-f726cefaf411"},"vehicle_type_id":"4","last_reported":1717254426,"current_range_meters":17200,"station_id":"ce4bhbh2rcd13ifvqepg","pricing_plan_id":"cebpf4jnsgd1na2vs0mg"},{"bike_id":"a2e437dc-eb60-4a92-ba09-814ceab3783b","system_id":"levelo_inurba_marseille","lat":43.28425,"lon":5.35,"is_reserved":false,"is_disabled":false,"rental_uris":{"android":"levelo://app?vid=a2e437dc-eb60-4a92-ba09-814ceab3783b","ios":"levelo://app?vid=a2e437dc-eb60-4a92-ba09-814ceab3783b"},"vehicle_type_id":"4","last_reported":1717254426,"current_range_meters":7600,"station_id":"ce4bhbh2rcd13ifvqepg","pricing_plan_id":"cebpf4jnsgd1na2vs0mg"},{"bike_id":"e1df35f6-4022-4eab-b202-371150f16024","system_id":"levelo_inurba_marseille","lat":43.284219,"lon":5.3497,"is_reserved":false,"is_disabled":false,"rental_uris":{"android":"levelo://app?vid=e1df35f6-4022-4eab-b202-371150f16024","ios":"levelo://app?vid=e1df35f6-4022-4eab-b202-371150f16024"},"vehicle_type_id":"4","last_reported":1717254426,"current_range_meters":27200,"station_id":"ce4bhbh2rcd13ifvqepg","pricing_plan_id":"cebpf4jnsgd1na2vs0mg"},{"bike_id":"c0b37484-0f02-43f0-b6e2-c13749b346e4","system_id":"levelo_inurba_marseille","lat":43.284271,"lon":5.349796,"is_reserved":false,"is_disabled":false,"rental_uris":{"android":"levelo://app?vid=c0b37484-0f02-43f0-b6e2-c13749b346e4","ios":"levelo://app?vid=c0b37484-0f02-43f0-b6e2-c13749b346e4"},"vehicle_type_id":"4","last_reported":1717254426,"current_range_meters":9600,"station_id":"ce4bhbh2rcd13ifvqepg","pricing_plan_id":"cebpf4jnsgd1na2vs0mg"},{"bike_id":"a2af20ff-75be-4302-8ba6-8d015009bd08","system_id":"levelo_inurba_marseille","lat":43.284219,"lon":5.3497,"is_reserved":false,"is_disabled":false,"rental_uris":{"android":"levelo://app?vid=a2af20ff-75be-4302-8ba6-8d015009bd08","ios":"levelo://app?vid=a2af20ff-75be-4302-8ba6-8d015009bd08"},"vehicle_type_id":"4","last_reported":1717254426,"current_range_meters":31600,"station_id":"ce4bhbh2rcd13ifvqepg","pricing_plan_id":"cebpf4jnsgd1na2vs0mg"},{"bike_id":"e3c08a93-a1c0-4d06-8dcb-fd06eccd7f81","system_id":"levelo_inurba_marseille","lat":43.28421,"lon":5.34991,"is_reserved":false,"is_disabled":false,"rental_uris":{"android":"levelo://app?vid=e3c08a93-a1c0-4d06-8dcb-fd06eccd7f81","ios":"levelo://app?vid=e3c08a93-a1c0-4d06-8dcb-fd06eccd7f81"},"vehicle_type_id":"4","last_reported":1717254426,"current_range_meters":24400,"station_id":"ce4bhbh2rcd13ifvqepg","pricing_plan_id":"cebpf4jnsgd1na2vs0mg"},{"bike_id":"7f62c1f9-6e97-4be5-95f8-816397b73b0f","system_id":"levelo_inurba_marseille","lat":43.284232,"lon":5.349804,"is_reserved":false,"is_disabled":false,"rental_uris":{"android":"levelo://app?vid=7f62c1f9-6e97-4be5-95f8-816397b73b0f","ios":"levelo://app?vid=7f62c1f9-6e97-4be5-95f8-816397b73b0f"},"vehicle_type_id":"4","last_reported":1717254426,"current_range_meters":25600,"station_id":"ce4bhbh2rcd13ifvqepg","pricing_plan_id":"cebpf4jnsgd1na2vs0mg"},{"bike_id":"e5db6f04-775b-48ca-9973-9d1170d5c285","system_id":"levelo_inurba_marseille","lat":43.284189,"lon":5.349931,"is_reserved":false,"is_disabled":false,"rental_uris":{"android":"levelo://app?vid=e5db6f04-775b-48ca-9973-9d1170d5c285","ios":"levelo://app?vid=e5db6f04-775b-48ca-9973-9d1170d5c285"},"vehicle_type_id":"4","last_reported":1717254426,"current_range_meters":8400,"station_id":"ce4bhbh2rcd13ifvqepg","pricing_plan_id":"cebpf4jnsgd1na2vs0mg"},{"bike_id":"ade56dc4-d673-4345-8cf4-54c3fba4c1b0","system_id":"levelo_inurba_marseille","lat":43.284206,"lon":5.349874,"is_reserved":false,"is_disabled":false,"rental_uris":{"android":"levelo://app?vid=ade56dc4-d673-4345-8cf4-54c3fba4c1b0","ios":"levelo://app?vid=ade56dc4-d673-4345-8cf4-54c3fba4c1b0"},"vehicle_type_id":"4","last_reported":1717254426,"current_range_meters":22400,"station_id":"ce4bhbh2rcd13ifvqepg","pricing_plan_id":"cebpf4jnsgd1na2vs0mg"},{"bike_id":"e628b487-4041-471e-8aee-73db233ead81","system_id":"levelo_inurba_marseille","lat":43.28419,"lon":5.34991,"is_reserved":false,"is_disabled":false,"rental_uris":{"android":"levelo://app?vid=e628b487-4041-471e-8aee-73db233ead81","ios":"levelo://app?vid=e628b487-4041-471e-8aee-73db233ead81"},"vehicle_type_id":"4","last_reported":1717254426,"current_range_meters":20400,"station_id":"ce4bhbh2rcd13ifvqepg","pricing_plan_id":"cebpf4jnsgd1na2vs0mg"},{"bike_id":"c5369f81-d546-4df7-8020-302abf59c362","system_id":"levelo_inurba_marseille","lat":43.284217,"lon":5.349697,"is_reserved":false,"is_disabled":false,"rental_uris":{"android":"levelo://app?vid=c5369f81-d546-4df7-8020-302abf59c362","ios":"levelo://app?vid=c5369f81-d546-4df7-8020-302abf59c362"},"vehicle_type_id":"4","last_reported":1717254426,"current_range_meters":14800,"station_id":"ce4bhbh2rcd13ifvqepg","pricing_plan_id":"cebpf4jnsgd1na2vs0mg"},{"bike_id":"92e1d289-045a-4b03-82b2-6039edd5de18","system_id":"levelo_inurba_marseille","lat":43.284219,"lon":5.3497,"is_reserved":false,"is_disabled":false,"rental_uris":{"android":"levelo://app?vid=92e1d289-045a-4b03-82b2-6039edd5de18","ios":"levelo://app?vid=92e1d289-045a-4b03-82b2-6039edd5de18"},"vehicle_type_id":"4","last_reported":1717254426,"current_range_meters":24800,"station_id":"ce4bhbh2rcd13ifvqepg","pricing_plan_id":"cebpf4jnsgd1na2vs0mg"},{"bike_id":"e810456c-3d70-4c97-af63-69f642e1f9ee","system_id":"levelo_inurba_marseille","lat":43.284219,"lon":5.3497,"is_reserved":false,"is_disabled":false,"rental_uris":{"android":"levelo://app?vid=e810456c-3d70-4c97-af63-69f642e1f9ee","ios":"levelo://app?vid=e810456c-3d70-4c97-af63-69f642e1f9ee"},"vehicle_type_id":"4","last_reported":1717254426,"current_range_meters":9200,"station_id":"ce4bhbh2rcd13ifvqepg","pricing_plan_id":"cebpf4jnsgd1na2vs0mg"},{"bike_id":"8bf5e60d-eb44-4a1b-ba08-e5d3d1426f2d","system_id":"levelo_inurba_marseille","lat":43.284219,"lon":5.3497,"is_reserved":false,"is_disabled":false,"rental_uris":{"android":"levelo://app?vid=8bf5e60d-eb44-4a1b-ba08-e5d3d1426f2d","ios":"levelo://app?vid=8bf5e60d-eb44-4a1b-ba08-e5d3d1426f2d"},"vehicle_type_id":"4","last_reported":1717254426,"current_range_meters":23200,"station_id":"ce4bhbh2rcd13ifvqepg","pricing_plan_id":"cebpf4jnsgd1na2vs0mg"},{"bike_id":"82070384-9e6e-4d58-b880-4a3c7fab216d","system_id":"levelo_inurba_marseille","lat":43.284207,"lon":5.34979,"is_reserved":false,"is_disabled":false,"rental_uris":{"android":"levelo://app?vid=82070384-9e6e-4d58-b880-4a3c7fab216d","ios":"levelo://app?vid=82070384-9e6e-4d58-b880-4a3c7fab216d"},"vehicle_type_id":"4","last_reported":1717254426,"current_range_meters":22800,"station_id":"ce4bhbh2rcd13ifvqepg","pricing_plan_id":"cebpf4jnsgd1na2vs0mg"},{"bike_id":"235cc583-eedf-4e6f-804c-bf03182ee74e","system_id":"levelo_inurba_marseille","lat":43.28419,"lon":5.34984,"is_reserved":false,"is_disabled":false,"rental_uris":{"android":"levelo://app?vid=235cc583-eedf-4e6f-804c-bf03182ee74e","ios":"levelo://app?vid=235cc583-eedf-4e6f-804c-bf03182ee74e"},"vehicle_type_id":"4","last_reported":1717254426,"current_range_meters":10800,"station_id":"ce4bhbh2rcd13ifvqepg","pricing_plan_id":"cebpf4jnsgd1na2vs0mg"},{"bike_id":"7883e385-6755-4a48-8ddd-ed75fd57ed6b","system_id":"levelo_inurba_marseille","lat":43.284217,"lon":5.349697,"is_reserved":false,"is_disabled":false,"rental_uris":{"android":"levelo://app?vid=7883e385-6755-4a48-8ddd-ed75fd57ed6b","ios":"levelo://app?vid=7883e385-6755-4a48-8ddd-ed75fd57ed6b"},"vehicle_type_id":"4","last_reported":1717254426,"current_range_meters":6400,"station_id":"ce4bhbh2rcd13ifvqepg","pricing_plan_id":"cebpf4jnsgd1na2vs0mg"},{"bike_id":"28e67989-ba15-4bfd-bc91-277a68c9b999","system_id":"levelo_inurba_marseille","lat":43.284217,"lon":5.349697,"is_reserved":false,"is_disabled":false,"rental_uris":{"android":"levelo://app?vid=28e67989-ba15-4bfd-bc91-277a68c9b999","ios":"levelo://app?vid=28e67989-ba15-4bfd-bc91-277a68c9b999"},"vehicle_type_id":"4","last_reported":1717254426,"current_range_meters":10000,"station_id":"ce4bhbh2rcd13ifvqepg","pricing_plan_id":"cebpf4jnsgd1na2vs0mg"},{"bike_id":"c37d2a32-8847-4034-8939-32fd6efe6e6d","system_id":"levelo_inurba_marseille","lat":43.284162,"lon":5.34991,"is_reserved":false,"is_disabled":false,"rental_uris":{"android":"levelo://app?vid=c37d2a32-8847-4034-8939-32fd6efe6e6d","ios":"levelo://app?vid=c37d2a32-8847-4034-8939-32fd6efe6e6d"},"vehicle_type_id":"4","last_reported":1717254426,"current_range_meters":26800,"station_id":"ce4bhbh2rcd13ifvqepg","pricing_plan_id":"cebpf4jnsgd1na2vs0mg"},{"bike_id":"c530f2c9-7b43-4e07-b71e-78e352a48687","system_id":"levelo_inurba_marseille","lat":43.284214,"lon":5.349706,"is_reserved":false,"is_disabled":false,"rental_uris":{"android":"levelo://app?vid=c530f2c9-7b43-4e07-b71e-78e352a48687","ios":"levelo://app?vid=c530f2c9-7b43-4e07-b71e-78e352a48687"},"vehicle_type_id":"4","last_reported":1717254426,"current_range_meters":0,"station_id":"ce4bhbh2rcd13ifvqepg","pricing_plan_id":"cebpf4jnsgd1na2vs0mg"},{"bike_id":"f86bdc55-4493-4552-8923-b38800eceacc","system_id":"levelo_inurba_marseille","lat":43.284187,"lon":5.349815,"is_reserved":false,"is_disabled":false,"rental_uris":{"android":"levelo://app?vid=f86bdc55-4493-4552-8923-b38800eceacc","ios":"levelo://app?vid=f86bdc55-4493-4552-8923-b38800eceacc"},"vehicle_type_id":"4","last_reported":1717254426,"current_range_meters":12800,"station_id":"ce4bhbh2rcd13ifvqepg","pricing_plan_id":"cebpf4jnsgd1na2vs0mg"},{"bike_id":"25a3c048-8889-4e18-9fe1-31356c1ea87c","system_id":"levelo_inurba_marseille","lat":43.284219,"lon":5.3497,"is_reserved":false,"is_disabled":false,"rental_uris":{"android":"levelo://app?vid=25a3c048-8889-4e18-9fe1-31356c1ea87c","ios":"levelo://app?vid=25a3c048-8889-4e18-9fe1-31356c1ea87c"},"vehicle_type_id":"4","last_reported":1717254426,"current_range_meters":24800,"station_id":"ce4bhbh2rcd13ifvqepg","pricing_plan_id":"cebpf4jnsgd1na2vs0mg"},{"bike_id":"abddd53a-5d12-4123-becc-9d2a51eb8c6a","system_id":"levelo_inurba_marseille","lat":43.28416,"lon":5.34988,"is_reserved":false,"is_disabled":false,"rental_uris":{"android":"levelo://app?vid=abddd53a-5d12-4123-becc-9d2a51eb8c6a","ios":"levelo://app?vid=abddd53a-5d12-4123-becc-9d2a51eb8c6a"},"vehicle_type_id":"4","last_reported":1717254426,"current_range_meters":13600,"station_id":"ce4bhbh2rcd13ifvqepg","pricing_plan_id":"cebpf4jnsgd1na2vs0mg"},{"bike_id":"1f5be0f1-b410-47a6-b162-bd8f88a0ac26","system_id":"levelo_inurba_marseille","lat":43.284217,"lon":5.349697,"is_reserved":false,"is_disabled":false,"rental_uris":{"android":"levelo://app?vid=1f5be0f1-b410-47a6-b162-bd8f88a0ac26","ios":"levelo://app?vid=1f5be0f1-b410-47a6-b162-bd8f88a0ac26"},"vehicle_type_id":"4","last_reported":1717254426,"current_range_meters":19600,"station_id":"ce4bhbh2rcd13ifvqepg","pricing_plan_id":"cebpf4jnsgd1na2vs0mg"},{"bike_id":"80c26dc8-2873-4dbe-8460-cec9300ee080","system_id":"levelo_inurba_marseille","lat":43.284217,"lon":5.349697,"is_reserved":false,"is_disabled":false,"rental_uris":{"android":"levelo://app?vid=80c26dc8-2873-4dbe-8460-cec9300ee080","ios":"levelo://app?vid=80c26dc8-2873-4dbe-8460-cec9300ee080"},"vehicle_type_id":"4","last_reported":1717254426,"current_range_meters":17200,"station_id":"ce4bhbh2rcd13ifvqepg","pricing_plan_id":"cebpf4jnsgd1na2vs0mg"},{"bike_id":"d7de1875-ba79-4496-a614-1906613a0800","system_id":"levelo_inurba_marseille","lat":43.284219,"lon":5.3497,"is_reserved":false,"is_disabled":false,"rental_uris":{"android":"levelo://app?vid=d7de1875-ba79-4496-a614-1906613a0800","ios":"levelo://app?vid=d7de1875-ba79-4496-a614-1906613a0800"},"vehicle_type_id":"4","last_reported":1717254426,"current_range_meters":24800,"station_id":"ce4bhbh2rcd13ifvqepg","pricing_plan_id":"cebpf4jnsgd1na2vs0mg"},{"bike_id":"dcceff82-b024-465b-8570-853eb42c82eb","system_id":"levelo_inurba_marseille","lat":43.284217,"lon":5.349697,"is_reserved":false,"is_disabled":false,"rental_uris":{"android":"levelo://app?vid=dcceff82-b024-465b-8570-853eb42c82eb","ios":"levelo://app?vid=dcceff82-b024-465b-8570-853eb42c82eb"},"vehicle_type_id":"4","last_reported":1717254426,"current_range_meters":6000,"station_id":"ce4bhbh2rcd13ifvqepg","pricing_plan_id":"cebpf4jnsgd1na2vs0mg"},{"bike_id":"2fa1a175-47dd-4190-917b-ac04bc71eabf","system_id":"levelo_inurba_marseille","lat":43.284217,"lon":5.349697,"is_reserved":false,"is_disabled":false,"rental_uris":{"android":"levelo://app?vid=2fa1a175-47dd-4190-917b-ac04bc71eabf","ios":"levelo://app?vid=2fa1a175-47dd-4190-917b-ac04bc71eabf"},"vehicle_type_id":"4","last_reported":1717254426,"current_range_meters":8400,"station_id":"ce4bhbh2rcd13ifvqepg","pricing_plan_id":"cebpf4jnsgd1na2vs0mg"},{"bike_id":"5632f63e-b7b6-4f8f-8d68-cb2fd03d4f50","system_id":"levelo_inurba_marseille","lat":43.284219,"lon":5.3497,"is_reserved":false,"is_disabled":false,"rental_uris":{"android":"levelo://app?vid=5632f63e-b7b6-4f8f-8d68-cb2fd03d4f50","ios":"levelo://app?vid=5632f63e-b7b6-4f8f-8d68-cb2fd03d4f50"},"vehicle_type_id":"4","last_reported":1717254426,"current_range_meters":20400,"station_id":"ce4bhbh2rcd13ifvqepg","pricing_plan_id":"cebpf4jnsgd1na2vs0mg"},{"bike_id":"eb64b148-6242-4c8f-92d7-096f0f5f3b5a","system_id":"levelo_inurba_marseille","lat":43.284217,"lon":5.349697,"is_reserved":false,"is_disabled":false,"rental_uris":{"android":"levelo://app?vid=eb64b148-6242-4c8f-92d7-096f0f5f3b5a","ios":"levelo://app?vid=eb64b148-6242-4c8f-92d7-096f0f5f3b5a"},"vehicle_type_id":"4","last_reported":1717254426,"current_range_meters":18800,"station_id":"ce4bhbh2rcd13ifvqepg","pricing_plan_id":"cebpf4jnsgd1na2vs0mg"},{"bike_id":"9026be1a-7379-4b56-a578-bdb5549c9243","system_id":"levelo_inurba_marseille","lat":43.284217,"lon":5.349697,"is_reserved":false,"is_disabled":false,"rental_uris":{"android":"levelo://app?vid=9026be1a-7379-4b56-a578-bdb5549c9243","ios":"levelo://app?vid=9026be1a-7379-4b56-a578-bdb5549c9243"},"vehicle_type_id":"4","last_reported":1717254426,"current_range_meters":10800,"station_id":"ce4bhbh2rcd13ifvqepg","pricing_plan_id":"cebpf4jnsgd1na2vs0mg"},{"bike_id":"138335e8-f170-429c-ac67-3263369a5ab6","system_id":"levelo_inurba_marseille","lat":43.284214,"lon":5.349706,"is_reserved":false,"is_disabled":false,"rental_uris":{"android":"levelo://app?vid=138335e8-f170-429c-ac67-3263369a5ab6","ios":"levelo://app?vid=138335e8-f170-429c-ac67-3263369a5ab6"},"vehicle_type_id":"4","last_reported":1717254426,"current_range_meters":18800,"station_id":"ce4bhbh2rcd13ifvqepg","pricing_plan_id":"cebpf4jnsgd1na2vs0mg"},{"bike_id":"a0c6b8d1-e401-4415-9b5f-ed394c8aa929","system_id":"levelo_inurba_marseille","lat":43.284214,"lon":5.349706,"is_reserved":false,"is_disabled":false,"rental_uris":{"android":"levelo://app?vid=a0c6b8d1-e401-4415-9b5f-ed394c8aa929","ios":"levelo://app?vid=a0c6b8d1-e401-4415-9b5f-ed394c8aa929"},"vehicle_type_id":"4","last_reported":1717254426,"current_range_meters":12000,"station_id":"ce4bhbh2rcd13ifvqepg","pricing_plan_id":"cebpf4jnsgd1na2vs0mg"},{"bike_id":"faa20e04-158e-4246-acd7-4c16a45000e2","system_id":"levelo_inurba_marseille","lat":43.28414,"lon":5.34984,"is_reserved":false,"is_disabled":false,"rental_uris":{"android":"levelo://app?vid=faa20e04-158e-4246-acd7-4c16a45000e2","ios":"levelo://app?vid=faa20e04-158e-4246-acd7-4c16a45000e2"},"vehicle_type_id":"4","last_reported":1717254426,"current_range_meters":16800,"station_id":"ce4bhbh2rcd13ifvqepg","pricing_plan_id":"cebpf4jnsgd1na2vs0mg"},{"bike_id":"4801cd84-fa5e-4469-b832-55d7fe6e8381","system_id":"levelo_inurba_marseille","lat":43.284214,"lon":5.349706,"is_reserved":false,"is_disabled":false,"rental_uris":{"android":"levelo://app?vid=4801cd84-fa5e-4469-b832-55d7fe6e8381","ios":"levelo://app?vid=4801cd84-fa5e-4469-b832-55d7fe6e8381"},"vehicle_type_id":"4","last_reported":1717254426,"current_range_meters":10800,"station_id":"ce4bhbh2rcd13ifvqepg","pricing_plan_id":"cebpf4jnsgd1na2vs0mg"},{"bike_id":"2a923d01-e22b-4b93-ade6-3021ae7fd3ff","system_id":"levelo_inurba_marseille","lat":43.284214,"lon":5.349706,"is_reserved":false,"is_disabled":false,"rental_uris":{"android":"levelo://app?vid=2a923d01-e22b-4b93-ade6-3021ae7fd3ff","ios":"levelo://app?vid=2a923d01-e22b-4b93-ade6-3021ae7fd3ff"},