{"last_updated":1735999624,"ttl":60,"version":"2.2","data":{"bikes":[{"bike_id":"de7087f8-9a96-4cb0-a7a3-905d5d65e404","system_id":"levelo_inurba_marseille","lat":43.29604,"lon":5.38111,"is_reserved":false,"is_disabled":false,"rental_uris":{"android":"levelo://app?vid=de7087f8-9a96-4cb0-a7a3-905d5d65e404","ios":"levelo://app?vid=de7087f8-9a96-4cb0-a7a3-905d5d65e404"},"vehicle_type_id":"4","last_reported":1735999624,"current_range_meters":36000,"station_id":"ce4bgl12rcd13ifvqbo0","pricing_plan_id":"cebpf4jnsgd1na2vs0mg"},{"bike_id":"e31c27df-6f3a-4b2c-b023-4e9240962a67","system_id":"levelo_inurba_marseille","lat":43.27305,"lon":5.39136,"is_reserved":false,"is_disabled":false,"rental_uris":{"android":"levelo://app?vid=e31c27df-6f3a-4b2c-b023-4e9240962a67","ios":"levelo://app?vid=e31c27df-6f3a-4b2c-b023-4e9240962a67"},"vehicle_type_id":"4","last_reported":1735999624,"current_range_meters":39200,"station_id":"ce4bhgp2rcd13ifvqfe0","pricing_plan_id":"cebpf4jnsgd1na2vs0mg"},{"bike_id":"1fa46a1d-7c26-4d99-8050-eaa1f995a6bb","system_id":"levelo_inurba_marseille","lat":43.30148,"lon":5.39878,"is_reserved":false,"is_disabled":false,"rental_uris":{"android":"levelo://app?vid=1fa46a1d-7c26-4d99-8050-eaa1f995a6bb","ios":"levelo://app?vid=1fa46a1d-7c26-4d99-8050-eaa1f995a6bb"},"vehicle_type_id":"4","last_reported":1735999624,"current_range_meters":30400,"station_id":"ce4bh0h2rcd13ifvqd40","pricing_plan_id":"cebpf4jnsgd1na2vs0mg"},{"bike_id":"f6e2be4b-fa77-4b38-bd45-618bcfa7f100","system_id":"levelo_inurba_marseille","lat":43.30299,"lon":5.36916,"is_reserved":false,"is_disabled":false,"rental_uris":{"android":"levelo://app?vid=f6e2be4b-fa77-4b38-bd45-618bcfa7f100","ios":"levelo://app?vid=f6e2be4b-fa77-4b38-bd45-618bcfa7f100"},"vehicle_type_id":"4","last_reported":1735999624,"current_range_meters":9200,"station_id":"ce4bgqh2rcd13ifvqc5g","pricing_plan_id":"cebpf4jnsgd1na2vs0mg"},{"bike_id":"25bc056f-6168-4a4c-8539-4f5b06414dad","system_id":"levelo_inurba_marseille","lat":43.26786,"lon":5.39421,"is_reserved":false,"is_disabled":false,"rental_uris":{"android":"levelo://app?vid=25bc056f-6168-4a4c-8539-4f5b06414dad","ios":"levelo://app?vid=25bc056f-6168-4a4c-8539-4f5b06414dad"},"vehicle_type_id":"4","last_reported":1735999624,"current_range_meters":27200,"station_id":"ce4bhh12rcd13ifvqfg0","pricing_plan_id":"cebpf4jnsgd1na2vs0mg"},{"bike_id":"482a7293-22d4-4b2b-b2bb-8899c2510e29","system_id":"levelo_inurba_marseille","lat":43.27329,"lon":5.39088,"is_reserved":false,"is_disabled":false,"rental_uris":{"android":"levelo://app?vid=482a7293-22d4-4b2b-b2bb-8899c2510e29","ios":"levelo://app?vid=482a7293-22d4-4b2b-b2bb-8899c2510e29"},"vehicle_type_id":"4","last_reported":1735999624,"current_range_meters":19200,"station_id":"ce4bhgp2rcd13ifvqfe0","pricing_plan_id":"cebpf4jnsgd1na2vs0mg"},{"bike_id":"bc0d6048-27c0-4ff9-97d0-92485c13da66","system_id":"levelo_inurba_marseille","lat":43.30309,"lon":5.36919,"is_reserved":false,"is_disabled":false,"rental_uris":{"android":"levelo://app?vid=bc0d6048-27c0-4ff9-97d0-92485c13da66","ios":"levelo://app?vid=bc0d6048-27c0-4ff9-97d0-92485c13da66"},"vehicle_type_id":"4","last_reported":1735999624,"current_range_meters":36000,"station_id":"ce4bgqh2rcd13ifvqc5g","pricing_plan_id":"cebpf4jnsgd1na2vs0mg"},{"bike_id":"00cd3d34-7ba7-4cb3-9716-1d6e1734ddd2","system_id":"levelo_inurba_marseille","lat":43.304712,"lon":5.379142,"is_reserved":false,"is_disabled":false,"rental_uris":{"android":"levelo://app?vid=00cd3d34-7ba7-4cb3-9716-1d6e1734ddd2","ios":"levelo://app?vid=00cd3d34-7ba7-4cb3-9716-1d6e1734ddd2"},"vehicle_type_id":"4","last_reported":1735999624,"current_range_meters":24800,"station_id":"ce4bgup2rcd13ifvqcn0","pricing_plan_id":"cebpf4jnsgd1na2vs0mg"},{"bike_id":"ac060c07-7cec-4494-9467-409aca079f0f","system_id":"levelo_inurba_marseille","lat":43.28403,"lon":5.37523,"is_reserved":false,"is_disabled":false,"rental_uris":{"android":"levelo://app?vid=ac060c07-7cec-4494-9467-409aca079f0f","ios":"levelo://app?vid=ac060c07-7cec-4494-9467-409aca079f0f"},"vehicle_type_id":"4","last_reported":1735999624,"current_range_meters":37600,"station_id":"ce4bh412rcd13ifvqds0","pricing_plan_id":"cebpf4jnsgd1na2vs0mg"},{"bike_id":"36d0910b-d540-4d75-b065-f044cb5b6555","system_id":"levelo_inurba_marseille","lat":43.29578,"lon":5.36736,"is_reserved":false,"is_disabled":false,"rental_uris":{"android":"levelo://app?vid=36d0910b-d540-4d75-b065-f044cb5b6555","ios":"levelo://app?vid=36d0910b-d540-4d75-b065-f044cb5b6555"},"vehicle_type_id":"4","last_reported":1735999624,"current_range_meters":38800,"station_id":"ce4bgph2rcd13ifvqc2g","pricing_plan_id":"cebpf4jnsgd1na2vs0mg"},{"bike_id":"f7a3215a-be68-4dc5-8ac2-1c3e9caadab1","system_id":"levelo_inurba_marseille","lat":43.26777,"lon":5.39437,"is_reserved":false,"is_disabled":false,"rental_uris":{"android":"levelo://app?vid=f7a3215a-be68-4dc5-8ac2-1c3e9caadab1","ios":"levelo://app?vid=f7a3215a-be68-4dc5-8ac2-1c3e9caadab1"},"vehicle_type_id":"4","last_reported":1735999624,"current_range_meters":30000,"station_id":"ce4bhh12rcd13ifvqfg0","pricing_plan_id":"cebpf4jnsgd1na2vs0mg"},{"bike_id":"21c9cfe7-c4d1-4420-8702-1da7ed3c9257","system_id":"levelo_inurba_marseille","lat":43.29805,"lon":5.38099,"is_reserved":false,"is_disabled":false,"rental_uris":{"android":"levelo://app?vid=21c9cfe7-c4d1-4420-8702-1da7ed3c9257","ios":"levelo://app?vid=21c9cfe7-c4d1-4420-8702-1da7ed3c9257"},"vehicle_type_id":"4","last_reported":1735999624,"current_range_meters":36400,"station_id":"ce4bgip2rcd13ifvqbb0","pricing_plan_id":"cebpf4jnsgd1na2vs0mg"},{"bike_id":"fe3aafb8-a6b4-4a18-a86a-13b013e22a76","system_id":"levelo_inurba_marseille","lat":43.31501,"lon":5.37309,"is_reserved":false,"is_disabled":false,"rental_uris":{"android":"levelo://app?vid=fe3aafb8-a6b4-4a18-a86a-13b013e22a76","ios":"levelo://app?vid=fe3aafb8-a6b4-4a18-a86a-13b013e22a76"},"vehicle_type_id":"4","last_reported":1735999624,"current_range_meters":36400,"station_id":"ce4bgt12rcd13ifvqcd0","pricing_plan_id":"cebpf4jnsgd1na2vs0mg"},{"bike_id":"116f92ae-65b4-4f7c-a23b-1117c0a69b33","system_id":"levelo_inurba_marseille","lat":43.28609,"lon":5.35101,"is_reserved":false,"is_disabled":false,"rental_uris":{"android":"levelo://app?vid=116f92ae-65b4-4f7c-a23b-1117c0a69b33","ios":"levelo://app?vid=116f92ae-65b4-4f7c-a23b-1117c0a69b33"},"vehicle_type_id":"4","last_reported":1735999624,"current_range_meters":23200,"station_id":"ce4bhch2rcd13ifvqeug","pricing_plan_id":"cebpf4jnsgd1na2vs0mg"},{"bike_id":"0ddbfb38-3159-45b4-9988-0a8588a451b4","system_id":"levelo_inurba_marseille","lat":43.29767,"lon":5.37102,"is_reserved":false,"is_disabled":false,"rental_uris":{"android":"levelo://app?vid=0ddbfb38-3159-45b4-9988-0a8588a451b4","ios":"levelo://app?vid=0ddbfb38-3159-45b4-9988-0a8588a451b4"},"vehicle_type_id":"4","last_reported":1735999624,"current_range_meters":38800,"station_id":"ce4bgop2rcd13ifvqc1g","pricing_plan_id":"cebpf4jnsgd1na2vs0mg"},{"bike_id":"efe82dc4-c15f-4046-9226-91dca361e6bd","system_id":"levelo_inurba_marseille","lat":43.25579,"lon":5.382529,"is_reserved":false,"is_disabled":false,"rental_uris":{"android":"levelo://app?vid=efe82dc4-c15f-4046-9226-91dca361e6bd","ios":"levelo://app?vid=efe82dc4-c15f-4046-9226-91dca361e6bd"},"vehicle_type_id":"4","last_reported":1735999624,"current_range_meters":38800,"station_id":"ce4bhih2rcd13ifvqfs0","pricing_plan_id":"cebpf4jnsgd1na2vs0mg"},{"bike_id":"0a72fabb-c385-470f-8026-c60effe2f3f0","system_id":"levelo_inurba_marseille","lat":43.29686,"lon":5.35957,"is_reserved":false,"is_disabled":false,"rental_uris":{"android":"levelo://app?vid=0a72fabb-c385-470f-8026-c60effe2f3f0","ios":"levelo://app?vid=0a72fabb-c385-470f-8026-c60effe2f3f0"},"vehicle_type_id":"4","last_reported":1735999624,"current_range_meters":20800,"station_id":"","pricing_plan_id":"cebpf4jnsgd1na2vs0mg"},{"bike_id":"4388471a-c6de-4f78-a4f8-c6058babbe75","system_id":"levelo_inurba_marseille","lat":43.28654,"lon":5.36363,"is_reserved":false,"is_disabled":false,"rental_uris":{"android":"levelo://app?vid=4388471a-c6de-4f78-a4f8-c6058babbe75","ios":"levelo://app?vid=4388471a-c6de-4f78-a4f8-c6058babbe75"},"vehicle_type_id":"4","last_reported":1735999624,"current_range_meters":27200,"station_id":"ce4bhah2rcd13ifvqej0","pricing_plan_id":"cebpf4jnsgd1na2vs0mg"},{"bike_id":"76d392c8-6dd4-4fbf-b626-27c2990c047b","system_id":"levelo_inurba_marseille","lat":43.28155,"lon":5.42786,"is_reserved":false,"is_disabled":false,"rental_uris":{"android":"levelo://app?vid=76d392c8-6dd4-4fbf-b626-27c2990c047b","ios":"levelo://app?vid=76d392c8-6dd4-4fbf-b626-27c2990c047b"},"vehicle_type_id":"4","last_reported":1735999624,"current_range_meters":11200,"station_id":"","pricing_plan_id":"cebpf4jnsgd1na2vs0mg"},{"bike_id":"8d3c0f78-e962-4e13-b73d-d1069bc6cb91","system_id":"levelo_inurba_marseille","lat":43.27318,"lon":5.39127,"is_reserved":false,"is_disabled":true,"rental_uris":{"android":"levelo://app?vid=8d3c0f78-e962-4e13-b73d-d1069bc6cb91","ios":"levelo://app?vid=8d3c0f78-e962-4e13-b73d-d1069bc6cb91"},"vehicle_type_id":"4","last_reported":1735999624,"current_range_meters":0,"station_id":"ce4bhgp2rcd13ifvqfe0","pricing_plan_id":"cebpf4jnsgd1na2vs0mg"},{"bike_id":"46681a0e-77c7-4e8c-9bb0-8038ae70f7ff","system_id":"levelo_inurba_marseille","lat":43.30305,"lon":5.36901,"is_reserved":false,"is_disabled":false,"rental_uris":{"android":"levelo://app?vid=46681a0e-77c7-4e8c-9bb0-8038ae70f7ff","ios":"levelo://app?vid=46681a0e-77c7-4e8c-9bb0-8038ae70f7ff"},"vehicle_type_id":"4","last_reported":1735999624,"current_range_meters":39200,"station_id":"ce4bgqh2rcd13ifvqc5g","pricing_plan_id":"cebpf4jnsgd1na2vs0mg"},{"bike_id":"593d8424-f565-422e-8480-e0f50e2c043e","system_id":"levelo_inurba_marseille","lat":43.27954,"lon":5.38697,"is_reserved":false,"is_disabled":true,"rental_uris":{"android":"levelo://app?vid=593d8424-f565-422e-8480-e0f50e2c043e","ios":"levelo://app?vid=593d8424-f565-422e-8480-e0f50e2c043e"},"vehicle_type_id":"4","last_reported":1735999624,"current_range_meters":37600,"station_id":"ce4bhg12rcd13ifvqf80","pricing_plan_id":"cebpf4jnsgd1na2vs0mg"},{"bike_id":"a944f865-f260-4d6e-8bfb-34b22d4c0ecd","system_id":"levelo_inurba_marseille","lat":43.3019,"lon":5.36643,"is_reserved":false,"is_disabled":true,"rental_uris":{"android":"levelo://app?vid=a944f865-f260-4d6e-8bfb-34b22d4c0ecd","ios":"levelo://app?vid=a944f865-f260-4d6e-8bfb-34b22d4c0ecd"},"vehicle_type_id":"4","last_reported":1735999624,"current_range_meters":32400,"station_id":"ce4bgrh2rcd13ifvqc8g","pricing_plan_id":"cebpf4jnsgd1na2vs0mg"},{"bike_id":"f482d653-7dbc-4e22-8ab6-8ade9e6e0e20","system_id":"levelo_inurba_marseille","lat":43.32653,"lon":5.40994,"is_reserved":false,"is_disabled":false,"rental_uris":{"android":"levelo://app?vid=f482d653-7dbc-4e22-8ab6-8ade9e6e0e20","ios":"levelo://app?vid=f482d653-7dbc-4e22-8ab6-8ade9e6e0e20"},"vehicle_type_id":"4","last_reported":1735999624,"current_range_meters":27200,"station_id":"ce4bhpp2rcd13ifvqhgg","pricing_plan_id":"cebpf4jnsgd1na2vs0mg"},{"bike_id":"b323dbc6-a3b4-4535-9e08-f10cde71a0f5","system_id":"levelo_inurba_marseille","lat":43.27194,"lon":5.39194,"is_reserved":false,"is_disabled":false,"rental_uris":{"android":"levelo://app?vid=b323dbc6-a3b4-4535-9e08-f10cde71a0f5","ios":"levelo://app?vid=b323dbc6-a3b4-4535-9e08-f10cde71a0f5"},"vehicle_type_id":"4","last_reported":1735999624,"current_range_meters":39200,"station_id":"ce4bhhp2rcd13ifvqfm0","pricing_plan_id":"cebpf4jnsgd1na2vs0mg"},{"bike_id":"9d281a53-6992-4392-9438-72ec394ec5a5","system_id":"levelo_inurba_marseille","lat":43.243939,"lon":5.370656,"is_reserved":false,"is_disabled":false,"rental_uris":{"android":"levelo://app?vid=9d281a53-6992-4392-9438-72ec394ec5a5","ios":"levelo://app?vid=9d281a53-6992-4392-9438-72ec394ec5a5"},"vehicle_type_id":"4","last_reported":1735999624,"current_range_meters":6400,"station_id":"ce4bhhh2rcd13ifvqfk0","pricing_plan_id":"cebpf4jnsgd1na2vs0mg"},{"bike_id":"f2d3f7f8-e094-44ef-93a8-20330cb628ea","system_id":"levelo_inurba_marseille","lat":43.28032,"lon":5.36931,"is_reserved":false,"is_disabled":true,"rental_uris":{"android":"levelo://app?vid=f2d3f7f8-e094-44ef-93a8-20330cb628ea","ios":"levelo://app?vid=f2d3f7f8-e094-44ef-93a8-20330cb628ea"},"vehicle_type_id":"4","last_reported":1735999624,"current_range_meters":0,"station_id":"ce4bha12rcd13ifvqef0","pricing_plan_id":"cebpf4jnsgd1na2vs0mg"},{"bike_id":"6c92faae-448f-4fcd-b837-c7db2ff4caee","system_id":"levelo_inurba_marseille","lat":43.30675,"lon":5.40071,"is_reserved":false,"is_disabled":false,"rental_uris":{"android":"levelo://app?vid=6c92faae-448f-4fcd-b837-c7db2ff4caee","ios":"levelo://app?vid=6c92faae-448f-4fcd-b837-c7db2ff4caee"},"vehicle_type_id":"4","last_reported":1735999624,"current_range_meters":37600,"station_id":"ce4bh112rcd13ifvqda0","pricing_plan_id":"cebpf4jnsgd1na2vs0mg"},{"bike_id":"11bab6b1-8f19-4376-9cab-a89cad5be186","system_id":"levelo_inurba_marseille","lat":43.32498,"lon":5.3655,"is_reserved":false,"is_disabled":false,"rental_uris":{"android":"levelo://app?vid=11bab6b1-8f19-4376-9cab-a89cad5be186","ios":"levelo://app?vid=11bab6b1-8f19-4376-9cab-a89cad5be186"},"vehicle_type_id":"4","last_reported":1735999624,"current_range_meters":38000,"station_id":"ce4bhs12rcd13ifvqhvg","pricing_plan_id":"cebpf4jnsgd1na2vs0mg"},{"bike_id":"cbe9daa8-e97f-46a3-b355-e73504f71d00","system_id":"levelo_inurba_marseille","lat":43.27375,"lon":5.36256,"is_reserved":false,"is_disabled":false,"rental_uris":{"android":"levelo://app?vid=cbe9daa8-e97f-46a3-b355-e73504f71d00","ios":"levelo://app?vid=cbe9daa8-e97f-46a3-b355-e73504f71d00"},"vehicle_type_id":"4","last_reported":1735999624,"current_range_meters":37600,"station_id":"ce4bhbh2rcd13ifvqeo0","pricing_plan_id":"cebpf4jnsgd1na2vs0mg"},{"bike_id":"3ab397ad-af93-42fa-8f60-d785cdeee133","system_id":"levelo_inurba_marseille","lat":43.28351,"lon":5.381,"is_reserved":false,"is_disabled":false,"rental_uris":{"android":"levelo://app?vid=3ab397ad-af93-42fa-8f60-d785cdeee133","ios":"levelo://app?vid=3ab397ad-af93-42fa-8f60-d785cdeee133"},"vehicle_type_id":"4","last_reported":1735999624,"current_range_meters":24000,"station_id":"ce4bh412rcd13ifvqdr0","pricing_plan_id":"cebpf4jnsgd1na2vs0mg"},{"bike_id":"d4223c1c-b96f-4c7a-ae54-6541976bb608","system_id":"levelo_inurba_marseille","lat":43.27203,"lon":5.3914,"is_reserved":false,"is_disabled":false,"rental_uris":{"android":"levelo://app?vid=d4223c1c-b96f-4c7a-ae54-6541976bb608","ios":"levelo://app?vid=d4223c1c-b96f-4c7a-ae54-6541976bb608"},"vehicle_type_id":"4","last_reported":1735999624,"current_range_meters":39200,"station_id":"ce4bhhp2rcd13ifvqfm0","pricing_plan_id":"cebpf4jnsgd1na2vs0mg"},{"bike_id":"9f697b48-7c91-4567-b24d-c0ddf692b71f","system_id":"levelo_inurba_marseille","lat":43.33023,"lon":5.39031,"is_reserved":false,"is_disabled":false,"rental_uris":{"android":"levelo://app?vid=9f697b48-7c91-4567-b24d-c0ddf692b71f","ios":"levelo://app?vid=9f697b48-7c91-4567-b24d-c0ddf692b71f"},"vehicle_type_id":"4","last_reported":1735999624,"current_range_meters":28800,"station_id":"ce4bhr92rcd13ifvqhrg","pricing_plan_id":"cebpf4jnsgd1na2vs0mg"},{"bike_id":"f5b79edb-457d-4632-b8a5-36cc98220b65","system_id":"levelo_inurba_marseille","lat":43.29786,"lon":5.37109,"is_reserved":false,"is_disabled":false,"rental_uris":{"android":"levelo://app?vid=f5b79edb-457d-4632-b8a5-36cc98220b65","ios":"levelo://app?vid=f5b79edb-457d-4632-b8a5-36cc98220b65"},"vehicle_type_id":"4","last_reported":1735999624,"current_range_meters":38400,"station_id":"ce4bgop2rcd13ifvqc1g","pricing_plan_id":"cebpf4jnsgd1na2vs0mg"},{"bike_id":"ad036647-e9f4-4246-953d-37ee6601db50","system_id":"levelo_inurba_marseille","lat":43.24667,"lon":5.38173,"is_reserved":false,"is_disabled":false,"rental_uris":{"android":"levelo://app?vid=ad036647-e9f4-4246-953d-37ee6601db50","ios":"levelo://app?vid=ad036647-e9f4-4246-953d-37ee6601db50"},"vehicle_type_id":"4","last_reported":1735999624,"current_range_meters":30000,"station_id":"ce4bhih2rcd13ifvqfr0","pricing_plan_id":"cebpf4jnsgd1na2vs0mg"},{"bike_id":"ca2391a5-36a6-46aa-bf11-0b0d5593d505","system_id":"levelo_inurba_marseille","lat":43.337444,"lon":5.374475,"is_reserved":false,"is_disabled":false,"rental_uris":{"android":"levelo://app?vid=ca2391a5-36a6-46aa-bf11-0b0d5593d505","ios":"levelo://app?vid=ca2391a5-36a6-46aa-bf11-0b0d5593d505"},"vehicle_type_id":"4","last_reported":1735999624,"current_range_meters":37600,"station_id":"","pricing_plan_id":"cebpf4jnsgd1na2vs0mg"},{"bike_id":"7f19a19c-d1b3-49ca-8538-1dc8022ef981","system_id":"levelo_inurba_marseille","lat":43.32101,"lon":5.36782,"is_reserved":false,"is_disabled":false,"rental_uris":{"android":"levelo://app?vid=7f19a19c-d1b3-49ca-8538-1dc8022ef981","ios":"levelo://app?vid=7f19a19c-d1b3-49ca-8538-1dc8022ef981"},"vehicle_type_id":"4","last_reported":1735999624,"current_range_meters":20000,"station_id":"ce4bhrh2rcd13ifvqhug","pricing_plan_id":"cebpf4jnsgd1na2vs0mg"},{"bike_id":"8a62ccd4-64f8-4b0c-b5c2-6ab1866e9c43","system_id":"levelo_inurba_marseille","lat":43.31323,"lon":5.39701,"is_reserved":false,"is_disabled":false,"rental_uris":{"android":"levelo://app?vid=8a62ccd4-64f8-4b0c-b5c2-6ab1866e9c43","ios":"levelo://app?vid=8a62ccd4-64f8-4b0c-b5c2-6ab1866e9c43"},"vehicle_type_id":"4","last_reported":1735999624,"current_range_meters":38000,"station_id":"ce4bgvp2rcd13ifvqcu0","pricing_plan_id":"cebpf4jnsgd1na2vs0mg"},{"bike_id":"7f287551-82f1-424d-bf88-03580401d4f1","system_id":"levelo_inurba_marseille","lat":43.24071,"lon":5.37767,"is_reserved":false,"is_disabled":false,"rental_uris":{"android":"levelo://app?vid=7f287551-82f1-424d-bf88-03580401d4f1","ios":"levelo://app?vid=7f287551-82f1-424d-bf88-03580401d4f1"},"vehicle_type_id":"4","last_reported":1735999624,"current_range_meters":22800,"station_id":"ce4bhnp2rcd13ifvqgvg","pricing_plan_id":"cebpf4jnsgd1na2vs0mg"},{"bike_id":"b84b83d9-7cbb-48dc-86f1-84b36f329557","system_id":"levelo_inurba_marseille","lat":43.30201,"lon":5.39478,"is_reserved":false,"is_disabled":false,"rental_uris":{"android":"levelo://app?vid=b84b83d9-7cbb-48dc-86f1-84b36f329557","ios":"levelo://app?vid=b84b83d9-7cbb-48dc-86f1-84b36f329557"},"vehicle_type_id":"4","last_reported":1735999624,"current_range_meters":31200,"station_id":"ce4bh0p2rcd13ifvqd70","pricing_plan_id":"cebpf4jnsgd1na2vs0mg"},{"bike_id":"3c7472a4-a45c-4f46-a692-aa44ebf92f21","system_id":"levelo_inurba_marseille","lat":43.27441,"lon":5.39413,"is_reserved":false,"is_disabled":false,"rental_uris":{"android":"levelo://app?vid=3c7472a4-a45c-4f46-a692-aa44ebf92f21","ios":"levelo://app?vid=3c7472a4-a45c-4f46-a692-aa44ebf92f21"},"vehicle_type_id":"4","last_reported":1735999624,"current_range_meters":27600,"station_id":"ce4bhdp2rcd13ifvqf20","pricing_plan_id":"cebpf4jnsgd1na2vs0mg"},{"bike_id":"a8157972-224b-411d-9bfd-c4ed9d771ceb","system_id":"levelo_inurba_marseille","lat":43.27208,"lon":5.39154,"is_reserved":false,"is_disabled":false,"rental_uris":{"android":"levelo://app?vid=a8157972-224b-411d-9bfd-c4ed9d771ceb","ios":"levelo://app?vid=a8157972-224b-411d-9bfd-c4ed9d771ceb"},"vehicle_type_id":"4","last_reported":1735999624,"current_range_meters":38400,"station_id":"ce4bhhp2rcd13ifvqfm0","pricing_plan_id":"cebpf4jnsgd1na2vs0mg"},{"bike_id":"c6ed48e3-5390-4241-9d68-268aa0438efd","system_id":"levelo_inurba_marseille","lat":43.30142,"lon":5.37404,"is_reserved":false,"is_disabled":false,"rental_uris":{"android":"levelo://app?vid=c6ed48e3-5390-4241-9d68-268aa0438efd","ios":"levelo://app?vid=c6ed48e3-5390-4241-9d68-268aa0438efd"},"vehicle_type_id":"4","last_reported":1735999624,"current_range_meters":32800,"station_id":"ce4bgs92rcd13ifvqcc0","pricing_plan_id":"cebpf4jnsgd1na2vs0mg"},{"bike_id":"f0ead5dd-c086-40ba-b637-5a58405b88b0","system_id":"levelo_inurba_marseille","lat":43.25116,"lon":5.40326,"is_reserved":false,"is_disabled":true,"rental_uris":{"android":"levelo://app?vid=f0ead5dd-c086-40ba-b637-5a58405b88b0","ios":"levelo://app?vid=f0ead5dd-c086-40ba-b637-5a58405b88b0"},"vehicle_type_id":"4","last_reported":1735999624,"current_range_meters":800,"station_id":"ce4bhlh2rcd13ifvqgig","pricing_plan_id":"cebpf4jnsgd1na2vs0mg"},{"bike_id":"1ea369b9-72ed-4a40-b86b-1b67b0817215","system_id":"levelo_inurba_marseille","lat":43.31491,"lon":5.37305,"is_reserved":false,"is_disabled":false,"rental_uris":{"android":"levelo://app?vid=1ea369b9-72ed-4a40-b86b-1b67b0817215","ios":"levelo://app?vid=1ea369b9-72ed-4a40-b86b-1b67b0817215"},"vehicle_type_id":"4","last_reported":1735999624,"current_range_meters":38800,"station_id":"ce4bgt12rcd13ifvqcd0","pricing_plan_id":"cebpf4jnsgd1na2vs0mg"},{"bike_id":"2386fb3a-f921-48e1-8693-11f00e849b3a","system_id":"levelo_inurba_marseille","lat":43.32278,"lon":5.38284,"is_reserved":false,"is_disabled":false,"rental_uris":{"android":"levelo://app?vid=2386fb3a-f921-48e1-8693-11f00e849b3a","ios":"levelo://app?vid=2386fb3a-f921-48e1-8693-11f00e849b3a"},"vehicle_type_id":"4","last_reported":1735999624,"current_range_meters":36400,"station_id":"ce4bhr12rcd13ifvqhqg","pricing_plan_id":"cebpf4jnsgd1na2vs0mg"},{"bike_id":"ea7050ff-7aa9-43ba-b203-b876f0962480","system_id":"levelo_inurba_marseille","lat":43.280053,"lon":5.40016,"is_reserved":false,"is_disabled":true,"rental_uris":{"android":"levelo://app?vid=ea7050ff-7aa9-43ba-b203-b876f0962480","ios":"levelo://app?vid=ea7050ff-7aa9-43ba-b203-b876f0962480"},"vehicle_type_id":"4","last_reported":1735999624,"current_range_meters":0,"station_id":"ce4bho92rcd13ifvqh4g","pricing_plan_id":"cebpf4jnsgd1na2vs0mg"},{"bike_id":"2f116fa4-55b5-4d0a-8123-4d0dd29b4754","system_id":"levelo_inurba_marseille","lat":43.32368,"lon":5.38883,"is_reserved":false,"is_disabled":false,"rental_uris":{"android":"levelo://app?vid=2f116fa4-55b5-4d0a-8123-4d0dd29b4754","ios":"levelo://app?vid=2f116fa4-55b5-4d0a-8123-4d0dd29b4754"},"vehicle_type_id":"4","last_reported":1735999624,"current_range_meters":30400,"station_id":"ce4bhqp2rcd13ifvqhog","pricing_plan_id":"cebpf4jnsgd1na2vs0mg"},{"bike_id":"013a03d3-efe2-4f14-ab94-9d9f117fe332","system_id":"levelo_inurba_marseille","lat":43.26568,"lon":5.373,"is_reserved":false,"is_disabled":true,"rental_uris":{"android":"levelo://app?vid=013a03d3-efe2-4f14-ab94-9d9f117fe332","ios":"levelo://app?vid=013a03d3-efe2-4f14-ab94-9d9f117fe332"},"vehicle_type_id":"4","last_reported":1735999624,"current_range_meters":0,"station_id":"ce4bhg12rcd13ifvqf70","pricing_plan_id":"cebpf4jnsgd1na2vs0mg"},{"bike_id":"2332862a-3884-4317-af82-ee9793e9b62c","system_id":"levelo_inurba_marseille","lat":43.24084,"lon":5.37755,"is_reserved":false,"is_disabled":false,"rental_uris":{"android":"levelo://app?vid=2332862a-3884-4317-af82-ee9793e9b62c","ios":"levelo://app?vid=2332862a-3884-4317-af82-ee9793e9b62c"},"vehicle_type_id":"4","last_reported":1735999624,"current_range_meters":16400,"station_id":"ce4bhnp2rcd13ifvqgvg","pricing_plan_id":"cebpf4jnsgd1na2vs0mg"},{"bike_id":"4dbab488-9351-4f8a-a3bd-7b5094eab819","system_id":"levelo_inurba_marseille","lat":43.28728,"lon":5.37933,"is_reserved":false,"is_disabled":false,"rental_uris":{"android":"levelo://app?vid=4dbab488-9351-4f8a-a3bd-7b5094eab819","ios":"levelo://app?vid=4dbab488-9351-4f8a-a3bd-7b5094eab819"},"vehicle_type_id":"4","last_reported":1735999624,"current_range_meters":30800,"station_id":"ce4bh9p2rcd13ifvqec0","pricing_plan_id":"cebpf4jnsgd1na2vs0mg"},{"bike_id":"05e31ee9-ac08-433e-9516-8a08d07286bd","system_id":"levelo_inurba_marseille","lat":43.23427,"lon":5.3588,"is_reserved":false,"is_disabled":true,"rental_uris":{"android":"levelo://app?vid=05e31ee9-ac08-433e-9516-8a08d07286bd","ios":"levelo://app?vid=05e31ee9-ac08-433e-9516-8a08d07286bd"},"vehicle_type_id":"4","last_reported":1735999624,"current_range_meters":1200,"station_id":"","pricing_plan_id":"cebpf4jnsgd1na2vs0mg"},{"bike_id":"9f003ca2-15ee-4e83-8275-3ea9eb768442","system_id":"levelo_inurba_marseille","lat":43.231928,"lon":5.3998,"is_reserved":false,"is_disabled":false,"rental_uris":{"android":"levelo://app?vid=9f003ca2-15ee-4e83-8275-3ea9eb768442","ios":"levelo://app?vid=9f003ca2-15ee-4e83-8275-3ea9eb768442"},"vehicle_type_id":"4","last_reported":1735999624,"current_range_meters":13600,"station_id":"ce4bhn12rcd13ifvqgqg","pricing_plan_id":"cebpf4jnsgd1na2vs0mg"},{"bike_id":"065e15fa-7fcf-47e7-bf49-de94cdc8d7c4","system_id":"levelo_inurba_marseille","lat":43.2839,"lon":5.37545,"is_reserved":false,"is_disabled":false,"rental_uris":{"android":"levelo://app?vid=065e15fa-7fcf-47e7-bf49-de94cdc8d7c4","ios":"levelo://app?vid=065e15fa-7fcf-47e7-bf49-de94cdc8d7c4"},"vehicle_type_id":"4","last_reported":1735999624,"current_range_meters":12800,"station_id":"ce4bh412rcd13ifvqds0","pricing_plan_id":"cebpf4jnsgd1na2vs0mg"},{"bike_id":"988e5514-5dae-459d-a3c0-310e7eb2e911","system_id":"levelo_inurba_marseille","lat":43.26503,"lon":5.39543,"is_reserved":false,"is_disabled":false,"rental_uris":{"android":"levelo://app?vid=988e5514-5dae-459d-a3c0-310e7eb2e911","ios":"levelo://app?vid=988e5514-5dae-459d-a3c0-310e7eb2e911"},"vehicle_type_id":"4","last_reported":1735999624,"current_range_meters":32000,"station_id":"ce4bhi12rcd13ifvqfq0","pricing_plan_id":"cebpf4jnsgd1na2vs0mg"},{"bike_id":"3a269826-99f7-4419-932c-0eb0bed13f31","system_id":"levelo_inurba_marseille","lat":43.23935,"lon":5.36655,"is_reserved":false,"is_disabled":false,"rental_uris":{"android":"levelo://app?vid=3a269826-99f7-4419-932c-0eb0bed13f31","ios":"levelo://app?vid=3a269826-99f7-4419-932c-0eb0bed13f31"},"vehicle_type_id":"4","last_reported":1735999624,"current_range_meters":24800,"station_id":"ce4bhi12rcd13ifvqfp0","pricing_plan_id":"cebpf4jnsgd1na2vs0mg"},{"bike_id":"c8529c5f-726c-44b9-8f81-1b72db6f4e53","system_id":"levelo_inurba_marseille","lat":43.32348,"lon":5.38885,"is_reserved":false,"is_disabled":false,"rental_uris":{"android":"levelo://app?vid=c8529c5f-726c-44b9-8f81-1b72db6f4e53","ios":"levelo://app?vid=c8529c5f-726c-44b9-8f81-1b72db6f4e53"},"vehicle_type_id":"4","last_reported":1735999624,"current_range_meters":22000,"station_id":"ce4bhqp2rcd13ifvqhog","pricing_plan_id":"cebpf4jnsgd1na2vs0mg"},{"bike_id":"eb529860-fae5-4602-af77-40d5ce3326ca","system_id":"levelo_inurba_marseille","lat":43.28553,"lon":5.39506,"is_reserved":false,"is_disabled":false,"rental_uris":{"android":"levelo://app?vid=eb529860-fae5-4602-af77-40d5ce3326ca","ios":"levelo://app?vid=eb529860-fae5-4602-af77-40d5ce3326ca"},"vehicle_type_id":"4","last_reported":1735999624,"current_range_meters":25200,"station_id":"ce4bh292rcd13ifvqdg0","pricing_plan_id":"cebpf4jnsgd1na2vs0mg"},{"bike_id":"9a483109-5bce-4e89-a527-a3ced035742c","system_id":"levelo_inurba_marseille","lat":43.26957,"lon":5.38619,"is_reserved":false,"is_disabled":false,"rental_uris":{"android":"levelo://app?vid=9a483109-5bce-4e89-a527-a3ced035742c","ios":"levelo://app?vid=9a483109-5bce-4e89-a527-a3ced035742c"},"vehicle_type_id":"4","last_reported":1735999624,"current_range_meters":16400,"station_id":"ce4bhh92rcd13ifvqfh0","pricing_plan_id":"cebpf4jnsgd1na2vs0mg"},{"bike_id":"c38119df-a0cc-4d53-851b-aebce98309d3","system_id":"levelo_inurba_marseille","lat":43.24996,"lon":5.38929,"is_reserved":false,"is_disabled":false,"rental_uris":{"android":"levelo://app?vid=c38119df-a0cc-4d53-851b-aebce98309d3","ios":"levelo://app?vid=c38119df-a0cc-4d53-851b-aebce98309d3"},"vehicle_type_id":"4","last_reported":1735999624,"current_range_meters":4000,"station_id":"ce4bhgp2rcd13ifvqfd0","pricing_plan_id":"cebpf4jnsgd1na2vs0mg"},{"bike_id":"44de9671-f789-4f05-bf92-093efb13d44b","system_id":"levelo_inurba_marseille","lat":43.28369,"lon":5.38632,"is_reserved":false,"is_disabled":false,"rental_uris":{"android":"levelo://app?vid=44de9671-f789-4f05-bf92-093efb13d44b","ios":"levelo://app?vid=44de9671-f789-4f05-bf92-093efb13d44b"},"vehicle_type_id":"4","last_reported":1735999624,"current_range_meters":36000,"station_id":"ce4bh492rcd13ifvqdvg","pricing_plan_id":"cebpf4jnsgd1na2vs0mg"},{"bike_id":"969c8a84-cf60-4395-8c81-a1d2e7dc81af","system_id":"levelo_inurba_marseille","lat":43.25865,"lon":5.39873,"is_reserved":false,"is_disabled":false,"rental_uris":{"android":"levelo://app?vid=969c8a84-cf60-4395-8c81-a1d2e7dc81af","ios":"levelo://app?vid=969c8a84-cf60-4395-8c81-a1d2e7dc81af"},"vehicle_type_id":"4","last_reported":1735999624,"current_range_meters":20800,"station_id":"ce4bhl92rcd13ifvqghg","pricing_plan_id":"cebpf4jnsgd1na2vs0mg"},{"bike_id":"83d8f140-e8bc-40d0-a354-52db760307d2","system_id":"levelo_inurba_marseille","lat":43.29582,"lon":5.37502,"is_reserved":false,"is_disabled":false,"rental_uris":{"android":"levelo://app?vid=83d8f140-e8bc-40d0-a354-52db760307d2","ios":"levelo://app?vid=83d8f140-e8bc-40d0-a354-52db760307d2"},"vehicle_type_id":"4","last_reported":1735999624,"current_range_meters":37600,"station_id":"ce4bgh92rcd13ifvqb50","pricing_plan_id":"cebpf4jnsgd1na2vs0mg"},{"bike_id":"9d2065c5-e801-47c6-a32c-5834d37e9dab","system_id":"levelo_inurba_marseille","lat":43.32362,"lon":5.38895,"is_reserved":false,"is_disabled":false,"rental_uris":{"android":"levelo://app?vid=9d2065c5-e801-47c6-a32c-5834d37e9dab","ios":"levelo://app?vid=9d2065c5-e801-47c6-a32c-5834d37e9dab"},"vehicle_type_id":"4","last_reported":1735999624,"current_range_meters":38400,"station_id":"ce4bhqp2rcd13ifvqhog","pricing_plan_id":"cebpf4jnsgd1na2vs0mg"},{"bike_id":"8452ac70-b36f-4236-9954-dfaf1a87fa71","system_id":"levelo_inurba_marseille","lat":43.26802,"lon":5.40269,"is_reserved":false,"is_disabled":false,"rental_uris":{"android":"levelo://app?vid=8452ac70-b36f-4236-9954-dfaf1a87fa71","ios":"levelo://app?vid=8452ac70-b36f-4236-9954-dfaf1a87fa71"},"vehicle_type_id":"4","last_reported":1735999624,"current_range_meters":38800,"station_id":"ce501612rcd8frsf0b60","pricing_plan_id":"cebpf4jnsgd1na2vs0mg"},{"bike_id":"e62a9961-12fa-4314-af24-7ed97deb9ffe","system_id":"levelo_inurba_marseille","lat":43.31374,"lon":5.38492,"is_reserved":false,"is_disabled":false,"rental_uris":{"android":"levelo://app?vid=e62a9961-12fa-4314-af24-7ed97deb9ffe","ios":"levelo://app?vid=e62a9961-12fa-4314-af24-7ed97deb9ffe"},"vehicle_type_id":"4","last_reported":1735999624,"current_range_meters":12400,"station_id":"ce4bgt92rcd13ifvqcf0","pricing_plan_id":"cebpf4jnsgd1na2vs0mg"},{"bike_id":"f3d41f41-839d-41a5-aa6d-f2ba87ff18f0","system_id":"levelo_inurba_marseille","lat":43.24078,"lon":5.37737,"is_reserved":false,"is_disabled":true,"rental_uris":{"android":"levelo://app?vid=f3d41f41-839d-41a5-aa6d-f2ba87ff18f0","ios":"levelo://app?vid=f3d41f41-839d-41a5-aa6d-f2ba87ff18f0"},"vehicle_type_id":"4","last_reported":1735999624,"current_range_meters":0,"station_id":"ce4bhnp2rcd13ifvqgvg","pricing_plan_id":"cebpf4jnsgd1na2vs0mg"},{"bike_id":"6d14468d-d4fe-4fb2-b1d6-ebb52c384fb6","system_id":"levelo_inurba_marseille","lat":43.319949,"lon":5.381568,"is_reserved":false,"is_disabled":false,"rental_uris":{"android":"levelo://app?vid=6d14468d-d4fe-4fb2-b1d6-ebb52c384fb6","ios":"levelo://app?vid=6d14468d-d4fe-4fb2-b1d6-ebb52c384fb6"},"vehicle_type_id":"4","last_reported":1735999624,"current_range_meters":37600,"station_id":"ce4bhr12rcd13ifvqhpg","pricing_plan_id":"cebpf4jnsgd1na2vs0mg"},{"bike_id":"2f857458-45ae-4306-9ffb-5d94252d59a5","system_id":"levelo_inurba_marseille","lat":43.24647,"lon":5.38908,"is_reserved":false,"is_disabled":false,"rental_uris":{"android":"levelo://app?vid=2f857458-45ae-4306-9ffb-5d94252d59a5","ios":"levelo://app?vid=2f857458-45ae-4306-9ffb-5d94252d59a5"},"vehicle_type_id":"4","last_reported":1735999624,"current_range_meters":38400,"station_id":"ce4bhg12rcd13ifvqf60","pricing_plan_id":"cebpf4jnsgd1na2vs0mg"},{"bike_id":"18f03ab3-26d7-473a-9b2c-354458483d45","system_id":"levelo_inurba_marseille","lat":43.28504,"lon":5.3841,"is_reserved":false,"is_disabled":false,"rental_uris":{"android":"levelo://app?vid=18f03ab3-26d7-473a-9b2c-354458483d45","ios":"levelo://app?vid=18f03ab3-26d7-473a-9b2c-354458483d45"},"vehicle_type_id":"4","last_reported":1735999624,"current_range_meters":30800,"station_id":"ce4bh512rcd13ifvqe3g","pricing_plan_id":"cebpf4jnsgd1na2vs0mg"},{"bike_id":"7b78d5e2-5142-402d-a4f8-0f3037a6c533","system_id":"levelo_inurba_marseille","lat":43.26935,"lon":5.38655,"is_reserved":false,"is_disabled":true,"rental_uris":{"android":"levelo://app?vid=7b78d5e2-5142-402d-a4f8-0f3037a6c533","ios":"levelo://app?vid=7b78d5e2-5142-402d-a4f8-0f3037a6c533"},"vehicle_type_id":"4","last_reported":1735999624,"current_range_meters":12000,"station_id":"ce4bhh92rcd13ifvqfh0","pricing_plan_id":"cebpf4jnsgd1na2vs0mg"},{"bike_id":"4ef3042e-f4d0-4d41-bb4f-3e3fc07c7d68","system_id":"levelo_inurba_marseille","lat":43.2991,"lon":5.38148,"is_reserved":false,"is_disabled":false,"rental_uris":{"android":"levelo://app?vid=4ef3042e-f4d0-4d41-bb4f-3e3fc07c7d68","ios":"levelo://app?vid=4ef3042e-f4d0-4d41-bb4f-3e3fc07c7d68"},"vehicle_type_id":"4","last_reported":1735999624,"current_range_meters":38400,"station_id":"ce4bgj12rcd13ifvqbc0","pricing_plan_id":"cebpf4jnsgd1na2vs0mg"},{"bike_id":"00b0c897-4e8f-453d-8e9d-6135317dff3d","system_id":"levelo_inurba_marseille","lat":43.29534,"lon":5.42237,"is_reserved":false,"is_disabled":false,"rental_uris":{"android":"levelo://app?vid=00b0c897-4e8f-453d-8e9d-6135317dff3d","ios":"levelo://app?vid=00b0c897-4e8f-453d-8e9d-6135317dff3d"},"vehicle_type_id":"4","last_reported":1735999624,"current_range_meters":37600,"station_id":"ce4bhph2rcd13ifvqhdg","pricing_plan_id":"cebpf4jnsgd1na2vs0mg"},{"bike_id":"d0d21930-fe1d-478b-8251-bcf89564599d","system_id":"levelo_inurba_marseille","lat":43.29539,"lon":5.42276,"is_reserved":false,"is_disabled":false,"rental_uris":{"android":"levelo://app?vid=d0d21930-fe1d-478b-8251-bcf89564599d","ios":"levelo://app?vid=d0d21930-fe1d-478b-8251-bcf89564599d"},"vehicle_type_id":"4","last_reported":1735999624,"current_range_meters":29600,"station_id":"ce4bhph2rcd13ifvqhdg","pricing_plan_id":"cebpf4jnsgd1na2vs0mg"},{"bike_id":"ca097f70-8976-4699-b173-05723d0647b2","system_id":"levelo_inurba_marseille","lat":43.28152,"lon":5.42658,"is_reserved":false,"is_disabled":false,"rental_uris":{"android":"levelo://app?vid=ca097f70-8976-4699-b173-05723d0647b2","ios":"levelo://app?vid=ca097f70-8976-4699-b173-05723d0647b2"},"vehicle_type_id":"4","last_reported":1735999624,"current_range_meters":16400,"station_id":"ce4bhnh2rcd13ifvqgug","pricing_plan_id":"cebpf4jnsgd1na2vs0mg"},{"bike_id":"858926da-3826-4316-b905-83021bfb4c7c","system_id":"levelo_inurba_marseille","lat":43.30151,"lon":5.38085,"is_reserved":false,"is_disabled":false,"rental_uris":{"android":"levelo://app?vid=858926da-3826-4316-b905-83021bfb4c7c","ios":"levelo://app?vid=858926da-3826-4316-b905-83021bfb4c7c"},"vehicle_type_id":"4","last_reported":1735999624,"current_range_meters":28000,"station_id":"ce4bgjp2rcd13ifvqbh0","pricing_plan_id":"cebpf4jnsgd1na2vs0mg"},{"bike_id":"1237c156-cfa6-45ec-9298-949dcdbd11b6","system_id":"levelo_inurba_marseille","lat":43.27373,"lon":5.36243,"is_reserved":false,"is_disabled":false,"rental_uris":{"android":"levelo://app?vid=1237c156-cfa6-45ec-9298-949dcdbd11b6","ios":"levelo://app?vid=1237c156-cfa6-45ec-9298-949dcdbd11b6"},"vehicle_type_id":"4","last_reported":1735999624,"current_range_meters":36400,"station_id":"ce4bhbh2rcd13ifvqeo0","pricing_plan_id":"cebpf4jnsgd1na2vs0mg"},{"bike_id":"cb9ddef6-e3ca-4d83-8257-6a73eb8266c6","system_id":"levelo_inurba_marseille","lat":43.30204,"lon":5.39473,"is_reserved":false,"is_disabled":false,"rental_uris":{"android":"levelo://app?vid=cb9ddef6-e3ca-4d83-8257-6a73eb8266c6","ios":"levelo://app?vid=cb9ddef6-e3ca-4d83-8257-6a73eb8266c6"},"vehicle_type_id":"4","last_reported":1735999624,"current_range_meters":38800,"station_id":"ce4bh0p2rcd13ifvqd70","pricing_plan_id":"cebpf4jnsgd1na2vs0mg"},{"bike_id":"7b9e134f-1d5b-46f5-87f8-6cc312c5778f","system_id":"levelo_inurba_marseille","lat":43.22928,"lon":5.35387,"is_reserved":false,"is_disabled":false,"rental_uris":{"android":"levelo://app?vid=7b9e134f-1d5b-46f5-87f8-6cc312c5778f","ios":"levelo://app?vid=7b9e134f-1d5b-46f5-87f8-6cc312c5778f"},"vehicle_type_id":"4","last_reported":1735999624,"current_range_meters":37600,"station_id":"cpo3532slgdg3j2ikp40","pricing_plan_id":"cebpf4jnsgd1na2vs0mg"},{"bike_id":"563224fd-451c-462c-872f-0d790702bb1f","system_id":"levelo_inurba_marseille","lat":43.29705,"lon":5.37704,"is_reserved":false,"is_disabled":false,"rental_uris":{"android":"levelo://app?vid=563224fd-451c-462c-872f-0d790702bb1f","ios":"levelo://app?vid=563224fd-451c-462c-872f-0d790702bb1f"},"vehicle_type_id":"4","last_reported":1735999624,"current_range_meters":25600,"station_id":"ce4bgkh2rcd13ifvqbl0","pricing_plan_id":"cebpf4jnsgd1na2vs0mg"},{"bike_id":"7d2e0d05-7ab3-455c-a664-00e17370d396","system_id":"levelo_inurba_marseille","lat":43.29219,"lon":5.360406,"is_reserved":false,"is_disabled":false,"rental_uris":{"android":"levelo://app?vid=7d2e0d05-7ab3-455c-a664-00e17370d396","ios":"levelo://app?vid=7d2e0d05-7ab3-455c-a664-00e17370d396"},"vehicle_type_id":"4","last_reported":1735999624,"current_range_meters":38000,"station_id":"ce4bhbh2rcd13ifvqeqg","pricing_plan_id":"cebpf4jnsgd1na2vs0mg"},{"bike_id":"14d8b028-db21-40ec-8ed2-b6e437c7c8c1","system_id":"levelo_inurba_marseille","lat":43.30145,"lon":5.3987,"is_reserved":false,"is_disabled":false,"rental_uris":{"android":"levelo://app?vid=14d8b028-db21-40ec-8ed2-b6e437c7c8c1","ios":"levelo://app?vid=14d8b028-db21-40ec-8ed2-b6e437c7c8c1"},"vehicle_type_id":"4","last_reported":1735999624,"current_range_meters":19600,"station_id":"ce4bh0h2rcd13ifvqd40","pricing_plan_id":"cebpf4jnsgd1na2vs0mg"},{"bike_id":"34c02d6d-40a7-4aeb-8636-6e14985e1297","system_id":"levelo_inurba_marseille","lat":43.29363,"lon":5.37854,"is_reserved":false,"is_disabled":false,"rental_uris":{"android":"levelo://app?vid=34c02d6d-40a7-4aeb-8636-6e14985e1297","ios":"levelo://app?vid=34c02d6d-40a7-4aeb-8636-6e14985e1297"},"vehicle_type_id":"4","last_reported":1735999624,"current_range_meters":27600,"station_id":"ce4bgjh2rcd13ifvqbf0","pricing_plan_id":"cebpf4jnsgd1na2vs0mg"},{"bike_id":"9085f317-eea3-445b-8bdd-28ff00ca8048","system_id":"levelo_inurba_marseille","lat":43.26686,"lon":5.38278,"is_reserved":false,"is_disabled":false,"rental_uris":{"android":"levelo://app?vid=9085f317-eea3-445b-8bdd-28ff00ca8048","ios":"levelo://app?vid=9085f317-eea3-445b-8bdd-28ff00ca8048"},"vehicle_type_id":"4","last_reported":1735999624,"current_range_meters":30800,"station_id":"ce4bhg92rcd13ifvqf90","pricing_plan_id":"cebpf4jnsgd1na2vs0mg"},{"bike_id":"a6f828f1-5f97-4da7-bf33-7d48a155db3e","system_id":"levelo_inurba_marseille","lat":43.27818,"lon":5.39198,"is_reserved":false,"is_disabled":false,"rental_uris":{"android":"levelo://app?vid=a6f828f1-5f97-4da7-bf33-7d48a155db3e","ios":"levelo://app?vid=a6f828f1-5f97-4da7-bf33-7d48a155db3e"},"vehicle_type_id":"4","last_reported":1735999624,"current_range_meters":27200,"station_id":"ce4bhjp2rcd13ifvqga0","pricing_plan_id":"cebpf4jnsgd1na2vs0mg"},{"bike_id":"7db28a6f-e97f-44f7-aade-68b0ab3f6df3","system_id":"levelo_inurba_marseille","lat":43.29552,"lon":5.37519,"is_reserved":false,"is_disabled":false,"rental_uris":{"android":"levelo://app?vid=7db28a6f-e97f-44f7-aade-68b0ab3f6df3","ios":"levelo://app?vid=7db28a6f-e97f-44f7-aade-68b0ab3f6df3"},"vehicle_type_id":"4","last_reported":1735999624,"current_range_meters":12800,"station_id":"ce4bgh92rcd13ifvqb50","pricing_plan_id":"cebpf4jnsgd1na2vs0mg"},{"bike_id":"a522c7f8-85db-4294-bcdd-44c45cbf4d5e","system_id":"levelo_inurba_marseille","lat":43.23173,"lon":5.39988,"is_reserved":false,"is_disabled":false,"rental_uris":{"android":"levelo://app?vid=a522c7f8-85db-4294-bcdd-44c45cbf4d5e","ios":"levelo://app?vid=a522c7f8-85db-4294-bcdd-44c45cbf4d5e"},"vehicle_type_id":"4","last_reported":1735999624,"current_range_meters":4000,"station_id":"ce4bhn12rcd13ifvqgqg","pricing_plan_id":"cebpf4jnsgd1na2vs0mg"},{"bike_id":"bf1eb2db-2d21-4ce7-802b-a09d0018c6f2","system_id":"levelo_inurba_marseille","lat":43.26195,"lon":5.37448,"is_reserved":false,"is_disabled":false,"rental_uris":{"android":"levelo://app?vid=bf1eb2db-2d21-4ce7-802b-a09d0018c6f2","ios":"levelo://app?vid=bf1eb2db-2d21-4ce7-802b-a09d0018c6f2"},"vehicle_type_id":"4","last_reported":1735999624,"current_range_meters":5600,"station_id":"ce4bhgp2rcd13ifvqfc0","pricing_plan_id":"cebpf4jnsgd1na2vs0mg"},{"bike_id":"2bb365b9-b0ab-4842-8b8c-e8de6374870a","system_id":"levelo_inurba_marseille","lat":43.24648,"lon":5.38906,"is_reserved":false,"is_disabled":false,"rental_uris":{"android":"levelo://app?vid=2bb365b9-b0ab-4842-8b8c-e8de6374870a","ios":"levelo://app?vid=2bb365b9-b0ab-4842-8b8c-e8de6374870a"},"vehicle_type_id":"4","last_reported":1735999624,"current_range_meters":13600,"station_id":"ce4bhg12rcd13ifvqf60","pricing_plan_id":"cebpf4jnsgd1na2vs0mg"},{"bike_id":"01cf00db-a635-4cab-a7ce-b7d1d3ddffac","system_id":"levelo_inurba_marseille","lat":43.29916,"lon":5.37479,"is_reserved":false,"is_disabled":false,"rental_uris":{"android":"levelo://app?vid=01cf00db-a635-4cab-a7ce-b7d1d3ddffac","ios":"levelo://app?vid=01cf00db-a635-4cab-a7ce-b7d1d3ddffac"},"vehicle_type_id":"4","last_reported":1735999624,"current_range_meters":33200,"station_id":"ce4bgjh2rcd13ifvqbg0","pricing_plan_id":"cebpf4jnsgd1na2vs0mg"},{"bike_id":"accc800c-b134-4d76-a4ce-1dbdd8eb6265","system_id":"levelo_inurba_marseille","lat":43.32366,"lon":5.38886,"is_reserved":false,"is_disabled":false,"rental_uris":{"android":"levelo://app?vid=accc800c-b134-4d76-a4ce-1dbdd8eb6265","ios":"levelo://app?vid=accc800c-b134-4d76-a4ce-1dbdd8eb6265"},"vehicle_type_id":"4","last_reported":1735999624,"current_range_meters":38800,"station_id":"ce4bhqp2rcd13ifvqhog","pricing_plan_id":"cebpf4jnsgd1na2vs0mg"},{"bike_id":"6c0950ff-ad32-4545-a3b0-d009b8de7beb","system_id":"levelo_inurba_marseille","lat":43.26483,"lon":5.39545,"is_reserved":false,"is_disabled":false,"rental_uris":{"android":"levelo://app?vid=6c0950ff-ad32-4545-a3b0-d009b8de7beb","ios":"levelo://app?vid=6c0950ff-ad32-4545-a3b0-d009b8de7beb"},"vehicle_type_id":"4","last_reported":1735999624,"current_range_meters":38800,"station_id":"ce4bhi12rcd13ifvqfq0","pricing_plan_id":"cebpf4jnsgd1na2vs0mg"},{"bike_id":"641d8acc-50b2-4173-ab23-c70f2a11d28e","system_id":"levelo_inurba_marseille","lat":43.28143,"lon":5.42641,"is_reserved":false,"is_disabled":true,"rental_uris":{"android":"levelo://app?vid=641d8acc-50b2-4173-ab23-c70f2a11d28e","ios":"levelo://app?vid=641d8acc-50b2-4173-ab23-c70f2a11d28e"},"vehicle_type_id":"4","last_reported":1735999624,"current_range_meters":36800,"station_id":"ce4bhnh2rcd13ifvqgug","pricing_plan_id":"cebpf4jnsgd1na2vs0mg"},{"bike_id":"0a903dd4-aa5a-4030-b502-395f71036d16","system_id":"levelo_inurba_marseille","lat":43.24678,"lon":5.3814,"is_reserved":false,"is_disabled":false,"rental_uris":{"android":"levelo://app?vid=0a903dd4-aa5a-4030-b502-395f71036d16","ios":"levelo://app?vid=0a903dd4-aa5a-4030-b502-395f71036d16"},"vehicle_type_id":"4","last_reported":1735999624,"current_range_meters":27200,"station_id":"ce4bhih2rcd13ifvqfr0","pricing_plan_id":"cebpf4jnsgd1na2vs0mg"},{"bike_id":"8e936699-fb94-4c05-a18e-6a31521ab968","system_id":"levelo_inurba_marseille","lat":43.28469,"lon":5.35892,"is_reserved":false,"is_disabled":false,"rental_uris":{"android":"levelo://app?vid=8e936699-fb94-4c05-a18e-6a31521ab968","ios":"levelo://app?vid=8e936699-fb94-4c05-a18e-6a31521ab968"},"vehicle_type_id":"4","last_reported":1735999624,"current_range_meters":30400,"station_id":"ce4bhah2rcd13ifvqei0","pricing_plan_id":"cebpf4jnsgd1na2vs0mg"},{"bike_id":"ff50585c-8814-445e-8839-ad23299bdb4b","system_id":"levelo_inurba_marseille","lat":43.24658,"lon":5.38178,"is_reserved":false,"is_disabled":false,"rental_uris":{"android":"levelo://app?vid=ff50585c-8814-445e-8839-ad23299bdb4b","ios":"levelo://app?vid=ff50585c-8814-445e-8839-ad23299bdb4b"},"vehicle_type_id":"4","last_reported":1735999624,"current_range_meters":19600,"station_id":"ce4bhih2rcd13ifvqfr0","pricing_plan_id":"cebpf4jnsgd1na2vs0mg"},{"bike_id":"939d444f-90af-4242-b314-80106977b85f","system_id":"levelo_inurba_marseille","lat":43.28154,"lon":5.42638,"is_reserved":false,"is_disabled":false,"rental_uris":{"android":"levelo://app?vid=939d444f-90af-4242-b314-80106977b85f","ios":"levelo://app?vid=939d444f-90af-4242-b314-80106977b85f"},"vehicle_type_id":"4","last_reported":1735999624,"current_range_meters":36400,"station_id":"ce4bhnh2rcd13ifvqgug","pricing_plan_id":"cebpf4jnsgd1na2vs0mg"},{"bike_id":"bd609247-c05b-4bfd-8224-3974e4956916","system_id":"levelo_inurba_marseille","lat":43.30909,"lon":5.36845,"is_reserved":false,"is_disabled":true,"rental_uris":{"android":"levelo://app?vid=bd609247-c05b-4bfd-8224-3974e4956916","ios":"levelo://app?vid=bd609247-c05b-4bfd-8224-3974e4956916"},"vehicle_type_id":"4","last_reported":1735999624,"current_range_meters":36400,"station_id":"ce4bgn92rcd13ifvqbvg","pricing_plan_id":"cebpf4jnsgd1na2vs0mg"},{"bike_id":"26e09790-3c41-401e-8559-07b9778c335c","system_id":"levelo_inurba_marseille","lat":43.29659,"lon":5.37299,"is_reserved":false,"is_disabled":false,"rental_uris":{"android":"levelo://app?vid=26e09790-3c41-401e-8559-07b9778c335c","ios":"levelo://app?vid=26e09790-3c41-401e-8559-07b9778c335c"},"vehicle_type_id":"4","last_reported":1735999624,"current_range_meters":38000,"station_id":"ce4bgk12rcd13ifvqbj0","pricing_plan_id":"cebpf4jnsgd1na2vs0mg"},{"bike_id":"f2856f01-c805-4c5f-85c9-ab5f3b16a4f9","system_id":"levelo_inurba_marseille","lat":43.2936,"lon":5.37853,"is_reserved":false,"is_disabled":false,"rental_uris":{"android":"levelo://app?vid=f2856f01-c805-4c5f-85c9-ab5f3b16a4f9","ios":"levelo://app?vid=f2856f01-c805-4c5f-85c9-ab5f3b16a4f9"},"vehicle_type_id":"4","last_reported":1735999624,"current_range_meters":38800,"station_id":"ce4bgjh2rcd13ifvqbf0","pricing_plan_id":"cebpf4jnsgd1na2vs0mg"},{"bike_id":"0a3ae262-e4e9-456e-b2b6-83dd5ef5dc3a","system_id":"levelo_inurba_marseille","lat":43.30533,"lon":5.36544,"is_reserved":false,"is_disabled":false,"rental_uris":{"android":"levelo://app?vid=0a3ae262-e4e9-456e-b2b6-83dd5ef5dc3a","ios":"levelo://app?vid=0a3ae262-e4e9-456e-b2b6-83dd5ef5dc3a"},"vehicle_type_id":"4","last_reported":1735999624,"current_range_meters":38800,"station_id":"ce4bgs12rcd13ifvqcag","pricing_plan_id":"cebpf4jnsgd1na2vs0mg"},{"bike_id":"b50c1e04-9c20-4daa-ad06-7d854e9beedd","system_id":"levelo_inurba_marseille","lat":43.26198,"lon":5.37458,"is_reserved":false,"is_disabled":false,"rental_uris":{"android":"levelo://app?vid=b50c1e04-9c20-4daa-ad06-7d854e9beedd","ios":"levelo://app?vid=b50c1e04-9c20-4daa-ad06-7d854e9beedd"},"vehicle_type_id":"4","last_reported":1735999624,"current_range_meters":33200,"station_id":"ce4bhgp2rcd13ifvqfc0","pricing_plan_id":"cebpf4jnsgd1na2vs0mg"},{"bike_id":"6072a47d-013b-4750-94cc-06b5f4e2ad66","system_id":"levelo_inurba_marseille","lat":43.29565,"lon":5.42258,"is_reserved":false,"is_disabled":false,"rental_uris":{"android":"levelo://app?vid=6072a47d-013b-4750-94cc-06b5f4e2ad66","ios":"levelo://app?vid=6072a47d-013b-4750-94cc-06b5f4e2ad66"},"vehicle_type_id":"4","last_reported":1735999624,"current_range_meters":36400,"station_id":"ce4bhph2rcd13ifvqhdg","pricing_plan_id":"cebpf4jnsgd1na2vs0mg"},{"bike_id":"161063fe-a823-4001-8a21-44eff19fcc31","system_id":"levelo_inurba_marseille","lat":43.27052,"lon":5.40267,"is_reserved":false,"is_disabled":false,"rental_uris":{"android":"levelo://app?vid=161063fe-a823-4001-8a21-44eff19fcc31","ios":"levelo://app?vid=161063fe-a823-4001-8a21-44eff19fcc31"},"vehicle_type_id":"4","last_reported":1735999624,"current_range_meters":6800,"station_id":"ce4bhk92rcd13ifvqgc0","pricing_plan_id":"cebpf4jnsgd1na2vs0mg"},{"bike_id":"56d4c5c8-1e01-4368-805e-4b2dc8a536b8","system_id":"levelo_inurba_marseille","lat":43.23151,"lon":5.43717,"is_reserved":false,"is_disabled":false,"rental_uris":{"android":"levelo://app?vid=56d4c5c8-1e01-4368-805e-4b2dc8a536b8","ios":"levelo://app?vid=56d4c5c8-1e01-4368-805e-4b2dc8a536b8"},"vehicle_type_id":"4","last_reported":1735999624,"current_range_meters":16800,"station_id":"ce4bhmp2rcd13ifvqgog","pricing_plan_id":"cebpf4jnsgd1na2vs0mg"},{"bike_id":"1d0ee6fa-7e84-4bad-a513-32569bfb99a6","system_id":"levelo_inurba_marseille","lat":43.27426,"lon":5.39414,"is_reserved":false,"is_disabled":false,"rental_uris":{"android":"levelo://app?vid=1d0ee6fa-7e84-4bad-a513-32569bfb99a6","ios":"levelo://app?vid=1d0ee6fa-7e84-4bad-a513-32569bfb99a6"},"vehicle_type_id":"4","last_reported":1735999624,"current_range_meters":38800,"station_id":"ce4bhdp2rcd13ifvqf20","pricing_plan_id":"cebpf4jnsgd1na2vs0mg"},{"bike_id":"938e7b6f-fd2f-46fd-88b2-838a24001a3e","system_id":"levelo_inurba_marseille","lat":43.31754,"lon":5.39018,"is_reserved":false,"is_disabled":false,"rental_uris":{"android":"levelo://app?vid=938e7b6f-fd2f-46fd-88b2-838a24001a3e","ios":"levelo://app?vid=938e7b6f-fd2f-46fd-88b2-838a24001a3e"},"vehicle_type_id":"4","last_reported":1735999624,"current_range_meters":31200,"station_id":"ce4bhqp2rcd13ifvqhng","pricing_plan_id":"cebpf4jnsgd1na2vs0mg"},{"bike_id":"0a1b40ac-db24-4869-b876-511e9b87d5d0","system_id":"levelo_inurba_marseille","lat":43.29609,"lon":5.37723,"is_reserved":false,"is_disabled":false,"rental_uris":{"android":"levelo://app?vid=0a1b40ac-db24-4869-b876-511e9b87d5d0","ios":"levelo://app?vid=0a1b40ac-db24-4869-b876-511e9b87d5d0"},"vehicle_type_id":"4","last_reported":1735999624,"current_range_meters":39200,"station_id":"ce4bgi92rcd13ifvqb90","pricing_plan_id":"cebpf4jnsgd1na2vs0mg"},{"bike_id":"983a939f-0c90-4b41-8e07-1ba37a328643","system_id":"levelo_inurba_marseille","lat":43.24166,"lon":5.36397,"is_reserved":false,"is_disabled":false,"rental_uris":{"android":"levelo://app?vid=983a939f-0c90-4b41-8e07-1ba37a328643","ios":"levelo://app?vid=983a939f-0c90-4b41-8e07-1ba37a328643"},"vehicle_type_id":"4","last_reported":1735999624,"current_range_meters":24800,"station_id":"cpo36qri1sfpv3e86is0","pricing_plan_id":"cebpf4jnsgd1na2vs0mg"},{"bike_id":"353e771d-7317-4079-afc9-f21daf6cf65c","system_id":"levelo_inurba_marseille","lat":43.30542,"lon":5.36547,"is_reserved":false,"is_disabled":true,"rental_uris":{"android":"levelo://app?vid=353e771d-7317-4079-afc9-f21daf6cf65c","ios":"levelo://app?vid=353e771d-7317-4079-afc9-f21daf6cf65c"},"vehicle_type_id":"4","last_reported":1735999624,"current_range_meters":27600,"station_id":"ce4bgs12rcd13ifvqcag","pricing_plan_id":"cebpf4jnsgd1na2vs0mg"},{"bike_id":"1f95228b-2707-4808-8d35-1365263ec69f","system_id":"levelo_inurba_marseille","lat":43.29941,"lon":5.36533,"is_reserved":false,"is_disabled":false,"rental_uris":{"android":"levelo://app?vid=1f95228b-2707-4808-8d35-1365263ec69f","ios":"levelo://app?vid=1f95228b-2707-4808-8d35-1365263ec69f"},"vehicle_type_id":"4","last_reported":1735999624,"current_range_meters":25600,"station_id":"ce4bgm92rcd13ifvqbr0","pricing_plan_id":"cebpf4jnsgd1na2vs0mg"},{"bike_id":"ff7a9622-1da0-4e49-b6f5-81182770c92a","system_id":"levelo_inurba_marseille","lat":43.32383,"lon":5.38908,"is_reserved":false,"is_disabled":false,"rental_uris":{"android":"levelo://app?vid=ff7a9622-1da0-4e49-b6f5-81182770c92a","ios":"levelo://app?vid=ff7a9622-1da0-4e49-b6f5-81182770c92a"},"vehicle_type_id":"4","last_reported":1735999624,"current_range_meters":36800,"station_id":"ce4bhqp2rcd13ifvqhog","pricing_plan_id":"cebpf4jnsgd1na2vs0mg"},{"bike_id":"28a8e0a8-568d-49dd-9daf-fed2729b0742","system_id":"levelo_inurba_marseille","lat":43.29793,"lon":5.37108,"is_reserved":false,"is_disabled":false,"rental_uris":{"android":"levelo://app?vid=28a8e0a8-568d-49dd-9daf-fed2729b0742","ios":"levelo://app?vid=28a8e0a8-568d-49dd-9daf-fed2729b0742"},"vehicle_type_id":"4","last_reported":1735999624,"current_range_meters":38800,"station_id":"ce4bgop2rcd13ifvqc1g","pricing_plan_id":"cebpf4jnsgd1na2vs0mg"},{"bike_id":"c820bd62-18cb-4bc2-b5bb-e4d0b7276320","system_id":"levelo_inurba_marseille","lat":43.30122,"lon":5.37399,"is_reserved":false,"is_disabled":false,"rental_uris":{"android":"levelo://app?vid=c820bd62-18cb-4bc2-b5bb-e4d0b7276320","ios":"levelo://app?vid=c820bd62-18cb-4bc2-b5bb-e4d0b7276320"},"vehicle_type_id":"4","last_reported":1735999624,"current_range_meters":36000,"station_id":"ce4bgs92rcd13ifvqcc0","pricing_plan_id":"cebpf4jnsgd1na2vs0mg"},{"bike_id":"65ac3048-33e1-41aa-81f5-a58ffe909868","system_id":"levelo_inurba_marseille","lat":43.279994,"lon":5.400203,"is_reserved":false,"is_disabled":false,"rental_uris":{"android":"levelo://app?vid=65ac3048-33e1-41aa-81f5-a58ffe909868","ios":"levelo://app?vid=65ac3048-33e1-41aa-81f5-a58ffe909868"},"vehicle_type_id":"4","last_reported":1735999624,"current_range_meters":38800,"station_id":"ce4bho92rcd13ifvqh4g","pricing_plan_id":"cebpf4jnsgd1na2vs0mg"},{"bike_id":"a5857756-0478-41f2-bfa4-405eeda359bc","system_id":"levelo_inurba_marseille","lat":43.26682,"lon":5.38262,"is_reserved":false,"is_disabled":false,"rental_uris":{"android":"levelo://app?vid=a5857756-0478-41f2-bfa4-405eeda359bc","ios":"levelo://app?vid=a5857756-0478-41f2-bfa4-405eeda359bc"},"vehicle_type_id":"4","last_reported":1735999624,"current_range_meters":38800,"station_id":"ce4bhg92rcd13ifvqf90","pricing_plan_id":"cebpf4jnsgd1na2vs0mg"},{"bike_id":"e9c9ac99-6db0-4a19-9854-52585a709e6e","system_id":"levelo_inurba_marseille","lat":43.29586,"lon":5.36741,"is_reserved":false,"is_disabled":false,"rental_uris":{"android":"levelo://app?vid=e9c9ac99-6db0-4a19-9854-52585a709e6e","ios":"levelo://app?vid=e9c9ac99-6db0-4a19-9854-52585a709e6e"},"vehicle_type_id":"4","last_reported":1735999624,"current_range_meters":34000,"station_id":"ce4bgph2rcd13ifvqc2g","pricing_plan_id":"cebpf4jnsgd1na2vs0mg"},{"bike_id":"cd7e8ac3-1dc5-42c5-81f3-d095d2efc35c","system_id":"levelo_inurba_marseille","lat":43.23193,"lon":5.35566,"is_reserved":false,"is_disabled":false,"rental_uris":{"android":"levelo://app?vid=cd7e8ac3-1dc5-42c5-81f3-d095d2efc35c","ios":"levelo://app?vid=cd7e8ac3-1dc5-42c5-81f3-d095d2efc35c"},"vehicle_type_id":"4","last_reported":1735999624,"current_range_meters":24800,"station_id":"ce4bhu92rcd13ifvqi70","pricing_plan_id":"cebpf4jnsgd1na2vs0mg"},{"bike_id":"8cb60ee5-163d-4842-8e26-a6b0b6e581d8","system_id":"levelo_inurba_marseille","lat":43.28472,"lon":5.38556,"is_reserved":false,"is_disabled":false,"rental_uris":{"android":"levelo://app?vid=8cb60ee5-163d-4842-8e26-a6b0b6e581d8","ios":"levelo://app?vid=8cb60ee5-163d-4842-8e26-a6b0b6e581d8"},"vehicle_type_id":"4","last_reported":1735999624,"current_range_meters":30400,"station_id":"ce4bh8p2rcd13ifvqeb0","pricing_plan_id":"cebpf4jnsgd1na2vs0mg"},{"bike_id":"a7bb63bd-2236-4c9a-b3ab-757ddfd808f2","system_id":"levelo_inurba_marseille","lat":43.29624,"lon":5.37171,"is_reserved":false,"is_disabled":false,"rental_uris":{"android":"levelo://app?vid=a7bb63bd-2236-4c9a-b3ab-757ddfd808f2","ios":"levelo://app?vid=a7bb63bd-2236-4c9a-b3ab-757ddfd808f2"},"vehicle_type_id":"4","last_reported":1735999624,"current_range_meters":38800,"station_id":"ce4bgnh2rcd13ifvqc0g","pricing_plan_id":"cebpf4jnsgd1na2vs0mg"},{"bike_id":"cb7ae967-b91a-487e-94e6-82bb81a3aaec","system_id":"levelo_inurba_marseille","lat":43.25835,"lon":5.39442,"is_reserved":false,"is_disabled":false,"rental_uris":{"android":"levelo://app?vid=cb7ae967-b91a-487e-94e6-82bb81a3aaec","ios":"levelo://app?vid=cb7ae967-b91a-487e-94e6-82bb81a3aaec"},"vehicle_type_id":"4","last_reported":1735999624,"current_range_meters":17600,"station_id":"ce4bhip2rcd13ifvqft0","pricing_plan_id":"cebpf4jnsgd1na2vs0mg"},{"bike_id":"d8b76d84-2dfc-400f-9630-9e7b0787e9cc","system_id":"levelo_inurba_marseille","lat":43.27501,"lon":5.4246,"is_reserved":false,"is_disabled":true,"rental_uris":{"android":"levelo://app?vid=d8b76d84-2dfc-400f-9630-9e7b0787e9cc","ios":"levelo://app?vid=d8b76d84-2dfc-400f-9630-9e7b0787e9cc"},"vehicle_type_id":"4","last_reported":1735999624,"current_range_meters":8400,"station_id":"ce4bhn92rcd13ifvqgrg","pricing_plan_id":"cebpf4jnsgd1na2vs0mg"},{"bike_id":"80015150-ed7a-4567-92b6-885b195b502e","system_id":"levelo_inurba_marseille","lat":43.30159,"lon":5.38068,"is_reserved":false,"is_disabled":false,"rental_uris":{"android":"levelo://app?vid=80015150-ed7a-4567-92b6-885b195b502e","ios":"levelo://app?vid=80015150-ed7a-4567-92b6-885b195b502e"},"vehicle_type_id":"4","last_reported":1735999624,"current_range_meters":38000,"station_id":"ce4bgjp2rcd13ifvqbh0","pricing_plan_id":"cebpf4jnsgd1na2vs0mg"},{"bike_id":"eaecfcca-aa89-4e9a-8d17-c5be1539665b","system_id":"levelo_inurba_marseille","lat":43.28279,"lon":5.35066,"is_reserved":false,"is_disabled":true,"rental_uris":{"android":"levelo://app?vid=eaecfcca-aa89-4e9a-8d17-c5be1539665b","ios":"levelo://app?vid=eaecfcca-aa89-4e9a-8d17-c5be1539665b"},"vehicle_type_id":"4","last_reported":1735999624,"current_range_meters":6800,"station_id":"ce4bhbp2rcd13ifvqerg","pricing_plan_id":"cebpf4jnsgd1na2vs0mg"},{"bike_id":"896797d5-e48c-435a-a4ff-c7d0b4682116","system_id":"levelo_inurba_marseille","lat":43.27829,"lon":5.40732,"is_reserved":false,"is_disabled":false,"rental_uris":{"android":"levelo://app?vid=896797d5-e48c-435a-a4ff-c7d0b4682116","ios":"levelo://app?vid=896797d5-e48c-435a-a4ff-c7d0b4682116"},"vehicle_type_id":"4","last_reported":1735999624,"current_range_meters":27200,"station_id":"ce4bhnh2rcd13ifvqgtg","pricing_plan_id":"cebpf4jnsgd1na2vs0mg"},{"bike_id":"95d72f09-8fe9-4bd6-bc4c-6b92b241e395","system_id":"levelo_inurba_marseille","lat":43.283648,"lon":5.386474,"is_reserved":false,"is_disabled":false,"rental_uris":{"android":"levelo://app?vid=95d72f09-8fe9-4bd6-bc4c-6b92b241e395","ios":"levelo://app?vid=95d72f09-8fe9-4bd6-bc4c-6b92b241e395"},"vehicle_type_id":"4","last_reported":1735999624,"current_range_meters":38400,"station_id":"ce4bh492rcd13ifvqdvg","pricing_plan_id":"cebpf4jnsgd1na2vs0mg"},{"bike_id":"13ef7d4c-1aac-463f-b78f-283376e4de16","system_id":"levelo_inurba_marseille","lat":43.22931,"lon":5.35372,"is_reserved":false,"is_disabled":false,"rental_uris":{"android":"levelo://app?vid=13ef7d4c-1aac-463f-b78f-283376e4de16","ios":"levelo://app?vid=13ef7d4c-1aac-463f-b78f-283376e4de16"},"vehicle_type_id":"4","last_reported":1735999624,"current_range_meters":37600,"station_id":"cpo3532slgdg3j2ikp40","pricing_plan_id":"cebpf4jnsgd1na2vs0mg"},{"bike_id":"0dba9ec2-2693-4cb9-bdd1-5906a626a31d","system_id":"levelo_inurba_marseille","lat":43.28347,"lon":5.38108,"is_reserved":false,"is_disabled":false,"rental_uris":{"android":"levelo://app?vid=0dba9ec2-2693-4cb9-bdd1-5906a626a31d","ios":"levelo://app?vid=0dba9ec2-2693-4cb9-bdd1-5906a626a31d"},"vehicle_type_id":"4","last_reported":1735999624,"current_range_meters":35200,"station_id":"ce4bh412rcd13ifvqdr0","pricing_plan_id":"cebpf4jnsgd1na2vs0mg"},{"bike_id":"0d707ffc-f707-4ef1-b382-12ca6e4a0156","system_id":"levelo_inurba_marseille","lat":43.26807,"lon":5.39434,"is_reserved":false,"is_disabled":false,"rental_uris":{"android":"levelo://app?vid=0d707ffc-f707-4ef1-b382-12ca6e4a0156","ios":"levelo://app?vid=0d707ffc-f707-4ef1-b382-12ca6e4a0156"},"vehicle_type_id":"4","last_reported":1735999624,"current_range_meters":36800,"station_id":"ce4bhh12rcd13ifvqfg0","pricing_plan_id":"cebpf4jnsgd1na2vs0mg"},{"bike_id":"8a9dc88a-8d90-44ec-8e47-b42813f9101d","system_id":"levelo_inurba_marseille","lat":43.2934,"lon":5.41171,"is_reserved":false,"is_disabled":false,"rental_uris":{"android":"levelo://app?vid=8a9dc88a-8d90-44ec-8e47-b42813f9101d","ios":"levelo://app?vid=8a9dc88a-8d90-44ec-8e47-b42813f9101d"},"vehicle_type_id":"4","last_reported":1735999624,"current_range_meters":18800,"station_id":"","pricing_plan_id":"cebpf4jnsgd1na2vs0mg"},{"bike_id":"7b7b303a-a0b7-4a31-b23c-f8fd5396854f","system_id":"levelo_inurba_marseille","lat":43.27674,"lon":5.38912,"is_reserved":false,"is_disabled":false,"rental_uris":{"android":"levelo://app?vid=7b7b303a-a0b7-4a31-b23c-f8fd5396854f","ios":"levelo://app?vid=7b7b303a-a0b7-4a31-b23c-f8fd5396854f"},"vehicle_type_id":"4","last_reported":1735999624,"current_range_meters":36400,"station_id":"ce4bhi12rcd13ifvqfo0","pricing_plan_id":"cebpf4jnsgd1na2vs0mg"},{"bike_id":"d6ffb7e5-f3ee-45fd-86b7-d7642d09152c","system_id":"levelo_inurba_marseille","lat":43.24996,"lon":5.38953,"is_reserved":false,"is_disabled":false,"rental_uris":{"android":"levelo://app?vid=d6ffb7e5-f3ee-45fd-86b7-d7642d09152c","ios":"levelo://app?vid=d6ffb7e5-f3ee-45fd-86b7-d7642d09152c"},"vehicle_type_id":"4","last_reported":1735999624,"current_range_meters":27600,"station_id":"ce4bhgp2rcd13ifvqfd0","pricing_plan_id":"cebpf4jnsgd1na2vs0mg"},{"bike_id":"5e12b1e9-3414-4512-9178-c92357c60ae0","system_id":"levelo_inurba_marseille","lat":43.2603,"lon":5.3755,"is_reserved":false,"is_disabled":false,"rental_uris":{"android":"levelo://app?vid=5e12b1e9-3414-4512-9178-c92357c60ae0","ios":"levelo://app?vid=5e12b1e9-3414-4512-9178-c92357c60ae0"},"vehicle_type_id":"4","last_reported":1735999624,"current_range_meters":38800,"station_id":"ce4bhgh2rcd13ifvqfa0","pricing_plan_id":"cebpf4jnsgd1na2vs0mg"},{"bike_id":"68ef66f0-dd96-424a-ba29-3c004929578e","system_id":"levelo_inurba_marseille","lat":43.23183,"lon":5.39994,"is_reserved":false,"is_disabled":false,"rental_uris":{"android":"levelo://app?vid=68ef66f0-dd96-424a-ba29-3c004929578e","ios":"levelo://app?vid=68ef66f0-dd96-424a-ba29-3c004929578e"},"vehicle_type_id":"4","last_reported":1735999624,"current_range_meters":39200,"station_id":"ce4bhn12rcd13ifvqgqg","pricing_plan_id":"cebpf4jnsgd1na2vs0mg"},{"bike_id":"266b391b-9978-4801-ac47-0bd5ed16b604","system_id":"levelo_inurba_marseille","lat":43.30133,"lon":5.37408,"is_reserved":false,"is_disabled":false,"rental_uris":{"android":"levelo://app?vid=266b391b-9978-4801-ac47-0bd5ed16b604","ios":"levelo://app?vid=266b391b-9978-4801-ac47-0bd5ed16b604"},"vehicle_type_id":"4","last_reported":1735999624,"current_range_meters":38800,"station_id":"ce4bgs92rcd13ifvqcc0","pricing_plan_id":"cebpf4jnsgd1na2vs0mg"},{"bike_id":"eae11c21-0e68-4841-b456-38f5bd6f851c","system_id":"levelo_inurba_marseille","lat":43.26787,"lon":5.39433,"is_reserved":false,"is_disabled":false,"rental_uris":{"android":"levelo://app?vid=eae11c21-0e68-4841-b456-38f5bd6f851c","ios":"levelo://app?vid=eae11c21-0e68-4841-b456-38f5bd6f851c"},"vehicle_type_id":"4","last_reported":1735999624,"current_range_meters":14000,"station_id":"ce4bhh12rcd13ifvqfg0","pricing_plan_id":"cebpf4jnsgd1na2vs0mg"},{"bike_id":"270f72ca-6ff0-4006-b955-8701cfe72efd","system_id":"levelo_inurba_marseille","lat":43.2927,"lon":5.40133,"is_reserved":false,"is_disabled":true,"rental_uris":{"android":"levelo://app?vid=270f72ca-6ff0-4006-b955-8701cfe72efd","ios":"levelo://app?vid=270f72ca-6ff0-4006-b955-8701cfe72efd"},"vehicle_type_id":"4","last_reported":1735999624,"current_range_meters":6800,"station_id":"ce4bh312rcd13ifvqdk0","pricing_plan_id":"cebpf4jnsgd1na2vs0mg"},{"bike_id":"a2a4f8a5-06ee-44a7-8dd2-6dba31a13af1","system_id":"levelo_inurba_marseille","lat":43.29421,"lon":5.38617,"is_reserved":false,"is_disabled":false,"rental_uris":{"android":"levelo://app?vid=a2a4f8a5-06ee-44a7-8dd2-6dba31a13af1","ios":"levelo://app?vid=a2a4f8a5-06ee-44a7-8dd2-6dba31a13af1"},"vehicle_type_id":"4","last_reported":1735999624,"current_range_meters":26000,"station_id":"ce4bh2h2rcd13ifvqdh0","pricing_plan_id":"cebpf4jnsgd1na2vs0mg"},{"bike_id":"8618ca32-47aa-4623-af76-cb3c8c228318","system_id":"levelo_inurba_marseille","lat":43.31756,"lon":5.39017,"is_reserved":false,"is_disabled":false,"rental_uris":{"android":"levelo://app?vid=8618ca32-47aa-4623-af76-cb3c8c228318","ios":"levelo://app?vid=8618ca32-47aa-4623-af76-cb3c8c228318"},"vehicle_type_id":"4","last_reported":1735999624,"current_range_meters":20400,"station_id":"ce4bhqp2rcd13ifvqhng","pricing_plan_id":"cebpf4jnsgd1na2vs0mg"},{"bike_id":"04f0f62e-c387-4b35-9735-64146531c9de","system_id":"levelo_inurba_marseille","lat":43.2705,"lon":5.40264,"is_reserved":false,"is_disabled":false,"rental_uris":{"android":"levelo://app?vid=04f0f62e-c387-4b35-9735-64146531c9de","ios":"levelo://app?vid=04f0f62e-c387-4b35-9735-64146531c9de"},"vehicle_type_id":"4","last_reported":1735999624,"current_range_meters":23200,"station_id":"ce4bhk92rcd13ifvqgc0","pricing_plan_id":"cebpf4jnsgd1na2vs0mg"},{"bike_id":"dcbbbac4-6615-48d1-aecd-87a0c7ad19b6","system_id":"levelo_inurba_marseille","lat":43.32458,"lon":5.36559,"is_reserved":false,"is_disabled":false,"rental_uris":{"android":"levelo://app?vid=dcbbbac4-6615-48d1-aecd-87a0c7ad19b6","ios":"levelo://app?vid=dcbbbac4-6615-48d1-aecd-87a0c7ad19b6"},"vehicle_type_id":"4","last_reported":1735999624,"current_range_meters":38800,"station_id":"ce4bhs12rcd13ifvqhvg","pricing_plan_id":"cebpf4jnsgd1na2vs0mg"},{"bike_id":"b5de95e0-8f34-41aa-a5fc-c4e76e03a994","system_id":"levelo_inurba_marseille","lat":43.28091,"lon":5.39655,"is_reserved":false,"is_disabled":true,"rental_uris":{"android":"levelo://app?vid=b5de95e0-8f34-41aa-a5fc-c4e76e03a994","ios":"levelo://app?vid=b5de95e0-8f34-41aa-a5fc-c4e76e03a994"},"vehicle_type_id":"4","last_reported":1735999624,"current_range_meters":36000,"station_id":"ce4bho12rcd13ifvqh2g","pricing_plan_id":"cebpf4jnsgd1na2vs0mg"},{"bike_id":"aa33a53e-f806-43a8-ad7e-8e2bd9644426","system_id":"levelo_inurba_marseille","lat":43.32359,"lon":5.40612,"is_reserved":false,"is_disabled":true,"rental_uris":{"android":"levelo://app?vid=aa33a53e-f806-43a8-ad7e-8e2bd9644426","ios":"levelo://app?vid=aa33a53e-f806-43a8-ad7e-8e2bd9644426"},"vehicle_type_id":"4","last_reported":1735999624,"current_range_meters":0,"station_id":"ce4bhq92rcd13ifvqhjg","pricing_plan_id":"cebpf4jnsgd1na2vs0mg"},{"bike_id":"b9dc4ae5-8ee5-4a0e-8a96-a2e835ae7769","system_id":"levelo_inurba_marseille","lat":43.24379,"lon":5.37055,"is_reserved":false,"is_disabled":false,"rental_uris":{"android":"levelo://app?vid=b9dc4ae5-8ee5-4a0e-8a96-a2e835ae7769","ios":"levelo://app?vid=b9dc4ae5-8ee5-4a0e-8a96-a2e835ae7769"},"vehicle_type_id":"4","last_reported":1735999624,"current_range_meters":17600,"station_id":"ce4bhhh2rcd13ifvqfk0","pricing_plan_id":"cebpf4jnsgd1na2vs0mg"},{"bike_id":"4e2e926a-cc62-4529-8b24-3abbcf0f0be2","system_id":"levelo_inurba_marseille","lat":43.26942,"lon":5.38644,"is_reserved":false,"is_disabled":false,"rental_uris":{"android":"levelo://app?vid=4e2e926a-cc62-4529-8b24-3abbcf0f0be2","ios":"levelo://app?vid=4e2e926a-cc62-4529-8b24-3abbcf0f0be2"},"vehicle_type_id":"4","last_reported":1735999624,"current_range_meters":28400,"station_id":"ce4bhh92rcd13ifvqfh0","pricing_plan_id":"cebpf4jnsgd1na2vs0mg"},{"bike_id":"509cc02d-b119-4dc6-8e16-9127e26eca78","system_id":"levelo_inurba_marseille","lat":43.29025,"lon":5.39978,"is_reserved":false,"is_disabled":false,"rental_uris":{"android":"levelo://app?vid=509cc02d-b119-4dc6-8e16-9127e26eca78","ios":"levelo://app?vid=509cc02d-b119-4dc6-8e16-9127e26eca78"},"vehicle_type_id":"4","last_reported":1735999624,"current_range_meters":16400,"station_id":"ce4bhb92rcd13ifvqen0","pricing_plan_id":"cebpf4jnsgd1na2vs0mg"},{"bike_id":"0a97dca8-acb3-44ac-928e-dde26ccc4d49","system_id":"levelo_inurba_marseille","lat":43.29549,"lon":5.42297,"is_reserved":false,"is_disabled":false,"rental_uris":{"android":"levelo://app?vid=0a97dca8-acb3-44ac-928e-dde26ccc4d49","ios":"levelo://app?vid=0a97dca8-acb3-44ac-928e-dde26ccc4d49"},"vehicle_type_id":"4","last_reported":1735999624,"current_range_meters":38000,"station_id":"ce4bhph2rcd13ifvqhdg","pricing_plan_id":"cebpf4jnsgd1na2vs0mg"},{"bike_id":"8b560820-92ce-441f-b26e-aa318b33d932","system_id":"levelo_inurba_marseille","lat":43.28485,"lon":5.3857,"is_reserved":false,"is_disabled":false,"rental_uris":{"android":"levelo://app?vid=8b560820-92ce-441f-b26e-aa318b33d932","ios":"levelo://app?vid=8b560820-92ce-441f-b26e-aa318b33d932"},"vehicle_type_id":"4","last_reported":1735999624,"current_range_meters":38800,"station_id":"ce4bh8p2rcd13ifvqeb0","pricing_plan_id":"cebpf4jnsgd1na2vs0mg"},{"bike_id":"45744d07-eb73-453c-b6ee-d9a256b9901b","system_id":"levelo_inurba_marseille","lat":43.30967,"lon":5.39035,"is_reserved":false,"is_disabled":true,"rental_uris":{"android":"levelo://app?vid=45744d07-eb73-453c-b6ee-d9a256b9901b","ios":"levelo://app?vid=45744d07-eb73-453c-b6ee-d9a256b9901b"},"vehicle_type_id":"4","last_reported":1735999624,"current_range_meters":18800,"station_id":"ce4bgup2rcd13ifvqco0","pricing_plan_id":"cebpf4jnsgd1na2vs0mg"},{"bike_id":"48f51299-ce77-4faf-adff-59fe9aff9a5b","system_id":"levelo_inurba_marseille","lat":43.29037,"lon":5.39968,"is_reserved":false,"is_disabled":false,"rental_uris":{"android":"levelo://app?vid=48f51299-ce77-4faf-adff-59fe9aff9a5b","ios":"levelo://app?vid=48f51299-ce77-4faf-adff-59fe9aff9a5b"},"vehicle_type_id":"4","last_reported":1735999624,"current_range_meters":28400,"station_id":"ce4bh392rcd13ifvqdm0","pricing_plan_id":"cebpf4jnsgd1na2vs0mg"},{"bike_id":"5e584ae4-fb04-4605-b8fd-532b0218e039","system_id":"levelo_inurba_marseille","lat":43.33616,"lon":5.41093,"is_reserved":false,"is_disabled":false,"rental_uris":{"android":"levelo://app?vid=5e584ae4-fb04-4605-b8fd-532b0218e039","ios":"levelo://app?vid=5e584ae4-fb04-4605-b8fd-532b0218e039"},"vehicle_type_id":"4","last_reported":1735999624,"current_range_meters":14400,"station_id":"ce4bhqh2rcd13ifvqhmg","pricing_plan_id":"cebpf4jnsgd1na2vs0mg"},{"bike_id":"e14fc727-e110-4847-a3c5-e82ea6a6fcb8","system_id":"levelo_inurba_marseille","lat":43.28944,"lon":5.39645,"is_reserved":false,"is_disabled":true,"rental_uris":{"android":"levelo://app?vid=e14fc727-e110-4847-a3c5-e82ea6a6fcb8","ios":"levelo://app?vid=e14fc727-e110-4847-a3c5-e82ea6a6fcb8"},"vehicle_type_id":"4","last_reported":1735999624,"current_range_meters":38800,"station_id":"ce4bh3h2rcd13ifvqdn0","pricing_plan_id":"cebpf4jnsgd1na2vs0mg"},{"bike_id":"77cf10df-8d3e-4740-bb0d-cc701d5ed79f","system_id":"levelo_inurba_marseille","lat":43.3055,"lon":5.3654,"is_reserved":false,"is_disabled":false,"rental_uris":{"android":"levelo://app?vid=77cf10df-8d3e-4740-bb0d-cc701d5ed79f","ios":"levelo://app?vid=77cf10df-8d3e-4740-bb0d-cc701d5ed79f"},"vehicle_type_id":"4","last_reported":1735999624,"current_range_meters":38800,"station_id":"ce4bgs12rcd13ifvqcag","pricing_plan_id":"cebpf4jnsgd1na2vs0mg"},{"bike_id":"f4ba9850-ad59-4e64-85be-faa1e88890c0","system_id":"levelo_inurba_marseille","lat":43.29803,"lon":5.38087,"is_reserved":false,"is_disabled":false,"rental_uris":{"android":"levelo://app?vid=f4ba9850-ad59-4e64-85be-faa1e88890c0","ios":"levelo://app?vid=f4ba9850-ad59-4e64-85be-faa1e88890c0"},"vehicle_type_id":"4","last_reported":1735999624,"current_range_meters":38800,"station_id":"ce4bgip2rcd13ifvqbb0","pricing_plan_id":"cebpf4jnsgd1na2vs0mg"},{"bike_id":"84e50acd-39e7-4784-817a-f262db7ec074","system_id":"levelo_inurba_marseille","lat":43.2872,"lon":5.39979,"is_reserved":false,"is_disabled":false,"rental_uris":{"android":"levelo://app?vid=84e50acd-39e7-4784-817a-f262db7ec074","ios":"levelo://app?vid=84e50acd-39e7-4784-817a-f262db7ec074"},"vehicle_type_id":"4","last_reported":1735999624,"current_range_meters":12400,"station_id":"ce4bho92rcd13ifvqh3g","pricing_plan_id":"cebpf4jnsgd1na2vs0mg"},{"bike_id":"223a4990-4e05-4395-8830-aea2c89ecd7a","system_id":"levelo_inurba_marseille","lat":43.29032,"lon":5.38663,"is_reserved":false,"is_disabled":true,"rental_uris":{"android":"levelo://app?vid=223a4990-4e05-4395-8830-aea2c89ecd7a","ios":"levelo://app?vid=223a4990-4e05-4395-8830-aea2c89ecd7a"},"vehicle_type_id":"4","last_reported":1735999624,"current_range_meters":33200,"station_id":"ce4bh4p2rcd13ifvqe0g","pricing_plan_id":"cebpf4jnsgd1na2vs0mg"},{"bike_id":"1a5fff32-ce7c-4bce-b86e-8507d81f5361","system_id":"levelo_inurba_marseille","lat":43.24806,"lon":5.37459,"is_reserved":false,"is_disabled":false,"rental_uris":{"android":"levelo://app?vid=1a5fff32-ce7c-4bce-b86e-8507d81f5361","ios":"levelo://app?vid=1a5fff32-ce7c-4bce-b86e-8507d81f5361"},"vehicle_type_id":"4","last_reported":1735999624,"current_range_meters":8000,"station_id":"ce4bhgh2rcd13ifvqfb0","pricing_plan_id":"cebpf4jnsgd1na2vs0mg"},{"bike_id":"d9676b1a-df49-429f-b317-1de61bb96597","system_id":"levelo_inurba_marseille","lat":43.2862,"lon":5.35104,"is_reserved":false,"is_disabled":false,"rental_uris":{"android":"levelo://app?vid=d9676b1a-df49-429f-b317-1de61bb96597","ios":"levelo://app?vid=d9676b1a-df49-429f-b317-1de61bb96597"},"vehicle_type_id":"4","last_reported":1735999624,"current_range_meters":30000,"station_id":"ce4bhch2rcd13ifvqeug","pricing_plan_id":"cebpf4jnsgd1na2vs0mg"},{"bike_id":"ba5ab68c-4b35-427d-b6b3-1fa17b0c165a","system_id":"levelo_inurba_marseille","lat":43.25819,"lon":5.39434,"is_reserved":false,"is_disabled":false,"rental_uris":{"android":"levelo://app?vid=ba5ab68c-4b35-427d-b6b3-1fa17b0c165a","ios":"levelo://app?vid=ba5ab68c-4b35-427d-b6b3-1fa17b0c165a"},"vehicle_type_id":"4","last_reported":1735999624,"current_range_meters":38000,"station_id":"","pricing_plan_id":"cebpf4jnsgd1na2vs0mg"},{"bike_id":"e40b8873-a7cf-4e56-b106-d515344f64c4","system_id":"levelo_inurba_marseille","lat":43.26951,"lon":5.38641,"is_reserved":false,"is_disabled":false,"rental_uris":{"android":"levelo://app?vid=e40b8873-a7cf-4e56-b106-d515344f64c4","ios":"levelo://app?vid=e40b8873-a7cf-4e56-b106-d515344f64c4"},"vehicle_type_id":"4","last_reported":1735999624,"current_range_meters":38800,"station_id":"ce4bhh92rcd13ifvqfh0","pricing_plan_id":"cebpf4jnsgd1na2vs0mg"},{"bike_id":"bbf998ea-d252-4590-8711-16d78ff4b07c","system_id":"levelo_inurba_marseille","lat":43.24643,"lon":5.38893,"is_reserved":false,"is_disabled":false,"rental_uris":{"android":"levelo://app?vid=bbf998ea-d252-4590-8711-16d78ff4b07c","ios":"levelo://app?vid=bbf998ea-d252-4590-8711-16d78ff4b07c"},"vehicle_type_id":"4","last_reported":1735999624,"current_range_meters":38000,"station_id":"ce4bhg12rcd13ifvqf60","pricing_plan_id":"cebpf4jnsgd1na2vs0mg"},{"bike_id":"389bdb1e-ea49-4895-badb-508b5f5844e3","system_id":"levelo_inurba_marseille","lat":43.30143,"lon":5.38097,"is_reserved":false,"is_disabled":false,"rental_uris":{"android":"levelo://app?vid=389bdb1e-ea49-4895-badb-508b5f5844e3","ios":"levelo://app?vid=389bdb1e-ea49-4895-badb-508b5f5844e3"},"vehicle_type_id":"4","last_reported":1735999624,"current_range_meters":39200,"station_id":"ce4bgjp2rcd13ifvqbh0","pricing_plan_id":"cebpf4jnsgd1na2vs0mg"},{"bike_id":"af68d2e6-d7e3-4eb8-9cf5-37ac1985b5a3","system_id":"levelo_inurba_marseille","lat":43.23054,"lon":5.35501,"is_reserved":false,"is_disabled":false,"rental_uris":{"android":"levelo://app?vid=af68d2e6-d7e3-4eb8-9cf5-37ac1985b5a3","ios":"levelo://app?vid=af68d2e6-d7e3-4eb8-9cf5-37ac1985b5a3"},"vehicle_type_id":"4","last_reported":1735999624,"current_range_meters":22000,"station_id":"cpo3342slgdg3j2ifvpg","pricing_plan_id":"cebpf4jnsgd1na2vs0mg"},{"bike_id":"237ae11d-b71b-42e1-9189-06104c16c1c4","system_id":"levelo_inurba_marseille","lat":43.26563,"lon":5.37287,"is_reserved":false,"is_disabled":true,"rental_uris":{"android":"levelo://app?vid=237ae11d-b71b-42e1-9189-06104c16c1c4","ios":"levelo://app?vid=237ae11d-b71b-42e1-9189-06104c16c1c4"},"vehicle_type_id":"4","last_reported":1735999624,"current_range_meters":0,"station_id":"ce4bhg12rcd13ifvqf70","pricing_plan_id":"cebpf4jnsgd1na2vs0mg"},{"bike_id":"c76f010e-8b23-4840-a7a5-a9a5d3648fa3","system_id":"levelo_inurba_marseille","lat":43.30879,"lon":5.37197,"is_reserved":false,"is_disabled":true,"rental_uris":{"android":"levelo://app?vid=c76f010e-8b23-4840-a7a5-a9a5d3648fa3","ios":"levelo://app?vid=c76f010e-8b23-4840-a7a5-a9a5d3648fa3"},"vehicle_type_id":"4","last_reported":1735999624,"current_range_meters":8000,"station_id":"ce4bguh2rcd13ifvqckg","pricing_plan_id":"cebpf4jnsgd1na2vs0mg"},{"bike_id":"6f21fba1-6f8e-47c4-a476-286cca5f9cc6","system_id":"levelo_inurba_marseille","lat":43.28279,"lon":5.35075,"is_reserved":false,"is_disabled":true,"rental_uris":{"android":"levelo://app?vid=6f21fba1-6f8e-47c4-a476-286cca5f9cc6","ios":"levelo://app?vid=6f21fba1-6f8e-47c4-a476-286cca5f9cc6"},"vehicle_type_id":"4","last_reported":1735999624,"current_range_meters":2800,"station_id":"ce4bhbp2rcd13ifvqerg","pricing_plan_id":"cebpf4jnsgd1na2vs0mg"},{"bike_id":"09e64385-2ecb-4bb9-b546-a98347585cb3","system_id":"levelo_inurba_marseille","lat":43.30603,"lon":5.37262,"is_reserved":false,"is_disabled":false,"rental_uris":{"android":"levelo://app?vid=09e64385-2ecb-4bb9-b546-a98347585cb3","ios":"levelo://app?vid=09e64385-2ecb-4bb9-b546-a98347585cb3"},"vehicle_type_id":"4","last_reported":1735999624,"current_range_meters":39200,"station_id":"ce4bgqh2rcd13ifvqc4g","pricing_plan_id":"cebpf4jnsgd1na2vs0mg"},{"bike_id":"54135d47-65aa-4c9e-9a4e-94fd8a3cc9b3","system_id":"levelo_inurba_marseille","lat":43.29253,"lon":5.40905,"is_reserved":false,"is_disabled":false,"rental_uris":{"android":"levelo://app?vid=54135d47-65aa-4c9e-9a4e-94fd8a3cc9b3","ios":"levelo://app?vid=54135d47-65aa-4c9e-9a4e-94fd8a3cc9b3"},"vehicle_type_id":"4","last_reported":1735999624,"current_range_meters":34800,"station_id":"ce4bh192rcd13ifvqdc0","pricing_plan_id":"cebpf4jnsgd1na2vs0mg"},{"bike_id":"8a2871f5-9447-484d-9926-098aa750c257","system_id":"levelo_inurba_marseille","lat":43.28408,"lon":5.37523,"is_reserved":false,"is_disabled":false,"rental_uris":{"android":"levelo://app?vid=8a2871f5-9447-484d-9926-098aa750c257","ios":"levelo://app?vid=8a2871f5-9447-484d-9926-098aa750c257"},"vehicle_type_id":"4","last_reported":1735999624,"current_range_meters":20400,"station_id":"ce4bh412rcd13ifvqds0","pricing_plan_id":"cebpf4jnsgd1na2vs0mg"},{"bike_id":"1c02ae40-e43c-4632-b75b-2df9308dc3fe","system_id":"levelo_inurba_marseille","lat":43.33792,"lon":5.3743,"is_reserved":false,"is_disabled":false,"rental_uris":{"android":"levelo://app?vid=1c02ae40-e43c-4632-b75b-2df9308dc3fe","ios":"levelo://app?vid=1c02ae40-e43c-4632-b75b-2df9308dc3fe"},"vehicle_type_id":"4","last_reported":1735999624,"current_range_meters":14800,"station_id":"","pricing_plan_id":"cebpf4jnsgd1na2vs0mg"},{"bike_id":"a6b7101f-e04b-40af-9e04-99a5baa621ab","system_id":"levelo_inurba_marseille","lat":43.29798,"lon":5.38089,"is_reserved":false,"is_disabled":false,"rental_uris":{"android":"levelo://app?vid=a6b7101f-e04b-40af-9e04-99a5baa621ab","ios":"levelo://app?vid=a6b7101f-e04b-40af-9e04-99a5baa621ab"},"vehicle_type_id":"4","last_reported":1735999624,"current_range_meters":38800,"station_id":"ce4bgip2rcd13ifvqbb0","pricing_plan_id":"cebpf4jnsgd1na2vs0mg"},{"bike_id":"407e1449-b9a4-4884-9ac7-2e9e0ce80329","system_id":"levelo_inurba_marseille","lat":43.30136,"lon":5.38774,"is_reserved":false,"is_disabled":false,"rental_uris":{"android":"levelo://app?vid=407e1449-b9a4-4884-9ac7-2e9e0ce80329","ios":"levelo://app?vid=407e1449-b9a4-4884-9ac7-2e9e0ce80329"},"vehicle_type_id":"4","last_reported":1735999624,"current_range_meters":33200,"station_id":"ce4bhoh2rcd13ifvqh6g","pricing_plan_id":"cebpf4jnsgd1na2vs0mg"},{"bike_id":"5bb39a5f-0e60-4289-b354-9ab3b5551088","system_id":"levelo_inurba_marseille","lat":43.28935,"lon":5.36634,"is_reserved":false,"is_disabled":false,"rental_uris":{"android":"levelo://app?vid=5bb39a5f-0e60-4289-b354-9ab3b5551088","ios":"levelo://app?vid=5bb39a5f-0e60-4289-b354-9ab3b5551088"},"vehicle_type_id":"4","last_reported":1735999624,"current_range_meters":11600,"station_id":"ce4bhap2rcd13ifvqek0","pricing_plan_id":"cebpf4jnsgd1na2vs0mg"},{"bike_id":"e6464149-b68b-48d7-9417-ac28b0f59970","system_id":"levelo_inurba_marseille","lat":43.30134,"lon":5.37423,"is_reserved":false,"is_disabled":false,"rental_uris":{"android":"levelo://app?vid=e6464149-b68b-48d7-9417-ac28b0f59970","ios":"levelo://app?vid=e6464149-b68b-48d7-9417-ac28b0f59970"},"vehicle_type_id":"4","last_reported":1735999624,"current_range_meters":18000,"station_id":"ce4bgs92rcd13ifvqcc0","pricing_plan_id":"cebpf4jnsgd1na2vs0mg"},{"bike_id":"3e23a9c4-a189-4c42-b8b2-ca789ab48c8a","system_id":"levelo_inurba_marseille","lat":43.29791,"lon":5.37109,"is_reserved":false,"is_disabled":false,"rental_uris":{"android":"levelo://app?vid=3e23a9c4-a189-4c42-b8b2-ca789ab48c8a","ios":"levelo://app?vid=3e23a9c4-a189-4c42-b8b2-ca789ab48c8a"},"vehicle_type_id":"4","last_reported":1735999624,"current_range_meters":36800,"station_id":"ce4bgop2rcd13ifvqc1g","pricing_plan_id":"cebpf4jnsgd1na2vs0mg"},{"bike_id":"262b0d7a-b83b-40f1-bc54-810a9a289441","system_id":"levelo_inurba_marseille","lat":43.29194,"lon":5.35816,"is_reserved":false,"is_disabled":false,"rental_uris":{"android":"levelo://app?vid=262b0d7a-b83b-40f1-bc54-810a9a289441","ios":"levelo://app?vid=262b0d7a-b83b-40f1-bc54-810a9a289441"},"vehicle_type_id":"4","last_reported":1735999624,"current_range_meters":39200,"station_id":"ce4bhb12rcd13ifvqel0","pricing_plan_id":"cebpf4jnsgd1na2vs0mg"},{"bike_id":"85cba0a3-d6ec-4723-83bf-95316674cece","system_id":"levelo_inurba_marseille","lat":43.27566,"lon":5.38416,"is_reserved":false,"is_disabled":true,"rental_uris":{"android":"levelo://app?vid=85cba0a3-d6ec-4723-83bf-95316674cece","ios":"levelo://app?vid=85cba0a3-d6ec-4723-83bf-95316674cece"},"vehicle_type_id":"4","last_reported":1735999624,"current_range_meters":6400,"station_id":"ce4bhh92rcd13ifvqfi0","pricing_plan_id":"cebpf4jnsgd1na2vs0mg"},{"bike_id":"d5355d3d-6620-4d8e-801e-d620f116c682","system_id":"levelo_inurba_marseille","lat":43.23063,"lon":5.35496,"is_reserved":false,"is_disabled":false,"rental_uris":{"android":"levelo://app?vid=d5355d3d-6620-4d8e-801e-d620f116c682","ios":"levelo://app?vid=d5355d3d-6620-4d8e-801e-d620f116c682"},"vehicle_type_id":"4","last_reported":1735999624,"current_range_meters":19200,"station_id":"cpo3342slgdg3j2ifvpg","pricing_plan_id":"cebpf4jnsgd1na2vs0mg"},{"bike_id":"ad35291b-d7c6-4ad4-b02c-5969e2327226","system_id":"levelo_inurba_marseille","lat":43.23067,"lon":5.35489,"is_reserved":false,"is_disabled":false,"rental_uris":{"android":"levelo://app?vid=ad35291b-d7c6-4ad4-b02c-5969e2327226","ios":"levelo://app?vid=ad35291b-d7c6-4ad4-b02c-5969e2327226"},"vehicle_type_id":"4","last_reported":1735999624,"current_range_meters":22800,"station_id":"cpo3342slgdg3j2ifvpg","pricing_plan_id":"cebpf4jnsgd1na2vs0mg"},{"bike_id":"266d97a0-8b6a-4815-8e1e-a29e516886ab","system_id":"levelo_inurba_marseille","lat":43.32348,"lon":5.36728,"is_reserved":false,"is_disabled":false,"rental_uris":{"android":"levelo://app?vid=266d97a0-8b6a-4815-8e1e-a29e516886ab","ios":"levelo://app?vid=266d97a0-8b6a-4815-8e1e-a29e516886ab"},"vehicle_type_id":"4","last_reported":1735999624,"current_range_meters":36800,"station_id":"ce4bhsh2rcd13ifvqi2g","pricing_plan_id":"cebpf4jnsgd1na2vs0mg"},{"bike_id":"c0b78921-4f27-4b02-94ac-84aeb68ca5f0","system_id":"levelo_inurba_marseille","lat":43.26216,"lon":5.37448,"is_reserved":false,"is_disabled":false,"rental_uris":{"android":"levelo://app?vid=c0b78921-4f27-4b02-94ac-84aeb68ca5f0","ios":"levelo://app?vid=c0b78921-4f27-4b02-94ac-84aeb68ca5f0"},"vehicle_type_id":"4","last_reported":1735999624,"current_range_meters":31200,"station_id":"ce4bhgp2rcd13ifvqfc0","pricing_plan_id":"cebpf4jnsgd1na2vs0mg"},{"bike_id":"8f9da9fa-b956-44b8-b5b7-034bf642c2f3","system_id":"levelo_inurba_marseille","lat":43.2607,"lon":5.39402,"is_reserved":false,"is_disabled":false,"rental_uris":{"android":"levelo://app?vid=8f9da9fa-b956-44b8-b5b7-034bf642c2f3","ios":"levelo://app?vid=8f9da9fa-b956-44b8-b5b7-034bf642c2f3"},"vehicle_type_id":"4","last_reported":1735999624,"current_range_meters":38400,"station_id":"ce4bhh92rcd13ifvqfj0","pricing_plan_id":"cebpf4jnsgd1na2vs0mg"},{"bike_id":"aae89e09-8b9f-4a14-a6c8-0248a1bbe357","system_id":"levelo_inurba_marseille","lat":43.28412,"lon":5.37518,"is_reserved":false,"is_disabled":false,"rental_uris":{"android":"levelo://app?vid=aae89e09-8b9f-4a14-a6c8-0248a1bbe357","ios":"levelo://app?vid=aae89e09-8b9f-4a14-a6c8-0248a1bbe357"},"vehicle_type_id":"4","last_reported":1735999624,"current_range_meters":38400,"station_id":"ce4bh412rcd13ifvqds0","pricing_plan_id":"cebpf4jnsgd1na2vs0mg"},{"bike_id":"ca8e58db-b6e8-4692-b85e-375da7a32dc2","system_id":"levelo_inurba_marseille","lat":43.29565,"lon":5.37506,"is_reserved":false,"is_disabled":false,"rental_uris":{"android":"levelo://app?vid=ca8e58db-b6e8-4692-b85e-375da7a32dc2","ios":"levelo://app?vid=ca8e58db-b6e8-4692-b85e-375da7a32dc2"},"vehicle_type_id":"4","last_reported":1735999624,"current_range_meters":38000,"station_id":"ce4bgh92rcd13ifvqb50","pricing_plan_id":"cebpf4jnsgd1na2vs0mg"},{"bike_id":"ebd980d5-1c46-4437-8d53-e77aaca60142","system_id":"levelo_inurba_marseille","lat":43.27798,"lon":5.40727,"is_reserved":false,"is_disabled":false,"rental_uris":{"android":"levelo://app?vid=ebd980d5-1c46-4437-8d53-e77aaca60142","ios":"levelo://app?vid=ebd980d5-1c46-4437-8d53-e77aaca60142"},"vehicle_type_id":"4","last_reported":1735999624,"current_range_meters":4000,"station_id":"ce4bhnh2rcd13ifvqgtg","pricing_plan_id":"cebpf4jnsgd1na2vs0mg"},{"bike_id":"48dab017-3f42-472f-871a-513ce2bb3aac","system_id":"levelo_inurba_marseille","lat":43.2315,"lon":5.43719,"is_reserved":false,"is_disabled":false,"rental_uris":{"android":"levelo://app?vid=48dab017-3f42-472f-871a-513ce2bb3aac","ios":"levelo://app?vid=48dab017-3f42-472f-871a-513ce2bb3aac"},"vehicle_type_id":"4","last_reported":1735999624,"current_range_meters":39200,"station_id":"ce4bhmp2rcd13ifvqgog","pricing_plan_id":"cebpf4jnsgd1na2vs0mg"},{"bike_id":"4933aa85-174f-4619-b884-90d047cff55f","system_id":"levelo_inurba_marseille","lat":43.28002,"lon":5.40011,"is_reserved":false,"is_disabled":false,"rental_uris":{"android":"levelo://app?vid=4933aa85-174f-4619-b884-90d047cff55f","ios":"levelo://app?vid=4933aa85-174f-4619-b884-90d047cff55f"},"vehicle_type_id":"4","last_reported":1735999624,"current_range_meters":28800,"station_id":"ce4bho92rcd13ifvqh4g","pricing_plan_id":"cebpf4jnsgd1na2vs0mg"},{"bike_id":"c419512d-089a-4e3a-8724-1b15f68ece37","system_id":"levelo_inurba_marseille","lat":43.29793,"lon":5.37139,"is_reserved":false,"is_disabled":false,"rental_uris":{"android":"levelo://app?vid=c419512d-089a-4e3a-8724-1b15f68ece37","ios":"levelo://app?vid=c419512d-089a-4e3a-8724-1b15f68ece37"},"vehicle_type_id":"4","last_reported":1735999624,"current_range_meters":39200,"station_id":"ce4bgop2rcd13ifvqc1g","pricing_plan_id":"cebpf4jnsgd1na2vs0mg"},{"bike_id":"d014f699-d84d-436b-b3bf-8c059d18ea89","system_id":"levelo_inurba_marseille","lat":43.229241,"lon":5.35381,"is_reserved":false,"is_disabled":false,"rental_uris":{"android":"levelo://app?vid=d014f699-d84d-436b-b3bf-8c059d18ea89","ios":"levelo://app?vid=d014f699-d84d-436b-b3bf-8c059d18ea89"},"vehicle_type_id":"4","last_reported":1735999624,"current_range_meters":22400,"station_id":"cpo3532slgdg3j2ikp40","pricing_plan_id":"cebpf4jnsgd1na2vs0mg"},{"bike_id":"ed220ff8-6336-4701-9cea-83bb43e779f8","system_id":"levelo_inurba_marseille","lat":43.30124,"lon":5.37438,"is_reserved":false,"is_disabled":false,"rental_uris":{"android":"levelo://app?vid=ed220ff8-6336-4701-9cea-83bb43e779f8","ios":"levelo://app?vid=ed220ff8-6336-4701-9cea-83bb43e779f8"},"vehicle_type_id":"4","last_reported":1735999624,"current_range_meters":38800,"station_id":"ce4bgs92rcd13ifvqcc0","pricing_plan_id":"cebpf4jnsgd1na2vs0mg"},{"bike_id":"b640590a-ed23-436f-a32c-abba348d8dea","system_id":"levelo_inurba_marseille","lat":43.25,"lon":5.38933,"is_reserved":false,"is_disabled":false,"rental_uris":{"android":"levelo://app?vid=b640590a-ed23-436f-a32c-abba348d8dea","ios":"levelo://app?vid=b640590a-ed23-436f-a32c-abba348d8dea"},"vehicle_type_id":"4","last_reported":1735999624,"current_range_meters":17600,"station_id":"ce4bhgp2rcd13ifvqfd0","pricing_plan_id":"cebpf4jnsgd1na2vs0mg"},{"bike_id":"6e3b5ef2-e422-4e08-a06f-b762de751b01","system_id":"levelo_inurba_marseille","lat":43.29531,"lon":5.39046,"is_reserved":false,"is_disabled":false,"rental_uris":{"android":"levelo://app?vid=6e3b5ef2-e422-4e08-a06f-b762de751b01","ios":"levelo://app?vid=6e3b5ef2-e422-4e08-a06f-b762de751b01"},"vehicle_type_id":"4","last_reported":1735999624,"current_range_meters":37600,"station_id":"ce4bh3p2rcd13ifvqdp0","pricing_plan_id":"cebpf4jnsgd1na2vs0mg"},{"bike_id":"c14d1989-a72f-4241-a582-39661d0bcfcf","system_id":"levelo_inurba_marseille","lat":43.2319,"lon":5.3555,"is_reserved":false,"is_disabled":false,"rental_uris":{"android":"levelo://app?vid=c14d1989-a72f-4241-a582-39661d0bcfcf","ios":"levelo://app?vid=c14d1989-a72f-4241-a582-39661d0bcfcf"},"vehicle_type_id":"4","last_reported":1735999624,"current_range_meters":39200,"station_id":"ce4bhu92rcd13ifvqi70","pricing_plan_id":"cebpf4jnsgd1na2vs0mg"},{"bike_id":"ef72cdb4-465d-4178-b952-49906f159c48","system_id":"levelo_inurba_marseille","lat":43.28141,"lon":5.42639,"is_reserved":false,"is_disabled":false,"rental_uris":{"android":"levelo://app?vid=ef72cdb4-465d-4178-b952-49906f159c48","ios":"levelo://app?vid=ef72cdb4-465d-4178-b952-49906f159c48"},"vehicle_type_id":"4","last_reported":1735999624,"current_range_meters":16000,"station_id":"ce4bhnh2rcd13ifvqgug","pricing_plan_id":"cebpf4jnsgd1na2vs0mg"},{"bike_id":"a2fd8310-05b2-4353-a822-b449cc0178c4","system_id":"levelo_inurba_marseille","lat":43.25486,"lon":5.37661,"is_reserved":false,"is_disabled":false,"rental_uris":{"android":"levelo://app?vid=a2fd8310-05b2-4353-a822-b449cc0178c4","ios":"levelo://app?vid=a2fd8310-05b2-4353-a822-b449cc0178c4"},"vehicle_type_id":"4","last_reported":1735999624,"current_range_meters":7200,"station_id":"ce4bhh12rcd13ifvqff0","pricing_plan_id":"cebpf4jnsgd1na2vs0mg"},{"bike_id":"dcc0b884-c4cf-4e8c-9df1-d2bea2790310","system_id":"levelo_inurba_marseille","lat":43.30918,"lon":5.3685,"is_reserved":false,"is_disabled":false,"rental_uris":{"android":"levelo://app?vid=dcc0b884-c4cf-4e8c-9df1-d2bea2790310","ios":"levelo://app?vid=dcc0b884-c4cf-4e8c-9df1-d2bea2790310"},"vehicle_type_id":"4","last_reported":1735999624,"current_range_meters":38800,"station_id":"ce4bgn92rcd13ifvqbvg","pricing_plan_id":"cebpf4jnsgd1na2vs0mg"},{"bike_id":"7bbed7be-28f4-4cc7-81bb-977c0d79552f","system_id":"levelo_inurba_marseille","lat":43.23063,"lon":5.35491,"is_reserved":false,"is_disabled":false,"rental_uris":{"android":"levelo://app?vid=7bbed7be-28f4-4cc7-81bb-977c0d79552f","ios":"levelo://app?vid=7bbed7be-28f4-4cc7-81bb-977c0d79552f"},"vehicle_type_id":"4","last_reported":1735999624,"current_range_meters":17600,"station_id":"cpo3342slgdg3j2ifvpg","pricing_plan_id":"cebpf4jnsgd1na2vs0mg"},{"bike_id":"e2233560-fb3a-4a9b-af59-d8a2e34abf16","system_id":"levelo_inurba_marseille","lat":43.29284,"lon":5.3743,"is_reserved":false,"is_disabled":false,"rental_uris":{"android":"levelo://app?vid=e2233560-fb3a-4a9b-af59-d8a2e34abf16","ios":"levelo://app?vid=e2233560-fb3a-4a9b-af59-d8a2e34abf16"},"vehicle_type_id":"4","last_reported":1735999624,"current_range_meters":38800,"station_id":"ce4bgi12rcd13ifvqb70","pricing_plan_id":"cebpf4jnsgd1na2vs0mg"},{"bike_id":"1c842210-d12e-42a8-8c58-4fd168270ebe","system_id":"levelo_inurba_marseille","lat":43.28005,"lon":5.40012,"is_reserved":false,"is_disabled":false,"rental_uris":{"android":"levelo://app?vid=1c842210-d12e-42a8-8c58-4fd168270ebe","ios":"levelo://app?vid=1c842210-d12e-42a8-8c58-4fd168270ebe"},"vehicle_type_id":"4","last_reported":1735999624,"current_range_meters":36800,"station_id":"ce4bho92rcd13ifvqh4g","pricing_plan_id":"cebpf4jnsgd1na2vs0mg"},{"bike_id":"78e5852e-eb6c-4077-a653-d1c1899f54bd","system_id":"levelo_inurba_marseille","lat":43.27945,"lon":5.38719,"is_reserved":false,"is_disabled":false,"rental_uris":{"android":"levelo://app?vid=78e5852e-eb6c-4077-a653-d1c1899f54bd","ios":"levelo://app?vid=78e5852e-eb6c-4077-a653-d1c1899f54bd"},"vehicle_type_id":"4","last_reported":1735999624,"current_range_meters":38800,"station_id":"ce4bhg12rcd13ifvqf80","pricing_plan_id":"cebpf4jnsgd1na2vs0mg"},{"bike_id":"2bb35dbb-6b8f-4c69-9e3e-b28d7c30ca54","system_id":"levelo_inurba_marseille","lat":43.24397,"lon":5.3707,"is_reserved":false,"is_disabled":false,"rental_uris":{"android":"levelo://app?vid=2bb35dbb-6b8f-4c69-9e3e-b28d7c30ca54","ios":"levelo://app?vid=2bb35dbb-6b8f-4c69-9e3e-b28d7c30ca54"},"vehicle_type_id":"4","last_reported":1735999624,"current_range_meters":25600,"station_id":"ce4bhhh2rcd13ifvqfk0","pricing_plan_id":"cebpf4jnsgd1na2vs0mg"},{"bike_id":"c29f2178-f6c3-449c-a3c8-a6d81051291a","system_id":"levelo_inurba_marseille","lat":43.25009,"lon":5.38992,"is_reserved":false,"is_disabled":false,"rental_uris":{"android":"levelo://app?vid=c29f2178-f6c3-449c-a3c8-a6d81051291a","ios":"levelo://app?vid=c29f2178-f6c3-449c-a3c8-a6d81051291a"},"vehicle_type_id":"4","last_reported":1735999624,"current_range_meters":10000,"station_id":"ce4bhgp2rcd13ifvqfd0","pricing_plan_id":"cebpf4jnsgd1na2vs0mg"},{"bike_id":"b910d036-4f36-43f2-97ee-b97d117e01b7","system_id":"levelo_inurba_marseille","lat":43.29929,"lon":5.36562,"is_reserved":false,"is_disabled":false,"rental_uris":{"android":"levelo://app?vid=b910d036-4f36-43f2-97ee-b97d117e01b7","ios":"levelo://app?vid=b910d036-4f36-43f2-97ee-b97d117e01b7"},"vehicle_type_id":"4","last_reported":1735999624,"current_range_meters":28800,"station_id":"ce4bgm92rcd13ifvqbr0","pricing_plan_id":"cebpf4jnsgd1na2vs0mg"},{"bike_id":"f1d87bf5-3985-43c2-9fde-b818f1e41c2b","system_id":"levelo_inurba_marseille","lat":43.26038,"lon":5.37554,"is_reserved":false,"is_disabled":false,"rental_uris":{"android":"levelo://app?vid=f1d87bf5-3985-43c2-9fde-b818f1e41c2b","ios":"levelo://app?vid=f1d87bf5-3985-43c2-9fde-b818f1e41c2b"},"vehicle_type_id":"4","last_reported":1735999624,"current_range_meters":38800,"station_id":"ce4bhgh2rcd13ifvqfa0","pricing_plan_id":"cebpf4jnsgd1na2vs0mg"},{"bike_id":"5b9cfd0f-856f-485e-a0d3-f8ef6a7bcd11","system_id":"levelo_inurba_marseille","lat":43.29979,"lon":5.38503,"is_reserved":false,"is_disabled":false,"rental_uris":{"android":"levelo://app?vid=5b9cfd0f-856f-485e-a0d3-f8ef6a7bcd11","ios":"levelo://app?vid=5b9cfd0f-856f-485e-a0d3-f8ef6a7bcd11"},"vehicle_type_id":"4","last_reported":1735999624,"current_range_meters":17200,"station_id":"ce4bgj92rcd13ifvqbd0","pricing_plan_id":"cebpf4jnsgd1na2vs0mg"},{"bike_id":"72fb818d-6104-474f-9ad4-c7c0ee29d3b9","system_id":"levelo_inurba_marseille","lat":43.29541,"lon":5.3752,"is_reserved":false,"is_disabled":false,"rental_uris":{"android":"levelo://app?vid=72fb818d-6104-474f-9ad4-c7c0ee29d3b9","ios":"levelo://app?vid=72fb818d-6104-474f-9ad4-c7c0ee29d3b9"},"vehicle_type_id":"4","last_reported":1735999624,"current_range_meters":22000,"station_id":"ce4bgh92rcd13ifvqb50","pricing_plan_id":"cebpf4jnsgd1na2vs0mg"},{"bike_id":"aa8e5f9d-acf7-48fa-83a1-28e496381ebe","system_id":"levelo_inurba_marseille","lat":43.28399,"lon":5.37529,"is_reserved":false,"is_disabled":false,"rental_uris":{"android":"levelo://app?vid=aa8e5f9d-acf7-48fa-83a1-28e496381ebe","ios":"levelo://app?vid=aa8e5f9d-acf7-48fa-83a1-28e496381ebe"},"vehicle_type_id":"4","last_reported":1735999624,"current_range_meters":31200,"station_id":"ce4bh412rcd13ifvqds0","pricing_plan_id":"cebpf4jnsgd1na2vs0mg"},{"bike_id":"f54637a1-6f83-4ea8-958b-89918f832206","system_id":"levelo_inurba_marseille","lat":43.28036,"lon":5.36944,"is_reserved":false,"is_disabled":false,"rental_uris":{"android":"levelo://app?vid=f54637a1-6f83-4ea8-958b-89918f832206","ios":"levelo://app?vid=f54637a1-6f83-4ea8-958b-89918f832206"},"vehicle_type_id":"4","last_reported":1735999624,"current_range_meters":12400,"station_id":"ce4bha12rcd13ifvqef0","pricing_plan_id":"cebpf4jnsgd1na2vs0mg"},{"bike_id":"0da846be-cff0-45fd-927a-35db178c95b2","system_id":"levelo_inurba_marseille","lat":43.3206,"lon":5.41581,"is_reserved":false,"is_disabled":false,"rental_uris":{"android":"levelo://app?vid=0da846be-cff0-45fd-927a-35db178c95b2","ios":"levelo://app?vid=0da846be-cff0-45fd-927a-35db178c95b2"},"vehicle_type_id":"4","last_reported":1735999624,"current_range_meters":36000,"station_id":"ce4bhq92rcd13ifvqhkg","pricing_plan_id":"cebpf4jnsgd1na2vs0mg"},{"bike_id":"9ec29578-84c7-4baa-ac89-2d354db3b4dc","system_id":"levelo_inurba_marseille","lat":43.27207,"lon":5.39178,"is_reserved":false,"is_disabled":false,"rental_uris":{"android":"levelo://app?vid=9ec29578-84c7-4baa-ac89-2d354db3b4dc","ios":"levelo://app?vid=9ec29578-84c7-4baa-ac89-2d354db3b4dc"},"vehicle_type_id":"4","last_reported":1735999624,"current_range_meters":20000,"station_id":"ce4bhhp2rcd13ifvqfm0","pricing_plan_id":"cebpf4jnsgd1na2vs0mg"},{"bike_id":"2fa1698b-acf2-43e1-9291-74d4434cf6c1","system_id":"levelo_inurba_marseille","lat":43.29039,"lon":5.37563,"is_reserved":false,"is_disabled":false,"rental_uris":{"android":"levelo://app?vid=2fa1698b-acf2-43e1-9291-74d4434cf6c1","ios":"levelo://app?vid=2fa1698b-acf2-43e1-9291-74d4434cf6c1"},"vehicle_type_id":"4","last_reported":1735999624,"current_range_meters":15200,"station_id":"ce4bh692rcd13ifvqe90","pricing_plan_id":"cebpf4jnsgd1na2vs0mg"},{"bike_id":"f94b7bd2-f6c9-40e1-aed0-fa17d1493a86","system_id":"levelo_inurba_marseille","lat":43.28401,"lon":5.37547,"is_reserved":false,"is_disabled":false,"rental_uris":{"android":"levelo://app?vid=f94b7bd2-f6c9-40e1-aed0-fa17d1493a86","ios":"levelo://app?vid=f94b7bd2-f6c9-40e1-aed0-fa17d1493a86"},"vehicle_type_id":"4","last_reported":1735999624,"current_range_meters":38000,"station_id":"ce4bh412rcd13ifvqds0","pricing_plan_id":"cebpf4jnsgd1na2vs0mg"},{"bike_id":"a3568aab-1d34-4bdf-8c0c-ec81886f6177","system_id":"levelo_inurba_marseille","lat":43.33752,"lon":5.37413,"is_reserved":false,"is_disabled":true,"rental_uris":{"android":"levelo://app?vid=a3568aab-1d34-4bdf-8c0c-ec81886f6177","ios":"levelo://app?vid=a3568aab-1d34-4bdf-8c0c-ec81886f6177"},"vehicle_type_id":"4","last_reported":1735999624,"current_range_meters":14400,"station_id":"","pricing_plan_id":"cebpf4jnsgd1na2vs0mg"},{"bike_id":"0222f72a-3e00-4cba-ab38-0d0686516ab0","system_id":"levelo_inurba_marseille","lat":43.26555,"lon":5.37287,"is_reserved":false,"is_disabled":false,"rental_uris":{"android":"levelo://app?vid=0222f72a-3e00-4cba-ab38-0d0686516ab0","ios":"levelo://app?vid=0222f72a-3e00-4cba-ab38-0d0686516ab0"},"vehicle_type_id":"4","last_reported":1735999624,"current_range_meters":24400,"station_id":"ce4bhg12rcd13ifvqf70","pricing_plan_id":"cebpf4jnsgd1na2vs0mg"},{"bike_id":"32e5156a-5826-4ab4-83b1-e6619161b1c8","system_id":"levelo_inurba_marseille","lat":43.337444,"lon":5.374475,"is_reserved":false,"is_disabled":true,"rental_uris":{"android":"levelo://app?vid=32e5156a-5826-4ab4-83b1-e6619161b1c8","ios":"levelo://app?vid=32e5156a-5826-4ab4-83b1-e6619161b1c8"},"vehicle_type_id":"4","last_reported":1735999624,"current_range_meters":24400,"station_id":"","pricing_plan_id":"cebpf4jnsgd1na2vs0mg"},{"bike_id":"3ac1ea92-2c4e-40f3-b354-f23792fe4126","system_id":"levelo_inurba_marseille","lat":43.25818,"lon":5.39437,"is_reserved":false,"is_disabled":false,"rental_uris":{"android":"levelo://app?vid=3ac1ea92-2c4e-40f3-b354-f23792fe4126","ios":"levelo://app?vid=3ac1ea92-2c4e-40f3-b354-f23792fe4126"},"vehicle_type_id":"4","last_reported":1735999624,"current_range_meters":38800,"station_id":"ce4bhip2rcd13ifvqft0","pricing_plan_id":"cebpf4jnsgd1na2vs0mg"},{"bike_id":"f3360904-b204-4a1d-8d5b-06e1b4c2846f","system_id":"levelo_inurba_marseille","lat":43.24663,"lon":5.38171,"is_reserved":false,"is_disabled":false,"rental_uris":{"android":"levelo://app?vid=f3360904-b204-4a1d-8d5b-06e1b4c2846f","ios":"levelo://app?vid=f3360904-b204-4a1d-8d5b-06e1b4c2846f"},"vehicle_type_id":"4","last_reported":1735999624,"current_range_meters":10800,"station_id":"ce4bhih2rcd13ifvqfr0","pricing_plan_id":"cebpf4jnsgd1na2vs0mg"},{"bike_id":"fae815f8-3a22-422d-86b5-5e9defb49b3e","system_id":"levelo_inurba_marseille","lat":43.29806,"lon":5.38094,"is_reserved":false,"is_disabled":false,"rental_uris":{"android":"levelo://app?vid=fae815f8-3a22-422d-86b5-5e9defb49b3e","ios":"levelo://app?vid=fae815f8-3a22-422d-86b5-5e9defb49b3e"},"vehicle_type_id":"4","last_reported":1735999624,"current_range_meters":38400,"station_id":"ce4bgip2rcd13ifvqbb0","pricing_plan_id":"cebpf4jnsgd1na2vs0mg"},{"bike_id":"324d00bf-097a-441b-bc01-ee4e51f84190","system_id":"levelo_inurba_marseille","lat":43.30209,"lon":5.39464,"is_reserved":false,"is_disabled":false,"rental_uris":{"android":"levelo://app?vid=324d00bf-097a-441b-bc01-ee4e51f84190","ios":"levelo://app?vid=324d00bf-097a-441b-bc01-ee4e51f84190"},"vehicle_type_id":"4","last_reported":1735999624,"current_range_meters":3600,"station_id":"ce4bh0p2rcd13ifvqd70","pricing_plan_id":"cebpf4jnsgd1na2vs0mg"},