{"last_updated":1758791450,"ttl":60,"version":"2.2","data":{"bikes":[{"bike_id":"273d6339-9ea8-4824-bf70-8d6565e53581","system_id":"levelo_inurba_marseille","lat":43.28971,"lon":5.37839,"is_reserved":false,"is_disabled":true,"rental_uris":{"android":"levelo://app?vid=273d6339-9ea8-4824-bf70-8d6565e53581","ios":"levelo://app?vid=273d6339-9ea8-4824-bf70-8d6565e53581"},"vehicle_type_id":"4","last_reported":1758791450,"current_range_meters":2800,"station_id":"ce4bh9p2rcd13ifvqed0","pricing_plan_id":"cebpf4jnsgd1na2vs0mg"},{"bike_id":"6bd9fd41-42e6-40eb-80d6-6cb44b9adc78","system_id":"levelo_inurba_marseille","lat":43.3137,"lon":5.36685,"is_reserved":false,"is_disabled":false,"rental_uris":{"android":"levelo://app?vid=6bd9fd41-42e6-40eb-80d6-6cb44b9adc78","ios":"levelo://app?vid=6bd9fd41-42e6-40eb-80d6-6cb44b9adc78"},"vehicle_type_id":"4","last_reported":1758791450,"current_range_meters":2800,"station_id":"ce4bgr92rcd13ifvqc6g","pricing_plan_id":"cebpf4jnsgd1na2vs0mg"},{"bike_id":"c0e09fcd-6eb3-4487-95c6-c6f132f39de3","system_id":"levelo_inurba_marseille","lat":43.22553,"lon":5.34841,"is_reserved":false,"is_disabled":false,"rental_uris":{"android":"levelo://app?vid=c0e09fcd-6eb3-4487-95c6-c6f132f39de3","ios":"levelo://app?vid=c0e09fcd-6eb3-4487-95c6-c6f132f39de3"},"vehicle_type_id":"4","last_reported":1758791450,"current_range_meters":3200,"station_id":"","pricing_plan_id":"cebpf4jnsgd1na2vs0mg"},{"bike_id":"e2010205-ebbe-4618-a7b1-39ceb9000f95","system_id":"levelo_inurba_marseille","lat":43.26029,"lon":5.37549,"is_reserved":false,"is_disabled":false,"rental_uris":{"android":"levelo://app?vid=e2010205-ebbe-4618-a7b1-39ceb9000f95","ios":"levelo://app?vid=e2010205-ebbe-4618-a7b1-39ceb9000f95"},"vehicle_type_id":"4","last_reported":1758791450,"current_range_meters":3200,"station_id":"ce4bhgh2rcd13ifvqfa0","pricing_plan_id":"cebpf4jnsgd1na2vs0mg"},{"bike_id":"de4c7667-b3ce-4824-861d-5a0cd7f29e7a","system_id":"levelo_inurba_marseille","lat":43.29042,"lon":5.39949,"is_reserved":false,"is_disabled":false,"rental_uris":{"android":"levelo://app?vid=de4c7667-b3ce-4824-861d-5a0cd7f29e7a","ios":"levelo://app?vid=de4c7667-b3ce-4824-861d-5a0cd7f29e7a"},"vehicle_type_id":"4","last_reported":1758791450,"current_range_meters":3200,"station_id":"ce4bh392rcd13ifvqdm0","pricing_plan_id":"cebpf4jnsgd1na2vs0mg"},{"bike_id":"c0773442-0883-4712-b5be-f539c0525bce","system_id":"levelo_inurba_marseille","lat":43.29191,"lon":5.39326,"is_reserved":false,"is_disabled":false,"rental_uris":{"android":"levelo://app?vid=c0773442-0883-4712-b5be-f539c0525bce","ios":"levelo://app?vid=c0773442-0883-4712-b5be-f539c0525bce"},"vehicle_type_id":"4","last_reported":1758791450,"current_range_meters":3200,"station_id":"ce4bh192rcd13ifvqdd0","pricing_plan_id":"cebpf4jnsgd1na2vs0mg"},{"bike_id":"344762c3-6480-47a8-8bce-a93897e6e0ee","system_id":"levelo_inurba_marseille","lat":43.27374,"lon":5.36255,"is_reserved":false,"is_disabled":false,"rental_uris":{"android":"levelo://app?vid=344762c3-6480-47a8-8bce-a93897e6e0ee","ios":"levelo://app?vid=344762c3-6480-47a8-8bce-a93897e6e0ee"},"vehicle_type_id":"4","last_reported":1758791450,"current_range_meters":4000,"station_id":"ce4bhbh2rcd13ifvqeo0","pricing_plan_id":"cebpf4jnsgd1na2vs0mg"},{"bike_id":"1efddf8d-578f-4e4c-8c3f-e3a8bd592ba4","system_id":"levelo_inurba_marseille","lat":43.29965,"lon":5.37378,"is_reserved":false,"is_disabled":false,"rental_uris":{"android":"levelo://app?vid=1efddf8d-578f-4e4c-8c3f-e3a8bd592ba4","ios":"levelo://app?vid=1efddf8d-578f-4e4c-8c3f-e3a8bd592ba4"},"vehicle_type_id":"4","last_reported":1758791450,"current_range_meters":4400,"station_id":"","pricing_plan_id":"cebpf4jnsgd1na2vs0mg"},{"bike_id":"9562dade-af51-4d82-b31b-4fc0f0cc451d","system_id":"levelo_inurba_marseille","lat":43.27281,"lon":5.39107,"is_reserved":false,"is_disabled":false,"rental_uris":{"android":"levelo://app?vid=9562dade-af51-4d82-b31b-4fc0f0cc451d","ios":"levelo://app?vid=9562dade-af51-4d82-b31b-4fc0f0cc451d"},"vehicle_type_id":"4","last_reported":1758791450,"current_range_meters":4400,"station_id":"ce4bhgp2rcd13ifvqfe0","pricing_plan_id":"cebpf4jnsgd1na2vs0mg"},{"bike_id":"f871a54b-3203-4bde-9d24-2270419f092d","system_id":"levelo_inurba_marseille","lat":43.30933,"lon":5.40144,"is_reserved":false,"is_disabled":false,"rental_uris":{"android":"levelo://app?vid=f871a54b-3203-4bde-9d24-2270419f092d","ios":"levelo://app?vid=f871a54b-3203-4bde-9d24-2270419f092d"},"vehicle_type_id":"4","last_reported":1758791450,"current_range_meters":4800,"station_id":"ce4bgvp2rcd13ifvqct0","pricing_plan_id":"cebpf4jnsgd1na2vs0mg"},{"bike_id":"9446425e-0a86-42ae-bc3c-f72ad738e590","system_id":"levelo_inurba_marseille","lat":43.336522,"lon":5.363109,"is_reserved":false,"is_disabled":false,"rental_uris":{"android":"levelo://app?vid=9446425e-0a86-42ae-bc3c-f72ad738e590","ios":"levelo://app?vid=9446425e-0a86-42ae-bc3c-f72ad738e590"},"vehicle_type_id":"4","last_reported":1758791450,"current_range_meters":4800,"station_id":"","pricing_plan_id":"cebpf4jnsgd1na2vs0mg"},{"bike_id":"e804e8c8-5889-461f-9ee8-4ad1711c5f41","system_id":"levelo_inurba_marseille","lat":43.29595,"lon":5.37694,"is_reserved":false,"is_disabled":false,"rental_uris":{"android":"levelo://app?vid=e804e8c8-5889-461f-9ee8-4ad1711c5f41","ios":"levelo://app?vid=e804e8c8-5889-461f-9ee8-4ad1711c5f41"},"vehicle_type_id":"4","last_reported":1758791450,"current_range_meters":4800,"station_id":"ce4bgi92rcd13ifvqb90","pricing_plan_id":"cebpf4jnsgd1na2vs0mg"},{"bike_id":"d587ef81-3343-49f5-bff5-8fdc6bb0357a","system_id":"levelo_inurba_marseille","lat":43.24078,"lon":5.37755,"is_reserved":false,"is_disabled":false,"rental_uris":{"android":"levelo://app?vid=d587ef81-3343-49f5-bff5-8fdc6bb0357a","ios":"levelo://app?vid=d587ef81-3343-49f5-bff5-8fdc6bb0357a"},"vehicle_type_id":"4","last_reported":1758791450,"current_range_meters":4800,"station_id":"ce4bhnp2rcd13ifvqgvg","pricing_plan_id":"cebpf4jnsgd1na2vs0mg"},{"bike_id":"6856d587-2ecd-4b87-a2b4-ecb85cdc41dc","system_id":"levelo_inurba_marseille","lat":43.27476,"lon":5.42456,"is_reserved":false,"is_disabled":false,"rental_uris":{"android":"levelo://app?vid=6856d587-2ecd-4b87-a2b4-ecb85cdc41dc","ios":"levelo://app?vid=6856d587-2ecd-4b87-a2b4-ecb85cdc41dc"},"vehicle_type_id":"4","last_reported":1758791450,"current_range_meters":5600,"station_id":"ce4bhn92rcd13ifvqgrg","pricing_plan_id":"cebpf4jnsgd1na2vs0mg"},{"bike_id":"933c81f1-0bce-44f8-8af9-6b4fd134265c","system_id":"levelo_inurba_marseille","lat":43.2756,"lon":5.38424,"is_reserved":false,"is_disabled":false,"rental_uris":{"android":"levelo://app?vid=933c81f1-0bce-44f8-8af9-6b4fd134265c","ios":"levelo://app?vid=933c81f1-0bce-44f8-8af9-6b4fd134265c"},"vehicle_type_id":"4","last_reported":1758791450,"current_range_meters":5600,"station_id":"ce4bhh92rcd13ifvqfi0","pricing_plan_id":"cebpf4jnsgd1na2vs0mg"},{"bike_id":"7a5c514e-0050-4554-95a6-3a84f7a60bfb","system_id":"levelo_inurba_marseille","lat":43.28927,"lon":5.38405,"is_reserved":false,"is_disabled":false,"rental_uris":{"android":"levelo://app?vid=7a5c514e-0050-4554-95a6-3a84f7a60bfb","ios":"levelo://app?vid=7a5c514e-0050-4554-95a6-3a84f7a60bfb"},"vehicle_type_id":"4","last_reported":1758791450,"current_range_meters":5600,"station_id":"ce4bh612rcd13ifvqe6g","pricing_plan_id":"cebpf4jnsgd1na2vs0mg"},{"bike_id":"fe190240-866d-4966-b453-3890b84654d1","system_id":"levelo_inurba_marseille","lat":43.24386,"lon":5.37056,"is_reserved":false,"is_disabled":false,"rental_uris":{"android":"levelo://app?vid=fe190240-866d-4966-b453-3890b84654d1","ios":"levelo://app?vid=fe190240-866d-4966-b453-3890b84654d1"},"vehicle_type_id":"4","last_reported":1758791450,"current_range_meters":5600,"station_id":"ce4bhhh2rcd13ifvqfk0","pricing_plan_id":"cebpf4jnsgd1na2vs0mg"},{"bike_id":"784eda33-1cf0-43bb-9951-b7fcad84fe68","system_id":"levelo_inurba_marseille","lat":43.25106,"lon":5.40322,"is_reserved":false,"is_disabled":false,"rental_uris":{"android":"levelo://app?vid=784eda33-1cf0-43bb-9951-b7fcad84fe68","ios":"levelo://app?vid=784eda33-1cf0-43bb-9951-b7fcad84fe68"},"vehicle_type_id":"4","last_reported":1758791450,"current_range_meters":0,"station_id":"ce4bhlh2rcd13ifvqgig","pricing_plan_id":"cebpf4jnsgd1na2vs0mg"},{"bike_id":"696c240d-aaec-4b1d-a26b-b22afecfd415","system_id":"levelo_inurba_marseille","lat":43.25491,"lon":5.37649,"is_reserved":false,"is_disabled":false,"rental_uris":{"android":"levelo://app?vid=696c240d-aaec-4b1d-a26b-b22afecfd415","ios":"levelo://app?vid=696c240d-aaec-4b1d-a26b-b22afecfd415"},"vehicle_type_id":"4","last_reported":1758791450,"current_range_meters":6000,"station_id":"ce4bhh12rcd13ifvqff0","pricing_plan_id":"cebpf4jnsgd1na2vs0mg"},{"bike_id":"428248d2-55fb-4eb3-a1da-c9da64566128","system_id":"levelo_inurba_marseille","lat":43.25103,"lon":5.40324,"is_reserved":false,"is_disabled":false,"rental_uris":{"android":"levelo://app?vid=428248d2-55fb-4eb3-a1da-c9da64566128","ios":"levelo://app?vid=428248d2-55fb-4eb3-a1da-c9da64566128"},"vehicle_type_id":"4","last_reported":1758791450,"current_range_meters":6000,"station_id":"ce4bhlh2rcd13ifvqgig","pricing_plan_id":"cebpf4jnsgd1na2vs0mg"},{"bike_id":"9765fd3b-7472-4f3c-b5ea-2cb20800a3a9","system_id":"levelo_inurba_marseille","lat":43.24637,"lon":5.39584,"is_reserved":false,"is_disabled":false,"rental_uris":{"android":"levelo://app?vid=9765fd3b-7472-4f3c-b5ea-2cb20800a3a9","ios":"levelo://app?vid=9765fd3b-7472-4f3c-b5ea-2cb20800a3a9"},"vehicle_type_id":"4","last_reported":1758791450,"current_range_meters":6000,"station_id":"","pricing_plan_id":"cebpf4jnsgd1na2vs0mg"},{"bike_id":"7c0482c3-9253-4d1b-b4f3-be55cdb7721d","system_id":"levelo_inurba_marseille","lat":43.33757,"lon":5.37466,"is_reserved":false,"is_disabled":false,"rental_uris":{"android":"levelo://app?vid=7c0482c3-9253-4d1b-b4f3-be55cdb7721d","ios":"levelo://app?vid=7c0482c3-9253-4d1b-b4f3-be55cdb7721d"},"vehicle_type_id":"4","last_reported":1758791450,"current_range_meters":6400,"station_id":"","pricing_plan_id":"cebpf4jnsgd1na2vs0mg"},{"bike_id":"c08075f2-b305-46c1-a05b-353fb619d3d4","system_id":"levelo_inurba_marseille","lat":43.27207,"lon":5.39185,"is_reserved":false,"is_disabled":false,"rental_uris":{"android":"levelo://app?vid=c08075f2-b305-46c1-a05b-353fb619d3d4","ios":"levelo://app?vid=c08075f2-b305-46c1-a05b-353fb619d3d4"},"vehicle_type_id":"4","last_reported":1758791450,"current_range_meters":6400,"station_id":"ce4bhhp2rcd13ifvqfm0","pricing_plan_id":"cebpf4jnsgd1na2vs0mg"},{"bike_id":"30b01f0a-8e9a-44ba-b57a-d92412b65cf9","system_id":"levelo_inurba_marseille","lat":43.29631,"lon":5.40596,"is_reserved":false,"is_disabled":false,"rental_uris":{"android":"levelo://app?vid=30b01f0a-8e9a-44ba-b57a-d92412b65cf9","ios":"levelo://app?vid=30b01f0a-8e9a-44ba-b57a-d92412b65cf9"},"vehicle_type_id":"4","last_reported":1758791450,"current_range_meters":6400,"station_id":"ce4bh0h2rcd13ifvqd60","pricing_plan_id":"cebpf4jnsgd1na2vs0mg"},{"bike_id":"6d796058-0910-4a0f-8c5b-e898ba9820bf","system_id":"levelo_inurba_marseille","lat":43.31211,"lon":5.36867,"is_reserved":false,"is_disabled":false,"rental_uris":{"android":"levelo://app?vid=6d796058-0910-4a0f-8c5b-e898ba9820bf","ios":"levelo://app?vid=6d796058-0910-4a0f-8c5b-e898ba9820bf"},"vehicle_type_id":"4","last_reported":1758791450,"current_range_meters":6400,"station_id":"ce4bgl92rcd13ifvqbq0","pricing_plan_id":"cebpf4jnsgd1na2vs0mg"},{"bike_id":"f33ce8b6-91c3-4c41-93d4-4b9096e0852b","system_id":"levelo_inurba_marseille","lat":43.240782,"lon":5.377584,"is_reserved":false,"is_disabled":false,"rental_uris":{"android":"levelo://app?vid=f33ce8b6-91c3-4c41-93d4-4b9096e0852b","ios":"levelo://app?vid=f33ce8b6-91c3-4c41-93d4-4b9096e0852b"},"vehicle_type_id":"4","last_reported":1758791450,"current_range_meters":4400,"station_id":"ce4bhnp2rcd13ifvqgvg","pricing_plan_id":"cebpf4jnsgd1na2vs0mg"},{"bike_id":"939538dc-20bd-4d94-8a10-8e1e0a179bc7","system_id":"levelo_inurba_marseille","lat":43.30533,"lon":5.36971,"is_reserved":false,"is_disabled":false,"rental_uris":{"android":"levelo://app?vid=939538dc-20bd-4d94-8a10-8e1e0a179bc7","ios":"levelo://app?vid=939538dc-20bd-4d94-8a10-8e1e0a179bc7"},"vehicle_type_id":"4","last_reported":1758791450,"current_range_meters":6400,"station_id":"","pricing_plan_id":"cebpf4jnsgd1na2vs0mg"},{"bike_id":"828172f1-a610-481f-9726-4365df20bd83","system_id":"levelo_inurba_marseille","lat":43.27209,"lon":5.39168,"is_reserved":false,"is_disabled":false,"rental_uris":{"android":"levelo://app?vid=828172f1-a610-481f-9726-4365df20bd83","ios":"levelo://app?vid=828172f1-a610-481f-9726-4365df20bd83"},"vehicle_type_id":"4","last_reported":1758791450,"current_range_meters":6400,"station_id":"ce4bhhp2rcd13ifvqfm0","pricing_plan_id":"cebpf4jnsgd1na2vs0mg"},{"bike_id":"83dcdd83-23a3-4f07-8fe9-99b3c7449402","system_id":"levelo_inurba_marseille","lat":43.30903,"lon":5.368449,"is_reserved":false,"is_disabled":false,"rental_uris":{"android":"levelo://app?vid=83dcdd83-23a3-4f07-8fe9-99b3c7449402","ios":"levelo://app?vid=83dcdd83-23a3-4f07-8fe9-99b3c7449402"},"vehicle_type_id":"4","last_reported":1758791450,"current_range_meters":6400,"station_id":"ce4bgn92rcd13ifvqbvg","pricing_plan_id":"cebpf4jnsgd1na2vs0mg"},{"bike_id":"5f7a5080-e77c-4892-a096-c578510b27d0","system_id":"levelo_inurba_marseille","lat":43.27961,"lon":5.41034,"is_reserved":false,"is_disabled":true,"rental_uris":{"android":"levelo://app?vid=5f7a5080-e77c-4892-a096-c578510b27d0","ios":"levelo://app?vid=5f7a5080-e77c-4892-a096-c578510b27d0"},"vehicle_type_id":"4","last_reported":1758791450,"current_range_meters":6800,"station_id":"ce4bhnp2rcd13ifvqh0g","pricing_plan_id":"cebpf4jnsgd1na2vs0mg"},{"bike_id":"3c327943-29c5-446c-9dbf-088ed0163424","system_id":"levelo_inurba_marseille","lat":43.25334,"lon":5.42185,"is_reserved":false,"is_disabled":false,"rental_uris":{"android":"levelo://app?vid=3c327943-29c5-446c-9dbf-088ed0163424","ios":"levelo://app?vid=3c327943-29c5-446c-9dbf-088ed0163424"},"vehicle_type_id":"4","last_reported":1758791450,"current_range_meters":6800,"station_id":"st_d2m65c5bi1j21697t3ng","pricing_plan_id":"cebpf4jnsgd1na2vs0mg"},{"bike_id":"9c4a7bdb-c552-4dfd-8efb-40b9e0b0b147","system_id":"levelo_inurba_marseille","lat":43.30904,"lon":5.36701,"is_reserved":false,"is_disabled":false,"rental_uris":{"android":"levelo://app?vid=9c4a7bdb-c552-4dfd-8efb-40b9e0b0b147","ios":"levelo://app?vid=9c4a7bdb-c552-4dfd-8efb-40b9e0b0b147"},"vehicle_type_id":"4","last_reported":1758791450,"current_range_meters":7200,"station_id":"","pricing_plan_id":"cebpf4jnsgd1na2vs0mg"},{"bike_id":"1846e412-a89b-48c3-8a86-f911e8ea2c2e","system_id":"levelo_inurba_marseille","lat":43.21614,"lon":5.34667,"is_reserved":false,"is_disabled":false,"rental_uris":{"android":"levelo://app?vid=1846e412-a89b-48c3-8a86-f911e8ea2c2e","ios":"levelo://app?vid=1846e412-a89b-48c3-8a86-f911e8ea2c2e"},"vehicle_type_id":"4","last_reported":1758791450,"current_range_meters":7200,"station_id":"","pricing_plan_id":"cebpf4jnsgd1na2vs0mg"},{"bike_id":"cb3d83dd-8277-415b-bc5d-a118e1200728","system_id":"levelo_inurba_marseille","lat":43.301,"lon":5.41036,"is_reserved":false,"is_disabled":false,"rental_uris":{"android":"levelo://app?vid=cb3d83dd-8277-415b-bc5d-a118e1200728","ios":"levelo://app?vid=cb3d83dd-8277-415b-bc5d-a118e1200728"},"vehicle_type_id":"4","last_reported":1758791450,"current_range_meters":7200,"station_id":"","pricing_plan_id":"cebpf4jnsgd1na2vs0mg"},{"bike_id":"e1c0b721-86e2-4f4f-b97d-3fb8290653a3","system_id":"levelo_inurba_marseille","lat":43.27491,"lon":5.42454,"is_reserved":false,"is_disabled":true,"rental_uris":{"android":"levelo://app?vid=e1c0b721-86e2-4f4f-b97d-3fb8290653a3","ios":"levelo://app?vid=e1c0b721-86e2-4f4f-b97d-3fb8290653a3"},"vehicle_type_id":"4","last_reported":1758791450,"current_range_meters":7200,"station_id":"ce4bhn92rcd13ifvqgrg","pricing_plan_id":"cebpf4jnsgd1na2vs0mg"},{"bike_id":"0981b051-b73f-4347-8f34-d78db7f98322","system_id":"levelo_inurba_marseille","lat":43.2757,"lon":5.38422,"is_reserved":false,"is_disabled":false,"rental_uris":{"android":"levelo://app?vid=0981b051-b73f-4347-8f34-d78db7f98322","ios":"levelo://app?vid=0981b051-b73f-4347-8f34-d78db7f98322"},"vehicle_type_id":"4","last_reported":1758791450,"current_range_meters":7200,"station_id":"ce4bhh92rcd13ifvqfi0","pricing_plan_id":"cebpf4jnsgd1na2vs0mg"},{"bike_id":"77115513-f333-40eb-877f-8125afe5a9c3","system_id":"levelo_inurba_marseille","lat":43.2742,"lon":5.39416,"is_reserved":false,"is_disabled":false,"rental_uris":{"android":"levelo://app?vid=77115513-f333-40eb-877f-8125afe5a9c3","ios":"levelo://app?vid=77115513-f333-40eb-877f-8125afe5a9c3"},"vehicle_type_id":"4","last_reported":1758791450,"current_range_meters":7200,"station_id":"ce4bhdp2rcd13ifvqf20","pricing_plan_id":"cebpf4jnsgd1na2vs0mg"},{"bike_id":"136a707a-b224-4c44-8119-f846f7b7d0a7","system_id":"levelo_inurba_marseille","lat":43.29516,"lon":5.37375,"is_reserved":false,"is_disabled":false,"rental_uris":{"android":"levelo://app?vid=136a707a-b224-4c44-8119-f846f7b7d0a7","ios":"levelo://app?vid=136a707a-b224-4c44-8119-f846f7b7d0a7"},"vehicle_type_id":"4","last_reported":1758791450,"current_range_meters":8400,"station_id":"","pricing_plan_id":"cebpf4jnsgd1na2vs0mg"},{"bike_id":"418644ef-eb24-4dab-9cf3-676d0534769c","system_id":"levelo_inurba_marseille","lat":43.29301,"lon":5.37462,"is_reserved":false,"is_disabled":false,"rental_uris":{"android":"levelo://app?vid=418644ef-eb24-4dab-9cf3-676d0534769c","ios":"levelo://app?vid=418644ef-eb24-4dab-9cf3-676d0534769c"},"vehicle_type_id":"4","last_reported":1758791450,"current_range_meters":8400,"station_id":"ce4bgi12rcd13ifvqb70","pricing_plan_id":"cebpf4jnsgd1na2vs0mg"},{"bike_id":"9b41e809-a39d-4a8f-a8fa-beddb4a223d3","system_id":"levelo_inurba_marseille","lat":43.31219,"lon":5.3689,"is_reserved":false,"is_disabled":false,"rental_uris":{"android":"levelo://app?vid=9b41e809-a39d-4a8f-a8fa-beddb4a223d3","ios":"levelo://app?vid=9b41e809-a39d-4a8f-a8fa-beddb4a223d3"},"vehicle_type_id":"4","last_reported":1758791450,"current_range_meters":8400,"station_id":"ce4bgl92rcd13ifvqbq0","pricing_plan_id":"cebpf4jnsgd1na2vs0mg"},{"bike_id":"4e737411-53ce-4bdf-9802-c3bc30d9bc94","system_id":"levelo_inurba_marseille","lat":43.295486,"lon":5.406364,"is_reserved":false,"is_disabled":false,"rental_uris":{"android":"levelo://app?vid=4e737411-53ce-4bdf-9802-c3bc30d9bc94","ios":"levelo://app?vid=4e737411-53ce-4bdf-9802-c3bc30d9bc94"},"vehicle_type_id":"4","last_reported":1758791450,"current_range_meters":8800,"station_id":"","pricing_plan_id":"cebpf4jnsgd1na2vs0mg"},{"bike_id":"35b29339-dba8-4e1a-a84b-b2cb4cbeab88","system_id":"levelo_inurba_marseille","lat":43.31041,"lon":5.40074,"is_reserved":false,"is_disabled":false,"rental_uris":{"android":"levelo://app?vid=35b29339-dba8-4e1a-a84b-b2cb4cbeab88","ios":"levelo://app?vid=35b29339-dba8-4e1a-a84b-b2cb4cbeab88"},"vehicle_type_id":"4","last_reported":1758791450,"current_range_meters":8800,"station_id":"","pricing_plan_id":"cebpf4jnsgd1na2vs0mg"},{"bike_id":"2985aca5-36d5-49d7-901c-26909f19f5c5","system_id":"levelo_inurba_marseille","lat":43.26211,"lon":5.3791,"is_reserved":false,"is_disabled":false,"rental_uris":{"android":"levelo://app?vid=2985aca5-36d5-49d7-901c-26909f19f5c5","ios":"levelo://app?vid=2985aca5-36d5-49d7-901c-26909f19f5c5"},"vehicle_type_id":"4","last_reported":1758791450,"current_range_meters":8800,"station_id":"ce4bhjp2rcd13ifvqg90","pricing_plan_id":"cebpf4jnsgd1na2vs0mg"},{"bike_id":"000fd197-d791-4fa0-ab4d-194209be9717","system_id":"levelo_inurba_marseille","lat":43.33612,"lon":5.41029,"is_reserved":false,"is_disabled":false,"rental_uris":{"android":"levelo://app?vid=000fd197-d791-4fa0-ab4d-194209be9717","ios":"levelo://app?vid=000fd197-d791-4fa0-ab4d-194209be9717"},"vehicle_type_id":"4","last_reported":1758791450,"current_range_meters":8800,"station_id":"ce4bhqh2rcd13ifvqhmg","pricing_plan_id":"cebpf4jnsgd1na2vs0mg"},{"bike_id":"1f9ad9f3-5e50-40bb-b573-c00abdefdda5","system_id":"levelo_inurba_marseille","lat":43.24077,"lon":5.37756,"is_reserved":false,"is_disabled":false,"rental_uris":{"android":"levelo://app?vid=1f9ad9f3-5e50-40bb-b573-c00abdefdda5","ios":"levelo://app?vid=1f9ad9f3-5e50-40bb-b573-c00abdefdda5"},"vehicle_type_id":"4","last_reported":1758791450,"current_range_meters":8800,"station_id":"ce4bhnp2rcd13ifvqgvg","pricing_plan_id":"cebpf4jnsgd1na2vs0mg"},{"bike_id":"438ead59-de14-4fa0-a61d-03a70a4122ae","system_id":"levelo_inurba_marseille","lat":43.97269,"lon":4.89111,"is_reserved":false,"is_disabled":true,"rental_uris":{"android":"levelo://app?vid=438ead59-de14-4fa0-a61d-03a70a4122ae","ios":"levelo://app?vid=438ead59-de14-4fa0-a61d-03a70a4122ae"},"vehicle_type_id":"4","last_reported":1758791450,"current_range_meters":8800,"station_id":"","pricing_plan_id":"cebpf4jnsgd1na2vs0mg"},{"bike_id":"b5097eea-9912-4be2-9cf9-14c224c5fab6","system_id":"levelo_inurba_marseille","lat":43.23202,"lon":5.35547,"is_reserved":false,"is_disabled":false,"rental_uris":{"android":"levelo://app?vid=b5097eea-9912-4be2-9cf9-14c224c5fab6","ios":"levelo://app?vid=b5097eea-9912-4be2-9cf9-14c224c5fab6"},"vehicle_type_id":"4","last_reported":1758791450,"current_range_meters":9200,"station_id":"ce4bhu92rcd13ifvqi70","pricing_plan_id":"cebpf4jnsgd1na2vs0mg"},{"bike_id":"d2be082e-bd73-4203-addb-18871b3a9587","system_id":"levelo_inurba_marseille","lat":43.29411,"lon":5.37497,"is_reserved":false,"is_disabled":false,"rental_uris":{"android":"levelo://app?vid=d2be082e-bd73-4203-addb-18871b3a9587","ios":"levelo://app?vid=d2be082e-bd73-4203-addb-18871b3a9587"},"vehicle_type_id":"4","last_reported":1758791450,"current_range_meters":9200,"station_id":"","pricing_plan_id":"cebpf4jnsgd1na2vs0mg"},{"bike_id":"2a748234-9779-422d-8d2c-13d02c51989c","system_id":"levelo_inurba_marseille","lat":43.24399,"lon":5.37038,"is_reserved":false,"is_disabled":false,"rental_uris":{"android":"levelo://app?vid=2a748234-9779-422d-8d2c-13d02c51989c","ios":"levelo://app?vid=2a748234-9779-422d-8d2c-13d02c51989c"},"vehicle_type_id":"4","last_reported":1758791450,"current_range_meters":9200,"station_id":"ce4bhhh2rcd13ifvqfk0","pricing_plan_id":"cebpf4jnsgd1na2vs0mg"},{"bike_id":"28d4a21e-ffb6-4b82-b7cf-186e5f61b989","system_id":"levelo_inurba_marseille","lat":43.286135,"lon":5.350967,"is_reserved":false,"is_disabled":false,"rental_uris":{"android":"levelo://app?vid=28d4a21e-ffb6-4b82-b7cf-186e5f61b989","ios":"levelo://app?vid=28d4a21e-ffb6-4b82-b7cf-186e5f61b989"},"vehicle_type_id":"4","last_reported":1758791450,"current_range_meters":9200,"station_id":"ce4bhch2rcd13ifvqeug","pricing_plan_id":"cebpf4jnsgd1na2vs0mg"},{"bike_id":"643dbab1-bb92-4152-bb26-cc2f6dbb6b8d","system_id":"levelo_inurba_marseille","lat":43.29366,"lon":5.37839,"is_reserved":false,"is_disabled":false,"rental_uris":{"android":"levelo://app?vid=643dbab1-bb92-4152-bb26-cc2f6dbb6b8d","ios":"levelo://app?vid=643dbab1-bb92-4152-bb26-cc2f6dbb6b8d"},"vehicle_type_id":"4","last_reported":1758791450,"current_range_meters":9200,"station_id":"ce4bgjh2rcd13ifvqbf0","pricing_plan_id":"cebpf4jnsgd1na2vs0mg"},{"bike_id":"77daa39a-6d92-4fe8-8266-f8eceab04af2","system_id":"levelo_inurba_marseille","lat":43.29844,"lon":5.36288,"is_reserved":false,"is_disabled":false,"rental_uris":{"android":"levelo://app?vid=77daa39a-6d92-4fe8-8266-f8eceab04af2","ios":"levelo://app?vid=77daa39a-6d92-4fe8-8266-f8eceab04af2"},"vehicle_type_id":"4","last_reported":1758791450,"current_range_meters":9200,"station_id":"ce4bgpp2rcd13ifvqc3g","pricing_plan_id":"cebpf4jnsgd1na2vs0mg"},{"bike_id":"7981bd57-1a91-436b-8601-50130d20e8be","system_id":"levelo_inurba_marseille","lat":43.21629,"lon":5.34655,"is_reserved":false,"is_disabled":false,"rental_uris":{"android":"levelo://app?vid=7981bd57-1a91-436b-8601-50130d20e8be","ios":"levelo://app?vid=7981bd57-1a91-436b-8601-50130d20e8be"},"vehicle_type_id":"4","last_reported":1758791450,"current_range_meters":9600,"station_id":"","pricing_plan_id":"cebpf4jnsgd1na2vs0mg"},{"bike_id":"06c10839-75c7-457b-804b-f341157fb4f3","system_id":"levelo_inurba_marseille","lat":43.25045,"lon":5.40466,"is_reserved":false,"is_disabled":false,"rental_uris":{"android":"levelo://app?vid=06c10839-75c7-457b-804b-f341157fb4f3","ios":"levelo://app?vid=06c10839-75c7-457b-804b-f341157fb4f3"},"vehicle_type_id":"4","last_reported":1758791450,"current_range_meters":9600,"station_id":"","pricing_plan_id":"cebpf4jnsgd1na2vs0mg"},{"bike_id":"47c4f3ab-ac15-4b3d-a5f9-5573a07d0401","system_id":"levelo_inurba_marseille","lat":43.2256,"lon":5.41627,"is_reserved":false,"is_disabled":false,"rental_uris":{"android":"levelo://app?vid=47c4f3ab-ac15-4b3d-a5f9-5573a07d0401","ios":"levelo://app?vid=47c4f3ab-ac15-4b3d-a5f9-5573a07d0401"},"vehicle_type_id":"4","last_reported":1758791450,"current_range_meters":9600,"station_id":"st_d2o4gvlbi1j2169b742g","pricing_plan_id":"cebpf4jnsgd1na2vs0mg"},{"bike_id":"3beab8c1-dd7f-4675-abc7-a97677ead60d","system_id":"levelo_inurba_marseille","lat":43.2316,"lon":5.43711,"is_reserved":false,"is_disabled":false,"rental_uris":{"android":"levelo://app?vid=3beab8c1-dd7f-4675-abc7-a97677ead60d","ios":"levelo://app?vid=3beab8c1-dd7f-4675-abc7-a97677ead60d"},"vehicle_type_id":"4","last_reported":1758791450,"current_range_meters":9200,"station_id":"ce4bhmp2rcd13ifvqgog","pricing_plan_id":"cebpf4jnsgd1na2vs0mg"},{"bike_id":"450844ba-2fc2-47be-9959-8fee61f07fb6","system_id":"levelo_inurba_marseille","lat":43.31741,"lon":5.39024,"is_reserved":false,"is_disabled":false,"rental_uris":{"android":"levelo://app?vid=450844ba-2fc2-47be-9959-8fee61f07fb6","ios":"levelo://app?vid=450844ba-2fc2-47be-9959-8fee61f07fb6"},"vehicle_type_id":"4","last_reported":1758791450,"current_range_meters":10000,"station_id":"ce4bhqp2rcd13ifvqhng","pricing_plan_id":"cebpf4jnsgd1na2vs0mg"},{"bike_id":"dfc6616d-fac8-446b-b270-4ca8177f4872","system_id":"levelo_inurba_marseille","lat":43.240799,"lon":5.377499,"is_reserved":false,"is_disabled":false,"rental_uris":{"android":"levelo://app?vid=dfc6616d-fac8-446b-b270-4ca8177f4872","ios":"levelo://app?vid=dfc6616d-fac8-446b-b270-4ca8177f4872"},"vehicle_type_id":"4","last_reported":1758791450,"current_range_meters":10000,"station_id":"ce4bhnp2rcd13ifvqgvg","pricing_plan_id":"cebpf4jnsgd1na2vs0mg"},{"bike_id":"ae4d123c-65ee-4c52-8933-f4b14d3f9582","system_id":"levelo_inurba_marseille","lat":43.2256,"lon":5.41642,"is_reserved":false,"is_disabled":false,"rental_uris":{"android":"levelo://app?vid=ae4d123c-65ee-4c52-8933-f4b14d3f9582","ios":"levelo://app?vid=ae4d123c-65ee-4c52-8933-f4b14d3f9582"},"vehicle_type_id":"4","last_reported":1758791450,"current_range_meters":10000,"station_id":"st_d2o4gvlbi1j2169b742g","pricing_plan_id":"cebpf4jnsgd1na2vs0mg"},{"bike_id":"2c22d2c6-fa85-4126-acfc-97cf7a3ffa54","system_id":"levelo_inurba_marseille","lat":43.3088,"lon":5.371946,"is_reserved":false,"is_disabled":false,"rental_uris":{"android":"levelo://app?vid=2c22d2c6-fa85-4126-acfc-97cf7a3ffa54","ios":"levelo://app?vid=2c22d2c6-fa85-4126-acfc-97cf7a3ffa54"},"vehicle_type_id":"4","last_reported":1758791450,"current_range_meters":10000,"station_id":"ce4bguh2rcd13ifvqckg","pricing_plan_id":"cebpf4jnsgd1na2vs0mg"},{"bike_id":"fca2cd76-1e31-47dc-b6ce-18776c40295a","system_id":"levelo_inurba_marseille","lat":43.27351,"lon":5.36236,"is_reserved":false,"is_disabled":true,"rental_uris":{"android":"levelo://app?vid=fca2cd76-1e31-47dc-b6ce-18776c40295a","ios":"levelo://app?vid=fca2cd76-1e31-47dc-b6ce-18776c40295a"},"vehicle_type_id":"4","last_reported":1758791450,"current_range_meters":10000,"station_id":"ce4bhbh2rcd13ifvqeo0","pricing_plan_id":"cebpf4jnsgd1na2vs0mg"},{"bike_id":"d916c420-f032-4b9a-b23d-f63c79747ecc","system_id":"levelo_inurba_marseille","lat":43.258241,"lon":5.39439,"is_reserved":false,"is_disabled":false,"rental_uris":{"android":"levelo://app?vid=d916c420-f032-4b9a-b23d-f63c79747ecc","ios":"levelo://app?vid=d916c420-f032-4b9a-b23d-f63c79747ecc"},"vehicle_type_id":"4","last_reported":1758791450,"current_range_meters":10000,"station_id":"ce4bhip2rcd13ifvqft0","pricing_plan_id":"cebpf4jnsgd1na2vs0mg"},{"bike_id":"907001c4-2004-42e9-bb1a-a39f41a80622","system_id":"levelo_inurba_marseille","lat":43.32478,"lon":5.36569,"is_reserved":false,"is_disabled":false,"rental_uris":{"android":"levelo://app?vid=907001c4-2004-42e9-bb1a-a39f41a80622","ios":"levelo://app?vid=907001c4-2004-42e9-bb1a-a39f41a80622"},"vehicle_type_id":"4","last_reported":1758791450,"current_range_meters":10800,"station_id":"ce4bhs12rcd13ifvqhvg","pricing_plan_id":"cebpf4jnsgd1na2vs0mg"},{"bike_id":"bf1244d3-d7e7-45bd-8580-d0cbc34b36e3","system_id":"levelo_inurba_marseille","lat":43.22591,"lon":5.41623,"is_reserved":false,"is_disabled":false,"rental_uris":{"android":"levelo://app?vid=bf1244d3-d7e7-45bd-8580-d0cbc34b36e3","ios":"levelo://app?vid=bf1244d3-d7e7-45bd-8580-d0cbc34b36e3"},"vehicle_type_id":"4","last_reported":1758791450,"current_range_meters":10800,"station_id":"st_d2o4gvlbi1j2169b742g","pricing_plan_id":"cebpf4jnsgd1na2vs0mg"},{"bike_id":"404ef866-e4bd-4c2e-a59f-e49edb711cb4","system_id":"levelo_inurba_marseille","lat":43.33611,"lon":5.41031,"is_reserved":false,"is_disabled":false,"rental_uris":{"android":"levelo://app?vid=404ef866-e4bd-4c2e-a59f-e49edb711cb4","ios":"levelo://app?vid=404ef866-e4bd-4c2e-a59f-e49edb711cb4"},"vehicle_type_id":"4","last_reported":1758791450,"current_range_meters":10800,"station_id":"ce4bhqh2rcd13ifvqhmg","pricing_plan_id":"cebpf4jnsgd1na2vs0mg"},{"bike_id":"514b5fdb-f81d-41c3-afe2-e88866964916","system_id":"levelo_inurba_marseille","lat":43.25082,"lon":5.39542,"is_reserved":false,"is_disabled":true,"rental_uris":{"android":"levelo://app?vid=514b5fdb-f81d-41c3-afe2-e88866964916","ios":"levelo://app?vid=514b5fdb-f81d-41c3-afe2-e88866964916"},"vehicle_type_id":"4","last_reported":1758791450,"current_range_meters":10800,"station_id":"ce4bhm12rcd13ifvqgkg","pricing_plan_id":"cebpf4jnsgd1na2vs0mg"},{"bike_id":"d4d72867-4512-4d54-a830-2a02d5cc7e41","system_id":"levelo_inurba_marseille","lat":43.29528,"lon":5.39047,"is_reserved":false,"is_disabled":false,"rental_uris":{"android":"levelo://app?vid=d4d72867-4512-4d54-a830-2a02d5cc7e41","ios":"levelo://app?vid=d4d72867-4512-4d54-a830-2a02d5cc7e41"},"vehicle_type_id":"4","last_reported":1758791450,"current_range_meters":10000,"station_id":"ce4bh3p2rcd13ifvqdp0","pricing_plan_id":"cebpf4jnsgd1na2vs0mg"},{"bike_id":"56888508-3714-4733-a2d0-b512afaaf759","system_id":"levelo_inurba_marseille","lat":43.28397,"lon":5.34998,"is_reserved":false,"is_disabled":false,"rental_uris":{"android":"levelo://app?vid=56888508-3714-4733-a2d0-b512afaaf759","ios":"levelo://app?vid=56888508-3714-4733-a2d0-b512afaaf759"},"vehicle_type_id":"4","last_reported":1758791450,"current_range_meters":10800,"station_id":"ce4bhbh2rcd13ifvqepg","pricing_plan_id":"cebpf4jnsgd1na2vs0mg"},{"bike_id":"3a83ddcd-ce03-4ed4-a7fa-b273c2464f02","system_id":"levelo_inurba_marseille","lat":43.27922,"lon":5.36322,"is_reserved":false,"is_disabled":false,"rental_uris":{"android":"levelo://app?vid=3a83ddcd-ce03-4ed4-a7fa-b273c2464f02","ios":"levelo://app?vid=3a83ddcd-ce03-4ed4-a7fa-b273c2464f02"},"vehicle_type_id":"4","last_reported":1758791450,"current_range_meters":10800,"station_id":"","pricing_plan_id":"cebpf4jnsgd1na2vs0mg"},{"bike_id":"16cee2f9-0604-4f00-85ee-c5690b0410f0","system_id":"levelo_inurba_marseille","lat":43.286232,"lon":5.35086,"is_reserved":false,"is_disabled":false,"rental_uris":{"android":"levelo://app?vid=16cee2f9-0604-4f00-85ee-c5690b0410f0","ios":"levelo://app?vid=16cee2f9-0604-4f00-85ee-c5690b0410f0"},"vehicle_type_id":"4","last_reported":1758791450,"current_range_meters":10800,"station_id":"ce4bhch2rcd13ifvqeug","pricing_plan_id":"cebpf4jnsgd1na2vs0mg"},{"bike_id":"bbba99c9-2743-4dd4-9a33-a3863caf6316","system_id":"levelo_inurba_marseille","lat":43.27054,"lon":5.40257,"is_reserved":false,"is_disabled":false,"rental_uris":{"android":"levelo://app?vid=bbba99c9-2743-4dd4-9a33-a3863caf6316","ios":"levelo://app?vid=bbba99c9-2743-4dd4-9a33-a3863caf6316"},"vehicle_type_id":"4","last_reported":1758791450,"current_range_meters":11200,"station_id":"ce4bhk92rcd13ifvqgc0","pricing_plan_id":"cebpf4jnsgd1na2vs0mg"},{"bike_id":"5b832883-956f-4b53-a07b-3c6e103bd85a","system_id":"levelo_inurba_marseille","lat":43.29915,"lon":5.3747,"is_reserved":false,"is_disabled":false,"rental_uris":{"android":"levelo://app?vid=5b832883-956f-4b53-a07b-3c6e103bd85a","ios":"levelo://app?vid=5b832883-956f-4b53-a07b-3c6e103bd85a"},"vehicle_type_id":"4","last_reported":1758791450,"current_range_meters":11200,"station_id":"ce4bgjh2rcd13ifvqbg0","pricing_plan_id":"cebpf4jnsgd1na2vs0mg"},{"bike_id":"379911e0-a8b9-4b05-96ac-c75be54d3c45","system_id":"levelo_inurba_marseille","lat":43.28857,"lon":5.42526,"is_reserved":false,"is_disabled":false,"rental_uris":{"android":"levelo://app?vid=379911e0-a8b9-4b05-96ac-c75be54d3c45","ios":"levelo://app?vid=379911e0-a8b9-4b05-96ac-c75be54d3c45"},"vehicle_type_id":"4","last_reported":1758791450,"current_range_meters":11200,"station_id":"","pricing_plan_id":"cebpf4jnsgd1na2vs0mg"},{"bike_id":"2edaff00-298a-43bb-9b1b-fbee07f158c1","system_id":"levelo_inurba_marseille","lat":43.32104,"lon":5.36778,"is_reserved":false,"is_disabled":false,"rental_uris":{"android":"levelo://app?vid=2edaff00-298a-43bb-9b1b-fbee07f158c1","ios":"levelo://app?vid=2edaff00-298a-43bb-9b1b-fbee07f158c1"},"vehicle_type_id":"4","last_reported":1758791450,"current_range_meters":11200,"station_id":"ce4bhrh2rcd13ifvqhug","pricing_plan_id":"cebpf4jnsgd1na2vs0mg"},{"bike_id":"002673c7-e49b-40c2-82da-6cf2f4393eb8","system_id":"levelo_inurba_marseille","lat":43.30448,"lon":5.37911,"is_reserved":false,"is_disabled":true,"rental_uris":{"android":"levelo://app?vid=002673c7-e49b-40c2-82da-6cf2f4393eb8","ios":"levelo://app?vid=002673c7-e49b-40c2-82da-6cf2f4393eb8"},"vehicle_type_id":"4","last_reported":1758791450,"current_range_meters":11600,"station_id":"ce4bgup2rcd13ifvqcn0","pricing_plan_id":"cebpf4jnsgd1na2vs0mg"},{"bike_id":"076534ad-52c2-433a-87f8-44e0a50513c5","system_id":"levelo_inurba_marseille","lat":43.29285,"lon":5.40119,"is_reserved":false,"is_disabled":false,"rental_uris":{"android":"levelo://app?vid=076534ad-52c2-433a-87f8-44e0a50513c5","ios":"levelo://app?vid=076534ad-52c2-433a-87f8-44e0a50513c5"},"vehicle_type_id":"4","last_reported":1758791450,"current_range_meters":11600,"station_id":"ce4bh312rcd13ifvqdk0","pricing_plan_id":"cebpf4jnsgd1na2vs0mg"},{"bike_id":"4a4961fb-332d-4ff4-b895-5753bbb3c886","system_id":"levelo_inurba_marseille","lat":43.28853,"lon":5.35852,"is_reserved":false,"is_disabled":false,"rental_uris":{"android":"levelo://app?vid=4a4961fb-332d-4ff4-b895-5753bbb3c886","ios":"levelo://app?vid=4a4961fb-332d-4ff4-b895-5753bbb3c886"},"vehicle_type_id":"4","last_reported":1758791450,"current_range_meters":11200,"station_id":"ce4bhb12rcd13ifvqem0","pricing_plan_id":"cebpf4jnsgd1na2vs0mg"},{"bike_id":"4793670f-254e-4b04-b5c6-8e2d8c50bf41","system_id":"levelo_inurba_marseille","lat":43.24998,"lon":5.38921,"is_reserved":false,"is_disabled":false,"rental_uris":{"android":"levelo://app?vid=4793670f-254e-4b04-b5c6-8e2d8c50bf41","ios":"levelo://app?vid=4793670f-254e-4b04-b5c6-8e2d8c50bf41"},"vehicle_type_id":"4","last_reported":1758791450,"current_range_meters":11600,"station_id":"ce4bhgp2rcd13ifvqfd0","pricing_plan_id":"cebpf4jnsgd1na2vs0mg"},{"bike_id":"8584eb3e-f7b4-4300-97fe-005a37d8d75b","system_id":"levelo_inurba_marseille","lat":43.36868,"lon":5.36309,"is_reserved":false,"is_disabled":false,"rental_uris":{"android":"levelo://app?vid=8584eb3e-f7b4-4300-97fe-005a37d8d75b","ios":"levelo://app?vid=8584eb3e-f7b4-4300-97fe-005a37d8d75b"},"vehicle_type_id":"4","last_reported":1758791450,"current_range_meters":11600,"station_id":"","pricing_plan_id":"cebpf4jnsgd1na2vs0mg"},{"bike_id":"b74bc1bc-07d4-4f4c-8255-2078d6d3ce91","system_id":"levelo_inurba_marseille","lat":43.25572,"lon":5.38239,"is_reserved":false,"is_disabled":false,"rental_uris":{"android":"levelo://app?vid=b74bc1bc-07d4-4f4c-8255-2078d6d3ce91","ios":"levelo://app?vid=b74bc1bc-07d4-4f4c-8255-2078d6d3ce91"},"vehicle_type_id":"4","last_reported":1758791450,"current_range_meters":12000,"station_id":"ce4bhih2rcd13ifvqfs0","pricing_plan_id":"cebpf4jnsgd1na2vs0mg"},{"bike_id":"8eae954c-dab6-4303-94f5-569e1c483f62","system_id":"levelo_inurba_marseille","lat":43.29451,"lon":5.40746,"is_reserved":false,"is_disabled":false,"rental_uris":{"android":"levelo://app?vid=8eae954c-dab6-4303-94f5-569e1c483f62","ios":"levelo://app?vid=8eae954c-dab6-4303-94f5-569e1c483f62"},"vehicle_type_id":"4","last_reported":1758791450,"current_range_meters":12000,"station_id":"","pricing_plan_id":"cebpf4jnsgd1na2vs0mg"},{"bike_id":"8569e255-99fa-4abe-a545-131fc8927c0c","system_id":"levelo_inurba_marseille","lat":43.26686,"lon":5.38272,"is_reserved":false,"is_disabled":false,"rental_uris":{"android":"levelo://app?vid=8569e255-99fa-4abe-a545-131fc8927c0c","ios":"levelo://app?vid=8569e255-99fa-4abe-a545-131fc8927c0c"},"vehicle_type_id":"4","last_reported":1758791450,"current_range_meters":12000,"station_id":"ce4bhg92rcd13ifvqf90","pricing_plan_id":"cebpf4jnsgd1na2vs0mg"},{"bike_id":"0334c664-c853-4f38-a46f-30751b2874a4","system_id":"levelo_inurba_marseille","lat":43.290346,"lon":5.359151,"is_reserved":false,"is_disabled":true,"rental_uris":{"android":"levelo://app?vid=0334c664-c853-4f38-a46f-30751b2874a4","ios":"levelo://app?vid=0334c664-c853-4f38-a46f-30751b2874a4"},"vehicle_type_id":"4","last_reported":1758791450,"current_range_meters":12000,"station_id":"ce4bha92rcd13ifvqeg0","pricing_plan_id":"cebpf4jnsgd1na2vs0mg"},{"bike_id":"0e9ca394-4351-4bf8-a641-f4e5215baf20","system_id":"levelo_inurba_marseille","lat":43.28271,"lon":5.35073,"is_reserved":false,"is_disabled":true,"rental_uris":{"android":"levelo://app?vid=0e9ca394-4351-4bf8-a641-f4e5215baf20","ios":"levelo://app?vid=0e9ca394-4351-4bf8-a641-f4e5215baf20"},"vehicle_type_id":"4","last_reported":1758791450,"current_range_meters":12000,"station_id":"ce4bhbp2rcd13ifvqerg","pricing_plan_id":"cebpf4jnsgd1na2vs0mg"},{"bike_id":"c34cd464-5d4b-462e-a363-5b3baac95668","system_id":"levelo_inurba_marseille","lat":43.33792,"lon":5.374664,"is_reserved":false,"is_disabled":false,"rental_uris":{"android":"levelo://app?vid=c34cd464-5d4b-462e-a363-5b3baac95668","ios":"levelo://app?vid=c34cd464-5d4b-462e-a363-5b3baac95668"},"vehicle_type_id":"4","last_reported":1758791450,"current_range_meters":12000,"station_id":"","pricing_plan_id":"cebpf4jnsgd1na2vs0mg"},{"bike_id":"ad9a6248-1b43-4fc5-bfba-44f7d3067aab","system_id":"levelo_inurba_marseille","lat":43.21727,"lon":5.34629,"is_reserved":false,"is_disabled":false,"rental_uris":{"android":"levelo://app?vid=ad9a6248-1b43-4fc5-bfba-44f7d3067aab","ios":"levelo://app?vid=ad9a6248-1b43-4fc5-bfba-44f7d3067aab"},"vehicle_type_id":"4","last_reported":1758791450,"current_range_meters":12000,"station_id":"","pricing_plan_id":"cebpf4jnsgd1na2vs0mg"},{"bike_id":"6e01c809-218f-4d4d-a4ac-0112eb240792","system_id":"levelo_inurba_marseille","lat":43.301378,"lon":5.380888,"is_reserved":false,"is_disabled":false,"rental_uris":{"android":"levelo://app?vid=6e01c809-218f-4d4d-a4ac-0112eb240792","ios":"levelo://app?vid=6e01c809-218f-4d4d-a4ac-0112eb240792"},"vehicle_type_id":"4","last_reported":1758791450,"current_range_meters":12000,"station_id":"ce4bgjp2rcd13ifvqbh0","pricing_plan_id":"cebpf4jnsgd1na2vs0mg"},{"bike_id":"34674e84-8c28-42f2-b2b9-e63abc4c0448","system_id":"levelo_inurba_marseille","lat":43.22392,"lon":5.34661,"is_reserved":false,"is_disabled":false,"rental_uris":{"android":"levelo://app?vid=34674e84-8c28-42f2-b2b9-e63abc4c0448","ios":"levelo://app?vid=34674e84-8c28-42f2-b2b9-e63abc4c0448"},"vehicle_type_id":"4","last_reported":1758791450,"current_range_meters":12400,"station_id":"","pricing_plan_id":"cebpf4jnsgd1na2vs0mg"},{"bike_id":"3b31d633-b5d5-4cb8-bc19-6e3745360861","system_id":"levelo_inurba_marseille","lat":43.31238,"lon":5.3688,"is_reserved":false,"is_disabled":false,"rental_uris":{"android":"levelo://app?vid=3b31d633-b5d5-4cb8-bc19-6e3745360861","ios":"levelo://app?vid=3b31d633-b5d5-4cb8-bc19-6e3745360861"},"vehicle_type_id":"4","last_reported":1758791450,"current_range_meters":12400,"station_id":"ce4bgl92rcd13ifvqbq0","pricing_plan_id":"cebpf4jnsgd1na2vs0mg"},{"bike_id":"a6ad0c6c-868d-42f3-ba54-573e1a175a36","system_id":"levelo_inurba_marseille","lat":43.26251,"lon":5.41294,"is_reserved":false,"is_disabled":false,"rental_uris":{"android":"levelo://app?vid=a6ad0c6c-868d-42f3-ba54-573e1a175a36","ios":"levelo://app?vid=a6ad0c6c-868d-42f3-ba54-573e1a175a36"},"vehicle_type_id":"4","last_reported":1758791450,"current_range_meters":12400,"station_id":"","pricing_plan_id":"cebpf4jnsgd1na2vs0mg"},{"bike_id":"7407b8fd-3a98-4b76-9125-80002ec0937f","system_id":"levelo_inurba_marseille","lat":43.30954,"lon":5.39048,"is_reserved":false,"is_disabled":false,"rental_uris":{"android":"levelo://app?vid=7407b8fd-3a98-4b76-9125-80002ec0937f","ios":"levelo://app?vid=7407b8fd-3a98-4b76-9125-80002ec0937f"},"vehicle_type_id":"4","last_reported":1758791450,"current_range_meters":12400,"station_id":"ce4bgup2rcd13ifvqco0","pricing_plan_id":"cebpf4jnsgd1na2vs0mg"},{"bike_id":"d3347a0b-09f5-41c5-af67-b54e534dd49e","system_id":"levelo_inurba_marseille","lat":43.304236,"lon":5.397458,"is_reserved":false,"is_disabled":false,"rental_uris":{"android":"levelo://app?vid=d3347a0b-09f5-41c5-af67-b54e534dd49e","ios":"levelo://app?vid=d3347a0b-09f5-41c5-af67-b54e534dd49e"},"vehicle_type_id":"4","last_reported":1758791450,"current_range_meters":12400,"station_id":"ce4bh092rcd13ifvqd20","pricing_plan_id":"cebpf4jnsgd1na2vs0mg"},{"bike_id":"d5632eaf-207f-4351-be9c-95c58bc9c538","system_id":"levelo_inurba_marseille","lat":43.29553,"lon":5.3751,"is_reserved":false,"is_disabled":true,"rental_uris":{"android":"levelo://app?vid=d5632eaf-207f-4351-be9c-95c58bc9c538","ios":"levelo://app?vid=d5632eaf-207f-4351-be9c-95c58bc9c538"},"vehicle_type_id":"4","last_reported":1758791450,"current_range_meters":12800,"station_id":"ce4bgh92rcd13ifvqb50","pricing_plan_id":"cebpf4jnsgd1na2vs0mg"},{"bike_id":"825deff0-a906-481c-ac87-686bfee56f0d","system_id":"levelo_inurba_marseille","lat":43.291705,"lon":5.371517,"is_reserved":false,"is_disabled":false,"rental_uris":{"android":"levelo://app?vid=825deff0-a906-481c-ac87-686bfee56f0d","ios":"levelo://app?vid=825deff0-a906-481c-ac87-686bfee56f0d"},"vehicle_type_id":"4","last_reported":1758791450,"current_range_meters":12800,"station_id":"ce4bha92rcd13ifvqeh0","pricing_plan_id":"cebpf4jnsgd1na2vs0mg"},{"bike_id":"bdec3261-de13-477f-818b-7af8ae1d1f6a","system_id":"levelo_inurba_marseille","lat":43.23952,"lon":5.37676,"is_reserved":false,"is_disabled":false,"rental_uris":{"android":"levelo://app?vid=bdec3261-de13-477f-818b-7af8ae1d1f6a","ios":"levelo://app?vid=bdec3261-de13-477f-818b-7af8ae1d1f6a"},"vehicle_type_id":"4","last_reported":1758791450,"current_range_meters":12800,"station_id":"","pricing_plan_id":"cebpf4jnsgd1na2vs0mg"},{"bike_id":"29745861-e9c1-453c-8b33-c1ef78b0c553","system_id":"levelo_inurba_marseille","lat":43.30135,"lon":5.37426,"is_reserved":false,"is_disabled":false,"rental_uris":{"android":"levelo://app?vid=29745861-e9c1-453c-8b33-c1ef78b0c553","ios":"levelo://app?vid=29745861-e9c1-453c-8b33-c1ef78b0c553"},"vehicle_type_id":"4","last_reported":1758791450,"current_range_meters":12800,"station_id":"ce4bgs92rcd13ifvqcc0","pricing_plan_id":"cebpf4jnsgd1na2vs0mg"},{"bike_id":"a7a8fda1-fb28-4ce7-b8c1-94f454135a15","system_id":"levelo_inurba_marseille","lat":43.2396,"lon":5.36634,"is_reserved":false,"is_disabled":false,"rental_uris":{"android":"levelo://app?vid=a7a8fda1-fb28-4ce7-b8c1-94f454135a15","ios":"levelo://app?vid=a7a8fda1-fb28-4ce7-b8c1-94f454135a15"},"vehicle_type_id":"4","last_reported":1758791450,"current_range_meters":12800,"station_id":"ce4bhi12rcd13ifvqfp0","pricing_plan_id":"cebpf4jnsgd1na2vs0mg"},{"bike_id":"5a9b45ec-a215-4f5e-a90c-94a89d013488","system_id":"levelo_inurba_marseille","lat":43.30552,"lon":5.36693,"is_reserved":false,"is_disabled":false,"rental_uris":{"android":"levelo://app?vid=5a9b45ec-a215-4f5e-a90c-94a89d013488","ios":"levelo://app?vid=5a9b45ec-a215-4f5e-a90c-94a89d013488"},"vehicle_type_id":"4","last_reported":1758791450,"current_range_meters":12800,"station_id":"ce4bgrp2rcd13ifvqc9g","pricing_plan_id":"cebpf4jnsgd1na2vs0mg"},{"bike_id":"a7f90678-07c2-4f03-8a02-e1b4554e0a14","system_id":"levelo_inurba_marseille","lat":43.3121,"lon":5.36878,"is_reserved":false,"is_disabled":false,"rental_uris":{"android":"levelo://app?vid=a7f90678-07c2-4f03-8a02-e1b4554e0a14","ios":"levelo://app?vid=a7f90678-07c2-4f03-8a02-e1b4554e0a14"},"vehicle_type_id":"4","last_reported":1758791450,"current_range_meters":12800,"station_id":"ce4bgl92rcd13ifvqbq0","pricing_plan_id":"cebpf4jnsgd1na2vs0mg"},{"bike_id":"003515e8-8117-44bb-979d-5f47e8d50fda","system_id":"levelo_inurba_marseille","lat":43.30623,"lon":5.37569,"is_reserved":false,"is_disabled":false,"rental_uris":{"android":"levelo://app?vid=003515e8-8117-44bb-979d-5f47e8d50fda","ios":"levelo://app?vid=003515e8-8117-44bb-979d-5f47e8d50fda"},"vehicle_type_id":"4","last_reported":1758791450,"current_range_meters":13600,"station_id":"","pricing_plan_id":"cebpf4jnsgd1na2vs0mg"},{"bike_id":"009807b1-ea40-4cd4-a19f-8f56bd4c3297","system_id":"levelo_inurba_marseille","lat":43.24082,"lon":5.37755,"is_reserved":false,"is_disabled":false,"rental_uris":{"android":"levelo://app?vid=009807b1-ea40-4cd4-a19f-8f56bd4c3297","ios":"levelo://app?vid=009807b1-ea40-4cd4-a19f-8f56bd4c3297"},"vehicle_type_id":"4","last_reported":1758791450,"current_range_meters":13600,"station_id":"ce4bhnp2rcd13ifvqgvg","pricing_plan_id":"cebpf4jnsgd1na2vs0mg"},{"bike_id":"2bd2a176-8590-4e06-8b8c-a96b49b7b36a","system_id":"levelo_inurba_marseille","lat":43.262237,"lon":5.404538,"is_reserved":false,"is_disabled":false,"rental_uris":{"android":"levelo://app?vid=2bd2a176-8590-4e06-8b8c-a96b49b7b36a","ios":"levelo://app?vid=2bd2a176-8590-4e06-8b8c-a96b49b7b36a"},"vehicle_type_id":"4","last_reported":1758791450,"current_range_meters":13600,"station_id":"","pricing_plan_id":"cebpf4jnsgd1na2vs0mg"},{"bike_id":"10ef4df9-8c67-46e8-8a7e-0888744bb3f2","system_id":"levelo_inurba_marseille","lat":43.24062,"lon":5.37747,"is_reserved":false,"is_disabled":false,"rental_uris":{"android":"levelo://app?vid=10ef4df9-8c67-46e8-8a7e-0888744bb3f2","ios":"levelo://app?vid=10ef4df9-8c67-46e8-8a7e-0888744bb3f2"},"vehicle_type_id":"4","last_reported":1758791450,"current_range_meters":13600,"station_id":"ce4bhnp2rcd13ifvqgvg","pricing_plan_id":"cebpf4jnsgd1na2vs0mg"},{"bike_id":"7953557f-ea75-46d3-9180-0cd2de657f2e","system_id":"levelo_inurba_marseille","lat":43.24051,"lon":5.37752,"is_reserved":false,"is_disabled":false,"rental_uris":{"android":"levelo://app?vid=7953557f-ea75-46d3-9180-0cd2de657f2e","ios":"levelo://app?vid=7953557f-ea75-46d3-9180-0cd2de657f2e"},"vehicle_type_id":"4","last_reported":1758791450,"current_range_meters":13600,"station_id":"ce4bhnp2rcd13ifvqgvg","pricing_plan_id":"cebpf4jnsgd1na2vs0mg"},{"bike_id":"129c8450-4cca-4e9f-b9f6-538b0080ad49","system_id":"levelo_inurba_marseille","lat":43.32551,"lon":5.38901,"is_reserved":false,"is_disabled":false,"rental_uris":{"android":"levelo://app?vid=129c8450-4cca-4e9f-b9f6-538b0080ad49","ios":"levelo://app?vid=129c8450-4cca-4e9f-b9f6-538b0080ad49"},"vehicle_type_id":"4","last_reported":1758791450,"current_range_meters":13600,"station_id":"","pricing_plan_id":"cebpf4jnsgd1na2vs0mg"},{"bike_id":"bde2c479-5a47-409b-87e4-9e3b4d14a670","system_id":"levelo_inurba_marseille","lat":43.24066,"lon":5.37709,"is_reserved":false,"is_disabled":false,"rental_uris":{"android":"levelo://app?vid=bde2c479-5a47-409b-87e4-9e3b4d14a670","ios":"levelo://app?vid=bde2c479-5a47-409b-87e4-9e3b4d14a670"},"vehicle_type_id":"4","last_reported":1758791450,"current_range_meters":13600,"station_id":"ce4bhnp2rcd13ifvqgvg","pricing_plan_id":"cebpf4jnsgd1na2vs0mg"},{"bike_id":"46923300-e0d3-40c1-8c76-7dadc761100f","system_id":"levelo_inurba_marseille","lat":43.289976,"lon":5.356269,"is_reserved":false,"is_disabled":false,"rental_uris":{"android":"levelo://app?vid=46923300-e0d3-40c1-8c76-7dadc761100f","ios":"levelo://app?vid=46923300-e0d3-40c1-8c76-7dadc761100f"},"vehicle_type_id":"4","last_reported":1758791450,"current_range_meters":13600,"station_id":"ce4bhb92rcd13ifvqen0","pricing_plan_id":"cebpf4jnsgd1na2vs0mg"},{"bike_id":"d1035cda-0828-4480-ab90-b06087f3ef72","system_id":"levelo_inurba_marseille","lat":43.255762,"lon":5.38255,"is_reserved":false,"is_disabled":false,"rental_uris":{"android":"levelo://app?vid=d1035cda-0828-4480-ab90-b06087f3ef72","ios":"levelo://app?vid=d1035cda-0828-4480-ab90-b06087f3ef72"},"vehicle_type_id":"4","last_reported":1758791450,"current_range_meters":13600,"station_id":"ce4bhih2rcd13ifvqfs0","pricing_plan_id":"cebpf4jnsgd1na2vs0mg"},{"bike_id":"212de2eb-8bbc-413c-b204-9fe1facd76e8","system_id":"levelo_inurba_marseille","lat":43.313026,"lon":5.378218,"is_reserved":false,"is_disabled":false,"rental_uris":{"android":"levelo://app?vid=212de2eb-8bbc-413c-b204-9fe1facd76e8","ios":"levelo://app?vid=212de2eb-8bbc-413c-b204-9fe1facd76e8"},"vehicle_type_id":"4","last_reported":1758791450,"current_range_meters":13600,"station_id":"","pricing_plan_id":"cebpf4jnsgd1na2vs0mg"},{"bike_id":"f9af076b-c426-46f0-97f6-f6a5a530c8e2","system_id":"levelo_inurba_marseille","lat":43.33229,"lon":5.39868,"is_reserved":false,"is_disabled":false,"rental_uris":{"android":"levelo://app?vid=f9af076b-c426-46f0-97f6-f6a5a530c8e2","ios":"levelo://app?vid=f9af076b-c426-46f0-97f6-f6a5a530c8e2"},"vehicle_type_id":"4","last_reported":1758791450,"current_range_meters":13600,"station_id":"","pricing_plan_id":"cebpf4jnsgd1na2vs0mg"},{"bike_id":"f0c5386a-9938-4d6a-81e8-14ec0c5e2580","system_id":"levelo_inurba_marseille","lat":43.3064,"lon":5.37433,"is_reserved":false,"is_disabled":false,"rental_uris":{"android":"levelo://app?vid=f0c5386a-9938-4d6a-81e8-14ec0c5e2580","ios":"levelo://app?vid=f0c5386a-9938-4d6a-81e8-14ec0c5e2580"},"vehicle_type_id":"4","last_reported":1758791450,"current_range_meters":13600,"station_id":"","pricing_plan_id":"cebpf4jnsgd1na2vs0mg"},{"bike_id":"17b6e890-308f-4e08-9acd-7090f69670ec","system_id":"levelo_inurba_marseille","lat":43.31223,"lon":5.36845,"is_reserved":false,"is_disabled":false,"rental_uris":{"android":"levelo://app?vid=17b6e890-308f-4e08-9acd-7090f69670ec","ios":"levelo://app?vid=17b6e890-308f-4e08-9acd-7090f69670ec"},"vehicle_type_id":"4","last_reported":1758791450,"current_range_meters":14000,"station_id":"ce4bgl92rcd13ifvqbq0","pricing_plan_id":"cebpf4jnsgd1na2vs0mg"},{"bike_id":"0c16ac8a-a536-4d89-a0b4-2803631fd83e","system_id":"levelo_inurba_marseille","lat":43.250028,"lon":5.389272,"is_reserved":false,"is_disabled":false,"rental_uris":{"android":"levelo://app?vid=0c16ac8a-a536-4d89-a0b4-2803631fd83e","ios":"levelo://app?vid=0c16ac8a-a536-4d89-a0b4-2803631fd83e"},"vehicle_type_id":"4","last_reported":1758791450,"current_range_meters":14000,"station_id":"ce4bhgp2rcd13ifvqfd0","pricing_plan_id":"cebpf4jnsgd1na2vs0mg"},{"bike_id":"e63016fb-c641-4bba-99e9-c10fbfaa54dc","system_id":"levelo_inurba_marseille","lat":43.32477,"lon":5.36568,"is_reserved":false,"is_disabled":false,"rental_uris":{"android":"levelo://app?vid=e63016fb-c641-4bba-99e9-c10fbfaa54dc","ios":"levelo://app?vid=e63016fb-c641-4bba-99e9-c10fbfaa54dc"},"vehicle_type_id":"4","last_reported":1758791450,"current_range_meters":14000,"station_id":"ce4bhs12rcd13ifvqhvg","pricing_plan_id":"cebpf4jnsgd1na2vs0mg"},{"bike_id":"79aaadf0-287c-4679-8751-3881b36b305c","system_id":"levelo_inurba_marseille","lat":43.312,"lon":5.36865,"is_reserved":false,"is_disabled":false,"rental_uris":{"android":"levelo://app?vid=79aaadf0-287c-4679-8751-3881b36b305c","ios":"levelo://app?vid=79aaadf0-287c-4679-8751-3881b36b305c"},"vehicle_type_id":"4","last_reported":1758791450,"current_range_meters":14000,"station_id":"ce4bgl92rcd13ifvqbq0","pricing_plan_id":"cebpf4jnsgd1na2vs0mg"},{"bike_id":"7e2637e7-af05-4646-adb1-442c24d3b09f","system_id":"levelo_inurba_marseille","lat":43.29225,"lon":5.36066,"is_reserved":false,"is_disabled":false,"rental_uris":{"android":"levelo://app?vid=7e2637e7-af05-4646-adb1-442c24d3b09f","ios":"levelo://app?vid=7e2637e7-af05-4646-adb1-442c24d3b09f"},"vehicle_type_id":"4","last_reported":1758791450,"current_range_meters":14400,"station_id":"ce4bhbh2rcd13ifvqeqg","pricing_plan_id":"cebpf4jnsgd1na2vs0mg"},{"bike_id":"33b43353-5ded-41a5-81da-c23998a2e4d6","system_id":"levelo_inurba_marseille","lat":43.26684,"lon":5.38275,"is_reserved":false,"is_disabled":false,"rental_uris":{"android":"levelo://app?vid=33b43353-5ded-41a5-81da-c23998a2e4d6","ios":"levelo://app?vid=33b43353-5ded-41a5-81da-c23998a2e4d6"},"vehicle_type_id":"4","last_reported":1758791450,"current_range_meters":14400,"station_id":"ce4bhg92rcd13ifvqf90","pricing_plan_id":"cebpf4jnsgd1na2vs0mg"},{"bike_id":"87e35d32-0ec4-4cda-949d-9256b87baba1","system_id":"levelo_inurba_marseille","lat":43.337444,"lon":5.374475,"is_reserved":false,"is_disabled":false,"rental_uris":{"android":"levelo://app?vid=87e35d32-0ec4-4cda-949d-9256b87baba1","ios":"levelo://app?vid=87e35d32-0ec4-4cda-949d-9256b87baba1"},"vehicle_type_id":"4","last_reported":1758791450,"current_range_meters":14400,"station_id":"","pricing_plan_id":"cebpf4jnsgd1na2vs0mg"},{"bike_id":"d55f7cff-ce18-4107-992e-8cb8fb12b05f","system_id":"levelo_inurba_marseille","lat":43.23194,"lon":5.35562,"is_reserved":false,"is_disabled":false,"rental_uris":{"android":"levelo://app?vid=d55f7cff-ce18-4107-992e-8cb8fb12b05f","ios":"levelo://app?vid=d55f7cff-ce18-4107-992e-8cb8fb12b05f"},"vehicle_type_id":"4","last_reported":1758791450,"current_range_meters":14800,"station_id":"ce4bhu92rcd13ifvqi70","pricing_plan_id":"cebpf4jnsgd1na2vs0mg"},{"bike_id":"1b20e7b2-029e-485f-b298-949b9e96bacd","system_id":"levelo_inurba_marseille","lat":43.33608,"lon":5.41033,"is_reserved":false,"is_disabled":false,"rental_uris":{"android":"levelo://app?vid=1b20e7b2-029e-485f-b298-949b9e96bacd","ios":"levelo://app?vid=1b20e7b2-029e-485f-b298-949b9e96bacd"},"vehicle_type_id":"4","last_reported":1758791450,"current_range_meters":14800,"station_id":"ce4bhqh2rcd13ifvqhmg","pricing_plan_id":"cebpf4jnsgd1na2vs0mg"},{"bike_id":"6bad043e-d859-47cb-b646-d4bd5dc76242","system_id":"levelo_inurba_marseille","lat":43.29958,"lon":5.41325,"is_reserved":false,"is_disabled":false,"rental_uris":{"android":"levelo://app?vid=6bad043e-d859-47cb-b646-d4bd5dc76242","ios":"levelo://app?vid=6bad043e-d859-47cb-b646-d4bd5dc76242"},"vehicle_type_id":"4","last_reported":1758791450,"current_range_meters":14800,"station_id":"ce4bhp12rcd13ifvqh9g","pricing_plan_id":"cebpf4jnsgd1na2vs0mg"},{"bike_id":"87916c34-eecf-400f-889b-6dc100549794","system_id":"levelo_inurba_marseille","lat":43.30525,"lon":5.3649,"is_reserved":false,"is_disabled":false,"rental_uris":{"android":"levelo://app?vid=87916c34-eecf-400f-889b-6dc100549794","ios":"levelo://app?vid=87916c34-eecf-400f-889b-6dc100549794"},"vehicle_type_id":"4","last_reported":1758791450,"current_range_meters":14800,"station_id":"ce4bgs12rcd13ifvqcag","pricing_plan_id":"cebpf4jnsgd1na2vs0mg"},{"bike_id":"96c55bcf-90b7-4618-9025-978539f925b5","system_id":"levelo_inurba_marseille","lat":43.32362,"lon":5.36758,"is_reserved":false,"is_disabled":false,"rental_uris":{"android":"levelo://app?vid=96c55bcf-90b7-4618-9025-978539f925b5","ios":"levelo://app?vid=96c55bcf-90b7-4618-9025-978539f925b5"},"vehicle_type_id":"4","last_reported":1758791450,"current_range_meters":14800,"station_id":"ce4bhsh2rcd13ifvqi2g","pricing_plan_id":"cebpf4jnsgd1na2vs0mg"},{"bike_id":"af60c407-5d0d-4124-90bc-f5c672eb5129","system_id":"levelo_inurba_marseille","lat":43.317187,"lon":5.404712,"is_reserved":false,"is_disabled":false,"rental_uris":{"android":"levelo://app?vid=af60c407-5d0d-4124-90bc-f5c672eb5129","ios":"levelo://app?vid=af60c407-5d0d-4124-90bc-f5c672eb5129"},"vehicle_type_id":"4","last_reported":1758791450,"current_range_meters":15200,"station_id":"ce4bh012rcd13ifvqd00","pricing_plan_id":"cebpf4jnsgd1na2vs0mg"},{"bike_id":"9c82f293-a1da-4b16-9a02-8a4ae6cd4214","system_id":"levelo_inurba_marseille","lat":43.26944,"lon":5.38626,"is_reserved":false,"is_disabled":false,"rental_uris":{"android":"levelo://app?vid=9c82f293-a1da-4b16-9a02-8a4ae6cd4214","ios":"levelo://app?vid=9c82f293-a1da-4b16-9a02-8a4ae6cd4214"},"vehicle_type_id":"4","last_reported":1758791450,"current_range_meters":15200,"station_id":"ce4bhh92rcd13ifvqfh0","pricing_plan_id":"cebpf4jnsgd1na2vs0mg"},{"bike_id":"725b1ff1-3894-44f1-a38e-91bc39cbab7e","system_id":"levelo_inurba_marseille","lat":43.246594,"lon":5.431493,"is_reserved":false,"is_disabled":false,"rental_uris":{"android":"levelo://app?vid=725b1ff1-3894-44f1-a38e-91bc39cbab7e","ios":"levelo://app?vid=725b1ff1-3894-44f1-a38e-91bc39cbab7e"},"vehicle_type_id":"4","last_reported":1758791450,"current_range_meters":15200,"station_id":"st_d2m6c4gdas8pm72e190g","pricing_plan_id":"cebpf4jnsgd1na2vs0mg"},{"bike_id":"595573fc-e79a-41eb-8127-3c8f7b96d8f1","system_id":"levelo_inurba_marseille","lat":43.26556,"lon":5.37297,"is_reserved":false,"is_disabled":false,"rental_uris":{"android":"levelo://app?vid=595573fc-e79a-41eb-8127-3c8f7b96d8f1","ios":"levelo://app?vid=595573fc-e79a-41eb-8127-3c8f7b96d8f1"},"vehicle_type_id":"4","last_reported":1758791450,"current_range_meters":15200,"station_id":"ce4bhg12rcd13ifvqf70","pricing_plan_id":"cebpf4jnsgd1na2vs0mg"},{"bike_id":"91c72787-dfa6-4372-b0d4-4b75d0bcf23e","system_id":"levelo_inurba_marseille","lat":43.27072,"lon":5.42279,"is_reserved":false,"is_disabled":false,"rental_uris":{"android":"levelo://app?vid=91c72787-dfa6-4372-b0d4-4b75d0bcf23e","ios":"levelo://app?vid=91c72787-dfa6-4372-b0d4-4b75d0bcf23e"},"vehicle_type_id":"4","last_reported":1758791450,"current_range_meters":15200,"station_id":"ce4bhk92rcd13ifvqgb0","pricing_plan_id":"cebpf4jnsgd1na2vs0mg"},{"bike_id":"d31d856a-933d-49cf-948f-ce03657dfc74","system_id":"levelo_inurba_marseille","lat":43.28413,"lon":5.34992,"is_reserved":false,"is_disabled":false,"rental_uris":{"android":"levelo://app?vid=d31d856a-933d-49cf-948f-ce03657dfc74","ios":"levelo://app?vid=d31d856a-933d-49cf-948f-ce03657dfc74"},"vehicle_type_id":"4","last_reported":1758791450,"current_range_meters":15200,"station_id":"ce4bhbh2rcd13ifvqepg","pricing_plan_id":"cebpf4jnsgd1na2vs0mg"},{"bike_id":"c7f6a08b-c655-4213-b2ba-7d02e7f382fe","system_id":"levelo_inurba_marseille","lat":43.27988,"lon":5.39483,"is_reserved":false,"is_disabled":false,"rental_uris":{"android":"levelo://app?vid=c7f6a08b-c655-4213-b2ba-7d02e7f382fe","ios":"levelo://app?vid=c7f6a08b-c655-4213-b2ba-7d02e7f382fe"},"vehicle_type_id":"4","last_reported":1758791450,"current_range_meters":15200,"station_id":"","pricing_plan_id":"cebpf4jnsgd1na2vs0mg"},{"bike_id":"dbc0eee6-28fa-427a-85ec-5eecd2501373","system_id":"levelo_inurba_marseille","lat":43.27494,"lon":5.42459,"is_reserved":false,"is_disabled":false,"rental_uris":{"android":"levelo://app?vid=dbc0eee6-28fa-427a-85ec-5eecd2501373","ios":"levelo://app?vid=dbc0eee6-28fa-427a-85ec-5eecd2501373"},"vehicle_type_id":"4","last_reported":1758791450,"current_range_meters":15200,"station_id":"ce4bhn92rcd13ifvqgrg","pricing_plan_id":"cebpf4jnsgd1na2vs0mg"},{"bike_id":"fd4b0929-5dae-4f92-bfeb-801c6778a0f5","system_id":"levelo_inurba_marseille","lat":43.26555,"lon":5.37285,"is_reserved":false,"is_disabled":true,"rental_uris":{"android":"levelo://app?vid=fd4b0929-5dae-4f92-bfeb-801c6778a0f5","ios":"levelo://app?vid=fd4b0929-5dae-4f92-bfeb-801c6778a0f5"},"vehicle_type_id":"4","last_reported":1758791450,"current_range_meters":15200,"station_id":"ce4bhg12rcd13ifvqf70","pricing_plan_id":"cebpf4jnsgd1na2vs0mg"},{"bike_id":"e5303607-da03-4ac7-b81e-b332ede84cf7","system_id":"levelo_inurba_marseille","lat":43.31298,"lon":5.37825,"is_reserved":false,"is_disabled":false,"rental_uris":{"android":"levelo://app?vid=e5303607-da03-4ac7-b81e-b332ede84cf7","ios":"levelo://app?vid=e5303607-da03-4ac7-b81e-b332ede84cf7"},"vehicle_type_id":"4","last_reported":1758791450,"current_range_meters":15200,"station_id":"","pricing_plan_id":"cebpf4jnsgd1na2vs0mg"},{"bike_id":"44d8fd3e-a9d9-4c56-90e7-a23e84e01cad","system_id":"levelo_inurba_marseille","lat":43.24167,"lon":5.36391,"is_reserved":false,"is_disabled":false,"rental_uris":{"android":"levelo://app?vid=44d8fd3e-a9d9-4c56-90e7-a23e84e01cad","ios":"levelo://app?vid=44d8fd3e-a9d9-4c56-90e7-a23e84e01cad"},"vehicle_type_id":"4","last_reported":1758791450,"current_range_meters":16000,"station_id":"cpo36qri1sfpv3e86is0","pricing_plan_id":"cebpf4jnsgd1na2vs0mg"},{"bike_id":"27daf7b7-6711-4768-8712-c15b4f0177fc","system_id":"levelo_inurba_marseille","lat":43.30347,"lon":5.41886,"is_reserved":false,"is_disabled":false,"rental_uris":{"android":"levelo://app?vid=27daf7b7-6711-4768-8712-c15b4f0177fc","ios":"levelo://app?vid=27daf7b7-6711-4768-8712-c15b4f0177fc"},"vehicle_type_id":"4","last_reported":1758791450,"current_range_meters":16000,"station_id":"ce4bhop2rcd13ifvqh7g","pricing_plan_id":"cebpf4jnsgd1na2vs0mg"},{"bike_id":"f897d300-643c-4c7a-951b-f56d70ef23ca","system_id":"levelo_inurba_marseille","lat":43.303309,"lon":5.390802,"is_reserved":false,"is_disabled":false,"rental_uris":{"android":"levelo://app?vid=f897d300-643c-4c7a-951b-f56d70ef23ca","ios":"levelo://app?vid=f897d300-643c-4c7a-951b-f56d70ef23ca"},"vehicle_type_id":"4","last_reported":1758791450,"current_range_meters":16000,"station_id":"","pricing_plan_id":"cebpf4jnsgd1na2vs0mg"},{"bike_id":"1a3ca4d7-1c12-4c7a-b013-ecb140c8c620","system_id":"levelo_inurba_marseille","lat":43.30293,"lon":5.37711,"is_reserved":false,"is_disabled":false,"rental_uris":{"android":"levelo://app?vid=1a3ca4d7-1c12-4c7a-b013-ecb140c8c620","ios":"levelo://app?vid=1a3ca4d7-1c12-4c7a-b013-ecb140c8c620"},"vehicle_type_id":"4","last_reported":1758791450,"current_range_meters":16000,"station_id":"ce4bguh2rcd13ifvqcj0","pricing_plan_id":"cebpf4jnsgd1na2vs0mg"},{"bike_id":"3731e4b4-e57b-4ad8-affe-801decac42ca","system_id":"levelo_inurba_marseille","lat":43.25741,"lon":5.40841,"is_reserved":false,"is_disabled":false,"rental_uris":{"android":"levelo://app?vid=3731e4b4-e57b-4ad8-affe-801decac42ca","ios":"levelo://app?vid=3731e4b4-e57b-4ad8-affe-801decac42ca"},"vehicle_type_id":"4","last_reported":1758791450,"current_range_meters":16000,"station_id":"","pricing_plan_id":"cebpf4jnsgd1na2vs0mg"},{"bike_id":"30ebfd57-92a8-47b0-bfcc-5ebdaf67ffae","system_id":"levelo_inurba_marseille","lat":43.231492,"lon":5.437193,"is_reserved":false,"is_disabled":false,"rental_uris":{"android":"levelo://app?vid=30ebfd57-92a8-47b0-bfcc-5ebdaf67ffae","ios":"levelo://app?vid=30ebfd57-92a8-47b0-bfcc-5ebdaf67ffae"},"vehicle_type_id":"4","last_reported":1758791450,"current_range_meters":16400,"station_id":"ce4bhmp2rcd13ifvqgog","pricing_plan_id":"cebpf4jnsgd1na2vs0mg"},{"bike_id":"cf64f5a1-85bb-4012-acd5-309d066b1fe7","system_id":"levelo_inurba_marseille","lat":43.24161,"lon":5.39721,"is_reserved":false,"is_disabled":false,"rental_uris":{"android":"levelo://app?vid=cf64f5a1-85bb-4012-acd5-309d066b1fe7","ios":"levelo://app?vid=cf64f5a1-85bb-4012-acd5-309d066b1fe7"},"vehicle_type_id":"4","last_reported":1758791450,"current_range_meters":16400,"station_id":"ce4bhn12rcd13ifvqgpg","pricing_plan_id":"cebpf4jnsgd1na2vs0mg"},{"bike_id":"10792462-3736-4e10-83a9-169f476341e6","system_id":"levelo_inurba_marseille","lat":43.290476,"lon":5.359258,"is_reserved":false,"is_disabled":false,"rental_uris":{"android":"levelo://app?vid=10792462-3736-4e10-83a9-169f476341e6","ios":"levelo://app?vid=10792462-3736-4e10-83a9-169f476341e6"},"vehicle_type_id":"4","last_reported":1758791450,"current_range_meters":16400,"station_id":"ce4bha92rcd13ifvqeg0","pricing_plan_id":"cebpf4jnsgd1na2vs0mg"},{"bike_id":"97f2002c-d7c7-417f-850b-0b930a44f212","system_id":"levelo_inurba_marseille","lat":43.24162,"lon":5.39733,"is_reserved":false,"is_disabled":false,"rental_uris":{"android":"levelo://app?vid=97f2002c-d7c7-417f-850b-0b930a44f212","ios":"levelo://app?vid=97f2002c-d7c7-417f-850b-0b930a44f212"},"vehicle_type_id":"4","last_reported":1758791450,"current_range_meters":16400,"station_id":"ce4bhn12rcd13ifvqgpg","pricing_plan_id":"cebpf4jnsgd1na2vs0mg"},{"bike_id":"041cd397-24ab-4e04-af23-07b961e161f4","system_id":"levelo_inurba_marseille","lat":43.337444,"lon":5.374475,"is_reserved":false,"is_disabled":false,"rental_uris":{"android":"levelo://app?vid=041cd397-24ab-4e04-af23-07b961e161f4","ios":"levelo://app?vid=041cd397-24ab-4e04-af23-07b961e161f4"},"vehicle_type_id":"4","last_reported":1758791450,"current_range_meters":16400,"station_id":"","pricing_plan_id":"cebpf4jnsgd1na2vs0mg"},{"bike_id":"fcaecd28-9c45-495b-b16e-ab6e92337613","system_id":"levelo_inurba_marseille","lat":43.286273,"lon":5.350933,"is_reserved":false,"is_disabled":false,"rental_uris":{"android":"levelo://app?vid=fcaecd28-9c45-495b-b16e-ab6e92337613","ios":"levelo://app?vid=fcaecd28-9c45-495b-b16e-ab6e92337613"},"vehicle_type_id":"4","last_reported":1758791450,"current_range_meters":16400,"station_id":"ce4bhch2rcd13ifvqeug","pricing_plan_id":"cebpf4jnsgd1na2vs0mg"},{"bike_id":"722dfba5-e58f-407f-9924-4fa28a1d5411","system_id":"levelo_inurba_marseille","lat":43.25338,"lon":5.42173,"is_reserved":false,"is_disabled":false,"rental_uris":{"android":"levelo://app?vid=722dfba5-e58f-407f-9924-4fa28a1d5411","ios":"levelo://app?vid=722dfba5-e58f-407f-9924-4fa28a1d5411"},"vehicle_type_id":"4","last_reported":1758791450,"current_range_meters":16400,"station_id":"st_d2m65c5bi1j21697t3ng","pricing_plan_id":"cebpf4jnsgd1na2vs0mg"},{"bike_id":"d17f8b77-ecb6-436f-8afd-f17e730fd990","system_id":"levelo_inurba_marseille","lat":43.24062,"lon":5.37742,"is_reserved":false,"is_disabled":false,"rental_uris":{"android":"levelo://app?vid=d17f8b77-ecb6-436f-8afd-f17e730fd990","ios":"levelo://app?vid=d17f8b77-ecb6-436f-8afd-f17e730fd990"},"vehicle_type_id":"4","last_reported":1758791450,"current_range_meters":16400,"station_id":"ce4bhnp2rcd13ifvqgvg","pricing_plan_id":"cebpf4jnsgd1na2vs0mg"},{"bike_id":"0fb6cd45-bafa-4bc6-8454-68966240bd7e","system_id":"levelo_inurba_marseille","lat":43.29219,"lon":5.36059,"is_reserved":false,"is_disabled":false,"rental_uris":{"android":"levelo://app?vid=0fb6cd45-bafa-4bc6-8454-68966240bd7e","ios":"levelo://app?vid=0fb6cd45-bafa-4bc6-8454-68966240bd7e"},"vehicle_type_id":"4","last_reported":1758791450,"current_range_meters":16400,"station_id":"ce4bhbh2rcd13ifvqeqg","pricing_plan_id":"cebpf4jnsgd1na2vs0mg"},{"bike_id":"3b5c1494-0e85-4edf-8056-a96914d0aa1b","system_id":"levelo_inurba_marseille","lat":43.32654,"lon":5.40997,"is_reserved":false,"is_disabled":false,"rental_uris":{"android":"levelo://app?vid=3b5c1494-0e85-4edf-8056-a96914d0aa1b","ios":"levelo://app?vid=3b5c1494-0e85-4edf-8056-a96914d0aa1b"},"vehicle_type_id":"4","last_reported":1758791450,"current_range_meters":16800,"station_id":"ce4bhpp2rcd13ifvqhgg","pricing_plan_id":"cebpf4jnsgd1na2vs0mg"},{"bike_id":"28880d22-0614-4800-bc81-cf0dd9c5e709","system_id":"levelo_inurba_marseille","lat":43.231986,"lon":5.355535,"is_reserved":false,"is_disabled":false,"rental_uris":{"android":"levelo://app?vid=28880d22-0614-4800-bc81-cf0dd9c5e709","ios":"levelo://app?vid=28880d22-0614-4800-bc81-cf0dd9c5e709"},"vehicle_type_id":"4","last_reported":1758791450,"current_range_meters":16800,"station_id":"ce4bhu92rcd13ifvqi70","pricing_plan_id":"cebpf4jnsgd1na2vs0mg"},{"bike_id":"8e4d93ed-d24c-438d-94c2-4e040142fb9b","system_id":"levelo_inurba_marseille","lat":43.240775,"lon":5.377575,"is_reserved":false,"is_disabled":false,"rental_uris":{"android":"levelo://app?vid=8e4d93ed-d24c-438d-94c2-4e040142fb9b","ios":"levelo://app?vid=8e4d93ed-d24c-438d-94c2-4e040142fb9b"},"vehicle_type_id":"4","last_reported":1758791450,"current_range_meters":16800,"station_id":"ce4bhnp2rcd13ifvqgvg","pricing_plan_id":"cebpf4jnsgd1na2vs0mg"},{"bike_id":"64e95802-ddc4-4ee7-a349-b7fd6cd06cd7","system_id":"levelo_inurba_marseille","lat":43.28459,"lon":5.38425,"is_reserved":false,"is_disabled":false,"rental_uris":{"android":"levelo://app?vid=64e95802-ddc4-4ee7-a349-b7fd6cd06cd7","ios":"levelo://app?vid=64e95802-ddc4-4ee7-a349-b7fd6cd06cd7"},"vehicle_type_id":"4","last_reported":1758791450,"current_range_meters":16800,"station_id":"ce4bh512rcd13ifvqe3g","pricing_plan_id":"cebpf4jnsgd1na2vs0mg"},{"bike_id":"b6ff3672-4e7c-404c-ab2a-bd902cf95e14","system_id":"levelo_inurba_marseille","lat":43.26848,"lon":5.40662,"is_reserved":false,"is_disabled":false,"rental_uris":{"android":"levelo://app?vid=b6ff3672-4e7c-404c-ab2a-bd902cf95e14","ios":"levelo://app?vid=b6ff3672-4e7c-404c-ab2a-bd902cf95e14"},"vehicle_type_id":"4","last_reported":1758791450,"current_range_meters":16800,"station_id":"","pricing_plan_id":"cebpf4jnsgd1na2vs0mg"},{"bike_id":"cd208cc0-7e5a-4767-82cc-82639b842843","system_id":"levelo_inurba_marseille","lat":43.3246,"lon":5.36562,"is_reserved":false,"is_disabled":false,"rental_uris":{"android":"levelo://app?vid=cd208cc0-7e5a-4767-82cc-82639b842843","ios":"levelo://app?vid=cd208cc0-7e5a-4767-82cc-82639b842843"},"vehicle_type_id":"4","last_reported":1758791450,"current_range_meters":16800,"station_id":"ce4bhs12rcd13ifvqhvg","pricing_plan_id":"cebpf4jnsgd1na2vs0mg"},{"bike_id":"eb44b6d1-3679-4928-b04b-f4942887c3d2","system_id":"levelo_inurba_marseille","lat":43.30883,"lon":5.39654,"is_reserved":false,"is_disabled":false,"rental_uris":{"android":"levelo://app?vid=eb44b6d1-3679-4928-b04b-f4942887c3d2","ios":"levelo://app?vid=eb44b6d1-3679-4928-b04b-f4942887c3d2"},"vehicle_type_id":"4","last_reported":1758791450,"current_range_meters":17200,"station_id":"ce4bh012rcd13ifvqcv0","pricing_plan_id":"cebpf4jnsgd1na2vs0mg"},{"bike_id":"e272de5d-c37b-4836-8081-748ba206ef88","system_id":"levelo_inurba_marseille","lat":43.28021,"lon":5.41656,"is_reserved":false,"is_disabled":false,"rental_uris":{"android":"levelo://app?vid=e272de5d-c37b-4836-8081-748ba206ef88","ios":"levelo://app?vid=e272de5d-c37b-4836-8081-748ba206ef88"},"vehicle_type_id":"4","last_reported":1758791450,"current_range_meters":17200,"station_id":"ce4bho12rcd13ifvqh1g","pricing_plan_id":"cebpf4jnsgd1na2vs0mg"},{"bike_id":"7c4ad0e1-6c14-4cb3-bded-113bec18a207","system_id":"levelo_inurba_marseille","lat":43.33597,"lon":5.41025,"is_reserved":false,"is_disabled":false,"rental_uris":{"android":"levelo://app?vid=7c4ad0e1-6c14-4cb3-bded-113bec18a207","ios":"levelo://app?vid=7c4ad0e1-6c14-4cb3-bded-113bec18a207"},"vehicle_type_id":"4","last_reported":1758791450,"current_range_meters":17200,"station_id":"ce4bhqh2rcd13ifvqhmg","pricing_plan_id":"cebpf4jnsgd1na2vs0mg"},{"bike_id":"f953bf4b-4c2d-4056-97c6-1b2d14939cc3","system_id":"levelo_inurba_marseille","lat":43.287128,"lon":5.379436,"is_reserved":false,"is_disabled":false,"rental_uris":{"android":"levelo://app?vid=f953bf4b-4c2d-4056-97c6-1b2d14939cc3","ios":"levelo://app?vid=f953bf4b-4c2d-4056-97c6-1b2d14939cc3"},"vehicle_type_id":"4","last_reported":1758791450,"current_range_meters":16800,"station_id":"ce4bh9p2rcd13ifvqec0","pricing_plan_id":"cebpf4jnsgd1na2vs0mg"},{"bike_id":"f84ca7be-c651-4e74-bba2-65c5fe4928ff","system_id":"levelo_inurba_marseille","lat":43.23152,"lon":5.43708,"is_reserved":false,"is_disabled":false,"rental_uris":{"android":"levelo://app?vid=f84ca7be-c651-4e74-bba2-65c5fe4928ff","ios":"levelo://app?vid=f84ca7be-c651-4e74-bba2-65c5fe4928ff"},"vehicle_type_id":"4","last_reported":1758791450,"current_range_meters":17200,"station_id":"ce4bhmp2rcd13ifvqgog","pricing_plan_id":"cebpf4jnsgd1na2vs0mg"},{"bike_id":"14ef2985-0eba-4c10-ac0f-92e88e45df9b","system_id":"levelo_inurba_marseille","lat":43.30266,"lon":5.36842,"is_reserved":false,"is_disabled":false,"rental_uris":{"android":"levelo://app?vid=14ef2985-0eba-4c10-ac0f-92e88e45df9b","ios":"levelo://app?vid=14ef2985-0eba-4c10-ac0f-92e88e45df9b"},"vehicle_type_id":"4","last_reported":1758791450,"current_range_meters":17200,"station_id":"ce4bgqh2rcd13ifvqc5g","pricing_plan_id":"cebpf4jnsgd1na2vs0mg"},{"bike_id":"64eb7a49-c5b6-486c-9da6-a9c829a5b4ae","system_id":"levelo_inurba_marseille","lat":43.27208,"lon":5.39173,"is_reserved":false,"is_disabled":false,"rental_uris":{"android":"levelo://app?vid=64eb7a49-c5b6-486c-9da6-a9c829a5b4ae","ios":"levelo://app?vid=64eb7a49-c5b6-486c-9da6-a9c829a5b4ae"},"vehicle_type_id":"4","last_reported":1758791450,"current_range_meters":17200,"station_id":"ce4bhhp2rcd13ifvqfm0","pricing_plan_id":"cebpf4jnsgd1na2vs0mg"},{"bike_id":"39e6b2d7-e7bc-4366-8a01-87bc46855564","system_id":"levelo_inurba_marseille","lat":43.321095,"lon":5.367716,"is_reserved":false,"is_disabled":false,"rental_uris":{"android":"levelo://app?vid=39e6b2d7-e7bc-4366-8a01-87bc46855564","ios":"levelo://app?vid=39e6b2d7-e7bc-4366-8a01-87bc46855564"},"vehicle_type_id":"4","last_reported":1758791450,"current_range_meters":17200,"station_id":"ce4bhrh2rcd13ifvqhug","pricing_plan_id":"cebpf4jnsgd1na2vs0mg"},{"bike_id":"75d73ab9-ac13-44ed-a5f2-2eb47879b783","system_id":"levelo_inurba_marseille","lat":43.30531,"lon":5.36696,"is_reserved":false,"is_disabled":false,"rental_uris":{"android":"levelo://app?vid=75d73ab9-ac13-44ed-a5f2-2eb47879b783","ios":"levelo://app?vid=75d73ab9-ac13-44ed-a5f2-2eb47879b783"},"vehicle_type_id":"4","last_reported":1758791450,"current_range_meters":17200,"station_id":"ce4bgrp2rcd13ifvqc9g","pricing_plan_id":"cebpf4jnsgd1na2vs0mg"},{"bike_id":"107e215b-4b6d-484a-b03f-b1bb804cfa98","system_id":"levelo_inurba_marseille","lat":43.32525,"lon":5.4147,"is_reserved":false,"is_disabled":false,"rental_uris":{"android":"levelo://app?vid=107e215b-4b6d-484a-b03f-b1bb804cfa98","ios":"levelo://app?vid=107e215b-4b6d-484a-b03f-b1bb804cfa98"},"vehicle_type_id":"4","last_reported":1758791450,"current_range_meters":17600,"station_id":"ce4bhq12rcd13ifvqhhg","pricing_plan_id":"cebpf4jnsgd1na2vs0mg"},{"bike_id":"9c5f0cd5-5776-4bde-8898-ac0d0582f527","system_id":"levelo_inurba_marseille","lat":43.30883,"lon":5.39171,"is_reserved":false,"is_disabled":false,"rental_uris":{"android":"levelo://app?vid=9c5f0cd5-5776-4bde-8898-ac0d0582f527","ios":"levelo://app?vid=9c5f0cd5-5776-4bde-8898-ac0d0582f527"},"vehicle_type_id":"4","last_reported":1758791450,"current_range_meters":17600,"station_id":"ce4bgup2rcd13ifvqco0","pricing_plan_id":"cebpf4jnsgd1na2vs0mg"},{"bike_id":"a28c4950-acb8-4027-9776-770922e1aae9","system_id":"levelo_inurba_marseille","lat":43.231516,"lon":5.437147,"is_reserved":false,"is_disabled":false,"rental_uris":{"android":"levelo://app?vid=a28c4950-acb8-4027-9776-770922e1aae9","ios":"levelo://app?vid=a28c4950-acb8-4027-9776-770922e1aae9"},"vehicle_type_id":"4","last_reported":1758791450,"current_range_meters":17600,"station_id":"ce4bhmp2rcd13ifvqgog","pricing_plan_id":"cebpf4jnsgd1na2vs0mg"},{"bike_id":"66babdd6-2063-4ef2-8d32-dd5db0e9e852","system_id":"levelo_inurba_marseille","lat":43.3247,"lon":5.36565,"is_reserved":false,"is_disabled":false,"rental_uris":{"android":"levelo://app?vid=66babdd6-2063-4ef2-8d32-dd5db0e9e852","ios":"levelo://app?vid=66babdd6-2063-4ef2-8d32-dd5db0e9e852"},"vehicle_type_id":"4","last_reported":1758791450,"current_range_meters":17600,"station_id":"ce4bhs12rcd13ifvqhvg","pricing_plan_id":"cebpf4jnsgd1na2vs0mg"},{"bike_id":"86a51246-0c47-40b9-9602-36f960d30a20","system_id":"levelo_inurba_marseille","lat":43.25492,"lon":5.37676,"is_reserved":false,"is_disabled":false,"rental_uris":{"android":"levelo://app?vid=86a51246-0c47-40b9-9602-36f960d30a20","ios":"levelo://app?vid=86a51246-0c47-40b9-9602-36f960d30a20"},"vehicle_type_id":"4","last_reported":1758791450,"current_range_meters":17600,"station_id":"ce4bhh12rcd13ifvqff0","pricing_plan_id":"cebpf4jnsgd1na2vs0mg"},{"bike_id":"237d670d-1d71-4e5a-9874-9ef01d2c1669","system_id":"levelo_inurba_marseille","lat":43.23056,"lon":5.35505,"is_reserved":false,"is_disabled":false,"rental_uris":{"android":"levelo://app?vid=237d670d-1d71-4e5a-9874-9ef01d2c1669","ios":"levelo://app?vid=237d670d-1d71-4e5a-9874-9ef01d2c1669"},"vehicle_type_id":"4","last_reported":1758791450,"current_range_meters":17600,"station_id":"cpo3342slgdg3j2ifvpg","pricing_plan_id":"cebpf4jnsgd1na2vs0mg"},{"bike_id":"a57b3feb-2354-42fe-87fd-e8fcee3a0260","system_id":"levelo_inurba_marseille","lat":43.26953,"lon":5.40241,"is_reserved":false,"is_disabled":false,"rental_uris":{"android":"levelo://app?vid=a57b3feb-2354-42fe-87fd-e8fcee3a0260","ios":"levelo://app?vid=a57b3feb-2354-42fe-87fd-e8fcee3a0260"},"vehicle_type_id":"4","last_reported":1758791450,"current_range_meters":17600,"station_id":"","pricing_plan_id":"cebpf4jnsgd1na2vs0mg"},{"bike_id":"91f826bb-15b6-4c16-a98c-42048d808ab8","system_id":"levelo_inurba_marseille","lat":43.24067,"lon":5.37751,"is_reserved":false,"is_disabled":false,"rental_uris":{"android":"levelo://app?vid=91f826bb-15b6-4c16-a98c-42048d808ab8","ios":"levelo://app?vid=91f826bb-15b6-4c16-a98c-42048d808ab8"},"vehicle_type_id":"4","last_reported":1758791450,"current_range_meters":18000,"station_id":"ce4bhnp2rcd13ifvqgvg","pricing_plan_id":"cebpf4jnsgd1na2vs0mg"},{"bike_id":"96324cb1-36c2-480b-9796-cd52fd71fdcc","system_id":"levelo_inurba_marseille","lat":43.31364,"lon":5.36681,"is_reserved":false,"is_disabled":false,"rental_uris":{"android":"levelo://app?vid=96324cb1-36c2-480b-9796-cd52fd71fdcc","ios":"levelo://app?vid=96324cb1-36c2-480b-9796-cd52fd71fdcc"},"vehicle_type_id":"4","last_reported":1758791450,"current_range_meters":18000,"station_id":"ce4bgr92rcd13ifvqc6g","pricing_plan_id":"cebpf4jnsgd1na2vs0mg"},{"bike_id":"190cc5f1-1167-4fbc-bced-6a6f58f25716","system_id":"levelo_inurba_marseille","lat":43.31361,"lon":5.36703,"is_reserved":false,"is_disabled":false,"rental_uris":{"android":"levelo://app?vid=190cc5f1-1167-4fbc-bced-6a6f58f25716","ios":"levelo://app?vid=190cc5f1-1167-4fbc-bced-6a6f58f25716"},"vehicle_type_id":"4","last_reported":1758791450,"current_range_meters":18000,"station_id":"ce4bgr92rcd13ifvqc6g","pricing_plan_id":"cebpf4jnsgd1na2vs0mg"},{"bike_id":"5ae36d1a-bdb4-46c1-96dd-d157ce1b105a","system_id":"levelo_inurba_marseille","lat":43.29364,"lon":5.37855,"is_reserved":false,"is_disabled":false,"rental_uris":{"android":"levelo://app?vid=5ae36d1a-bdb4-46c1-96dd-d157ce1b105a","ios":"levelo://app?vid=5ae36d1a-bdb4-46c1-96dd-d157ce1b105a"},"vehicle_type_id":"4","last_reported":1758791450,"current_range_meters":17600,"station_id":"ce4bgjh2rcd13ifvqbf0","pricing_plan_id":"cebpf4jnsgd1na2vs0mg"},{"bike_id":"52d9071a-af83-43d6-b83a-b41010cf8101","system_id":"levelo_inurba_marseille","lat":43.290172,"lon":5.381282,"is_reserved":false,"is_disabled":false,"rental_uris":{"android":"levelo://app?vid=52d9071a-af83-43d6-b83a-b41010cf8101","ios":"levelo://app?vid=52d9071a-af83-43d6-b83a-b41010cf8101"},"vehicle_type_id":"4","last_reported":1758791450,"current_range_meters":18000,"station_id":"","pricing_plan_id":"cebpf4jnsgd1na2vs0mg"},{"bike_id":"fe122dd9-ae1f-4c60-9d9d-a8486e2196bf","system_id":"levelo_inurba_marseille","lat":43.23131,"lon":5.43718,"is_reserved":false,"is_disabled":false,"rental_uris":{"android":"levelo://app?vid=fe122dd9-ae1f-4c60-9d9d-a8486e2196bf","ios":"levelo://app?vid=fe122dd9-ae1f-4c60-9d9d-a8486e2196bf"},"vehicle_type_id":"4","last_reported":1758791450,"current_range_meters":18000,"station_id":"ce4bhmp2rcd13ifvqgog","pricing_plan_id":"cebpf4jnsgd1na2vs0mg"},{"bike_id":"aeff7e6b-a7f3-4140-a005-9822fe4e1519","system_id":"levelo_inurba_marseille","lat":43.24653,"lon":5.43133,"is_reserved":false,"is_disabled":true,"rental_uris":{"android":"levelo://app?vid=aeff7e6b-a7f3-4140-a005-9822fe4e1519","ios":"levelo://app?vid=aeff7e6b-a7f3-4140-a005-9822fe4e1519"},"vehicle_type_id":"4","last_reported":1758791450,"current_range_meters":18000,"station_id":"st_d2m6c4gdas8pm72e190g","pricing_plan_id":"cebpf4jnsgd1na2vs0mg"},{"bike_id":"7d83008d-d423-4869-8a91-c2168822fe9a","system_id":"levelo_inurba_marseille","lat":43.30538,"lon":5.36703,"is_reserved":false,"is_disabled":false,"rental_uris":{"android":"levelo://app?vid=7d83008d-d423-4869-8a91-c2168822fe9a","ios":"levelo://app?vid=7d83008d-d423-4869-8a91-c2168822fe9a"},"vehicle_type_id":"4","last_reported":1758791450,"current_range_meters":18000,"station_id":"ce4bgrp2rcd13ifvqc9g","pricing_plan_id":"cebpf4jnsgd1na2vs0mg"},{"bike_id":"985dcff3-a402-40a0-b5f0-035e81698deb","system_id":"levelo_inurba_marseille","lat":43.30292,"lon":5.37708,"is_reserved":false,"is_disabled":false,"rental_uris":{"android":"levelo://app?vid=985dcff3-a402-40a0-b5f0-035e81698deb","ios":"levelo://app?vid=985dcff3-a402-40a0-b5f0-035e81698deb"},"vehicle_type_id":"4","last_reported":1758791450,"current_range_meters":18000,"station_id":"ce4bguh2rcd13ifvqcj0","pricing_plan_id":"cebpf4jnsgd1na2vs0mg"},{"bike_id":"6abff3ff-6f25-403c-932e-68932b6e0682","system_id":"levelo_inurba_marseille","lat":43.23153,"lon":5.43724,"is_reserved":false,"is_disabled":false,"rental_uris":{"android":"levelo://app?vid=6abff3ff-6f25-403c-932e-68932b6e0682","ios":"levelo://app?vid=6abff3ff-6f25-403c-932e-68932b6e0682"},"vehicle_type_id":"4","last_reported":1758791450,"current_range_meters":18000,"station_id":"ce4bhmp2rcd13ifvqgog","pricing_plan_id":"cebpf4jnsgd1na2vs0mg"},{"bike_id":"c079ba81-118b-4507-b713-c6c7f9771d56","system_id":"levelo_inurba_marseille","lat":43.30296,"lon":5.37711,"is_reserved":false,"is_disabled":false,"rental_uris":{"android":"levelo://app?vid=c079ba81-118b-4507-b713-c6c7f9771d56","ios":"levelo://app?vid=c079ba81-118b-4507-b713-c6c7f9771d56"},"vehicle_type_id":"4","last_reported":1758791450,"current_range_meters":18000,"station_id":"ce4bguh2rcd13ifvqcj0","pricing_plan_id":"cebpf4jnsgd1na2vs0mg"},{"bike_id":"d9b6dbad-aa9f-4607-9a13-6c118e4917b5","system_id":"levelo_inurba_marseille","lat":43.30606,"lon":5.37241,"is_reserved":false,"is_disabled":false,"rental_uris":{"android":"levelo://app?vid=d9b6dbad-aa9f-4607-9a13-6c118e4917b5","ios":"levelo://app?vid=d9b6dbad-aa9f-4607-9a13-6c118e4917b5"},"vehicle_type_id":"4","last_reported":1758791450,"current_range_meters":18000,"station_id":"ce4bgqh2rcd13ifvqc4g","pricing_plan_id":"cebpf4jnsgd1na2vs0mg"},{"bike_id":"4eb78e48-3ad2-40f2-afc1-eb2fcbc4887d","system_id":"levelo_inurba_marseille","lat":43.24075,"lon":5.37756,"is_reserved":false,"is_disabled":false,"rental_uris":{"android":"levelo://app?vid=4eb78e48-3ad2-40f2-afc1-eb2fcbc4887d","ios":"levelo://app?vid=4eb78e48-3ad2-40f2-afc1-eb2fcbc4887d"},"vehicle_type_id":"4","last_reported":1758791450,"current_range_meters":18000,"station_id":"ce4bhnp2rcd13ifvqgvg","pricing_plan_id":"cebpf4jnsgd1na2vs0mg"},{"bike_id":"cc942bdd-1e3c-4c47-8140-42c4711f9698","system_id":"levelo_inurba_marseille","lat":43.32481,"lon":5.36556,"is_reserved":false,"is_disabled":false,"rental_uris":{"android":"levelo://app?vid=cc942bdd-1e3c-4c47-8140-42c4711f9698","ios":"levelo://app?vid=cc942bdd-1e3c-4c47-8140-42c4711f9698"},"vehicle_type_id":"4","last_reported":1758791450,"current_range_meters":18800,"station_id":"ce4bhs12rcd13ifvqhvg","pricing_plan_id":"cebpf4jnsgd1na2vs0mg"},{"bike_id":"467b4306-5fd8-484e-9a4b-cf8eb50151ba","system_id":"levelo_inurba_marseille","lat":43.32291,"lon":5.3824,"is_reserved":false,"is_disabled":false,"rental_uris":{"android":"levelo://app?vid=467b4306-5fd8-484e-9a4b-cf8eb50151ba","ios":"levelo://app?vid=467b4306-5fd8-484e-9a4b-cf8eb50151ba"},"vehicle_type_id":"4","last_reported":1758791450,"current_range_meters":18800,"station_id":"ce4bhr12rcd13ifvqhqg","pricing_plan_id":"cebpf4jnsgd1na2vs0mg"},{"bike_id":"804775e9-a2f9-4bb9-b370-a78162905497","system_id":"levelo_inurba_marseille","lat":43.24663,"lon":5.38148,"is_reserved":false,"is_disabled":false,"rental_uris":{"android":"levelo://app?vid=804775e9-a2f9-4bb9-b370-a78162905497","ios":"levelo://app?vid=804775e9-a2f9-4bb9-b370-a78162905497"},"vehicle_type_id":"4","last_reported":1758791450,"current_range_meters":18800,"station_id":"ce4bhih2rcd13ifvqfr0","pricing_plan_id":"cebpf4jnsgd1na2vs0mg"},{"bike_id":"0af391df-28e9-4512-9d25-438070844655","system_id":"levelo_inurba_marseille","lat":43.24166,"lon":5.36393,"is_reserved":false,"is_disabled":false,"rental_uris":{"android":"levelo://app?vid=0af391df-28e9-4512-9d25-438070844655","ios":"levelo://app?vid=0af391df-28e9-4512-9d25-438070844655"},"vehicle_type_id":"4","last_reported":1758791450,"current_range_meters":18800,"station_id":"cpo36qri1sfpv3e86is0","pricing_plan_id":"cebpf4jnsgd1na2vs0mg"},{"bike_id":"13be0879-670b-43f4-8fc1-8fbc1c4ccf9c","system_id":"levelo_inurba_marseille","lat":43.28434,"lon":5.34997,"is_reserved":false,"is_disabled":false,"rental_uris":{"android":"levelo://app?vid=13be0879-670b-43f4-8fc1-8fbc1c4ccf9c","ios":"levelo://app?vid=13be0879-670b-43f4-8fc1-8fbc1c4ccf9c"},"vehicle_type_id":"4","last_reported":1758791450,"current_range_meters":18800,"station_id":"ce4bhbh2rcd13ifvqepg","pricing_plan_id":"cebpf4jnsgd1na2vs0mg"},{"bike_id":"0455f517-f7b8-47d9-962a-c3e277a6efc4","system_id":"levelo_inurba_marseille","lat":43.26951,"lon":5.3863,"is_reserved":false,"is_disabled":false,"rental_uris":{"android":"levelo://app?vid=0455f517-f7b8-47d9-962a-c3e277a6efc4","ios":"levelo://app?vid=0455f517-f7b8-47d9-962a-c3e277a6efc4"},"vehicle_type_id":"4","last_reported":1758791450,"current_range_meters":18800,"station_id":"ce4bhh92rcd13ifvqfh0","pricing_plan_id":"cebpf4jnsgd1na2vs0mg"},{"bike_id":"584022e9-c96b-4a44-bf28-2a2cd29c8392","system_id":"levelo_inurba_marseille","lat":43.2405,"lon":5.37753,"is_reserved":false,"is_disabled":false,"rental_uris":{"android":"levelo://app?vid=584022e9-c96b-4a44-bf28-2a2cd29c8392","ios":"levelo://app?vid=584022e9-c96b-4a44-bf28-2a2cd29c8392"},"vehicle_type_id":"4","last_reported":1758791450,"current_range_meters":18800,"station_id":"ce4bhnp2rcd13ifvqgvg","pricing_plan_id":"cebpf4jnsgd1na2vs0mg"},{"bike_id":"0850322e-223c-40f6-9cf6-f506ac5c8015","system_id":"levelo_inurba_marseille","lat":43.31064,"lon":5.36858,"is_reserved":false,"is_disabled":false,"rental_uris":{"android":"levelo://app?vid=0850322e-223c-40f6-9cf6-f506ac5c8015","ios":"levelo://app?vid=0850322e-223c-40f6-9cf6-f506ac5c8015"},"vehicle_type_id":"4","last_reported":1758791450,"current_range_meters":18800,"station_id":"","pricing_plan_id":"cebpf4jnsgd1na2vs0mg"},{"bike_id":"43009bdc-c1d2-476d-8753-a235cb8d1a73","system_id":"levelo_inurba_marseille","lat":43.25001,"lon":5.38939,"is_reserved":false,"is_disabled":false,"rental_uris":{"android":"levelo://app?vid=43009bdc-c1d2-476d-8753-a235cb8d1a73","ios":"levelo://app?vid=43009bdc-c1d2-476d-8753-a235cb8d1a73"},"vehicle_type_id":"4","last_reported":1758791450,"current_range_meters":18800,"station_id":"ce4bhgp2rcd13ifvqfd0","pricing_plan_id":"cebpf4jnsgd1na2vs0mg"},{"bike_id":"e08a4f86-c451-4643-9bcf-ef0cbaf54a17","system_id":"levelo_inurba_marseille","lat":43.29224,"lon":5.3607,"is_reserved":false,"is_disabled":false,"rental_uris":{"android":"levelo://app?vid=e08a4f86-c451-4643-9bcf-ef0cbaf54a17","ios":"levelo://app?vid=e08a4f86-c451-4643-9bcf-ef0cbaf54a17"},"vehicle_type_id":"4","last_reported":1758791450,"current_range_meters":18800,"station_id":"ce4bhbh2rcd13ifvqeqg","pricing_plan_id":"cebpf4jnsgd1na2vs0mg"},{"bike_id":"e22e50f1-1211-4bf3-a36b-33f1988e99e1","system_id":"levelo_inurba_marseille","lat":43.22566,"lon":5.4162,"is_reserved":false,"is_disabled":false,"rental_uris":{"android":"levelo://app?vid=e22e50f1-1211-4bf3-a36b-33f1988e99e1","ios":"levelo://app?vid=e22e50f1-1211-4bf3-a36b-33f1988e99e1"},"vehicle_type_id":"4","last_reported":1758791450,"current_range_meters":18800,"station_id":"st_d2o4gvlbi1j2169b742g","pricing_plan_id":"cebpf4jnsgd1na2vs0mg"},{"bike_id":"327c041e-5c9e-4b0d-a97c-a2dbaab036ae","system_id":"levelo_inurba_marseille","lat":43.32812,"lon":5.41136,"is_reserved":false,"is_disabled":false,"rental_uris":{"android":"levelo://app?vid=327c041e-5c9e-4b0d-a97c-a2dbaab036ae","ios":"levelo://app?vid=327c041e-5c9e-4b0d-a97c-a2dbaab036ae"},"vehicle_type_id":"4","last_reported":1758791450,"current_range_meters":19200,"station_id":"","pricing_plan_id":"cebpf4jnsgd1na2vs0mg"},{"bike_id":"9c275835-724b-46b3-9835-379458b3a92a","system_id":"levelo_inurba_marseille","lat":43.27378,"lon":5.36261,"is_reserved":false,"is_disabled":false,"rental_uris":{"android":"levelo://app?vid=9c275835-724b-46b3-9835-379458b3a92a","ios":"levelo://app?vid=9c275835-724b-46b3-9835-379458b3a92a"},"vehicle_type_id":"4","last_reported":1758791450,"current_range_meters":19200,"station_id":"ce4bhbh2rcd13ifvqeo0","pricing_plan_id":"cebpf4jnsgd1na2vs0mg"},{"bike_id":"443e9cca-9894-46a4-9154-fde8988e8a44","system_id":"levelo_inurba_marseille","lat":43.30638,"lon":5.40098,"is_reserved":false,"is_disabled":false,"rental_uris":{"android":"levelo://app?vid=443e9cca-9894-46a4-9154-fde8988e8a44","ios":"levelo://app?vid=443e9cca-9894-46a4-9154-fde8988e8a44"},"vehicle_type_id":"4","last_reported":1758791450,"current_range_meters":19200,"station_id":"ce4bh112rcd13ifvqda0","pricing_plan_id":"cebpf4jnsgd1na2vs0mg"},{"bike_id":"b567dfa6-db04-4eb0-a3dc-2ac34452da5d","system_id":"levelo_inurba_marseille","lat":43.231551,"lon":5.436985,"is_reserved":false,"is_disabled":true,"rental_uris":{"android":"levelo://app?vid=b567dfa6-db04-4eb0-a3dc-2ac34452da5d","ios":"levelo://app?vid=b567dfa6-db04-4eb0-a3dc-2ac34452da5d"},"vehicle_type_id":"4","last_reported":1758791450,"current_range_meters":19200,"station_id":"ce4bhmp2rcd13ifvqgog","pricing_plan_id":"cebpf4jnsgd1na2vs0mg"},{"bike_id":"bfdb0d52-898f-45b7-b9e4-396d25ddff0c","system_id":"levelo_inurba_marseille","lat":43.30469,"lon":5.37903,"is_reserved":false,"is_disabled":true,"rental_uris":{"android":"levelo://app?vid=bfdb0d52-898f-45b7-b9e4-396d25ddff0c","ios":"levelo://app?vid=bfdb0d52-898f-45b7-b9e4-396d25ddff0c"},"vehicle_type_id":"4","last_reported":1758791450,"current_range_meters":19200,"station_id":"ce4bgup2rcd13ifvqcn0","pricing_plan_id":"cebpf4jnsgd1na2vs0mg"},{"bike_id":"53575b32-ed29-4f33-a153-53bd5b3c725a","system_id":"levelo_inurba_marseille","lat":43.2214,"lon":5.34572,"is_reserved":false,"is_disabled":false,"rental_uris":{"android":"levelo://app?vid=53575b32-ed29-4f33-a153-53bd5b3c725a","ios":"levelo://app?vid=53575b32-ed29-4f33-a153-53bd5b3c725a"},"vehicle_type_id":"4","last_reported":1758791450,"current_range_meters":19200,"station_id":"","pricing_plan_id":"cebpf4jnsgd1na2vs0mg"},{"bike_id":"0c8cc4cf-1548-4702-8beb-4813f33f974a","system_id":"levelo_inurba_marseille","lat":43.2314,"lon":5.4372,"is_reserved":false,"is_disabled":false,"rental_uris":{"android":"levelo://app?vid=0c8cc4cf-1548-4702-8beb-4813f33f974a","ios":"levelo://app?vid=0c8cc4cf-1548-4702-8beb-4813f33f974a"},"vehicle_type_id":"4","last_reported":1758791450,"current_range_meters":19200,"station_id":"ce4bhmp2rcd13ifvqgog","pricing_plan_id":"cebpf4jnsgd1na2vs0mg"},{"bike_id":"77e2d895-129a-4ff3-9d84-075d048492b7","system_id":"levelo_inurba_marseille","lat":43.24992,"lon":5.38935,"is_reserved":false,"is_disabled":false,"rental_uris":{"android":"levelo://app?vid=77e2d895-129a-4ff3-9d84-075d048492b7","ios":"levelo://app?vid=77e2d895-129a-4ff3-9d84-075d048492b7"},"vehicle_type_id":"4","last_reported":1758791450,"current_range_meters":19200,"station_id":"ce4bhgp2rcd13ifvqfd0","pricing_plan_id":"cebpf4jnsgd1na2vs0mg"},{"bike_id":"f5a888db-229a-4246-81ee-0ff2a1bcfdfa","system_id":"levelo_inurba_marseille","lat":43.22926,"lon":5.353751,"is_reserved":false,"is_disabled":false,"rental_uris":{"android":"levelo://app?vid=f5a888db-229a-4246-81ee-0ff2a1bcfdfa","ios":"levelo://app?vid=f5a888db-229a-4246-81ee-0ff2a1bcfdfa"},"vehicle_type_id":"4","last_reported":1758791450,"current_range_meters":19200,"station_id":"cpo3532slgdg3j2ikp40","pricing_plan_id":"cebpf4jnsgd1na2vs0mg"},{"bike_id":"08fe2b08-b3fa-43f8-ae73-04061f76318d","system_id":"levelo_inurba_marseille","lat":43.305552,"lon":5.365395,"is_reserved":false,"is_disabled":false,"rental_uris":{"android":"levelo://app?vid=08fe2b08-b3fa-43f8-ae73-04061f76318d","ios":"levelo://app?vid=08fe2b08-b3fa-43f8-ae73-04061f76318d"},"vehicle_type_id":"4","last_reported":1758791450,"current_range_meters":19200,"station_id":"","pricing_plan_id":"cebpf4jnsgd1na2vs0mg"},{"bike_id":"1d5d14cf-15e7-4470-bff9-613bb9abe120","system_id":"levelo_inurba_marseille","lat":43.33506,"lon":5.420588,"is_reserved":false,"is_disabled":false,"rental_uris":{"android":"levelo://app?vid=1d5d14cf-15e7-4470-bff9-613bb9abe120","ios":"levelo://app?vid=1d5d14cf-15e7-4470-bff9-613bb9abe120"},"vehicle_type_id":"4","last_reported":1758791450,"current_range_meters":19200,"station_id":"","pricing_plan_id":"cebpf4jnsgd1na2vs0mg"},{"bike_id":"592b1ba5-e76d-424a-880d-d370c85011a0","system_id":"levelo_inurba_marseille","lat":43.29222,"lon":5.36103,"is_reserved":false,"is_disabled":false,"rental_uris":{"android":"levelo://app?vid=592b1ba5-e76d-424a-880d-d370c85011a0","ios":"levelo://app?vid=592b1ba5-e76d-424a-880d-d370c85011a0"},"vehicle_type_id":"4","last_reported":1758791450,"current_range_meters":19200,"station_id":"ce4bhbh2rcd13ifvqeqg","pricing_plan_id":"cebpf4jnsgd1na2vs0mg"},{"bike_id":"9d3a1f3b-9f72-43df-bb3c-64f9814c6cf2","system_id":"levelo_inurba_marseille","lat":43.33592,"lon":5.41033,"is_reserved":false,"is_disabled":false,"rental_uris":{"android":"levelo://app?vid=9d3a1f3b-9f72-43df-bb3c-64f9814c6cf2","ios":"levelo://app?vid=9d3a1f3b-9f72-43df-bb3c-64f9814c6cf2"},"vehicle_type_id":"4","last_reported":1758791450,"current_range_meters":18800,"station_id":"ce4bhqh2rcd13ifvqhmg","pricing_plan_id":"cebpf4jnsgd1na2vs0mg"},{"bike_id":"caafbd0b-78e3-400b-8692-6af69e5b06f8","system_id":"levelo_inurba_marseille","lat":43.27499,"lon":5.42456,"is_reserved":false,"is_disabled":false,"rental_uris":{"android":"levelo://app?vid=caafbd0b-78e3-400b-8692-6af69e5b06f8","ios":"levelo://app?vid=caafbd0b-78e3-400b-8692-6af69e5b06f8"},"vehicle_type_id":"4","last_reported":1758791450,"current_range_meters":19200,"station_id":"ce4bhn92rcd13ifvqgrg","pricing_plan_id":"cebpf4jnsgd1na2vs0mg"},{"bike_id":"208d8654-3228-40c7-b9c8-8618c2e5fa52","system_id":"levelo_inurba_marseille","lat":43.28643,"lon":5.38274,"is_reserved":false,"is_disabled":false,"rental_uris":{"android":"levelo://app?vid=208d8654-3228-40c7-b9c8-8618c2e5fa52","ios":"levelo://app?vid=208d8654-3228-40c7-b9c8-8618c2e5fa52"},"vehicle_type_id":"4","last_reported":1758791450,"current_range_meters":19200,"station_id":"","pricing_plan_id":"cebpf4jnsgd1na2vs0mg"},{"bike_id":"5ce576e1-5a8a-4407-9d3e-39d6005fe7f6","system_id":"levelo_inurba_marseille","lat":43.24544,"lon":5.39528,"is_reserved":false,"is_disabled":false,"rental_uris":{"android":"levelo://app?vid=5ce576e1-5a8a-4407-9d3e-39d6005fe7f6","ios":"levelo://app?vid=5ce576e1-5a8a-4407-9d3e-39d6005fe7f6"},"vehicle_type_id":"4","last_reported":1758791450,"current_range_meters":18800,"station_id":"ce4bhlp2rcd13ifvqgjg","pricing_plan_id":"cebpf4jnsgd1na2vs0mg"},{"bike_id":"10b8d871-07e9-4114-9eb9-6bcce40e7beb","system_id":"levelo_inurba_marseille","lat":43.27045,"lon":5.392226,"is_reserved":false,"is_disabled":false,"rental_uris":{"android":"levelo://app?vid=10b8d871-07e9-4114-9eb9-6bcce40e7beb","ios":"levelo://app?vid=10b8d871-07e9-4114-9eb9-6bcce40e7beb"},"vehicle_type_id":"4","last_reported":1758791450,"current_range_meters":19200,"station_id":"ce4bhe12rcd13ifvqf30","pricing_plan_id":"cebpf4jnsgd1na2vs0mg"},{"bike_id":"7ba86719-ab65-4920-aafa-d400dca8bbb2","system_id":"levelo_inurba_marseille","lat":43.240729,"lon":5.377601,"is_reserved":false,"is_disabled":false,"rental_uris":{"android":"levelo://app?vid=7ba86719-ab65-4920-aafa-d400dca8bbb2","ios":"levelo://app?vid=7ba86719-ab65-4920-aafa-d400dca8bbb2"},"vehicle_type_id":"4","last_reported":1758791450,"current_range_meters":19200,"station_id":"","pricing_plan_id":"cebpf4jnsgd1na2vs0mg"},{"bike_id":"e4fa45e2-da10-440b-87a9-554053aae45b","system_id":"levelo_inurba_marseille","lat":43.27376,"lon":5.36254,"is_reserved":false,"is_disabled":false,"rental_uris":{"android":"levelo://app?vid=e4fa45e2-da10-440b-87a9-554053aae45b","ios":"levelo://app?vid=e4fa45e2-da10-440b-87a9-554053aae45b"},"vehicle_type_id":"4","last_reported":1758791450,"current_range_meters":19600,"station_id":"ce4bhbh2rcd13ifvqeo0","pricing_plan_id":"cebpf4jnsgd1na2vs0mg"},{"bike_id":"cce8ed20-52ab-4399-a886-b84049f51792","system_id":"levelo_inurba_marseille","lat":43.21761,"lon":5.34603,"is_reserved":false,"is_disabled":false,"rental_uris":{"android":"levelo://app?vid=cce8ed20-52ab-4399-a886-b84049f51792","ios":"levelo://app?vid=cce8ed20-52ab-4399-a886-b84049f51792"},"vehicle_type_id":"4","last_reported":1758791450,"current_range_meters":19600,"station_id":"st_cvj6r9ubvosntc0bgbag","pricing_plan_id":"cebpf4jnsgd1na2vs0mg"},{"bike_id":"7f09bc43-02a6-468a-9182-731c83281b4a","system_id":"levelo_inurba_marseille","lat":43.26366,"lon":5.37485,"is_reserved":false,"is_disabled":false,"rental_uris":{"android":"levelo://app?vid=7f09bc43-02a6-468a-9182-731c83281b4a","ios":"levelo://app?vid=7f09bc43-02a6-468a-9182-731c83281b4a"},"vehicle_type_id":"4","last_reported":1758791450,"current_range_meters":19600,"station_id":"","pricing_plan_id":"cebpf4jnsgd1na2vs0mg"},{"bike_id":"48e4c90a-d5b6-4c06-bf5d-12f6050ce0f7","system_id":"levelo_inurba_marseille","lat":43.30506,"lon":5.36545,"is_reserved":false,"is_disabled":false,"rental_uris":{"android":"levelo://app?vid=48e4c90a-d5b6-4c06-bf5d-12f6050ce0f7","ios":"levelo://app?vid=48e4c90a-d5b6-4c06-bf5d-12f6050ce0f7"},"vehicle_type_id":"4","last_reported":1758791450,"current_range_meters":19600,"station_id":"ce4bgs12rcd13ifvqcag","pricing_plan_id":"cebpf4jnsgd1na2vs0mg"},{"bike_id":"9006bf3d-4da8-4adb-9ea9-b302b3a5f525","system_id":"levelo_inurba_marseille","lat":43.24053,"lon":5.37732,"is_reserved":false,"is_disabled":false,"rental_uris":{"android":"levelo://app?vid=9006bf3d-4da8-4adb-9ea9-b302b3a5f525","ios":"levelo://app?vid=9006bf3d-4da8-4adb-9ea9-b302b3a5f525"},"vehicle_type_id":"4","last_reported":1758791450,"current_range_meters":19600,"station_id":"ce4bhnp2rcd13ifvqgvg","pricing_plan_id":"cebpf4jnsgd1na2vs0mg"},{"bike_id":"2467a753-313c-471d-a85f-f37385397fb9","system_id":"levelo_inurba_marseille","lat":43.259344,"lon":5.409094,"is_reserved":false,"is_disabled":false,"rental_uris":{"android":"levelo://app?vid=2467a753-313c-471d-a85f-f37385397fb9","ios":"levelo://app?vid=2467a753-313c-471d-a85f-f37385397fb9"},"vehicle_type_id":"4","last_reported":1758791450,"current_range_meters":19600,"station_id":"ce4bhm92rcd13ifvqglg","pricing_plan_id":"cebpf4jnsgd1na2vs0mg"},{"bike_id":"d7a875e7-b66c-4fa8-be35-eb57bdce7aff","system_id":"levelo_inurba_marseille","lat":43.23134,"lon":5.43716,"is_reserved":false,"is_disabled":false,"rental_uris":{"android":"levelo://app?vid=d7a875e7-b66c-4fa8-be35-eb57bdce7aff","ios":"levelo://app?vid=d7a875e7-b66c-4fa8-be35-eb57bdce7aff"},"vehicle_type_id":"4","last_reported":1758791450,"current_range_meters":19600,"station_id":"ce4bhmp2rcd13ifvqgog","pricing_plan_id":"cebpf4jnsgd1na2vs0mg"},{"bike_id":"96ed85f0-e9a2-46aa-8e4f-7f8fa7525de6","system_id":"levelo_inurba_marseille","lat":43.31682,"lon":5.40472,"is_reserved":false,"is_disabled":false,"rental_uris":{"android":"levelo://app?vid=96ed85f0-e9a2-46aa-8e4f-7f8fa7525de6","ios":"levelo://app?vid=96ed85f0-e9a2-46aa-8e4f-7f8fa7525de6"},"vehicle_type_id":"4","last_reported":1758791450,"current_range_meters":19600,"station_id":"ce4bh012rcd13ifvqd00","pricing_plan_id":"cebpf4jnsgd1na2vs0mg"},{"bike_id":"20f9bd49-6fda-4430-aefc-408e616dd032","system_id":"levelo_inurba_marseille","lat":43.32352,"lon":5.36754,"is_reserved":false,"is_disabled":false,"rental_uris":{"android":"levelo://app?vid=20f9bd49-6fda-4430-aefc-408e616dd032","ios":"levelo://app?vid=20f9bd49-6fda-4430-aefc-408e616dd032"},"vehicle_type_id":"4","last_reported":1758791450,"current_range_meters":19600,"station_id":"ce4bhsh2rcd13ifvqi2g","pricing_plan_id":"cebpf4jnsgd1na2vs0mg"},{"bike_id":"d7dc6888-512c-47b2-be62-8950ff4cf027","system_id":"levelo_inurba_marseille","lat":43.31222,"lon":5.36865,"is_reserved":false,"is_disabled":false,"rental_uris":{"android":"levelo://app?vid=d7dc6888-512c-47b2-be62-8950ff4cf027","ios":"levelo://app?vid=d7dc6888-512c-47b2-be62-8950ff4cf027"},