{"last_updated":1751012088,"ttl":60,"version":"2.2","data":{"bikes":[{"bike_id":"3da29fb8-fc97-44c6-b9ac-31dd456b2fd4","system_id":"levelo_inurba_marseille","lat":43.33771,"lon":5.37424,"is_reserved":false,"is_disabled":true,"rental_uris":{"android":"levelo://app?vid=3da29fb8-fc97-44c6-b9ac-31dd456b2fd4","ios":"levelo://app?vid=3da29fb8-fc97-44c6-b9ac-31dd456b2fd4"},"vehicle_type_id":"4","last_reported":1751012089,"current_range_meters":0,"station_id":"","pricing_plan_id":"cebpf4jnsgd1na2vs0mg"},{"bike_id":"01861ad8-a8d7-4be6-816e-651927c87584","system_id":"levelo_inurba_marseille","lat":43.33751,"lon":5.37456,"is_reserved":false,"is_disabled":true,"rental_uris":{"android":"levelo://app?vid=01861ad8-a8d7-4be6-816e-651927c87584","ios":"levelo://app?vid=01861ad8-a8d7-4be6-816e-651927c87584"},"vehicle_type_id":"4","last_reported":1751012089,"current_range_meters":0,"station_id":"","pricing_plan_id":"cebpf4jnsgd1na2vs0mg"},{"bike_id":"7d5d4f17-3bf3-4858-860d-f62ae939381f","system_id":"levelo_inurba_marseille","lat":43.30898,"lon":5.40514,"is_reserved":false,"is_disabled":true,"rental_uris":{"android":"levelo://app?vid=7d5d4f17-3bf3-4858-860d-f62ae939381f","ios":"levelo://app?vid=7d5d4f17-3bf3-4858-860d-f62ae939381f"},"vehicle_type_id":"4","last_reported":1751012089,"current_range_meters":0,"station_id":"","pricing_plan_id":"cebpf4jnsgd1na2vs0mg"},{"bike_id":"a147e67d-e0b1-425e-bbda-ae9524df353e","system_id":"levelo_inurba_marseille","lat":43.337541,"lon":5.374577,"is_reserved":false,"is_disabled":true,"rental_uris":{"android":"levelo://app?vid=a147e67d-e0b1-425e-bbda-ae9524df353e","ios":"levelo://app?vid=a147e67d-e0b1-425e-bbda-ae9524df353e"},"vehicle_type_id":"4","last_reported":1751012089,"current_range_meters":0,"station_id":"","pricing_plan_id":"cebpf4jnsgd1na2vs0mg"},{"bike_id":"d7ab0e84-3bbe-4115-b0ab-ab05a5f13dfd","system_id":"levelo_inurba_marseille","lat":43.33009,"lon":5.41045,"is_reserved":false,"is_disabled":true,"rental_uris":{"android":"levelo://app?vid=d7ab0e84-3bbe-4115-b0ab-ab05a5f13dfd","ios":"levelo://app?vid=d7ab0e84-3bbe-4115-b0ab-ab05a5f13dfd"},"vehicle_type_id":"4","last_reported":1751012089,"current_range_meters":0,"station_id":"","pricing_plan_id":"cebpf4jnsgd1na2vs0mg"},{"bike_id":"2c5ab5ef-6e3c-47bf-9405-4e96ff645858","system_id":"levelo_inurba_marseille","lat":43.34024,"lon":5.42892,"is_reserved":false,"is_disabled":true,"rental_uris":{"android":"levelo://app?vid=2c5ab5ef-6e3c-47bf-9405-4e96ff645858","ios":"levelo://app?vid=2c5ab5ef-6e3c-47bf-9405-4e96ff645858"},"vehicle_type_id":"4","last_reported":1751012089,"current_range_meters":0,"station_id":"","pricing_plan_id":"cebpf4jnsgd1na2vs0mg"},{"bike_id":"4d064f95-6dcb-4234-9e98-7c70fbb74351","system_id":"levelo_inurba_marseille","lat":43.337444,"lon":5.374475,"is_reserved":false,"is_disabled":true,"rental_uris":{"android":"levelo://app?vid=4d064f95-6dcb-4234-9e98-7c70fbb74351","ios":"levelo://app?vid=4d064f95-6dcb-4234-9e98-7c70fbb74351"},"vehicle_type_id":"4","last_reported":1751012089,"current_range_meters":0,"station_id":"","pricing_plan_id":"cebpf4jnsgd1na2vs0mg"},{"bike_id":"5cb763a6-3786-49bc-8246-7cc7fd6960fb","system_id":"levelo_inurba_marseille","lat":43.24387,"lon":5.370587,"is_reserved":false,"is_disabled":true,"rental_uris":{"android":"levelo://app?vid=5cb763a6-3786-49bc-8246-7cc7fd6960fb","ios":"levelo://app?vid=5cb763a6-3786-49bc-8246-7cc7fd6960fb"},"vehicle_type_id":"4","last_reported":1751012089,"current_range_meters":0,"station_id":"","pricing_plan_id":"cebpf4jnsgd1na2vs0mg"},{"bike_id":"d6609b4f-333b-43c1-9ebe-8726f5e76e88","system_id":"levelo_inurba_marseille","lat":43.337444,"lon":5.374475,"is_reserved":false,"is_disabled":true,"rental_uris":{"android":"levelo://app?vid=d6609b4f-333b-43c1-9ebe-8726f5e76e88","ios":"levelo://app?vid=d6609b4f-333b-43c1-9ebe-8726f5e76e88"},"vehicle_type_id":"4","last_reported":1751012089,"current_range_meters":0,"station_id":"","pricing_plan_id":"cebpf4jnsgd1na2vs0mg"},{"bike_id":"14903f35-1eaf-4a5d-86c3-23007b361999","system_id":"levelo_inurba_marseille","lat":43.27064,"lon":5.42274,"is_reserved":false,"is_disabled":true,"rental_uris":{"android":"levelo://app?vid=14903f35-1eaf-4a5d-86c3-23007b361999","ios":"levelo://app?vid=14903f35-1eaf-4a5d-86c3-23007b361999"},"vehicle_type_id":"4","last_reported":1751012089,"current_range_meters":0,"station_id":"","pricing_plan_id":"cebpf4jnsgd1na2vs0mg"},{"bike_id":"8af7d8f5-8c0a-4790-b1d9-8347fb13a606","system_id":"levelo_inurba_marseille","lat":43.314193,"lon":5.405447,"is_reserved":false,"is_disabled":true,"rental_uris":{"android":"levelo://app?vid=8af7d8f5-8c0a-4790-b1d9-8347fb13a606","ios":"levelo://app?vid=8af7d8f5-8c0a-4790-b1d9-8347fb13a606"},"vehicle_type_id":"4","last_reported":1751012089,"current_range_meters":0,"station_id":"","pricing_plan_id":"cebpf4jnsgd1na2vs0mg"},{"bike_id":"bf027107-0fe5-47a2-8fef-6473f83bb647","system_id":"levelo_inurba_marseille","lat":43.329342,"lon":5.364153,"is_reserved":false,"is_disabled":true,"rental_uris":{"android":"levelo://app?vid=bf027107-0fe5-47a2-8fef-6473f83bb647","ios":"levelo://app?vid=bf027107-0fe5-47a2-8fef-6473f83bb647"},"vehicle_type_id":"4","last_reported":1751012089,"current_range_meters":0,"station_id":"","pricing_plan_id":"cebpf4jnsgd1na2vs0mg"},{"bike_id":"b17b6606-336a-4606-9b65-af139c49de26","system_id":"levelo_inurba_marseille","lat":43.256709,"lon":5.426896,"is_reserved":false,"is_disabled":true,"rental_uris":{"android":"levelo://app?vid=b17b6606-336a-4606-9b65-af139c49de26","ios":"levelo://app?vid=b17b6606-336a-4606-9b65-af139c49de26"},"vehicle_type_id":"4","last_reported":1751012089,"current_range_meters":0,"station_id":"","pricing_plan_id":"cebpf4jnsgd1na2vs0mg"},{"bike_id":"9d3724b1-0dc8-4689-9d6a-55005a9503cb","system_id":"levelo_inurba_marseille","lat":43.286174,"lon":5.428189,"is_reserved":false,"is_disabled":true,"rental_uris":{"android":"levelo://app?vid=9d3724b1-0dc8-4689-9d6a-55005a9503cb","ios":"levelo://app?vid=9d3724b1-0dc8-4689-9d6a-55005a9503cb"},"vehicle_type_id":"4","last_reported":1751012089,"current_range_meters":0,"station_id":"","pricing_plan_id":"cebpf4jnsgd1na2vs0mg"},{"bike_id":"ce774a04-a4be-4eca-a30f-78eb921955bd","system_id":"levelo_inurba_marseille","lat":43.338783,"lon":5.35546,"is_reserved":false,"is_disabled":true,"rental_uris":{"android":"levelo://app?vid=ce774a04-a4be-4eca-a30f-78eb921955bd","ios":"levelo://app?vid=ce774a04-a4be-4eca-a30f-78eb921955bd"},"vehicle_type_id":"4","last_reported":1751012089,"current_range_meters":0,"station_id":"","pricing_plan_id":"cebpf4jnsgd1na2vs0mg"},{"bike_id":"242b9084-2bbf-4482-b994-16c82e2a4195","system_id":"levelo_inurba_marseille","lat":43.32661,"lon":5.42178,"is_reserved":false,"is_disabled":true,"rental_uris":{"android":"levelo://app?vid=242b9084-2bbf-4482-b994-16c82e2a4195","ios":"levelo://app?vid=242b9084-2bbf-4482-b994-16c82e2a4195"},"vehicle_type_id":"4","last_reported":1751012089,"current_range_meters":0,"station_id":"","pricing_plan_id":"cebpf4jnsgd1na2vs0mg"},{"bike_id":"479aa0bd-0750-43c9-a904-e911c8e7fc23","system_id":"levelo_inurba_marseille","lat":43.31141,"lon":5.3828,"is_reserved":false,"is_disabled":true,"rental_uris":{"android":"levelo://app?vid=479aa0bd-0750-43c9-a904-e911c8e7fc23","ios":"levelo://app?vid=479aa0bd-0750-43c9-a904-e911c8e7fc23"},"vehicle_type_id":"4","last_reported":1751012089,"current_range_meters":0,"station_id":"","pricing_plan_id":"cebpf4jnsgd1na2vs0mg"},{"bike_id":"4dc67f61-3f5d-4d7d-931d-b02a327ccd43","system_id":"levelo_inurba_marseille","lat":43.31235,"lon":5.36869,"is_reserved":false,"is_disabled":true,"rental_uris":{"android":"levelo://app?vid=4dc67f61-3f5d-4d7d-931d-b02a327ccd43","ios":"levelo://app?vid=4dc67f61-3f5d-4d7d-931d-b02a327ccd43"},"vehicle_type_id":"4","last_reported":1751012089,"current_range_meters":0,"station_id":"ce4bgl92rcd13ifvqbq0","pricing_plan_id":"cebpf4jnsgd1na2vs0mg"},{"bike_id":"6f71c9d3-4380-4ac0-81d7-201924ec113c","system_id":"levelo_inurba_marseille","lat":43.31127,"lon":5.37764,"is_reserved":false,"is_disabled":true,"rental_uris":{"android":"levelo://app?vid=6f71c9d3-4380-4ac0-81d7-201924ec113c","ios":"levelo://app?vid=6f71c9d3-4380-4ac0-81d7-201924ec113c"},"vehicle_type_id":"4","last_reported":1751012089,"current_range_meters":0,"station_id":"ce4bgt92rcd13ifvqcg0","pricing_plan_id":"cebpf4jnsgd1na2vs0mg"},{"bike_id":"4f04c610-95f0-4b08-a8d6-e168005e71f9","system_id":"levelo_inurba_marseille","lat":43.31698,"lon":5.40453,"is_reserved":false,"is_disabled":true,"rental_uris":{"android":"levelo://app?vid=4f04c610-95f0-4b08-a8d6-e168005e71f9","ios":"levelo://app?vid=4f04c610-95f0-4b08-a8d6-e168005e71f9"},"vehicle_type_id":"4","last_reported":1751012089,"current_range_meters":0,"station_id":"ce4bh012rcd13ifvqd00","pricing_plan_id":"cebpf4jnsgd1na2vs0mg"},{"bike_id":"d7bbf4b4-bc0a-48b7-9375-49724515f96d","system_id":"levelo_inurba_marseille","lat":43.31281,"lon":5.40187,"is_reserved":false,"is_disabled":true,"rental_uris":{"android":"levelo://app?vid=d7bbf4b4-bc0a-48b7-9375-49724515f96d","ios":"levelo://app?vid=d7bbf4b4-bc0a-48b7-9375-49724515f96d"},"vehicle_type_id":"4","last_reported":1751012089,"current_range_meters":0,"station_id":"ce4bh092rcd13ifvqd30","pricing_plan_id":"cebpf4jnsgd1na2vs0mg"},{"bike_id":"f6a6aeb6-3fec-450b-a8d4-0cc08aee47d8","system_id":"levelo_inurba_marseille","lat":43.28462,"lon":5.35879,"is_reserved":false,"is_disabled":true,"rental_uris":{"android":"levelo://app?vid=f6a6aeb6-3fec-450b-a8d4-0cc08aee47d8","ios":"levelo://app?vid=f6a6aeb6-3fec-450b-a8d4-0cc08aee47d8"},"vehicle_type_id":"4","last_reported":1751012089,"current_range_meters":0,"station_id":"ce4bhah2rcd13ifvqei0","pricing_plan_id":"cebpf4jnsgd1na2vs0mg"},{"bike_id":"9aca6538-379b-4e23-9612-249fa95aa980","system_id":"levelo_inurba_marseille","lat":43.28263,"lon":5.35067,"is_reserved":false,"is_disabled":true,"rental_uris":{"android":"levelo://app?vid=9aca6538-379b-4e23-9612-249fa95aa980","ios":"levelo://app?vid=9aca6538-379b-4e23-9612-249fa95aa980"},"vehicle_type_id":"4","last_reported":1751012089,"current_range_meters":0,"station_id":"ce4bhbp2rcd13ifvqerg","pricing_plan_id":"cebpf4jnsgd1na2vs0mg"},{"bike_id":"c1ba4986-182f-404a-acfc-c3c538a08d7d","system_id":"levelo_inurba_marseille","lat":43.24399,"lon":5.3706,"is_reserved":false,"is_disabled":true,"rental_uris":{"android":"levelo://app?vid=c1ba4986-182f-404a-acfc-c3c538a08d7d","ios":"levelo://app?vid=c1ba4986-182f-404a-acfc-c3c538a08d7d"},"vehicle_type_id":"4","last_reported":1751012089,"current_range_meters":0,"station_id":"ce4bhhh2rcd13ifvqfk0","pricing_plan_id":"cebpf4jnsgd1na2vs0mg"},{"bike_id":"093ddc58-001b-4d72-8b07-da305c3cf2c9","system_id":"levelo_inurba_marseille","lat":43.24675,"lon":5.38151,"is_reserved":false,"is_disabled":true,"rental_uris":{"android":"levelo://app?vid=093ddc58-001b-4d72-8b07-da305c3cf2c9","ios":"levelo://app?vid=093ddc58-001b-4d72-8b07-da305c3cf2c9"},"vehicle_type_id":"4","last_reported":1751012089,"current_range_meters":0,"station_id":"ce4bhih2rcd13ifvqfr0","pricing_plan_id":"cebpf4jnsgd1na2vs0mg"},{"bike_id":"e80f1b6d-c0ed-48b5-bd1d-89afc9d0f489","system_id":"levelo_inurba_marseille","lat":43.27055,"lon":5.40262,"is_reserved":false,"is_disabled":true,"rental_uris":{"android":"levelo://app?vid=e80f1b6d-c0ed-48b5-bd1d-89afc9d0f489","ios":"levelo://app?vid=e80f1b6d-c0ed-48b5-bd1d-89afc9d0f489"},"vehicle_type_id":"4","last_reported":1751012089,"current_range_meters":0,"station_id":"ce4bhk92rcd13ifvqgc0","pricing_plan_id":"cebpf4jnsgd1na2vs0mg"},{"bike_id":"b5b34be9-07b5-4db7-963c-2c7146c1cfd1","system_id":"levelo_inurba_marseille","lat":43.27166,"lon":5.41006,"is_reserved":false,"is_disabled":true,"rental_uris":{"android":"levelo://app?vid=b5b34be9-07b5-4db7-963c-2c7146c1cfd1","ios":"levelo://app?vid=b5b34be9-07b5-4db7-963c-2c7146c1cfd1"},"vehicle_type_id":"4","last_reported":1751012089,"current_range_meters":0,"station_id":"ce4bhl12rcd13ifvqgf0","pricing_plan_id":"cebpf4jnsgd1na2vs0mg"},{"bike_id":"5ffa5afd-4e72-47a2-b2f1-bd0867aa67d8","system_id":"levelo_inurba_marseille","lat":43.24166,"lon":5.39713,"is_reserved":false,"is_disabled":true,"rental_uris":{"android":"levelo://app?vid=5ffa5afd-4e72-47a2-b2f1-bd0867aa67d8","ios":"levelo://app?vid=5ffa5afd-4e72-47a2-b2f1-bd0867aa67d8"},"vehicle_type_id":"4","last_reported":1751012089,"current_range_meters":0,"station_id":"ce4bhn12rcd13ifvqgpg","pricing_plan_id":"cebpf4jnsgd1na2vs0mg"},{"bike_id":"236d89ec-8432-4dfa-8055-947062315dbf","system_id":"levelo_inurba_marseille","lat":43.321367,"lon":5.367493,"is_reserved":false,"is_disabled":true,"rental_uris":{"android":"levelo://app?vid=236d89ec-8432-4dfa-8055-947062315dbf","ios":"levelo://app?vid=236d89ec-8432-4dfa-8055-947062315dbf"},"vehicle_type_id":"4","last_reported":1751012089,"current_range_meters":0,"station_id":"ce4bhrh2rcd13ifvqhug","pricing_plan_id":"cebpf4jnsgd1na2vs0mg"},{"bike_id":"9b7f8f83-5ec3-4199-b6bc-42f9887f69a3","system_id":"levelo_inurba_marseille","lat":43.22488,"lon":5.348,"is_reserved":false,"is_disabled":true,"rental_uris":{"android":"levelo://app?vid=9b7f8f83-5ec3-4199-b6bc-42f9887f69a3","ios":"levelo://app?vid=9b7f8f83-5ec3-4199-b6bc-42f9887f69a3"},"vehicle_type_id":"4","last_reported":1751012089,"current_range_meters":0,"station_id":"st_cvj5dfep6f1abm77gieg","pricing_plan_id":"cebpf4jnsgd1na2vs0mg"},{"bike_id":"5a3dab73-c126-4de6-a97f-f9ca71f0b35f","system_id":"levelo_inurba_marseille","lat":43.21747,"lon":5.346034,"is_reserved":false,"is_disabled":true,"rental_uris":{"android":"levelo://app?vid=5a3dab73-c126-4de6-a97f-f9ca71f0b35f","ios":"levelo://app?vid=5a3dab73-c126-4de6-a97f-f9ca71f0b35f"},"vehicle_type_id":"4","last_reported":1751012089,"current_range_meters":0,"station_id":"st_cvj6r9ubvosntc0bgbag","pricing_plan_id":"cebpf4jnsgd1na2vs0mg"},{"bike_id":"9fadf070-1086-4b7b-a999-d69cb737ac07","system_id":"levelo_inurba_marseille","lat":43.217444,"lon":5.346075,"is_reserved":false,"is_disabled":true,"rental_uris":{"android":"levelo://app?vid=9fadf070-1086-4b7b-a999-d69cb737ac07","ios":"levelo://app?vid=9fadf070-1086-4b7b-a999-d69cb737ac07"},"vehicle_type_id":"4","last_reported":1751012089,"current_range_meters":0,"station_id":"st_cvj6r9ubvosntc0bgbag","pricing_plan_id":"cebpf4jnsgd1na2vs0mg"},{"bike_id":"cdb687b2-0322-480a-b17b-d5f5160446f9","system_id":"levelo_inurba_marseille","lat":43.21749,"lon":5.34601,"is_reserved":false,"is_disabled":true,"rental_uris":{"android":"levelo://app?vid=cdb687b2-0322-480a-b17b-d5f5160446f9","ios":"levelo://app?vid=cdb687b2-0322-480a-b17b-d5f5160446f9"},"vehicle_type_id":"4","last_reported":1751012089,"current_range_meters":0,"station_id":"st_cvj6r9ubvosntc0bgbag","pricing_plan_id":"cebpf4jnsgd1na2vs0mg"},{"bike_id":"2ae278c9-8939-43b6-ae64-1735e91cccaf","system_id":"levelo_inurba_marseille","lat":43.21202,"lon":5.35054,"is_reserved":false,"is_disabled":true,"rental_uris":{"android":"levelo://app?vid=2ae278c9-8939-43b6-ae64-1735e91cccaf","ios":"levelo://app?vid=2ae278c9-8939-43b6-ae64-1735e91cccaf"},"vehicle_type_id":"4","last_reported":1751012089,"current_range_meters":0,"station_id":"st_cvj6sg6p6f1abm77japg","pricing_plan_id":"cebpf4jnsgd1na2vs0mg"},{"bike_id":"446c66be-a677-44c2-9116-79a23398a824","system_id":"levelo_inurba_marseille","lat":43.27618,"lon":5.4321,"is_reserved":false,"is_disabled":true,"rental_uris":{"android":"levelo://app?vid=446c66be-a677-44c2-9116-79a23398a824","ios":"levelo://app?vid=446c66be-a677-44c2-9116-79a23398a824"},"vehicle_type_id":"4","last_reported":1751012089,"current_range_meters":400,"station_id":"","pricing_plan_id":"cebpf4jnsgd1na2vs0mg"},{"bike_id":"3433bc9f-eec7-4c12-8f29-a666c3c86c20","system_id":"levelo_inurba_marseille","lat":43.30143,"lon":5.38078,"is_reserved":false,"is_disabled":true,"rental_uris":{"android":"levelo://app?vid=3433bc9f-eec7-4c12-8f29-a666c3c86c20","ios":"levelo://app?vid=3433bc9f-eec7-4c12-8f29-a666c3c86c20"},"vehicle_type_id":"4","last_reported":1751012089,"current_range_meters":400,"station_id":"ce4bgjp2rcd13ifvqbh0","pricing_plan_id":"cebpf4jnsgd1na2vs0mg"},{"bike_id":"85dc0418-70ec-4595-8028-d42e88652ea4","system_id":"levelo_inurba_marseille","lat":43.32484,"lon":5.3656,"is_reserved":false,"is_disabled":true,"rental_uris":{"android":"levelo://app?vid=85dc0418-70ec-4595-8028-d42e88652ea4","ios":"levelo://app?vid=85dc0418-70ec-4595-8028-d42e88652ea4"},"vehicle_type_id":"4","last_reported":1751012089,"current_range_meters":400,"station_id":"ce4bhs12rcd13ifvqhvg","pricing_plan_id":"cebpf4jnsgd1na2vs0mg"},{"bike_id":"67a5051a-b32e-408a-8389-c22b54eb81f6","system_id":"levelo_inurba_marseille","lat":43.33016,"lon":5.45604,"is_reserved":false,"is_disabled":true,"rental_uris":{"android":"levelo://app?vid=67a5051a-b32e-408a-8389-c22b54eb81f6","ios":"levelo://app?vid=67a5051a-b32e-408a-8389-c22b54eb81f6"},"vehicle_type_id":"4","last_reported":1751012089,"current_range_meters":800,"station_id":"","pricing_plan_id":"cebpf4jnsgd1na2vs0mg"},{"bike_id":"918f7428-e1d0-4ed7-b45b-d90c554eb9e5","system_id":"levelo_inurba_marseille","lat":43.31714,"lon":5.40446,"is_reserved":false,"is_disabled":true,"rental_uris":{"android":"levelo://app?vid=918f7428-e1d0-4ed7-b45b-d90c554eb9e5","ios":"levelo://app?vid=918f7428-e1d0-4ed7-b45b-d90c554eb9e5"},"vehicle_type_id":"4","last_reported":1751012089,"current_range_meters":800,"station_id":"ce4bh012rcd13ifvqd00","pricing_plan_id":"cebpf4jnsgd1na2vs0mg"},{"bike_id":"86d1b195-49ae-46ca-9f00-5e893617fffd","system_id":"levelo_inurba_marseille","lat":43.28421,"lon":5.37499,"is_reserved":false,"is_disabled":true,"rental_uris":{"android":"levelo://app?vid=86d1b195-49ae-46ca-9f00-5e893617fffd","ios":"levelo://app?vid=86d1b195-49ae-46ca-9f00-5e893617fffd"},"vehicle_type_id":"4","last_reported":1751012089,"current_range_meters":800,"station_id":"ce4bh412rcd13ifvqds0","pricing_plan_id":"cebpf4jnsgd1na2vs0mg"},{"bike_id":"133723f7-ccd0-4e11-bd54-2726011c5335","system_id":"levelo_inurba_marseille","lat":43.24178,"lon":5.36374,"is_reserved":false,"is_disabled":true,"rental_uris":{"android":"levelo://app?vid=133723f7-ccd0-4e11-bd54-2726011c5335","ios":"levelo://app?vid=133723f7-ccd0-4e11-bd54-2726011c5335"},"vehicle_type_id":"4","last_reported":1751012089,"current_range_meters":800,"station_id":"cpo36qri1sfpv3e86is0","pricing_plan_id":"cebpf4jnsgd1na2vs0mg"},{"bike_id":"a1ae4fee-cbeb-43dc-a969-5827f87e448d","system_id":"levelo_inurba_marseille","lat":43.38391,"lon":5.365328,"is_reserved":false,"is_disabled":true,"rental_uris":{"android":"levelo://app?vid=a1ae4fee-cbeb-43dc-a969-5827f87e448d","ios":"levelo://app?vid=a1ae4fee-cbeb-43dc-a969-5827f87e448d"},"vehicle_type_id":"4","last_reported":1751012089,"current_range_meters":1200,"station_id":"","pricing_plan_id":"cebpf4jnsgd1na2vs0mg"},{"bike_id":"e9873f30-7462-4e1d-a4aa-052dc7bc9da0","system_id":"levelo_inurba_marseille","lat":43.29258,"lon":5.38441,"is_reserved":false,"is_disabled":true,"rental_uris":{"android":"levelo://app?vid=e9873f30-7462-4e1d-a4aa-052dc7bc9da0","ios":"levelo://app?vid=e9873f30-7462-4e1d-a4aa-052dc7bc9da0"},"vehicle_type_id":"4","last_reported":1751012089,"current_range_meters":1200,"station_id":"ce4bh692rcd13ifvqea0","pricing_plan_id":"cebpf4jnsgd1na2vs0mg"},{"bike_id":"ebb76814-3373-4cd8-b736-8503e9e7baae","system_id":"levelo_inurba_marseille","lat":43.29226,"lon":5.36063,"is_reserved":false,"is_disabled":true,"rental_uris":{"android":"levelo://app?vid=ebb76814-3373-4cd8-b736-8503e9e7baae","ios":"levelo://app?vid=ebb76814-3373-4cd8-b736-8503e9e7baae"},"vehicle_type_id":"4","last_reported":1751012089,"current_range_meters":1200,"station_id":"ce4bhbh2rcd13ifvqeqg","pricing_plan_id":"cebpf4jnsgd1na2vs0mg"},{"bike_id":"fadf3795-cf78-4d44-aa37-172add6e1bcb","system_id":"levelo_inurba_marseille","lat":43.29263,"lon":5.38439,"is_reserved":false,"is_disabled":true,"rental_uris":{"android":"levelo://app?vid=fadf3795-cf78-4d44-aa37-172add6e1bcb","ios":"levelo://app?vid=fadf3795-cf78-4d44-aa37-172add6e1bcb"},"vehicle_type_id":"4","last_reported":1751012089,"current_range_meters":1600,"station_id":"ce4bh692rcd13ifvqea0","pricing_plan_id":"cebpf4jnsgd1na2vs0mg"},{"bike_id":"a86d2f9f-83d8-4f17-8422-d08e982c4a2a","system_id":"levelo_inurba_marseille","lat":43.297581,"lon":5.448984,"is_reserved":false,"is_disabled":true,"rental_uris":{"android":"levelo://app?vid=a86d2f9f-83d8-4f17-8422-d08e982c4a2a","ios":"levelo://app?vid=a86d2f9f-83d8-4f17-8422-d08e982c4a2a"},"vehicle_type_id":"4","last_reported":1751012089,"current_range_meters":2000,"station_id":"","pricing_plan_id":"cebpf4jnsgd1na2vs0mg"},{"bike_id":"963e5e85-0de7-4b7c-a81c-d70f05d22694","system_id":"levelo_inurba_marseille","lat":43.33731,"lon":5.39184,"is_reserved":false,"is_disabled":true,"rental_uris":{"android":"levelo://app?vid=963e5e85-0de7-4b7c-a81c-d70f05d22694","ios":"levelo://app?vid=963e5e85-0de7-4b7c-a81c-d70f05d22694"},"vehicle_type_id":"4","last_reported":1751012089,"current_range_meters":2000,"station_id":"ce4bhr92rcd13ifvqhsg","pricing_plan_id":"cebpf4jnsgd1na2vs0mg"},{"bike_id":"a335998b-71af-4cab-a7c4-8685bb55893b","system_id":"levelo_inurba_marseille","lat":43.3089,"lon":5.39662,"is_reserved":false,"is_disabled":false,"rental_uris":{"android":"levelo://app?vid=a335998b-71af-4cab-a7c4-8685bb55893b","ios":"levelo://app?vid=a335998b-71af-4cab-a7c4-8685bb55893b"},"vehicle_type_id":"4","last_reported":1751012089,"current_range_meters":2800,"station_id":"ce4bh012rcd13ifvqcv0","pricing_plan_id":"cebpf4jnsgd1na2vs0mg"},{"bike_id":"f9be0e05-ceb8-428c-978d-33aef310da55","system_id":"levelo_inurba_marseille","lat":43.29609,"lon":5.38107,"is_reserved":false,"is_disabled":false,"rental_uris":{"android":"levelo://app?vid=f9be0e05-ceb8-428c-978d-33aef310da55","ios":"levelo://app?vid=f9be0e05-ceb8-428c-978d-33aef310da55"},"vehicle_type_id":"4","last_reported":1751012089,"current_range_meters":3200,"station_id":"ce4bgl12rcd13ifvqbo0","pricing_plan_id":"cebpf4jnsgd1na2vs0mg"},{"bike_id":"91073607-145c-426a-b5e4-7f5e3524a674","system_id":"levelo_inurba_marseille","lat":43.29002,"lon":5.35613,"is_reserved":false,"is_disabled":false,"rental_uris":{"android":"levelo://app?vid=91073607-145c-426a-b5e4-7f5e3524a674","ios":"levelo://app?vid=91073607-145c-426a-b5e4-7f5e3524a674"},"vehicle_type_id":"4","last_reported":1751012089,"current_range_meters":3200,"station_id":"ce4bhb92rcd13ifvqen0","pricing_plan_id":"cebpf4jnsgd1na2vs0mg"},{"bike_id":"d60113c8-3387-46de-adde-b2b1abf1350a","system_id":"levelo_inurba_marseille","lat":43.29942,"lon":5.41304,"is_reserved":false,"is_disabled":false,"rental_uris":{"android":"levelo://app?vid=d60113c8-3387-46de-adde-b2b1abf1350a","ios":"levelo://app?vid=d60113c8-3387-46de-adde-b2b1abf1350a"},"vehicle_type_id":"4","last_reported":1751012089,"current_range_meters":3200,"station_id":"ce4bhp12rcd13ifvqh9g","pricing_plan_id":"cebpf4jnsgd1na2vs0mg"},{"bike_id":"a3fc314d-650c-43ac-92c6-4981cd5fede9","system_id":"levelo_inurba_marseille","lat":43.29569,"lon":5.3744,"is_reserved":false,"is_disabled":false,"rental_uris":{"android":"levelo://app?vid=a3fc314d-650c-43ac-92c6-4981cd5fede9","ios":"levelo://app?vid=a3fc314d-650c-43ac-92c6-4981cd5fede9"},"vehicle_type_id":"4","last_reported":1751012089,"current_range_meters":3600,"station_id":"ce4bgkp2rcd13ifvqbmg","pricing_plan_id":"cebpf4jnsgd1na2vs0mg"},{"bike_id":"99bf4053-ba20-42de-9f0d-9636acd58995","system_id":"levelo_inurba_marseille","lat":43.30887,"lon":5.39655,"is_reserved":false,"is_disabled":false,"rental_uris":{"android":"levelo://app?vid=99bf4053-ba20-42de-9f0d-9636acd58995","ios":"levelo://app?vid=99bf4053-ba20-42de-9f0d-9636acd58995"},"vehicle_type_id":"4","last_reported":1751012089,"current_range_meters":3600,"station_id":"ce4bh012rcd13ifvqcv0","pricing_plan_id":"cebpf4jnsgd1na2vs0mg"},{"bike_id":"2f02bc29-30f5-42b8-99c0-f30d0ec3cb24","system_id":"levelo_inurba_marseille","lat":43.25935,"lon":5.40907,"is_reserved":false,"is_disabled":false,"rental_uris":{"android":"levelo://app?vid=2f02bc29-30f5-42b8-99c0-f30d0ec3cb24","ios":"levelo://app?vid=2f02bc29-30f5-42b8-99c0-f30d0ec3cb24"},"vehicle_type_id":"4","last_reported":1751012089,"current_range_meters":3600,"station_id":"ce4bhm92rcd13ifvqglg","pricing_plan_id":"cebpf4jnsgd1na2vs0mg"},{"bike_id":"3644b1d7-5e3f-44e5-bbda-dd1c98d459c8","system_id":"levelo_inurba_marseille","lat":43.31331,"lon":5.36711,"is_reserved":false,"is_disabled":false,"rental_uris":{"android":"levelo://app?vid=3644b1d7-5e3f-44e5-bbda-dd1c98d459c8","ios":"levelo://app?vid=3644b1d7-5e3f-44e5-bbda-dd1c98d459c8"},"vehicle_type_id":"4","last_reported":1751012089,"current_range_meters":4000,"station_id":"ce4bgr92rcd13ifvqc6g","pricing_plan_id":"cebpf4jnsgd1na2vs0mg"},{"bike_id":"cd39f1c4-7693-4fc7-be02-2a83b57b3da6","system_id":"levelo_inurba_marseille","lat":43.25581,"lon":5.38228,"is_reserved":false,"is_disabled":false,"rental_uris":{"android":"levelo://app?vid=cd39f1c4-7693-4fc7-be02-2a83b57b3da6","ios":"levelo://app?vid=cd39f1c4-7693-4fc7-be02-2a83b57b3da6"},"vehicle_type_id":"4","last_reported":1751012089,"current_range_meters":4000,"station_id":"ce4bhih2rcd13ifvqfs0","pricing_plan_id":"cebpf4jnsgd1na2vs0mg"},{"bike_id":"3e91f52a-ed92-455d-869f-b8b63376f894","system_id":"levelo_inurba_marseille","lat":43.21738,"lon":5.34617,"is_reserved":false,"is_disabled":false,"rental_uris":{"android":"levelo://app?vid=3e91f52a-ed92-455d-869f-b8b63376f894","ios":"levelo://app?vid=3e91f52a-ed92-455d-869f-b8b63376f894"},"vehicle_type_id":"4","last_reported":1751012089,"current_range_meters":4000,"station_id":"st_cvj6r9ubvosntc0bgbag","pricing_plan_id":"cebpf4jnsgd1na2vs0mg"},{"bike_id":"af112b62-19de-41d4-b8d7-e14d0172315d","system_id":"levelo_inurba_marseille","lat":43.32671,"lon":5.39243,"is_reserved":false,"is_disabled":false,"rental_uris":{"android":"levelo://app?vid=af112b62-19de-41d4-b8d7-e14d0172315d","ios":"levelo://app?vid=af112b62-19de-41d4-b8d7-e14d0172315d"},"vehicle_type_id":"4","last_reported":1751012089,"current_range_meters":4400,"station_id":"","pricing_plan_id":"cebpf4jnsgd1na2vs0mg"},{"bike_id":"26a14eba-87a9-47b8-9607-30bd0042d428","system_id":"levelo_inurba_marseille","lat":43.31456,"lon":5.3943,"is_reserved":false,"is_disabled":false,"rental_uris":{"android":"levelo://app?vid=26a14eba-87a9-47b8-9607-30bd0042d428","ios":"levelo://app?vid=26a14eba-87a9-47b8-9607-30bd0042d428"},"vehicle_type_id":"4","last_reported":1751012089,"current_range_meters":4800,"station_id":"","pricing_plan_id":"cebpf4jnsgd1na2vs0mg"},{"bike_id":"784b48b6-254f-44fc-addf-bb5f2aa170fc","system_id":"levelo_inurba_marseille","lat":43.309357,"lon":5.368202,"is_reserved":false,"is_disabled":false,"rental_uris":{"android":"levelo://app?vid=784b48b6-254f-44fc-addf-bb5f2aa170fc","ios":"levelo://app?vid=784b48b6-254f-44fc-addf-bb5f2aa170fc"},"vehicle_type_id":"4","last_reported":1751012089,"current_range_meters":4800,"station_id":"ce4bgn92rcd13ifvqbvg","pricing_plan_id":"cebpf4jnsgd1na2vs0mg"},{"bike_id":"590a1237-96a1-40b9-8e8b-ab097692d5ca","system_id":"levelo_inurba_marseille","lat":43.28271,"lon":5.35081,"is_reserved":false,"is_disabled":false,"rental_uris":{"android":"levelo://app?vid=590a1237-96a1-40b9-8e8b-ab097692d5ca","ios":"levelo://app?vid=590a1237-96a1-40b9-8e8b-ab097692d5ca"},"vehicle_type_id":"4","last_reported":1751012089,"current_range_meters":4800,"station_id":"ce4bhbp2rcd13ifvqerg","pricing_plan_id":"cebpf4jnsgd1na2vs0mg"},{"bike_id":"9ce852fe-9449-4c16-b29b-642a7abdbbbf","system_id":"levelo_inurba_marseille","lat":43.27394,"lon":5.36223,"is_reserved":false,"is_disabled":false,"rental_uris":{"android":"levelo://app?vid=9ce852fe-9449-4c16-b29b-642a7abdbbbf","ios":"levelo://app?vid=9ce852fe-9449-4c16-b29b-642a7abdbbbf"},"vehicle_type_id":"4","last_reported":1751012089,"current_range_meters":5600,"station_id":"","pricing_plan_id":"cebpf4jnsgd1na2vs0mg"},{"bike_id":"8c3af7af-45dc-4873-983b-b8926e736e48","system_id":"levelo_inurba_marseille","lat":43.31187,"lon":5.36775,"is_reserved":false,"is_disabled":false,"rental_uris":{"android":"levelo://app?vid=8c3af7af-45dc-4873-983b-b8926e736e48","ios":"levelo://app?vid=8c3af7af-45dc-4873-983b-b8926e736e48"},"vehicle_type_id":"4","last_reported":1751012089,"current_range_meters":5600,"station_id":"","pricing_plan_id":"cebpf4jnsgd1na2vs0mg"},{"bike_id":"b685d54d-8185-4980-8727-609cd2a56d92","system_id":"levelo_inurba_marseille","lat":43.297914,"lon":5.381147,"is_reserved":false,"is_disabled":false,"rental_uris":{"android":"levelo://app?vid=b685d54d-8185-4980-8727-609cd2a56d92","ios":"levelo://app?vid=b685d54d-8185-4980-8727-609cd2a56d92"},"vehicle_type_id":"4","last_reported":1751012089,"current_range_meters":5600,"station_id":"ce4bh392rcd13ifvqdm0","pricing_plan_id":"cebpf4jnsgd1na2vs0mg"},{"bike_id":"0db8875d-53dc-4716-96a6-5746d86947fb","system_id":"levelo_inurba_marseille","lat":43.28477,"lon":5.38565,"is_reserved":false,"is_disabled":false,"rental_uris":{"android":"levelo://app?vid=0db8875d-53dc-4716-96a6-5746d86947fb","ios":"levelo://app?vid=0db8875d-53dc-4716-96a6-5746d86947fb"},"vehicle_type_id":"4","last_reported":1751012089,"current_range_meters":5600,"station_id":"ce4bh8p2rcd13ifvqeb0","pricing_plan_id":"cebpf4jnsgd1na2vs0mg"},{"bike_id":"a37d97ab-a8c6-40a8-9099-6c96b7edb7d4","system_id":"levelo_inurba_marseille","lat":43.306,"lon":5.37234,"is_reserved":false,"is_disabled":false,"rental_uris":{"android":"levelo://app?vid=a37d97ab-a8c6-40a8-9099-6c96b7edb7d4","ios":"levelo://app?vid=a37d97ab-a8c6-40a8-9099-6c96b7edb7d4"},"vehicle_type_id":"4","last_reported":1751012089,"current_range_meters":6000,"station_id":"ce4bgqh2rcd13ifvqc4g","pricing_plan_id":"cebpf4jnsgd1na2vs0mg"},{"bike_id":"73cc2acb-7ef2-42fa-8107-2a562cffe33c","system_id":"levelo_inurba_marseille","lat":43.30889,"lon":5.39661,"is_reserved":false,"is_disabled":false,"rental_uris":{"android":"levelo://app?vid=73cc2acb-7ef2-42fa-8107-2a562cffe33c","ios":"levelo://app?vid=73cc2acb-7ef2-42fa-8107-2a562cffe33c"},"vehicle_type_id":"4","last_reported":1751012089,"current_range_meters":6000,"station_id":"ce4bh012rcd13ifvqcv0","pricing_plan_id":"cebpf4jnsgd1na2vs0mg"},{"bike_id":"87589285-5628-4e5e-aac5-0cb27ffd1347","system_id":"levelo_inurba_marseille","lat":43.29439,"lon":5.3975,"is_reserved":false,"is_disabled":false,"rental_uris":{"android":"levelo://app?vid=87589285-5628-4e5e-aac5-0cb27ffd1347","ios":"levelo://app?vid=87589285-5628-4e5e-aac5-0cb27ffd1347"},"vehicle_type_id":"4","last_reported":1751012089,"current_range_meters":6000,"station_id":"ce4bh3h2rcd13ifvqdo0","pricing_plan_id":"cebpf4jnsgd1na2vs0mg"},{"bike_id":"65358f7e-ed29-4262-8998-96904b90e663","system_id":"levelo_inurba_marseille","lat":43.28263,"lon":5.35062,"is_reserved":false,"is_disabled":false,"rental_uris":{"android":"levelo://app?vid=65358f7e-ed29-4262-8998-96904b90e663","ios":"levelo://app?vid=65358f7e-ed29-4262-8998-96904b90e663"},"vehicle_type_id":"4","last_reported":1751012089,"current_range_meters":6000,"station_id":"ce4bhbp2rcd13ifvqerg","pricing_plan_id":"cebpf4jnsgd1na2vs0mg"},{"bike_id":"a7251671-f4fd-4ca1-acac-59c442621b5e","system_id":"levelo_inurba_marseille","lat":43.232073,"lon":5.355448,"is_reserved":false,"is_disabled":false,"rental_uris":{"android":"levelo://app?vid=a7251671-f4fd-4ca1-acac-59c442621b5e","ios":"levelo://app?vid=a7251671-f4fd-4ca1-acac-59c442621b5e"},"vehicle_type_id":"4","last_reported":1751012089,"current_range_meters":6000,"station_id":"ce4bhu92rcd13ifvqi70","pricing_plan_id":"cebpf4jnsgd1na2vs0mg"},{"bike_id":"8d41828a-3b54-4aca-bf13-8b541e657ae9","system_id":"levelo_inurba_marseille","lat":43.30135,"lon":5.38785,"is_reserved":false,"is_disabled":false,"rental_uris":{"android":"levelo://app?vid=8d41828a-3b54-4aca-bf13-8b541e657ae9","ios":"levelo://app?vid=8d41828a-3b54-4aca-bf13-8b541e657ae9"},"vehicle_type_id":"4","last_reported":1751012089,"current_range_meters":6400,"station_id":"ce4bghh2rcd13ifvqb60","pricing_plan_id":"cebpf4jnsgd1na2vs0mg"},{"bike_id":"05fdf3c8-798f-44b1-9d15-3b415bc4193c","system_id":"levelo_inurba_marseille","lat":43.29004,"lon":5.35607,"is_reserved":false,"is_disabled":false,"rental_uris":{"android":"levelo://app?vid=05fdf3c8-798f-44b1-9d15-3b415bc4193c","ios":"levelo://app?vid=05fdf3c8-798f-44b1-9d15-3b415bc4193c"},"vehicle_type_id":"4","last_reported":1751012089,"current_range_meters":6400,"station_id":"ce4bhb92rcd13ifvqen0","pricing_plan_id":"cebpf4jnsgd1na2vs0mg"},{"bike_id":"29748436-4e9e-4a46-ad9f-ab29bbbc9c48","system_id":"levelo_inurba_marseille","lat":43.23152,"lon":5.43711,"is_reserved":false,"is_disabled":false,"rental_uris":{"android":"levelo://app?vid=29748436-4e9e-4a46-ad9f-ab29bbbc9c48","ios":"levelo://app?vid=29748436-4e9e-4a46-ad9f-ab29bbbc9c48"},"vehicle_type_id":"4","last_reported":1751012089,"current_range_meters":6400,"station_id":"ce4bhmp2rcd13ifvqgog","pricing_plan_id":"cebpf4jnsgd1na2vs0mg"},{"bike_id":"e1fc530c-7fa2-4752-8161-6a65c418fc79","system_id":"levelo_inurba_marseille","lat":43.31764,"lon":5.38999,"is_reserved":false,"is_disabled":false,"rental_uris":{"android":"levelo://app?vid=e1fc530c-7fa2-4752-8161-6a65c418fc79","ios":"levelo://app?vid=e1fc530c-7fa2-4752-8161-6a65c418fc79"},"vehicle_type_id":"4","last_reported":1751012089,"current_range_meters":6400,"station_id":"ce4bhqp2rcd13ifvqhng","pricing_plan_id":"cebpf4jnsgd1na2vs0mg"},{"bike_id":"95bd4f55-3979-4174-9d60-27aaaa0ccc12","system_id":"levelo_inurba_marseille","lat":43.30881,"lon":5.39653,"is_reserved":false,"is_disabled":false,"rental_uris":{"android":"levelo://app?vid=95bd4f55-3979-4174-9d60-27aaaa0ccc12","ios":"levelo://app?vid=95bd4f55-3979-4174-9d60-27aaaa0ccc12"},"vehicle_type_id":"4","last_reported":1751012089,"current_range_meters":6800,"station_id":"","pricing_plan_id":"cebpf4jnsgd1na2vs0mg"},{"bike_id":"4b92842c-367c-4a99-9cb7-673d8185e0f9","system_id":"levelo_inurba_marseille","lat":43.26213,"lon":5.374395,"is_reserved":false,"is_disabled":false,"rental_uris":{"android":"levelo://app?vid=4b92842c-367c-4a99-9cb7-673d8185e0f9","ios":"levelo://app?vid=4b92842c-367c-4a99-9cb7-673d8185e0f9"},"vehicle_type_id":"4","last_reported":1751012089,"current_range_meters":6800,"station_id":"ce4bhgp2rcd13ifvqfc0","pricing_plan_id":"cebpf4jnsgd1na2vs0mg"},{"bike_id":"7f49ce42-4dbe-464d-8bec-fbed101ea416","system_id":"levelo_inurba_marseille","lat":43.25861,"lon":5.39909,"is_reserved":false,"is_disabled":false,"rental_uris":{"android":"levelo://app?vid=7f49ce42-4dbe-464d-8bec-fbed101ea416","ios":"levelo://app?vid=7f49ce42-4dbe-464d-8bec-fbed101ea416"},"vehicle_type_id":"4","last_reported":1751012089,"current_range_meters":6800,"station_id":"ce4bhl92rcd13ifvqghg","pricing_plan_id":"cebpf4jnsgd1na2vs0mg"},{"bike_id":"6b7cfd75-9f46-4bac-9a61-7ed145f17214","system_id":"levelo_inurba_marseille","lat":43.32283,"lon":5.3827,"is_reserved":false,"is_disabled":false,"rental_uris":{"android":"levelo://app?vid=6b7cfd75-9f46-4bac-9a61-7ed145f17214","ios":"levelo://app?vid=6b7cfd75-9f46-4bac-9a61-7ed145f17214"},"vehicle_type_id":"4","last_reported":1751012089,"current_range_meters":6800,"station_id":"ce4bhr12rcd13ifvqhqg","pricing_plan_id":"cebpf4jnsgd1na2vs0mg"},{"bike_id":"e2f5b300-4a63-4778-aada-c29a8a0ea1e8","system_id":"levelo_inurba_marseille","lat":43.32795,"lon":5.39201,"is_reserved":false,"is_disabled":false,"rental_uris":{"android":"levelo://app?vid=e2f5b300-4a63-4778-aada-c29a8a0ea1e8","ios":"levelo://app?vid=e2f5b300-4a63-4778-aada-c29a8a0ea1e8"},"vehicle_type_id":"4","last_reported":1751012089,"current_range_meters":7200,"station_id":"","pricing_plan_id":"cebpf4jnsgd1na2vs0mg"},{"bike_id":"d26fc286-e1ab-4002-98cd-25cae0c5e23e","system_id":"levelo_inurba_marseille","lat":43.29822,"lon":5.38067,"is_reserved":false,"is_disabled":false,"rental_uris":{"android":"levelo://app?vid=d26fc286-e1ab-4002-98cd-25cae0c5e23e","ios":"levelo://app?vid=d26fc286-e1ab-4002-98cd-25cae0c5e23e"},"vehicle_type_id":"4","last_reported":1751012089,"current_range_meters":7200,"station_id":"ce4bgip2rcd13ifvqbb0","pricing_plan_id":"cebpf4jnsgd1na2vs0mg"},{"bike_id":"63510074-d44a-40b9-9bfb-eb71dfd543d9","system_id":"levelo_inurba_marseille","lat":43.23148,"lon":5.43725,"is_reserved":false,"is_disabled":false,"rental_uris":{"android":"levelo://app?vid=63510074-d44a-40b9-9bfb-eb71dfd543d9","ios":"levelo://app?vid=63510074-d44a-40b9-9bfb-eb71dfd543d9"},"vehicle_type_id":"4","last_reported":1751012089,"current_range_meters":7200,"station_id":"ce4bhmp2rcd13ifvqgog","pricing_plan_id":"cebpf4jnsgd1na2vs0mg"},{"bike_id":"343daa3c-9493-464d-96cd-a20af08a518d","system_id":"levelo_inurba_marseille","lat":43.29362,"lon":5.37836,"is_reserved":false,"is_disabled":false,"rental_uris":{"android":"levelo://app?vid=343daa3c-9493-464d-96cd-a20af08a518d","ios":"levelo://app?vid=343daa3c-9493-464d-96cd-a20af08a518d"},"vehicle_type_id":"4","last_reported":1751012089,"current_range_meters":8000,"station_id":"ce4bgjh2rcd13ifvqbf0","pricing_plan_id":"cebpf4jnsgd1na2vs0mg"},{"bike_id":"4f1b80ab-c57b-4db1-baf0-952dd3816a45","system_id":"levelo_inurba_marseille","lat":43.30891,"lon":5.39656,"is_reserved":false,"is_disabled":false,"rental_uris":{"android":"levelo://app?vid=4f1b80ab-c57b-4db1-baf0-952dd3816a45","ios":"levelo://app?vid=4f1b80ab-c57b-4db1-baf0-952dd3816a45"},"vehicle_type_id":"4","last_reported":1751012089,"current_range_meters":8000,"station_id":"ce4bh012rcd13ifvqcv0","pricing_plan_id":"cebpf4jnsgd1na2vs0mg"},{"bike_id":"1a5d1fec-c85a-4841-a285-704dead7127e","system_id":"levelo_inurba_marseille","lat":43.29,"lon":5.35606,"is_reserved":false,"is_disabled":false,"rental_uris":{"android":"levelo://app?vid=1a5d1fec-c85a-4841-a285-704dead7127e","ios":"levelo://app?vid=1a5d1fec-c85a-4841-a285-704dead7127e"},"vehicle_type_id":"4","last_reported":1751012089,"current_range_meters":8000,"station_id":"ce4bhb92rcd13ifvqen0","pricing_plan_id":"cebpf4jnsgd1na2vs0mg"},{"bike_id":"69c0dfe0-2959-42c1-af5a-3aaf0d27384e","system_id":"levelo_inurba_marseille","lat":43.24547,"lon":5.39527,"is_reserved":false,"is_disabled":false,"rental_uris":{"android":"levelo://app?vid=69c0dfe0-2959-42c1-af5a-3aaf0d27384e","ios":"levelo://app?vid=69c0dfe0-2959-42c1-af5a-3aaf0d27384e"},"vehicle_type_id":"4","last_reported":1751012089,"current_range_meters":8000,"station_id":"ce4bhlp2rcd13ifvqgjg","pricing_plan_id":"cebpf4jnsgd1na2vs0mg"},{"bike_id":"7ac2d6ad-16d3-463d-9f49-789f3bb8e5d0","system_id":"levelo_inurba_marseille","lat":43.33732,"lon":5.39165,"is_reserved":false,"is_disabled":false,"rental_uris":{"android":"levelo://app?vid=7ac2d6ad-16d3-463d-9f49-789f3bb8e5d0","ios":"levelo://app?vid=7ac2d6ad-16d3-463d-9f49-789f3bb8e5d0"},"vehicle_type_id":"4","last_reported":1751012089,"current_range_meters":8000,"station_id":"ce4bhr92rcd13ifvqhsg","pricing_plan_id":"cebpf4jnsgd1na2vs0mg"},{"bike_id":"db4e2ea3-c22f-48f0-b53e-224aec501d16","system_id":"levelo_inurba_marseille","lat":43.323637,"lon":5.367655,"is_reserved":false,"is_disabled":false,"rental_uris":{"android":"levelo://app?vid=db4e2ea3-c22f-48f0-b53e-224aec501d16","ios":"levelo://app?vid=db4e2ea3-c22f-48f0-b53e-224aec501d16"},"vehicle_type_id":"4","last_reported":1751012089,"current_range_meters":8000,"station_id":"ce4bhsh2rcd13ifvqi2g","pricing_plan_id":"cebpf4jnsgd1na2vs0mg"},{"bike_id":"f47876d7-9c85-474e-92c5-7a242e08b67c","system_id":"levelo_inurba_marseille","lat":43.30552,"lon":5.37528,"is_reserved":false,"is_disabled":false,"rental_uris":{"android":"levelo://app?vid=f47876d7-9c85-474e-92c5-7a242e08b67c","ios":"levelo://app?vid=f47876d7-9c85-474e-92c5-7a242e08b67c"},"vehicle_type_id":"4","last_reported":1751012089,"current_range_meters":8400,"station_id":"","pricing_plan_id":"cebpf4jnsgd1na2vs0mg"},{"bike_id":"a9d25cad-d480-4c75-aec5-3969f1a4e6c7","system_id":"levelo_inurba_marseille","lat":43.32935,"lon":5.39035,"is_reserved":false,"is_disabled":false,"rental_uris":{"android":"levelo://app?vid=a9d25cad-d480-4c75-aec5-3969f1a4e6c7","ios":"levelo://app?vid=a9d25cad-d480-4c75-aec5-3969f1a4e6c7"},"vehicle_type_id":"4","last_reported":1751012089,"current_range_meters":8400,"station_id":"","pricing_plan_id":"cebpf4jnsgd1na2vs0mg"},{"bike_id":"3ed97791-4fd1-4beb-9e6b-4998740d59d9","system_id":"levelo_inurba_marseille","lat":43.271719,"lon":5.410008,"is_reserved":false,"is_disabled":false,"rental_uris":{"android":"levelo://app?vid=3ed97791-4fd1-4beb-9e6b-4998740d59d9","ios":"levelo://app?vid=3ed97791-4fd1-4beb-9e6b-4998740d59d9"},"vehicle_type_id":"4","last_reported":1751012089,"current_range_meters":8400,"station_id":"","pricing_plan_id":"cebpf4jnsgd1na2vs0mg"},{"bike_id":"976be9eb-54a3-47be-85bf-d2011221f2a0","system_id":"levelo_inurba_marseille","lat":43.3017,"lon":5.38075,"is_reserved":false,"is_disabled":false,"rental_uris":{"android":"levelo://app?vid=976be9eb-54a3-47be-85bf-d2011221f2a0","ios":"levelo://app?vid=976be9eb-54a3-47be-85bf-d2011221f2a0"},"vehicle_type_id":"4","last_reported":1751012089,"current_range_meters":8400,"station_id":"ce4bgjp2rcd13ifvqbh0","pricing_plan_id":"cebpf4jnsgd1na2vs0mg"},{"bike_id":"fe78de29-6f01-4c97-b1ea-fd1cbf40c3f5","system_id":"levelo_inurba_marseille","lat":43.31351,"lon":5.36713,"is_reserved":false,"is_disabled":false,"rental_uris":{"android":"levelo://app?vid=fe78de29-6f01-4c97-b1ea-fd1cbf40c3f5","ios":"levelo://app?vid=fe78de29-6f01-4c97-b1ea-fd1cbf40c3f5"},"vehicle_type_id":"4","last_reported":1751012089,"current_range_meters":8400,"station_id":"ce4bgr92rcd13ifvqc6g","pricing_plan_id":"cebpf4jnsgd1na2vs0mg"},{"bike_id":"c7c84aae-acb5-42ad-91d1-2c73642b4035","system_id":"levelo_inurba_marseille","lat":43.2923,"lon":5.36068,"is_reserved":false,"is_disabled":false,"rental_uris":{"android":"levelo://app?vid=c7c84aae-acb5-42ad-91d1-2c73642b4035","ios":"levelo://app?vid=c7c84aae-acb5-42ad-91d1-2c73642b4035"},"vehicle_type_id":"4","last_reported":1751012089,"current_range_meters":8400,"station_id":"ce4bhbh2rcd13ifvqeqg","pricing_plan_id":"cebpf4jnsgd1na2vs0mg"},{"bike_id":"292dbc76-05b9-4f00-a7d0-72de35e956aa","system_id":"levelo_inurba_marseille","lat":43.25946,"lon":5.40914,"is_reserved":false,"is_disabled":false,"rental_uris":{"android":"levelo://app?vid=292dbc76-05b9-4f00-a7d0-72de35e956aa","ios":"levelo://app?vid=292dbc76-05b9-4f00-a7d0-72de35e956aa"},"vehicle_type_id":"4","last_reported":1751012089,"current_range_meters":8400,"station_id":"ce4bhm92rcd13ifvqglg","pricing_plan_id":"cebpf4jnsgd1na2vs0mg"},{"bike_id":"5926c0d7-cd62-47ea-9963-f37b8d2657d9","system_id":"levelo_inurba_marseille","lat":43.23146,"lon":5.43716,"is_reserved":false,"is_disabled":false,"rental_uris":{"android":"levelo://app?vid=5926c0d7-cd62-47ea-9963-f37b8d2657d9","ios":"levelo://app?vid=5926c0d7-cd62-47ea-9963-f37b8d2657d9"},"vehicle_type_id":"4","last_reported":1751012089,"current_range_meters":8400,"station_id":"ce4bhmp2rcd13ifvqgog","pricing_plan_id":"cebpf4jnsgd1na2vs0mg"},{"bike_id":"93f35d7a-d181-4b51-ba80-ba0fc9b60fc6","system_id":"levelo_inurba_marseille","lat":43.29364,"lon":5.37855,"is_reserved":false,"is_disabled":false,"rental_uris":{"android":"levelo://app?vid=93f35d7a-d181-4b51-ba80-ba0fc9b60fc6","ios":"levelo://app?vid=93f35d7a-d181-4b51-ba80-ba0fc9b60fc6"},"vehicle_type_id":"4","last_reported":1751012089,"current_range_meters":8800,"station_id":"ce4bgjh2rcd13ifvqbf0","pricing_plan_id":"cebpf4jnsgd1na2vs0mg"},{"bike_id":"98394d64-c3f0-47c3-ae09-5186d6420606","system_id":"levelo_inurba_marseille","lat":43.30143,"lon":5.38088,"is_reserved":false,"is_disabled":false,"rental_uris":{"android":"levelo://app?vid=98394d64-c3f0-47c3-ae09-5186d6420606","ios":"levelo://app?vid=98394d64-c3f0-47c3-ae09-5186d6420606"},"vehicle_type_id":"4","last_reported":1751012089,"current_range_meters":8800,"station_id":"ce4bgjp2rcd13ifvqbh0","pricing_plan_id":"cebpf4jnsgd1na2vs0mg"},{"bike_id":"b424c641-6256-4c23-b109-8691d632f0a7","system_id":"levelo_inurba_marseille","lat":43.259183,"lon":5.40964,"is_reserved":false,"is_disabled":false,"rental_uris":{"android":"levelo://app?vid=b424c641-6256-4c23-b109-8691d632f0a7","ios":"levelo://app?vid=b424c641-6256-4c23-b109-8691d632f0a7"},"vehicle_type_id":"4","last_reported":1751012089,"current_range_meters":8800,"station_id":"ce4bhm92rcd13ifvqglg","pricing_plan_id":"cebpf4jnsgd1na2vs0mg"},{"bike_id":"a8f1d44c-de5e-4c11-ac91-7b2b8da7a2fb","system_id":"levelo_inurba_marseille","lat":43.33599,"lon":5.41023,"is_reserved":false,"is_disabled":false,"rental_uris":{"android":"levelo://app?vid=a8f1d44c-de5e-4c11-ac91-7b2b8da7a2fb","ios":"levelo://app?vid=a8f1d44c-de5e-4c11-ac91-7b2b8da7a2fb"},"vehicle_type_id":"4","last_reported":1751012089,"current_range_meters":8800,"station_id":"ce4bhqh2rcd13ifvqhmg","pricing_plan_id":"cebpf4jnsgd1na2vs0mg"},{"bike_id":"94e84186-d780-461a-b647-8d1cf3f036ad","system_id":"levelo_inurba_marseille","lat":43.31689,"lon":5.3777,"is_reserved":false,"is_disabled":false,"rental_uris":{"android":"levelo://app?vid=94e84186-d780-461a-b647-8d1cf3f036ad","ios":"levelo://app?vid=94e84186-d780-461a-b647-8d1cf3f036ad"},"vehicle_type_id":"4","last_reported":1751012089,"current_range_meters":9200,"station_id":"ce4bgth2rcd13ifvqch0","pricing_plan_id":"cebpf4jnsgd1na2vs0mg"},{"bike_id":"20d045fd-ef56-439f-8a51-aadb0e7a6f91","system_id":"levelo_inurba_marseille","lat":43.28488,"lon":5.38577,"is_reserved":false,"is_disabled":false,"rental_uris":{"android":"levelo://app?vid=20d045fd-ef56-439f-8a51-aadb0e7a6f91","ios":"levelo://app?vid=20d045fd-ef56-439f-8a51-aadb0e7a6f91"},"vehicle_type_id":"4","last_reported":1751012089,"current_range_meters":9200,"station_id":"ce4bh8p2rcd13ifvqeb0","pricing_plan_id":"cebpf4jnsgd1na2vs0mg"},{"bike_id":"18463367-3cbc-4493-8666-f2f7a20a03e6","system_id":"levelo_inurba_marseille","lat":43.23148,"lon":5.43724,"is_reserved":false,"is_disabled":false,"rental_uris":{"android":"levelo://app?vid=18463367-3cbc-4493-8666-f2f7a20a03e6","ios":"levelo://app?vid=18463367-3cbc-4493-8666-f2f7a20a03e6"},"vehicle_type_id":"4","last_reported":1751012089,"current_range_meters":9200,"station_id":"ce4bhmp2rcd13ifvqgog","pricing_plan_id":"cebpf4jnsgd1na2vs0mg"},{"bike_id":"03b5348c-ee39-4d54-8f25-73a9c6bc36df","system_id":"levelo_inurba_marseille","lat":43.303666,"lon":5.424888,"is_reserved":false,"is_disabled":false,"rental_uris":{"android":"levelo://app?vid=03b5348c-ee39-4d54-8f25-73a9c6bc36df","ios":"levelo://app?vid=03b5348c-ee39-4d54-8f25-73a9c6bc36df"},"vehicle_type_id":"4","last_reported":1751012089,"current_range_meters":9200,"station_id":"ce4bhoh2rcd13ifvqh6g","pricing_plan_id":"cebpf4jnsgd1na2vs0mg"},{"bike_id":"b2f65b77-6c4d-463a-b12d-03ec0ed31397","system_id":"levelo_inurba_marseille","lat":43.21743,"lon":5.3461,"is_reserved":false,"is_disabled":false,"rental_uris":{"android":"levelo://app?vid=b2f65b77-6c4d-463a-b12d-03ec0ed31397","ios":"levelo://app?vid=b2f65b77-6c4d-463a-b12d-03ec0ed31397"},"vehicle_type_id":"4","last_reported":1751012089,"current_range_meters":9200,"station_id":"st_cvj6r9ubvosntc0bgbag","pricing_plan_id":"cebpf4jnsgd1na2vs0mg"},{"bike_id":"5371c9bc-3061-4745-8ac9-2fc5914ff687","system_id":"levelo_inurba_marseille","lat":43.249168,"lon":5.387327,"is_reserved":false,"is_disabled":false,"rental_uris":{"android":"levelo://app?vid=5371c9bc-3061-4745-8ac9-2fc5914ff687","ios":"levelo://app?vid=5371c9bc-3061-4745-8ac9-2fc5914ff687"},"vehicle_type_id":"4","last_reported":1751012089,"current_range_meters":9600,"station_id":"","pricing_plan_id":"cebpf4jnsgd1na2vs0mg"},{"bike_id":"f15a2dd8-3329-4647-87f1-16eee51cf672","system_id":"levelo_inurba_marseille","lat":43.305416,"lon":5.384392,"is_reserved":false,"is_disabled":false,"rental_uris":{"android":"levelo://app?vid=f15a2dd8-3329-4647-87f1-16eee51cf672","ios":"levelo://app?vid=f15a2dd8-3329-4647-87f1-16eee51cf672"},"vehicle_type_id":"4","last_reported":1751012089,"current_range_meters":9600,"station_id":"ce4bgg92rcd13ifvqb30","pricing_plan_id":"cebpf4jnsgd1na2vs0mg"},{"bike_id":"a883f219-e577-4c8c-8a63-91ae6336dd84","system_id":"levelo_inurba_marseille","lat":43.30902,"lon":5.36844,"is_reserved":false,"is_disabled":false,"rental_uris":{"android":"levelo://app?vid=a883f219-e577-4c8c-8a63-91ae6336dd84","ios":"levelo://app?vid=a883f219-e577-4c8c-8a63-91ae6336dd84"},"vehicle_type_id":"4","last_reported":1751012089,"current_range_meters":9600,"station_id":"ce4bgn92rcd13ifvqbvg","pricing_plan_id":"cebpf4jnsgd1na2vs0mg"},{"bike_id":"c28558cd-be52-44e5-bc70-dc2683ae53e4","system_id":"levelo_inurba_marseille","lat":43.313415,"lon":5.366755,"is_reserved":false,"is_disabled":false,"rental_uris":{"android":"levelo://app?vid=c28558cd-be52-44e5-bc70-dc2683ae53e4","ios":"levelo://app?vid=c28558cd-be52-44e5-bc70-dc2683ae53e4"},"vehicle_type_id":"4","last_reported":1751012089,"current_range_meters":9600,"station_id":"ce4bgr92rcd13ifvqc6g","pricing_plan_id":"cebpf4jnsgd1na2vs0mg"},{"bike_id":"af1ba19a-81f2-45a3-9bbf-f0d74fa0eb75","system_id":"levelo_inurba_marseille","lat":43.3137,"lon":5.36709,"is_reserved":false,"is_disabled":false,"rental_uris":{"android":"levelo://app?vid=af1ba19a-81f2-45a3-9bbf-f0d74fa0eb75","ios":"levelo://app?vid=af1ba19a-81f2-45a3-9bbf-f0d74fa0eb75"},"vehicle_type_id":"4","last_reported":1751012089,"current_range_meters":9600,"station_id":"ce4bgr92rcd13ifvqc6g","pricing_plan_id":"cebpf4jnsgd1na2vs0mg"},{"bike_id":"9ae469cc-56e7-4a21-afb2-cb749ff0e89f","system_id":"levelo_inurba_marseille","lat":43.28596,"lon":5.35139,"is_reserved":false,"is_disabled":false,"rental_uris":{"android":"levelo://app?vid=9ae469cc-56e7-4a21-afb2-cb749ff0e89f","ios":"levelo://app?vid=9ae469cc-56e7-4a21-afb2-cb749ff0e89f"},"vehicle_type_id":"4","last_reported":1751012089,"current_range_meters":9600,"station_id":"ce4bhch2rcd13ifvqeug","pricing_plan_id":"cebpf4jnsgd1na2vs0mg"},{"bike_id":"2fe5fbc5-ccfe-4846-8c4b-91e7493edb3e","system_id":"levelo_inurba_marseille","lat":43.24179,"lon":5.39723,"is_reserved":false,"is_disabled":false,"rental_uris":{"android":"levelo://app?vid=2fe5fbc5-ccfe-4846-8c4b-91e7493edb3e","ios":"levelo://app?vid=2fe5fbc5-ccfe-4846-8c4b-91e7493edb3e"},"vehicle_type_id":"4","last_reported":1751012089,"current_range_meters":9600,"station_id":"ce4bhn12rcd13ifvqgpg","pricing_plan_id":"cebpf4jnsgd1na2vs0mg"},{"bike_id":"4e9f0bec-8d59-464d-bf2e-28cc402def48","system_id":"levelo_inurba_marseille","lat":43.23173,"lon":5.39992,"is_reserved":false,"is_disabled":false,"rental_uris":{"android":"levelo://app?vid=4e9f0bec-8d59-464d-bf2e-28cc402def48","ios":"levelo://app?vid=4e9f0bec-8d59-464d-bf2e-28cc402def48"},"vehicle_type_id":"4","last_reported":1751012089,"current_range_meters":9600,"station_id":"ce4bhn12rcd13ifvqgqg","pricing_plan_id":"cebpf4jnsgd1na2vs0mg"},{"bike_id":"a6fd3dd9-0fbb-4db2-8ef6-4ab9083e73a7","system_id":"levelo_inurba_marseille","lat":43.23201,"lon":5.35558,"is_reserved":false,"is_disabled":false,"rental_uris":{"android":"levelo://app?vid=a6fd3dd9-0fbb-4db2-8ef6-4ab9083e73a7","ios":"levelo://app?vid=a6fd3dd9-0fbb-4db2-8ef6-4ab9083e73a7"},"vehicle_type_id":"4","last_reported":1751012089,"current_range_meters":9600,"station_id":"ce4bhu92rcd13ifvqi70","pricing_plan_id":"cebpf4jnsgd1na2vs0mg"},{"bike_id":"69a9b7bf-69b2-47a2-8bc4-bb00821e8199","system_id":"levelo_inurba_marseille","lat":43.21201,"lon":5.3507,"is_reserved":false,"is_disabled":false,"rental_uris":{"android":"levelo://app?vid=69a9b7bf-69b2-47a2-8bc4-bb00821e8199","ios":"levelo://app?vid=69a9b7bf-69b2-47a2-8bc4-bb00821e8199"},"vehicle_type_id":"4","last_reported":1751012089,"current_range_meters":9600,"station_id":"st_cvj6sg6p6f1abm77japg","pricing_plan_id":"cebpf4jnsgd1na2vs0mg"},{"bike_id":"4b8da722-ee9e-48a4-a5e5-3a8a10364708","system_id":"levelo_inurba_marseille","lat":43.31217,"lon":5.37816,"is_reserved":false,"is_disabled":false,"rental_uris":{"android":"levelo://app?vid=4b8da722-ee9e-48a4-a5e5-3a8a10364708","ios":"levelo://app?vid=4b8da722-ee9e-48a4-a5e5-3a8a10364708"},"vehicle_type_id":"4","last_reported":1751012089,"current_range_meters":10000,"station_id":"","pricing_plan_id":"cebpf4jnsgd1na2vs0mg"},{"bike_id":"6e333cad-8154-4d5d-9ce4-405ad8359f75","system_id":"levelo_inurba_marseille","lat":43.22938,"lon":5.35384,"is_reserved":false,"is_disabled":false,"rental_uris":{"android":"levelo://app?vid=6e333cad-8154-4d5d-9ce4-405ad8359f75","ios":"levelo://app?vid=6e333cad-8154-4d5d-9ce4-405ad8359f75"},"vehicle_type_id":"4","last_reported":1751012089,"current_range_meters":10000,"station_id":"cpo3532slgdg3j2ikp40","pricing_plan_id":"cebpf4jnsgd1na2vs0mg"},{"bike_id":"b633d842-023a-49ce-aac0-95696f077a21","system_id":"levelo_inurba_marseille","lat":43.29627,"lon":5.37725,"is_reserved":false,"is_disabled":false,"rental_uris":{"android":"levelo://app?vid=b633d842-023a-49ce-aac0-95696f077a21","ios":"levelo://app?vid=b633d842-023a-49ce-aac0-95696f077a21"},"vehicle_type_id":"4","last_reported":1751012089,"current_range_meters":10800,"station_id":"ce4bgi92rcd13ifvqb90","pricing_plan_id":"cebpf4jnsgd1na2vs0mg"},{"bike_id":"b005344a-e4c2-44bd-8aca-976c8e4adb0a","system_id":"levelo_inurba_marseille","lat":43.29369,"lon":5.37835,"is_reserved":false,"is_disabled":false,"rental_uris":{"android":"levelo://app?vid=b005344a-e4c2-44bd-8aca-976c8e4adb0a","ios":"levelo://app?vid=b005344a-e4c2-44bd-8aca-976c8e4adb0a"},"vehicle_type_id":"4","last_reported":1751012089,"current_range_meters":10800,"station_id":"ce4bgjh2rcd13ifvqbf0","pricing_plan_id":"cebpf4jnsgd1na2vs0mg"},{"bike_id":"c9d8f67c-b2c4-490c-a7c8-4a6bdfe706dc","system_id":"levelo_inurba_marseille","lat":43.30137,"lon":5.37419,"is_reserved":false,"is_disabled":false,"rental_uris":{"android":"levelo://app?vid=c9d8f67c-b2c4-490c-a7c8-4a6bdfe706dc","ios":"levelo://app?vid=c9d8f67c-b2c4-490c-a7c8-4a6bdfe706dc"},"vehicle_type_id":"4","last_reported":1751012089,"current_range_meters":10800,"station_id":"ce4bgs92rcd13ifvqcc0","pricing_plan_id":"cebpf4jnsgd1na2vs0mg"},{"bike_id":"959a6144-1b8c-4394-b676-453ee52d4830","system_id":"levelo_inurba_marseille","lat":43.32486,"lon":5.36573,"is_reserved":false,"is_disabled":false,"rental_uris":{"android":"levelo://app?vid=959a6144-1b8c-4394-b676-453ee52d4830","ios":"levelo://app?vid=959a6144-1b8c-4394-b676-453ee52d4830"},"vehicle_type_id":"4","last_reported":1751012089,"current_range_meters":10800,"station_id":"ce4bhs12rcd13ifvqhvg","pricing_plan_id":"cebpf4jnsgd1na2vs0mg"},{"bike_id":"d2541864-294e-4fa8-8ed4-da3902bb58d5","system_id":"levelo_inurba_marseille","lat":43.229317,"lon":5.353736,"is_reserved":false,"is_disabled":false,"rental_uris":{"android":"levelo://app?vid=d2541864-294e-4fa8-8ed4-da3902bb58d5","ios":"levelo://app?vid=d2541864-294e-4fa8-8ed4-da3902bb58d5"},"vehicle_type_id":"4","last_reported":1751012089,"current_range_meters":10800,"station_id":"cpo3532slgdg3j2ikp40","pricing_plan_id":"cebpf4jnsgd1na2vs0mg"},{"bike_id":"38ee6c99-ed1c-4320-bb3c-b1d717388b30","system_id":"levelo_inurba_marseille","lat":43.22947,"lon":5.35365,"is_reserved":false,"is_disabled":false,"rental_uris":{"android":"levelo://app?vid=38ee6c99-ed1c-4320-bb3c-b1d717388b30","ios":"levelo://app?vid=38ee6c99-ed1c-4320-bb3c-b1d717388b30"},"vehicle_type_id":"4","last_reported":1751012089,"current_range_meters":10800,"station_id":"cpo3532slgdg3j2ikp40","pricing_plan_id":"cebpf4jnsgd1na2vs0mg"},{"bike_id":"8668331c-3a8a-439e-b9be-92b119cd117c","system_id":"levelo_inurba_marseille","lat":43.306103,"lon":5.372309,"is_reserved":false,"is_disabled":false,"rental_uris":{"android":"levelo://app?vid=8668331c-3a8a-439e-b9be-92b119cd117c","ios":"levelo://app?vid=8668331c-3a8a-439e-b9be-92b119cd117c"},"vehicle_type_id":"4","last_reported":1751012089,"current_range_meters":11200,"station_id":"ce4bgqh2rcd13ifvqc4g","pricing_plan_id":"cebpf4jnsgd1na2vs0mg"},{"bike_id":"c5177bfa-6994-4fc9-9acf-13a7b166bbd0","system_id":"levelo_inurba_marseille","lat":43.31659,"lon":5.40486,"is_reserved":false,"is_disabled":false,"rental_uris":{"android":"levelo://app?vid=c5177bfa-6994-4fc9-9acf-13a7b166bbd0","ios":"levelo://app?vid=c5177bfa-6994-4fc9-9acf-13a7b166bbd0"},"vehicle_type_id":"4","last_reported":1751012089,"current_range_meters":11200,"station_id":"ce4bh012rcd13ifvqd00","pricing_plan_id":"cebpf4jnsgd1na2vs0mg"},{"bike_id":"c8ea6f3f-748d-4e9f-804a-68360900fad2","system_id":"levelo_inurba_marseille","lat":43.29175,"lon":5.37145,"is_reserved":false,"is_disabled":false,"rental_uris":{"android":"levelo://app?vid=c8ea6f3f-748d-4e9f-804a-68360900fad2","ios":"levelo://app?vid=c8ea6f3f-748d-4e9f-804a-68360900fad2"},"vehicle_type_id":"4","last_reported":1751012089,"current_range_meters":11200,"station_id":"ce4bha92rcd13ifvqeh0","pricing_plan_id":"cebpf4jnsgd1na2vs0mg"},{"bike_id":"277d6f3a-b9b5-4d88-bf0d-6c597782848e","system_id":"levelo_inurba_marseille","lat":43.23203,"lon":5.35557,"is_reserved":false,"is_disabled":false,"rental_uris":{"android":"levelo://app?vid=277d6f3a-b9b5-4d88-bf0d-6c597782848e","ios":"levelo://app?vid=277d6f3a-b9b5-4d88-bf0d-6c597782848e"},"vehicle_type_id":"4","last_reported":1751012089,"current_range_meters":11200,"station_id":"ce4bhu92rcd13ifvqi70","pricing_plan_id":"cebpf4jnsgd1na2vs0mg"},{"bike_id":"139b9dea-8bbc-4f94-8afe-934075a66be7","system_id":"levelo_inurba_marseille","lat":43.26937,"lon":5.40259,"is_reserved":false,"is_disabled":false,"rental_uris":{"android":"levelo://app?vid=139b9dea-8bbc-4f94-8afe-934075a66be7","ios":"levelo://app?vid=139b9dea-8bbc-4f94-8afe-934075a66be7"},"vehicle_type_id":"4","last_reported":1751012089,"current_range_meters":11200,"station_id":"cjm6bp8fraef2m0cb0m0","pricing_plan_id":"cebpf4jnsgd1na2vs0mg"},{"bike_id":"08e40a95-5220-46f3-aef8-4bb428e0a4cc","system_id":"levelo_inurba_marseille","lat":43.30171,"lon":5.38111,"is_reserved":false,"is_disabled":false,"rental_uris":{"android":"levelo://app?vid=08e40a95-5220-46f3-aef8-4bb428e0a4cc","ios":"levelo://app?vid=08e40a95-5220-46f3-aef8-4bb428e0a4cc"},"vehicle_type_id":"4","last_reported":1751012089,"current_range_meters":11600,"station_id":"ce4bgjp2rcd13ifvqbh0","pricing_plan_id":"cebpf4jnsgd1na2vs0mg"},{"bike_id":"043c761b-e520-4e3e-8ecc-be309699ee14","system_id":"levelo_inurba_marseille","lat":43.30542,"lon":5.36502,"is_reserved":false,"is_disabled":false,"rental_uris":{"android":"levelo://app?vid=043c761b-e520-4e3e-8ecc-be309699ee14","ios":"levelo://app?vid=043c761b-e520-4e3e-8ecc-be309699ee14"},"vehicle_type_id":"4","last_reported":1751012089,"current_range_meters":11600,"station_id":"ce4bgs12rcd13ifvqcag","pricing_plan_id":"cebpf4jnsgd1na2vs0mg"},{"bike_id":"7817ac31-cf39-4cde-a1f5-6d2dc6b8b65f","system_id":"levelo_inurba_marseille","lat":43.29262,"lon":5.36851,"is_reserved":false,"is_disabled":false,"rental_uris":{"android":"levelo://app?vid=7817ac31-cf39-4cde-a1f5-6d2dc6b8b65f","ios":"levelo://app?vid=7817ac31-cf39-4cde-a1f5-6d2dc6b8b65f"},"vehicle_type_id":"4","last_reported":1751012089,"current_range_meters":11600,"station_id":"ce4bhbp2rcd13ifvqesg","pricing_plan_id":"cebpf4jnsgd1na2vs0mg"},{"bike_id":"b7d0d8a1-c5dd-4278-8b3b-f5786872fe32","system_id":"levelo_inurba_marseille","lat":43.320888,"lon":5.367663,"is_reserved":false,"is_disabled":false,"rental_uris":{"android":"levelo://app?vid=b7d0d8a1-c5dd-4278-8b3b-f5786872fe32","ios":"levelo://app?vid=b7d0d8a1-c5dd-4278-8b3b-f5786872fe32"},"vehicle_type_id":"4","last_reported":1751012089,"current_range_meters":11600,"station_id":"ce4bhrh2rcd13ifvqhug","pricing_plan_id":"cebpf4jnsgd1na2vs0mg"},{"bike_id":"a162a594-1892-4135-8cfb-b08b7437ab12","system_id":"levelo_inurba_marseille","lat":43.31536,"lon":5.3804,"is_reserved":false,"is_disabled":false,"rental_uris":{"android":"levelo://app?vid=a162a594-1892-4135-8cfb-b08b7437ab12","ios":"levelo://app?vid=a162a594-1892-4135-8cfb-b08b7437ab12"},"vehicle_type_id":"4","last_reported":1751012089,"current_range_meters":11600,"station_id":"ce4bhsp2rcd13ifvqi50","pricing_plan_id":"cebpf4jnsgd1na2vs0mg"},{"bike_id":"106f51a6-8d14-465d-b94f-be0112029c3d","system_id":"levelo_inurba_marseille","lat":43.30535,"lon":5.36557,"is_reserved":false,"is_disabled":false,"rental_uris":{"android":"levelo://app?vid=106f51a6-8d14-465d-b94f-be0112029c3d","ios":"levelo://app?vid=106f51a6-8d14-465d-b94f-be0112029c3d"},"vehicle_type_id":"4","last_reported":1751012089,"current_range_meters":12000,"station_id":"ce4bgs12rcd13ifvqcag","pricing_plan_id":"cebpf4jnsgd1na2vs0mg"},{"bike_id":"0a4849b8-d7e0-4f0c-a5b5-e80e4e7dcdde","system_id":"levelo_inurba_marseille","lat":43.30537,"lon":5.36513,"is_reserved":false,"is_disabled":false,"rental_uris":{"android":"levelo://app?vid=0a4849b8-d7e0-4f0c-a5b5-e80e4e7dcdde","ios":"levelo://app?vid=0a4849b8-d7e0-4f0c-a5b5-e80e4e7dcdde"},"vehicle_type_id":"4","last_reported":1751012089,"current_range_meters":12000,"station_id":"ce4bgs12rcd13ifvqcag","pricing_plan_id":"cebpf4jnsgd1na2vs0mg"},{"bike_id":"acd9bd64-e521-4d4a-b063-56b0df0cc996","system_id":"levelo_inurba_marseille","lat":43.24651,"lon":5.38887,"is_reserved":false,"is_disabled":false,"rental_uris":{"android":"levelo://app?vid=acd9bd64-e521-4d4a-b063-56b0df0cc996","ios":"levelo://app?vid=acd9bd64-e521-4d4a-b063-56b0df0cc996"},"vehicle_type_id":"4","last_reported":1751012089,"current_range_meters":12000,"station_id":"ce4bhg12rcd13ifvqf60","pricing_plan_id":"cebpf4jnsgd1na2vs0mg"},{"bike_id":"7ab6a81b-5591-43d5-b8ee-9783808875d1","system_id":"levelo_inurba_marseille","lat":43.24178,"lon":5.39721,"is_reserved":false,"is_disabled":false,"rental_uris":{"android":"levelo://app?vid=7ab6a81b-5591-43d5-b8ee-9783808875d1","ios":"levelo://app?vid=7ab6a81b-5591-43d5-b8ee-9783808875d1"},"vehicle_type_id":"4","last_reported":1751012089,"current_range_meters":12000,"station_id":"ce4bhn12rcd13ifvqgpg","pricing_plan_id":"cebpf4jnsgd1na2vs0mg"},{"bike_id":"ab875138-c754-4b3b-82d7-2da5a11b45cf","system_id":"levelo_inurba_marseille","lat":43.217537,"lon":5.345917,"is_reserved":false,"is_disabled":false,"rental_uris":{"android":"levelo://app?vid=ab875138-c754-4b3b-82d7-2da5a11b45cf","ios":"levelo://app?vid=ab875138-c754-4b3b-82d7-2da5a11b45cf"},"vehicle_type_id":"4","last_reported":1751012089,"current_range_meters":12000,"station_id":"st_cvj6r9ubvosntc0bgbag","pricing_plan_id":"cebpf4jnsgd1na2vs0mg"},{"bike_id":"48d9b04c-e4e3-4303-99b8-b4e29cf0b458","system_id":"levelo_inurba_marseille","lat":43.27374,"lon":5.36259,"is_reserved":false,"is_disabled":false,"rental_uris":{"android":"levelo://app?vid=48d9b04c-e4e3-4303-99b8-b4e29cf0b458","ios":"levelo://app?vid=48d9b04c-e4e3-4303-99b8-b4e29cf0b458"},"vehicle_type_id":"4","last_reported":1751012089,"current_range_meters":12400,"station_id":"ce4bhbh2rcd13ifvqeo0","pricing_plan_id":"cebpf4jnsgd1na2vs0mg"},{"bike_id":"70891058-531a-4818-bcfa-5f4f26f1e918","system_id":"levelo_inurba_marseille","lat":43.25928,"lon":5.40903,"is_reserved":false,"is_disabled":false,"rental_uris":{"android":"levelo://app?vid=70891058-531a-4818-bcfa-5f4f26f1e918","ios":"levelo://app?vid=70891058-531a-4818-bcfa-5f4f26f1e918"},"vehicle_type_id":"4","last_reported":1751012089,"current_range_meters":12400,"station_id":"ce4bhm92rcd13ifvqglg","pricing_plan_id":"cebpf4jnsgd1na2vs0mg"},{"bike_id":"7bd50861-db40-4187-b251-a758e4f552ed","system_id":"levelo_inurba_marseille","lat":43.240651,"lon":5.377659,"is_reserved":false,"is_disabled":false,"rental_uris":{"android":"levelo://app?vid=7bd50861-db40-4187-b251-a758e4f552ed","ios":"levelo://app?vid=7bd50861-db40-4187-b251-a758e4f552ed"},"vehicle_type_id":"4","last_reported":1751012089,"current_range_meters":12400,"station_id":"ce4bhnp2rcd13ifvqgvg","pricing_plan_id":"cebpf4jnsgd1na2vs0mg"},{"bike_id":"27fda73d-ecf8-479a-a5f9-9bb6563c8086","system_id":"levelo_inurba_marseille","lat":43.32111,"lon":5.36791,"is_reserved":false,"is_disabled":false,"rental_uris":{"android":"levelo://app?vid=27fda73d-ecf8-479a-a5f9-9bb6563c8086","ios":"levelo://app?vid=27fda73d-ecf8-479a-a5f9-9bb6563c8086"},"vehicle_type_id":"4","last_reported":1751012089,"current_range_meters":12400,"station_id":"ce4bhrh2rcd13ifvqhug","pricing_plan_id":"cebpf4jnsgd1na2vs0mg"},{"bike_id":"348936c8-7c8d-4b8a-988e-b0a979920804","system_id":"levelo_inurba_marseille","lat":43.211912,"lon":5.35067,"is_reserved":false,"is_disabled":false,"rental_uris":{"android":"levelo://app?vid=348936c8-7c8d-4b8a-988e-b0a979920804","ios":"levelo://app?vid=348936c8-7c8d-4b8a-988e-b0a979920804"},"vehicle_type_id":"4","last_reported":1751012089,"current_range_meters":12400,"station_id":"st_cvj6sg6p6f1abm77japg","pricing_plan_id":"cebpf4jnsgd1na2vs0mg"},{"bike_id":"d93518a7-acea-49d1-8b1d-66917831e25a","system_id":"levelo_inurba_marseille","lat":43.28356,"lon":5.39556,"is_reserved":false,"is_disabled":false,"rental_uris":{"android":"levelo://app?vid=d93518a7-acea-49d1-8b1d-66917831e25a","ios":"levelo://app?vid=d93518a7-acea-49d1-8b1d-66917831e25a"},"vehicle_type_id":"4","last_reported":1751012089,"current_range_meters":12800,"station_id":"","pricing_plan_id":"cebpf4jnsgd1na2vs0mg"},{"bike_id":"a87d2e08-b948-4111-b2a3-ff37a8b262c3","system_id":"levelo_inurba_marseille","lat":43.26672,"lon":5.38262,"is_reserved":false,"is_disabled":false,"rental_uris":{"android":"levelo://app?vid=a87d2e08-b948-4111-b2a3-ff37a8b262c3","ios":"levelo://app?vid=a87d2e08-b948-4111-b2a3-ff37a8b262c3"},"vehicle_type_id":"4","last_reported":1751012089,"current_range_meters":12800,"station_id":"ce4bhg92rcd13ifvqf90","pricing_plan_id":"cebpf4jnsgd1na2vs0mg"},{"bike_id":"c9233017-cd13-4c69-83a2-4d83e62c3873","system_id":"levelo_inurba_marseille","lat":43.25001,"lon":5.38941,"is_reserved":false,"is_disabled":false,"rental_uris":{"android":"levelo://app?vid=c9233017-cd13-4c69-83a2-4d83e62c3873","ios":"levelo://app?vid=c9233017-cd13-4c69-83a2-4d83e62c3873"},"vehicle_type_id":"4","last_reported":1751012089,"current_range_meters":12800,"station_id":"ce4bhgp2rcd13ifvqfd0","pricing_plan_id":"cebpf4jnsgd1na2vs0mg"},{"bike_id":"b8954a9f-7ce8-456c-a0b7-ca33c9473361","system_id":"levelo_inurba_marseille","lat":43.31979,"lon":5.38111,"is_reserved":false,"is_disabled":false,"rental_uris":{"android":"levelo://app?vid=b8954a9f-7ce8-456c-a0b7-ca33c9473361","ios":"levelo://app?vid=b8954a9f-7ce8-456c-a0b7-ca33c9473361"},"vehicle_type_id":"4","last_reported":1751012089,"current_range_meters":12800,"station_id":"ce4bhr12rcd13ifvqhpg","pricing_plan_id":"cebpf4jnsgd1na2vs0mg"},{"bike_id":"1c8ab180-05fd-405f-9922-b2b2c2d5142f","system_id":"levelo_inurba_marseille","lat":43.32109,"lon":5.36776,"is_reserved":false,"is_disabled":false,"rental_uris":{"android":"levelo://app?vid=1c8ab180-05fd-405f-9922-b2b2c2d5142f","ios":"levelo://app?vid=1c8ab180-05fd-405f-9922-b2b2c2d5142f"},"vehicle_type_id":"4","last_reported":1751012089,"current_range_meters":12800,"station_id":"ce4bhrh2rcd13ifvqhug","pricing_plan_id":"cebpf4jnsgd1na2vs0mg"},{"bike_id":"a440f2f6-8cf8-4348-9ba1-e21002a18a07","system_id":"levelo_inurba_marseille","lat":43.32106,"lon":5.36766,"is_reserved":false,"is_disabled":false,"rental_uris":{"android":"levelo://app?vid=a440f2f6-8cf8-4348-9ba1-e21002a18a07","ios":"levelo://app?vid=a440f2f6-8cf8-4348-9ba1-e21002a18a07"},"vehicle_type_id":"4","last_reported":1751012089,"current_range_meters":12800,"station_id":"ce4bhrh2rcd13ifvqhug","pricing_plan_id":"cebpf4jnsgd1na2vs0mg"},{"bike_id":"bfb795a0-9115-496e-bc55-21db3298c66f","system_id":"levelo_inurba_marseille","lat":43.29255,"lon":5.37628,"is_reserved":false,"is_disabled":false,"rental_uris":{"android":"levelo://app?vid=bfb795a0-9115-496e-bc55-21db3298c66f","ios":"levelo://app?vid=bfb795a0-9115-496e-bc55-21db3298c66f"},"vehicle_type_id":"4","last_reported":1751012089,"current_range_meters":13600,"station_id":"ce4bgi12rcd13ifvqb80","pricing_plan_id":"cebpf4jnsgd1na2vs0mg"},{"bike_id":"3f2e5038-cd5f-466d-9578-2783163f088e","system_id":"levelo_inurba_marseille","lat":43.32101,"lon":5.36766,"is_reserved":false,"is_disabled":false,"rental_uris":{"android":"levelo://app?vid=3f2e5038-cd5f-466d-9578-2783163f088e","ios":"levelo://app?vid=3f2e5038-cd5f-466d-9578-2783163f088e"},"vehicle_type_id":"4","last_reported":1751012089,"current_range_meters":13600,"station_id":"ce4bhrh2rcd13ifvqhug","pricing_plan_id":"cebpf4jnsgd1na2vs0mg"},{"bike_id":"607a4d36-784c-4bdc-af6d-1aaf161b26e3","system_id":"levelo_inurba_marseille","lat":43.3091,"lon":5.36851,"is_reserved":false,"is_disabled":false,"rental_uris":{"android":"levelo://app?vid=607a4d36-784c-4bdc-af6d-1aaf161b26e3","ios":"levelo://app?vid=607a4d36-784c-4bdc-af6d-1aaf161b26e3"},"vehicle_type_id":"4","last_reported":1751012089,"current_range_meters":14000,"station_id":"ce4bgn92rcd13ifvqbvg","pricing_plan_id":"cebpf4jnsgd1na2vs0mg"},{"bike_id":"d2f64681-31d5-472f-a238-cf6e6c48ab4d","system_id":"levelo_inurba_marseille","lat":43.2893,"lon":5.38387,"is_reserved":false,"is_disabled":false,"rental_uris":{"android":"levelo://app?vid=d2f64681-31d5-472f-a238-cf6e6c48ab4d","ios":"levelo://app?vid=d2f64681-31d5-472f-a238-cf6e6c48ab4d"},"vehicle_type_id":"4","last_reported":1751012089,"current_range_meters":14000,"station_id":"ce4bh612rcd13ifvqe6g","pricing_plan_id":"cebpf4jnsgd1na2vs0mg"},{"bike_id":"100162a6-cf27-423d-9080-44d33019b17f","system_id":"levelo_inurba_marseille","lat":43.27211,"lon":5.39183,"is_reserved":false,"is_disabled":false,"rental_uris":{"android":"levelo://app?vid=100162a6-cf27-423d-9080-44d33019b17f","ios":"levelo://app?vid=100162a6-cf27-423d-9080-44d33019b17f"},"vehicle_type_id":"4","last_reported":1751012089,"current_range_meters":14000,"station_id":"ce4bhhp2rcd13ifvqfm0","pricing_plan_id":"cebpf4jnsgd1na2vs0mg"},{"bike_id":"8b1a9877-8735-4790-b013-59ea90b17ce4","system_id":"levelo_inurba_marseille","lat":43.29791,"lon":5.37102,"is_reserved":false,"is_disabled":false,"rental_uris":{"android":"levelo://app?vid=8b1a9877-8735-4790-b013-59ea90b17ce4","ios":"levelo://app?vid=8b1a9877-8735-4790-b013-59ea90b17ce4"},"vehicle_type_id":"4","last_reported":1751012089,"current_range_meters":14400,"station_id":"ce4bgop2rcd13ifvqc1g","pricing_plan_id":"cebpf4jnsgd1na2vs0mg"},{"bike_id":"3d7542cd-3c3a-4725-a6b7-27bb4e19fbd6","system_id":"levelo_inurba_marseille","lat":43.30548,"lon":5.36532,"is_reserved":false,"is_disabled":false,"rental_uris":{"android":"levelo://app?vid=3d7542cd-3c3a-4725-a6b7-27bb4e19fbd6","ios":"levelo://app?vid=3d7542cd-3c3a-4725-a6b7-27bb4e19fbd6"},"vehicle_type_id":"4","last_reported":1751012089,"current_range_meters":14400,"station_id":"ce4bgs12rcd13ifvqcag","pricing_plan_id":"cebpf4jnsgd1na2vs0mg"},{"bike_id":"a9788619-98e9-4a7f-8e11-51219d142a63","system_id":"levelo_inurba_marseille","lat":43.30555,"lon":5.36525,"is_reserved":false,"is_disabled":false,"rental_uris":{"android":"levelo://app?vid=a9788619-98e9-4a7f-8e11-51219d142a63","ios":"levelo://app?vid=a9788619-98e9-4a7f-8e11-51219d142a63"},"vehicle_type_id":"4","last_reported":1751012089,"current_range_meters":14400,"station_id":"ce4bgs12rcd13ifvqcag","pricing_plan_id":"cebpf4jnsgd1na2vs0mg"},{"bike_id":"4680b3e2-9e9c-40d4-8e0d-f060fdcf1d41","system_id":"levelo_inurba_marseille","lat":43.30129,"lon":5.37397,"is_reserved":false,"is_disabled":false,"rental_uris":{"android":"levelo://app?vid=4680b3e2-9e9c-40d4-8e0d-f060fdcf1d41","ios":"levelo://app?vid=4680b3e2-9e9c-40d4-8e0d-f060fdcf1d41"},"vehicle_type_id":"4","last_reported":1751012089,"current_range_meters":14400,"station_id":"ce4bgs92rcd13ifvqcc0","pricing_plan_id":"cebpf4jnsgd1na2vs0mg"},{"bike_id":"104d9a39-d4fe-4577-bd3e-dfa2a6c208e7","system_id":"levelo_inurba_marseille","lat":43.27181,"lon":5.40989,"is_reserved":false,"is_disabled":false,"rental_uris":{"android":"levelo://app?vid=104d9a39-d4fe-4577-bd3e-dfa2a6c208e7","ios":"levelo://app?vid=104d9a39-d4fe-4577-bd3e-dfa2a6c208e7"},"vehicle_type_id":"4","last_reported":1751012089,"current_range_meters":14400,"station_id":"ce4bhl12rcd13ifvqgf0","pricing_plan_id":"cebpf4jnsgd1na2vs0mg"},{"bike_id":"3194310d-1e08-475a-9e4f-a2a5d12f9bc1","system_id":"levelo_inurba_marseille","lat":43.26215,"lon":5.40458,"is_reserved":false,"is_disabled":false,"rental_uris":{"android":"levelo://app?vid=3194310d-1e08-475a-9e4f-a2a5d12f9bc1","ios":"levelo://app?vid=3194310d-1e08-475a-9e4f-a2a5d12f9bc1"},"vehicle_type_id":"4","last_reported":1751012089,"current_range_meters":14400,"station_id":"ce4bhmh2rcd13ifvqgmg","pricing_plan_id":"cebpf4jnsgd1na2vs0mg"},{"bike_id":"5a01ae6d-9064-484c-8d77-2d9e141e2313","system_id":"levelo_inurba_marseille","lat":43.24473,"lon":5.39004,"is_reserved":false,"is_disabled":false,"rental_uris":{"android":"levelo://app?vid=5a01ae6d-9064-484c-8d77-2d9e141e2313","ios":"levelo://app?vid=5a01ae6d-9064-484c-8d77-2d9e141e2313"},"vehicle_type_id":"4","last_reported":1751012089,"current_range_meters":14800,"station_id":"","pricing_plan_id":"cebpf4jnsgd1na2vs0mg"},{"bike_id":"b8094826-a7d8-439e-81ea-79ce926552e6","system_id":"levelo_inurba_marseille","lat":43.30925,"lon":5.36859,"is_reserved":false,"is_disabled":false,"rental_uris":{"android":"levelo://app?vid=b8094826-a7d8-439e-81ea-79ce926552e6","ios":"levelo://app?vid=b8094826-a7d8-439e-81ea-79ce926552e6"},"vehicle_type_id":"4","last_reported":1751012089,"current_range_meters":14800,"station_id":"ce4bgn92rcd13ifvqbvg","pricing_plan_id":"cebpf4jnsgd1na2vs0mg"},{"bike_id":"0c9bf482-3ccb-4430-b8fe-cb4fcae6b779","system_id":"levelo_inurba_marseille","lat":43.31071,"lon":5.38356,"is_reserved":false,"is_disabled":false,"rental_uris":{"android":"levelo://app?vid=0c9bf482-3ccb-4430-b8fe-cb4fcae6b779","ios":"levelo://app?vid=0c9bf482-3ccb-4430-b8fe-cb4fcae6b779"},"vehicle_type_id":"4","last_reported":1751012089,"current_range_meters":14800,"station_id":"ce4bgv92rcd13ifvqcr0","pricing_plan_id":"cebpf4jnsgd1na2vs0mg"},{"bike_id":"84dea4e9-03a8-4848-868c-ac9b13a40882","system_id":"levelo_inurba_marseille","lat":43.29026,"lon":5.38128,"is_reserved":false,"is_disabled":false,"rental_uris":{"android":"levelo://app?vid=84dea4e9-03a8-4848-868c-ac9b13a40882","ios":"levelo://app?vid=84dea4e9-03a8-4848-868c-ac9b13a40882"},"vehicle_type_id":"4","last_reported":1751012089,"current_range_meters":14800,"station_id":"ce4bh4p2rcd13ifvqe1g","pricing_plan_id":"cebpf4jnsgd1na2vs0mg"},{"bike_id":"d7fb52e7-923c-4cee-bfa7-08681c73fba2","system_id":"levelo_inurba_marseille","lat":43.25001,"lon":5.38949,"is_reserved":false,"is_disabled":false,"rental_uris":{"android":"levelo://app?vid=d7fb52e7-923c-4cee-bfa7-08681c73fba2","ios":"levelo://app?vid=d7fb52e7-923c-4cee-bfa7-08681c73fba2"},"vehicle_type_id":"4","last_reported":1751012089,"current_range_meters":14800,"station_id":"ce4bhgp2rcd13ifvqfd0","pricing_plan_id":"cebpf4jnsgd1na2vs0mg"},{"bike_id":"298c80a5-b5f7-4194-8b11-162c4cacd093","system_id":"levelo_inurba_marseille","lat":43.25494,"lon":5.37648,"is_reserved":false,"is_disabled":false,"rental_uris":{"android":"levelo://app?vid=298c80a5-b5f7-4194-8b11-162c4cacd093","ios":"levelo://app?vid=298c80a5-b5f7-4194-8b11-162c4cacd093"},"vehicle_type_id":"4","last_reported":1751012089,"current_range_meters":14800,"station_id":"ce4bhh12rcd13ifvqff0","pricing_plan_id":"cebpf4jnsgd1na2vs0mg"},{"bike_id":"e5ae1fdd-ad1c-4e69-ac70-f715e6402e6b","system_id":"levelo_inurba_marseille","lat":43.27726,"lon":5.39866,"is_reserved":false,"is_disabled":false,"rental_uris":{"android":"levelo://app?vid=e5ae1fdd-ad1c-4e69-ac70-f715e6402e6b","ios":"levelo://app?vid=e5ae1fdd-ad1c-4e69-ac70-f715e6402e6b"},"vehicle_type_id":"4","last_reported":1751012089,"current_range_meters":15200,"station_id":"","pricing_plan_id":"cebpf4jnsgd1na2vs0mg"},{"bike_id":"4e8bdfb4-f0e2-4fad-8dff-84fadc0d58be","system_id":"levelo_inurba_marseille","lat":43.29291,"lon":5.3743,"is_reserved":false,"is_disabled":false,"rental_uris":{"android":"levelo://app?vid=4e8bdfb4-f0e2-4fad-8dff-84fadc0d58be","ios":"levelo://app?vid=4e8bdfb4-f0e2-4fad-8dff-84fadc0d58be"},"vehicle_type_id":"4","last_reported":1751012089,"current_range_meters":15200,"station_id":"ce4bgi12rcd13ifvqb70","pricing_plan_id":"cebpf4jnsgd1na2vs0mg"},{"bike_id":"212e57c7-fbbb-4ff5-a7f2-1174e0d484c1","system_id":"levelo_inurba_marseille","lat":43.260732,"lon":5.406906,"is_reserved":false,"is_disabled":false,"rental_uris":{"android":"levelo://app?vid=212e57c7-fbbb-4ff5-a7f2-1174e0d484c1","ios":"levelo://app?vid=212e57c7-fbbb-4ff5-a7f2-1174e0d484c1"},"vehicle_type_id":"4","last_reported":1751012089,"current_range_meters":15200,"station_id":"ce4bhkp2rcd13ifvqgd0","pricing_plan_id":"cebpf4jnsgd1na2vs0mg"},{"bike_id":"e3aa9769-07bd-40fc-b1ee-9cc66211ab32","system_id":"levelo_inurba_marseille","lat":43.33756,"lon":5.3744,"is_reserved":false,"is_disabled":false,"rental_uris":{"android":"levelo://app?vid=e3aa9769-07bd-40fc-b1ee-9cc66211ab32","ios":"levelo://app?vid=e3aa9769-07bd-40fc-b1ee-9cc66211ab32"},"vehicle_type_id":"4","last_reported":1751012089,"current_range_meters":16000,"station_id":"","pricing_plan_id":"cebpf4jnsgd1na2vs0mg"},{"bike_id":"bb69c1e1-7084-4be7-966a-57a7bcdfcb6c","system_id":"levelo_inurba_marseille","lat":43.246199,"lon":5.416146,"is_reserved":false,"is_disabled":false,"rental_uris":{"android":"levelo://app?vid=bb69c1e1-7084-4be7-966a-57a7bcdfcb6c","ios":"levelo://app?vid=bb69c1e1-7084-4be7-966a-57a7bcdfcb6c"},"vehicle_type_id":"4","last_reported":1751012089,"current_range_meters":16000,"station_id":"","pricing_plan_id":"cebpf4jnsgd1na2vs0mg"},{"bike_id":"cefc4803-4bc8-49e1-b0ee-01e83e6bf58d","system_id":"levelo_inurba_marseille","lat":43.305323,"lon":5.384333,"is_reserved":false,"is_disabled":false,"rental_uris":{"android":"levelo://app?vid=cefc4803-4bc8-49e1-b0ee-01e83e6bf58d","ios":"levelo://app?vid=cefc4803-4bc8-49e1-b0ee-01e83e6bf58d"},"vehicle_type_id":"4","last_reported":1751012089,"current_range_meters":16000,"station_id":"ce4bgg92rcd13ifvqb30","pricing_plan_id":"cebpf4jnsgd1na2vs0mg"},{"bike_id":"c26c0a60-2f0d-410a-9a12-c5ccf1088f4d","system_id":"levelo_inurba_marseille","lat":43.301493,"lon":5.38087,"is_reserved":false,"is_disabled":false,"rental_uris":{"android":"levelo://app?vid=c26c0a60-2f0d-410a-9a12-c5ccf1088f4d","ios":"levelo://app?vid=c26c0a60-2f0d-410a-9a12-c5ccf1088f4d"},"vehicle_type_id":"4","last_reported":1751012089,"current_range_meters":16000,"station_id":"ce4bgjp2rcd13ifvqbh0","pricing_plan_id":"cebpf4jnsgd1na2vs0mg"},{"bike_id":"de34346d-3d4d-482e-bf81-fbd352668352","system_id":"levelo_inurba_marseille","lat":43.30912,"lon":5.36858,"is_reserved":false,"is_disabled":false,"rental_uris":{"android":"levelo://app?vid=de34346d-3d4d-482e-bf81-fbd352668352","ios":"levelo://app?vid=de34346d-3d4d-482e-bf81-fbd352668352"},"vehicle_type_id":"4","last_reported":1751012089,"current_range_meters":16000,"station_id":"ce4bgn92rcd13ifvqbvg","pricing_plan_id":"cebpf4jnsgd1na2vs0mg"},{"bike_id":"af2e1670-f935-42d0-a5da-9ba52e0b6812","system_id":"levelo_inurba_marseille","lat":43.30919,"lon":5.36857,"is_reserved":false,"is_disabled":false,"rental_uris":{"android":"levelo://app?vid=af2e1670-f935-42d0-a5da-9ba52e0b6812","ios":"levelo://app?vid=af2e1670-f935-42d0-a5da-9ba52e0b6812"},"vehicle_type_id":"4","last_reported":1751012089,"current_range_meters":16000,"station_id":"ce4bgn92rcd13ifvqbvg","pricing_plan_id":"cebpf4jnsgd1na2vs0mg"},{"bike_id":"46fc1da8-b21e-49ec-9f51-bd3892d403d9","system_id":"levelo_inurba_marseille","lat":43.24168,"lon":5.36397,"is_reserved":false,"is_disabled":false,"rental_uris":{"android":"levelo://app?vid=46fc1da8-b21e-49ec-9f51-bd3892d403d9","ios":"levelo://app?vid=46fc1da8-b21e-49ec-9f51-bd3892d403d9"},"vehicle_type_id":"4","last_reported":1751012089,"current_range_meters":16000,"station_id":"cpo36qri1sfpv3e86is0","pricing_plan_id":"cebpf4jnsgd1na2vs0mg"},{"bike_id":"bd357f89-27b2-4bc4-b14f-5ffc5df38d5f","system_id":"levelo_inurba_marseille","lat":43.31232,"lon":5.36839,"is_reserved":false,"is_disabled":false,"rental_uris":{"android":"levelo://app?vid=bd357f89-27b2-4bc4-b14f-5ffc5df38d5f","ios":"levelo://app?vid=bd357f89-27b2-4bc4-b14f-5ffc5df38d5f"},"vehicle_type_id":"4","last_reported":1751012089,"current_range_meters":16400,"station_id":"ce4bgl92rcd13ifvqbq0","pricing_plan_id":"cebpf4jnsgd1na2vs0mg"},{"bike_id":"c44402be-ab8f-4697-9193-7f503efe054f","system_id":"levelo_inurba_marseille","lat":43.30127,"lon":5.37426,"is_reserved":false,"is_disabled":false,"rental_uris":{"android":"levelo://app?vid=c44402be-ab8f-4697-9193-7f503efe054f","ios":"levelo://app?vid=c44402be-ab8f-4697-9193-7f503efe054f"},"vehicle_type_id":"4","last_reported":1751012089,"current_range_meters":16400,"station_id":"ce4bgs92rcd13ifvqcc0","pricing_plan_id":"cebpf4jnsgd1na2vs0mg"},{"bike_id":"5c60ff76-4d53-4c9a-bd63-7ea7a8324dd9","system_id":"levelo_inurba_marseille","lat":43.308884,"lon":5.371954,"is_reserved":false,"is_disabled":false,"rental_uris":{"android":"levelo://app?vid=5c60ff76-4d53-4c9a-bd63-7ea7a8324dd9","ios":"levelo://app?vid=5c60ff76-4d53-4c9a-bd63-7ea7a8324dd9"},"vehicle_type_id":"4","last_reported":1751012089,"current_range_meters":16400,"station_id":"ce4bguh2rcd13ifvqckg","pricing_plan_id":"cebpf4jnsgd1na2vs0mg"},{"bike_id":"73ce669b-0939-4d08-8703-5d65650a3b1b","system_id":"levelo_inurba_marseille","lat":43.28481,"lon":5.38555,"is_reserved":false,"is_disabled":false,"rental_uris":{"android":"levelo://app?vid=73ce669b-0939-4d08-8703-5d65650a3b1b","ios":"levelo://app?vid=73ce669b-0939-4d08-8703-5d65650a3b1b"},"vehicle_type_id":"4","last_reported":1751012089,"current_range_meters":16400,"station_id":"ce4bh8p2rcd13ifvqeb0","pricing_plan_id":"cebpf4jnsgd1na2vs0mg"},{"bike_id":"15462c81-b561-4e17-8e18-4861348b7e12","system_id":"levelo_inurba_marseille","lat":43.25937,"lon":5.40916,"is_reserved":false,"is_disabled":false,"rental_uris":{"android":"levelo://app?vid=15462c81-b561-4e17-8e18-4861348b7e12","ios":"levelo://app?vid=15462c81-b561-4e17-8e18-4861348b7e12"},"vehicle_type_id":"4","last_reported":1751012089,"current_range_meters":16400,"station_id":"ce4bhm92rcd13ifvqglg","pricing_plan_id":"cebpf4jnsgd1na2vs0mg"},{"bike_id":"e6ce70f7-9138-485c-a4db-2c9174614cff","system_id":"levelo_inurba_marseille","lat":43.31777,"lon":5.36837,"is_reserved":false,"is_disabled":false,"rental_uris":{"android":"levelo://app?vid=e6ce70f7-9138-485c-a4db-2c9174614cff","ios":"levelo://app?vid=e6ce70f7-9138-485c-a4db-2c9174614cff"},"vehicle_type_id":"4","last_reported":1751012089,"current_range_meters":16800,"station_id":"","pricing_plan_id":"cebpf4jnsgd1na2vs0mg"},{"bike_id":"e89d2a76-7791-436b-bcc1-6e27bb9c4662","system_id":"levelo_inurba_marseille","lat":43.29908,"lon":5.38144,"is_reserved":false,"is_disabled":false,"rental_uris":{"android":"levelo://app?vid=e89d2a76-7791-436b-bcc1-6e27bb9c4662","ios":"levelo://app?vid=e89d2a76-7791-436b-bcc1-6e27bb9c4662"},"vehicle_type_id":"4","last_reported":1751012089,"current_range_meters":16800,"station_id":"ce4bgj12rcd13ifvqbc0","pricing_plan_id":"cebpf4jnsgd1na2vs0mg"},{"bike_id":"28088631-91f6-4679-9cfa-4602908b7642","system_id":"levelo_inurba_marseille","lat":43.3136,"lon":5.36702,"is_reserved":false,"is_disabled":false,"rental_uris":{"android":"levelo://app?vid=28088631-91f6-4679-9cfa-4602908b7642","ios":"levelo://app?vid=28088631-91f6-4679-9cfa-4602908b7642"},"vehicle_type_id":"4","last_reported":1751012089,"current_range_meters":16800,"station_id":"ce4bgr92rcd13ifvqc6g","pricing_plan_id":"cebpf4jnsgd1na2vs0mg"},{"bike_id":"4d8717ad-07a7-41e5-96a5-f5785031e794","system_id":"levelo_inurba_marseille","lat":43.28271,"lon":5.35075,"is_reserved":false,"is_disabled":false,"rental_uris":{"android":"levelo://app?vid=4d8717ad-07a7-41e5-96a5-f5785031e794","ios":"levelo://app?vid=4d8717ad-07a7-41e5-96a5-f5785031e794"},"vehicle_type_id":"4","last_reported":1751012089,"current_range_meters":16800,"station_id":"ce4bhbp2rcd13ifvqerg","pricing_plan_id":"cebpf4jnsgd1na2vs0mg"},{"bike_id":"a2a77698-b9bc-4f96-83a9-97a8d75bac6a","system_id":"levelo_inurba_marseille","lat":43.25716,"lon":5.41115,"is_reserved":false,"is_disabled":false,"rental_uris":{"android":"levelo://app?vid=a2a77698-b9bc-4f96-83a9-97a8d75bac6a","ios":"levelo://app?vid=a2a77698-b9bc-4f96-83a9-97a8d75bac6a"},"vehicle_type_id":"4","last_reported":1751012089,"current_range_meters":16800,"station_id":"ce4bhkp2rcd13ifvqgd0","pricing_plan_id":"cebpf4jnsgd1na2vs0mg"},{"bike_id":"57d6eb9e-33e5-482e-9465-914c364d7397","system_id":"levelo_inurba_marseille","lat":43.32287,"lon":5.38272,"is_reserved":false,"is_disabled":false,"rental_uris":{"android":"levelo://app?vid=57d6eb9e-33e5-482e-9465-914c364d7397","ios":"levelo://app?vid=57d6eb9e-33e5-482e-9465-914c364d7397"},"vehicle_type_id":"4","last_reported":1751012089,"current_range_meters":16800,"station_id":"ce4bhr12rcd13ifvqhqg","pricing_plan_id":"cebpf4jnsgd1na2vs0mg"},{"bike_id":"facfcf93-ab85-4d16-b148-8bc9369e6f17","system_id":"levelo_inurba_marseille","lat":43.21194,"lon":5.35069,"is_reserved":false,"is_disabled":false,"rental_uris":{"android":"levelo://app?vid=facfcf93-ab85-4d16-b148-8bc9369e6f17","ios":"levelo://app?vid=facfcf93-ab85-4d16-b148-8bc9369e6f17"},"vehicle_type_id":"4","last_reported":1751012089,"current_range_meters":16800,"station_id":"st_cvj6sg6p6f1abm77japg","pricing_plan_id":"cebpf4jnsgd1na2vs0mg"},{"bike_id":"f0057ca2-de2d-4464-8902-068dc3677e00","system_id":"levelo_inurba_marseille","lat":43.211991,"lon":5.350701,"is_reserved":false,"is_disabled":false,"rental_uris":{"android":"levelo://app?vid=f0057ca2-de2d-4464-8902-068dc3677e00","ios":"levelo://app?vid=f0057ca2-de2d-4464-8902-068dc3677e00"},"vehicle_type_id":"4","last_reported":1751012089,"current_range_meters":16800,"station_id":"st_cvj6sg6p6f1abm77japg","pricing_plan_id":"cebpf4jnsgd1na2vs0mg"},{"bike_id":"ad31fae6-4da4-4b6b-8844-651d9203a873","system_id":"levelo_inurba_marseille","lat":43.30926,"lon":5.36835,"is_reserved":false,"is_disabled":false,"rental_uris":{"android":"levelo://app?vid=ad31fae6-4da4-4b6b-8844-651d9203a873","ios":"levelo://app?vid=ad31fae6-4da4-4b6b-8844-651d9203a873"},"vehicle_type_id":"4","last_reported":1751012089,"current_range_meters":17200,"station_id":"ce4bgn92rcd13ifvqbvg","pricing_plan_id":"cebpf4jnsgd1na2vs0mg"},{"bike_id":"bad20152-5d0c-479b-8656-e3b2e99e76b6","system_id":"levelo_inurba_marseille","lat":43.3053,"lon":5.3656,"is_reserved":false,"is_disabled":false,"rental_uris":{"android":"levelo://app?vid=bad20152-5d0c-479b-8656-e3b2e99e76b6","ios":"levelo://app?vid=bad20152-5d0c-479b-8656-e3b2e99e76b6"},"vehicle_type_id":"4","last_reported":1751012089,"current_range_meters":17200,"station_id":"ce4bgs12rcd13ifvqcag","pricing_plan_id":"cebpf4jnsgd1na2vs0mg"},{"bike_id":"130fd3b1-7e84-47c4-97a9-9edd92f6cd4b","system_id":"levelo_inurba_marseille","lat":43.30461,"lon":5.37901,"is_reserved":false,"is_disabled":false,"rental_uris":{"android":"levelo://app?vid=130fd3b1-7e84-47c4-97a9-9edd92f6cd4b","ios":"levelo://app?vid=130fd3b1-7e84-47c4-97a9-9edd92f6cd4b"},"vehicle_type_id":"4","last_reported":1751012089,"current_range_meters":17200,"station_id":"ce4bgup2rcd13ifvqcn0","pricing_plan_id":"cebpf4jnsgd1na2vs0mg"},{"bike_id":"52df4ca6-f94a-4c8e-9a64-132dc175c47b","system_id":"levelo_inurba_marseille","lat":43.30886,"lon":5.39657,"is_reserved":false,"is_disabled":false,"rental_uris":{"android":"levelo://app?vid=52df4ca6-f94a-4c8e-9a64-132dc175c47b","ios":"levelo://app?vid=52df4ca6-f94a-4c8e-9a64-132dc175c47b"},"vehicle_type_id":"4","last_reported":1751012089,"current_range_meters":17200,"station_id":"ce4bh012rcd13ifvqcv0","pricing_plan_id":"cebpf4jnsgd1na2vs0mg"},{"bike_id":"9fd15b51-c27a-4a76-996a-644caac9cee1","system_id":"levelo_inurba_marseille","lat":43.2992,"lon":5.40042,"is_reserved":false,"is_disabled":false,"rental_uris":{"android":"levelo://app?vid=9fd15b51-c27a-4a76-996a-644caac9cee1","ios":"levelo://app?vid=9fd15b51-c27a-4a76-996a-644caac9cee1"},"vehicle_type_id":"4","last_reported":1751012089,"current_range_meters":17600,"station_id":"","pricing_plan_id":"cebpf4jnsgd1na2vs0mg"},{"bike_id":"1b39abf9-3a3f-4d80-915b-22905554f4a6","system_id":"levelo_inurba_marseille","lat":43.30117,"lon":5.36402,"is_reserved":false,"is_disabled":false,"rental_uris":{"android":"levelo://app?vid=1b39abf9-3a3f-4d80-915b-22905554f4a6","ios":"levelo://app?vid=1b39abf9-3a3f-4d80-915b-22905554f4a6"},"vehicle_type_id":"4","last_reported":1751012089,"current_range_meters":17600,"station_id":"","pricing_plan_id":"cebpf4jnsgd1na2vs0mg"},{"bike_id":"c9a99b63-28d9-4f62-a78c-9f43741861bc","system_id":"levelo_inurba_marseille","lat":43.30531,"lon":5.3844,"is_reserved":false,"is_disabled":false,"rental_uris":{"android":"levelo://app?vid=c9a99b63-28d9-4f62-a78c-9f43741861bc","ios":"levelo://app?vid=c9a99b63-28d9-4f62-a78c-9f43741861bc"},"vehicle_type_id":"4","last_reported":1751012089,"current_range_meters":17600,"station_id":"ce4bgg92rcd13ifvqb30","pricing_plan_id":"cebpf4jnsgd1na2vs0mg"},{"bike_id":"2a38f599-a5c6-4dd1-beaa-9dd25b63ecf7","system_id":"levelo_inurba_marseille","lat":43.29301,"lon":5.37454,"is_reserved":false,"is_disabled":false,"rental_uris":{"android":"levelo://app?vid=2a38f599-a5c6-4dd1-beaa-9dd25b63ecf7","ios":"levelo://app?vid=2a38f599-a5c6-4dd1-beaa-9dd25b63ecf7"},"vehicle_type_id":"4","last_reported":1751012089,"current_range_meters":17600,"station_id":"ce4bgi12rcd13ifvqb70","pricing_plan_id":"cebpf4jnsgd1na2vs0mg"},{"bike_id":"92432358-7c04-41b7-951a-9478630f1c9f","system_id":"levelo_inurba_marseille","lat":43.30282,"lon":5.37707,"is_reserved":false,"is_disabled":false,"rental_uris":{"android":"levelo://app?vid=92432358-7c04-41b7-951a-9478630f1c9f","ios":"levelo://app?vid=92432358-7c04-41b7-951a-9478630f1c9f"},"vehicle_type_id":"4","last_reported":1751012089,"current_range_meters":17600,"station_id":"ce4bguh2rcd13ifvqcj0","pricing_plan_id":"cebpf4jnsgd1na2vs0mg"},{"bike_id":"7b9561a3-f7ea-4a59-9836-27499b8951c1","system_id":"levelo_inurba_marseille","lat":43.30946,"lon":5.39045,"is_reserved":false,"is_disabled":false,"rental_uris":{"android":"levelo://app?vid=7b9561a3-f7ea-4a59-9836-27499b8951c1","ios":"levelo://app?vid=7b9561a3-f7ea-4a59-9836-27499b8951c1"},"vehicle_type_id":"4","last_reported":1751012089,"current_range_meters":17600,"station_id":"ce4bgup2rcd13ifvqco0","pricing_plan_id":"cebpf4jnsgd1na2vs0mg"},{"bike_id":"88b11599-6132-4f3c-85fe-be863ec51630","system_id":"levelo_inurba_marseille","lat":43.27826,"lon":5.39205,"is_reserved":false,"is_disabled":false,"rental_uris":{"android":"levelo://app?vid=88b11599-6132-4f3c-85fe-be863ec51630","ios":"levelo://app?vid=88b11599-6132-4f3c-85fe-be863ec51630"},"vehicle_type_id":"4","last_reported":1751012089,"current_range_meters":17600,"station_id":"ce4bhjp2rcd13ifvqga0","pricing_plan_id":"cebpf4jnsgd1na2vs0mg"},{"bike_id":"f3098f83-1a85-406e-9a4b-09b468a390d5","system_id":"levelo_inurba_marseille","lat":43.23154,"lon":5.43709,"is_reserved":false,"is_disabled":false,"rental_uris":{"android":"levelo://app?vid=f3098f83-1a85-406e-9a4b-09b468a390d5","ios":"levelo://app?vid=f3098f83-1a85-406e-9a4b-09b468a390d5"},"vehicle_type_id":"4","last_reported":1751012089,"current_range_meters":17600,"station_id":"ce4bhmp2rcd13ifvqgog","pricing_plan_id":"cebpf4jnsgd1na2vs0mg"},{"bike_id":"935c8062-ae25-46e0-901d-4b81929b99b7","system_id":"levelo_inurba_marseille","lat":43.217491,"lon":5.346049,"is_reserved":false,"is_disabled":false,"rental_uris":{"android":"levelo://app?vid=935c8062-ae25-46e0-901d-4b81929b99b7","ios":"levelo://app?vid=935c8062-ae25-46e0-901d-4b81929b99b7"},"vehicle_type_id":"4","last_reported":1751012089,"current_range_meters":17600,"station_id":"st_cvj6r9ubvosntc0bgbag","pricing_plan_id":"cebpf4jnsgd1na2vs0mg"},{"bike_id":"1a23948e-522f-4e95-8795-c2eaa1af670a","system_id":"levelo_inurba_marseille","lat":43.28111,"lon":5.39857,"is_reserved":false,"is_disabled":false,"rental_uris":{"android":"levelo://app?vid=1a23948e-522f-4e95-8795-c2eaa1af670a","ios":"levelo://app?vid=1a23948e-522f-4e95-8795-c2eaa1af670a"},"vehicle_type_id":"4","last_reported":1751012089,"current_range_meters":18000,"station_id":"","pricing_plan_id":"cebpf4jnsgd1na2vs0mg"},{"bike_id":"815201a7-dbbe-4827-ab77-bd49f80ea5ee","system_id":"levelo_inurba_marseille","lat":43.29747,"lon":5.45994,"is_reserved":false,"is_disabled":false,"rental_uris":{"android":"levelo://app?vid=815201a7-dbbe-4827-ab77-bd49f80ea5ee","ios":"levelo://app?vid=815201a7-dbbe-4827-ab77-bd49f80ea5ee"},"vehicle_type_id":"4","last_reported":1751012089,"current_range_meters":18000,"station_id":"","pricing_plan_id":"cebpf4jnsgd1na2vs0mg"},{"bike_id":"91aeba14-3aa9-4096-b109-f078ae211c7a","system_id":"levelo_inurba_marseille","lat":43.3019,"lon":5.38096,"is_reserved":false,"is_disabled":false,"rental_uris":{"android":"levelo://app?vid=91aeba14-3aa9-4096-b109-f078ae211c7a","ios":"levelo://app?vid=91aeba14-3aa9-4096-b109-f078ae211c7a"},"vehicle_type_id":"4","last_reported":1751012089,"current_range_meters":18000,"station_id":"ce4bgjp2rcd13ifvqbh0","pricing_plan_id":"cebpf4jnsgd1na2vs0mg"},{"bike_id":"b4278742-7cee-4bb0-92d3-c5cce8debcd1","system_id":"levelo_inurba_marseille","lat":43.30134,"lon":5.374,"is_reserved":false,"is_disabled":false,"rental_uris":{"android":"levelo://app?vid=b4278742-7cee-4bb0-92d3-c5cce8debcd1","ios":"levelo://app?vid=b4278742-7cee-4bb0-92d3-c5cce8debcd1"},"vehicle_type_id":"4","last_reported":1751012089,"current_range_meters":18000,"station_id":"ce4bgs92rcd13ifvqcc0","pricing_plan_id":"cebpf4jnsgd1na2vs0mg"},{"bike_id":"3bb4c88e-c776-4748-8e63-89c6dcb74903","system_id":"levelo_inurba_marseille","lat":43.30885,"lon":5.37192,"is_reserved":false,"is_disabled":false,"rental_uris":{"android":"levelo://app?vid=3bb4c88e-c776-4748-8e63-89c6dcb74903","ios":"levelo://app?vid=3bb4c88e-c776-4748-8e63-89c6dcb74903"},"vehicle_type_id":"4","last_reported":1751012089,"current_range_meters":18000,"station_id":"ce4bguh2rcd13ifvqckg","pricing_plan_id":"cebpf4jnsgd1na2vs0mg"},{"bike_id":"9c007d2b-99e0-4469-ba73-06c57adc38c5","system_id":"levelo_inurba_marseille","lat":43.2591,"lon":5.40883,"is_reserved":false,"is_disabled":false,"rental_uris":{"android":"levelo://app?vid=9c007d2b-99e0-4469-ba73-06c57adc38c5","ios":"levelo://app?vid=9c007d2b-99e0-4469-ba73-06c57adc38c5"},"vehicle_type_id":"4","last_reported":1751012089,"current_range_meters":18000,"station_id":"ce4bhm92rcd13ifvqglg","pricing_plan_id":"cebpf4jnsgd1na2vs0mg"},{"bike_id":"b836edde-5a17-4156-9bd5-9eb4ce561d0f","system_id":"levelo_inurba_marseille","lat":43.24171,"lon":5.39725,"is_reserved":false,"is_disabled":false,"rental_uris":{"android":"levelo://app?vid=b836edde-5a17-4156-9bd5-9eb4ce561d0f","ios":"levelo://app?vid=b836edde-5a17-4156-9bd5-9eb4ce561d0f"},"vehicle_type_id":"4","last_reported":1751012089,"current_range_meters":18000,"station_id":"ce4bhn12rcd13ifvqgpg","pricing_plan_id":"cebpf4jnsgd1na2vs0mg"},{"bike_id":"c2488c70-ec0d-4450-b5e6-75774967bb64","system_id":"levelo_inurba_marseille","lat":43.27484,"lon":5.42442,"is_reserved":false,"is_disabled":false,"rental_uris":{"android":"levelo://app?vid=c2488c70-ec0d-4450-b5e6-75774967bb64","ios":"levelo://app?vid=c2488c70-ec0d-4450-b5e6-75774967bb64"},"vehicle_type_id":"4","last_reported":1751012089,"current_range_meters":18000,"station_id":"ce4bhn92rcd13ifvqgrg","pricing_plan_id":"cebpf4jnsgd1na2vs0mg"},{"bike_id":"721165c1-ef6f-40cc-8d33-af3a7999864b","system_id":"levelo_inurba_marseille","lat":43.32724,"lon":5.37943,"is_reserved":false,"is_disabled":false,"rental_uris":{"android":"levelo://app?vid=721165c1-ef6f-40cc-8d33-af3a7999864b","ios":"levelo://app?vid=721165c1-ef6f-40cc-8d33-af3a7999864b"},"vehicle_type_id":"4","last_reported":1751012089,"current_range_meters":18800,"station_id":"","pricing_plan_id":"cebpf4jnsgd1na2vs0mg"},{"bike_id":"c7246150-cb4a-47ff-a23c-440632ac44c8","system_id":"levelo_inurba_marseille","lat":43.30298,"lon":5.3688,"is_reserved":false,"is_disabled":false,"rental_uris":{"android":"levelo://app?vid=c7246150-cb4a-47ff-a23c-440632ac44c8","ios":"levelo://app?vid=c7246150-cb4a-47ff-a23c-440632ac44c8"},"vehicle_type_id":"4","last_reported":1751012089,"current_range_meters":18800,"station_id":"ce4bgqh2rcd13ifvqc5g","pricing_plan_id":"cebpf4jnsgd1na2vs0mg"},{"bike_id":"4483ad56-4f80-4d2b-9785-8ee8fe84f2f8","system_id":"levelo_inurba_marseille","lat":43.30281,"lon":5.37699,"is_reserved":false,"is_disabled":false,"rental_uris":{"android":"levelo://app?vid=4483ad56-4f80-4d2b-9785-8ee8fe84f2f8","ios":"levelo://app?vid=4483ad56-4f80-4d2b-9785-8ee8fe84f2f8"},"vehicle_type_id":"4","last_reported":1751012089,"current_range_meters":18800,"station_id":"ce4bguh2rcd13ifvqcj0","pricing_plan_id":"cebpf4jnsgd1na2vs0mg"},{"bike_id":"a8156b53-afee-43f4-803c-de26c85a00a6","system_id":"levelo_inurba_marseille","lat":43.30449,"lon":5.37911,"is_reserved":false,"is_disabled":false,"rental_uris":{"android":"levelo://app?vid=a8156b53-afee-43f4-803c-de26c85a00a6","ios":"levelo://app?vid=a8156b53-afee-43f4-803c-de26c85a00a6"},"vehicle_type_id":"4","last_reported":1751012089,"current_range_meters":18800,"station_id":"ce4bgup2rcd13ifvqcn0","pricing_plan_id":"cebpf4jnsgd1na2vs0mg"},{"bike_id":"39751601-26c3-4bde-b6e1-a7fe91e5c0e4","system_id":"levelo_inurba_marseille","lat":43.2963,"lon":5.40596,"is_reserved":false,"is_disabled":false,"rental_uris":{"android":"levelo://app?vid=39751601-26c3-4bde-b6e1-a7fe91e5c0e4","ios":"levelo://app?vid=39751601-26c3-4bde-b6e1-a7fe91e5c0e4"},"vehicle_type_id":"4","last_reported":1751012089,"current_range_meters":18800,"station_id":"ce4bh0h2rcd13ifvqd60","pricing_plan_id":"cebpf4jnsgd1na2vs0mg"},{"bike_id":"cd94fcf9-0405-4ad9-b574-2e01b1f102e2","system_id":"levelo_inurba_marseille","lat":43.23151,"lon":5.43714,"is_reserved":false,"is_disabled":false,"rental_uris":{"android":"levelo://app?vid=cd94fcf9-0405-4ad9-b574-2e01b1f102e2","ios":"levelo://app?vid=cd94fcf9-0405-4ad9-b574-2e01b1f102e2"},"vehicle_type_id":"4","last_reported":1751012089,"current_range_meters":18800,"station_id":"ce4bhmp2rcd13ifvqgog","pricing_plan_id":"cebpf4jnsgd1na2vs0mg"},{"bike_id":"27af72db-7697-48ee-ba22-cd9642761631","system_id":"levelo_inurba_marseille","lat":43.336,"lon":5.41022,"is_reserved":false,"is_disabled":false,"rental_uris":{"android":"levelo://app?vid=27af72db-7697-48ee-ba22-cd9642761631","ios":"levelo://app?vid=27af72db-7697-48ee-ba22-cd9642761631"},"vehicle_type_id":"4","last_reported":1751012089,"current_range_meters":18800,"station_id":"ce4bhqh2rcd13ifvqhmg","pricing_plan_id":"cebpf4jnsgd1na2vs0mg"},{"bike_id":"15d128bd-cfe4-4fde-84e3-861a91e21785","system_id":"levelo_inurba_marseille","lat":43.33724,"lon":5.39195,"is_reserved":false,"is_disabled":false,"rental_uris":{"android":"levelo://app?vid=15d128bd-cfe4-4fde-84e3-861a91e21785","ios":"levelo://app?vid=15d128bd-cfe4-4fde-84e3-861a91e21785"},"vehicle_type_id":"4","last_reported":1751012089,"current_range_meters":18800,"station_id":"ce4bhr92rcd13ifvqhsg","pricing_plan_id":"cebpf4jnsgd1na2vs0mg"},{"bike_id":"87266b58-02c1-43ad-8d7c-67f8303b1381","system_id":"levelo_inurba_marseille","lat":43.32472,"lon":5.36575,"is_reserved":false,"is_disabled":false,"rental_uris":{"android":"levelo://app?vid=87266b58-02c1-43ad-8d7c-67f8303b1381","ios":"levelo://app?vid=87266b58-02c1-43ad-8d7c-67f8303b1381"},"vehicle_type_id":"4","last_reported":1751012089,"current_range_meters":18800,"station_id":"ce4bhs12rcd13ifvqhvg","pricing_plan_id":"cebpf4jnsgd1na2vs0mg"},{"bike_id":"68ba553f-21c6-4e54-95b0-38cf227ee3c9","system_id":"levelo_inurba_marseille","lat":43.26241,"lon":5.40183,"is_reserved":false,"is_disabled":false,"rental_uris":{"android":"levelo://app?vid=68ba553f-21c6-4e54-95b0-38cf227ee3c9","ios":"levelo://app?vid=68ba553f-21c6-4e54-95b0-38cf227ee3c9"},"vehicle_type_id":"4","last_reported":1751012089,"current_range_meters":19200,"station_id":"","pricing_plan_id":"cebpf4jnsgd1na2vs0mg"},{"bike_id":"17157184-39f4-484c-8da3-995639e4b125","system_id":"levelo_inurba_marseille","lat":43.29299,"lon":5.37465,"is_reserved":false,"is_disabled":false,"rental_uris":{"android":"levelo://app?vid=17157184-39f4-484c-8da3-995639e4b125","ios":"levelo://app?vid=17157184-39f4-484c-8da3-995639e4b125"},"vehicle_type_id":"4","last_reported":1751012089,"current_range_meters":19200,"station_id":"ce4bgi12rcd13ifvqb70","pricing_plan_id":"cebpf4jnsgd1na2vs0mg"},{"bike_id":"4a726154-0149-4700-aeee-f74a3a1a59b9","system_id":"levelo_inurba_marseille","lat":43.3112,"lon":5.37763,"is_reserved":false,"is_disabled":false,"rental_uris":{"android":"levelo://app?vid=4a726154-0149-4700-aeee-f74a3a1a59b9","ios":"levelo://app?vid=4a726154-0149-4700-aeee-f74a3a1a59b9"},"vehicle_type_id":"4","last_reported":1751012089,"current_range_meters":19200,"station_id":"ce4bgt92rcd13ifvqcg0","pricing_plan_id":"cebpf4jnsgd1na2vs0mg"},