{"last_updated":1748844974,"ttl":60,"version":"2.2","data":{"bikes":[{"bike_id":"8d48119e-760e-4c00-b401-59af0a322afa","system_id":"levelo_inurba_marseille","lat":43.25661,"lon":5.40837,"is_reserved":false,"is_disabled":false,"rental_uris":{"android":"levelo://app?vid=8d48119e-760e-4c00-b401-59af0a322afa","ios":"levelo://app?vid=8d48119e-760e-4c00-b401-59af0a322afa"},"vehicle_type_id":"4","last_reported":1748844974,"current_range_meters":2800,"station_id":"","pricing_plan_id":"cebpf4jnsgd1na2vs0mg"},{"bike_id":"1f057854-6d45-4129-80c8-a5cbebbc30b6","system_id":"levelo_inurba_marseille","lat":43.307983,"lon":5.381395,"is_reserved":false,"is_disabled":true,"rental_uris":{"android":"levelo://app?vid=1f057854-6d45-4129-80c8-a5cbebbc30b6","ios":"levelo://app?vid=1f057854-6d45-4129-80c8-a5cbebbc30b6"},"vehicle_type_id":"4","last_reported":1748844974,"current_range_meters":2800,"station_id":"ce4bgt12rcd13ifvqce0","pricing_plan_id":"cebpf4jnsgd1na2vs0mg"},{"bike_id":"f170dc2f-962e-4b0b-b8f6-27515f5f09df","system_id":"levelo_inurba_marseille","lat":43.30799,"lon":5.38167,"is_reserved":false,"is_disabled":false,"rental_uris":{"android":"levelo://app?vid=f170dc2f-962e-4b0b-b8f6-27515f5f09df","ios":"levelo://app?vid=f170dc2f-962e-4b0b-b8f6-27515f5f09df"},"vehicle_type_id":"4","last_reported":1748844974,"current_range_meters":2800,"station_id":"ce4bgt12rcd13ifvqce0","pricing_plan_id":"cebpf4jnsgd1na2vs0mg"},{"bike_id":"acc93bb8-afba-47d2-8370-ae52815e9a69","system_id":"levelo_inurba_marseille","lat":43.31335,"lon":5.36725,"is_reserved":false,"is_disabled":false,"rental_uris":{"android":"levelo://app?vid=acc93bb8-afba-47d2-8370-ae52815e9a69","ios":"levelo://app?vid=acc93bb8-afba-47d2-8370-ae52815e9a69"},"vehicle_type_id":"4","last_reported":1748844974,"current_range_meters":2800,"station_id":"ce4bgr92rcd13ifvqc6g","pricing_plan_id":"cebpf4jnsgd1na2vs0mg"},{"bike_id":"8b1ca4d9-8571-4c87-a767-65926e0857bd","system_id":"levelo_inurba_marseille","lat":43.28366,"lon":5.38642,"is_reserved":false,"is_disabled":false,"rental_uris":{"android":"levelo://app?vid=8b1ca4d9-8571-4c87-a767-65926e0857bd","ios":"levelo://app?vid=8b1ca4d9-8571-4c87-a767-65926e0857bd"},"vehicle_type_id":"4","last_reported":1748844974,"current_range_meters":2000,"station_id":"ce4bh492rcd13ifvqdvg","pricing_plan_id":"cebpf4jnsgd1na2vs0mg"},{"bike_id":"917d7909-8f58-456b-a176-d833ca454f3a","system_id":"levelo_inurba_marseille","lat":43.30469,"lon":5.37898,"is_reserved":false,"is_disabled":false,"rental_uris":{"android":"levelo://app?vid=917d7909-8f58-456b-a176-d833ca454f3a","ios":"levelo://app?vid=917d7909-8f58-456b-a176-d833ca454f3a"},"vehicle_type_id":"4","last_reported":1748844974,"current_range_meters":2800,"station_id":"ce4bgup2rcd13ifvqcn0","pricing_plan_id":"cebpf4jnsgd1na2vs0mg"},{"bike_id":"75ec25ca-c5cf-467b-9de0-42e416218859","system_id":"levelo_inurba_marseille","lat":43.28155,"lon":5.4264,"is_reserved":false,"is_disabled":false,"rental_uris":{"android":"levelo://app?vid=75ec25ca-c5cf-467b-9de0-42e416218859","ios":"levelo://app?vid=75ec25ca-c5cf-467b-9de0-42e416218859"},"vehicle_type_id":"4","last_reported":1748844974,"current_range_meters":2800,"station_id":"ce4bhnh2rcd13ifvqgug","pricing_plan_id":"cebpf4jnsgd1na2vs0mg"},{"bike_id":"c9c78cf4-0c6b-41e2-b946-04937c22ec3e","system_id":"levelo_inurba_marseille","lat":43.291882,"lon":5.422511,"is_reserved":false,"is_disabled":false,"rental_uris":{"android":"levelo://app?vid=c9c78cf4-0c6b-41e2-b946-04937c22ec3e","ios":"levelo://app?vid=c9c78cf4-0c6b-41e2-b946-04937c22ec3e"},"vehicle_type_id":"4","last_reported":1748844974,"current_range_meters":3200,"station_id":"","pricing_plan_id":"cebpf4jnsgd1na2vs0mg"},{"bike_id":"defaa617-282c-48e5-ab5a-cc310a81fea9","system_id":"levelo_inurba_marseille","lat":43.29981,"lon":5.38508,"is_reserved":false,"is_disabled":false,"rental_uris":{"android":"levelo://app?vid=defaa617-282c-48e5-ab5a-cc310a81fea9","ios":"levelo://app?vid=defaa617-282c-48e5-ab5a-cc310a81fea9"},"vehicle_type_id":"4","last_reported":1748844974,"current_range_meters":3200,"station_id":"ce4bgj92rcd13ifvqbd0","pricing_plan_id":"cebpf4jnsgd1na2vs0mg"},{"bike_id":"0d3bab2f-26cf-41f1-82dd-bb5db963b288","system_id":"levelo_inurba_marseille","lat":43.32542,"lon":5.36483,"is_reserved":false,"is_disabled":true,"rental_uris":{"android":"levelo://app?vid=0d3bab2f-26cf-41f1-82dd-bb5db963b288","ios":"levelo://app?vid=0d3bab2f-26cf-41f1-82dd-bb5db963b288"},"vehicle_type_id":"4","last_reported":1748844974,"current_range_meters":3200,"station_id":"","pricing_plan_id":"cebpf4jnsgd1na2vs0mg"},{"bike_id":"abc67239-ae45-4ff0-b7f5-860c4a2f4f21","system_id":"levelo_inurba_marseille","lat":43.26777,"lon":5.39421,"is_reserved":false,"is_disabled":false,"rental_uris":{"android":"levelo://app?vid=abc67239-ae45-4ff0-b7f5-860c4a2f4f21","ios":"levelo://app?vid=abc67239-ae45-4ff0-b7f5-860c4a2f4f21"},"vehicle_type_id":"4","last_reported":1748844974,"current_range_meters":3200,"station_id":"ce4bhh12rcd13ifvqfg0","pricing_plan_id":"cebpf4jnsgd1na2vs0mg"},{"bike_id":"6dbec55b-fee0-4a3a-9ed2-723f9ae1c783","system_id":"levelo_inurba_marseille","lat":43.29908,"lon":5.436461,"is_reserved":false,"is_disabled":true,"rental_uris":{"android":"levelo://app?vid=6dbec55b-fee0-4a3a-9ed2-723f9ae1c783","ios":"levelo://app?vid=6dbec55b-fee0-4a3a-9ed2-723f9ae1c783"},"vehicle_type_id":"4","last_reported":1748844974,"current_range_meters":3600,"station_id":"ce4bhpp2rcd13ifvqhfg","pricing_plan_id":"cebpf4jnsgd1na2vs0mg"},{"bike_id":"8704dbf8-b0fe-46dd-8c36-e60a74964ebe","system_id":"levelo_inurba_marseille","lat":43.31704,"lon":5.43663,"is_reserved":false,"is_disabled":true,"rental_uris":{"android":"levelo://app?vid=8704dbf8-b0fe-46dd-8c36-e60a74964ebe","ios":"levelo://app?vid=8704dbf8-b0fe-46dd-8c36-e60a74964ebe"},"vehicle_type_id":"4","last_reported":1748844974,"current_range_meters":3600,"station_id":"ce4bhp92rcd13ifvqhcg","pricing_plan_id":"cebpf4jnsgd1na2vs0mg"},{"bike_id":"306cfba8-4462-433f-b84e-ec005b202f89","system_id":"levelo_inurba_marseille","lat":43.3149,"lon":5.37301,"is_reserved":false,"is_disabled":false,"rental_uris":{"android":"levelo://app?vid=306cfba8-4462-433f-b84e-ec005b202f89","ios":"levelo://app?vid=306cfba8-4462-433f-b84e-ec005b202f89"},"vehicle_type_id":"4","last_reported":1748844974,"current_range_meters":4000,"station_id":"","pricing_plan_id":"cebpf4jnsgd1na2vs0mg"},{"bike_id":"682ee4ff-a240-4802-8b21-49a1bc350ab3","system_id":"levelo_inurba_marseille","lat":43.28108,"lon":5.39878,"is_reserved":false,"is_disabled":false,"rental_uris":{"android":"levelo://app?vid=682ee4ff-a240-4802-8b21-49a1bc350ab3","ios":"levelo://app?vid=682ee4ff-a240-4802-8b21-49a1bc350ab3"},"vehicle_type_id":"4","last_reported":1748844974,"current_range_meters":4000,"station_id":"","pricing_plan_id":"cebpf4jnsgd1na2vs0mg"},{"bike_id":"cacf99e8-ff44-430c-8d48-695831b872bb","system_id":"levelo_inurba_marseille","lat":43.301348,"lon":5.381127,"is_reserved":false,"is_disabled":false,"rental_uris":{"android":"levelo://app?vid=cacf99e8-ff44-430c-8d48-695831b872bb","ios":"levelo://app?vid=cacf99e8-ff44-430c-8d48-695831b872bb"},"vehicle_type_id":"4","last_reported":1748844974,"current_range_meters":4000,"station_id":"ce4bgjp2rcd13ifvqbh0","pricing_plan_id":"cebpf4jnsgd1na2vs0mg"},{"bike_id":"bb6b0124-44e5-47cb-a77c-f202da1cae2d","system_id":"levelo_inurba_marseille","lat":43.32109,"lon":5.36768,"is_reserved":false,"is_disabled":false,"rental_uris":{"android":"levelo://app?vid=bb6b0124-44e5-47cb-a77c-f202da1cae2d","ios":"levelo://app?vid=bb6b0124-44e5-47cb-a77c-f202da1cae2d"},"vehicle_type_id":"4","last_reported":1748844974,"current_range_meters":4000,"station_id":"ce4bhrh2rcd13ifvqhug","pricing_plan_id":"cebpf4jnsgd1na2vs0mg"},{"bike_id":"14c84fb5-0147-480a-aa89-3f9cddbf58ca","system_id":"levelo_inurba_marseille","lat":43.30268,"lon":5.37707,"is_reserved":false,"is_disabled":false,"rental_uris":{"android":"levelo://app?vid=14c84fb5-0147-480a-aa89-3f9cddbf58ca","ios":"levelo://app?vid=14c84fb5-0147-480a-aa89-3f9cddbf58ca"},"vehicle_type_id":"4","last_reported":1748844974,"current_range_meters":4400,"station_id":"ce4bguh2rcd13ifvqcj0","pricing_plan_id":"cebpf4jnsgd1na2vs0mg"},{"bike_id":"59ae54bb-ea00-4726-8c0c-f78e033628de","system_id":"levelo_inurba_marseille","lat":43.320069,"lon":5.394663,"is_reserved":false,"is_disabled":false,"rental_uris":{"android":"levelo://app?vid=59ae54bb-ea00-4726-8c0c-f78e033628de","ios":"levelo://app?vid=59ae54bb-ea00-4726-8c0c-f78e033628de"},"vehicle_type_id":"4","last_reported":1748844974,"current_range_meters":4400,"station_id":"","pricing_plan_id":"cebpf4jnsgd1na2vs0mg"},{"bike_id":"8ae16160-9348-492b-9270-6bee880ca5e3","system_id":"levelo_inurba_marseille","lat":43.35988,"lon":5.32303,"is_reserved":false,"is_disabled":false,"rental_uris":{"android":"levelo://app?vid=8ae16160-9348-492b-9270-6bee880ca5e3","ios":"levelo://app?vid=8ae16160-9348-492b-9270-6bee880ca5e3"},"vehicle_type_id":"4","last_reported":1748844974,"current_range_meters":4400,"station_id":"","pricing_plan_id":"cebpf4jnsgd1na2vs0mg"},{"bike_id":"d125d441-435a-4185-b65b-372bcc1ec64d","system_id":"levelo_inurba_marseille","lat":43.28593,"lon":5.40413,"is_reserved":false,"is_disabled":false,"rental_uris":{"android":"levelo://app?vid=d125d441-435a-4185-b65b-372bcc1ec64d","ios":"levelo://app?vid=d125d441-435a-4185-b65b-372bcc1ec64d"},"vehicle_type_id":"4","last_reported":1748844974,"current_range_meters":4400,"station_id":"ce4bhnh2rcd13ifvqgtg","pricing_plan_id":"cebpf4jnsgd1na2vs0mg"},{"bike_id":"fc3b0086-a94f-43f7-92e6-6c648f93430f","system_id":"levelo_inurba_marseille","lat":43.324771,"lon":5.365732,"is_reserved":false,"is_disabled":false,"rental_uris":{"android":"levelo://app?vid=fc3b0086-a94f-43f7-92e6-6c648f93430f","ios":"levelo://app?vid=fc3b0086-a94f-43f7-92e6-6c648f93430f"},"vehicle_type_id":"4","last_reported":1748844974,"current_range_meters":4800,"station_id":"ce4bhs12rcd13ifvqhvg","pricing_plan_id":"cebpf4jnsgd1na2vs0mg"},{"bike_id":"44e97acb-5d32-4e60-829d-8a59ab42229b","system_id":"levelo_inurba_marseille","lat":43.273571,"lon":5.362525,"is_reserved":false,"is_disabled":false,"rental_uris":{"android":"levelo://app?vid=44e97acb-5d32-4e60-829d-8a59ab42229b","ios":"levelo://app?vid=44e97acb-5d32-4e60-829d-8a59ab42229b"},"vehicle_type_id":"4","last_reported":1748844974,"current_range_meters":4800,"station_id":"","pricing_plan_id":"cebpf4jnsgd1na2vs0mg"},{"bike_id":"334bb51d-4ba2-4787-a903-a9c1fc10d05e","system_id":"levelo_inurba_marseille","lat":43.29733,"lon":5.37685,"is_reserved":false,"is_disabled":true,"rental_uris":{"android":"levelo://app?vid=334bb51d-4ba2-4787-a903-a9c1fc10d05e","ios":"levelo://app?vid=334bb51d-4ba2-4787-a903-a9c1fc10d05e"},"vehicle_type_id":"4","last_reported":1748844974,"current_range_meters":4800,"station_id":"ce4bgkh2rcd13ifvqbl0","pricing_plan_id":"cebpf4jnsgd1na2vs0mg"},{"bike_id":"807e8e6a-8c6a-4ecf-a9e7-61fe1f376199","system_id":"levelo_inurba_marseille","lat":43.31991,"lon":5.38153,"is_reserved":false,"is_disabled":false,"rental_uris":{"android":"levelo://app?vid=807e8e6a-8c6a-4ecf-a9e7-61fe1f376199","ios":"levelo://app?vid=807e8e6a-8c6a-4ecf-a9e7-61fe1f376199"},"vehicle_type_id":"4","last_reported":1748844974,"current_range_meters":4800,"station_id":"ce4bhr12rcd13ifvqhpg","pricing_plan_id":"cebpf4jnsgd1na2vs0mg"},{"bike_id":"29c628ad-475a-4d0f-a822-5592df28bf52","system_id":"levelo_inurba_marseille","lat":43.26225,"lon":5.40444,"is_reserved":false,"is_disabled":false,"rental_uris":{"android":"levelo://app?vid=29c628ad-475a-4d0f-a822-5592df28bf52","ios":"levelo://app?vid=29c628ad-475a-4d0f-a822-5592df28bf52"},"vehicle_type_id":"4","last_reported":1748844974,"current_range_meters":1600,"station_id":"ce4bhmh2rcd13ifvqgmg","pricing_plan_id":"cebpf4jnsgd1na2vs0mg"},{"bike_id":"f539569e-49c4-41d3-ae5c-eb5bbd24e596","system_id":"levelo_inurba_marseille","lat":43.30142,"lon":5.38774,"is_reserved":false,"is_disabled":false,"rental_uris":{"android":"levelo://app?vid=f539569e-49c4-41d3-ae5c-eb5bbd24e596","ios":"levelo://app?vid=f539569e-49c4-41d3-ae5c-eb5bbd24e596"},"vehicle_type_id":"4","last_reported":1748844974,"current_range_meters":5600,"station_id":"ce4bghh2rcd13ifvqb60","pricing_plan_id":"cebpf4jnsgd1na2vs0mg"},{"bike_id":"fb1c6848-5fe8-4285-8105-c2d9ccba25c3","system_id":"levelo_inurba_marseille","lat":43.29576,"lon":5.37518,"is_reserved":false,"is_disabled":false,"rental_uris":{"android":"levelo://app?vid=fb1c6848-5fe8-4285-8105-c2d9ccba25c3","ios":"levelo://app?vid=fb1c6848-5fe8-4285-8105-c2d9ccba25c3"},"vehicle_type_id":"4","last_reported":1748844974,"current_range_meters":5600,"station_id":"ce4bgh92rcd13ifvqb50","pricing_plan_id":"cebpf4jnsgd1na2vs0mg"},{"bike_id":"3c952f48-0392-47ee-8d16-2e0b591f9310","system_id":"levelo_inurba_marseille","lat":43.31999,"lon":5.38166,"is_reserved":false,"is_disabled":false,"rental_uris":{"android":"levelo://app?vid=3c952f48-0392-47ee-8d16-2e0b591f9310","ios":"levelo://app?vid=3c952f48-0392-47ee-8d16-2e0b591f9310"},"vehicle_type_id":"4","last_reported":1748844974,"current_range_meters":6400,"station_id":"ce4bhr12rcd13ifvqhpg","pricing_plan_id":"cebpf4jnsgd1na2vs0mg"},{"bike_id":"d7ba427a-1c1c-411c-8450-22a5988a0975","system_id":"levelo_inurba_marseille","lat":43.316839,"lon":5.404655,"is_reserved":false,"is_disabled":false,"rental_uris":{"android":"levelo://app?vid=d7ba427a-1c1c-411c-8450-22a5988a0975","ios":"levelo://app?vid=d7ba427a-1c1c-411c-8450-22a5988a0975"},"vehicle_type_id":"4","last_reported":1748844974,"current_range_meters":6400,"station_id":"ce4bh012rcd13ifvqd00","pricing_plan_id":"cebpf4jnsgd1na2vs0mg"},{"bike_id":"0e766e84-b556-4bd2-9bb4-d19f52af6645","system_id":"levelo_inurba_marseille","lat":43.32531,"lon":5.42418,"is_reserved":false,"is_disabled":false,"rental_uris":{"android":"levelo://app?vid=0e766e84-b556-4bd2-9bb4-d19f52af6645","ios":"levelo://app?vid=0e766e84-b556-4bd2-9bb4-d19f52af6645"},"vehicle_type_id":"4","last_reported":1748844974,"current_range_meters":6800,"station_id":"","pricing_plan_id":"cebpf4jnsgd1na2vs0mg"},{"bike_id":"7273030d-9adc-45f9-b57f-8a33ab49dd5a","system_id":"levelo_inurba_marseille","lat":43.211928,"lon":5.350697,"is_reserved":false,"is_disabled":true,"rental_uris":{"android":"levelo://app?vid=7273030d-9adc-45f9-b57f-8a33ab49dd5a","ios":"levelo://app?vid=7273030d-9adc-45f9-b57f-8a33ab49dd5a"},"vehicle_type_id":"4","last_reported":1748844974,"current_range_meters":6800,"station_id":"st_cvj6sg6p6f1abm77japg","pricing_plan_id":"cebpf4jnsgd1na2vs0mg"},{"bike_id":"3a02f716-967a-466f-a833-0c66f52e9d78","system_id":"levelo_inurba_marseille","lat":43.305597,"lon":5.367347,"is_reserved":false,"is_disabled":false,"rental_uris":{"android":"levelo://app?vid=3a02f716-967a-466f-a833-0c66f52e9d78","ios":"levelo://app?vid=3a02f716-967a-466f-a833-0c66f52e9d78"},"vehicle_type_id":"4","last_reported":1748844974,"current_range_meters":6800,"station_id":"ce4bgrp2rcd13ifvqc9g","pricing_plan_id":"cebpf4jnsgd1na2vs0mg"},{"bike_id":"b7453952-6102-452b-aa0a-56c91927b535","system_id":"levelo_inurba_marseille","lat":43.26955,"lon":5.38623,"is_reserved":false,"is_disabled":false,"rental_uris":{"android":"levelo://app?vid=b7453952-6102-452b-aa0a-56c91927b535","ios":"levelo://app?vid=b7453952-6102-452b-aa0a-56c91927b535"},"vehicle_type_id":"4","last_reported":1748844974,"current_range_meters":6400,"station_id":"ce4bhh92rcd13ifvqfh0","pricing_plan_id":"cebpf4jnsgd1na2vs0mg"},{"bike_id":"02f43aa2-85ce-4d85-890c-b35128e04578","system_id":"levelo_inurba_marseille","lat":43.29046,"lon":5.39966,"is_reserved":false,"is_disabled":false,"rental_uris":{"android":"levelo://app?vid=02f43aa2-85ce-4d85-890c-b35128e04578","ios":"levelo://app?vid=02f43aa2-85ce-4d85-890c-b35128e04578"},"vehicle_type_id":"4","last_reported":1748844974,"current_range_meters":6800,"station_id":"ce4bh392rcd13ifvqdm0","pricing_plan_id":"cebpf4jnsgd1na2vs0mg"},{"bike_id":"f2d24b18-d214-4b88-99a9-26c99e5fd23c","system_id":"levelo_inurba_marseille","lat":43.246229,"lon":5.39326,"is_reserved":false,"is_disabled":false,"rental_uris":{"android":"levelo://app?vid=f2d24b18-d214-4b88-99a9-26c99e5fd23c","ios":"levelo://app?vid=f2d24b18-d214-4b88-99a9-26c99e5fd23c"},"vehicle_type_id":"4","last_reported":1748844974,"current_range_meters":6800,"station_id":"","pricing_plan_id":"cebpf4jnsgd1na2vs0mg"},{"bike_id":"d813a2ca-2f9c-4471-b00f-34c7dde8026c","system_id":"levelo_inurba_marseille","lat":43.27601,"lon":5.39688,"is_reserved":false,"is_disabled":true,"rental_uris":{"android":"levelo://app?vid=d813a2ca-2f9c-4471-b00f-34c7dde8026c","ios":"levelo://app?vid=d813a2ca-2f9c-4471-b00f-34c7dde8026c"},"vehicle_type_id":"4","last_reported":1748844974,"current_range_meters":6800,"station_id":"","pricing_plan_id":"cebpf4jnsgd1na2vs0mg"},{"bike_id":"25fb632f-5679-4e1c-96de-780cae2672db","system_id":"levelo_inurba_marseille","lat":43.30634,"lon":5.40055,"is_reserved":false,"is_disabled":true,"rental_uris":{"android":"levelo://app?vid=25fb632f-5679-4e1c-96de-780cae2672db","ios":"levelo://app?vid=25fb632f-5679-4e1c-96de-780cae2672db"},"vehicle_type_id":"4","last_reported":1748844974,"current_range_meters":7200,"station_id":"ce4bh112rcd13ifvqda0","pricing_plan_id":"cebpf4jnsgd1na2vs0mg"},{"bike_id":"b2ff4bdb-99fa-4fb3-92b3-628b3e6fd3a9","system_id":"levelo_inurba_marseille","lat":43.30158,"lon":5.38093,"is_reserved":false,"is_disabled":false,"rental_uris":{"android":"levelo://app?vid=b2ff4bdb-99fa-4fb3-92b3-628b3e6fd3a9","ios":"levelo://app?vid=b2ff4bdb-99fa-4fb3-92b3-628b3e6fd3a9"},"vehicle_type_id":"4","last_reported":1748844974,"current_range_meters":7200,"station_id":"ce4bgjp2rcd13ifvqbh0","pricing_plan_id":"cebpf4jnsgd1na2vs0mg"},{"bike_id":"5832304d-f515-4482-aa18-9dc4017684ff","system_id":"levelo_inurba_marseille","lat":43.26568,"lon":5.39006,"is_reserved":false,"is_disabled":false,"rental_uris":{"android":"levelo://app?vid=5832304d-f515-4482-aa18-9dc4017684ff","ios":"levelo://app?vid=5832304d-f515-4482-aa18-9dc4017684ff"},"vehicle_type_id":"4","last_reported":1748844974,"current_range_meters":7200,"station_id":"ce4bhe12rcd13ifvqf30","pricing_plan_id":"cebpf4jnsgd1na2vs0mg"},{"bike_id":"5ef067e7-b281-4ef9-ad2a-1c6b02a54c04","system_id":"levelo_inurba_marseille","lat":43.31951,"lon":5.44069,"is_reserved":false,"is_disabled":false,"rental_uris":{"android":"levelo://app?vid=5ef067e7-b281-4ef9-ad2a-1c6b02a54c04","ios":"levelo://app?vid=5ef067e7-b281-4ef9-ad2a-1c6b02a54c04"},"vehicle_type_id":"4","last_reported":1748844974,"current_range_meters":7200,"station_id":"","pricing_plan_id":"cebpf4jnsgd1na2vs0mg"},{"bike_id":"94f43558-c2b4-41a2-907e-cbc340232580","system_id":"levelo_inurba_marseille","lat":43.22512,"lon":5.34776,"is_reserved":false,"is_disabled":true,"rental_uris":{"android":"levelo://app?vid=94f43558-c2b4-41a2-907e-cbc340232580","ios":"levelo://app?vid=94f43558-c2b4-41a2-907e-cbc340232580"},"vehicle_type_id":"4","last_reported":1748844974,"current_range_meters":8000,"station_id":"st_cvj5dfep6f1abm77gieg","pricing_plan_id":"cebpf4jnsgd1na2vs0mg"},{"bike_id":"d58ea574-a5df-489d-8bcf-9931f6fe8b53","system_id":"levelo_inurba_marseille","lat":43.24074,"lon":5.37756,"is_reserved":false,"is_disabled":false,"rental_uris":{"android":"levelo://app?vid=d58ea574-a5df-489d-8bcf-9931f6fe8b53","ios":"levelo://app?vid=d58ea574-a5df-489d-8bcf-9931f6fe8b53"},"vehicle_type_id":"4","last_reported":1748844974,"current_range_meters":8000,"station_id":"ce4bhnp2rcd13ifvqgvg","pricing_plan_id":"cebpf4jnsgd1na2vs0mg"},{"bike_id":"c8b7b653-1ab3-4448-91e8-4a16c8263a1a","system_id":"levelo_inurba_marseille","lat":43.301352,"lon":5.38089,"is_reserved":false,"is_disabled":false,"rental_uris":{"android":"levelo://app?vid=c8b7b653-1ab3-4448-91e8-4a16c8263a1a","ios":"levelo://app?vid=c8b7b653-1ab3-4448-91e8-4a16c8263a1a"},"vehicle_type_id":"4","last_reported":1748844974,"current_range_meters":8000,"station_id":"ce4bgjp2rcd13ifvqbh0","pricing_plan_id":"cebpf4jnsgd1na2vs0mg"},{"bike_id":"28efabed-853b-4429-aae7-48463f59a794","system_id":"levelo_inurba_marseille","lat":43.24916,"lon":5.39744,"is_reserved":false,"is_disabled":false,"rental_uris":{"android":"levelo://app?vid=28efabed-853b-4429-aae7-48463f59a794","ios":"levelo://app?vid=28efabed-853b-4429-aae7-48463f59a794"},"vehicle_type_id":"4","last_reported":1748844974,"current_range_meters":8000,"station_id":"","pricing_plan_id":"cebpf4jnsgd1na2vs0mg"},{"bike_id":"999388a7-0db4-4bd2-b012-5be22a589fe7","system_id":"levelo_inurba_marseille","lat":43.27585,"lon":5.37782,"is_reserved":false,"is_disabled":false,"rental_uris":{"android":"levelo://app?vid=999388a7-0db4-4bd2-b012-5be22a589fe7","ios":"levelo://app?vid=999388a7-0db4-4bd2-b012-5be22a589fe7"},"vehicle_type_id":"4","last_reported":1748844974,"current_range_meters":8000,"station_id":"","pricing_plan_id":"cebpf4jnsgd1na2vs0mg"},{"bike_id":"cca271ec-b62a-407d-9e94-7b79046df8d0","system_id":"levelo_inurba_marseille","lat":43.31477,"lon":5.37293,"is_reserved":false,"is_disabled":false,"rental_uris":{"android":"levelo://app?vid=cca271ec-b62a-407d-9e94-7b79046df8d0","ios":"levelo://app?vid=cca271ec-b62a-407d-9e94-7b79046df8d0"},"vehicle_type_id":"4","last_reported":1748844974,"current_range_meters":8000,"station_id":"ce4bgt12rcd13ifvqcd0","pricing_plan_id":"cebpf4jnsgd1na2vs0mg"},{"bike_id":"3daa8af5-dc19-4d84-a6ce-4cbd81d98afc","system_id":"levelo_inurba_marseille","lat":43.30588,"lon":5.38926,"is_reserved":false,"is_disabled":false,"rental_uris":{"android":"levelo://app?vid=3daa8af5-dc19-4d84-a6ce-4cbd81d98afc","ios":"levelo://app?vid=3daa8af5-dc19-4d84-a6ce-4cbd81d98afc"},"vehicle_type_id":"4","last_reported":1748844974,"current_range_meters":8000,"station_id":"","pricing_plan_id":"cebpf4jnsgd1na2vs0mg"},{"bike_id":"49f71857-a3b7-4069-892f-8e2b0d960a42","system_id":"levelo_inurba_marseille","lat":43.3229,"lon":5.38271,"is_reserved":false,"is_disabled":false,"rental_uris":{"android":"levelo://app?vid=49f71857-a3b7-4069-892f-8e2b0d960a42","ios":"levelo://app?vid=49f71857-a3b7-4069-892f-8e2b0d960a42"},"vehicle_type_id":"4","last_reported":1748844974,"current_range_meters":8000,"station_id":"ce4bhr12rcd13ifvqhqg","pricing_plan_id":"cebpf4jnsgd1na2vs0mg"},{"bike_id":"d906485a-0ddf-423b-954e-aa2352ab0a45","system_id":"levelo_inurba_marseille","lat":43.266973,"lon":5.382723,"is_reserved":false,"is_disabled":true,"rental_uris":{"android":"levelo://app?vid=d906485a-0ddf-423b-954e-aa2352ab0a45","ios":"levelo://app?vid=d906485a-0ddf-423b-954e-aa2352ab0a45"},"vehicle_type_id":"4","last_reported":1748844974,"current_range_meters":8000,"station_id":"ce4bhg92rcd13ifvqf90","pricing_plan_id":"cebpf4jnsgd1na2vs0mg"},{"bike_id":"e61c98c1-2097-47f5-ba8f-fad807b0f3be","system_id":"levelo_inurba_marseille","lat":43.32906,"lon":5.404975,"is_reserved":false,"is_disabled":false,"rental_uris":{"android":"levelo://app?vid=e61c98c1-2097-47f5-ba8f-fad807b0f3be","ios":"levelo://app?vid=e61c98c1-2097-47f5-ba8f-fad807b0f3be"},"vehicle_type_id":"4","last_reported":1748844974,"current_range_meters":8000,"station_id":"","pricing_plan_id":"cebpf4jnsgd1na2vs0mg"},{"bike_id":"5defac1a-866d-48fe-ba46-ea8b88b73fbe","system_id":"levelo_inurba_marseille","lat":43.24073,"lon":5.37758,"is_reserved":false,"is_disabled":false,"rental_uris":{"android":"levelo://app?vid=5defac1a-866d-48fe-ba46-ea8b88b73fbe","ios":"levelo://app?vid=5defac1a-866d-48fe-ba46-ea8b88b73fbe"},"vehicle_type_id":"4","last_reported":1748844974,"current_range_meters":8000,"station_id":"ce4bhnp2rcd13ifvqgvg","pricing_plan_id":"cebpf4jnsgd1na2vs0mg"},{"bike_id":"e210be7e-07b8-44d3-ae09-6702f28e2ae8","system_id":"levelo_inurba_marseille","lat":43.25117,"lon":5.39353,"is_reserved":false,"is_disabled":false,"rental_uris":{"android":"levelo://app?vid=e210be7e-07b8-44d3-ae09-6702f28e2ae8","ios":"levelo://app?vid=e210be7e-07b8-44d3-ae09-6702f28e2ae8"},"vehicle_type_id":"4","last_reported":1748844974,"current_range_meters":8000,"station_id":"","pricing_plan_id":"cebpf4jnsgd1na2vs0mg"},{"bike_id":"2ef7dc4c-755b-415c-b26c-13adbc773ab4","system_id":"levelo_inurba_marseille","lat":43.29279,"lon":5.40114,"is_reserved":false,"is_disabled":false,"rental_uris":{"android":"levelo://app?vid=2ef7dc4c-755b-415c-b26c-13adbc773ab4","ios":"levelo://app?vid=2ef7dc4c-755b-415c-b26c-13adbc773ab4"},"vehicle_type_id":"4","last_reported":1748844974,"current_range_meters":8000,"station_id":"ce4bh312rcd13ifvqdk0","pricing_plan_id":"cebpf4jnsgd1na2vs0mg"},{"bike_id":"de1a5d2c-8f20-4ee2-b4b8-3f3d32c81f16","system_id":"levelo_inurba_marseille","lat":43.30379,"lon":5.42482,"is_reserved":false,"is_disabled":false,"rental_uris":{"android":"levelo://app?vid=de1a5d2c-8f20-4ee2-b4b8-3f3d32c81f16","ios":"levelo://app?vid=de1a5d2c-8f20-4ee2-b4b8-3f3d32c81f16"},"vehicle_type_id":"4","last_reported":1748844974,"current_range_meters":8400,"station_id":"ce4bhoh2rcd13ifvqh6g","pricing_plan_id":"cebpf4jnsgd1na2vs0mg"},{"bike_id":"f4256101-7da9-4f81-9625-8f307792445d","system_id":"levelo_inurba_marseille","lat":43.324781,"lon":5.365617,"is_reserved":false,"is_disabled":false,"rental_uris":{"android":"levelo://app?vid=f4256101-7da9-4f81-9625-8f307792445d","ios":"levelo://app?vid=f4256101-7da9-4f81-9625-8f307792445d"},"vehicle_type_id":"4","last_reported":1748844974,"current_range_meters":8400,"station_id":"ce4bhs12rcd13ifvqhvg","pricing_plan_id":"cebpf4jnsgd1na2vs0mg"},{"bike_id":"195168cf-2c99-4aa4-a4e5-aa2a866f4f68","system_id":"levelo_inurba_marseille","lat":43.32045,"lon":5.41545,"is_reserved":false,"is_disabled":true,"rental_uris":{"android":"levelo://app?vid=195168cf-2c99-4aa4-a4e5-aa2a866f4f68","ios":"levelo://app?vid=195168cf-2c99-4aa4-a4e5-aa2a866f4f68"},"vehicle_type_id":"4","last_reported":1748844974,"current_range_meters":8400,"station_id":"ce4bhq92rcd13ifvqhkg","pricing_plan_id":"cebpf4jnsgd1na2vs0mg"},{"bike_id":"21ff3fb6-d282-4e8f-8c65-749c73573e4b","system_id":"levelo_inurba_marseille","lat":43.33719,"lon":5.39179,"is_reserved":false,"is_disabled":false,"rental_uris":{"android":"levelo://app?vid=21ff3fb6-d282-4e8f-8c65-749c73573e4b","ios":"levelo://app?vid=21ff3fb6-d282-4e8f-8c65-749c73573e4b"},"vehicle_type_id":"4","last_reported":1748844974,"current_range_meters":8400,"station_id":"ce4bhr92rcd13ifvqhsg","pricing_plan_id":"cebpf4jnsgd1na2vs0mg"},{"bike_id":"5df05316-524d-4046-90a8-d4f2dfb87ecf","system_id":"levelo_inurba_marseille","lat":43.24354,"lon":5.38017,"is_reserved":false,"is_disabled":false,"rental_uris":{"android":"levelo://app?vid=5df05316-524d-4046-90a8-d4f2dfb87ecf","ios":"levelo://app?vid=5df05316-524d-4046-90a8-d4f2dfb87ecf"},"vehicle_type_id":"4","last_reported":1748844974,"current_range_meters":8400,"station_id":"","pricing_plan_id":"cebpf4jnsgd1na2vs0mg"},{"bike_id":"46d6b306-9a64-4830-8174-e183c42a0aa4","system_id":"levelo_inurba_marseille","lat":43.30463,"lon":5.37901,"is_reserved":false,"is_disabled":false,"rental_uris":{"android":"levelo://app?vid=46d6b306-9a64-4830-8174-e183c42a0aa4","ios":"levelo://app?vid=46d6b306-9a64-4830-8174-e183c42a0aa4"},"vehicle_type_id":"4","last_reported":1748844974,"current_range_meters":8400,"station_id":"ce4bgup2rcd13ifvqcn0","pricing_plan_id":"cebpf4jnsgd1na2vs0mg"},{"bike_id":"d95a8927-9413-4ee6-b8dd-9b96d5af8d5e","system_id":"levelo_inurba_marseille","lat":43.283443,"lon":5.350203,"is_reserved":false,"is_disabled":false,"rental_uris":{"android":"levelo://app?vid=d95a8927-9413-4ee6-b8dd-9b96d5af8d5e","ios":"levelo://app?vid=d95a8927-9413-4ee6-b8dd-9b96d5af8d5e"},"vehicle_type_id":"4","last_reported":1748844974,"current_range_meters":8400,"station_id":"","pricing_plan_id":"cebpf4jnsgd1na2vs0mg"},{"bike_id":"1817ee92-4441-455e-bf4c-a446be956a20","system_id":"levelo_inurba_marseille","lat":43.323563,"lon":5.388887,"is_reserved":false,"is_disabled":false,"rental_uris":{"android":"levelo://app?vid=1817ee92-4441-455e-bf4c-a446be956a20","ios":"levelo://app?vid=1817ee92-4441-455e-bf4c-a446be956a20"},"vehicle_type_id":"4","last_reported":1748844974,"current_range_meters":8400,"station_id":"ce4bhqp2rcd13ifvqhog","pricing_plan_id":"cebpf4jnsgd1na2vs0mg"},{"bike_id":"05f87722-f7a9-4e93-b1f0-5dcb067ae76b","system_id":"levelo_inurba_marseille","lat":43.30892,"lon":5.372,"is_reserved":false,"is_disabled":false,"rental_uris":{"android":"levelo://app?vid=05f87722-f7a9-4e93-b1f0-5dcb067ae76b","ios":"levelo://app?vid=05f87722-f7a9-4e93-b1f0-5dcb067ae76b"},"vehicle_type_id":"4","last_reported":1748844974,"current_range_meters":8400,"station_id":"ce4bguh2rcd13ifvqckg","pricing_plan_id":"cebpf4jnsgd1na2vs0mg"},{"bike_id":"9a189ee8-27ed-444b-b171-f705371af28f","system_id":"levelo_inurba_marseille","lat":43.28264,"lon":5.34907,"is_reserved":false,"is_disabled":false,"rental_uris":{"android":"levelo://app?vid=9a189ee8-27ed-444b-b171-f705371af28f","ios":"levelo://app?vid=9a189ee8-27ed-444b-b171-f705371af28f"},"vehicle_type_id":"4","last_reported":1748844974,"current_range_meters":8800,"station_id":"","pricing_plan_id":"cebpf4jnsgd1na2vs0mg"},{"bike_id":"fd3ed923-3d6c-4b0b-a5b1-195c6bb16e9d","system_id":"levelo_inurba_marseille","lat":43.30149,"lon":5.38083,"is_reserved":false,"is_disabled":false,"rental_uris":{"android":"levelo://app?vid=fd3ed923-3d6c-4b0b-a5b1-195c6bb16e9d","ios":"levelo://app?vid=fd3ed923-3d6c-4b0b-a5b1-195c6bb16e9d"},"vehicle_type_id":"4","last_reported":1748844974,"current_range_meters":8800,"station_id":"ce4bgjp2rcd13ifvqbh0","pricing_plan_id":"cebpf4jnsgd1na2vs0mg"},{"bike_id":"6e36a259-47b7-4d86-a93b-c4ad96447f64","system_id":"levelo_inurba_marseille","lat":43.292,"lon":5.39325,"is_reserved":false,"is_disabled":false,"rental_uris":{"android":"levelo://app?vid=6e36a259-47b7-4d86-a93b-c4ad96447f64","ios":"levelo://app?vid=6e36a259-47b7-4d86-a93b-c4ad96447f64"},"vehicle_type_id":"4","last_reported":1748844974,"current_range_meters":8800,"station_id":"ce4bh192rcd13ifvqdd0","pricing_plan_id":"cebpf4jnsgd1na2vs0mg"},{"bike_id":"84e94b65-0704-41b9-b45c-33b81545a7c4","system_id":"levelo_inurba_marseille","lat":43.30308,"lon":5.369095,"is_reserved":false,"is_disabled":false,"rental_uris":{"android":"levelo://app?vid=84e94b65-0704-41b9-b45c-33b81545a7c4","ios":"levelo://app?vid=84e94b65-0704-41b9-b45c-33b81545a7c4"},"vehicle_type_id":"4","last_reported":1748844974,"current_range_meters":8800,"station_id":"ce4bgqh2rcd13ifvqc5g","pricing_plan_id":"cebpf4jnsgd1na2vs0mg"},{"bike_id":"c205edc8-d0d2-4cb7-a8e7-8248baf001bc","system_id":"levelo_inurba_marseille","lat":43.254074,"lon":5.424025,"is_reserved":false,"is_disabled":false,"rental_uris":{"android":"levelo://app?vid=c205edc8-d0d2-4cb7-a8e7-8248baf001bc","ios":"levelo://app?vid=c205edc8-d0d2-4cb7-a8e7-8248baf001bc"},"vehicle_type_id":"4","last_reported":1748844974,"current_range_meters":8800,"station_id":"","pricing_plan_id":"cebpf4jnsgd1na2vs0mg"},{"bike_id":"52138315-f13b-4871-ab78-9e5155a1008c","system_id":"levelo_inurba_marseille","lat":43.32289,"lon":5.38282,"is_reserved":false,"is_disabled":false,"rental_uris":{"android":"levelo://app?vid=52138315-f13b-4871-ab78-9e5155a1008c","ios":"levelo://app?vid=52138315-f13b-4871-ab78-9e5155a1008c"},"vehicle_type_id":"4","last_reported":1748844974,"current_range_meters":8800,"station_id":"ce4bhr12rcd13ifvqhqg","pricing_plan_id":"cebpf4jnsgd1na2vs0mg"},{"bike_id":"f1d13554-ad01-461a-a2b1-01234f56d9a5","system_id":"levelo_inurba_marseille","lat":43.312067,"lon":5.401739,"is_reserved":false,"is_disabled":false,"rental_uris":{"android":"levelo://app?vid=f1d13554-ad01-461a-a2b1-01234f56d9a5","ios":"levelo://app?vid=f1d13554-ad01-461a-a2b1-01234f56d9a5"},"vehicle_type_id":"4","last_reported":1748844974,"current_range_meters":8800,"station_id":"","pricing_plan_id":"cebpf4jnsgd1na2vs0mg"},{"bike_id":"eee594d6-5795-4d1b-b86c-eaa675bbeeb2","system_id":"levelo_inurba_marseille","lat":43.304309,"lon":5.388901,"is_reserved":false,"is_disabled":false,"rental_uris":{"android":"levelo://app?vid=eee594d6-5795-4d1b-b86c-eaa675bbeeb2","ios":"levelo://app?vid=eee594d6-5795-4d1b-b86c-eaa675bbeeb2"},"vehicle_type_id":"4","last_reported":1748844974,"current_range_meters":9200,"station_id":"ce4bgk12rcd13ifvqbi0","pricing_plan_id":"cebpf4jnsgd1na2vs0mg"},{"bike_id":"49b6eda3-fe26-4a22-99ad-fe2dc26b2560","system_id":"levelo_inurba_marseille","lat":43.2407,"lon":5.37764,"is_reserved":false,"is_disabled":false,"rental_uris":{"android":"levelo://app?vid=49b6eda3-fe26-4a22-99ad-fe2dc26b2560","ios":"levelo://app?vid=49b6eda3-fe26-4a22-99ad-fe2dc26b2560"},"vehicle_type_id":"4","last_reported":1748844974,"current_range_meters":9200,"station_id":"ce4bhnp2rcd13ifvqgvg","pricing_plan_id":"cebpf4jnsgd1na2vs0mg"},{"bike_id":"34b76af9-6331-430f-89f3-c1323f2cb44f","system_id":"levelo_inurba_marseille","lat":43.337444,"lon":5.374475,"is_reserved":false,"is_disabled":false,"rental_uris":{"android":"levelo://app?vid=34b76af9-6331-430f-89f3-c1323f2cb44f","ios":"levelo://app?vid=34b76af9-6331-430f-89f3-c1323f2cb44f"},"vehicle_type_id":"4","last_reported":1748844974,"current_range_meters":9200,"station_id":"","pricing_plan_id":"cebpf4jnsgd1na2vs0mg"},{"bike_id":"1c4b169e-0b93-4b8d-993e-b19758cceb7f","system_id":"levelo_inurba_marseille","lat":43.29369,"lon":5.37875,"is_reserved":false,"is_disabled":false,"rental_uris":{"android":"levelo://app?vid=1c4b169e-0b93-4b8d-993e-b19758cceb7f","ios":"levelo://app?vid=1c4b169e-0b93-4b8d-993e-b19758cceb7f"},"vehicle_type_id":"4","last_reported":1748844974,"current_range_meters":9200,"station_id":"ce4bgjh2rcd13ifvqbf0","pricing_plan_id":"cebpf4jnsgd1na2vs0mg"},{"bike_id":"76f771a0-d27e-462d-a1fe-7bd311768559","system_id":"levelo_inurba_marseille","lat":43.28423,"lon":5.34989,"is_reserved":false,"is_disabled":false,"rental_uris":{"android":"levelo://app?vid=76f771a0-d27e-462d-a1fe-7bd311768559","ios":"levelo://app?vid=76f771a0-d27e-462d-a1fe-7bd311768559"},"vehicle_type_id":"4","last_reported":1748844974,"current_range_meters":9200,"station_id":"ce4bhbh2rcd13ifvqepg","pricing_plan_id":"cebpf4jnsgd1na2vs0mg"},{"bike_id":"8512c838-a713-4ef7-a228-5aa526170f21","system_id":"levelo_inurba_marseille","lat":43.2252,"lon":5.34786,"is_reserved":false,"is_disabled":false,"rental_uris":{"android":"levelo://app?vid=8512c838-a713-4ef7-a228-5aa526170f21","ios":"levelo://app?vid=8512c838-a713-4ef7-a228-5aa526170f21"},"vehicle_type_id":"4","last_reported":1748844974,"current_range_meters":9200,"station_id":"","pricing_plan_id":"cebpf4jnsgd1na2vs0mg"},{"bike_id":"7b44173b-5d11-4c0b-8d16-0982084d4bdb","system_id":"levelo_inurba_marseille","lat":43.33727,"lon":5.39229,"is_reserved":false,"is_disabled":false,"rental_uris":{"android":"levelo://app?vid=7b44173b-5d11-4c0b-8d16-0982084d4bdb","ios":"levelo://app?vid=7b44173b-5d11-4c0b-8d16-0982084d4bdb"},"vehicle_type_id":"4","last_reported":1748844974,"current_range_meters":9600,"station_id":"ce4bhr92rcd13ifvqhsg","pricing_plan_id":"cebpf4jnsgd1na2vs0mg"},{"bike_id":"96d48951-afdd-4f35-a234-23ce54ec190f","system_id":"levelo_inurba_marseille","lat":43.305978,"lon":5.39341,"is_reserved":false,"is_disabled":false,"rental_uris":{"android":"levelo://app?vid=96d48951-afdd-4f35-a234-23ce54ec190f","ios":"levelo://app?vid=96d48951-afdd-4f35-a234-23ce54ec190f"},"vehicle_type_id":"4","last_reported":1748844974,"current_range_meters":9600,"station_id":"ce4bh0p2rcd13ifvqd80","pricing_plan_id":"cebpf4jnsgd1na2vs0mg"},{"bike_id":"d787cfdb-50c2-451d-8448-0eff07939f1e","system_id":"levelo_inurba_marseille","lat":43.23162,"lon":5.43711,"is_reserved":false,"is_disabled":false,"rental_uris":{"android":"levelo://app?vid=d787cfdb-50c2-451d-8448-0eff07939f1e","ios":"levelo://app?vid=d787cfdb-50c2-451d-8448-0eff07939f1e"},"vehicle_type_id":"4","last_reported":1748844974,"current_range_meters":9600,"station_id":"ce4bhmp2rcd13ifvqgog","pricing_plan_id":"cebpf4jnsgd1na2vs0mg"},{"bike_id":"f5a90625-b7e8-48a8-90c6-777efe255a32","system_id":"levelo_inurba_marseille","lat":43.25092,"lon":5.40967,"is_reserved":false,"is_disabled":false,"rental_uris":{"android":"levelo://app?vid=f5a90625-b7e8-48a8-90c6-777efe255a32","ios":"levelo://app?vid=f5a90625-b7e8-48a8-90c6-777efe255a32"},"vehicle_type_id":"4","last_reported":1748844974,"current_range_meters":9600,"station_id":"","pricing_plan_id":"cebpf4jnsgd1na2vs0mg"},{"bike_id":"77520d45-03bf-4b26-9f9b-8ac6c162ce6b","system_id":"levelo_inurba_marseille","lat":43.24347,"lon":5.41143,"is_reserved":false,"is_disabled":false,"rental_uris":{"android":"levelo://app?vid=77520d45-03bf-4b26-9f9b-8ac6c162ce6b","ios":"levelo://app?vid=77520d45-03bf-4b26-9f9b-8ac6c162ce6b"},"vehicle_type_id":"4","last_reported":1748844974,"current_range_meters":9600,"station_id":"","pricing_plan_id":"cebpf4jnsgd1na2vs0mg"},{"bike_id":"e527f2d9-09b0-4377-9a27-1dd4d83fc4d8","system_id":"levelo_inurba_marseille","lat":43.30525,"lon":5.36724,"is_reserved":false,"is_disabled":false,"rental_uris":{"android":"levelo://app?vid=e527f2d9-09b0-4377-9a27-1dd4d83fc4d8","ios":"levelo://app?vid=e527f2d9-09b0-4377-9a27-1dd4d83fc4d8"},"vehicle_type_id":"4","last_reported":1748844974,"current_range_meters":9600,"station_id":"ce4bgrp2rcd13ifvqc9g","pricing_plan_id":"cebpf4jnsgd1na2vs0mg"},{"bike_id":"cd4e3add-e21f-4003-8819-15c8d932b71b","system_id":"levelo_inurba_marseille","lat":43.29193,"lon":5.39315,"is_reserved":false,"is_disabled":false,"rental_uris":{"android":"levelo://app?vid=cd4e3add-e21f-4003-8819-15c8d932b71b","ios":"levelo://app?vid=cd4e3add-e21f-4003-8819-15c8d932b71b"},"vehicle_type_id":"4","last_reported":1748844974,"current_range_meters":9600,"station_id":"ce4bh192rcd13ifvqdd0","pricing_plan_id":"cebpf4jnsgd1na2vs0mg"},{"bike_id":"1fb0e14c-2ed2-49a1-9b22-dc8a7a1f919b","system_id":"levelo_inurba_marseille","lat":43.29234,"lon":5.40116,"is_reserved":false,"is_disabled":true,"rental_uris":{"android":"levelo://app?vid=1fb0e14c-2ed2-49a1-9b22-dc8a7a1f919b","ios":"levelo://app?vid=1fb0e14c-2ed2-49a1-9b22-dc8a7a1f919b"},"vehicle_type_id":"4","last_reported":1748844974,"current_range_meters":9600,"station_id":"ce4bh312rcd13ifvqdk0","pricing_plan_id":"cebpf4jnsgd1na2vs0mg"},{"bike_id":"7754dc7e-9ae4-4829-af4b-ceddf5aade50","system_id":"levelo_inurba_marseille","lat":43.29188,"lon":5.39319,"is_reserved":false,"is_disabled":false,"rental_uris":{"android":"levelo://app?vid=7754dc7e-9ae4-4829-af4b-ceddf5aade50","ios":"levelo://app?vid=7754dc7e-9ae4-4829-af4b-ceddf5aade50"},"vehicle_type_id":"4","last_reported":1748844974,"current_range_meters":9600,"station_id":"ce4bh192rcd13ifvqdd0","pricing_plan_id":"cebpf4jnsgd1na2vs0mg"},{"bike_id":"3c714906-76f2-42cc-b185-ab332f5426c2","system_id":"levelo_inurba_marseille","lat":43.23084,"lon":5.40182,"is_reserved":false,"is_disabled":false,"rental_uris":{"android":"levelo://app?vid=3c714906-76f2-42cc-b185-ab332f5426c2","ios":"levelo://app?vid=3c714906-76f2-42cc-b185-ab332f5426c2"},"vehicle_type_id":"4","last_reported":1748844974,"current_range_meters":9600,"station_id":"","pricing_plan_id":"cebpf4jnsgd1na2vs0mg"},{"bike_id":"88600c54-3851-4227-bc2a-ec2aeb5e5a26","system_id":"levelo_inurba_marseille","lat":43.294156,"lon":5.386174,"is_reserved":false,"is_disabled":true,"rental_uris":{"android":"levelo://app?vid=88600c54-3851-4227-bc2a-ec2aeb5e5a26","ios":"levelo://app?vid=88600c54-3851-4227-bc2a-ec2aeb5e5a26"},"vehicle_type_id":"4","last_reported":1748844974,"current_range_meters":9600,"station_id":"ce4bh2h2rcd13ifvqdh0","pricing_plan_id":"cebpf4jnsgd1na2vs0mg"},{"bike_id":"dc29d6e8-0c3c-4522-a4bc-fd326b522b92","system_id":"levelo_inurba_marseille","lat":43.31082,"lon":5.4243,"is_reserved":false,"is_disabled":false,"rental_uris":{"android":"levelo://app?vid=dc29d6e8-0c3c-4522-a4bc-fd326b522b92","ios":"levelo://app?vid=dc29d6e8-0c3c-4522-a4bc-fd326b522b92"},"vehicle_type_id":"4","last_reported":1748844974,"current_range_meters":9600,"station_id":"ce4bhp92rcd13ifvqhag","pricing_plan_id":"cebpf4jnsgd1na2vs0mg"},{"bike_id":"62b12aeb-73e4-4475-ab20-c6e791c72365","system_id":"levelo_inurba_marseille","lat":43.36106,"lon":5.36308,"is_reserved":false,"is_disabled":false,"rental_uris":{"android":"levelo://app?vid=62b12aeb-73e4-4475-ab20-c6e791c72365","ios":"levelo://app?vid=62b12aeb-73e4-4475-ab20-c6e791c72365"},"vehicle_type_id":"4","last_reported":1748844974,"current_range_meters":10000,"station_id":"","pricing_plan_id":"cebpf4jnsgd1na2vs0mg"},{"bike_id":"952c8f86-978d-408b-9bcc-7c5a6a93d760","system_id":"levelo_inurba_marseille","lat":43.29273,"lon":5.3844,"is_reserved":false,"is_disabled":true,"rental_uris":{"android":"levelo://app?vid=952c8f86-978d-408b-9bcc-7c5a6a93d760","ios":"levelo://app?vid=952c8f86-978d-408b-9bcc-7c5a6a93d760"},"vehicle_type_id":"4","last_reported":1748844974,"current_range_meters":10000,"station_id":"ce4bh692rcd13ifvqea0","pricing_plan_id":"cebpf4jnsgd1na2vs0mg"},{"bike_id":"254e030c-a78f-41be-9494-6c89fd4aac35","system_id":"levelo_inurba_marseille","lat":43.28462,"lon":5.35907,"is_reserved":false,"is_disabled":true,"rental_uris":{"android":"levelo://app?vid=254e030c-a78f-41be-9494-6c89fd4aac35","ios":"levelo://app?vid=254e030c-a78f-41be-9494-6c89fd4aac35"},"vehicle_type_id":"4","last_reported":1748844974,"current_range_meters":10000,"station_id":"ce4bhah2rcd13ifvqei0","pricing_plan_id":"cebpf4jnsgd1na2vs0mg"},{"bike_id":"a3999543-57b1-423a-824b-03156a84d448","system_id":"levelo_inurba_marseille","lat":43.2925,"lon":5.37622,"is_reserved":false,"is_disabled":false,"rental_uris":{"android":"levelo://app?vid=a3999543-57b1-423a-824b-03156a84d448","ios":"levelo://app?vid=a3999543-57b1-423a-824b-03156a84d448"},"vehicle_type_id":"4","last_reported":1748844974,"current_range_meters":10000,"station_id":"ce4bgi12rcd13ifvqb80","pricing_plan_id":"cebpf4jnsgd1na2vs0mg"},{"bike_id":"fcd5ed42-3e24-468f-aa6a-48be3c42e260","system_id":"levelo_inurba_marseille","lat":43.309,"lon":5.37184,"is_reserved":false,"is_disabled":false,"rental_uris":{"android":"levelo://app?vid=fcd5ed42-3e24-468f-aa6a-48be3c42e260","ios":"levelo://app?vid=fcd5ed42-3e24-468f-aa6a-48be3c42e260"},"vehicle_type_id":"4","last_reported":1748844974,"current_range_meters":10000,"station_id":"ce4bguh2rcd13ifvqckg","pricing_plan_id":"cebpf4jnsgd1na2vs0mg"},{"bike_id":"f8c310ff-7f1e-4846-a3ed-b26bf26e087f","system_id":"levelo_inurba_marseille","lat":43.292245,"lon":5.379109,"is_reserved":false,"is_disabled":false,"rental_uris":{"android":"levelo://app?vid=f8c310ff-7f1e-4846-a3ed-b26bf26e087f","ios":"levelo://app?vid=f8c310ff-7f1e-4846-a3ed-b26bf26e087f"},"vehicle_type_id":"4","last_reported":1748844974,"current_range_meters":10000,"station_id":"","pricing_plan_id":"cebpf4jnsgd1na2vs0mg"},{"bike_id":"4fc38c6c-42f3-4baa-8501-5e69717b2298","system_id":"levelo_inurba_marseille","lat":43.21744,"lon":5.34601,"is_reserved":false,"is_disabled":false,"rental_uris":{"android":"levelo://app?vid=4fc38c6c-42f3-4baa-8501-5e69717b2298","ios":"levelo://app?vid=4fc38c6c-42f3-4baa-8501-5e69717b2298"},"vehicle_type_id":"4","last_reported":1748844974,"current_range_meters":10000,"station_id":"","pricing_plan_id":"cebpf4jnsgd1na2vs0mg"},{"bike_id":"1dfceda9-eefd-4990-81a5-ce0b5ef2ef1f","system_id":"levelo_inurba_marseille","lat":43.31115,"lon":5.37754,"is_reserved":false,"is_disabled":false,"rental_uris":{"android":"levelo://app?vid=1dfceda9-eefd-4990-81a5-ce0b5ef2ef1f","ios":"levelo://app?vid=1dfceda9-eefd-4990-81a5-ce0b5ef2ef1f"},"vehicle_type_id":"4","last_reported":1748844974,"current_range_meters":10000,"station_id":"ce4bgt92rcd13ifvqcg0","pricing_plan_id":"cebpf4jnsgd1na2vs0mg"},{"bike_id":"e95c9766-1694-4351-a2ef-5ad79e51e854","system_id":"levelo_inurba_marseille","lat":43.261872,"lon":5.374703,"is_reserved":false,"is_disabled":true,"rental_uris":{"android":"levelo://app?vid=e95c9766-1694-4351-a2ef-5ad79e51e854","ios":"levelo://app?vid=e95c9766-1694-4351-a2ef-5ad79e51e854"},"vehicle_type_id":"4","last_reported":1748844974,"current_range_meters":10000,"station_id":"ce4bhgp2rcd13ifvqfc0","pricing_plan_id":"cebpf4jnsgd1na2vs0mg"},{"bike_id":"f4921e6a-397a-4f4b-8f5f-12e56185493f","system_id":"levelo_inurba_marseille","lat":43.3227,"lon":5.38281,"is_reserved":false,"is_disabled":false,"rental_uris":{"android":"levelo://app?vid=f4921e6a-397a-4f4b-8f5f-12e56185493f","ios":"levelo://app?vid=f4921e6a-397a-4f4b-8f5f-12e56185493f"},"vehicle_type_id":"4","last_reported":1748844974,"current_range_meters":10800,"station_id":"ce4bhr12rcd13ifvqhqg","pricing_plan_id":"cebpf4jnsgd1na2vs0mg"},{"bike_id":"46223195-70ca-4409-be0b-c058f294951b","system_id":"levelo_inurba_marseille","lat":43.29198,"lon":5.39314,"is_reserved":false,"is_disabled":false,"rental_uris":{"android":"levelo://app?vid=46223195-70ca-4409-be0b-c058f294951b","ios":"levelo://app?vid=46223195-70ca-4409-be0b-c058f294951b"},"vehicle_type_id":"4","last_reported":1748844974,"current_range_meters":10800,"station_id":"ce4bh192rcd13ifvqdd0","pricing_plan_id":"cebpf4jnsgd1na2vs0mg"},{"bike_id":"64bae103-c9ba-4f2c-96ce-cb1f8066dedb","system_id":"levelo_inurba_marseille","lat":43.28282,"lon":5.43102,"is_reserved":false,"is_disabled":true,"rental_uris":{"android":"levelo://app?vid=64bae103-c9ba-4f2c-96ce-cb1f8066dedb","ios":"levelo://app?vid=64bae103-c9ba-4f2c-96ce-cb1f8066dedb"},"vehicle_type_id":"4","last_reported":1748844974,"current_range_meters":10800,"station_id":"","pricing_plan_id":"cebpf4jnsgd1na2vs0mg"},{"bike_id":"c1cae874-ec29-4050-8c9e-5d682f25d21c","system_id":"levelo_inurba_marseille","lat":43.2903,"lon":5.39969,"is_reserved":false,"is_disabled":false,"rental_uris":{"android":"levelo://app?vid=c1cae874-ec29-4050-8c9e-5d682f25d21c","ios":"levelo://app?vid=c1cae874-ec29-4050-8c9e-5d682f25d21c"},"vehicle_type_id":"4","last_reported":1748844974,"current_range_meters":10800,"station_id":"ce4bh392rcd13ifvqdm0","pricing_plan_id":"cebpf4jnsgd1na2vs0mg"},{"bike_id":"b5806e8c-065c-41e5-8415-4e8c05eadebe","system_id":"levelo_inurba_marseille","lat":43.291973,"lon":5.360429,"is_reserved":false,"is_disabled":true,"rental_uris":{"android":"levelo://app?vid=b5806e8c-065c-41e5-8415-4e8c05eadebe","ios":"levelo://app?vid=b5806e8c-065c-41e5-8415-4e8c05eadebe"},"vehicle_type_id":"4","last_reported":1748844974,"current_range_meters":10800,"station_id":"ce4bhbh2rcd13ifvqeqg","pricing_plan_id":"cebpf4jnsgd1na2vs0mg"},{"bike_id":"64df3fb6-cdfa-470e-ba7d-2ec6bdf3bedc","system_id":"levelo_inurba_marseille","lat":43.30934,"lon":5.40133,"is_reserved":false,"is_disabled":false,"rental_uris":{"android":"levelo://app?vid=64df3fb6-cdfa-470e-ba7d-2ec6bdf3bedc","ios":"levelo://app?vid=64df3fb6-cdfa-470e-ba7d-2ec6bdf3bedc"},"vehicle_type_id":"4","last_reported":1748844974,"current_range_meters":10800,"station_id":"ce4bgvp2rcd13ifvqct0","pricing_plan_id":"cebpf4jnsgd1na2vs0mg"},{"bike_id":"157fac85-2c74-46dc-8373-f61ea8482be2","system_id":"levelo_inurba_marseille","lat":43.246707,"lon":5.381719,"is_reserved":false,"is_disabled":true,"rental_uris":{"android":"levelo://app?vid=157fac85-2c74-46dc-8373-f61ea8482be2","ios":"levelo://app?vid=157fac85-2c74-46dc-8373-f61ea8482be2"},"vehicle_type_id":"4","last_reported":1748844974,"current_range_meters":10800,"station_id":"ce4bhih2rcd13ifvqfr0","pricing_plan_id":"cebpf4jnsgd1na2vs0mg"},{"bike_id":"a5a49411-588e-4b5e-94a6-1c2ad2ee88eb","system_id":"levelo_inurba_marseille","lat":43.324747,"lon":5.424768,"is_reserved":false,"is_disabled":false,"rental_uris":{"android":"levelo://app?vid=a5a49411-588e-4b5e-94a6-1c2ad2ee88eb","ios":"levelo://app?vid=a5a49411-588e-4b5e-94a6-1c2ad2ee88eb"},"vehicle_type_id":"4","last_reported":1748844974,"current_range_meters":10800,"station_id":"","pricing_plan_id":"cebpf4jnsgd1na2vs0mg"},{"bike_id":"48063303-4f1b-4047-8d3d-af4488fa2bc5","system_id":"levelo_inurba_marseille","lat":43.32363,"lon":5.367433,"is_reserved":false,"is_disabled":false,"rental_uris":{"android":"levelo://app?vid=48063303-4f1b-4047-8d3d-af4488fa2bc5","ios":"levelo://app?vid=48063303-4f1b-4047-8d3d-af4488fa2bc5"},"vehicle_type_id":"4","last_reported":1748844974,"current_range_meters":10800,"station_id":"ce4bhsh2rcd13ifvqi2g","pricing_plan_id":"cebpf4jnsgd1na2vs0mg"},{"bike_id":"c104565e-fd88-4af7-ba55-750f679f0c2b","system_id":"levelo_inurba_marseille","lat":43.30463,"lon":5.37893,"is_reserved":false,"is_disabled":true,"rental_uris":{"android":"levelo://app?vid=c104565e-fd88-4af7-ba55-750f679f0c2b","ios":"levelo://app?vid=c104565e-fd88-4af7-ba55-750f679f0c2b"},"vehicle_type_id":"4","last_reported":1748844974,"current_range_meters":11200,"station_id":"ce4bgup2rcd13ifvqcn0","pricing_plan_id":"cebpf4jnsgd1na2vs0mg"},{"bike_id":"5a87a698-d131-49aa-97a0-2d41c9cf8701","system_id":"levelo_inurba_marseille","lat":43.290373,"lon":5.39969,"is_reserved":false,"is_disabled":false,"rental_uris":{"android":"levelo://app?vid=5a87a698-d131-49aa-97a0-2d41c9cf8701","ios":"levelo://app?vid=5a87a698-d131-49aa-97a0-2d41c9cf8701"},"vehicle_type_id":"4","last_reported":1748844974,"current_range_meters":11200,"station_id":"ce4bh392rcd13ifvqdm0","pricing_plan_id":"cebpf4jnsgd1na2vs0mg"},{"bike_id":"97a58472-f76b-47e3-a716-281b120ccffa","system_id":"levelo_inurba_marseille","lat":43.2792,"lon":5.39577,"is_reserved":false,"is_disabled":true,"rental_uris":{"android":"levelo://app?vid=97a58472-f76b-47e3-a716-281b120ccffa","ios":"levelo://app?vid=97a58472-f76b-47e3-a716-281b120ccffa"},"vehicle_type_id":"4","last_reported":1748844974,"current_range_meters":11200,"station_id":"ce4bhf92rcd13ifvqf40","pricing_plan_id":"cebpf4jnsgd1na2vs0mg"},{"bike_id":"25ebbebc-eaf1-4f37-bd07-4c2f87409219","system_id":"levelo_inurba_marseille","lat":43.32045,"lon":5.41544,"is_reserved":false,"is_disabled":false,"rental_uris":{"android":"levelo://app?vid=25ebbebc-eaf1-4f37-bd07-4c2f87409219","ios":"levelo://app?vid=25ebbebc-eaf1-4f37-bd07-4c2f87409219"},"vehicle_type_id":"4","last_reported":1748844974,"current_range_meters":11600,"station_id":"ce4bhq92rcd13ifvqhkg","pricing_plan_id":"cebpf4jnsgd1na2vs0mg"},{"bike_id":"b0e77b09-837f-49a5-816e-2b333aa54c52","system_id":"levelo_inurba_marseille","lat":43.27503,"lon":5.42484,"is_reserved":false,"is_disabled":false,"rental_uris":{"android":"levelo://app?vid=b0e77b09-837f-49a5-816e-2b333aa54c52","ios":"levelo://app?vid=b0e77b09-837f-49a5-816e-2b333aa54c52"},"vehicle_type_id":"4","last_reported":1748844974,"current_range_meters":11600,"station_id":"ce4bhn92rcd13ifvqgrg","pricing_plan_id":"cebpf4jnsgd1na2vs0mg"},{"bike_id":"e4f2e553-75d1-42a7-95cb-b18b90074a93","system_id":"levelo_inurba_marseille","lat":43.317439,"lon":5.387714,"is_reserved":false,"is_disabled":false,"rental_uris":{"android":"levelo://app?vid=e4f2e553-75d1-42a7-95cb-b18b90074a93","ios":"levelo://app?vid=e4f2e553-75d1-42a7-95cb-b18b90074a93"},"vehicle_type_id":"4","last_reported":1748844974,"current_range_meters":11600,"station_id":"","pricing_plan_id":"cebpf4jnsgd1na2vs0mg"},{"bike_id":"9529666f-cbbe-4156-9bc8-c72f3780b500","system_id":"levelo_inurba_marseille","lat":43.30471,"lon":5.37912,"is_reserved":false,"is_disabled":false,"rental_uris":{"android":"levelo://app?vid=9529666f-cbbe-4156-9bc8-c72f3780b500","ios":"levelo://app?vid=9529666f-cbbe-4156-9bc8-c72f3780b500"},"vehicle_type_id":"4","last_reported":1748844974,"current_range_meters":12000,"station_id":"ce4bgup2rcd13ifvqcn0","pricing_plan_id":"cebpf4jnsgd1na2vs0mg"},{"bike_id":"9f5506a2-7319-4021-ac08-7ece130e4127","system_id":"levelo_inurba_marseille","lat":43.294201,"lon":5.386199,"is_reserved":false,"is_disabled":true,"rental_uris":{"android":"levelo://app?vid=9f5506a2-7319-4021-ac08-7ece130e4127","ios":"levelo://app?vid=9f5506a2-7319-4021-ac08-7ece130e4127"},"vehicle_type_id":"4","last_reported":1748844974,"current_range_meters":12000,"station_id":"ce4bh2h2rcd13ifvqdh0","pricing_plan_id":"cebpf4jnsgd1na2vs0mg"},{"bike_id":"e32a573d-12fd-4460-9306-03b7c8e2fe25","system_id":"levelo_inurba_marseille","lat":43.28732,"lon":5.36105,"is_reserved":false,"is_disabled":true,"rental_uris":{"android":"levelo://app?vid=e32a573d-12fd-4460-9306-03b7c8e2fe25","ios":"levelo://app?vid=e32a573d-12fd-4460-9306-03b7c8e2fe25"},"vehicle_type_id":"4","last_reported":1748844974,"current_range_meters":12000,"station_id":"cki0cbj6b192h4jlfktg","pricing_plan_id":"cebpf4jnsgd1na2vs0mg"},{"bike_id":"ae370309-8961-4d5c-b99a-2ea78d9a2388","system_id":"levelo_inurba_marseille","lat":43.24995,"lon":5.38935,"is_reserved":false,"is_disabled":false,"rental_uris":{"android":"levelo://app?vid=ae370309-8961-4d5c-b99a-2ea78d9a2388","ios":"levelo://app?vid=ae370309-8961-4d5c-b99a-2ea78d9a2388"},"vehicle_type_id":"4","last_reported":1748844974,"current_range_meters":12000,"station_id":"ce4bhgp2rcd13ifvqfd0","pricing_plan_id":"cebpf4jnsgd1na2vs0mg"},{"bike_id":"66494907-53c4-4ce6-a20a-6700c28f8abd","system_id":"levelo_inurba_marseille","lat":43.274853,"lon":5.436015,"is_reserved":false,"is_disabled":false,"rental_uris":{"android":"levelo://app?vid=66494907-53c4-4ce6-a20a-6700c28f8abd","ios":"levelo://app?vid=66494907-53c4-4ce6-a20a-6700c28f8abd"},"vehicle_type_id":"4","last_reported":1748844974,"current_range_meters":12400,"station_id":"","pricing_plan_id":"cebpf4jnsgd1na2vs0mg"},{"bike_id":"68751ed8-5def-44dd-9302-814c6cb074a4","system_id":"levelo_inurba_marseille","lat":43.31354,"lon":5.36719,"is_reserved":false,"is_disabled":false,"rental_uris":{"android":"levelo://app?vid=68751ed8-5def-44dd-9302-814c6cb074a4","ios":"levelo://app?vid=68751ed8-5def-44dd-9302-814c6cb074a4"},"vehicle_type_id":"4","last_reported":1748844974,"current_range_meters":12400,"station_id":"ce4bgr92rcd13ifvqc6g","pricing_plan_id":"cebpf4jnsgd1na2vs0mg"},{"bike_id":"2ce4ccda-995d-442a-ada8-8c2afb9fc431","system_id":"levelo_inurba_marseille","lat":43.30255,"lon":5.40057,"is_reserved":false,"is_disabled":false,"rental_uris":{"android":"levelo://app?vid=2ce4ccda-995d-442a-ada8-8c2afb9fc431","ios":"levelo://app?vid=2ce4ccda-995d-442a-ada8-8c2afb9fc431"},"vehicle_type_id":"4","last_reported":1748844974,"current_range_meters":12400,"station_id":"ce4bgvh2rcd13ifvqcs0","pricing_plan_id":"cebpf4jnsgd1na2vs0mg"},{"bike_id":"a8af9193-1f0b-4e5d-99a2-be78ccabc55b","system_id":"levelo_inurba_marseille","lat":43.31192,"lon":5.416242,"is_reserved":false,"is_disabled":false,"rental_uris":{"android":"levelo://app?vid=a8af9193-1f0b-4e5d-99a2-be78ccabc55b","ios":"levelo://app?vid=a8af9193-1f0b-4e5d-99a2-be78ccabc55b"},"vehicle_type_id":"4","last_reported":1748844974,"current_range_meters":12400,"station_id":"","pricing_plan_id":"cebpf4jnsgd1na2vs0mg"},{"bike_id":"730ef340-c186-4f89-b14c-df4f09693af6","system_id":"levelo_inurba_marseille","lat":43.25933,"lon":5.40902,"is_reserved":false,"is_disabled":false,"rental_uris":{"android":"levelo://app?vid=730ef340-c186-4f89-b14c-df4f09693af6","ios":"levelo://app?vid=730ef340-c186-4f89-b14c-df4f09693af6"},"vehicle_type_id":"4","last_reported":1748844974,"current_range_meters":12400,"station_id":"ce4bhm92rcd13ifvqglg","pricing_plan_id":"cebpf4jnsgd1na2vs0mg"},{"bike_id":"03f2c807-2b23-4f78-a442-eebfa37529d1","system_id":"levelo_inurba_marseille","lat":43.31489,"lon":5.37293,"is_reserved":false,"is_disabled":false,"rental_uris":{"android":"levelo://app?vid=03f2c807-2b23-4f78-a442-eebfa37529d1","ios":"levelo://app?vid=03f2c807-2b23-4f78-a442-eebfa37529d1"},"vehicle_type_id":"4","last_reported":1748844974,"current_range_meters":12800,"station_id":"ce4bgt12rcd13ifvqcd0","pricing_plan_id":"cebpf4jnsgd1na2vs0mg"},{"bike_id":"f9707e64-f3a2-4626-8e27-5509f44d3427","system_id":"levelo_inurba_marseille","lat":43.24168,"lon":5.36407,"is_reserved":false,"is_disabled":true,"rental_uris":{"android":"levelo://app?vid=f9707e64-f3a2-4626-8e27-5509f44d3427","ios":"levelo://app?vid=f9707e64-f3a2-4626-8e27-5509f44d3427"},"vehicle_type_id":"4","last_reported":1748844974,"current_range_meters":12800,"station_id":"cpo36qri1sfpv3e86is0","pricing_plan_id":"cebpf4jnsgd1na2vs0mg"},{"bike_id":"858e980f-bdf8-40ef-8b47-89c2e9c32b72","system_id":"levelo_inurba_marseille","lat":43.3047,"lon":5.37914,"is_reserved":false,"is_disabled":false,"rental_uris":{"android":"levelo://app?vid=858e980f-bdf8-40ef-8b47-89c2e9c32b72","ios":"levelo://app?vid=858e980f-bdf8-40ef-8b47-89c2e9c32b72"},"vehicle_type_id":"4","last_reported":1748844974,"current_range_meters":12800,"station_id":"ce4bgup2rcd13ifvqcn0","pricing_plan_id":"cebpf4jnsgd1na2vs0mg"},{"bike_id":"4d37de91-06b5-42bd-9f0e-e45e506c4181","system_id":"levelo_inurba_marseille","lat":43.27491,"lon":5.42445,"is_reserved":false,"is_disabled":false,"rental_uris":{"android":"levelo://app?vid=4d37de91-06b5-42bd-9f0e-e45e506c4181","ios":"levelo://app?vid=4d37de91-06b5-42bd-9f0e-e45e506c4181"},"vehicle_type_id":"4","last_reported":1748844974,"current_range_meters":12800,"station_id":"ce4bhn92rcd13ifvqgrg","pricing_plan_id":"cebpf4jnsgd1na2vs0mg"},{"bike_id":"dd532de6-672a-4fd7-8b6c-2ad425c0c828","system_id":"levelo_inurba_marseille","lat":43.241718,"lon":5.397248,"is_reserved":false,"is_disabled":false,"rental_uris":{"android":"levelo://app?vid=dd532de6-672a-4fd7-8b6c-2ad425c0c828","ios":"levelo://app?vid=dd532de6-672a-4fd7-8b6c-2ad425c0c828"},"vehicle_type_id":"4","last_reported":1748844974,"current_range_meters":12800,"station_id":"ce4bhn12rcd13ifvqgpg","pricing_plan_id":"cebpf4jnsgd1na2vs0mg"},{"bike_id":"f9731017-865b-4f2d-b0ce-f30ab6ae444e","system_id":"levelo_inurba_marseille","lat":43.291854,"lon":5.393284,"is_reserved":false,"is_disabled":false,"rental_uris":{"android":"levelo://app?vid=f9731017-865b-4f2d-b0ce-f30ab6ae444e","ios":"levelo://app?vid=f9731017-865b-4f2d-b0ce-f30ab6ae444e"},"vehicle_type_id":"4","last_reported":1748844974,"current_range_meters":12800,"station_id":"ce4bh192rcd13ifvqdd0","pricing_plan_id":"cebpf4jnsgd1na2vs0mg"},{"bike_id":"35ed2995-17a2-4549-bb55-810459c05dd0","system_id":"levelo_inurba_marseille","lat":43.26225,"lon":5.40453,"is_reserved":false,"is_disabled":false,"rental_uris":{"android":"levelo://app?vid=35ed2995-17a2-4549-bb55-810459c05dd0","ios":"levelo://app?vid=35ed2995-17a2-4549-bb55-810459c05dd0"},"vehicle_type_id":"4","last_reported":1748844974,"current_range_meters":13600,"station_id":"ce4bhmh2rcd13ifvqgmg","pricing_plan_id":"cebpf4jnsgd1na2vs0mg"},{"bike_id":"fd3bb2dd-fe37-4400-8e18-c874fa553d97","system_id":"levelo_inurba_marseille","lat":43.243618,"lon":5.411464,"is_reserved":false,"is_disabled":false,"rental_uris":{"android":"levelo://app?vid=fd3bb2dd-fe37-4400-8e18-c874fa553d97","ios":"levelo://app?vid=fd3bb2dd-fe37-4400-8e18-c874fa553d97"},"vehicle_type_id":"4","last_reported":1748844974,"current_range_meters":13600,"station_id":"","pricing_plan_id":"cebpf4jnsgd1na2vs0mg"},{"bike_id":"fcee2af9-aa66-48d8-8e4b-42936b549e4f","system_id":"levelo_inurba_marseille","lat":43.24077,"lon":5.37756,"is_reserved":false,"is_disabled":false,"rental_uris":{"android":"levelo://app?vid=fcee2af9-aa66-48d8-8e4b-42936b549e4f","ios":"levelo://app?vid=fcee2af9-aa66-48d8-8e4b-42936b549e4f"},"vehicle_type_id":"4","last_reported":1748844974,"current_range_meters":13600,"station_id":"ce4bhnp2rcd13ifvqgvg","pricing_plan_id":"cebpf4jnsgd1na2vs0mg"},{"bike_id":"e76852b9-c96d-4901-9bd8-11e5bc082a3b","system_id":"levelo_inurba_marseille","lat":43.231924,"lon":5.35554,"is_reserved":false,"is_disabled":false,"rental_uris":{"android":"levelo://app?vid=e76852b9-c96d-4901-9bd8-11e5bc082a3b","ios":"levelo://app?vid=e76852b9-c96d-4901-9bd8-11e5bc082a3b"},"vehicle_type_id":"4","last_reported":1748844974,"current_range_meters":14000,"station_id":"ce4bhu92rcd13ifvqi70","pricing_plan_id":"cebpf4jnsgd1na2vs0mg"},{"bike_id":"d6c9230b-570d-47f7-851a-0171817892b5","system_id":"levelo_inurba_marseille","lat":43.231779,"lon":5.399931,"is_reserved":false,"is_disabled":false,"rental_uris":{"android":"levelo://app?vid=d6c9230b-570d-47f7-851a-0171817892b5","ios":"levelo://app?vid=d6c9230b-570d-47f7-851a-0171817892b5"},"vehicle_type_id":"4","last_reported":1748844974,"current_range_meters":14000,"station_id":"ce4bhn12rcd13ifvqgqg","pricing_plan_id":"cebpf4jnsgd1na2vs0mg"},{"bike_id":"c76a8d15-a6a4-4cb0-b548-4ebc58f035bf","system_id":"levelo_inurba_marseille","lat":43.29607,"lon":5.3811,"is_reserved":false,"is_disabled":false,"rental_uris":{"android":"levelo://app?vid=c76a8d15-a6a4-4cb0-b548-4ebc58f035bf","ios":"levelo://app?vid=c76a8d15-a6a4-4cb0-b548-4ebc58f035bf"},"vehicle_type_id":"4","last_reported":1748844974,"current_range_meters":14000,"station_id":"ce4bgl12rcd13ifvqbo0","pricing_plan_id":"cebpf4jnsgd1na2vs0mg"},{"bike_id":"a2a9fb40-1fdd-4434-a65d-ca7cb81fdeb9","system_id":"levelo_inurba_marseille","lat":43.292639,"lon":5.376298,"is_reserved":false,"is_disabled":false,"rental_uris":{"android":"levelo://app?vid=a2a9fb40-1fdd-4434-a65d-ca7cb81fdeb9","ios":"levelo://app?vid=a2a9fb40-1fdd-4434-a65d-ca7cb81fdeb9"},"vehicle_type_id":"4","last_reported":1748844974,"current_range_meters":14000,"station_id":"ce4bgi12rcd13ifvqb80","pricing_plan_id":"cebpf4jnsgd1na2vs0mg"},{"bike_id":"7f96108f-f592-4626-a63b-9065f4087587","system_id":"levelo_inurba_marseille","lat":43.26228,"lon":5.38768,"is_reserved":false,"is_disabled":false,"rental_uris":{"android":"levelo://app?vid=7f96108f-f592-4626-a63b-9065f4087587","ios":"levelo://app?vid=7f96108f-f592-4626-a63b-9065f4087587"},"vehicle_type_id":"4","last_reported":1748844974,"current_range_meters":14400,"station_id":"","pricing_plan_id":"cebpf4jnsgd1na2vs0mg"},{"bike_id":"eafc3cd6-d501-4048-abd6-eabf2b1a7db9","system_id":"levelo_inurba_marseille","lat":43.25934,"lon":5.40907,"is_reserved":false,"is_disabled":false,"rental_uris":{"android":"levelo://app?vid=eafc3cd6-d501-4048-abd6-eabf2b1a7db9","ios":"levelo://app?vid=eafc3cd6-d501-4048-abd6-eabf2b1a7db9"},"vehicle_type_id":"4","last_reported":1748844974,"current_range_meters":14800,"station_id":"ce4bhm92rcd13ifvqglg","pricing_plan_id":"cebpf4jnsgd1na2vs0mg"},{"bike_id":"5098ad57-4542-4f01-9f1f-a9d13acfea81","system_id":"levelo_inurba_marseille","lat":43.3047,"lon":5.37897,"is_reserved":false,"is_disabled":false,"rental_uris":{"android":"levelo://app?vid=5098ad57-4542-4f01-9f1f-a9d13acfea81","ios":"levelo://app?vid=5098ad57-4542-4f01-9f1f-a9d13acfea81"},"vehicle_type_id":"4","last_reported":1748844974,"current_range_meters":14800,"station_id":"ce4bgup2rcd13ifvqcn0","pricing_plan_id":"cebpf4jnsgd1na2vs0mg"},{"bike_id":"77dbe876-c855-42de-a8c0-e3d8b51fef46","system_id":"levelo_inurba_marseille","lat":43.26565,"lon":5.39011,"is_reserved":false,"is_disabled":false,"rental_uris":{"android":"levelo://app?vid=77dbe876-c855-42de-a8c0-e3d8b51fef46","ios":"levelo://app?vid=77dbe876-c855-42de-a8c0-e3d8b51fef46"},"vehicle_type_id":"4","last_reported":1748844974,"current_range_meters":14800,"station_id":"ce4bhe12rcd13ifvqf30","pricing_plan_id":"cebpf4jnsgd1na2vs0mg"},{"bike_id":"89330a59-c39d-43c9-a277-4f2fb8823d18","system_id":"levelo_inurba_marseille","lat":43.28489,"lon":5.38423,"is_reserved":false,"is_disabled":false,"rental_uris":{"android":"levelo://app?vid=89330a59-c39d-43c9-a277-4f2fb8823d18","ios":"levelo://app?vid=89330a59-c39d-43c9-a277-4f2fb8823d18"},"vehicle_type_id":"4","last_reported":1748844974,"current_range_meters":14800,"station_id":"ce4bh512rcd13ifvqe3g","pricing_plan_id":"cebpf4jnsgd1na2vs0mg"},{"bike_id":"da0ab239-8e16-4a55-8155-d9d58f9930a0","system_id":"levelo_inurba_marseille","lat":43.29285,"lon":5.40123,"is_reserved":false,"is_disabled":false,"rental_uris":{"android":"levelo://app?vid=da0ab239-8e16-4a55-8155-d9d58f9930a0","ios":"levelo://app?vid=da0ab239-8e16-4a55-8155-d9d58f9930a0"},"vehicle_type_id":"4","last_reported":1748844974,"current_range_meters":15200,"station_id":"ce4bh312rcd13ifvqdk0","pricing_plan_id":"cebpf4jnsgd1na2vs0mg"},{"bike_id":"ed8e13b6-61d9-4b4c-90fb-9c3f7fef78b5","system_id":"levelo_inurba_marseille","lat":43.289069,"lon":5.372903,"is_reserved":false,"is_disabled":false,"rental_uris":{"android":"levelo://app?vid=ed8e13b6-61d9-4b4c-90fb-9c3f7fef78b5","ios":"levelo://app?vid=ed8e13b6-61d9-4b4c-90fb-9c3f7fef78b5"},"vehicle_type_id":"4","last_reported":1748844974,"current_range_meters":15200,"station_id":"","pricing_plan_id":"cebpf4jnsgd1na2vs0mg"},{"bike_id":"f72b423a-8a25-4c45-bc62-b01f19bf2d74","system_id":"levelo_inurba_marseille","lat":43.28148,"lon":5.42641,"is_reserved":false,"is_disabled":false,"rental_uris":{"android":"levelo://app?vid=f72b423a-8a25-4c45-bc62-b01f19bf2d74","ios":"levelo://app?vid=f72b423a-8a25-4c45-bc62-b01f19bf2d74"},"vehicle_type_id":"4","last_reported":1748844974,"current_range_meters":15200,"station_id":"ce4bhnh2rcd13ifvqgug","pricing_plan_id":"cebpf4jnsgd1na2vs0mg"},{"bike_id":"dc6c3444-9ba0-47fc-8611-9a1252aa910e","system_id":"levelo_inurba_marseille","lat":43.22504,"lon":5.34788,"is_reserved":false,"is_disabled":false,"rental_uris":{"android":"levelo://app?vid=dc6c3444-9ba0-47fc-8611-9a1252aa910e","ios":"levelo://app?vid=dc6c3444-9ba0-47fc-8611-9a1252aa910e"},"vehicle_type_id":"4","last_reported":1748844974,"current_range_meters":15200,"station_id":"st_cvj5dfep6f1abm77gieg","pricing_plan_id":"cebpf4jnsgd1na2vs0mg"},{"bike_id":"49f22349-8392-495d-854d-8b91399cbd8f","system_id":"levelo_inurba_marseille","lat":43.325666,"lon":5.425089,"is_reserved":false,"is_disabled":false,"rental_uris":{"android":"levelo://app?vid=49f22349-8392-495d-854d-8b91399cbd8f","ios":"levelo://app?vid=49f22349-8392-495d-854d-8b91399cbd8f"},"vehicle_type_id":"4","last_reported":1748844974,"current_range_meters":15200,"station_id":"","pricing_plan_id":"cebpf4jnsgd1na2vs0mg"},{"bike_id":"3e12a5c4-055c-468d-8bcf-8fef782e4ba3","system_id":"levelo_inurba_marseille","lat":43.30538,"lon":5.36719,"is_reserved":false,"is_disabled":false,"rental_uris":{"android":"levelo://app?vid=3e12a5c4-055c-468d-8bcf-8fef782e4ba3","ios":"levelo://app?vid=3e12a5c4-055c-468d-8bcf-8fef782e4ba3"},"vehicle_type_id":"4","last_reported":1748844974,"current_range_meters":16000,"station_id":"ce4bgrp2rcd13ifvqc9g","pricing_plan_id":"cebpf4jnsgd1na2vs0mg"},{"bike_id":"255ef496-67cf-4fce-9a53-e61a9efb81bc","system_id":"levelo_inurba_marseille","lat":43.29225,"lon":5.39993,"is_reserved":false,"is_disabled":false,"rental_uris":{"android":"levelo://app?vid=255ef496-67cf-4fce-9a53-e61a9efb81bc","ios":"levelo://app?vid=255ef496-67cf-4fce-9a53-e61a9efb81bc"},"vehicle_type_id":"4","last_reported":1748844974,"current_range_meters":16000,"station_id":"","pricing_plan_id":"cebpf4jnsgd1na2vs0mg"},{"bike_id":"65054dff-a24a-4c0a-b6e8-f6b860bef365","system_id":"levelo_inurba_marseille","lat":43.241773,"lon":5.397341,"is_reserved":false,"is_disabled":false,"rental_uris":{"android":"levelo://app?vid=65054dff-a24a-4c0a-b6e8-f6b860bef365","ios":"levelo://app?vid=65054dff-a24a-4c0a-b6e8-f6b860bef365"},"vehicle_type_id":"4","last_reported":1748844974,"current_range_meters":16000,"station_id":"ce4bhn12rcd13ifvqgpg","pricing_plan_id":"cebpf4jnsgd1na2vs0mg"},{"bike_id":"4d792978-04b8-4d9d-a4e5-25acbff07fed","system_id":"levelo_inurba_marseille","lat":43.292618,"lon":5.376311,"is_reserved":false,"is_disabled":false,"rental_uris":{"android":"levelo://app?vid=4d792978-04b8-4d9d-a4e5-25acbff07fed","ios":"levelo://app?vid=4d792978-04b8-4d9d-a4e5-25acbff07fed"},"vehicle_type_id":"4","last_reported":1748844974,"current_range_meters":16000,"station_id":"ce4bgi12rcd13ifvqb80","pricing_plan_id":"cebpf4jnsgd1na2vs0mg"},{"bike_id":"3da6faf4-1ab8-49b9-8407-65a68aeb8777","system_id":"levelo_inurba_marseille","lat":43.30188,"lon":5.36611,"is_reserved":false,"is_disabled":false,"rental_uris":{"android":"levelo://app?vid=3da6faf4-1ab8-49b9-8407-65a68aeb8777","ios":"levelo://app?vid=3da6faf4-1ab8-49b9-8407-65a68aeb8777"},"vehicle_type_id":"4","last_reported":1748844974,"current_range_meters":16000,"station_id":"ce4bgrh2rcd13ifvqc8g","pricing_plan_id":"cebpf4jnsgd1na2vs0mg"},{"bike_id":"da95f25b-27df-45f4-ae30-9fbde1b4f1a5","system_id":"levelo_inurba_marseille","lat":43.28814,"lon":5.50589,"is_reserved":false,"is_disabled":false,"rental_uris":{"android":"levelo://app?vid=da95f25b-27df-45f4-ae30-9fbde1b4f1a5","ios":"levelo://app?vid=da95f25b-27df-45f4-ae30-9fbde1b4f1a5"},"vehicle_type_id":"4","last_reported":1748844974,"current_range_meters":16000,"station_id":"","pricing_plan_id":"cebpf4jnsgd1na2vs0mg"},{"bike_id":"86f5507c-c2a3-4e1f-bcd0-04e296a63331","system_id":"levelo_inurba_marseille","lat":43.291887,"lon":5.393376,"is_reserved":false,"is_disabled":false,"rental_uris":{"android":"levelo://app?vid=86f5507c-c2a3-4e1f-bcd0-04e296a63331","ios":"levelo://app?vid=86f5507c-c2a3-4e1f-bcd0-04e296a63331"},"vehicle_type_id":"4","last_reported":1748844974,"current_range_meters":16000,"station_id":"ce4bh192rcd13ifvqdd0","pricing_plan_id":"cebpf4jnsgd1na2vs0mg"},{"bike_id":"d4eda3ef-c7a9-414f-a195-6126df0b45ff","system_id":"levelo_inurba_marseille","lat":43.27971,"lon":5.38711,"is_reserved":false,"is_disabled":false,"rental_uris":{"android":"levelo://app?vid=d4eda3ef-c7a9-414f-a195-6126df0b45ff","ios":"levelo://app?vid=d4eda3ef-c7a9-414f-a195-6126df0b45ff"},"vehicle_type_id":"4","last_reported":1748844974,"current_range_meters":16000,"station_id":"ce4bhg12rcd13ifvqf80","pricing_plan_id":"cebpf4jnsgd1na2vs0mg"},{"bike_id":"bac690e4-2de8-4772-b802-2affaff5cf4c","system_id":"levelo_inurba_marseille","lat":43.30463,"lon":5.37904,"is_reserved":false,"is_disabled":false,"rental_uris":{"android":"levelo://app?vid=bac690e4-2de8-4772-b802-2affaff5cf4c","ios":"levelo://app?vid=bac690e4-2de8-4772-b802-2affaff5cf4c"},"vehicle_type_id":"4","last_reported":1748844974,"current_range_meters":16000,"station_id":"ce4bgup2rcd13ifvqcn0","pricing_plan_id":"cebpf4jnsgd1na2vs0mg"},{"bike_id":"5635a678-885c-4ffb-a793-dc3b8a2a2755","system_id":"levelo_inurba_marseille","lat":43.32357,"lon":5.389,"is_reserved":false,"is_disabled":false,"rental_uris":{"android":"levelo://app?vid=5635a678-885c-4ffb-a793-dc3b8a2a2755","ios":"levelo://app?vid=5635a678-885c-4ffb-a793-dc3b8a2a2755"},"vehicle_type_id":"4","last_reported":1748844974,"current_range_meters":16000,"station_id":"ce4bhqp2rcd13ifvqhog","pricing_plan_id":"cebpf4jnsgd1na2vs0mg"},{"bike_id":"21335fe1-e361-4f25-9703-649c07cc251d","system_id":"levelo_inurba_marseille","lat":43.320079,"lon":5.368074,"is_reserved":false,"is_disabled":false,"rental_uris":{"android":"levelo://app?vid=21335fe1-e361-4f25-9703-649c07cc251d","ios":"levelo://app?vid=21335fe1-e361-4f25-9703-649c07cc251d"},"vehicle_type_id":"4","last_reported":1748844974,"current_range_meters":16400,"station_id":"","pricing_plan_id":"cebpf4jnsgd1na2vs0mg"},{"bike_id":"acd1377b-8a8c-445f-aa2f-4e5e84ae3171","system_id":"levelo_inurba_marseille","lat":43.29841,"lon":5.36262,"is_reserved":false,"is_disabled":false,"rental_uris":{"android":"levelo://app?vid=acd1377b-8a8c-445f-aa2f-4e5e84ae3171","ios":"levelo://app?vid=acd1377b-8a8c-445f-aa2f-4e5e84ae3171"},"vehicle_type_id":"4","last_reported":1748844974,"current_range_meters":16000,"station_id":"ce4bgpp2rcd13ifvqc3g","pricing_plan_id":"cebpf4jnsgd1na2vs0mg"},{"bike_id":"254af8d3-c1f8-47f1-98c4-62d71675f998","system_id":"levelo_inurba_marseille","lat":43.231732,"lon":5.437527,"is_reserved":false,"is_disabled":false,"rental_uris":{"android":"levelo://app?vid=254af8d3-c1f8-47f1-98c4-62d71675f998","ios":"levelo://app?vid=254af8d3-c1f8-47f1-98c4-62d71675f998"},"vehicle_type_id":"4","last_reported":1748844974,"current_range_meters":16400,"station_id":"ce4bhmp2rcd13ifvqgog","pricing_plan_id":"cebpf4jnsgd1na2vs0mg"},{"bike_id":"384bcd31-889c-481e-aa0e-9b6ac62cde92","system_id":"levelo_inurba_marseille","lat":43.29285,"lon":5.40123,"is_reserved":false,"is_disabled":false,"rental_uris":{"android":"levelo://app?vid=384bcd31-889c-481e-aa0e-9b6ac62cde92","ios":"levelo://app?vid=384bcd31-889c-481e-aa0e-9b6ac62cde92"},"vehicle_type_id":"4","last_reported":1748844974,"current_range_meters":16400,"station_id":"ce4bh312rcd13ifvqdk0","pricing_plan_id":"cebpf4jnsgd1na2vs0mg"},{"bike_id":"cb1aac20-660d-4e28-a3b9-e9200dc658a2","system_id":"levelo_inurba_marseille","lat":43.293745,"lon":5.37859,"is_reserved":false,"is_disabled":false,"rental_uris":{"android":"levelo://app?vid=cb1aac20-660d-4e28-a3b9-e9200dc658a2","ios":"levelo://app?vid=cb1aac20-660d-4e28-a3b9-e9200dc658a2"},"vehicle_type_id":"4","last_reported":1748844974,"current_range_meters":16400,"station_id":"ce4bgjh2rcd13ifvqbf0","pricing_plan_id":"cebpf4jnsgd1na2vs0mg"},{"bike_id":"c20dac32-fab1-4bcb-8ab0-18de71af3ddd","system_id":"levelo_inurba_marseille","lat":43.28361,"lon":5.38098,"is_reserved":false,"is_disabled":false,"rental_uris":{"android":"levelo://app?vid=c20dac32-fab1-4bcb-8ab0-18de71af3ddd","ios":"levelo://app?vid=c20dac32-fab1-4bcb-8ab0-18de71af3ddd"},"vehicle_type_id":"4","last_reported":1748844974,"current_range_meters":16400,"station_id":"ce4bh412rcd13ifvqdr0","pricing_plan_id":"cebpf4jnsgd1na2vs0mg"},{"bike_id":"8f8db83b-93a4-4fb2-b181-50b98bfbfc20","system_id":"levelo_inurba_marseille","lat":43.27939,"lon":5.38898,"is_reserved":false,"is_disabled":false,"rental_uris":{"android":"levelo://app?vid=8f8db83b-93a4-4fb2-b181-50b98bfbfc20","ios":"levelo://app?vid=8f8db83b-93a4-4fb2-b181-50b98bfbfc20"},"vehicle_type_id":"4","last_reported":1748844974,"current_range_meters":16400,"station_id":"","pricing_plan_id":"cebpf4jnsgd1na2vs0mg"},{"bike_id":"197b20a9-fb45-4c71-b59f-2c5f5881928f","system_id":"levelo_inurba_marseille","lat":43.295851,"lon":5.375021,"is_reserved":false,"is_disabled":true,"rental_uris":{"android":"levelo://app?vid=197b20a9-fb45-4c71-b59f-2c5f5881928f","ios":"levelo://app?vid=197b20a9-fb45-4c71-b59f-2c5f5881928f"},"vehicle_type_id":"4","last_reported":1748844974,"current_range_meters":16800,"station_id":"ce4bgh92rcd13ifvqb50","pricing_plan_id":"cebpf4jnsgd1na2vs0mg"},{"bike_id":"90725682-4229-4dbf-82c1-ddb4ea901585","system_id":"levelo_inurba_marseille","lat":43.24072,"lon":5.37761,"is_reserved":false,"is_disabled":false,"rental_uris":{"android":"levelo://app?vid=90725682-4229-4dbf-82c1-ddb4ea901585","ios":"levelo://app?vid=90725682-4229-4dbf-82c1-ddb4ea901585"},"vehicle_type_id":"4","last_reported":1748844974,"current_range_meters":16800,"station_id":"ce4bhnp2rcd13ifvqgvg","pricing_plan_id":"cebpf4jnsgd1na2vs0mg"},{"bike_id":"dd3e713b-964e-4d60-bb1e-4e11b7e33bdb","system_id":"levelo_inurba_marseille","lat":43.30135,"lon":5.38069,"is_reserved":false,"is_disabled":false,"rental_uris":{"android":"levelo://app?vid=dd3e713b-964e-4d60-bb1e-4e11b7e33bdb","ios":"levelo://app?vid=dd3e713b-964e-4d60-bb1e-4e11b7e33bdb"},"vehicle_type_id":"4","last_reported":1748844974,"current_range_meters":16800,"station_id":"ce4bgjp2rcd13ifvqbh0","pricing_plan_id":"cebpf4jnsgd1na2vs0mg"},{"bike_id":"f4b0b884-376f-450e-853e-7c03e9f30767","system_id":"levelo_inurba_marseille","lat":43.24184,"lon":5.36429,"is_reserved":false,"is_disabled":false,"rental_uris":{"android":"levelo://app?vid=f4b0b884-376f-450e-853e-7c03e9f30767","ios":"levelo://app?vid=f4b0b884-376f-450e-853e-7c03e9f30767"},"vehicle_type_id":"4","last_reported":1748844974,"current_range_meters":16800,"station_id":"cpo36qri1sfpv3e86is0","pricing_plan_id":"cebpf4jnsgd1na2vs0mg"},{"bike_id":"57fc4e02-5add-4daf-a457-06ecba1d6ad6","system_id":"levelo_inurba_marseille","lat":43.337604,"lon":5.374619,"is_reserved":false,"is_disabled":false,"rental_uris":{"android":"levelo://app?vid=57fc4e02-5add-4daf-a457-06ecba1d6ad6","ios":"levelo://app?vid=57fc4e02-5add-4daf-a457-06ecba1d6ad6"},"vehicle_type_id":"4","last_reported":1748844974,"current_range_meters":16800,"station_id":"","pricing_plan_id":"cebpf4jnsgd1na2vs0mg"},{"bike_id":"0d16f474-0514-4105-a3d8-0c17198701df","system_id":"levelo_inurba_marseille","lat":43.243866,"lon":5.370662,"is_reserved":false,"is_disabled":true,"rental_uris":{"android":"levelo://app?vid=0d16f474-0514-4105-a3d8-0c17198701df","ios":"levelo://app?vid=0d16f474-0514-4105-a3d8-0c17198701df"},"vehicle_type_id":"4","last_reported":1748844974,"current_range_meters":16800,"station_id":"ce4bhhh2rcd13ifvqfk0","pricing_plan_id":"cebpf4jnsgd1na2vs0mg"},{"bike_id":"4063732c-cd93-49c1-bcfd-ee32003fc91a","system_id":"levelo_inurba_marseille","lat":43.290265,"lon":5.37557,"is_reserved":false,"is_disabled":false,"rental_uris":{"android":"levelo://app?vid=4063732c-cd93-49c1-bcfd-ee32003fc91a","ios":"levelo://app?vid=4063732c-cd93-49c1-bcfd-ee32003fc91a"},"vehicle_type_id":"4","last_reported":1748844974,"current_range_meters":16800,"station_id":"ce4bh692rcd13ifvqe90","pricing_plan_id":"cebpf4jnsgd1na2vs0mg"},{"bike_id":"b123bdac-05c4-4231-92dc-1536e84c5da4","system_id":"levelo_inurba_marseille","lat":43.29752,"lon":5.37682,"is_reserved":false,"is_disabled":false,"rental_uris":{"android":"levelo://app?vid=b123bdac-05c4-4231-92dc-1536e84c5da4","ios":"levelo://app?vid=b123bdac-05c4-4231-92dc-1536e84c5da4"},"vehicle_type_id":"4","last_reported":1748844974,"current_range_meters":16800,"station_id":"","pricing_plan_id":"cebpf4jnsgd1na2vs0mg"},{"bike_id":"653a2aae-3b8d-49c9-b867-523e60951faf","system_id":"levelo_inurba_marseille","lat":43.29033,"lon":5.39965,"is_reserved":false,"is_disabled":false,"rental_uris":{"android":"levelo://app?vid=653a2aae-3b8d-49c9-b867-523e60951faf","ios":"levelo://app?vid=653a2aae-3b8d-49c9-b867-523e60951faf"},"vehicle_type_id":"4","last_reported":1748844974,"current_range_meters":16800,"station_id":"ce4bh392rcd13ifvqdm0","pricing_plan_id":"cebpf4jnsgd1na2vs0mg"},{"bike_id":"9d86dbd1-067d-469f-9039-aa45c3743fb0","system_id":"levelo_inurba_marseille","lat":43.28801,"lon":5.40031,"is_reserved":false,"is_disabled":false,"rental_uris":{"android":"levelo://app?vid=9d86dbd1-067d-469f-9039-aa45c3743fb0","ios":"levelo://app?vid=9d86dbd1-067d-469f-9039-aa45c3743fb0"},"vehicle_type_id":"4","last_reported":1748844974,"current_range_meters":17200,"station_id":"","pricing_plan_id":"cebpf4jnsgd1na2vs0mg"},{"bike_id":"d75e891f-8f27-4480-a077-13c5170ef76e","system_id":"levelo_inurba_marseille","lat":43.3016,"lon":5.3807,"is_reserved":false,"is_disabled":false,"rental_uris":{"android":"levelo://app?vid=d75e891f-8f27-4480-a077-13c5170ef76e","ios":"levelo://app?vid=d75e891f-8f27-4480-a077-13c5170ef76e"},"vehicle_type_id":"4","last_reported":1748844974,"current_range_meters":17200,"station_id":"ce4bgjp2rcd13ifvqbh0","pricing_plan_id":"cebpf4jnsgd1na2vs0mg"},{"bike_id":"b301bb9a-e3e8-4b82-8e44-66fe01208815","system_id":"levelo_inurba_marseille","lat":43.32003,"lon":5.3818,"is_reserved":false,"is_disabled":false,"rental_uris":{"android":"levelo://app?vid=b301bb9a-e3e8-4b82-8e44-66fe01208815","ios":"levelo://app?vid=b301bb9a-e3e8-4b82-8e44-66fe01208815"},"vehicle_type_id":"4","last_reported":1748844974,"current_range_meters":17200,"station_id":"ce4bhr12rcd13ifvqhpg","pricing_plan_id":"cebpf4jnsgd1na2vs0mg"},{"bike_id":"c9dc96b0-c7cf-4f08-a4cb-5530095f9119","system_id":"levelo_inurba_marseille","lat":43.29709,"lon":5.36608,"is_reserved":false,"is_disabled":false,"rental_uris":{"android":"levelo://app?vid=c9dc96b0-c7cf-4f08-a4cb-5530095f9119","ios":"levelo://app?vid=c9dc96b0-c7cf-4f08-a4cb-5530095f9119"},"vehicle_type_id":"4","last_reported":1748844974,"current_range_meters":17200,"station_id":"ce4bgn12rcd13ifvqbt0","pricing_plan_id":"cebpf4jnsgd1na2vs0mg"},{"bike_id":"ccb25172-d442-4d71-b537-765d43bdb5fb","system_id":"levelo_inurba_marseille","lat":43.2943,"lon":5.38608,"is_reserved":false,"is_disabled":false,"rental_uris":{"android":"levelo://app?vid=ccb25172-d442-4d71-b537-765d43bdb5fb","ios":"levelo://app?vid=ccb25172-d442-4d71-b537-765d43bdb5fb"},"vehicle_type_id":"4","last_reported":1748844974,"current_range_meters":17200,"station_id":"ce4bh2h2rcd13ifvqdh0","pricing_plan_id":"cebpf4jnsgd1na2vs0mg"},{"bike_id":"fcd2c421-e953-4837-a48a-9e8883cde713","system_id":"levelo_inurba_marseille","lat":43.27683,"lon":5.38866,"is_reserved":false,"is_disabled":false,"rental_uris":{"android":"levelo://app?vid=fcd2c421-e953-4837-a48a-9e8883cde713","ios":"levelo://app?vid=fcd2c421-e953-4837-a48a-9e8883cde713"},"vehicle_type_id":"4","last_reported":1748844974,"current_range_meters":17200,"station_id":"ce4bhi12rcd13ifvqfo0","pricing_plan_id":"cebpf4jnsgd1na2vs0mg"},{"bike_id":"83883386-e602-432d-b537-191d71f902c7","system_id":"levelo_inurba_marseille","lat":43.29797,"lon":5.38113,"is_reserved":false,"is_disabled":false,"rental_uris":{"android":"levelo://app?vid=83883386-e602-432d-b537-191d71f902c7","ios":"levelo://app?vid=83883386-e602-432d-b537-191d71f902c7"},"vehicle_type_id":"4","last_reported":1748844974,"current_range_meters":17200,"station_id":"ce4bgip2rcd13ifvqbb0","pricing_plan_id":"cebpf4jnsgd1na2vs0mg"},{"bike_id":"e6cade14-f0e5-462d-a25e-494a5fbe8c1c","system_id":"levelo_inurba_marseille","lat":43.24399,"lon":5.37083,"is_reserved":false,"is_disabled":true,"rental_uris":{"android":"levelo://app?vid=e6cade14-f0e5-462d-a25e-494a5fbe8c1c","ios":"levelo://app?vid=e6cade14-f0e5-462d-a25e-494a5fbe8c1c"},"vehicle_type_id":"4","last_reported":1748844974,"current_range_meters":17200,"station_id":"ce4bhhh2rcd13ifvqfk0","pricing_plan_id":"cebpf4jnsgd1na2vs0mg"},{"bike_id":"dd9ec26c-f7b4-46a4-b0e7-38a1fd125a23","system_id":"levelo_inurba_marseille","lat":43.251134,"lon":5.403253,"is_reserved":false,"is_disabled":false,"rental_uris":{"android":"levelo://app?vid=dd9ec26c-f7b4-46a4-b0e7-38a1fd125a23","ios":"levelo://app?vid=dd9ec26c-f7b4-46a4-b0e7-38a1fd125a23"},"vehicle_type_id":"4","last_reported":1748844974,"current_range_meters":17200,"station_id":"ce4bhlh2rcd13ifvqgig","pricing_plan_id":"cebpf4jnsgd1na2vs0mg"},{"bike_id":"54118256-087c-43a9-9b13-3e1a44a8703a","system_id":"levelo_inurba_marseille","lat":43.31992,"lon":5.38133,"is_reserved":false,"is_disabled":false,"rental_uris":{"android":"levelo://app?vid=54118256-087c-43a9-9b13-3e1a44a8703a","ios":"levelo://app?vid=54118256-087c-43a9-9b13-3e1a44a8703a"},"vehicle_type_id":"4","last_reported":1748844974,"current_range_meters":17200,"station_id":"ce4bhr12rcd13ifvqhpg","pricing_plan_id":"cebpf4jnsgd1na2vs0mg"},{"bike_id":"1cbd4534-6a18-48be-8bf4-bba7eca62dbf","system_id":"levelo_inurba_marseille","lat":43.30463,"lon":5.37906,"is_reserved":false,"is_disabled":false,"rental_uris":{"android":"levelo://app?vid=1cbd4534-6a18-48be-8bf4-bba7eca62dbf","ios":"levelo://app?vid=1cbd4534-6a18-48be-8bf4-bba7eca62dbf"},"vehicle_type_id":"4","last_reported":1748844974,"current_range_meters":17600,"station_id":"ce4bgup2rcd13ifvqcn0","pricing_plan_id":"cebpf4jnsgd1na2vs0mg"},{"bike_id":"d9e8adde-ab4e-4555-9c3a-318be610c0e8","system_id":"levelo_inurba_marseille","lat":43.241659,"lon":5.364004,"is_reserved":false,"is_disabled":false,"rental_uris":{"android":"levelo://app?vid=d9e8adde-ab4e-4555-9c3a-318be610c0e8","ios":"levelo://app?vid=d9e8adde-ab4e-4555-9c3a-318be610c0e8"},"vehicle_type_id":"4","last_reported":1748844974,"current_range_meters":17600,"station_id":"cpo36qri1sfpv3e86is0","pricing_plan_id":"cebpf4jnsgd1na2vs0mg"},{"bike_id":"c7e58958-5199-4f96-9f5d-f848d1261128","system_id":"levelo_inurba_marseille","lat":43.240775,"lon":5.37719,"is_reserved":false,"is_disabled":false,"rental_uris":{"android":"levelo://app?vid=c7e58958-5199-4f96-9f5d-f848d1261128","ios":"levelo://app?vid=c7e58958-5199-4f96-9f5d-f848d1261128"},"vehicle_type_id":"4","last_reported":1748844974,"current_range_meters":17600,"station_id":"ce4bhnp2rcd13ifvqgvg","pricing_plan_id":"cebpf4jnsgd1na2vs0mg"},{"bike_id":"0e5560e7-4046-4c02-ac16-7431c9d6e2e2","system_id":"levelo_inurba_marseille","lat":43.34142,"lon":5.409,"is_reserved":false,"is_disabled":false,"rental_uris":{"android":"levelo://app?vid=0e5560e7-4046-4c02-ac16-7431c9d6e2e2","ios":"levelo://app?vid=0e5560e7-4046-4c02-ac16-7431c9d6e2e2"},"vehicle_type_id":"4","last_reported":1748844974,"current_range_meters":17600,"station_id":"ce4bhqh2rcd13ifvqhlg","pricing_plan_id":"cebpf4jnsgd1na2vs0mg"},{"bike_id":"5bf650cc-7d9d-46cd-98d7-5b8c3fab5635","system_id":"levelo_inurba_marseille","lat":43.2511,"lon":5.4032,"is_reserved":false,"is_disabled":false,"rental_uris":{"android":"levelo://app?vid=5bf650cc-7d9d-46cd-98d7-5b8c3fab5635","ios":"levelo://app?vid=5bf650cc-7d9d-46cd-98d7-5b8c3fab5635"},"vehicle_type_id":"4","last_reported":1748844974,"current_range_meters":17600,"station_id":"ce4bhlh2rcd13ifvqgig","pricing_plan_id":"cebpf4jnsgd1na2vs0mg"},{"bike_id":"6dfd9afb-ac57-4f1f-9549-68c93683190f","system_id":"levelo_inurba_marseille","lat":43.30919,"lon":5.36843,"is_reserved":false,"is_disabled":false,"rental_uris":{"android":"levelo://app?vid=6dfd9afb-ac57-4f1f-9549-68c93683190f","ios":"levelo://app?vid=6dfd9afb-ac57-4f1f-9549-68c93683190f"},"vehicle_type_id":"4","last_reported":1748844974,"current_range_meters":17600,"station_id":"ce4bgn92rcd13ifvqbvg","pricing_plan_id":"cebpf4jnsgd1na2vs0mg"},{"bike_id":"5a0e0f1c-52fd-4d57-97db-b7eef0a55ff6","system_id":"levelo_inurba_marseille","lat":43.30286,"lon":5.37705,"is_reserved":false,"is_disabled":false,"rental_uris":{"android":"levelo://app?vid=5a0e0f1c-52fd-4d57-97db-b7eef0a55ff6","ios":"levelo://app?vid=5a0e0f1c-52fd-4d57-97db-b7eef0a55ff6"},"vehicle_type_id":"4","last_reported":1748844974,"current_range_meters":17600,"station_id":"ce4bguh2rcd13ifvqcj0","pricing_plan_id":"cebpf4jnsgd1na2vs0mg"},{"bike_id":"007d31f6-8a68-466a-a0b8-9953d1f293c0","system_id":"levelo_inurba_marseille","lat":43.295657,"lon":5.399727,"is_reserved":false,"is_disabled":false,"rental_uris":{"android":"levelo://app?vid=007d31f6-8a68-466a-a0b8-9953d1f293c0","ios":"levelo://app?vid=007d31f6-8a68-466a-a0b8-9953d1f293c0"},"vehicle_type_id":"4","last_reported":1748844974,"current_range_meters":17600,"station_id":"","pricing_plan_id":"cebpf4jnsgd1na2vs0mg"},{"bike_id":"352d19a7-b57a-484c-ab56-9346108e4a68","system_id":"levelo_inurba_marseille","lat":43.32602,"lon":5.37769,"is_reserved":false,"is_disabled":false,"rental_uris":{"android":"levelo://app?vid=352d19a7-b57a-484c-ab56-9346108e4a68","ios":"levelo://app?vid=352d19a7-b57a-484c-ab56-9346108e4a68"},"vehicle_type_id":"4","last_reported":1748844974,"current_range_meters":17600,"station_id":"","pricing_plan_id":"cebpf4jnsgd1na2vs0mg"},{"bike_id":"9ce406e4-c7d5-40ff-8704-929b2c1093e1","system_id":"levelo_inurba_marseille","lat":43.30468,"lon":5.379,"is_reserved":false,"is_disabled":false,"rental_uris":{"android":"levelo://app?vid=9ce406e4-c7d5-40ff-8704-929b2c1093e1","ios":"levelo://app?vid=9ce406e4-c7d5-40ff-8704-929b2c1093e1"},"vehicle_type_id":"4","last_reported":1748844974,"current_range_meters":18000,"station_id":"ce4bgup2rcd13ifvqcn0","pricing_plan_id":"cebpf4jnsgd1na2vs0mg"},{"bike_id":"627d486b-d4b4-4e02-ac35-16b4dfc93a85","system_id":"levelo_inurba_marseille","lat":43.305037,"lon":5.37455,"is_reserved":false,"is_disabled":true,"rental_uris":{"android":"levelo://app?vid=627d486b-d4b4-4e02-ac35-16b4dfc93a85","ios":"levelo://app?vid=627d486b-d4b4-4e02-ac35-16b4dfc93a85"},"vehicle_type_id":"4","last_reported":1748844974,"current_range_meters":18000,"station_id":"","pricing_plan_id":"cebpf4jnsgd1na2vs0mg"},{"bike_id":"8330db2b-5b87-4f13-a65e-1864bc6b5f0f","system_id":"levelo_inurba_marseille","lat":43.305298,"lon":5.365364,"is_reserved":false,"is_disabled":true,"rental_uris":{"android":"levelo://app?vid=8330db2b-5b87-4f13-a65e-1864bc6b5f0f","ios":"levelo://app?vid=8330db2b-5b87-4f13-a65e-1864bc6b5f0f"},"vehicle_type_id":"4","last_reported":1748844974,"current_range_meters":18000,"station_id":"ce4bgs12rcd13ifvqcag","pricing_plan_id":"cebpf4jnsgd1na2vs0mg"},{"bike_id":"8397b0e0-6576-4eaa-bb44-a841dc804263","system_id":"levelo_inurba_marseille","lat":43.27494,"lon":5.42456,"is_reserved":false,"is_disabled":false,"rental_uris":{"android":"levelo://app?vid=8397b0e0-6576-4eaa-bb44-a841dc804263","ios":"levelo://app?vid=8397b0e0-6576-4eaa-bb44-a841dc804263"},"vehicle_type_id":"4","last_reported":1748844974,"current_range_meters":18000,"station_id":"ce4bhn92rcd13ifvqgrg","pricing_plan_id":"cebpf4jnsgd1na2vs0mg"},{"bike_id":"b379e7d0-fa73-4360-8e42-5ad80a250d80","system_id":"levelo_inurba_marseille","lat":43.294213,"lon":5.386121,"is_reserved":false,"is_disabled":false,"rental_uris":{"android":"levelo://app?vid=b379e7d0-fa73-4360-8e42-5ad80a250d80","ios":"levelo://app?vid=b379e7d0-fa73-4360-8e42-5ad80a250d80"},"vehicle_type_id":"4","last_reported":1748844974,"current_range_meters":18000,"station_id":"ce4bh2h2rcd13ifvqdh0","pricing_plan_id":"cebpf4jnsgd1na2vs0mg"},{"bike_id":"df8b4c43-2937-4581-b8eb-d504a5310bef","system_id":"levelo_inurba_marseille","lat":43.25123,"lon":5.40324,"is_reserved":false,"is_disabled":false,"rental_uris":{"android":"levelo://app?vid=df8b4c43-2937-4581-b8eb-d504a5310bef","ios":"levelo://app?vid=df8b4c43-2937-4581-b8eb-d504a5310bef"},"vehicle_type_id":"4","last_reported":1748844974,"current_range_meters":18000,"station_id":"ce4bhlh2rcd13ifvqgig","pricing_plan_id":"cebpf4jnsgd1na2vs0mg"},{"bike_id":"e9764459-1bed-4088-b332-29d742f71e99","system_id":"levelo_inurba_marseille","lat":43.28708,"lon":5.39958,"is_reserved":false,"is_disabled":false,"rental_uris":{"android":"levelo://app?vid=e9764459-1bed-4088-b332-29d742f71e99","ios":"levelo://app?vid=e9764459-1bed-4088-b332-29d742f71e99"},"vehicle_type_id":"4","last_reported":1748844974,"current_range_meters":18000,"station_id":"ce4bho92rcd13ifvqh3g","pricing_plan_id":"cebpf4jnsgd1na2vs0mg"},{"bike_id":"39d9595c-2bba-4b57-a5e8-a949c25430ef","system_id":"levelo_inurba_marseille","lat":43.274809,"lon":5.439626,"is_reserved":false,"is_disabled":false,"rental_uris":{"android":"levelo://app?vid=39d9595c-2bba-4b57-a5e8-a949c25430ef","ios":"levelo://app?vid=39d9595c-2bba-4b57-a5e8-a949c25430ef"},"vehicle_type_id":"4","last_reported":1748844974,"current_range_meters":18000,"station_id":"","pricing_plan_id":"cebpf4jnsgd1na2vs0mg"},{"bike_id":"34478196-162f-413f-bd4c-0fe7fd5480e9","system_id":"levelo_inurba_marseille","lat":43.30475,"lon":5.37905,"is_reserved":false,"is_disabled":false,"rental_uris":{"android":"levelo://app?vid=34478196-162f-413f-bd4c-0fe7fd5480e9","ios":"levelo://app?vid=34478196-162f-413f-bd4c-0fe7fd5480e9"},"vehicle_type_id":"4","last_reported":1748844974,"current_range_meters":18800,"station_id":"ce4bgup2rcd13ifvqcn0","pricing_plan_id":"cebpf4jnsgd1na2vs0mg"},{"bike_id":"68731f35-0145-4e1c-8582-e3f64bbf13d1","system_id":"levelo_inurba_marseille","lat":43.28726,"lon":5.36432,"is_reserved":false,"is_disabled":false,"rental_uris":{"android":"levelo://app?vid=68731f35-0145-4e1c-8582-e3f64bbf13d1","ios":"levelo://app?vid=68731f35-0145-4e1c-8582-e3f64bbf13d1"},"vehicle_type_id":"4","last_reported":1748844974,"current_range_meters":18800,"station_id":"","pricing_plan_id":"cebpf4jnsgd1na2vs0mg"},{"bike_id":"47eed3d9-f0d2-4eca-a687-1758871fc250","system_id":"levelo_inurba_marseille","lat":43.301543,"lon":5.380787,"is_reserved":false,"is_disabled":false,"rental_uris":{"android":"levelo://app?vid=47eed3d9-f0d2-4eca-a687-1758871fc250","ios":"levelo://app?vid=47eed3d9-f0d2-4eca-a687-1758871fc250"},"vehicle_type_id":"4","last_reported":1748844974,"current_range_meters":18800,"station_id":"ce4bgjp2rcd13ifvqbh0","pricing_plan_id":"cebpf4jnsgd1na2vs0mg"},{"bike_id":"245863db-4ec2-4fc4-ad5b-9e28017ff01f","system_id":"levelo_inurba_marseille","lat":43.298961,"lon":5.436671,"is_reserved":false,"is_disabled":false,"rental_uris":{"android":"levelo://app?vid=245863db-4ec2-4fc4-ad5b-9e28017ff01f","ios":"levelo://app?vid=245863db-4ec2-4fc4-ad5b-9e28017ff01f"},"vehicle_type_id":"4","last_reported":1748844974,"current_range_meters":18800,"station_id":"ce4bhpp2rcd13ifvqhfg","pricing_plan_id":"cebpf4jnsgd1na2vs0mg"},{"bike_id":"a2baceb5-eff0-45de-ae00-9172b7ee2d7b","system_id":"levelo_inurba_marseille","lat":43.31263,"lon":5.37609,"is_reserved":false,"is_disabled":false,"rental_uris":{"android":"levelo://app?vid=a2baceb5-eff0-45de-ae00-9172b7ee2d7b","ios":"levelo://app?vid=a2baceb5-eff0-45de-ae00-9172b7ee2d7b"},"vehicle_type_id":"4","last_reported":1748844974,"current_range_meters":18800,"station_id":"","pricing_plan_id":"cebpf4jnsgd1na2vs0mg"},{"bike_id":"ac403472-0d3b-42df-8fb8-97c1f0cb284c","system_id":"levelo_inurba_marseille","lat":43.27938,"lon":5.41048,"is_reserved":false,"is_disabled":false,"rental_uris":{"android":"levelo://app?vid=ac403472-0d3b-42df-8fb8-97c1f0cb284c","ios":"levelo://app?vid=ac403472-0d3b-42df-8fb8-97c1f0cb284c"},"vehicle_type_id":"4","last_reported":1748844974,"current_range_meters":18800,"station_id":"ce4bhnp2rcd13ifvqh0g","pricing_plan_id":"cebpf4jnsgd1na2vs0mg"},{"bike_id":"4f0d725e-2baf-4115-8dd7-72461190b0bf","system_id":"levelo_inurba_marseille","lat":43.26178,"lon":5.374517,"is_reserved":false,"is_disabled":true,"rental_uris":{"android":"levelo://app?vid=4f0d725e-2baf-4115-8dd7-72461190b0bf","ios":"levelo://app?vid=4f0d725e-2baf-4115-8dd7-72461190b0bf"},"vehicle_type_id":"4","last_reported":1748844974,"current_range_meters":18800,"station_id":"ce4bhgp2rcd13ifvqfc0","pricing_plan_id":"cebpf4jnsgd1na2vs0mg"},{"bike_id":"10e933de-9219-43e0-8d98-07b347a4c5e1","system_id":"levelo_inurba_marseille","lat":43.25014,"lon":5.38919,"is_reserved":false,"is_disabled":false,"rental_uris":{"android":"levelo://app?vid=10e933de-9219-43e0-8d98-07b347a4c5e1","ios":"levelo://app?vid=10e933de-9219-43e0-8d98-07b347a4c5e1"},"vehicle_type_id":"4","last_reported":1748844974,"current_range_meters":18800,"station_id":"ce4bhgp2rcd13ifvqfd0","pricing_plan_id":"cebpf4jnsgd1na2vs0mg"},{"bike_id":"2c31f545-d593-42ba-84da-ae0b34b2d226","system_id":"levelo_inurba_marseille","lat":43.28936,"lon":5.3823,"is_reserved":false,"is_disabled":false,"rental_uris":{"android":"levelo://app?vid=2c31f545-d593-42ba-84da-ae0b34b2d226","ios":"levelo://app?vid=2c31f545-d593-42ba-84da-ae0b34b2d226"},"vehicle_type_id":"4","last_reported":1748844974,"current_range_meters":18800,"station_id":"","pricing_plan_id":"cebpf4jnsgd1na2vs0mg"},{"bike_id":"21e47c77-de9d-4ba0-91d3-fe30dc7e7c5a","system_id":"levelo_inurba_marseille","lat":43.28352,"lon":5.381,"is_reserved":false,"is_disabled":false,"rental_uris":{"android":"levelo://app?vid=21e47c77-de9d-4ba0-91d3-fe30dc7e7c5a","ios":"levelo://app?vid=21e47c77-de9d-4ba0-91d3-fe30dc7e7c5a"},"vehicle_type_id":"4","last_reported":1748844974,"current_range_meters":18800,"station_id":"ce4bh412rcd13ifvqdr0","pricing_plan_id":"cebpf4jnsgd1na2vs0mg"},{"bike_id":"34a3078b-8647-4751-a0c2-c3d0de020f01","system_id":"levelo_inurba_marseille","lat":43.27953,"lon":5.41038,"is_reserved":false,"is_disabled":false,"rental_uris":{"android":"levelo://app?vid=34a3078b-8647-4751-a0c2-c3d0de020f01","ios":"levelo://app?vid=34a3078b-8647-4751-a0c2-c3d0de020f01"},"vehicle_type_id":"4","last_reported":1748844974,"current_range_meters":18800,"station_id":"ce4bhnp2rcd13ifvqh0g","pricing_plan_id":"cebpf4jnsgd1na2vs0mg"},{"bike_id":"cb5d153f-c4e6-40f0-8113-fa0f41a11bdd","system_id":"levelo_inurba_marseille","lat":43.319963,"lon":5.381439,"is_reserved":false,"is_disabled":false,"rental_uris":{"android":"levelo://app?vid=cb5d153f-c4e6-40f0-8113-fa0f41a11bdd","ios":"levelo://app?vid=cb5d153f-c4e6-40f0-8113-fa0f41a11bdd"},"vehicle_type_id":"4","last_reported":1748844974,"current_range_meters":19200,"station_id":"ce4bhr12rcd13ifvqhpg","pricing_plan_id":"cebpf4jnsgd1na2vs0mg"},{"bike_id":"9fcc5156-0aa0-401f-a1ef-568f1f455ab1","system_id":"levelo_inurba_marseille","lat":43.30556,"lon":5.36524,"is_reserved":false,"is_disabled":false,"rental_uris":{"android":"levelo://app?vid=9fcc5156-0aa0-401f-a1ef-568f1f455ab1","ios":"levelo://app?vid=9fcc5156-0aa0-401f-a1ef-568f1f455ab1"},"vehicle_type_id":"4","last_reported":1748844974,"current_range_meters":18800,"station_id":"ce4bgs12rcd13ifvqcag","pricing_plan_id":"cebpf4jnsgd1na2vs0mg"},{"bike_id":"b3c84680-d01b-4840-8e64-0ab7a5c9edd3","system_id":"levelo_inurba_marseille","lat":43.274947,"lon":5.424649,"is_reserved":false,"is_disabled":false,"rental_uris":{"android":"levelo://app?vid=b3c84680-d01b-4840-8e64-0ab7a5c9edd3","ios":"levelo://app?vid=b3c84680-d01b-4840-8e64-0ab7a5c9edd3"},"vehicle_type_id":"4","last_reported":1748844974,"current_range_meters":19200,"station_id":"ce4bhn92rcd13ifvqgrg","pricing_plan_id":"cebpf4jnsgd1na2vs0mg"},{"bike_id":"8aa9afb6-50a2-4859-ada6-e34a13f27efc","system_id":"levelo_inurba_marseille","lat":43.296299,"lon":5.405995,"is_reserved":false,"is_disabled":false,"rental_uris":{"android":"levelo://app?vid=8aa9afb6-50a2-4859-ada6-e34a13f27efc","ios":"levelo://app?vid=8aa9afb6-50a2-4859-ada6-e34a13f27efc"},"vehicle_type_id":"4","last_reported":1748844974,"current_range_meters":19200,"station_id":"ce4bh0h2rcd13ifvqd60","pricing_plan_id":"cebpf4jnsgd1na2vs0mg"},{"bike_id":"e75d8fdf-622c-4544-a368-080e0a4c2415","system_id":"levelo_inurba_marseille","lat":43.32533,"lon":5.42526,"is_reserved":false,"is_disabled":false,"rental_uris":{"android":"levelo://app?vid=e75d8fdf-622c-4544-a368-080e0a4c2415","ios":"levelo://app?vid=e75d8fdf-622c-4544-a368-080e0a4c2415"},"vehicle_type_id":"4","last_reported":1748844974,"current_range_meters":19200,"station_id":"","pricing_plan_id":"cebpf4jnsgd1na2vs0mg"},{"bike_id":"fac848d1-5670-4450-8b83-70ed5974fc8a","system_id":"levelo_inurba_marseille","lat":43.2866,"lon":5.36346,"is_reserved":false,"is_disabled":true,"rental_uris":{"android":"levelo://app?vid=fac848d1-5670-4450-8b83-70ed5974fc8a","ios":"levelo://app?vid=fac848d1-5670-4450-8b83-70ed5974fc8a"},"vehicle_type_id":"4","last_reported":1748844974,"current_range_meters":19200,"station_id":"ce4bhah2rcd13ifvqej0","pricing_plan_id":"cebpf4jnsgd1na2vs0mg"},{"bike_id":"68739168-47ce-43e7-9876-2bc4d1e55de5","system_id":"levelo_inurba_marseille","lat":43.34817,"lon":5.35809,"is_reserved":false,"is_disabled":false,"rental_uris":{"android":"levelo://app?vid=68739168-47ce-43e7-9876-2bc4d1e55de5","ios":"levelo://app?vid=68739168-47ce-43e7-9876-2bc4d1e55de5"},"vehicle_type_id":"4","last_reported":1748844974,"current_range_meters":19200,"station_id":"","pricing_plan_id":"cebpf4jnsgd1na2vs0mg"},{"bike_id":"6fbf14bd-1aa2-48c0-b1b4-a450def241aa","system_id":"levelo_inurba_marseille","lat":43.289961,"lon":5.425976,"is_reserved":false,"is_disabled":false,"rental_uris":{"android":"levelo://app?vid=6fbf14bd-1aa2-48c0-b1b4-a450def241aa","ios":"levelo://app?vid=6fbf14bd-1aa2-48c0-b1b4-a450def241aa"},"vehicle_type_id":"4","last_reported":1748844974,"current_range_meters":19600,"station_id":"","pricing_plan_id":"cebpf4jnsgd1na2vs0mg"},{"bike_id":"7d08f0ad-d7b2-4710-a528-f386de2461ad","system_id":"levelo_inurba_marseille","lat":43.256866,"lon":5.410462,"is_reserved":false,"is_disabled":false,"rental_uris":{"android":"levelo://app?vid=7d08f0ad-d7b2-4710-a528-f386de2461ad","ios":"levelo://app?vid=7d08f0ad-d7b2-4710-a528-f386de2461ad"},"vehicle_type_id":"4","last_reported":1748844974,"current_range_meters":19600,"station_id":"ce4bhkp2rcd13ifvqgd0","pricing_plan_id":"cebpf4jnsgd1na2vs0mg"},{"bike_id":"8d92e48b-8cc0-45db-b47e-b73b41c9b58c","system_id":"levelo_inurba_marseille","lat":43.260639,"lon":5.393902,"is_reserved":false,"is_disabled":true,"rental_uris":{"android":"levelo://app?vid=8d92e48b-8cc0-45db-b47e-b73b41c9b58c","ios":"levelo://app?vid=8d92e48b-8cc0-45db-b47e-b73b41c9b58c"},"vehicle_type_id":"4","last_reported":1748844974,"current_range_meters":19600,"station_id":"ce4bhh92rcd13ifvqfj0","pricing_plan_id":"cebpf4jnsgd1na2vs0mg"},{"bike_id":"4cd0cd35-8195-4ed9-8a33-ac74b818db36","system_id":"levelo_inurba_marseille","lat":43.3133,"lon":5.39681,"is_reserved":false,"is_disabled":false,"rental_uris":{"android":"levelo://app?vid=4cd0cd35-8195-4ed9-8a33-ac74b818db36","ios":"levelo://app?vid=4cd0cd35-8195-4ed9-8a33-ac74b818db36"},"vehicle_type_id":"4","last_reported":1748844974,"current_range_meters":19600,"station_id":"ce4bgvp2rcd13ifvqcu0","pricing_plan_id":"cebpf4jnsgd1na2vs0mg"},{"bike_id":"17db2b72-b7e3-41a0-88c5-ce61fc6789ad","system_id":"levelo_inurba_marseille","lat":43.23067,"lon":5.35568,"is_reserved":false,"is_disabled":false,"rental_uris":{"android":"levelo://app?vid=17db2b72-b7e3-41a0-88c5-ce61fc6789ad","ios":"levelo://app?vid=17db2b72-b7e3-41a0-88c5-ce61fc6789ad"},"vehicle_type_id":"4","last_reported":1748844974,"current_range_meters":19600,"station_id":"cpo3342slgdg3j2ifvpg","pricing_plan_id":"cebpf4jnsgd1na2vs0mg"},{"bike_id":"1d53ed54-2242-4ad9-b5f0-299cc91be80b","system_id":"levelo_inurba_marseille","lat":43.24173,"lon":5.39738,"is_reserved":false,"is_disabled":false,"rental_uris":{"android":"levelo://app?vid=1d53ed54-2242-4ad9-b5f0-299cc91be80b","ios":"levelo://app?vid=1d53ed54-2242-4ad9-b5f0-299cc91be80b"},"vehicle_type_id":"4","last_reported":1748844974,"current_range_meters":19600,"station_id":"ce4bhn12rcd13ifvqgpg","pricing_plan_id":"cebpf4jnsgd1na2vs0mg"},