{"last_updated":1729990237,"ttl":60,"version":"2.2","data":{"bikes":[{"bike_id":"c894f70f-2a6f-425b-ba00-c08216f3e7e3","system_id":"levelo_inurba_marseille","lat":43.29619,"lon":5.37167,"is_reserved":false,"is_disabled":false,"rental_uris":{"android":"levelo://app?vid=c894f70f-2a6f-425b-ba00-c08216f3e7e3","ios":"levelo://app?vid=c894f70f-2a6f-425b-ba00-c08216f3e7e3"},"vehicle_type_id":"4","last_reported":1729990237,"current_range_meters":38800,"station_id":"ce4bgnh2rcd13ifvqc0g","pricing_plan_id":"cebpf4jnsgd1na2vs0mg"},{"bike_id":"72f86b74-e9f2-424b-a4a3-5298d7f2388b","system_id":"levelo_inurba_marseille","lat":43.28268,"lon":5.35084,"is_reserved":false,"is_disabled":false,"rental_uris":{"android":"levelo://app?vid=72f86b74-e9f2-424b-a4a3-5298d7f2388b","ios":"levelo://app?vid=72f86b74-e9f2-424b-a4a3-5298d7f2388b"},"vehicle_type_id":"4","last_reported":1729990237,"current_range_meters":38800,"station_id":"ce4bhbp2rcd13ifvqerg","pricing_plan_id":"cebpf4jnsgd1na2vs0mg"},{"bike_id":"69f4165a-13a2-4bd8-b4d6-abfa25614867","system_id":"levelo_inurba_marseille","lat":43.26809,"lon":5.40265,"is_reserved":false,"is_disabled":false,"rental_uris":{"android":"levelo://app?vid=69f4165a-13a2-4bd8-b4d6-abfa25614867","ios":"levelo://app?vid=69f4165a-13a2-4bd8-b4d6-abfa25614867"},"vehicle_type_id":"4","last_reported":1729990237,"current_range_meters":39200,"station_id":"ce501612rcd8frsf0b60","pricing_plan_id":"cebpf4jnsgd1na2vs0mg"},{"bike_id":"a5665962-8f9b-48f5-a5d3-fa16ab36a6ff","system_id":"levelo_inurba_marseille","lat":43.28086,"lon":5.39655,"is_reserved":false,"is_disabled":false,"rental_uris":{"android":"levelo://app?vid=a5665962-8f9b-48f5-a5d3-fa16ab36a6ff","ios":"levelo://app?vid=a5665962-8f9b-48f5-a5d3-fa16ab36a6ff"},"vehicle_type_id":"4","last_reported":1729990237,"current_range_meters":36800,"station_id":"ce4bho12rcd13ifvqh2g","pricing_plan_id":"cebpf4jnsgd1na2vs0mg"},{"bike_id":"5fb7b3c7-bbad-4c2d-828b-aaad6b48e7cf","system_id":"levelo_inurba_marseille","lat":43.27995,"lon":5.40021,"is_reserved":false,"is_disabled":false,"rental_uris":{"android":"levelo://app?vid=5fb7b3c7-bbad-4c2d-828b-aaad6b48e7cf","ios":"levelo://app?vid=5fb7b3c7-bbad-4c2d-828b-aaad6b48e7cf"},"vehicle_type_id":"4","last_reported":1729990237,"current_range_meters":34000,"station_id":"ce4bho92rcd13ifvqh4g","pricing_plan_id":"cebpf4jnsgd1na2vs0mg"},{"bike_id":"26d518f2-e761-46eb-bc7c-d62463112389","system_id":"levelo_inurba_marseille","lat":43.29689,"lon":5.37291,"is_reserved":false,"is_disabled":false,"rental_uris":{"android":"levelo://app?vid=26d518f2-e761-46eb-bc7c-d62463112389","ios":"levelo://app?vid=26d518f2-e761-46eb-bc7c-d62463112389"},"vehicle_type_id":"4","last_reported":1729990237,"current_range_meters":38800,"station_id":"ce4bgk12rcd13ifvqbj0","pricing_plan_id":"cebpf4jnsgd1na2vs0mg"},{"bike_id":"48660d12-eacc-4f93-a06c-04c2aa9e37e4","system_id":"levelo_inurba_marseille","lat":43.268,"lon":5.40275,"is_reserved":false,"is_disabled":false,"rental_uris":{"android":"levelo://app?vid=48660d12-eacc-4f93-a06c-04c2aa9e37e4","ios":"levelo://app?vid=48660d12-eacc-4f93-a06c-04c2aa9e37e4"},"vehicle_type_id":"4","last_reported":1729990237,"current_range_meters":19600,"station_id":"ce501612rcd8frsf0b60","pricing_plan_id":"cebpf4jnsgd1na2vs0mg"},{"bike_id":"9d1f8e5b-a54b-44ef-a1e3-676db13b2967","system_id":"levelo_inurba_marseille","lat":43.30469,"lon":5.37916,"is_reserved":false,"is_disabled":false,"rental_uris":{"android":"levelo://app?vid=9d1f8e5b-a54b-44ef-a1e3-676db13b2967","ios":"levelo://app?vid=9d1f8e5b-a54b-44ef-a1e3-676db13b2967"},"vehicle_type_id":"4","last_reported":1729990237,"current_range_meters":38000,"station_id":"ce4bgup2rcd13ifvqcn0","pricing_plan_id":"cebpf4jnsgd1na2vs0mg"},{"bike_id":"252522d7-7817-4bc6-b471-8bb4199927d2","system_id":"levelo_inurba_marseille","lat":43.28702,"lon":5.39991,"is_reserved":false,"is_disabled":false,"rental_uris":{"android":"levelo://app?vid=252522d7-7817-4bc6-b471-8bb4199927d2","ios":"levelo://app?vid=252522d7-7817-4bc6-b471-8bb4199927d2"},"vehicle_type_id":"4","last_reported":1729990237,"current_range_meters":38000,"station_id":"ce4bho92rcd13ifvqh3g","pricing_plan_id":"cebpf4jnsgd1na2vs0mg"},{"bike_id":"5700ada5-9104-451f-94e7-6301b22f5ea0","system_id":"levelo_inurba_marseille","lat":43.30797,"lon":5.38152,"is_reserved":false,"is_disabled":false,"rental_uris":{"android":"levelo://app?vid=5700ada5-9104-451f-94e7-6301b22f5ea0","ios":"levelo://app?vid=5700ada5-9104-451f-94e7-6301b22f5ea0"},"vehicle_type_id":"4","last_reported":1729990237,"current_range_meters":39200,"station_id":"ce4bgt12rcd13ifvqce0","pricing_plan_id":"cebpf4jnsgd1na2vs0mg"},{"bike_id":"3381cd79-1316-4c50-ad86-ee5056cd0e14","system_id":"levelo_inurba_marseille","lat":43.26067,"lon":5.39398,"is_reserved":false,"is_disabled":false,"rental_uris":{"android":"levelo://app?vid=3381cd79-1316-4c50-ad86-ee5056cd0e14","ios":"levelo://app?vid=3381cd79-1316-4c50-ad86-ee5056cd0e14"},"vehicle_type_id":"4","last_reported":1729990237,"current_range_meters":34000,"station_id":"ce4bhh92rcd13ifvqfj0","pricing_plan_id":"cebpf4jnsgd1na2vs0mg"},{"bike_id":"7d86a8ee-3f05-493b-abac-95616ad4fe13","system_id":"levelo_inurba_marseille","lat":43.31323,"lon":5.39693,"is_reserved":false,"is_disabled":false,"rental_uris":{"android":"levelo://app?vid=7d86a8ee-3f05-493b-abac-95616ad4fe13","ios":"levelo://app?vid=7d86a8ee-3f05-493b-abac-95616ad4fe13"},"vehicle_type_id":"4","last_reported":1729990237,"current_range_meters":26000,"station_id":"ce4bgvp2rcd13ifvqcu0","pricing_plan_id":"cebpf4jnsgd1na2vs0mg"},{"bike_id":"df27f7ad-c67e-4614-bb06-ec6d6b0835fe","system_id":"levelo_inurba_marseille","lat":43.30612,"lon":5.33668,"is_reserved":false,"is_disabled":false,"rental_uris":{"android":"levelo://app?vid=df27f7ad-c67e-4614-bb06-ec6d6b0835fe","ios":"levelo://app?vid=df27f7ad-c67e-4614-bb06-ec6d6b0835fe"},"vehicle_type_id":"4","last_reported":1729990237,"current_range_meters":33600,"station_id":"ce4bh012rcd13ifvqcv0","pricing_plan_id":"cebpf4jnsgd1na2vs0mg"},{"bike_id":"c2499e0b-8fa4-4364-b09f-78ad9acab09a","system_id":"levelo_inurba_marseille","lat":43.32337,"lon":5.40624,"is_reserved":false,"is_disabled":false,"rental_uris":{"android":"levelo://app?vid=c2499e0b-8fa4-4364-b09f-78ad9acab09a","ios":"levelo://app?vid=c2499e0b-8fa4-4364-b09f-78ad9acab09a"},"vehicle_type_id":"4","last_reported":1729990237,"current_range_meters":20800,"station_id":"ce4bhq92rcd13ifvqhjg","pricing_plan_id":"cebpf4jnsgd1na2vs0mg"},{"bike_id":"47623020-0c90-41e5-bb48-79ad4b2c18cf","system_id":"levelo_inurba_marseille","lat":43.30888,"lon":5.39651,"is_reserved":false,"is_disabled":false,"rental_uris":{"android":"levelo://app?vid=47623020-0c90-41e5-bb48-79ad4b2c18cf","ios":"levelo://app?vid=47623020-0c90-41e5-bb48-79ad4b2c18cf"},"vehicle_type_id":"4","last_reported":1729990237,"current_range_meters":38800,"station_id":"ce4bh012rcd13ifvqcv0","pricing_plan_id":"cebpf4jnsgd1na2vs0mg"},{"bike_id":"5554f8fd-38cd-4aa2-aa76-dddae180f633","system_id":"levelo_inurba_marseille","lat":43.28935,"lon":5.39629,"is_reserved":false,"is_disabled":false,"rental_uris":{"android":"levelo://app?vid=5554f8fd-38cd-4aa2-aa76-dddae180f633","ios":"levelo://app?vid=5554f8fd-38cd-4aa2-aa76-dddae180f633"},"vehicle_type_id":"4","last_reported":1729990237,"current_range_meters":11200,"station_id":"ce4bh3h2rcd13ifvqdn0","pricing_plan_id":"cebpf4jnsgd1na2vs0mg"},{"bike_id":"9132ea3e-3bd3-4344-babe-b880e818aea1","system_id":"levelo_inurba_marseille","lat":43.33021,"lon":5.39034,"is_reserved":false,"is_disabled":false,"rental_uris":{"android":"levelo://app?vid=9132ea3e-3bd3-4344-babe-b880e818aea1","ios":"levelo://app?vid=9132ea3e-3bd3-4344-babe-b880e818aea1"},"vehicle_type_id":"4","last_reported":1729990237,"current_range_meters":37600,"station_id":"ce4bhr92rcd13ifvqhrg","pricing_plan_id":"cebpf4jnsgd1na2vs0mg"},{"bike_id":"0647c6ae-fa65-4cd9-a930-862b8accb124","system_id":"levelo_inurba_marseille","lat":43.27578,"lon":5.38915,"is_reserved":false,"is_disabled":false,"rental_uris":{"android":"levelo://app?vid=0647c6ae-fa65-4cd9-a930-862b8accb124","ios":"levelo://app?vid=0647c6ae-fa65-4cd9-a930-862b8accb124"},"vehicle_type_id":"4","last_reported":1729990237,"current_range_meters":11600,"station_id":"","pricing_plan_id":"cebpf4jnsgd1na2vs0mg"},{"bike_id":"d97b91f4-e188-49a4-8c71-216ae6228de5","system_id":"levelo_inurba_marseille","lat":43.32656,"lon":5.40999,"is_reserved":false,"is_disabled":false,"rental_uris":{"android":"levelo://app?vid=d97b91f4-e188-49a4-8c71-216ae6228de5","ios":"levelo://app?vid=d97b91f4-e188-49a4-8c71-216ae6228de5"},"vehicle_type_id":"4","last_reported":1729990237,"current_range_meters":38000,"station_id":"ce4bhpp2rcd13ifvqhgg","pricing_plan_id":"cebpf4jnsgd1na2vs0mg"},{"bike_id":"5a2de8fe-d5b8-457b-a3f2-b13037d0ef76","system_id":"levelo_inurba_marseille","lat":43.32658,"lon":5.40998,"is_reserved":false,"is_disabled":false,"rental_uris":{"android":"levelo://app?vid=5a2de8fe-d5b8-457b-a3f2-b13037d0ef76","ios":"levelo://app?vid=5a2de8fe-d5b8-457b-a3f2-b13037d0ef76"},"vehicle_type_id":"4","last_reported":1729990237,"current_range_meters":24400,"station_id":"ce4bhpp2rcd13ifvqhgg","pricing_plan_id":"cebpf4jnsgd1na2vs0mg"},{"bike_id":"e62a88f0-d41b-417a-94ff-364a2c528771","system_id":"levelo_inurba_marseille","lat":43.31332,"lon":5.39695,"is_reserved":false,"is_disabled":false,"rental_uris":{"android":"levelo://app?vid=e62a88f0-d41b-417a-94ff-364a2c528771","ios":"levelo://app?vid=e62a88f0-d41b-417a-94ff-364a2c528771"},"vehicle_type_id":"4","last_reported":1729990237,"current_range_meters":30400,"station_id":"ce4bgvp2rcd13ifvqcu0","pricing_plan_id":"cebpf4jnsgd1na2vs0mg"},{"bike_id":"54bcc0ea-cce7-4187-9cab-1ca588f3b085","system_id":"levelo_inurba_marseille","lat":43.2465,"lon":5.38896,"is_reserved":false,"is_disabled":false,"rental_uris":{"android":"levelo://app?vid=54bcc0ea-cce7-4187-9cab-1ca588f3b085","ios":"levelo://app?vid=54bcc0ea-cce7-4187-9cab-1ca588f3b085"},"vehicle_type_id":"4","last_reported":1729990237,"current_range_meters":24800,"station_id":"ce4bhg12rcd13ifvqf60","pricing_plan_id":"cebpf4jnsgd1na2vs0mg"},{"bike_id":"6d5e49be-c229-45f6-8f3b-e356b9a5d195","system_id":"levelo_inurba_marseille","lat":43.29005,"lon":5.35619,"is_reserved":false,"is_disabled":false,"rental_uris":{"android":"levelo://app?vid=6d5e49be-c229-45f6-8f3b-e356b9a5d195","ios":"levelo://app?vid=6d5e49be-c229-45f6-8f3b-e356b9a5d195"},"vehicle_type_id":"4","last_reported":1729990237,"current_range_meters":39200,"station_id":"ce4bhb92rcd13ifvqen0","pricing_plan_id":"cebpf4jnsgd1na2vs0mg"},{"bike_id":"f85d1b72-3a8c-4a2a-864a-92a540d77af2","system_id":"levelo_inurba_marseille","lat":43.31283,"lon":5.40178,"is_reserved":false,"is_disabled":false,"rental_uris":{"android":"levelo://app?vid=f85d1b72-3a8c-4a2a-864a-92a540d77af2","ios":"levelo://app?vid=f85d1b72-3a8c-4a2a-864a-92a540d77af2"},"vehicle_type_id":"4","last_reported":1729990237,"current_range_meters":38800,"station_id":"ce4bh092rcd13ifvqd30","pricing_plan_id":"cebpf4jnsgd1na2vs0mg"},{"bike_id":"7b35d364-c3f9-4e90-9688-cf724878c1d2","system_id":"levelo_inurba_marseille","lat":43.30905,"lon":5.36839,"is_reserved":false,"is_disabled":false,"rental_uris":{"android":"levelo://app?vid=7b35d364-c3f9-4e90-9688-cf724878c1d2","ios":"levelo://app?vid=7b35d364-c3f9-4e90-9688-cf724878c1d2"},"vehicle_type_id":"4","last_reported":1729990237,"current_range_meters":28400,"station_id":"ce4bgn92rcd13ifvqbvg","pricing_plan_id":"cebpf4jnsgd1na2vs0mg"},{"bike_id":"1b069649-8942-4abd-b411-cbe3bb286661","system_id":"levelo_inurba_marseille","lat":43.30139,"lon":5.39878,"is_reserved":false,"is_disabled":false,"rental_uris":{"android":"levelo://app?vid=1b069649-8942-4abd-b411-cbe3bb286661","ios":"levelo://app?vid=1b069649-8942-4abd-b411-cbe3bb286661"},"vehicle_type_id":"4","last_reported":1729990237,"current_range_meters":38800,"station_id":"ce4bh0h2rcd13ifvqd40","pricing_plan_id":"cebpf4jnsgd1na2vs0mg"},{"bike_id":"633bdd84-8a27-486c-8d5a-62bd9dd56f9f","system_id":"levelo_inurba_marseille","lat":43.26937,"lon":5.40258,"is_reserved":false,"is_disabled":false,"rental_uris":{"android":"levelo://app?vid=633bdd84-8a27-486c-8d5a-62bd9dd56f9f","ios":"levelo://app?vid=633bdd84-8a27-486c-8d5a-62bd9dd56f9f"},"vehicle_type_id":"4","last_reported":1729990237,"current_range_meters":38800,"station_id":"cjm6bp8fraef2m0cb0m0","pricing_plan_id":"cebpf4jnsgd1na2vs0mg"},{"bike_id":"6b3e5d19-fd14-4a85-9ba6-c4888ba0d421","system_id":"levelo_inurba_marseille","lat":43.29904,"lon":5.38531,"is_reserved":false,"is_disabled":false,"rental_uris":{"android":"levelo://app?vid=6b3e5d19-fd14-4a85-9ba6-c4888ba0d421","ios":"levelo://app?vid=6b3e5d19-fd14-4a85-9ba6-c4888ba0d421"},"vehicle_type_id":"4","last_reported":1729990237,"current_range_meters":28400,"station_id":"ce4bh392rcd13ifvqdl0","pricing_plan_id":"cebpf4jnsgd1na2vs0mg"},{"bike_id":"7ad5cee9-1700-4df5-9506-106d58079bca","system_id":"levelo_inurba_marseille","lat":43.29622,"lon":5.37151,"is_reserved":false,"is_disabled":false,"rental_uris":{"android":"levelo://app?vid=7ad5cee9-1700-4df5-9506-106d58079bca","ios":"levelo://app?vid=7ad5cee9-1700-4df5-9506-106d58079bca"},"vehicle_type_id":"4","last_reported":1729990237,"current_range_meters":39200,"station_id":"ce4bgnh2rcd13ifvqc0g","pricing_plan_id":"cebpf4jnsgd1na2vs0mg"},{"bike_id":"94008cea-95dd-4c3d-b32c-368ab2fae152","system_id":"levelo_inurba_marseille","lat":43.24184,"lon":5.39743,"is_reserved":false,"is_disabled":false,"rental_uris":{"android":"levelo://app?vid=94008cea-95dd-4c3d-b32c-368ab2fae152","ios":"levelo://app?vid=94008cea-95dd-4c3d-b32c-368ab2fae152"},"vehicle_type_id":"4","last_reported":1729990237,"current_range_meters":38800,"station_id":"ce4bhn12rcd13ifvqgpg","pricing_plan_id":"cebpf4jnsgd1na2vs0mg"},{"bike_id":"d3f8d7eb-d15d-4c3f-b68e-46b6e9bab9b8","system_id":"levelo_inurba_marseille","lat":43.29909,"lon":5.38155,"is_reserved":false,"is_disabled":false,"rental_uris":{"android":"levelo://app?vid=d3f8d7eb-d15d-4c3f-b68e-46b6e9bab9b8","ios":"levelo://app?vid=d3f8d7eb-d15d-4c3f-b68e-46b6e9bab9b8"},"vehicle_type_id":"4","last_reported":1729990237,"current_range_meters":18800,"station_id":"ce4bgj12rcd13ifvqbc0","pricing_plan_id":"cebpf4jnsgd1na2vs0mg"},{"bike_id":"1c089fe2-9a7b-43f3-8b8e-81f64bbd021c","system_id":"levelo_inurba_marseille","lat":43.270148,"lon":5.392418,"is_reserved":false,"is_disabled":false,"rental_uris":{"android":"levelo://app?vid=1c089fe2-9a7b-43f3-8b8e-81f64bbd021c","ios":"levelo://app?vid=1c089fe2-9a7b-43f3-8b8e-81f64bbd021c"},"vehicle_type_id":"4","last_reported":1729990237,"current_range_meters":37600,"station_id":"ce4bhlh2rcd13ifvqgig","pricing_plan_id":"cebpf4jnsgd1na2vs0mg"},{"bike_id":"8291da1f-cab3-41f8-aabb-44279c1e1c81","system_id":"levelo_inurba_marseille","lat":43.28407,"lon":5.37523,"is_reserved":false,"is_disabled":false,"rental_uris":{"android":"levelo://app?vid=8291da1f-cab3-41f8-aabb-44279c1e1c81","ios":"levelo://app?vid=8291da1f-cab3-41f8-aabb-44279c1e1c81"},"vehicle_type_id":"4","last_reported":1729990237,"current_range_meters":38800,"station_id":"ce4bh412rcd13ifvqds0","pricing_plan_id":"cebpf4jnsgd1na2vs0mg"},{"bike_id":"ea62a35b-6b07-4626-ba19-f469f7c9b37b","system_id":"levelo_inurba_marseille","lat":43.2656,"lon":5.37286,"is_reserved":false,"is_disabled":false,"rental_uris":{"android":"levelo://app?vid=ea62a35b-6b07-4626-ba19-f469f7c9b37b","ios":"levelo://app?vid=ea62a35b-6b07-4626-ba19-f469f7c9b37b"},"vehicle_type_id":"4","last_reported":1729990237,"current_range_meters":6400,"station_id":"ce4bhg12rcd13ifvqf70","pricing_plan_id":"cebpf4jnsgd1na2vs0mg"},{"bike_id":"e0e356cc-30cb-4f0d-bcfd-5043df947da1","system_id":"levelo_inurba_marseille","lat":43.28438,"lon":5.39195,"is_reserved":false,"is_disabled":false,"rental_uris":{"android":"levelo://app?vid=e0e356cc-30cb-4f0d-bcfd-5043df947da1","ios":"levelo://app?vid=e0e356cc-30cb-4f0d-bcfd-5043df947da1"},"vehicle_type_id":"4","last_reported":1729990237,"current_range_meters":32000,"station_id":"ce4bhoh2rcd13ifvqh5g","pricing_plan_id":"cebpf4jnsgd1na2vs0mg"},{"bike_id":"c8f33dbe-8d46-4679-b0bd-686b38e43e1d","system_id":"levelo_inurba_marseille","lat":43.24545,"lon":5.39525,"is_reserved":false,"is_disabled":false,"rental_uris":{"android":"levelo://app?vid=c8f33dbe-8d46-4679-b0bd-686b38e43e1d","ios":"levelo://app?vid=c8f33dbe-8d46-4679-b0bd-686b38e43e1d"},"vehicle_type_id":"4","last_reported":1729990237,"current_range_meters":31200,"station_id":"ce4bhlp2rcd13ifvqgjg","pricing_plan_id":"cebpf4jnsgd1na2vs0mg"},{"bike_id":"a589bf84-5e5c-4ff0-819d-b09734427918","system_id":"levelo_inurba_marseille","lat":43.28711,"lon":5.37936,"is_reserved":false,"is_disabled":false,"rental_uris":{"android":"levelo://app?vid=a589bf84-5e5c-4ff0-819d-b09734427918","ios":"levelo://app?vid=a589bf84-5e5c-4ff0-819d-b09734427918"},"vehicle_type_id":"4","last_reported":1729990237,"current_range_meters":18000,"station_id":"ce4bh9p2rcd13ifvqec0","pricing_plan_id":"cebpf4jnsgd1na2vs0mg"},{"bike_id":"aea14d63-329e-4da3-a256-d6f83b830561","system_id":"levelo_inurba_marseille","lat":43.30799,"lon":5.43532,"is_reserved":false,"is_disabled":false,"rental_uris":{"android":"levelo://app?vid=aea14d63-329e-4da3-a256-d6f83b830561","ios":"levelo://app?vid=aea14d63-329e-4da3-a256-d6f83b830561"},"vehicle_type_id":"4","last_reported":1729990237,"current_range_meters":31200,"station_id":"ce4bhph2rcd13ifvqheg","pricing_plan_id":"cebpf4jnsgd1na2vs0mg"},{"bike_id":"b2f02f96-ef2c-4c84-b581-a61685a7e90d","system_id":"levelo_inurba_marseille","lat":43.28948,"lon":5.36364,"is_reserved":false,"is_disabled":false,"rental_uris":{"android":"levelo://app?vid=b2f02f96-ef2c-4c84-b581-a61685a7e90d","ios":"levelo://app?vid=b2f02f96-ef2c-4c84-b581-a61685a7e90d"},"vehicle_type_id":"4","last_reported":1729990237,"current_range_meters":30400,"station_id":"ce4bhc92rcd13ifvqetg","pricing_plan_id":"cebpf4jnsgd1na2vs0mg"},{"bike_id":"8c0c2fa1-37f9-48f1-b246-0c1a1c47fbb2","system_id":"levelo_inurba_marseille","lat":43.26566,"lon":5.39011,"is_reserved":false,"is_disabled":false,"rental_uris":{"android":"levelo://app?vid=8c0c2fa1-37f9-48f1-b246-0c1a1c47fbb2","ios":"levelo://app?vid=8c0c2fa1-37f9-48f1-b246-0c1a1c47fbb2"},"vehicle_type_id":"4","last_reported":1729990237,"current_range_meters":7200,"station_id":"ce4bhe12rcd13ifvqf30","pricing_plan_id":"cebpf4jnsgd1na2vs0mg"},{"bike_id":"c2bfe2c3-48d8-4e71-afac-c68b85a41807","system_id":"levelo_inurba_marseille","lat":43.29193,"lon":5.3581,"is_reserved":false,"is_disabled":false,"rental_uris":{"android":"levelo://app?vid=c2bfe2c3-48d8-4e71-afac-c68b85a41807","ios":"levelo://app?vid=c2bfe2c3-48d8-4e71-afac-c68b85a41807"},"vehicle_type_id":"4","last_reported":1729990237,"current_range_meters":38400,"station_id":"ce4bhb12rcd13ifvqel0","pricing_plan_id":"cebpf4jnsgd1na2vs0mg"},{"bike_id":"8ed0e600-52f7-4841-aa09-f2be0f0fd557","system_id":"levelo_inurba_marseille","lat":43.26803,"lon":5.40255,"is_reserved":false,"is_disabled":false,"rental_uris":{"android":"levelo://app?vid=8ed0e600-52f7-4841-aa09-f2be0f0fd557","ios":"levelo://app?vid=8ed0e600-52f7-4841-aa09-f2be0f0fd557"},"vehicle_type_id":"4","last_reported":1729990237,"current_range_meters":38800,"station_id":"ce501612rcd8frsf0b60","pricing_plan_id":"cebpf4jnsgd1na2vs0mg"},{"bike_id":"f0c44abb-ad46-4eef-911d-7e07d391b73c","system_id":"levelo_inurba_marseille","lat":43.28405,"lon":5.37515,"is_reserved":false,"is_disabled":false,"rental_uris":{"android":"levelo://app?vid=f0c44abb-ad46-4eef-911d-7e07d391b73c","ios":"levelo://app?vid=f0c44abb-ad46-4eef-911d-7e07d391b73c"},"vehicle_type_id":"4","last_reported":1729990237,"current_range_meters":35600,"station_id":"ce4bh412rcd13ifvqds0","pricing_plan_id":"cebpf4jnsgd1na2vs0mg"},{"bike_id":"e6d3bcb8-2f97-4379-9ffc-70495f1bd10c","system_id":"levelo_inurba_marseille","lat":43.27319,"lon":5.39087,"is_reserved":false,"is_disabled":false,"rental_uris":{"android":"levelo://app?vid=e6d3bcb8-2f97-4379-9ffc-70495f1bd10c","ios":"levelo://app?vid=e6d3bcb8-2f97-4379-9ffc-70495f1bd10c"},"vehicle_type_id":"4","last_reported":1729990237,"current_range_meters":16000,"station_id":"ce4bhgp2rcd13ifvqfe0","pricing_plan_id":"cebpf4jnsgd1na2vs0mg"},{"bike_id":"b214368c-8ffe-4d88-9c92-dddc90fa2097","system_id":"levelo_inurba_marseille","lat":43.29793,"lon":5.38128,"is_reserved":false,"is_disabled":false,"rental_uris":{"android":"levelo://app?vid=b214368c-8ffe-4d88-9c92-dddc90fa2097","ios":"levelo://app?vid=b214368c-8ffe-4d88-9c92-dddc90fa2097"},"vehicle_type_id":"4","last_reported":1729990237,"current_range_meters":36800,"station_id":"ce4bgip2rcd13ifvqbb0","pricing_plan_id":"cebpf4jnsgd1na2vs0mg"},{"bike_id":"bdebca23-d953-4046-be99-bf6c27ec1b5d","system_id":"levelo_inurba_marseille","lat":43.29958,"lon":5.4132,"is_reserved":false,"is_disabled":false,"rental_uris":{"android":"levelo://app?vid=bdebca23-d953-4046-be99-bf6c27ec1b5d","ios":"levelo://app?vid=bdebca23-d953-4046-be99-bf6c27ec1b5d"},"vehicle_type_id":"4","last_reported":1729990237,"current_range_meters":30400,"station_id":"ce4bhp12rcd13ifvqh9g","pricing_plan_id":"cebpf4jnsgd1na2vs0mg"},{"bike_id":"5de0a329-7698-4bce-b772-88bd5818048d","system_id":"levelo_inurba_marseille","lat":43.26065,"lon":5.39392,"is_reserved":false,"is_disabled":false,"rental_uris":{"android":"levelo://app?vid=5de0a329-7698-4bce-b772-88bd5818048d","ios":"levelo://app?vid=5de0a329-7698-4bce-b772-88bd5818048d"},"vehicle_type_id":"4","last_reported":1729990237,"current_range_meters":36000,"station_id":"ce4bhh92rcd13ifvqfj0","pricing_plan_id":"cebpf4jnsgd1na2vs0mg"},{"bike_id":"7c188702-d4f9-4d4c-a651-7fbfa0d73b8f","system_id":"levelo_inurba_marseille","lat":43.28713,"lon":5.37945,"is_reserved":false,"is_disabled":false,"rental_uris":{"android":"levelo://app?vid=7c188702-d4f9-4d4c-a651-7fbfa0d73b8f","ios":"levelo://app?vid=7c188702-d4f9-4d4c-a651-7fbfa0d73b8f"},"vehicle_type_id":"4","last_reported":1729990237,"current_range_meters":36400,"station_id":"ce4bh9p2rcd13ifvqec0","pricing_plan_id":"cebpf4jnsgd1na2vs0mg"},{"bike_id":"3db02cbf-fd6e-4fe3-bfd3-a23c9699e16c","system_id":"levelo_inurba_marseille","lat":43.28844,"lon":5.35859,"is_reserved":false,"is_disabled":false,"rental_uris":{"android":"levelo://app?vid=3db02cbf-fd6e-4fe3-bfd3-a23c9699e16c","ios":"levelo://app?vid=3db02cbf-fd6e-4fe3-bfd3-a23c9699e16c"},"vehicle_type_id":"4","last_reported":1729990237,"current_range_meters":36800,"station_id":"ce4bhb12rcd13ifvqem0","pricing_plan_id":"cebpf4jnsgd1na2vs0mg"},{"bike_id":"27f39214-437b-402f-ba70-e8fd46f4e41b","system_id":"levelo_inurba_marseille","lat":43.28487,"lon":5.36924,"is_reserved":false,"is_disabled":false,"rental_uris":{"android":"levelo://app?vid=27f39214-437b-402f-ba70-e8fd46f4e41b","ios":"levelo://app?vid=27f39214-437b-402f-ba70-e8fd46f4e41b"},"vehicle_type_id":"4","last_reported":1729990237,"current_range_meters":22000,"station_id":"","pricing_plan_id":"cebpf4jnsgd1na2vs0mg"},{"bike_id":"2b338969-df01-4d32-8023-05ae146af972","system_id":"levelo_inurba_marseille","lat":43.27067,"lon":5.42282,"is_reserved":false,"is_disabled":false,"rental_uris":{"android":"levelo://app?vid=2b338969-df01-4d32-8023-05ae146af972","ios":"levelo://app?vid=2b338969-df01-4d32-8023-05ae146af972"},"vehicle_type_id":"4","last_reported":1729990237,"current_range_meters":18000,"station_id":"ce4bhk92rcd13ifvqgb0","pricing_plan_id":"cebpf4jnsgd1na2vs0mg"},{"bike_id":"ed84a5fc-74f9-47c7-9b2f-e9a4baabdc3b","system_id":"levelo_inurba_marseille","lat":43.26684,"lon":5.38273,"is_reserved":false,"is_disabled":false,"rental_uris":{"android":"levelo://app?vid=ed84a5fc-74f9-47c7-9b2f-e9a4baabdc3b","ios":"levelo://app?vid=ed84a5fc-74f9-47c7-9b2f-e9a4baabdc3b"},"vehicle_type_id":"4","last_reported":1729990237,"current_range_meters":38000,"station_id":"ce4bhg92rcd13ifvqf90","pricing_plan_id":"cebpf4jnsgd1na2vs0mg"},{"bike_id":"e7360508-6978-487a-a79b-5e2dad5d0ea3","system_id":"levelo_inurba_marseille","lat":43.22928,"lon":5.35381,"is_reserved":false,"is_disabled":false,"rental_uris":{"android":"levelo://app?vid=e7360508-6978-487a-a79b-5e2dad5d0ea3","ios":"levelo://app?vid=e7360508-6978-487a-a79b-5e2dad5d0ea3"},"vehicle_type_id":"4","last_reported":1729990237,"current_range_meters":27600,"station_id":"cpo3532slgdg3j2ikp40","pricing_plan_id":"cebpf4jnsgd1na2vs0mg"},{"bike_id":"0ffc7421-c922-46fc-ab65-c26a6371c358","system_id":"levelo_inurba_marseille","lat":43.27181,"lon":5.40998,"is_reserved":false,"is_disabled":false,"rental_uris":{"android":"levelo://app?vid=0ffc7421-c922-46fc-ab65-c26a6371c358","ios":"levelo://app?vid=0ffc7421-c922-46fc-ab65-c26a6371c358"},"vehicle_type_id":"4","last_reported":1729990237,"current_range_meters":36400,"station_id":"ce4bhl12rcd13ifvqgf0","pricing_plan_id":"cebpf4jnsgd1na2vs0mg"},{"bike_id":"f24dbadd-fd5b-46f1-8c95-5b9db6c25cc4","system_id":"levelo_inurba_marseille","lat":43.3042,"lon":5.39764,"is_reserved":false,"is_disabled":false,"rental_uris":{"android":"levelo://app?vid=f24dbadd-fd5b-46f1-8c95-5b9db6c25cc4","ios":"levelo://app?vid=f24dbadd-fd5b-46f1-8c95-5b9db6c25cc4"},"vehicle_type_id":"4","last_reported":1729990237,"current_range_meters":25200,"station_id":"ce4bh092rcd13ifvqd20","pricing_plan_id":"cebpf4jnsgd1na2vs0mg"},{"bike_id":"223be5fd-a036-41c2-a689-e57cea0ff47e","system_id":"levelo_inurba_marseille","lat":43.31363,"lon":5.38499,"is_reserved":false,"is_disabled":false,"rental_uris":{"android":"levelo://app?vid=223be5fd-a036-41c2-a689-e57cea0ff47e","ios":"levelo://app?vid=223be5fd-a036-41c2-a689-e57cea0ff47e"},"vehicle_type_id":"4","last_reported":1729990237,"current_range_meters":39200,"station_id":"ce4bgt92rcd13ifvqcf0","pricing_plan_id":"cebpf4jnsgd1na2vs0mg"},{"bike_id":"37a14755-d984-4d8b-95a2-79de8cf575fc","system_id":"levelo_inurba_marseille","lat":43.294132,"lon":5.386153,"is_reserved":false,"is_disabled":false,"rental_uris":{"android":"levelo://app?vid=37a14755-d984-4d8b-95a2-79de8cf575fc","ios":"levelo://app?vid=37a14755-d984-4d8b-95a2-79de8cf575fc"},"vehicle_type_id":"4","last_reported":1729990237,"current_range_meters":28000,"station_id":"ce4bh2h2rcd13ifvqdh0","pricing_plan_id":"cebpf4jnsgd1na2vs0mg"},{"bike_id":"5ff508df-5ff0-45c8-a4c9-6328bdcb3bdb","system_id":"levelo_inurba_marseille","lat":43.29907,"lon":5.37485,"is_reserved":false,"is_disabled":false,"rental_uris":{"android":"levelo://app?vid=5ff508df-5ff0-45c8-a4c9-6328bdcb3bdb","ios":"levelo://app?vid=5ff508df-5ff0-45c8-a4c9-6328bdcb3bdb"},"vehicle_type_id":"4","last_reported":1729990237,"current_range_meters":20000,"station_id":"ce4bgjh2rcd13ifvqbg0","pricing_plan_id":"cebpf4jnsgd1na2vs0mg"},{"bike_id":"2cc619f1-5b22-47d2-8dbe-18740f06dc1b","system_id":"levelo_inurba_marseille","lat":43.32013,"lon":5.38162,"is_reserved":false,"is_disabled":false,"rental_uris":{"android":"levelo://app?vid=2cc619f1-5b22-47d2-8dbe-18740f06dc1b","ios":"levelo://app?vid=2cc619f1-5b22-47d2-8dbe-18740f06dc1b"},"vehicle_type_id":"4","last_reported":1729990237,"current_range_meters":33600,"station_id":"ce4bhr12rcd13ifvqhpg","pricing_plan_id":"cebpf4jnsgd1na2vs0mg"},{"bike_id":"34c0b19e-e327-425b-bf09-25bec92dd9c4","system_id":"levelo_inurba_marseille","lat":43.29338,"lon":5.45473,"is_reserved":false,"is_disabled":false,"rental_uris":{"android":"levelo://app?vid=34c0b19e-e327-425b-bf09-25bec92dd9c4","ios":"levelo://app?vid=34c0b19e-e327-425b-bf09-25bec92dd9c4"},"vehicle_type_id":"4","last_reported":1729990237,"current_range_meters":10000,"station_id":"","pricing_plan_id":"cebpf4jnsgd1na2vs0mg"},{"bike_id":"82b38875-307d-40a4-b2d2-29f6abfedf60","system_id":"levelo_inurba_marseille","lat":43.25934,"lon":5.40918,"is_reserved":false,"is_disabled":false,"rental_uris":{"android":"levelo://app?vid=82b38875-307d-40a4-b2d2-29f6abfedf60","ios":"levelo://app?vid=82b38875-307d-40a4-b2d2-29f6abfedf60"},"vehicle_type_id":"4","last_reported":1729990237,"current_range_meters":22800,"station_id":"ce4bhm92rcd13ifvqglg","pricing_plan_id":"cebpf4jnsgd1na2vs0mg"},{"bike_id":"4e1b89e2-f965-455a-b9ce-8fa933558641","system_id":"levelo_inurba_marseille","lat":43.24649,"lon":5.38899,"is_reserved":false,"is_disabled":false,"rental_uris":{"android":"levelo://app?vid=4e1b89e2-f965-455a-b9ce-8fa933558641","ios":"levelo://app?vid=4e1b89e2-f965-455a-b9ce-8fa933558641"},"vehicle_type_id":"4","last_reported":1729990237,"current_range_meters":38800,"station_id":"ce4bhg12rcd13ifvqf60","pricing_plan_id":"cebpf4jnsgd1na2vs0mg"},{"bike_id":"c489b004-ae15-46e1-b69d-b15507a15920","system_id":"levelo_inurba_marseille","lat":43.29684,"lon":5.37304,"is_reserved":false,"is_disabled":false,"rental_uris":{"android":"levelo://app?vid=c489b004-ae15-46e1-b69d-b15507a15920","ios":"levelo://app?vid=c489b004-ae15-46e1-b69d-b15507a15920"},"vehicle_type_id":"4","last_reported":1729990237,"current_range_meters":38800,"station_id":"ce4bgk12rcd13ifvqbj0","pricing_plan_id":"cebpf4jnsgd1na2vs0mg"},{"bike_id":"ae26d24f-7025-406f-baf9-8be36f32579c","system_id":"levelo_inurba_marseille","lat":43.32,"lon":5.38155,"is_reserved":false,"is_disabled":false,"rental_uris":{"android":"levelo://app?vid=ae26d24f-7025-406f-baf9-8be36f32579c","ios":"levelo://app?vid=ae26d24f-7025-406f-baf9-8be36f32579c"},"vehicle_type_id":"4","last_reported":1729990237,"current_range_meters":28800,"station_id":"ce4bhr12rcd13ifvqhpg","pricing_plan_id":"cebpf4jnsgd1na2vs0mg"},{"bike_id":"76aa5814-cdc7-48aa-9cb7-9d8ca62c9719","system_id":"levelo_inurba_marseille","lat":43.25586,"lon":5.38239,"is_reserved":false,"is_disabled":false,"rental_uris":{"android":"levelo://app?vid=76aa5814-cdc7-48aa-9cb7-9d8ca62c9719","ios":"levelo://app?vid=76aa5814-cdc7-48aa-9cb7-9d8ca62c9719"},"vehicle_type_id":"4","last_reported":1729990237,"current_range_meters":36400,"station_id":"ce4bhih2rcd13ifvqfs0","pricing_plan_id":"cebpf4jnsgd1na2vs0mg"},{"bike_id":"e16ba0fb-c8f9-4074-a1c8-ad626ad5602f","system_id":"levelo_inurba_marseille","lat":43.26937,"lon":5.40257,"is_reserved":false,"is_disabled":false,"rental_uris":{"android":"levelo://app?vid=e16ba0fb-c8f9-4074-a1c8-ad626ad5602f","ios":"levelo://app?vid=e16ba0fb-c8f9-4074-a1c8-ad626ad5602f"},"vehicle_type_id":"4","last_reported":1729990237,"current_range_meters":38800,"station_id":"cjm6bp8fraef2m0cb0m0","pricing_plan_id":"cebpf4jnsgd1na2vs0mg"},{"bike_id":"55a0123c-a757-4bdf-80e2-efdb3e0824d6","system_id":"levelo_inurba_marseille","lat":43.31354,"lon":5.38501,"is_reserved":false,"is_disabled":false,"rental_uris":{"android":"levelo://app?vid=55a0123c-a757-4bdf-80e2-efdb3e0824d6","ios":"levelo://app?vid=55a0123c-a757-4bdf-80e2-efdb3e0824d6"},"vehicle_type_id":"4","last_reported":1729990237,"current_range_meters":30000,"station_id":"ce4bgt92rcd13ifvqcf0","pricing_plan_id":"cebpf4jnsgd1na2vs0mg"},{"bike_id":"516d2c7e-30e2-429a-adec-fbbadb0d1d0b","system_id":"levelo_inurba_marseille","lat":43.28619,"lon":5.35107,"is_reserved":false,"is_disabled":false,"rental_uris":{"android":"levelo://app?vid=516d2c7e-30e2-429a-adec-fbbadb0d1d0b","ios":"levelo://app?vid=516d2c7e-30e2-429a-adec-fbbadb0d1d0b"},"vehicle_type_id":"4","last_reported":1729990237,"current_range_meters":36000,"station_id":"ce4bhch2rcd13ifvqeug","pricing_plan_id":"cebpf4jnsgd1na2vs0mg"},{"bike_id":"22ce3d43-c67d-476f-ada8-3bf92f8953cc","system_id":"levelo_inurba_marseille","lat":43.302991,"lon":5.392188,"is_reserved":false,"is_disabled":false,"rental_uris":{"android":"levelo://app?vid=22ce3d43-c67d-476f-ada8-3bf92f8953cc","ios":"levelo://app?vid=22ce3d43-c67d-476f-ada8-3bf92f8953cc"},"vehicle_type_id":"4","last_reported":1729990237,"current_range_meters":25200,"station_id":"ce4bgkh2rcd13ifvqbk0","pricing_plan_id":"cebpf4jnsgd1na2vs0mg"},{"bike_id":"0927a9a6-2aa8-4e37-9962-91ca9c7b80a8","system_id":"levelo_inurba_marseille","lat":43.27424,"lon":5.39405,"is_reserved":false,"is_disabled":false,"rental_uris":{"android":"levelo://app?vid=0927a9a6-2aa8-4e37-9962-91ca9c7b80a8","ios":"levelo://app?vid=0927a9a6-2aa8-4e37-9962-91ca9c7b80a8"},"vehicle_type_id":"4","last_reported":1729990237,"current_range_meters":31200,"station_id":"ce4bhdp2rcd13ifvqf20","pricing_plan_id":"cebpf4jnsgd1na2vs0mg"},{"bike_id":"6875a1a6-32b9-4783-93f5-84a3a0c85f67","system_id":"levelo_inurba_marseille","lat":43.23068,"lon":5.35504,"is_reserved":false,"is_disabled":false,"rental_uris":{"android":"levelo://app?vid=6875a1a6-32b9-4783-93f5-84a3a0c85f67","ios":"levelo://app?vid=6875a1a6-32b9-4783-93f5-84a3a0c85f67"},"vehicle_type_id":"4","last_reported":1729990237,"current_range_meters":28000,"station_id":"cpo3342slgdg3j2ifvpg","pricing_plan_id":"cebpf4jnsgd1na2vs0mg"},{"bike_id":"4d119be0-f244-48af-924a-f5cd3481568e","system_id":"levelo_inurba_marseille","lat":43.30142,"lon":5.37413,"is_reserved":false,"is_disabled":false,"rental_uris":{"android":"levelo://app?vid=4d119be0-f244-48af-924a-f5cd3481568e","ios":"levelo://app?vid=4d119be0-f244-48af-924a-f5cd3481568e"},"vehicle_type_id":"4","last_reported":1729990237,"current_range_meters":38800,"station_id":"ce4bgs92rcd13ifvqcc0","pricing_plan_id":"cebpf4jnsgd1na2vs0mg"},{"bike_id":"6e3ac822-40c5-4ef0-8923-ff38f3a100d2","system_id":"levelo_inurba_marseille","lat":43.29849,"lon":5.36285,"is_reserved":false,"is_disabled":false,"rental_uris":{"android":"levelo://app?vid=6e3ac822-40c5-4ef0-8923-ff38f3a100d2","ios":"levelo://app?vid=6e3ac822-40c5-4ef0-8923-ff38f3a100d2"},"vehicle_type_id":"4","last_reported":1729990237,"current_range_meters":21600,"station_id":"ce4bgpp2rcd13ifvqc3g","pricing_plan_id":"cebpf4jnsgd1na2vs0mg"},{"bike_id":"c54c99dd-208d-411c-8d00-0d8701616ebf","system_id":"levelo_inurba_marseille","lat":43.28497,"lon":5.38576,"is_reserved":false,"is_disabled":false,"rental_uris":{"android":"levelo://app?vid=c54c99dd-208d-411c-8d00-0d8701616ebf","ios":"levelo://app?vid=c54c99dd-208d-411c-8d00-0d8701616ebf"},"vehicle_type_id":"4","last_reported":1729990237,"current_range_meters":36000,"station_id":"ce4bh8p2rcd13ifvqeb0","pricing_plan_id":"cebpf4jnsgd1na2vs0mg"},{"bike_id":"c7c09894-8d01-40b4-926c-f262fd967e3b","system_id":"levelo_inurba_marseille","lat":43.32364,"lon":5.38885,"is_reserved":false,"is_disabled":false,"rental_uris":{"android":"levelo://app?vid=c7c09894-8d01-40b4-926c-f262fd967e3b","ios":"levelo://app?vid=c7c09894-8d01-40b4-926c-f262fd967e3b"},"vehicle_type_id":"4","last_reported":1729990237,"current_range_meters":8000,"station_id":"ce4bhqp2rcd13ifvqhog","pricing_plan_id":"cebpf4jnsgd1na2vs0mg"},{"bike_id":"794d7bc8-d607-44de-a2b0-2a1fc45dca3e","system_id":"levelo_inurba_marseille","lat":43.2549,"lon":5.37652,"is_reserved":false,"is_disabled":false,"rental_uris":{"android":"levelo://app?vid=794d7bc8-d607-44de-a2b0-2a1fc45dca3e","ios":"levelo://app?vid=794d7bc8-d607-44de-a2b0-2a1fc45dca3e"},"vehicle_type_id":"4","last_reported":1729990237,"current_range_meters":27200,"station_id":"ce4bhh12rcd13ifvqff0","pricing_plan_id":"cebpf4jnsgd1na2vs0mg"},{"bike_id":"97f7c093-f16b-4966-8ec0-d0b3007c5f64","system_id":"levelo_inurba_marseille","lat":43.31368,"lon":5.38493,"is_reserved":false,"is_disabled":false,"rental_uris":{"android":"levelo://app?vid=97f7c093-f16b-4966-8ec0-d0b3007c5f64","ios":"levelo://app?vid=97f7c093-f16b-4966-8ec0-d0b3007c5f64"},"vehicle_type_id":"4","last_reported":1729990237,"current_range_meters":24000,"station_id":"ce4bgt92rcd13ifvqcf0","pricing_plan_id":"cebpf4jnsgd1na2vs0mg"},{"bike_id":"f344f2fe-63c3-4b6c-be80-61471f81b853","system_id":"levelo_inurba_marseille","lat":43.26559,"lon":5.37288,"is_reserved":false,"is_disabled":false,"rental_uris":{"android":"levelo://app?vid=f344f2fe-63c3-4b6c-be80-61471f81b853","ios":"levelo://app?vid=f344f2fe-63c3-4b6c-be80-61471f81b853"},"vehicle_type_id":"4","last_reported":1729990237,"current_range_meters":31200,"station_id":"ce4bhg12rcd13ifvqf70","pricing_plan_id":"cebpf4jnsgd1na2vs0mg"},{"bike_id":"cf804594-0238-4a2c-ae95-92cb865b4602","system_id":"levelo_inurba_marseille","lat":43.30929,"lon":5.40155,"is_reserved":false,"is_disabled":false,"rental_uris":{"android":"levelo://app?vid=cf804594-0238-4a2c-ae95-92cb865b4602","ios":"levelo://app?vid=cf804594-0238-4a2c-ae95-92cb865b4602"},"vehicle_type_id":"4","last_reported":1729990237,"current_range_meters":38800,"station_id":"ce4bgvp2rcd13ifvqct0","pricing_plan_id":"cebpf4jnsgd1na2vs0mg"},{"bike_id":"10ee936f-868d-43e4-990f-cc800eeddb4e","system_id":"levelo_inurba_marseille","lat":43.32656,"lon":5.40994,"is_reserved":false,"is_disabled":false,"rental_uris":{"android":"levelo://app?vid=10ee936f-868d-43e4-990f-cc800eeddb4e","ios":"levelo://app?vid=10ee936f-868d-43e4-990f-cc800eeddb4e"},"vehicle_type_id":"4","last_reported":1729990237,"current_range_meters":28000,"station_id":"ce4bhpp2rcd13ifvqhgg","pricing_plan_id":"cebpf4jnsgd1na2vs0mg"},{"bike_id":"54642b2e-0ba2-49a2-8b26-3d73f5c6be8d","system_id":"levelo_inurba_marseille","lat":43.26936,"lon":5.40262,"is_reserved":false,"is_disabled":false,"rental_uris":{"android":"levelo://app?vid=54642b2e-0ba2-49a2-8b26-3d73f5c6be8d","ios":"levelo://app?vid=54642b2e-0ba2-49a2-8b26-3d73f5c6be8d"},"vehicle_type_id":"4","last_reported":1729990237,"current_range_meters":29600,"station_id":"cjm6bp8fraef2m0cb0m0","pricing_plan_id":"cebpf4jnsgd1na2vs0mg"},{"bike_id":"842e384d-725e-41da-b7d8-811178e3f628","system_id":"levelo_inurba_marseille","lat":43.31173,"lon":5.38711,"is_reserved":false,"is_disabled":false,"rental_uris":{"android":"levelo://app?vid=842e384d-725e-41da-b7d8-811178e3f628","ios":"levelo://app?vid=842e384d-725e-41da-b7d8-811178e3f628"},"vehicle_type_id":"4","last_reported":1729990237,"current_range_meters":38800,"station_id":"ce4bgv12rcd13ifvqcp0","pricing_plan_id":"cebpf4jnsgd1na2vs0mg"},{"bike_id":"272108ab-c66d-4277-b942-346fbf20d819","system_id":"levelo_inurba_marseille","lat":43.30355,"lon":5.41874,"is_reserved":false,"is_disabled":false,"rental_uris":{"android":"levelo://app?vid=272108ab-c66d-4277-b942-346fbf20d819","ios":"levelo://app?vid=272108ab-c66d-4277-b942-346fbf20d819"},"vehicle_type_id":"4","last_reported":1729990237,"current_range_meters":9600,"station_id":"ce4bhop2rcd13ifvqh7g","pricing_plan_id":"cebpf4jnsgd1na2vs0mg"},{"bike_id":"9bf2ab5d-f85c-4d9a-a1f6-70dc559d4a7f","system_id":"levelo_inurba_marseille","lat":43.26025,"lon":5.3755,"is_reserved":false,"is_disabled":false,"rental_uris":{"android":"levelo://app?vid=9bf2ab5d-f85c-4d9a-a1f6-70dc559d4a7f","ios":"levelo://app?vid=9bf2ab5d-f85c-4d9a-a1f6-70dc559d4a7f"},"vehicle_type_id":"4","last_reported":1729990237,"current_range_meters":38800,"station_id":"ce4bhgh2rcd13ifvqfa0","pricing_plan_id":"cebpf4jnsgd1na2vs0mg"},{"bike_id":"8fbb3d87-cdca-4c4a-859f-e70dea3485a5","system_id":"levelo_inurba_marseille","lat":43.27489,"lon":5.4246,"is_reserved":false,"is_disabled":false,"rental_uris":{"android":"levelo://app?vid=8fbb3d87-cdca-4c4a-859f-e70dea3485a5","ios":"levelo://app?vid=8fbb3d87-cdca-4c4a-859f-e70dea3485a5"},"vehicle_type_id":"4","last_reported":1729990237,"current_range_meters":36400,"station_id":"ce4bhn92rcd13ifvqgrg","pricing_plan_id":"cebpf4jnsgd1na2vs0mg"},{"bike_id":"d4dbb103-b4d9-4e96-8ae8-a3fef8c9dbdf","system_id":"levelo_inurba_marseille","lat":43.31756,"lon":5.39031,"is_reserved":false,"is_disabled":false,"rental_uris":{"android":"levelo://app?vid=d4dbb103-b4d9-4e96-8ae8-a3fef8c9dbdf","ios":"levelo://app?vid=d4dbb103-b4d9-4e96-8ae8-a3fef8c9dbdf"},"vehicle_type_id":"4","last_reported":1729990237,"current_range_meters":12400,"station_id":"ce4bhqp2rcd13ifvqhng","pricing_plan_id":"cebpf4jnsgd1na2vs0mg"},{"bike_id":"e9371134-e8f1-4839-a335-0b816f3bc6cd","system_id":"levelo_inurba_marseille","lat":43.30598,"lon":5.37209,"is_reserved":false,"is_disabled":false,"rental_uris":{"android":"levelo://app?vid=e9371134-e8f1-4839-a335-0b816f3bc6cd","ios":"levelo://app?vid=e9371134-e8f1-4839-a335-0b816f3bc6cd"},"vehicle_type_id":"4","last_reported":1729990237,"current_range_meters":26000,"station_id":"ce4bgqh2rcd13ifvqc4g","pricing_plan_id":"cebpf4jnsgd1na2vs0mg"},{"bike_id":"010556e8-69f7-4dfc-b80f-b3335225b0f4","system_id":"levelo_inurba_marseille","lat":43.26209,"lon":5.37443,"is_reserved":false,"is_disabled":false,"rental_uris":{"android":"levelo://app?vid=010556e8-69f7-4dfc-b80f-b3335225b0f4","ios":"levelo://app?vid=010556e8-69f7-4dfc-b80f-b3335225b0f4"},"vehicle_type_id":"4","last_reported":1729990237,"current_range_meters":38800,"station_id":"ce4bhgp2rcd13ifvqfc0","pricing_plan_id":"cebpf4jnsgd1na2vs0mg"},{"bike_id":"4d04c28a-ef37-464b-9b95-da9e4795ee56","system_id":"levelo_inurba_marseille","lat":43.29873,"lon":5.39734,"is_reserved":false,"is_disabled":false,"rental_uris":{"android":"levelo://app?vid=4d04c28a-ef37-464b-9b95-da9e4795ee56","ios":"levelo://app?vid=4d04c28a-ef37-464b-9b95-da9e4795ee56"},"vehicle_type_id":"4","last_reported":1729990237,"current_range_meters":14800,"station_id":"ce4bh0h2rcd13ifvqd50","pricing_plan_id":"cebpf4jnsgd1na2vs0mg"},{"bike_id":"3035b77c-f0af-4479-9d1c-ce2eb4364541","system_id":"levelo_inurba_marseille","lat":43.24547,"lon":5.39537,"is_reserved":false,"is_disabled":false,"rental_uris":{"android":"levelo://app?vid=3035b77c-f0af-4479-9d1c-ce2eb4364541","ios":"levelo://app?vid=3035b77c-f0af-4479-9d1c-ce2eb4364541"},"vehicle_type_id":"4","last_reported":1729990237,"current_range_meters":38800,"station_id":"ce4bhlp2rcd13ifvqgjg","pricing_plan_id":"cebpf4jnsgd1na2vs0mg"},{"bike_id":"c6abfa5d-8358-4f6c-92f4-02f6a9842645","system_id":"levelo_inurba_marseille","lat":43.28942,"lon":5.36642,"is_reserved":false,"is_disabled":false,"rental_uris":{"android":"levelo://app?vid=c6abfa5d-8358-4f6c-92f4-02f6a9842645","ios":"levelo://app?vid=c6abfa5d-8358-4f6c-92f4-02f6a9842645"},"vehicle_type_id":"4","last_reported":1729990237,"current_range_meters":39200,"station_id":"ce4bhap2rcd13ifvqek0","pricing_plan_id":"cebpf4jnsgd1na2vs0mg"},{"bike_id":"5af9e1ec-be16-4573-a266-0bc868b78b27","system_id":"levelo_inurba_marseille","lat":43.23182,"lon":5.39994,"is_reserved":false,"is_disabled":false,"rental_uris":{"android":"levelo://app?vid=5af9e1ec-be16-4573-a266-0bc868b78b27","ios":"levelo://app?vid=5af9e1ec-be16-4573-a266-0bc868b78b27"},"vehicle_type_id":"4","last_reported":1729990237,"current_range_meters":39200,"station_id":"ce4bhn12rcd13ifvqgqg","pricing_plan_id":"cebpf4jnsgd1na2vs0mg"},{"bike_id":"cae5512b-eeb1-4b21-8d8f-d8841b2677f3","system_id":"levelo_inurba_marseille","lat":43.2418,"lon":5.39727,"is_reserved":false,"is_disabled":false,"rental_uris":{"android":"levelo://app?vid=cae5512b-eeb1-4b21-8d8f-d8841b2677f3","ios":"levelo://app?vid=cae5512b-eeb1-4b21-8d8f-d8841b2677f3"},"vehicle_type_id":"4","last_reported":1729990237,"current_range_meters":24400,"station_id":"ce4bhn12rcd13ifvqgpg","pricing_plan_id":"cebpf4jnsgd1na2vs0mg"},{"bike_id":"f167a4b2-b07e-4f37-83e6-5f2d6cfecc6d","system_id":"levelo_inurba_marseille","lat":43.25725,"lon":5.41114,"is_reserved":false,"is_disabled":false,"rental_uris":{"android":"levelo://app?vid=f167a4b2-b07e-4f37-83e6-5f2d6cfecc6d","ios":"levelo://app?vid=f167a4b2-b07e-4f37-83e6-5f2d6cfecc6d"},"vehicle_type_id":"4","last_reported":1729990237,"current_range_meters":39200,"station_id":"ce4bhkp2rcd13ifvqgd0","pricing_plan_id":"cebpf4jnsgd1na2vs0mg"},{"bike_id":"260aed32-376a-4a04-90e9-19a42e3aad1d","system_id":"levelo_inurba_marseille","lat":43.2844,"lon":5.39195,"is_reserved":false,"is_disabled":false,"rental_uris":{"android":"levelo://app?vid=260aed32-376a-4a04-90e9-19a42e3aad1d","ios":"levelo://app?vid=260aed32-376a-4a04-90e9-19a42e3aad1d"},"vehicle_type_id":"4","last_reported":1729990237,"current_range_meters":38800,"station_id":"ce4bhoh2rcd13ifvqh5g","pricing_plan_id":"cebpf4jnsgd1na2vs0mg"},{"bike_id":"2dedcd69-11d2-4929-8a95-bdd4cdc50606","system_id":"levelo_inurba_marseille","lat":43.2885,"lon":5.35841,"is_reserved":false,"is_disabled":false,"rental_uris":{"android":"levelo://app?vid=2dedcd69-11d2-4929-8a95-bdd4cdc50606","ios":"levelo://app?vid=2dedcd69-11d2-4929-8a95-bdd4cdc50606"},"vehicle_type_id":"4","last_reported":1729990237,"current_range_meters":28400,"station_id":"ce4bhb12rcd13ifvqem0","pricing_plan_id":"cebpf4jnsgd1na2vs0mg"},{"bike_id":"c6b2fc05-7410-47d6-b54b-25615935e650","system_id":"levelo_inurba_marseille","lat":43.28156,"lon":5.42641,"is_reserved":false,"is_disabled":false,"rental_uris":{"android":"levelo://app?vid=c6b2fc05-7410-47d6-b54b-25615935e650","ios":"levelo://app?vid=c6b2fc05-7410-47d6-b54b-25615935e650"},"vehicle_type_id":"4","last_reported":1729990237,"current_range_meters":32800,"station_id":"ce4bhnh2rcd13ifvqgug","pricing_plan_id":"cebpf4jnsgd1na2vs0mg"},{"bike_id":"02e2bd26-41d8-4d15-af04-cfaf9a2776d0","system_id":"levelo_inurba_marseille","lat":43.31321,"lon":5.39714,"is_reserved":false,"is_disabled":false,"rental_uris":{"android":"levelo://app?vid=02e2bd26-41d8-4d15-af04-cfaf9a2776d0","ios":"levelo://app?vid=02e2bd26-41d8-4d15-af04-cfaf9a2776d0"},"vehicle_type_id":"4","last_reported":1729990237,"current_range_meters":38800,"station_id":"ce4bgvp2rcd13ifvqcu0","pricing_plan_id":"cebpf4jnsgd1na2vs0mg"},{"bike_id":"ef136fa5-257b-4ee5-bd73-f0de7405e6ba","system_id":"levelo_inurba_marseille","lat":43.24545,"lon":5.39525,"is_reserved":false,"is_disabled":false,"rental_uris":{"android":"levelo://app?vid=ef136fa5-257b-4ee5-bd73-f0de7405e6ba","ios":"levelo://app?vid=ef136fa5-257b-4ee5-bd73-f0de7405e6ba"},"vehicle_type_id":"4","last_reported":1729990237,"current_range_meters":27600,"station_id":"ce4bhlp2rcd13ifvqgjg","pricing_plan_id":"cebpf4jnsgd1na2vs0mg"},{"bike_id":"76ddaa67-3cd9-4cb6-b0eb-d9fa6610e1e2","system_id":"levelo_inurba_marseille","lat":43.28266,"lon":5.35077,"is_reserved":false,"is_disabled":false,"rental_uris":{"android":"levelo://app?vid=76ddaa67-3cd9-4cb6-b0eb-d9fa6610e1e2","ios":"levelo://app?vid=76ddaa67-3cd9-4cb6-b0eb-d9fa6610e1e2"},"vehicle_type_id":"4","last_reported":1729990237,"current_range_meters":37600,"station_id":"ce4bhbp2rcd13ifvqerg","pricing_plan_id":"cebpf4jnsgd1na2vs0mg"},{"bike_id":"9b5bdf7d-f9c1-41d2-bd59-912503ef6834","system_id":"levelo_inurba_marseille","lat":43.2894,"lon":5.36644,"is_reserved":false,"is_disabled":false,"rental_uris":{"android":"levelo://app?vid=9b5bdf7d-f9c1-41d2-bd59-912503ef6834","ios":"levelo://app?vid=9b5bdf7d-f9c1-41d2-bd59-912503ef6834"},"vehicle_type_id":"4","last_reported":1729990237,"current_range_meters":39200,"station_id":"ce4bhap2rcd13ifvqek0","pricing_plan_id":"cebpf4jnsgd1na2vs0mg"},{"bike_id":"b4a29111-53ab-4d92-a651-3c4123d5c479","system_id":"levelo_inurba_marseille","lat":43.27816,"lon":5.40713,"is_reserved":false,"is_disabled":false,"rental_uris":{"android":"levelo://app?vid=b4a29111-53ab-4d92-a651-3c4123d5c479","ios":"levelo://app?vid=b4a29111-53ab-4d92-a651-3c4123d5c479"},"vehicle_type_id":"4","last_reported":1729990237,"current_range_meters":38800,"station_id":"ce4bhnh2rcd13ifvqgtg","pricing_plan_id":"cebpf4jnsgd1na2vs0mg"},{"bike_id":"9488ca84-aa5e-4311-bde9-38d634703444","system_id":"levelo_inurba_marseille","lat":43.32487,"lon":5.3656,"is_reserved":false,"is_disabled":false,"rental_uris":{"android":"levelo://app?vid=9488ca84-aa5e-4311-bde9-38d634703444","ios":"levelo://app?vid=9488ca84-aa5e-4311-bde9-38d634703444"},"vehicle_type_id":"4","last_reported":1729990237,"current_range_meters":38000,"station_id":"ce4bhs12rcd13ifvqhvg","pricing_plan_id":"cebpf4jnsgd1na2vs0mg"},{"bike_id":"1ac12813-c8f3-4b4d-8998-b2b3f24b2c36","system_id":"levelo_inurba_marseille","lat":43.33605,"lon":5.4103,"is_reserved":false,"is_disabled":false,"rental_uris":{"android":"levelo://app?vid=1ac12813-c8f3-4b4d-8998-b2b3f24b2c36","ios":"levelo://app?vid=1ac12813-c8f3-4b4d-8998-b2b3f24b2c36"},"vehicle_type_id":"4","last_reported":1729990237,"current_range_meters":37600,"station_id":"ce4bhqh2rcd13ifvqhmg","pricing_plan_id":"cebpf4jnsgd1na2vs0mg"},{"bike_id":"e5e817e3-05ee-42a0-97b8-792b18b2b2d7","system_id":"levelo_inurba_marseille","lat":43.32486,"lon":5.36566,"is_reserved":false,"is_disabled":false,"rental_uris":{"android":"levelo://app?vid=e5e817e3-05ee-42a0-97b8-792b18b2b2d7","ios":"levelo://app?vid=e5e817e3-05ee-42a0-97b8-792b18b2b2d7"},"vehicle_type_id":"4","last_reported":1729990237,"current_range_meters":28000,"station_id":"ce4bhs12rcd13ifvqhvg","pricing_plan_id":"cebpf4jnsgd1na2vs0mg"},{"bike_id":"0c6836fb-fb7a-4534-b0d2-93aee7246833","system_id":"levelo_inurba_marseille","lat":43.2468,"lon":5.38163,"is_reserved":false,"is_disabled":false,"rental_uris":{"android":"levelo://app?vid=0c6836fb-fb7a-4534-b0d2-93aee7246833","ios":"levelo://app?vid=0c6836fb-fb7a-4534-b0d2-93aee7246833"},"vehicle_type_id":"4","last_reported":1729990237,"current_range_meters":35200,"station_id":"ce4bhih2rcd13ifvqfr0","pricing_plan_id":"cebpf4jnsgd1na2vs0mg"},{"bike_id":"d461dcd4-026b-4b9e-86fd-5771b4f8161f","system_id":"levelo_inurba_marseille","lat":43.24077,"lon":5.37763,"is_reserved":false,"is_disabled":false,"rental_uris":{"android":"levelo://app?vid=d461dcd4-026b-4b9e-86fd-5771b4f8161f","ios":"levelo://app?vid=d461dcd4-026b-4b9e-86fd-5771b4f8161f"},"vehicle_type_id":"4","last_reported":1729990237,"current_range_meters":18000,"station_id":"ce4bhnp2rcd13ifvqgvg","pricing_plan_id":"cebpf4jnsgd1na2vs0mg"},{"bike_id":"80f76666-e73a-42ad-ae8f-0e775abdc325","system_id":"levelo_inurba_marseille","lat":43.30609,"lon":5.37235,"is_reserved":false,"is_disabled":false,"rental_uris":{"android":"levelo://app?vid=80f76666-e73a-42ad-ae8f-0e775abdc325","ios":"levelo://app?vid=80f76666-e73a-42ad-ae8f-0e775abdc325"},"vehicle_type_id":"4","last_reported":1729990237,"current_range_meters":38800,"station_id":"ce4bgqh2rcd13ifvqc4g","pricing_plan_id":"cebpf4jnsgd1na2vs0mg"},{"bike_id":"8dba1885-e6c6-4fbd-9c07-ec666e373b16","system_id":"levelo_inurba_marseille","lat":43.25728,"lon":5.4111,"is_reserved":false,"is_disabled":false,"rental_uris":{"android":"levelo://app?vid=8dba1885-e6c6-4fbd-9c07-ec666e373b16","ios":"levelo://app?vid=8dba1885-e6c6-4fbd-9c07-ec666e373b16"},"vehicle_type_id":"4","last_reported":1729990237,"current_range_meters":25600,"station_id":"ce4bhkp2rcd13ifvqgd0","pricing_plan_id":"cebpf4jnsgd1na2vs0mg"},{"bike_id":"cfc805ad-07d3-485d-8116-71278eb29e7b","system_id":"levelo_inurba_marseille","lat":43.31531,"lon":5.38048,"is_reserved":false,"is_disabled":false,"rental_uris":{"android":"levelo://app?vid=cfc805ad-07d3-485d-8116-71278eb29e7b","ios":"levelo://app?vid=cfc805ad-07d3-485d-8116-71278eb29e7b"},"vehicle_type_id":"4","last_reported":1729990237,"current_range_meters":38800,"station_id":"ce4bhsp2rcd13ifvqi50","pricing_plan_id":"cebpf4jnsgd1na2vs0mg"},{"bike_id":"601916c5-3274-4e01-863c-d96df39ce3b1","system_id":"levelo_inurba_marseille","lat":43.26563,"lon":5.3902,"is_reserved":false,"is_disabled":false,"rental_uris":{"android":"levelo://app?vid=601916c5-3274-4e01-863c-d96df39ce3b1","ios":"levelo://app?vid=601916c5-3274-4e01-863c-d96df39ce3b1"},"vehicle_type_id":"4","last_reported":1729990237,"current_range_meters":38000,"station_id":"ce4bhe12rcd13ifvqf30","pricing_plan_id":"cebpf4jnsgd1na2vs0mg"},{"bike_id":"cc5e06a1-7244-48d0-a288-6fc7d2d9ae02","system_id":"levelo_inurba_marseille","lat":43.32662,"lon":5.40995,"is_reserved":false,"is_disabled":false,"rental_uris":{"android":"levelo://app?vid=cc5e06a1-7244-48d0-a288-6fc7d2d9ae02","ios":"levelo://app?vid=cc5e06a1-7244-48d0-a288-6fc7d2d9ae02"},"vehicle_type_id":"4","last_reported":1729990237,"current_range_meters":9600,"station_id":"ce4bhpp2rcd13ifvqhgg","pricing_plan_id":"cebpf4jnsgd1na2vs0mg"},{"bike_id":"481d530d-cf24-495f-b5d6-89dd932238a0","system_id":"levelo_inurba_marseille","lat":43.25734,"lon":5.4111,"is_reserved":false,"is_disabled":false,"rental_uris":{"android":"levelo://app?vid=481d530d-cf24-495f-b5d6-89dd932238a0","ios":"levelo://app?vid=481d530d-cf24-495f-b5d6-89dd932238a0"},"vehicle_type_id":"4","last_reported":1729990237,"current_range_meters":38800,"station_id":"ce4bhkp2rcd13ifvqgd0","pricing_plan_id":"cebpf4jnsgd1na2vs0mg"},{"bike_id":"59a91155-6b0b-4425-94a0-7ee9ed9b8729","system_id":"levelo_inurba_marseille","lat":43.25001,"lon":5.38926,"is_reserved":false,"is_disabled":false,"rental_uris":{"android":"levelo://app?vid=59a91155-6b0b-4425-94a0-7ee9ed9b8729","ios":"levelo://app?vid=59a91155-6b0b-4425-94a0-7ee9ed9b8729"},"vehicle_type_id":"4","last_reported":1729990237,"current_range_meters":39200,"station_id":"ce4bhgp2rcd13ifvqfd0","pricing_plan_id":"cebpf4jnsgd1na2vs0mg"},{"bike_id":"1fafbe93-2ba4-4077-bfcf-7b3992b30a25","system_id":"levelo_inurba_marseille","lat":43.29549,"lon":5.4229,"is_reserved":false,"is_disabled":false,"rental_uris":{"android":"levelo://app?vid=1fafbe93-2ba4-4077-bfcf-7b3992b30a25","ios":"levelo://app?vid=1fafbe93-2ba4-4077-bfcf-7b3992b30a25"},"vehicle_type_id":"4","last_reported":1729990237,"current_range_meters":38800,"station_id":"ce4bhph2rcd13ifvqhdg","pricing_plan_id":"cebpf4jnsgd1na2vs0mg"},{"bike_id":"7b9bb9f6-2747-4f5c-a936-06f552492e45","system_id":"levelo_inurba_marseille","lat":43.31726,"lon":5.42405,"is_reserved":false,"is_disabled":false,"rental_uris":{"android":"levelo://app?vid=7b9bb9f6-2747-4f5c-a936-06f552492e45","ios":"levelo://app?vid=7b9bb9f6-2747-4f5c-a936-06f552492e45"},"vehicle_type_id":"4","last_reported":1729990237,"current_range_meters":38000,"station_id":"ce4bhp92rcd13ifvqhbg","pricing_plan_id":"cebpf4jnsgd1na2vs0mg"},{"bike_id":"4bafa726-86cb-40fe-9c0c-25741165ee73","system_id":"levelo_inurba_marseille","lat":43.29957,"lon":5.41319,"is_reserved":false,"is_disabled":false,"rental_uris":{"android":"levelo://app?vid=4bafa726-86cb-40fe-9c0c-25741165ee73","ios":"levelo://app?vid=4bafa726-86cb-40fe-9c0c-25741165ee73"},"vehicle_type_id":"4","last_reported":1729990237,"current_range_meters":12400,"station_id":"ce4bhp12rcd13ifvqh9g","pricing_plan_id":"cebpf4jnsgd1na2vs0mg"},{"bike_id":"c88a130f-ae47-47e3-8846-cea489fc1d0d","system_id":"levelo_inurba_marseille","lat":43.290999,"lon":5.381369,"is_reserved":false,"is_disabled":false,"rental_uris":{"android":"levelo://app?vid=c88a130f-ae47-47e3-8846-cea489fc1d0d","ios":"levelo://app?vid=c88a130f-ae47-47e3-8846-cea489fc1d0d"},"vehicle_type_id":"4","last_reported":1729990237,"current_range_meters":38800,"station_id":"ce4bh512rcd13ifvqe2g","pricing_plan_id":"cebpf4jnsgd1na2vs0mg"},{"bike_id":"8a55373d-8f54-4890-9729-5db301ba9fa0","system_id":"levelo_inurba_marseille","lat":43.25005,"lon":5.38917,"is_reserved":false,"is_disabled":false,"rental_uris":{"android":"levelo://app?vid=8a55373d-8f54-4890-9729-5db301ba9fa0","ios":"levelo://app?vid=8a55373d-8f54-4890-9729-5db301ba9fa0"},"vehicle_type_id":"4","last_reported":1729990237,"current_range_meters":35200,"station_id":"ce4bhgp2rcd13ifvqfd0","pricing_plan_id":"cebpf4jnsgd1na2vs0mg"},{"bike_id":"fff6249a-61af-468a-be52-c789d22d324c","system_id":"levelo_inurba_marseille","lat":43.27422,"lon":5.39414,"is_reserved":false,"is_disabled":false,"rental_uris":{"android":"levelo://app?vid=fff6249a-61af-468a-be52-c789d22d324c","ios":"levelo://app?vid=fff6249a-61af-468a-be52-c789d22d324c"},"vehicle_type_id":"4","last_reported":1729990237,"current_range_meters":9200,"station_id":"ce4bhdp2rcd13ifvqf20","pricing_plan_id":"cebpf4jnsgd1na2vs0mg"},{"bike_id":"043635be-ca83-4e7e-91de-d74e3195b171","system_id":"levelo_inurba_marseille","lat":43.30882,"lon":5.39646,"is_reserved":false,"is_disabled":false,"rental_uris":{"android":"levelo://app?vid=043635be-ca83-4e7e-91de-d74e3195b171","ios":"levelo://app?vid=043635be-ca83-4e7e-91de-d74e3195b171"},"vehicle_type_id":"4","last_reported":1729990237,"current_range_meters":38800,"station_id":"ce4bh012rcd13ifvqcv0","pricing_plan_id":"cebpf4jnsgd1na2vs0mg"},{"bike_id":"27c1e877-1a32-4c88-bee8-e9391ea13d39","system_id":"levelo_inurba_marseille","lat":43.31066,"lon":5.38357,"is_reserved":false,"is_disabled":false,"rental_uris":{"android":"levelo://app?vid=27c1e877-1a32-4c88-bee8-e9391ea13d39","ios":"levelo://app?vid=27c1e877-1a32-4c88-bee8-e9391ea13d39"},"vehicle_type_id":"4","last_reported":1729990237,"current_range_meters":38800,"station_id":"ce4bgv92rcd13ifvqcr0","pricing_plan_id":"cebpf4jnsgd1na2vs0mg"},{"bike_id":"b0c7ce4f-cf48-4b13-99b1-24dbbfafc315","system_id":"levelo_inurba_marseille","lat":43.27813,"lon":5.40707,"is_reserved":false,"is_disabled":false,"rental_uris":{"android":"levelo://app?vid=b0c7ce4f-cf48-4b13-99b1-24dbbfafc315","ios":"levelo://app?vid=b0c7ce4f-cf48-4b13-99b1-24dbbfafc315"},"vehicle_type_id":"4","last_reported":1729990237,"current_range_meters":30400,"station_id":"ce4bhnh2rcd13ifvqgtg","pricing_plan_id":"cebpf4jnsgd1na2vs0mg"},{"bike_id":"e113f747-4daa-44f7-a218-9e030daa2565","system_id":"levelo_inurba_marseille","lat":43.32104,"lon":5.36778,"is_reserved":false,"is_disabled":false,"rental_uris":{"android":"levelo://app?vid=e113f747-4daa-44f7-a218-9e030daa2565","ios":"levelo://app?vid=e113f747-4daa-44f7-a218-9e030daa2565"},"vehicle_type_id":"4","last_reported":1729990237,"current_range_meters":28400,"station_id":"ce4bhrh2rcd13ifvqhug","pricing_plan_id":"cebpf4jnsgd1na2vs0mg"},{"bike_id":"67e0d0a8-2ba0-4c43-8d50-9bb4357432f8","system_id":"levelo_inurba_marseille","lat":43.28037,"lon":5.36949,"is_reserved":false,"is_disabled":false,"rental_uris":{"android":"levelo://app?vid=67e0d0a8-2ba0-4c43-8d50-9bb4357432f8","ios":"levelo://app?vid=67e0d0a8-2ba0-4c43-8d50-9bb4357432f8"},"vehicle_type_id":"4","last_reported":1729990237,"current_range_meters":38000,"station_id":"ce4bha12rcd13ifvqef0","pricing_plan_id":"cebpf4jnsgd1na2vs0mg"},{"bike_id":"7569b810-af8d-4c95-be87-76834cbad9fe","system_id":"levelo_inurba_marseille","lat":43.27302,"lon":5.39108,"is_reserved":false,"is_disabled":false,"rental_uris":{"android":"levelo://app?vid=7569b810-af8d-4c95-be87-76834cbad9fe","ios":"levelo://app?vid=7569b810-af8d-4c95-be87-76834cbad9fe"},"vehicle_type_id":"4","last_reported":1729990237,"current_range_meters":22400,"station_id":"ce4bhgp2rcd13ifvqfe0","pricing_plan_id":"cebpf4jnsgd1na2vs0mg"},{"bike_id":"6dfe5cc9-8aa4-4177-aac2-34ca48bf27f9","system_id":"levelo_inurba_marseille","lat":43.31277,"lon":5.40173,"is_reserved":false,"is_disabled":false,"rental_uris":{"android":"levelo://app?vid=6dfe5cc9-8aa4-4177-aac2-34ca48bf27f9","ios":"levelo://app?vid=6dfe5cc9-8aa4-4177-aac2-34ca48bf27f9"},"vehicle_type_id":"4","last_reported":1729990237,"current_range_meters":6800,"station_id":"ce4bh092rcd13ifvqd30","pricing_plan_id":"cebpf4jnsgd1na2vs0mg"},{"bike_id":"4cb54fe2-6aa3-4b51-89f9-1a40a399762b","system_id":"levelo_inurba_marseille","lat":43.29625,"lon":5.37158,"is_reserved":false,"is_disabled":false,"rental_uris":{"android":"levelo://app?vid=4cb54fe2-6aa3-4b51-89f9-1a40a399762b","ios":"levelo://app?vid=4cb54fe2-6aa3-4b51-89f9-1a40a399762b"},"vehicle_type_id":"4","last_reported":1729990237,"current_range_meters":20800,"station_id":"ce4bgnh2rcd13ifvqc0g","pricing_plan_id":"cebpf4jnsgd1na2vs0mg"},{"bike_id":"9fd56fad-5f3d-42b4-b491-7b57b76bc0cf","system_id":"levelo_inurba_marseille","lat":43.27823,"lon":5.40724,"is_reserved":false,"is_disabled":false,"rental_uris":{"android":"levelo://app?vid=9fd56fad-5f3d-42b4-b491-7b57b76bc0cf","ios":"levelo://app?vid=9fd56fad-5f3d-42b4-b491-7b57b76bc0cf"},"vehicle_type_id":"4","last_reported":1729990237,"current_range_meters":25200,"station_id":"ce4bhnh2rcd13ifvqgtg","pricing_plan_id":"cebpf4jnsgd1na2vs0mg"},{"bike_id":"bf291e7e-22e0-40c3-9fbf-804e4d125b27","system_id":"levelo_inurba_marseille","lat":43.25578,"lon":5.38239,"is_reserved":false,"is_disabled":false,"rental_uris":{"android":"levelo://app?vid=bf291e7e-22e0-40c3-9fbf-804e4d125b27","ios":"levelo://app?vid=bf291e7e-22e0-40c3-9fbf-804e4d125b27"},"vehicle_type_id":"4","last_reported":1729990237,"current_range_meters":20000,"station_id":"ce4bhih2rcd13ifvqfs0","pricing_plan_id":"cebpf4jnsgd1na2vs0mg"},{"bike_id":"05fba4cc-ed02-4c92-993f-4b533bd85ad6","system_id":"levelo_inurba_marseille","lat":43.30422,"lon":5.39759,"is_reserved":false,"is_disabled":false,"rental_uris":{"android":"levelo://app?vid=05fba4cc-ed02-4c92-993f-4b533bd85ad6","ios":"levelo://app?vid=05fba4cc-ed02-4c92-993f-4b533bd85ad6"},"vehicle_type_id":"4","last_reported":1729990237,"current_range_meters":30000,"station_id":"ce4bh092rcd13ifvqd20","pricing_plan_id":"cebpf4jnsgd1na2vs0mg"},{"bike_id":"cb176300-6569-4931-a7b5-26a3947ac35d","system_id":"levelo_inurba_marseille","lat":43.25004,"lon":5.38925,"is_reserved":false,"is_disabled":false,"rental_uris":{"android":"levelo://app?vid=cb176300-6569-4931-a7b5-26a3947ac35d","ios":"levelo://app?vid=cb176300-6569-4931-a7b5-26a3947ac35d"},"vehicle_type_id":"4","last_reported":1729990237,"current_range_meters":34000,"station_id":"ce4bhgp2rcd13ifvqfd0","pricing_plan_id":"cebpf4jnsgd1na2vs0mg"},{"bike_id":"b375fc97-9ffd-4424-a9ca-64c19ca1f1e3","system_id":"levelo_inurba_marseille","lat":43.29568,"lon":5.3997,"is_reserved":false,"is_disabled":false,"rental_uris":{"android":"levelo://app?vid=b375fc97-9ffd-4424-a9ca-64c19ca1f1e3","ios":"levelo://app?vid=b375fc97-9ffd-4424-a9ca-64c19ca1f1e3"},"vehicle_type_id":"4","last_reported":1729990237,"current_range_meters":11600,"station_id":"ce4bh312rcd13ifvqdj0","pricing_plan_id":"cebpf4jnsgd1na2vs0mg"},{"bike_id":"6dd99e78-3d6c-43ca-8eea-ef92fee48318","system_id":"levelo_inurba_marseille","lat":43.279791,"lon":5.387179,"is_reserved":false,"is_disabled":false,"rental_uris":{"android":"levelo://app?vid=6dd99e78-3d6c-43ca-8eea-ef92fee48318","ios":"levelo://app?vid=6dd99e78-3d6c-43ca-8eea-ef92fee48318"},"vehicle_type_id":"4","last_reported":1729990237,"current_range_meters":32800,"station_id":"ce4bhg12rcd13ifvqf80","pricing_plan_id":"cebpf4jnsgd1na2vs0mg"},{"bike_id":"744bde82-bd02-445d-b711-6cd860d3c3d0","system_id":"levelo_inurba_marseille","lat":43.30416,"lon":5.4128,"is_reserved":false,"is_disabled":false,"rental_uris":{"android":"levelo://app?vid=744bde82-bd02-445d-b711-6cd860d3c3d0","ios":"levelo://app?vid=744bde82-bd02-445d-b711-6cd860d3c3d0"},"vehicle_type_id":"4","last_reported":1729990237,"current_range_meters":36400,"station_id":"ce4bhop2rcd13ifvqh8g","pricing_plan_id":"cebpf4jnsgd1na2vs0mg"},{"bike_id":"ad2b0ded-18b9-4515-9475-8402ee694265","system_id":"levelo_inurba_marseille","lat":43.31121,"lon":5.37774,"is_reserved":false,"is_disabled":false,"rental_uris":{"android":"levelo://app?vid=ad2b0ded-18b9-4515-9475-8402ee694265","ios":"levelo://app?vid=ad2b0ded-18b9-4515-9475-8402ee694265"},"vehicle_type_id":"4","last_reported":1729990237,"current_range_meters":32000,"station_id":"ce4bgt92rcd13ifvqcg0","pricing_plan_id":"cebpf4jnsgd1na2vs0mg"},{"bike_id":"bc31acf2-ae15-4420-a294-268014d4cd90","system_id":"levelo_inurba_marseille","lat":43.29627,"lon":5.40599,"is_reserved":false,"is_disabled":false,"rental_uris":{"android":"levelo://app?vid=bc31acf2-ae15-4420-a294-268014d4cd90","ios":"levelo://app?vid=bc31acf2-ae15-4420-a294-268014d4cd90"},"vehicle_type_id":"4","last_reported":1729990237,"current_range_meters":36800,"station_id":"ce4bh0h2rcd13ifvqd60","pricing_plan_id":"cebpf4jnsgd1na2vs0mg"},{"bike_id":"76655054-c5bb-403b-83de-851da69c462b","system_id":"levelo_inurba_marseille","lat":43.30414,"lon":5.41285,"is_reserved":false,"is_disabled":false,"rental_uris":{"android":"levelo://app?vid=76655054-c5bb-403b-83de-851da69c462b","ios":"levelo://app?vid=76655054-c5bb-403b-83de-851da69c462b"},"vehicle_type_id":"4","last_reported":1729990237,"current_range_meters":30800,"station_id":"ce4bhop2rcd13ifvqh8g","pricing_plan_id":"cebpf4jnsgd1na2vs0mg"},{"bike_id":"a4cdb9e2-dcee-478e-b833-1e72009d3ae3","system_id":"levelo_inurba_marseille","lat":43.30417,"lon":5.41282,"is_reserved":false,"is_disabled":false,"rental_uris":{"android":"levelo://app?vid=a4cdb9e2-dcee-478e-b833-1e72009d3ae3","ios":"levelo://app?vid=a4cdb9e2-dcee-478e-b833-1e72009d3ae3"},"vehicle_type_id":"4","last_reported":1729990237,"current_range_meters":39200,"station_id":"ce4bhop2rcd13ifvqh8g","pricing_plan_id":"cebpf4jnsgd1na2vs0mg"},{"bike_id":"148cf8a6-bae1-4451-adb6-675f1658a0a6","system_id":"levelo_inurba_marseille","lat":43.2668,"lon":5.38271,"is_reserved":false,"is_disabled":false,"rental_uris":{"android":"levelo://app?vid=148cf8a6-bae1-4451-adb6-675f1658a0a6","ios":"levelo://app?vid=148cf8a6-bae1-4451-adb6-675f1658a0a6"},"vehicle_type_id":"4","last_reported":1729990237,"current_range_meters":38800,"station_id":"ce4bhg92rcd13ifvqf90","pricing_plan_id":"cebpf4jnsgd1na2vs0mg"},{"bike_id":"c65417d6-6622-4395-b76f-feb2f4595473","system_id":"levelo_inurba_marseille","lat":43.25731,"lon":5.41112,"is_reserved":false,"is_disabled":false,"rental_uris":{"android":"levelo://app?vid=c65417d6-6622-4395-b76f-feb2f4595473","ios":"levelo://app?vid=c65417d6-6622-4395-b76f-feb2f4595473"},"vehicle_type_id":"4","last_reported":1729990237,"current_range_meters":11600,"station_id":"ce4bhkp2rcd13ifvqgd0","pricing_plan_id":"cebpf4jnsgd1na2vs0mg"},{"bike_id":"75bc418d-5fa4-4111-819c-79228dcd39de","system_id":"levelo_inurba_marseille","lat":43.2606,"lon":5.39401,"is_reserved":false,"is_disabled":false,"rental_uris":{"android":"levelo://app?vid=75bc418d-5fa4-4111-819c-79228dcd39de","ios":"levelo://app?vid=75bc418d-5fa4-4111-819c-79228dcd39de"},"vehicle_type_id":"4","last_reported":1729990237,"current_range_meters":11200,"station_id":"ce4bhh92rcd13ifvqfj0","pricing_plan_id":"cebpf4jnsgd1na2vs0mg"},{"bike_id":"d7ff7165-6d5c-4f76-865c-b2ea1a2a3c7a","system_id":"levelo_inurba_marseille","lat":43.27497,"lon":5.42454,"is_reserved":false,"is_disabled":false,"rental_uris":{"android":"levelo://app?vid=d7ff7165-6d5c-4f76-865c-b2ea1a2a3c7a","ios":"levelo://app?vid=d7ff7165-6d5c-4f76-865c-b2ea1a2a3c7a"},"vehicle_type_id":"4","last_reported":1729990237,"current_range_meters":8400,"station_id":"ce4bhn92rcd13ifvqgrg","pricing_plan_id":"cebpf4jnsgd1na2vs0mg"},{"bike_id":"d68f2b94-f437-4d17-9809-174eccc840a2","system_id":"levelo_inurba_marseille","lat":43.30327,"lon":5.40443,"is_reserved":false,"is_disabled":false,"rental_uris":{"android":"levelo://app?vid=d68f2b94-f437-4d17-9809-174eccc840a2","ios":"levelo://app?vid=d68f2b94-f437-4d17-9809-174eccc840a2"},"vehicle_type_id":"4","last_reported":1729990237,"current_range_meters":28400,"station_id":"ce4bh012rcd13ifvqd10","pricing_plan_id":"cebpf4jnsgd1na2vs0mg"},{"bike_id":"8f831374-bd85-4845-91f4-73ea4159c684","system_id":"levelo_inurba_marseille","lat":43.28001,"lon":5.40014,"is_reserved":false,"is_disabled":false,"rental_uris":{"android":"levelo://app?vid=8f831374-bd85-4845-91f4-73ea4159c684","ios":"levelo://app?vid=8f831374-bd85-4845-91f4-73ea4159c684"},"vehicle_type_id":"4","last_reported":1729990237,"current_range_meters":36400,"station_id":"ce4bho92rcd13ifvqh4g","pricing_plan_id":"cebpf4jnsgd1na2vs0mg"},{"bike_id":"ec1ef2fd-0187-4063-a08a-f08e31fd67e9","system_id":"levelo_inurba_marseille","lat":43.25002,"lon":5.38916,"is_reserved":false,"is_disabled":false,"rental_uris":{"android":"levelo://app?vid=ec1ef2fd-0187-4063-a08a-f08e31fd67e9","ios":"levelo://app?vid=ec1ef2fd-0187-4063-a08a-f08e31fd67e9"},"vehicle_type_id":"4","last_reported":1729990237,"current_range_meters":33600,"station_id":"ce4bhgp2rcd13ifvqfd0","pricing_plan_id":"cebpf4jnsgd1na2vs0mg"},{"bike_id":"e8835bbc-d750-4c44-9387-781886057181","system_id":"levelo_inurba_marseille","lat":43.25821,"lon":5.39436,"is_reserved":false,"is_disabled":false,"rental_uris":{"android":"levelo://app?vid=e8835bbc-d750-4c44-9387-781886057181","ios":"levelo://app?vid=e8835bbc-d750-4c44-9387-781886057181"},"vehicle_type_id":"4","last_reported":1729990237,"current_range_meters":20000,"station_id":"ce4bhip2rcd13ifvqft0","pricing_plan_id":"cebpf4jnsgd1na2vs0mg"},{"bike_id":"69fd4557-70ee-47ab-b310-1179cf5c9cc5","system_id":"levelo_inurba_marseille","lat":43.28418,"lon":5.34994,"is_reserved":false,"is_disabled":false,"rental_uris":{"android":"levelo://app?vid=69fd4557-70ee-47ab-b310-1179cf5c9cc5","ios":"levelo://app?vid=69fd4557-70ee-47ab-b310-1179cf5c9cc5"},"vehicle_type_id":"4","last_reported":1729990237,"current_range_meters":17200,"station_id":"ce4bhbh2rcd13ifvqepg","pricing_plan_id":"cebpf4jnsgd1na2vs0mg"},{"bike_id":"18f12276-d60d-4a76-b93f-f85898fcc287","system_id":"levelo_inurba_marseille","lat":43.31326,"lon":5.39696,"is_reserved":false,"is_disabled":false,"rental_uris":{"android":"levelo://app?vid=18f12276-d60d-4a76-b93f-f85898fcc287","ios":"levelo://app?vid=18f12276-d60d-4a76-b93f-f85898fcc287"},"vehicle_type_id":"4","last_reported":1729990237,"current_range_meters":25600,"station_id":"ce4bgvp2rcd13ifvqcu0","pricing_plan_id":"cebpf4jnsgd1na2vs0mg"},{"bike_id":"af17f704-784e-4bb2-bdfb-b90393670e79","system_id":"levelo_inurba_marseille","lat":43.27974,"lon":5.38743,"is_reserved":false,"is_disabled":false,"rental_uris":{"android":"levelo://app?vid=af17f704-784e-4bb2-bdfb-b90393670e79","ios":"levelo://app?vid=af17f704-784e-4bb2-bdfb-b90393670e79"},"vehicle_type_id":"4","last_reported":1729990237,"current_range_meters":35600,"station_id":"ce4bhg12rcd13ifvqf80","pricing_plan_id":"cebpf4jnsgd1na2vs0mg"},{"bike_id":"bf74c18a-9570-4971-a107-83f74c935f83","system_id":"levelo_inurba_marseille","lat":43.30314,"lon":5.36891,"is_reserved":false,"is_disabled":false,"rental_uris":{"android":"levelo://app?vid=bf74c18a-9570-4971-a107-83f74c935f83","ios":"levelo://app?vid=bf74c18a-9570-4971-a107-83f74c935f83"},"vehicle_type_id":"4","last_reported":1729990237,"current_range_meters":30400,"station_id":"ce4bgqh2rcd13ifvqc5g","pricing_plan_id":"cebpf4jnsgd1na2vs0mg"},{"bike_id":"ed2cead2-9c13-422d-8800-5f69b1982c12","system_id":"levelo_inurba_marseille","lat":43.3044,"lon":5.38894,"is_reserved":false,"is_disabled":false,"rental_uris":{"android":"levelo://app?vid=ed2cead2-9c13-422d-8800-5f69b1982c12","ios":"levelo://app?vid=ed2cead2-9c13-422d-8800-5f69b1982c12"},"vehicle_type_id":"4","last_reported":1729990237,"current_range_meters":13600,"station_id":"ce4bgk12rcd13ifvqbi0","pricing_plan_id":"cebpf4jnsgd1na2vs0mg"},{"bike_id":"8ecb5456-3b63-4762-ac78-97e0f1e83274","system_id":"levelo_inurba_marseille","lat":43.30535,"lon":5.38431,"is_reserved":false,"is_disabled":false,"rental_uris":{"android":"levelo://app?vid=8ecb5456-3b63-4762-ac78-97e0f1e83274","ios":"levelo://app?vid=8ecb5456-3b63-4762-ac78-97e0f1e83274"},"vehicle_type_id":"4","last_reported":1729990237,"current_range_meters":26800,"station_id":"ce4bgg92rcd13ifvqb30","pricing_plan_id":"cebpf4jnsgd1na2vs0mg"},{"bike_id":"356a8e33-4ab0-42f2-95a5-274f32429f87","system_id":"levelo_inurba_marseille","lat":43.301471,"lon":5.380844,"is_reserved":false,"is_disabled":false,"rental_uris":{"android":"levelo://app?vid=356a8e33-4ab0-42f2-95a5-274f32429f87","ios":"levelo://app?vid=356a8e33-4ab0-42f2-95a5-274f32429f87"},"vehicle_type_id":"4","last_reported":1729990237,"current_range_meters":15200,"station_id":"ce4bgjp2rcd13ifvqbh0","pricing_plan_id":"cebpf4jnsgd1na2vs0mg"},{"bike_id":"263f93c9-144a-4508-b60e-cbaf71ba2571","system_id":"levelo_inurba_marseille","lat":43.24182,"lon":5.39722,"is_reserved":false,"is_disabled":false,"rental_uris":{"android":"levelo://app?vid=263f93c9-144a-4508-b60e-cbaf71ba2571","ios":"levelo://app?vid=263f93c9-144a-4508-b60e-cbaf71ba2571"},"vehicle_type_id":"4","last_reported":1729990237,"current_range_meters":38800,"station_id":"ce4bhn12rcd13ifvqgpg","pricing_plan_id":"cebpf4jnsgd1na2vs0mg"},{"bike_id":"f9dd0103-b045-4d3e-97f0-feaf4a2d3923","system_id":"levelo_inurba_marseille","lat":43.25001,"lon":5.38919,"is_reserved":false,"is_disabled":false,"rental_uris":{"android":"levelo://app?vid=f9dd0103-b045-4d3e-97f0-feaf4a2d3923","ios":"levelo://app?vid=f9dd0103-b045-4d3e-97f0-feaf4a2d3923"},"vehicle_type_id":"4","last_reported":1729990237,"current_range_meters":7200,"station_id":"ce4bhgp2rcd13ifvqfd0","pricing_plan_id":"cebpf4jnsgd1na2vs0mg"},{"bike_id":"f7fe3846-5495-4f08-ae43-7dc7f4edade9","system_id":"levelo_inurba_marseille","lat":43.28944,"lon":5.36644,"is_reserved":false,"is_disabled":false,"rental_uris":{"android":"levelo://app?vid=f7fe3846-5495-4f08-ae43-7dc7f4edade9","ios":"levelo://app?vid=f7fe3846-5495-4f08-ae43-7dc7f4edade9"},"vehicle_type_id":"4","last_reported":1729990237,"current_range_meters":36000,"station_id":"ce4bhap2rcd13ifvqek0","pricing_plan_id":"cebpf4jnsgd1na2vs0mg"},{"bike_id":"40baf71c-ef18-419d-b9f5-7d6ef56f1bbc","system_id":"levelo_inurba_marseille","lat":43.30798,"lon":5.38161,"is_reserved":false,"is_disabled":false,"rental_uris":{"android":"levelo://app?vid=40baf71c-ef18-419d-b9f5-7d6ef56f1bbc","ios":"levelo://app?vid=40baf71c-ef18-419d-b9f5-7d6ef56f1bbc"},"vehicle_type_id":"4","last_reported":1729990237,"current_range_meters":20400,"station_id":"ce4bgt12rcd13ifvqce0","pricing_plan_id":"cebpf4jnsgd1na2vs0mg"},{"bike_id":"f35bff84-2694-4e18-9465-7d2a42e494d5","system_id":"levelo_inurba_marseille","lat":43.30642,"lon":5.40078,"is_reserved":false,"is_disabled":false,"rental_uris":{"android":"levelo://app?vid=f35bff84-2694-4e18-9465-7d2a42e494d5","ios":"levelo://app?vid=f35bff84-2694-4e18-9465-7d2a42e494d5"},"vehicle_type_id":"4","last_reported":1729990237,"current_range_meters":33600,"station_id":"ce4bh112rcd13ifvqda0","pricing_plan_id":"cebpf4jnsgd1na2vs0mg"},{"bike_id":"c5c25064-ae13-4d35-96b0-22775609212a","system_id":"levelo_inurba_marseille","lat":43.31351,"lon":5.38506,"is_reserved":false,"is_disabled":false,"rental_uris":{"android":"levelo://app?vid=c5c25064-ae13-4d35-96b0-22775609212a","ios":"levelo://app?vid=c5c25064-ae13-4d35-96b0-22775609212a"},"vehicle_type_id":"4","last_reported":1729990237,"current_range_meters":7200,"station_id":"ce4bgt92rcd13ifvqcf0","pricing_plan_id":"cebpf4jnsgd1na2vs0mg"},{"bike_id":"c7493202-7ba4-4657-a88f-5b1ffe0cc379","system_id":"levelo_inurba_marseille","lat":43.2573,"lon":5.41108,"is_reserved":false,"is_disabled":false,"rental_uris":{"android":"levelo://app?vid=c7493202-7ba4-4657-a88f-5b1ffe0cc379","ios":"levelo://app?vid=c7493202-7ba4-4657-a88f-5b1ffe0cc379"},"vehicle_type_id":"4","last_reported":1729990237,"current_range_meters":38800,"station_id":"ce4bhkp2rcd13ifvqgd0","pricing_plan_id":"cebpf4jnsgd1na2vs0mg"},{"bike_id":"fdb7a2ea-1502-497e-9330-45cbda59e4b8","system_id":"levelo_inurba_marseille","lat":43.25931,"lon":5.40923,"is_reserved":false,"is_disabled":false,"rental_uris":{"android":"levelo://app?vid=fdb7a2ea-1502-497e-9330-45cbda59e4b8","ios":"levelo://app?vid=fdb7a2ea-1502-497e-9330-45cbda59e4b8"},"vehicle_type_id":"4","last_reported":1729990237,"current_range_meters":38800,"station_id":"ce4bhm92rcd13ifvqglg","pricing_plan_id":"cebpf4jnsgd1na2vs0mg"},{"bike_id":"adca9b34-2a5e-4d6f-a753-6c263a8a2218","system_id":"levelo_inurba_marseille","lat":43.288534,"lon":5.358515,"is_reserved":false,"is_disabled":false,"rental_uris":{"android":"levelo://app?vid=adca9b34-2a5e-4d6f-a753-6c263a8a2218","ios":"levelo://app?vid=adca9b34-2a5e-4d6f-a753-6c263a8a2218"},"vehicle_type_id":"4","last_reported":1729990237,"current_range_meters":39200,"station_id":"ce4bhb12rcd13ifvqem0","pricing_plan_id":"cebpf4jnsgd1na2vs0mg"},{"bike_id":"fbabd65a-eb4c-4079-98ce-24263a2a8430","system_id":"levelo_inurba_marseille","lat":43.24652,"lon":5.38896,"is_reserved":false,"is_disabled":false,"rental_uris":{"android":"levelo://app?vid=fbabd65a-eb4c-4079-98ce-24263a2a8430","ios":"levelo://app?vid=fbabd65a-eb4c-4079-98ce-24263a2a8430"},"vehicle_type_id":"4","last_reported":1729990237,"current_range_meters":38800,"station_id":"ce4bhg12rcd13ifvqf60","pricing_plan_id":"cebpf4jnsgd1na2vs0mg"},{"bike_id":"98e33aa4-2131-4227-b5ee-7452ffb51601","system_id":"levelo_inurba_marseille","lat":43.30313,"lon":5.36911,"is_reserved":false,"is_disabled":false,"rental_uris":{"android":"levelo://app?vid=98e33aa4-2131-4227-b5ee-7452ffb51601","ios":"levelo://app?vid=98e33aa4-2131-4227-b5ee-7452ffb51601"},"vehicle_type_id":"4","last_reported":1729990237,"current_range_meters":39200,"station_id":"ce4bgqh2rcd13ifvqc5g","pricing_plan_id":"cebpf4jnsgd1na2vs0mg"},{"bike_id":"4a13521f-ec1d-4554-8055-400d982efef0","system_id":"levelo_inurba_marseille","lat":43.29048,"lon":5.35915,"is_reserved":false,"is_disabled":false,"rental_uris":{"android":"levelo://app?vid=4a13521f-ec1d-4554-8055-400d982efef0","ios":"levelo://app?vid=4a13521f-ec1d-4554-8055-400d982efef0"},"vehicle_type_id":"4","last_reported":1729990237,"current_range_meters":20000,"station_id":"ce4bha92rcd13ifvqeg0","pricing_plan_id":"cebpf4jnsgd1na2vs0mg"},{"bike_id":"8e05c1c9-c561-470b-83c7-44b67333075d","system_id":"levelo_inurba_marseille","lat":43.29272,"lon":5.3845,"is_reserved":false,"is_disabled":false,"rental_uris":{"android":"levelo://app?vid=8e05c1c9-c561-470b-83c7-44b67333075d","ios":"levelo://app?vid=8e05c1c9-c561-470b-83c7-44b67333075d"},"vehicle_type_id":"4","last_reported":1729990237,"current_range_meters":38400,"station_id":"ce4bh692rcd13ifvqea0","pricing_plan_id":"cebpf4jnsgd1na2vs0mg"},{"bike_id":"b3b80d53-4198-4a51-a57d-a6ff1e361e88","system_id":"levelo_inurba_marseille","lat":43.28152,"lon":5.42644,"is_reserved":false,"is_disabled":false,"rental_uris":{"android":"levelo://app?vid=b3b80d53-4198-4a51-a57d-a6ff1e361e88","ios":"levelo://app?vid=b3b80d53-4198-4a51-a57d-a6ff1e361e88"},"vehicle_type_id":"4","last_reported":1729990237,"current_range_meters":39200,"station_id":"ce4bhnh2rcd13ifvqgug","pricing_plan_id":"cebpf4jnsgd1na2vs0mg"},{"bike_id":"0ecf5e07-d4ac-4f2c-bd1b-3acf9f99ddc6","system_id":"levelo_inurba_marseille","lat":43.2602,"lon":5.37554,"is_reserved":false,"is_disabled":false,"rental_uris":{"android":"levelo://app?vid=0ecf5e07-d4ac-4f2c-bd1b-3acf9f99ddc6","ios":"levelo://app?vid=0ecf5e07-d4ac-4f2c-bd1b-3acf9f99ddc6"},"vehicle_type_id":"4","last_reported":1729990237,"current_range_meters":37600,"station_id":"ce4bhgh2rcd13ifvqfa0","pricing_plan_id":"cebpf4jnsgd1na2vs0mg"},{"bike_id":"48e66b17-4371-4e17-9d32-8d4b1940654f","system_id":"levelo_inurba_marseille","lat":43.29883,"lon":5.39745,"is_reserved":false,"is_disabled":false,"rental_uris":{"android":"levelo://app?vid=48e66b17-4371-4e17-9d32-8d4b1940654f","ios":"levelo://app?vid=48e66b17-4371-4e17-9d32-8d4b1940654f"},"vehicle_type_id":"4","last_reported":1729990237,"current_range_meters":38800,"station_id":"ce4bh0h2rcd13ifvqd50","pricing_plan_id":"cebpf4jnsgd1na2vs0mg"},{"bike_id":"3440d9b5-3e68-45f4-98be-6b0e41381653","system_id":"levelo_inurba_marseille","lat":43.28442,"lon":5.39187,"is_reserved":false,"is_disabled":false,"rental_uris":{"android":"levelo://app?vid=3440d9b5-3e68-45f4-98be-6b0e41381653","ios":"levelo://app?vid=3440d9b5-3e68-45f4-98be-6b0e41381653"},"vehicle_type_id":"4","last_reported":1729990237,"current_range_meters":24400,"station_id":"ce4bhoh2rcd13ifvqh5g","pricing_plan_id":"cebpf4jnsgd1na2vs0mg"},{"bike_id":"961a5055-8cb5-4d95-ac0a-035d3b947247","system_id":"levelo_inurba_marseille","lat":43.29348,"lon":5.45561,"is_reserved":false,"is_disabled":false,"rental_uris":{"android":"levelo://app?vid=961a5055-8cb5-4d95-ac0a-035d3b947247","ios":"levelo://app?vid=961a5055-8cb5-4d95-ac0a-035d3b947247"},"vehicle_type_id":"4","last_reported":1729990237,"current_range_meters":32800,"station_id":"","pricing_plan_id":"cebpf4jnsgd1na2vs0mg"},{"bike_id":"dd0d410c-225e-4546-94b2-23604facd63a","system_id":"levelo_inurba_marseille","lat":43.30183,"lon":5.36627,"is_reserved":false,"is_disabled":false,"rental_uris":{"android":"levelo://app?vid=dd0d410c-225e-4546-94b2-23604facd63a","ios":"levelo://app?vid=dd0d410c-225e-4546-94b2-23604facd63a"},"vehicle_type_id":"4","last_reported":1729990237,"current_range_meters":38400,"station_id":"ce4bgrh2rcd13ifvqc8g","pricing_plan_id":"cebpf4jnsgd1na2vs0mg"},{"bike_id":"c4f16691-f8e1-494d-b2b9-e447f16bf18a","system_id":"levelo_inurba_marseille","lat":43.25825,"lon":5.39442,"is_reserved":false,"is_disabled":false,"rental_uris":{"android":"levelo://app?vid=c4f16691-f8e1-494d-b2b9-e447f16bf18a","ios":"levelo://app?vid=c4f16691-f8e1-494d-b2b9-e447f16bf18a"},"vehicle_type_id":"4","last_reported":1729990237,"current_range_meters":23200,"station_id":"ce4bhip2rcd13ifvqft0","pricing_plan_id":"cebpf4jnsgd1na2vs0mg"},{"bike_id":"597e7183-d3ae-48a7-ad36-ad4ed5ace998","system_id":"levelo_inurba_marseille","lat":43.29787,"lon":5.37094,"is_reserved":false,"is_disabled":false,"rental_uris":{"android":"levelo://app?vid=597e7183-d3ae-48a7-ad36-ad4ed5ace998","ios":"levelo://app?vid=597e7183-d3ae-48a7-ad36-ad4ed5ace998"},"vehicle_type_id":"4","last_reported":1729990237,"current_range_meters":38800,"station_id":"ce4bgop2rcd13ifvqc1g","pricing_plan_id":"cebpf4jnsgd1na2vs0mg"},{"bike_id":"8d1224ea-8c67-414f-8e8e-8dff85dd0343","system_id":"levelo_inurba_marseille","lat":43.25003,"lon":5.38934,"is_reserved":false,"is_disabled":false,"rental_uris":{"android":"levelo://app?vid=8d1224ea-8c67-414f-8e8e-8dff85dd0343","ios":"levelo://app?vid=8d1224ea-8c67-414f-8e8e-8dff85dd0343"},"vehicle_type_id":"4","last_reported":1729990237,"current_range_meters":38400,"station_id":"ce4bhgp2rcd13ifvqfd0","pricing_plan_id":"cebpf4jnsgd1na2vs0mg"},{"bike_id":"9befed88-9f8c-464c-b07b-093bd97066bb","system_id":"levelo_inurba_marseille","lat":43.29805,"lon":5.37136,"is_reserved":false,"is_disabled":false,"rental_uris":{"android":"levelo://app?vid=9befed88-9f8c-464c-b07b-093bd97066bb","ios":"levelo://app?vid=9befed88-9f8c-464c-b07b-093bd97066bb"},"vehicle_type_id":"4","last_reported":1729990237,"current_range_meters":22000,"station_id":"","pricing_plan_id":"cebpf4jnsgd1na2vs0mg"},{"bike_id":"29f7371e-02dc-4b25-a649-b19f3dbb6ba0","system_id":"levelo_inurba_marseille","lat":43.3098,"lon":5.39298,"is_reserved":false,"is_disabled":false,"rental_uris":{"android":"levelo://app?vid=29f7371e-02dc-4b25-a649-b19f3dbb6ba0","ios":"levelo://app?vid=29f7371e-02dc-4b25-a649-b19f3dbb6ba0"},"vehicle_type_id":"4","last_reported":1729990237,"current_range_meters":5600,"station_id":"","pricing_plan_id":"cebpf4jnsgd1na2vs0mg"},{"bike_id":"f37e3b02-a49c-4c4e-b112-f9c8c24edf90","system_id":"levelo_inurba_marseille","lat":43.23184,"lon":5.35559,"is_reserved":false,"is_disabled":false,"rental_uris":{"android":"levelo://app?vid=f37e3b02-a49c-4c4e-b112-f9c8c24edf90","ios":"levelo://app?vid=f37e3b02-a49c-4c4e-b112-f9c8c24edf90"},"vehicle_type_id":"4","last_reported":1729990237,"current_range_meters":19200,"station_id":"ce4bhu92rcd13ifvqi70","pricing_plan_id":"cebpf4jnsgd1na2vs0mg"},{"bike_id":"0a222f5d-adc1-4317-8d02-88d678984053","system_id":"levelo_inurba_marseille","lat":43.28264,"lon":5.35082,"is_reserved":false,"is_disabled":false,"rental_uris":{"android":"levelo://app?vid=0a222f5d-adc1-4317-8d02-88d678984053","ios":"levelo://app?vid=0a222f5d-adc1-4317-8d02-88d678984053"},"vehicle_type_id":"4","last_reported":1729990237,"current_range_meters":28000,"station_id":"ce4bhbp2rcd13ifvqerg","pricing_plan_id":"cebpf4jnsgd1na2vs0mg"},{"bike_id":"663ba963-05ba-47b6-ab7d-d952d23b86ad","system_id":"levelo_inurba_marseille","lat":43.28854,"lon":5.39317,"is_reserved":false,"is_disabled":false,"rental_uris":{"android":"levelo://app?vid=663ba963-05ba-47b6-ab7d-d952d23b86ad","ios":"levelo://app?vid=663ba963-05ba-47b6-ab7d-d952d23b86ad"},"vehicle_type_id":"4","last_reported":1729990237,"current_range_meters":17600,"station_id":"ce4bh2p2rcd13ifvqdi0","pricing_plan_id":"cebpf4jnsgd1na2vs0mg"},{"bike_id":"b08424df-f8f7-45de-adfe-11ac087e3883","system_id":"levelo_inurba_marseille","lat":43.28975,"lon":5.37839,"is_reserved":false,"is_disabled":false,"rental_uris":{"android":"levelo://app?vid=b08424df-f8f7-45de-adfe-11ac087e3883","ios":"levelo://app?vid=b08424df-f8f7-45de-adfe-11ac087e3883"},"vehicle_type_id":"4","last_reported":1729990237,"current_range_meters":37600,"station_id":"ce4bh9p2rcd13ifvqed0","pricing_plan_id":"cebpf4jnsgd1na2vs0mg"},{"bike_id":"e8f7756b-9b3c-46b3-ab7c-fb2ca8edfd78","system_id":"levelo_inurba_marseille","lat":43.30603,"lon":5.39364,"is_reserved":false,"is_disabled":false,"rental_uris":{"android":"levelo://app?vid=e8f7756b-9b3c-46b3-ab7c-fb2ca8edfd78","ios":"levelo://app?vid=e8f7756b-9b3c-46b3-ab7c-fb2ca8edfd78"},"vehicle_type_id":"4","last_reported":1729990237,"current_range_meters":38800,"station_id":"ce4bh0p2rcd13ifvqd80","pricing_plan_id":"cebpf4jnsgd1na2vs0mg"},{"bike_id":"a4d2aac1-98f7-4ee9-bb54-2720ee698eac","system_id":"levelo_inurba_marseille","lat":43.25575,"lon":5.38237,"is_reserved":false,"is_disabled":false,"rental_uris":{"android":"levelo://app?vid=a4d2aac1-98f7-4ee9-bb54-2720ee698eac","ios":"levelo://app?vid=a4d2aac1-98f7-4ee9-bb54-2720ee698eac"},"vehicle_type_id":"4","last_reported":1729990237,"current_range_meters":34000,"station_id":"ce4bhih2rcd13ifvqfs0","pricing_plan_id":"cebpf4jnsgd1na2vs0mg"},{"bike_id":"dad2718b-ffdf-4024-8a84-70e058921ae1","system_id":"levelo_inurba_marseille","lat":43.26056,"lon":5.39395,"is_reserved":false,"is_disabled":false,"rental_uris":{"android":"levelo://app?vid=dad2718b-ffdf-4024-8a84-70e058921ae1","ios":"levelo://app?vid=dad2718b-ffdf-4024-8a84-70e058921ae1"},"vehicle_type_id":"4","last_reported":1729990237,"current_range_meters":30400,"station_id":"ce4bhh92rcd13ifvqfj0","pricing_plan_id":"cebpf4jnsgd1na2vs0mg"},{"bike_id":"5c8d47df-cace-44d5-9922-d4ea86fc841f","system_id":"levelo_inurba_marseille","lat":43.23959,"lon":5.36645,"is_reserved":false,"is_disabled":false,"rental_uris":{"android":"levelo://app?vid=5c8d47df-cace-44d5-9922-d4ea86fc841f","ios":"levelo://app?vid=5c8d47df-cace-44d5-9922-d4ea86fc841f"},"vehicle_type_id":"4","last_reported":1729990237,"current_range_meters":38800,"station_id":"ce4bhi12rcd13ifvqfp0","pricing_plan_id":"cebpf4jnsgd1na2vs0mg"},{"bike_id":"4ec8ea4e-83cb-477a-a0c0-642421c6cc58","system_id":"levelo_inurba_marseille","lat":43.23187,"lon":5.39989,"is_reserved":false,"is_disabled":false,"rental_uris":{"android":"levelo://app?vid=4ec8ea4e-83cb-477a-a0c0-642421c6cc58","ios":"levelo://app?vid=4ec8ea4e-83cb-477a-a0c0-642421c6cc58"},"vehicle_type_id":"4","last_reported":1729990237,"current_range_meters":14400,"station_id":"ce4bhn12rcd13ifvqgqg","pricing_plan_id":"cebpf4jnsgd1na2vs0mg"},{"bike_id":"ee6b2608-9027-41b7-a594-abeda6889556","system_id":"levelo_inurba_marseille","lat":43.27496,"lon":5.42453,"is_reserved":false,"is_disabled":false,"rental_uris":{"android":"levelo://app?vid=ee6b2608-9027-41b7-a594-abeda6889556","ios":"levelo://app?vid=ee6b2608-9027-41b7-a594-abeda6889556"},"vehicle_type_id":"4","last_reported":1729990237,"current_range_meters":27600,"station_id":"ce4bhn92rcd13ifvqgrg","pricing_plan_id":"cebpf4jnsgd1na2vs0mg"},{"bike_id":"9aa41e00-f663-4e06-bfa4-9df421bd44ae","system_id":"levelo_inurba_marseille","lat":43.29571,"lon":5.39973,"is_reserved":false,"is_disabled":false,"rental_uris":{"android":"levelo://app?vid=9aa41e00-f663-4e06-bfa4-9df421bd44ae","ios":"levelo://app?vid=9aa41e00-f663-4e06-bfa4-9df421bd44ae"},"vehicle_type_id":"4","last_reported":1729990237,"current_range_meters":36400,"station_id":"ce4bh312rcd13ifvqdj0","pricing_plan_id":"cebpf4jnsgd1na2vs0mg"},{"bike_id":"634fa0ef-e7c5-4411-ba71-8fc084888fcb","system_id":"levelo_inurba_marseille","lat":43.27494,"lon":5.42456,"is_reserved":false,"is_disabled":false,"rental_uris":{"android":"levelo://app?vid=634fa0ef-e7c5-4411-ba71-8fc084888fcb","ios":"levelo://app?vid=634fa0ef-e7c5-4411-ba71-8fc084888fcb"},"vehicle_type_id":"4","last_reported":1729990237,"current_range_meters":28800,"station_id":"ce4bhn92rcd13ifvqgrg","pricing_plan_id":"cebpf4jnsgd1na2vs0mg"},{"bike_id":"63dffe58-b321-4992-b66b-9f28a3e3e3b4","system_id":"levelo_inurba_marseille","lat":43.29969,"lon":5.4132,"is_reserved":false,"is_disabled":false,"rental_uris":{"android":"levelo://app?vid=63dffe58-b321-4992-b66b-9f28a3e3e3b4","ios":"levelo://app?vid=63dffe58-b321-4992-b66b-9f28a3e3e3b4"},"vehicle_type_id":"4","last_reported":1729990237,"current_range_meters":38800,"station_id":"ce4bhp12rcd13ifvqh9g","pricing_plan_id":"cebpf4jnsgd1na2vs0mg"},{"bike_id":"40fec54c-58e3-407b-b5e5-440e0cc2e666","system_id":"levelo_inurba_marseille","lat":43.28658,"lon":5.3636,"is_reserved":false,"is_disabled":false,"rental_uris":{"android":"levelo://app?vid=40fec54c-58e3-407b-b5e5-440e0cc2e666","ios":"levelo://app?vid=40fec54c-58e3-407b-b5e5-440e0cc2e666"},"vehicle_type_id":"4","last_reported":1729990237,"current_range_meters":24800,"station_id":"ce4bhah2rcd13ifvqej0","pricing_plan_id":"cebpf4jnsgd1na2vs0mg"},{"bike_id":"d4a063d0-710a-490f-9214-5d9a82ceb523","system_id":"levelo_inurba_marseille","lat":43.28706,"lon":5.37384,"is_reserved":false,"is_disabled":false,"rental_uris":{"android":"levelo://app?vid=d4a063d0-710a-490f-9214-5d9a82ceb523","ios":"levelo://app?vid=d4a063d0-710a-490f-9214-5d9a82ceb523"},"vehicle_type_id":"4","last_reported":1729990237,"current_range_meters":38000,"station_id":"ce4bh3p2rcd13ifvqdq0","pricing_plan_id":"cebpf4jnsgd1na2vs0mg"},{"bike_id":"37590886-1dd8-4a97-a312-8f65cac759c2","system_id":"levelo_inurba_marseille","lat":43.28934,"lon":5.36637,"is_reserved":false,"is_disabled":false,"rental_uris":{"android":"levelo://app?vid=37590886-1dd8-4a97-a312-8f65cac759c2","ios":"levelo://app?vid=37590886-1dd8-4a97-a312-8f65cac759c2"},"vehicle_type_id":"4","last_reported":1729990237,"current_range_meters":32000,"station_id":"ce4bhap2rcd13ifvqek0","pricing_plan_id":"cebpf4jnsgd1na2vs0mg"},{"bike_id":"6ea3aa44-8317-47f3-8561-2c69459d5df0","system_id":"levelo_inurba_marseille","lat":43.2962,"lon":5.37168,"is_reserved":false,"is_disabled":false,"rental_uris":{"android":"levelo://app?vid=6ea3aa44-8317-47f3-8561-2c69459d5df0","ios":"levelo://app?vid=6ea3aa44-8317-47f3-8561-2c69459d5df0"},"vehicle_type_id":"4","last_reported":1729990237,"current_range_meters":23200,"station_id":"ce4bgnh2rcd13ifvqc0g","pricing_plan_id":"cebpf4jnsgd1na2vs0mg"},{"bike_id":"1db32e2e-6598-4668-aed6-79d6577c821b","system_id":"levelo_inurba_marseille","lat":43.31326,"lon":5.397,"is_reserved":false,"is_disabled":false,"rental_uris":{"android":"levelo://app?vid=1db32e2e-6598-4668-aed6-79d6577c821b","ios":"levelo://app?vid=1db32e2e-6598-4668-aed6-79d6577c821b"},"vehicle_type_id":"4","last_reported":1729990237,"current_range_meters":26000,"station_id":"ce4bgvp2rcd13ifvqcu0","pricing_plan_id":"cebpf4jnsgd1na2vs0mg"},{"bike_id":"ea647594-c50a-49ec-a6b2-fecc8ef7ea5c","system_id":"levelo_inurba_marseille","lat":43.29019,"lon":5.38141,"is_reserved":false,"is_disabled":false,"rental_uris":{"android":"levelo://app?vid=ea647594-c50a-49ec-a6b2-fecc8ef7ea5c","ios":"levelo://app?vid=ea647594-c50a-49ec-a6b2-fecc8ef7ea5c"},"vehicle_type_id":"4","last_reported":1729990237,"current_range_meters":38800,"station_id":"ce4bh4p2rcd13ifvqe1g","pricing_plan_id":"cebpf4jnsgd1na2vs0mg"},{"bike_id":"31f69d6c-a076-4010-9caa-7569a7134fe2","system_id":"levelo_inurba_marseille","lat":43.3154,"lon":5.38035,"is_reserved":false,"is_disabled":false,"rental_uris":{"android":"levelo://app?vid=31f69d6c-a076-4010-9caa-7569a7134fe2","ios":"levelo://app?vid=31f69d6c-a076-4010-9caa-7569a7134fe2"},"vehicle_type_id":"4","last_reported":1729990237,"current_range_meters":38000,"station_id":"ce4bhsp2rcd13ifvqi50","pricing_plan_id":"cebpf4jnsgd1na2vs0mg"},{"bike_id":"761d7b72-49a6-4bca-a466-fdec58992959","system_id":"levelo_inurba_marseille","lat":43.3055,"lon":5.36707,"is_reserved":false,"is_disabled":false,"rental_uris":{"android":"levelo://app?vid=761d7b72-49a6-4bca-a466-fdec58992959","ios":"levelo://app?vid=761d7b72-49a6-4bca-a466-fdec58992959"},"vehicle_type_id":"4","last_reported":1729990237,"current_range_meters":28400,"station_id":"ce4bgrp2rcd13ifvqc9g","pricing_plan_id":"cebpf4jnsgd1na2vs0mg"},{"bike_id":"b425a53a-2ca1-45d6-9375-1a007f59f76d","system_id":"levelo_inurba_marseille","lat":43.27423,"lon":5.39413,"is_reserved":false,"is_disabled":false,"rental_uris":{"android":"levelo://app?vid=b425a53a-2ca1-45d6-9375-1a007f59f76d","ios":"levelo://app?vid=b425a53a-2ca1-45d6-9375-1a007f59f76d"},"vehicle_type_id":"4","last_reported":1729990237,"current_range_meters":17200,"station_id":"ce4bhdp2rcd13ifvqf20","pricing_plan_id":"cebpf4jnsgd1na2vs0mg"},{"bike_id":"c821523e-88fe-4141-b5a0-443ea337915b","system_id":"levelo_inurba_marseille","lat":43.31535,"lon":5.38042,"is_reserved":false,"is_disabled":false,"rental_uris":{"android":"levelo://app?vid=c821523e-88fe-4141-b5a0-443ea337915b","ios":"levelo://app?vid=c821523e-88fe-4141-b5a0-443ea337915b"},"vehicle_type_id":"4","last_reported":1729990237,"current_range_meters":22400,"station_id":"ce4bhsp2rcd13ifvqi50","pricing_plan_id":"cebpf4jnsgd1na2vs0mg"},{"bike_id":"d78c6e46-c5ec-463d-abb4-cc8adc32798a","system_id":"levelo_inurba_marseille","lat":43.31171,"lon":5.38712,"is_reserved":false,"is_disabled":false,"rental_uris":{"android":"levelo://app?vid=d78c6e46-c5ec-463d-abb4-cc8adc32798a","ios":"levelo://app?vid=d78c6e46-c5ec-463d-abb4-cc8adc32798a"},"vehicle_type_id":"4","last_reported":1729990237,"current_range_meters":39200,"station_id":"ce4bgv12rcd13ifvqcp0","pricing_plan_id":"cebpf4jnsgd1na2vs0mg"},{"bike_id":"a1b80174-51e4-493d-96af-04d40eab308b","system_id":"levelo_inurba_marseille","lat":43.28074,"lon":5.39658,"is_reserved":false,"is_disabled":false,"rental_uris":{"android":"levelo://app?vid=a1b80174-51e4-493d-96af-04d40eab308b","ios":"levelo://app?vid=a1b80174-51e4-493d-96af-04d40eab308b"},"vehicle_type_id":"4","last_reported":1729990237,"current_range_meters":38800,"station_id":"ce4bho12rcd13ifvqh2g","pricing_plan_id":"cebpf4jnsgd1na2vs0mg"},{"bike_id":"2fdd8efd-807f-43c0-a5f8-acb8d352d834","system_id":"levelo_inurba_marseille","lat":43.32365,"lon":5.38889,"is_reserved":false,"is_disabled":false,"rental_uris":{"android":"levelo://app?vid=2fdd8efd-807f-43c0-a5f8-acb8d352d834","ios":"levelo://app?vid=2fdd8efd-807f-43c0-a5f8-acb8d352d834"},"vehicle_type_id":"4","last_reported":1729990237,"current_range_meters":7200,"station_id":"ce4bhqp2rcd13ifvqhog","pricing_plan_id":"cebpf4jnsgd1na2vs0mg"},{"bike_id":"e8cb0ccf-6644-4ed0-b6c3-21c9825b43fd","system_id":"levelo_inurba_marseille","lat":43.29628,"lon":5.37163,"is_reserved":false,"is_disabled":false,"rental_uris":{"android":"levelo://app?vid=e8cb0ccf-6644-4ed0-b6c3-21c9825b43fd","ios":"levelo://app?vid=e8cb0ccf-6644-4ed0-b6c3-21c9825b43fd"},"vehicle_type_id":"4","last_reported":1729990237,"current_range_meters":38400,"station_id":"ce4bgnh2rcd13ifvqc0g","pricing_plan_id":"cebpf4jnsgd1na2vs0mg"},{"bike_id":"43df6f01-ce4c-441f-bf0c-95fe2920d7eb","system_id":"levelo_inurba_marseille","lat":43.26562,"lon":5.3901,"is_reserved":false,"is_disabled":false,"rental_uris":{"android":"levelo://app?vid=43df6f01-ce4c-441f-bf0c-95fe2920d7eb","ios":"levelo://app?vid=43df6f01-ce4c-441f-bf0c-95fe2920d7eb"},"vehicle_type_id":"4","last_reported":1729990237,"current_range_meters":30400,"station_id":"ce4bhe12rcd13ifvqf30","pricing_plan_id":"cebpf4jnsgd1na2vs0mg"},{"bike_id":"9d039bc7-534f-4e39-877f-fa94b0396e59","system_id":"levelo_inurba_marseille","lat":43.27181,"lon":5.40998,"is_reserved":false,"is_disabled":false,"rental_uris":{"android":"levelo://app?vid=9d039bc7-534f-4e39-877f-fa94b0396e59","ios":"levelo://app?vid=9d039bc7-534f-4e39-877f-fa94b0396e59"},"vehicle_type_id":"4","last_reported":1729990237,"current_range_meters":38800,"station_id":"ce4bhl12rcd13ifvqgf0","pricing_plan_id":"cebpf4jnsgd1na2vs0mg"},{"bike_id":"88236a9d-379e-43ef-8943-262600ae9ee1","system_id":"levelo_inurba_marseille","lat":43.25937,"lon":5.40906,"is_reserved":false,"is_disabled":false,"rental_uris":{"android":"levelo://app?vid=88236a9d-379e-43ef-8943-262600ae9ee1","ios":"levelo://app?vid=88236a9d-379e-43ef-8943-262600ae9ee1"},"vehicle_type_id":"4","last_reported":1729990237,"current_range_meters":38800,"station_id":"ce4bhm92rcd13ifvqglg","pricing_plan_id":"cebpf4jnsgd1na2vs0mg"},{"bike_id":"15db73b0-1d6d-44e8-90b8-473b9bae228b","system_id":"levelo_inurba_marseille","lat":43.3136,"lon":5.38507,"is_reserved":false,"is_disabled":false,"rental_uris":{"android":"levelo://app?vid=15db73b0-1d6d-44e8-90b8-473b9bae228b","ios":"levelo://app?vid=15db73b0-1d6d-44e8-90b8-473b9bae228b"},"vehicle_type_id":"4","last_reported":1729990237,"current_range_meters":39200,"station_id":"ce4bgt92rcd13ifvqcf0","pricing_plan_id":"cebpf4jnsgd1na2vs0mg"},{"bike_id":"c3f36ed2-a58c-41e0-99c5-563ab61a37d9","system_id":"levelo_inurba_marseille","lat":43.25082,"lon":5.39521,"is_reserved":false,"is_disabled":false,"rental_uris":{"android":"levelo://app?vid=c3f36ed2-a58c-41e0-99c5-563ab61a37d9","ios":"levelo://app?vid=c3f36ed2-a58c-41e0-99c5-563ab61a37d9"},"vehicle_type_id":"4","last_reported":1729990237,"current_range_meters":26800,"station_id":"ce4bhm12rcd13ifvqgkg","pricing_plan_id":"cebpf4jnsgd1na2vs0mg"},{"bike_id":"b0913355-e7c9-4023-b7aa-874aebb7bed4","system_id":"levelo_inurba_marseille","lat":43.29784,"lon":5.37132,"is_reserved":false,"is_disabled":false,"rental_uris":{"android":"levelo://app?vid=b0913355-e7c9-4023-b7aa-874aebb7bed4","ios":"levelo://app?vid=b0913355-e7c9-4023-b7aa-874aebb7bed4"},"vehicle_type_id":"4","last_reported":1729990237,"current_range_meters":10800,"station_id":"ce4bgop2rcd13ifvqc1g","pricing_plan_id":"cebpf4jnsgd1na2vs0mg"},{"bike_id":"eb0808ca-8d8b-4e94-ac30-2519244a4e1b","system_id":"levelo_inurba_marseille","lat":43.298697,"lon":5.397478,"is_reserved":false,"is_disabled":false,"rental_uris":{"android":"levelo://app?vid=eb0808ca-8d8b-4e94-ac30-2519244a4e1b","ios":"levelo://app?vid=eb0808ca-8d8b-4e94-ac30-2519244a4e1b"},"vehicle_type_id":"4","last_reported":1729990237,"current_range_meters":12000,"station_id":"ce4bh0h2rcd13ifvqd50","pricing_plan_id":"cebpf4jnsgd1na2vs0mg"},{"bike_id":"f5865feb-85b3-4c38-a999-3a02be0f562a","system_id":"levelo_inurba_marseille","lat":43.25719,"lon":5.41122,"is_reserved":false,"is_disabled":false,"rental_uris":{"android":"levelo://app?vid=f5865feb-85b3-4c38-a999-3a02be0f562a","ios":"levelo://app?vid=f5865feb-85b3-4c38-a999-3a02be0f562a"},"vehicle_type_id":"4","last_reported":1729990237,"current_range_meters":39200,"station_id":"ce4bhkp2rcd13ifvqgd0","pricing_plan_id":"cebpf4jnsgd1na2vs0mg"},{"bike_id":"ea086746-3571-4e52-a14c-3c0edb30b46a","system_id":"levelo_inurba_marseille","lat":43.29252,"lon":5.40917,"is_reserved":false,"is_disabled":false,"rental_uris":{"android":"levelo://app?vid=ea086746-3571-4e52-a14c-3c0edb30b46a","ios":"levelo://app?vid=ea086746-3571-4e52-a14c-3c0edb30b46a"},"vehicle_type_id":"4","last_reported":1729990237,"current_range_meters":39200,"station_id":"ce4bh192rcd13ifvqdc0","pricing_plan_id":"cebpf4jnsgd1na2vs0mg"},{"bike_id":"315552ae-12d3-4b73-b5ec-d1580a4accf3","system_id":"levelo_inurba_marseille","lat":43.31276,"lon":5.40187,"is_reserved":false,"is_disabled":false,"rental_uris":{"android":"levelo://app?vid=315552ae-12d3-4b73-b5ec-d1580a4accf3","ios":"levelo://app?vid=315552ae-12d3-4b73-b5ec-d1580a4accf3"},"vehicle_type_id":"4","last_reported":1729990237,"current_range_meters":28400,"station_id":"ce4bh092rcd13ifvqd30","pricing_plan_id":"cebpf4jnsgd1na2vs0mg"},{"bike_id":"b8b5f182-813f-412c-bef1-fce39a7e9df5","system_id":"levelo_inurba_marseille","lat":43.28275,"lon":5.35082,"is_reserved":false,"is_disabled":false,"rental_uris":{"android":"levelo://app?vid=b8b5f182-813f-412c-bef1-fce39a7e9df5","ios":"levelo://app?vid=b8b5f182-813f-412c-bef1-fce39a7e9df5"},"vehicle_type_id":"4","last_reported":1729990237,"current_range_meters":36400,"station_id":"ce4bhbp2rcd13ifvqerg","pricing_plan_id":"cebpf4jnsgd1na2vs0mg"},{"bike_id":"d4b0d68a-ae82-42a1-b0da-b39254ee1044","system_id":"levelo_inurba_marseille","lat":43.23201,"lon":5.35549,"is_reserved":false,"is_disabled":false,"rental_uris":{"android":"levelo://app?vid=d4b0d68a-ae82-42a1-b0da-b39254ee1044","ios":"levelo://app?vid=d4b0d68a-ae82-42a1-b0da-b39254ee1044"},"vehicle_type_id":"4","last_reported":1729990237,"current_range_meters":14000,"station_id":"ce4bhu92rcd13ifvqi70","pricing_plan_id":"cebpf4jnsgd1na2vs0mg"},{"bike_id":"5f50ed72-84a6-4dbf-bc2b-a059f5899621","system_id":"levelo_inurba_marseille","lat":43.31534,"lon":5.3802,"is_reserved":false,"is_disabled":false,"rental_uris":{"android":"levelo://app?vid=5f50ed72-84a6-4dbf-bc2b-a059f5899621","ios":"levelo://app?vid=5f50ed72-84a6-4dbf-bc2b-a059f5899621"},"vehicle_type_id":"4","last_reported":1729990237,"current_range_meters":14800,"station_id":"ce4bhsp2rcd13ifvqi50","pricing_plan_id":"cebpf4jnsgd1na2vs0mg"},{"bike_id":"b36635ec-777f-460b-8fc4-683b4e7937dc","system_id":"levelo_inurba_marseille","lat":43.23961,"lon":5.36649,"is_reserved":false,"is_disabled":false,"rental_uris":{"android":"levelo://app?vid=b36635ec-777f-460b-8fc4-683b4e7937dc","ios":"levelo://app?vid=b36635ec-777f-460b-8fc4-683b4e7937dc"},"vehicle_type_id":"4","last_reported":1729990237,"current_range_meters":19200,"station_id":"ce4bhi12rcd13ifvqfp0","pricing_plan_id":"cebpf4jnsgd1na2vs0mg"},