{"last_updated":1745399507,"ttl":60,"version":"2.2","data":{"bikes":[{"bike_id":"126bae23-ecca-411a-aed1-8991d96d5734","system_id":"levelo_inurba_marseille","lat":43.290533,"lon":5.377934,"is_reserved":false,"is_disabled":false,"rental_uris":{"android":"levelo://app?vid=126bae23-ecca-411a-aed1-8991d96d5734","ios":"levelo://app?vid=126bae23-ecca-411a-aed1-8991d96d5734"},"vehicle_type_id":"4","last_reported":1745399507,"current_range_meters":2800,"station_id":"ce4bh9p2rcd13ifvqed0","pricing_plan_id":"cebpf4jnsgd1na2vs0mg"},{"bike_id":"a17fba98-9b12-4bfd-8d28-046cc31f4f36","system_id":"levelo_inurba_marseille","lat":43.33604,"lon":5.41034,"is_reserved":false,"is_disabled":false,"rental_uris":{"android":"levelo://app?vid=a17fba98-9b12-4bfd-8d28-046cc31f4f36","ios":"levelo://app?vid=a17fba98-9b12-4bfd-8d28-046cc31f4f36"},"vehicle_type_id":"4","last_reported":1745399507,"current_range_meters":2800,"station_id":"ce4bhqh2rcd13ifvqhmg","pricing_plan_id":"cebpf4jnsgd1na2vs0mg"},{"bike_id":"14c4b7cc-07ca-4a45-b0e0-32f04571a6e1","system_id":"levelo_inurba_marseille","lat":43.33625,"lon":5.41005,"is_reserved":false,"is_disabled":false,"rental_uris":{"android":"levelo://app?vid=14c4b7cc-07ca-4a45-b0e0-32f04571a6e1","ios":"levelo://app?vid=14c4b7cc-07ca-4a45-b0e0-32f04571a6e1"},"vehicle_type_id":"4","last_reported":1745399507,"current_range_meters":2800,"station_id":"ce4bhqh2rcd13ifvqhmg","pricing_plan_id":"cebpf4jnsgd1na2vs0mg"},{"bike_id":"a2a3b9e0-f7a9-40d7-a418-3fd94d2ba531","system_id":"levelo_inurba_marseille","lat":43.30292,"lon":5.36918,"is_reserved":false,"is_disabled":false,"rental_uris":{"android":"levelo://app?vid=a2a3b9e0-f7a9-40d7-a418-3fd94d2ba531","ios":"levelo://app?vid=a2a3b9e0-f7a9-40d7-a418-3fd94d2ba531"},"vehicle_type_id":"4","last_reported":1745399507,"current_range_meters":3200,"station_id":"ce4bgqh2rcd13ifvqc5g","pricing_plan_id":"cebpf4jnsgd1na2vs0mg"},{"bike_id":"784543df-87bc-4a8a-9bdb-6c815c4ac252","system_id":"levelo_inurba_marseille","lat":43.2749,"lon":5.42451,"is_reserved":false,"is_disabled":false,"rental_uris":{"android":"levelo://app?vid=784543df-87bc-4a8a-9bdb-6c815c4ac252","ios":"levelo://app?vid=784543df-87bc-4a8a-9bdb-6c815c4ac252"},"vehicle_type_id":"4","last_reported":1745399507,"current_range_meters":3200,"station_id":"ce4bhn92rcd13ifvqgrg","pricing_plan_id":"cebpf4jnsgd1na2vs0mg"},{"bike_id":"4de92fcb-5cae-4f4e-a6fa-7c761de0b676","system_id":"levelo_inurba_marseille","lat":43.30018,"lon":5.36721,"is_reserved":false,"is_disabled":false,"rental_uris":{"android":"levelo://app?vid=4de92fcb-5cae-4f4e-a6fa-7c761de0b676","ios":"levelo://app?vid=4de92fcb-5cae-4f4e-a6fa-7c761de0b676"},"vehicle_type_id":"4","last_reported":1745399507,"current_range_meters":3600,"station_id":"","pricing_plan_id":"cebpf4jnsgd1na2vs0mg"},{"bike_id":"8d3d203c-c49c-4deb-a007-2f93fb4b57dd","system_id":"levelo_inurba_marseille","lat":43.29901,"lon":5.43671,"is_reserved":false,"is_disabled":false,"rental_uris":{"android":"levelo://app?vid=8d3d203c-c49c-4deb-a007-2f93fb4b57dd","ios":"levelo://app?vid=8d3d203c-c49c-4deb-a007-2f93fb4b57dd"},"vehicle_type_id":"4","last_reported":1745399507,"current_range_meters":4000,"station_id":"ce4bhpp2rcd13ifvqhfg","pricing_plan_id":"cebpf4jnsgd1na2vs0mg"},{"bike_id":"1c755526-7610-4241-9257-348acde561d3","system_id":"levelo_inurba_marseille","lat":43.24856,"lon":5.38201,"is_reserved":false,"is_disabled":false,"rental_uris":{"android":"levelo://app?vid=1c755526-7610-4241-9257-348acde561d3","ios":"levelo://app?vid=1c755526-7610-4241-9257-348acde561d3"},"vehicle_type_id":"4","last_reported":1745399507,"current_range_meters":4400,"station_id":"","pricing_plan_id":"cebpf4jnsgd1na2vs0mg"},{"bike_id":"610459a9-a906-4a92-8ac0-c05874be7103","system_id":"levelo_inurba_marseille","lat":43.32374,"lon":5.38886,"is_reserved":false,"is_disabled":false,"rental_uris":{"android":"levelo://app?vid=610459a9-a906-4a92-8ac0-c05874be7103","ios":"levelo://app?vid=610459a9-a906-4a92-8ac0-c05874be7103"},"vehicle_type_id":"4","last_reported":1745399507,"current_range_meters":4400,"station_id":"ce4bhqp2rcd13ifvqhog","pricing_plan_id":"cebpf4jnsgd1na2vs0mg"},{"bike_id":"fec63977-f2d6-4176-9d59-3a6e4afe4f2f","system_id":"levelo_inurba_marseille","lat":43.26559,"lon":5.37269,"is_reserved":false,"is_disabled":false,"rental_uris":{"android":"levelo://app?vid=fec63977-f2d6-4176-9d59-3a6e4afe4f2f","ios":"levelo://app?vid=fec63977-f2d6-4176-9d59-3a6e4afe4f2f"},"vehicle_type_id":"4","last_reported":1745399507,"current_range_meters":4800,"station_id":"ce4bhg12rcd13ifvqf70","pricing_plan_id":"cebpf4jnsgd1na2vs0mg"},{"bike_id":"10bb30a3-ac22-4b86-9177-fda831d764d9","system_id":"levelo_inurba_marseille","lat":43.29222,"lon":5.36056,"is_reserved":false,"is_disabled":false,"rental_uris":{"android":"levelo://app?vid=10bb30a3-ac22-4b86-9177-fda831d764d9","ios":"levelo://app?vid=10bb30a3-ac22-4b86-9177-fda831d764d9"},"vehicle_type_id":"4","last_reported":1745399507,"current_range_meters":4800,"station_id":"ce4bhbh2rcd13ifvqeqg","pricing_plan_id":"cebpf4jnsgd1na2vs0mg"},{"bike_id":"2e54e7e1-b472-4fd0-ad00-fe058d66086f","system_id":"levelo_inurba_marseille","lat":43.28858,"lon":5.3585,"is_reserved":false,"is_disabled":false,"rental_uris":{"android":"levelo://app?vid=2e54e7e1-b472-4fd0-ad00-fe058d66086f","ios":"levelo://app?vid=2e54e7e1-b472-4fd0-ad00-fe058d66086f"},"vehicle_type_id":"4","last_reported":1745399507,"current_range_meters":4800,"station_id":"ce4bhb12rcd13ifvqem0","pricing_plan_id":"cebpf4jnsgd1na2vs0mg"},{"bike_id":"c4644969-f9bf-4342-a987-722ad64a3032","system_id":"levelo_inurba_marseille","lat":43.29848,"lon":5.36285,"is_reserved":false,"is_disabled":true,"rental_uris":{"android":"levelo://app?vid=c4644969-f9bf-4342-a987-722ad64a3032","ios":"levelo://app?vid=c4644969-f9bf-4342-a987-722ad64a3032"},"vehicle_type_id":"4","last_reported":1745399507,"current_range_meters":5600,"station_id":"ce4bgpp2rcd13ifvqc3g","pricing_plan_id":"cebpf4jnsgd1na2vs0mg"},{"bike_id":"2a0c096c-133e-4ba8-b540-b4d5d9a34cc4","system_id":"levelo_inurba_marseille","lat":43.3089,"lon":5.39654,"is_reserved":false,"is_disabled":false,"rental_uris":{"android":"levelo://app?vid=2a0c096c-133e-4ba8-b540-b4d5d9a34cc4","ios":"levelo://app?vid=2a0c096c-133e-4ba8-b540-b4d5d9a34cc4"},"vehicle_type_id":"4","last_reported":1745399507,"current_range_meters":5600,"station_id":"ce4bh012rcd13ifvqcv0","pricing_plan_id":"cebpf4jnsgd1na2vs0mg"},{"bike_id":"28dbeddd-838b-456e-82ff-c5881d62245f","system_id":"levelo_inurba_marseille","lat":43.22923,"lon":5.35398,"is_reserved":false,"is_disabled":false,"rental_uris":{"android":"levelo://app?vid=28dbeddd-838b-456e-82ff-c5881d62245f","ios":"levelo://app?vid=28dbeddd-838b-456e-82ff-c5881d62245f"},"vehicle_type_id":"4","last_reported":1745399507,"current_range_meters":6000,"station_id":"cpo3532slgdg3j2ikp40","pricing_plan_id":"cebpf4jnsgd1na2vs0mg"},{"bike_id":"485b0f98-bdd1-4f0c-a554-9970ffde165f","system_id":"levelo_inurba_marseille","lat":43.29919,"lon":5.37472,"is_reserved":false,"is_disabled":false,"rental_uris":{"android":"levelo://app?vid=485b0f98-bdd1-4f0c-a554-9970ffde165f","ios":"levelo://app?vid=485b0f98-bdd1-4f0c-a554-9970ffde165f"},"vehicle_type_id":"4","last_reported":1745399507,"current_range_meters":6000,"station_id":"ce4bgjh2rcd13ifvqbg0","pricing_plan_id":"cebpf4jnsgd1na2vs0mg"},{"bike_id":"812167a7-afd5-4edc-bf10-be9f547fc037","system_id":"levelo_inurba_marseille","lat":43.273206,"lon":5.390681,"is_reserved":false,"is_disabled":false,"rental_uris":{"android":"levelo://app?vid=812167a7-afd5-4edc-bf10-be9f547fc037","ios":"levelo://app?vid=812167a7-afd5-4edc-bf10-be9f547fc037"},"vehicle_type_id":"4","last_reported":1745399507,"current_range_meters":6400,"station_id":"","pricing_plan_id":"cebpf4jnsgd1na2vs0mg"},{"bike_id":"fb4295a7-4e4f-4eb6-8442-338aafdcde0d","system_id":"levelo_inurba_marseille","lat":43.25932,"lon":5.40872,"is_reserved":false,"is_disabled":false,"rental_uris":{"android":"levelo://app?vid=fb4295a7-4e4f-4eb6-8442-338aafdcde0d","ios":"levelo://app?vid=fb4295a7-4e4f-4eb6-8442-338aafdcde0d"},"vehicle_type_id":"4","last_reported":1745399507,"current_range_meters":6400,"station_id":"ce4bhm92rcd13ifvqglg","pricing_plan_id":"cebpf4jnsgd1na2vs0mg"},{"bike_id":"7b0a3526-5f8c-45c0-96b0-576d7aa8fac4","system_id":"levelo_inurba_marseille","lat":43.26685,"lon":5.38269,"is_reserved":false,"is_disabled":false,"rental_uris":{"android":"levelo://app?vid=7b0a3526-5f8c-45c0-96b0-576d7aa8fac4","ios":"levelo://app?vid=7b0a3526-5f8c-45c0-96b0-576d7aa8fac4"},"vehicle_type_id":"4","last_reported":1745399507,"current_range_meters":6400,"station_id":"ce4bhg92rcd13ifvqf90","pricing_plan_id":"cebpf4jnsgd1na2vs0mg"},{"bike_id":"5dfdc24e-b183-43b7-ab5f-edfe079f5a99","system_id":"levelo_inurba_marseille","lat":43.271725,"lon":5.409966,"is_reserved":false,"is_disabled":true,"rental_uris":{"android":"levelo://app?vid=5dfdc24e-b183-43b7-ab5f-edfe079f5a99","ios":"levelo://app?vid=5dfdc24e-b183-43b7-ab5f-edfe079f5a99"},"vehicle_type_id":"4","last_reported":1745399507,"current_range_meters":6400,"station_id":"ce4bhl12rcd13ifvqgf0","pricing_plan_id":"cebpf4jnsgd1na2vs0mg"},{"bike_id":"b67974be-4d81-483f-a8fa-275fa5e7ba00","system_id":"levelo_inurba_marseille","lat":43.27492,"lon":5.42462,"is_reserved":false,"is_disabled":false,"rental_uris":{"android":"levelo://app?vid=b67974be-4d81-483f-a8fa-275fa5e7ba00","ios":"levelo://app?vid=b67974be-4d81-483f-a8fa-275fa5e7ba00"},"vehicle_type_id":"4","last_reported":1745399507,"current_range_meters":6400,"station_id":"ce4bhn92rcd13ifvqgrg","pricing_plan_id":"cebpf4jnsgd1na2vs0mg"},{"bike_id":"cb7cbd63-9930-410a-9a53-110589ad3377","system_id":"levelo_inurba_marseille","lat":43.32358,"lon":5.36749,"is_reserved":false,"is_disabled":false,"rental_uris":{"android":"levelo://app?vid=cb7cbd63-9930-410a-9a53-110589ad3377","ios":"levelo://app?vid=cb7cbd63-9930-410a-9a53-110589ad3377"},"vehicle_type_id":"4","last_reported":1745399507,"current_range_meters":6800,"station_id":"ce4bhsh2rcd13ifvqi2g","pricing_plan_id":"cebpf4jnsgd1na2vs0mg"},{"bike_id":"fe9353af-0db9-4688-84b0-7d58bdce9daf","system_id":"levelo_inurba_marseille","lat":43.30154,"lon":5.38113,"is_reserved":false,"is_disabled":false,"rental_uris":{"android":"levelo://app?vid=fe9353af-0db9-4688-84b0-7d58bdce9daf","ios":"levelo://app?vid=fe9353af-0db9-4688-84b0-7d58bdce9daf"},"vehicle_type_id":"4","last_reported":1745399507,"current_range_meters":6800,"station_id":"ce4bgjp2rcd13ifvqbh0","pricing_plan_id":"cebpf4jnsgd1na2vs0mg"},{"bike_id":"5104ced0-f100-4580-87e7-2979240753b2","system_id":"levelo_inurba_marseille","lat":43.32025,"lon":5.41565,"is_reserved":false,"is_disabled":false,"rental_uris":{"android":"levelo://app?vid=5104ced0-f100-4580-87e7-2979240753b2","ios":"levelo://app?vid=5104ced0-f100-4580-87e7-2979240753b2"},"vehicle_type_id":"4","last_reported":1745399507,"current_range_meters":6800,"station_id":"ce4bhq92rcd13ifvqhkg","pricing_plan_id":"cebpf4jnsgd1na2vs0mg"},{"bike_id":"2bb4dbbf-21b8-43cb-ab86-b7d00e702a08","system_id":"levelo_inurba_marseille","lat":43.33017,"lon":5.39051,"is_reserved":false,"is_disabled":false,"rental_uris":{"android":"levelo://app?vid=2bb4dbbf-21b8-43cb-ab86-b7d00e702a08","ios":"levelo://app?vid=2bb4dbbf-21b8-43cb-ab86-b7d00e702a08"},"vehicle_type_id":"4","last_reported":1745399507,"current_range_meters":7200,"station_id":"ce4bhr92rcd13ifvqhrg","pricing_plan_id":"cebpf4jnsgd1na2vs0mg"},{"bike_id":"f3a45c2b-f42d-48ca-b557-88583f057b3b","system_id":"levelo_inurba_marseille","lat":43.282666,"lon":5.350554,"is_reserved":false,"is_disabled":false,"rental_uris":{"android":"levelo://app?vid=f3a45c2b-f42d-48ca-b557-88583f057b3b","ios":"levelo://app?vid=f3a45c2b-f42d-48ca-b557-88583f057b3b"},"vehicle_type_id":"4","last_reported":1745399507,"current_range_meters":4000,"station_id":"ce4bhbp2rcd13ifvqerg","pricing_plan_id":"cebpf4jnsgd1na2vs0mg"},{"bike_id":"62f288a3-04c3-4a5a-8ec2-4936480f6d7c","system_id":"levelo_inurba_marseille","lat":43.270544,"lon":5.40262,"is_reserved":false,"is_disabled":false,"rental_uris":{"android":"levelo://app?vid=62f288a3-04c3-4a5a-8ec2-4936480f6d7c","ios":"levelo://app?vid=62f288a3-04c3-4a5a-8ec2-4936480f6d7c"},"vehicle_type_id":"4","last_reported":1745399507,"current_range_meters":7200,"station_id":"ce4bhk92rcd13ifvqgc0","pricing_plan_id":"cebpf4jnsgd1na2vs0mg"},{"bike_id":"34c614d5-1e78-4af9-bbc7-3ebce54fbdb1","system_id":"levelo_inurba_marseille","lat":43.29606,"lon":5.3771,"is_reserved":false,"is_disabled":true,"rental_uris":{"android":"levelo://app?vid=34c614d5-1e78-4af9-bbc7-3ebce54fbdb1","ios":"levelo://app?vid=34c614d5-1e78-4af9-bbc7-3ebce54fbdb1"},"vehicle_type_id":"4","last_reported":1745399507,"current_range_meters":7200,"station_id":"ce4bgi92rcd13ifvqb90","pricing_plan_id":"cebpf4jnsgd1na2vs0mg"},{"bike_id":"e59fb337-a086-40ef-bc91-27164c4a7d9e","system_id":"levelo_inurba_marseille","lat":43.25846,"lon":5.40772,"is_reserved":false,"is_disabled":false,"rental_uris":{"android":"levelo://app?vid=e59fb337-a086-40ef-bc91-27164c4a7d9e","ios":"levelo://app?vid=e59fb337-a086-40ef-bc91-27164c4a7d9e"},"vehicle_type_id":"4","last_reported":1745399507,"current_range_meters":7200,"station_id":"","pricing_plan_id":"cebpf4jnsgd1na2vs0mg"},{"bike_id":"d8d27387-fb66-4c0a-90dc-eef7a69dc87d","system_id":"levelo_inurba_marseille","lat":43.21196,"lon":5.35071,"is_reserved":false,"is_disabled":false,"rental_uris":{"android":"levelo://app?vid=d8d27387-fb66-4c0a-90dc-eef7a69dc87d","ios":"levelo://app?vid=d8d27387-fb66-4c0a-90dc-eef7a69dc87d"},"vehicle_type_id":"4","last_reported":1745399507,"current_range_meters":7200,"station_id":"ce4bgh92rcd13ifvqb40","pricing_plan_id":"cebpf4jnsgd1na2vs0mg"},{"bike_id":"c6dc5293-2785-44b1-9e3a-e9e041ddb7dc","system_id":"levelo_inurba_marseille","lat":43.28036,"lon":5.36948,"is_reserved":false,"is_disabled":false,"rental_uris":{"android":"levelo://app?vid=c6dc5293-2785-44b1-9e3a-e9e041ddb7dc","ios":"levelo://app?vid=c6dc5293-2785-44b1-9e3a-e9e041ddb7dc"},"vehicle_type_id":"4","last_reported":1745399507,"current_range_meters":8000,"station_id":"ce4bha12rcd13ifvqef0","pricing_plan_id":"cebpf4jnsgd1na2vs0mg"},{"bike_id":"f839ea02-d04f-4ac7-b87c-b8863fad54dd","system_id":"levelo_inurba_marseille","lat":43.26197,"lon":5.3745,"is_reserved":false,"is_disabled":false,"rental_uris":{"android":"levelo://app?vid=f839ea02-d04f-4ac7-b87c-b8863fad54dd","ios":"levelo://app?vid=f839ea02-d04f-4ac7-b87c-b8863fad54dd"},"vehicle_type_id":"4","last_reported":1745399507,"current_range_meters":8000,"station_id":"ce4bhgp2rcd13ifvqfc0","pricing_plan_id":"cebpf4jnsgd1na2vs0mg"},{"bike_id":"70671536-b2e1-456c-8bd8-7804b348f9fc","system_id":"levelo_inurba_marseille","lat":43.31194,"lon":5.41593,"is_reserved":false,"is_disabled":false,"rental_uris":{"android":"levelo://app?vid=70671536-b2e1-456c-8bd8-7804b348f9fc","ios":"levelo://app?vid=70671536-b2e1-456c-8bd8-7804b348f9fc"},"vehicle_type_id":"4","last_reported":1745399507,"current_range_meters":8000,"station_id":"","pricing_plan_id":"cebpf4jnsgd1na2vs0mg"},{"bike_id":"54a78026-cecd-4be4-a340-84ffaa9dd7d0","system_id":"levelo_inurba_marseille","lat":43.28836,"lon":5.35868,"is_reserved":false,"is_disabled":false,"rental_uris":{"android":"levelo://app?vid=54a78026-cecd-4be4-a340-84ffaa9dd7d0","ios":"levelo://app?vid=54a78026-cecd-4be4-a340-84ffaa9dd7d0"},"vehicle_type_id":"4","last_reported":1745399507,"current_range_meters":8000,"station_id":"ce4bhb12rcd13ifvqem0","pricing_plan_id":"cebpf4jnsgd1na2vs0mg"},{"bike_id":"00f791b3-0448-4fb6-a61d-87ad238478b1","system_id":"levelo_inurba_marseille","lat":43.30924,"lon":5.36867,"is_reserved":false,"is_disabled":false,"rental_uris":{"android":"levelo://app?vid=00f791b3-0448-4fb6-a61d-87ad238478b1","ios":"levelo://app?vid=00f791b3-0448-4fb6-a61d-87ad238478b1"},"vehicle_type_id":"4","last_reported":1745399507,"current_range_meters":8400,"station_id":"ce4bgn92rcd13ifvqbvg","pricing_plan_id":"cebpf4jnsgd1na2vs0mg"},{"bike_id":"92500e5e-65ee-40ea-8df2-a3c295596657","system_id":"levelo_inurba_marseille","lat":43.29839,"lon":5.36272,"is_reserved":false,"is_disabled":false,"rental_uris":{"android":"levelo://app?vid=92500e5e-65ee-40ea-8df2-a3c295596657","ios":"levelo://app?vid=92500e5e-65ee-40ea-8df2-a3c295596657"},"vehicle_type_id":"4","last_reported":1745399507,"current_range_meters":8400,"station_id":"ce4bgpp2rcd13ifvqc3g","pricing_plan_id":"cebpf4jnsgd1na2vs0mg"},{"bike_id":"f1300840-291d-4ece-a09c-172514b0678c","system_id":"levelo_inurba_marseille","lat":43.29434,"lon":5.39761,"is_reserved":false,"is_disabled":true,"rental_uris":{"android":"levelo://app?vid=f1300840-291d-4ece-a09c-172514b0678c","ios":"levelo://app?vid=f1300840-291d-4ece-a09c-172514b0678c"},"vehicle_type_id":"4","last_reported":1745399507,"current_range_meters":8800,"station_id":"ce4bh3h2rcd13ifvqdo0","pricing_plan_id":"cebpf4jnsgd1na2vs0mg"},{"bike_id":"9d85f42c-a2a0-4fe8-9e71-604ae30f7729","system_id":"levelo_inurba_marseille","lat":43.24076,"lon":5.3776,"is_reserved":false,"is_disabled":false,"rental_uris":{"android":"levelo://app?vid=9d85f42c-a2a0-4fe8-9e71-604ae30f7729","ios":"levelo://app?vid=9d85f42c-a2a0-4fe8-9e71-604ae30f7729"},"vehicle_type_id":"4","last_reported":1745399507,"current_range_meters":8800,"station_id":"ce4bhnp2rcd13ifvqgvg","pricing_plan_id":"cebpf4jnsgd1na2vs0mg"},{"bike_id":"ff6ba0d0-efef-49a3-ad3c-0a87196dffc3","system_id":"levelo_inurba_marseille","lat":43.23153,"lon":5.43716,"is_reserved":false,"is_disabled":false,"rental_uris":{"android":"levelo://app?vid=ff6ba0d0-efef-49a3-ad3c-0a87196dffc3","ios":"levelo://app?vid=ff6ba0d0-efef-49a3-ad3c-0a87196dffc3"},"vehicle_type_id":"4","last_reported":1745399507,"current_range_meters":8800,"station_id":"ce4bhmp2rcd13ifvqgog","pricing_plan_id":"cebpf4jnsgd1na2vs0mg"},{"bike_id":"e3a78471-6336-4e4b-9d5c-ca4b7f9e4b4a","system_id":"levelo_inurba_marseille","lat":43.33605,"lon":5.41031,"is_reserved":false,"is_disabled":false,"rental_uris":{"android":"levelo://app?vid=e3a78471-6336-4e4b-9d5c-ca4b7f9e4b4a","ios":"levelo://app?vid=e3a78471-6336-4e4b-9d5c-ca4b7f9e4b4a"},"vehicle_type_id":"4","last_reported":1745399507,"current_range_meters":8800,"station_id":"ce4bhqh2rcd13ifvqhmg","pricing_plan_id":"cebpf4jnsgd1na2vs0mg"},{"bike_id":"d5c22dfd-9b83-448a-8f86-41a4127af319","system_id":"levelo_inurba_marseille","lat":43.29891,"lon":5.43668,"is_reserved":false,"is_disabled":false,"rental_uris":{"android":"levelo://app?vid=d5c22dfd-9b83-448a-8f86-41a4127af319","ios":"levelo://app?vid=d5c22dfd-9b83-448a-8f86-41a4127af319"},"vehicle_type_id":"4","last_reported":1745399507,"current_range_meters":8800,"station_id":"ce4bhpp2rcd13ifvqhfg","pricing_plan_id":"cebpf4jnsgd1na2vs0mg"},{"bike_id":"e13387ef-a5be-490c-90e9-c1c222c72143","system_id":"levelo_inurba_marseille","lat":43.24999,"lon":5.38927,"is_reserved":false,"is_disabled":false,"rental_uris":{"android":"levelo://app?vid=e13387ef-a5be-490c-90e9-c1c222c72143","ios":"levelo://app?vid=e13387ef-a5be-490c-90e9-c1c222c72143"},"vehicle_type_id":"4","last_reported":1745399507,"current_range_meters":9200,"station_id":"ce4bhgp2rcd13ifvqfd0","pricing_plan_id":"cebpf4jnsgd1na2vs0mg"},{"bike_id":"36f8be5f-6e26-4fd5-8f90-2f6203fb7845","system_id":"levelo_inurba_marseille","lat":43.28935,"lon":5.38377,"is_reserved":false,"is_disabled":false,"rental_uris":{"android":"levelo://app?vid=36f8be5f-6e26-4fd5-8f90-2f6203fb7845","ios":"levelo://app?vid=36f8be5f-6e26-4fd5-8f90-2f6203fb7845"},"vehicle_type_id":"4","last_reported":1745399507,"current_range_meters":8800,"station_id":"ce4bh612rcd13ifvqe6g","pricing_plan_id":"cebpf4jnsgd1na2vs0mg"},{"bike_id":"74d9d775-203a-4e78-87a8-87ce42195784","system_id":"levelo_inurba_marseille","lat":43.30933,"lon":5.39027,"is_reserved":false,"is_disabled":true,"rental_uris":{"android":"levelo://app?vid=74d9d775-203a-4e78-87a8-87ce42195784","ios":"levelo://app?vid=74d9d775-203a-4e78-87a8-87ce42195784"},"vehicle_type_id":"4","last_reported":1745399507,"current_range_meters":9200,"station_id":"ce4bgup2rcd13ifvqco0","pricing_plan_id":"cebpf4jnsgd1na2vs0mg"},{"bike_id":"2fd8c6d6-2984-4dd2-92b3-ae291d0ae0da","system_id":"levelo_inurba_marseille","lat":43.30473,"lon":5.37893,"is_reserved":false,"is_disabled":false,"rental_uris":{"android":"levelo://app?vid=2fd8c6d6-2984-4dd2-92b3-ae291d0ae0da","ios":"levelo://app?vid=2fd8c6d6-2984-4dd2-92b3-ae291d0ae0da"},"vehicle_type_id":"4","last_reported":1745399507,"current_range_meters":9200,"station_id":"ce4bgup2rcd13ifvqcn0","pricing_plan_id":"cebpf4jnsgd1na2vs0mg"},{"bike_id":"c44e32b5-0fc8-4b8f-97f3-4f1fcc7748de","system_id":"levelo_inurba_marseille","lat":43.2706,"lon":5.42273,"is_reserved":false,"is_disabled":false,"rental_uris":{"android":"levelo://app?vid=c44e32b5-0fc8-4b8f-97f3-4f1fcc7748de","ios":"levelo://app?vid=c44e32b5-0fc8-4b8f-97f3-4f1fcc7748de"},"vehicle_type_id":"4","last_reported":1745399507,"current_range_meters":9200,"station_id":"ce4bhk92rcd13ifvqgb0","pricing_plan_id":"cebpf4jnsgd1na2vs0mg"},{"bike_id":"b9d656e1-d255-4793-9637-f54a5824a133","system_id":"levelo_inurba_marseille","lat":43.33606,"lon":5.41031,"is_reserved":false,"is_disabled":false,"rental_uris":{"android":"levelo://app?vid=b9d656e1-d255-4793-9637-f54a5824a133","ios":"levelo://app?vid=b9d656e1-d255-4793-9637-f54a5824a133"},"vehicle_type_id":"4","last_reported":1745399507,"current_range_meters":9600,"station_id":"ce4bhqh2rcd13ifvqhmg","pricing_plan_id":"cebpf4jnsgd1na2vs0mg"},{"bike_id":"a756bae3-49c1-4d6c-89e8-fcb7b0e7d2e2","system_id":"levelo_inurba_marseille","lat":43.29045,"lon":5.3592,"is_reserved":false,"is_disabled":true,"rental_uris":{"android":"levelo://app?vid=a756bae3-49c1-4d6c-89e8-fcb7b0e7d2e2","ios":"levelo://app?vid=a756bae3-49c1-4d6c-89e8-fcb7b0e7d2e2"},"vehicle_type_id":"4","last_reported":1745399507,"current_range_meters":9600,"station_id":"ce4bha92rcd13ifvqeg0","pricing_plan_id":"cebpf4jnsgd1na2vs0mg"},{"bike_id":"546076dc-951e-4fe0-b46d-14bdc8dc6da0","system_id":"levelo_inurba_marseille","lat":43.23197,"lon":5.35542,"is_reserved":false,"is_disabled":false,"rental_uris":{"android":"levelo://app?vid=546076dc-951e-4fe0-b46d-14bdc8dc6da0","ios":"levelo://app?vid=546076dc-951e-4fe0-b46d-14bdc8dc6da0"},"vehicle_type_id":"4","last_reported":1745399507,"current_range_meters":9600,"station_id":"ce4bhu92rcd13ifvqi70","pricing_plan_id":"cebpf4jnsgd1na2vs0mg"},{"bike_id":"a7c56ddd-dc7f-4667-9942-e86115f07c9e","system_id":"levelo_inurba_marseille","lat":43.24081,"lon":5.37744,"is_reserved":false,"is_disabled":false,"rental_uris":{"android":"levelo://app?vid=a7c56ddd-dc7f-4667-9942-e86115f07c9e","ios":"levelo://app?vid=a7c56ddd-dc7f-4667-9942-e86115f07c9e"},"vehicle_type_id":"4","last_reported":1745399507,"current_range_meters":9600,"station_id":"ce4bhnp2rcd13ifvqgvg","pricing_plan_id":"cebpf4jnsgd1na2vs0mg"},{"bike_id":"f3b5b33a-51b7-4463-baea-6928a983105b","system_id":"levelo_inurba_marseille","lat":43.23148,"lon":5.43702,"is_reserved":false,"is_disabled":false,"rental_uris":{"android":"levelo://app?vid=f3b5b33a-51b7-4463-baea-6928a983105b","ios":"levelo://app?vid=f3b5b33a-51b7-4463-baea-6928a983105b"},"vehicle_type_id":"4","last_reported":1745399507,"current_range_meters":9600,"station_id":"ce4bhmp2rcd13ifvqgog","pricing_plan_id":"cebpf4jnsgd1na2vs0mg"},{"bike_id":"49c0f902-eac7-4a79-adf0-d142aff51e11","system_id":"levelo_inurba_marseille","lat":43.24161,"lon":5.36383,"is_reserved":false,"is_disabled":false,"rental_uris":{"android":"levelo://app?vid=49c0f902-eac7-4a79-adf0-d142aff51e11","ios":"levelo://app?vid=49c0f902-eac7-4a79-adf0-d142aff51e11"},"vehicle_type_id":"4","last_reported":1745399507,"current_range_meters":9600,"station_id":"cpo36qri1sfpv3e86is0","pricing_plan_id":"cebpf4jnsgd1na2vs0mg"},{"bike_id":"728b7169-2c34-494f-ac43-6fdd418034b4","system_id":"levelo_inurba_marseille","lat":43.2314,"lon":5.43714,"is_reserved":false,"is_disabled":false,"rental_uris":{"android":"levelo://app?vid=728b7169-2c34-494f-ac43-6fdd418034b4","ios":"levelo://app?vid=728b7169-2c34-494f-ac43-6fdd418034b4"},"vehicle_type_id":"4","last_reported":1745399507,"current_range_meters":10000,"station_id":"ce4bhmp2rcd13ifvqgog","pricing_plan_id":"cebpf4jnsgd1na2vs0mg"},{"bike_id":"3f18191e-7a45-404a-b52e-958003f19597","system_id":"levelo_inurba_marseille","lat":43.31215,"lon":5.36889,"is_reserved":false,"is_disabled":true,"rental_uris":{"android":"levelo://app?vid=3f18191e-7a45-404a-b52e-958003f19597","ios":"levelo://app?vid=3f18191e-7a45-404a-b52e-958003f19597"},"vehicle_type_id":"4","last_reported":1745399507,"current_range_meters":10000,"station_id":"ce4bgl92rcd13ifvqbq0","pricing_plan_id":"cebpf4jnsgd1na2vs0mg"},{"bike_id":"5df7847d-ec74-43c1-8ddf-83c464fdba70","system_id":"levelo_inurba_marseille","lat":43.30893,"lon":5.3718,"is_reserved":false,"is_disabled":false,"rental_uris":{"android":"levelo://app?vid=5df7847d-ec74-43c1-8ddf-83c464fdba70","ios":"levelo://app?vid=5df7847d-ec74-43c1-8ddf-83c464fdba70"},"vehicle_type_id":"4","last_reported":1745399507,"current_range_meters":10000,"station_id":"ce4bguh2rcd13ifvqckg","pricing_plan_id":"cebpf4jnsgd1na2vs0mg"},{"bike_id":"a585f097-002b-403f-a1e5-a9462d5537a4","system_id":"levelo_inurba_marseille","lat":43.2937,"lon":5.37838,"is_reserved":false,"is_disabled":false,"rental_uris":{"android":"levelo://app?vid=a585f097-002b-403f-a1e5-a9462d5537a4","ios":"levelo://app?vid=a585f097-002b-403f-a1e5-a9462d5537a4"},"vehicle_type_id":"4","last_reported":1745399507,"current_range_meters":10000,"station_id":"ce4bgjh2rcd13ifvqbf0","pricing_plan_id":"cebpf4jnsgd1na2vs0mg"},{"bike_id":"243ab341-75d1-4d2e-a9c1-4f0a04544cbe","system_id":"levelo_inurba_marseille","lat":43.27571,"lon":5.38429,"is_reserved":false,"is_disabled":false,"rental_uris":{"android":"levelo://app?vid=243ab341-75d1-4d2e-a9c1-4f0a04544cbe","ios":"levelo://app?vid=243ab341-75d1-4d2e-a9c1-4f0a04544cbe"},"vehicle_type_id":"4","last_reported":1745399507,"current_range_meters":10000,"station_id":"ce4bhh92rcd13ifvqfi0","pricing_plan_id":"cebpf4jnsgd1na2vs0mg"},{"bike_id":"0a9c846e-1fa3-4612-af7d-11e99cd9c38e","system_id":"levelo_inurba_marseille","lat":43.28416,"lon":5.34969,"is_reserved":false,"is_disabled":false,"rental_uris":{"android":"levelo://app?vid=0a9c846e-1fa3-4612-af7d-11e99cd9c38e","ios":"levelo://app?vid=0a9c846e-1fa3-4612-af7d-11e99cd9c38e"},"vehicle_type_id":"4","last_reported":1745399507,"current_range_meters":10800,"station_id":"ce4bhbh2rcd13ifvqepg","pricing_plan_id":"cebpf4jnsgd1na2vs0mg"},{"bike_id":"16301855-4422-4905-883e-5e3563f2928d","system_id":"levelo_inurba_marseille","lat":43.27495,"lon":5.42446,"is_reserved":false,"is_disabled":false,"rental_uris":{"android":"levelo://app?vid=16301855-4422-4905-883e-5e3563f2928d","ios":"levelo://app?vid=16301855-4422-4905-883e-5e3563f2928d"},"vehicle_type_id":"4","last_reported":1745399507,"current_range_meters":10800,"station_id":"ce4bhn92rcd13ifvqgrg","pricing_plan_id":"cebpf4jnsgd1na2vs0mg"},{"bike_id":"1d7664a9-64c1-4824-939e-2ece1942c3ec","system_id":"levelo_inurba_marseille","lat":43.26227,"lon":5.40448,"is_reserved":false,"is_disabled":false,"rental_uris":{"android":"levelo://app?vid=1d7664a9-64c1-4824-939e-2ece1942c3ec","ios":"levelo://app?vid=1d7664a9-64c1-4824-939e-2ece1942c3ec"},"vehicle_type_id":"4","last_reported":1745399507,"current_range_meters":10800,"station_id":"ce4bhmh2rcd13ifvqgmg","pricing_plan_id":"cebpf4jnsgd1na2vs0mg"},{"bike_id":"9be19171-2b5c-4246-a6fd-c0919eecfb86","system_id":"levelo_inurba_marseille","lat":43.32494,"lon":5.36553,"is_reserved":false,"is_disabled":false,"rental_uris":{"android":"levelo://app?vid=9be19171-2b5c-4246-a6fd-c0919eecfb86","ios":"levelo://app?vid=9be19171-2b5c-4246-a6fd-c0919eecfb86"},"vehicle_type_id":"4","last_reported":1745399507,"current_range_meters":11200,"station_id":"ce4bhs12rcd13ifvqhvg","pricing_plan_id":"cebpf4jnsgd1na2vs0mg"},{"bike_id":"6ee9ffdf-3f66-4df4-bfbe-df8fdfd87ac5","system_id":"levelo_inurba_marseille","lat":43.30324,"lon":5.3692,"is_reserved":false,"is_disabled":false,"rental_uris":{"android":"levelo://app?vid=6ee9ffdf-3f66-4df4-bfbe-df8fdfd87ac5","ios":"levelo://app?vid=6ee9ffdf-3f66-4df4-bfbe-df8fdfd87ac5"},"vehicle_type_id":"4","last_reported":1745399507,"current_range_meters":11200,"station_id":"ce4bgqh2rcd13ifvqc5g","pricing_plan_id":"cebpf4jnsgd1na2vs0mg"},{"bike_id":"865dc724-9666-45e4-a118-9d3c19f776c7","system_id":"levelo_inurba_marseille","lat":43.30536,"lon":5.36536,"is_reserved":false,"is_disabled":false,"rental_uris":{"android":"levelo://app?vid=865dc724-9666-45e4-a118-9d3c19f776c7","ios":"levelo://app?vid=865dc724-9666-45e4-a118-9d3c19f776c7"},"vehicle_type_id":"4","last_reported":1745399507,"current_range_meters":10800,"station_id":"ce4bgs12rcd13ifvqcag","pricing_plan_id":"cebpf4jnsgd1na2vs0mg"},{"bike_id":"05d3f541-3803-4bff-bfff-15ac5b392a25","system_id":"levelo_inurba_marseille","lat":43.290485,"lon":5.35915,"is_reserved":false,"is_disabled":false,"rental_uris":{"android":"levelo://app?vid=05d3f541-3803-4bff-bfff-15ac5b392a25","ios":"levelo://app?vid=05d3f541-3803-4bff-bfff-15ac5b392a25"},"vehicle_type_id":"4","last_reported":1745399507,"current_range_meters":8400,"station_id":"ce4bgvp2rcd13ifvqcu0","pricing_plan_id":"cebpf4jnsgd1na2vs0mg"},{"bike_id":"e49eed1a-7555-49e7-be27-d9cd2d811f92","system_id":"levelo_inurba_marseille","lat":43.25825,"lon":5.39423,"is_reserved":false,"is_disabled":false,"rental_uris":{"android":"levelo://app?vid=e49eed1a-7555-49e7-be27-d9cd2d811f92","ios":"levelo://app?vid=e49eed1a-7555-49e7-be27-d9cd2d811f92"},"vehicle_type_id":"4","last_reported":1745399507,"current_range_meters":10800,"station_id":"ce4bhip2rcd13ifvqft0","pricing_plan_id":"cebpf4jnsgd1na2vs0mg"},{"bike_id":"cc63e4da-bb38-4138-9810-77fa0a0daa52","system_id":"levelo_inurba_marseille","lat":43.33613,"lon":5.41024,"is_reserved":false,"is_disabled":false,"rental_uris":{"android":"levelo://app?vid=cc63e4da-bb38-4138-9810-77fa0a0daa52","ios":"levelo://app?vid=cc63e4da-bb38-4138-9810-77fa0a0daa52"},"vehicle_type_id":"4","last_reported":1745399507,"current_range_meters":11200,"station_id":"ce4bhqh2rcd13ifvqhmg","pricing_plan_id":"cebpf4jnsgd1na2vs0mg"},{"bike_id":"2f3444c3-3dfc-441a-ac98-9768e99525a1","system_id":"levelo_inurba_marseille","lat":43.25584,"lon":5.38222,"is_reserved":false,"is_disabled":false,"rental_uris":{"android":"levelo://app?vid=2f3444c3-3dfc-441a-ac98-9768e99525a1","ios":"levelo://app?vid=2f3444c3-3dfc-441a-ac98-9768e99525a1"},"vehicle_type_id":"4","last_reported":1745399507,"current_range_meters":11600,"station_id":"ce4bhih2rcd13ifvqfs0","pricing_plan_id":"cebpf4jnsgd1na2vs0mg"},{"bike_id":"b7355ad3-8b0b-4d47-9b7b-5bc3976f2577","system_id":"levelo_inurba_marseille","lat":43.29201,"lon":5.3932,"is_reserved":false,"is_disabled":false,"rental_uris":{"android":"levelo://app?vid=b7355ad3-8b0b-4d47-9b7b-5bc3976f2577","ios":"levelo://app?vid=b7355ad3-8b0b-4d47-9b7b-5bc3976f2577"},"vehicle_type_id":"4","last_reported":1745399507,"current_range_meters":11200,"station_id":"ce4bh192rcd13ifvqdd0","pricing_plan_id":"cebpf4jnsgd1na2vs0mg"},{"bike_id":"1abf1069-568e-434f-adf0-45679b9ac76e","system_id":"levelo_inurba_marseille","lat":43.28934,"lon":5.38394,"is_reserved":false,"is_disabled":false,"rental_uris":{"android":"levelo://app?vid=1abf1069-568e-434f-adf0-45679b9ac76e","ios":"levelo://app?vid=1abf1069-568e-434f-adf0-45679b9ac76e"},"vehicle_type_id":"4","last_reported":1745399507,"current_range_meters":11600,"station_id":"ce4bh612rcd13ifvqe6g","pricing_plan_id":"cebpf4jnsgd1na2vs0mg"},{"bike_id":"ec553683-87bf-4770-89af-d9f8965dcaae","system_id":"levelo_inurba_marseille","lat":43.29779,"lon":5.37094,"is_reserved":false,"is_disabled":false,"rental_uris":{"android":"levelo://app?vid=ec553683-87bf-4770-89af-d9f8965dcaae","ios":"levelo://app?vid=ec553683-87bf-4770-89af-d9f8965dcaae"},"vehicle_type_id":"4","last_reported":1745399507,"current_range_meters":11600,"station_id":"ce4bgop2rcd13ifvqc1g","pricing_plan_id":"cebpf4jnsgd1na2vs0mg"},{"bike_id":"fc95c022-5d99-4883-976b-3e014c5a3389","system_id":"levelo_inurba_marseille","lat":43.23152,"lon":5.43722,"is_reserved":false,"is_disabled":false,"rental_uris":{"android":"levelo://app?vid=fc95c022-5d99-4883-976b-3e014c5a3389","ios":"levelo://app?vid=fc95c022-5d99-4883-976b-3e014c5a3389"},"vehicle_type_id":"4","last_reported":1745399507,"current_range_meters":11600,"station_id":"ce4bhmp2rcd13ifvqgog","pricing_plan_id":"cebpf4jnsgd1na2vs0mg"},{"bike_id":"29557cd6-e30c-4193-97f9-eb19785da0d9","system_id":"levelo_inurba_marseille","lat":43.30905,"lon":5.36847,"is_reserved":false,"is_disabled":false,"rental_uris":{"android":"levelo://app?vid=29557cd6-e30c-4193-97f9-eb19785da0d9","ios":"levelo://app?vid=29557cd6-e30c-4193-97f9-eb19785da0d9"},"vehicle_type_id":"4","last_reported":1745399507,"current_range_meters":11600,"station_id":"ce4bgn92rcd13ifvqbvg","pricing_plan_id":"cebpf4jnsgd1na2vs0mg"},{"bike_id":"3491c7a7-76ee-45fa-94fa-ae18f9247cc0","system_id":"levelo_inurba_marseille","lat":43.33597,"lon":5.41005,"is_reserved":false,"is_disabled":false,"rental_uris":{"android":"levelo://app?vid=3491c7a7-76ee-45fa-94fa-ae18f9247cc0","ios":"levelo://app?vid=3491c7a7-76ee-45fa-94fa-ae18f9247cc0"},"vehicle_type_id":"4","last_reported":1745399507,"current_range_meters":12000,"station_id":"ce4bhqh2rcd13ifvqhmg","pricing_plan_id":"cebpf4jnsgd1na2vs0mg"},{"bike_id":"0082f8d2-799d-4b4c-b968-785f46e0e504","system_id":"levelo_inurba_marseille","lat":43.2841,"lon":5.37516,"is_reserved":false,"is_disabled":false,"rental_uris":{"android":"levelo://app?vid=0082f8d2-799d-4b4c-b968-785f46e0e504","ios":"levelo://app?vid=0082f8d2-799d-4b4c-b968-785f46e0e504"},"vehicle_type_id":"4","last_reported":1745399507,"current_range_meters":12000,"station_id":"ce4bh412rcd13ifvqds0","pricing_plan_id":"cebpf4jnsgd1na2vs0mg"},{"bike_id":"49c4d0a3-4fd2-4101-84c4-d76d9e39767c","system_id":"levelo_inurba_marseille","lat":43.26778,"lon":5.39421,"is_reserved":false,"is_disabled":false,"rental_uris":{"android":"levelo://app?vid=49c4d0a3-4fd2-4101-84c4-d76d9e39767c","ios":"levelo://app?vid=49c4d0a3-4fd2-4101-84c4-d76d9e39767c"},"vehicle_type_id":"4","last_reported":1745399507,"current_range_meters":12000,"station_id":"ce4bhh12rcd13ifvqfg0","pricing_plan_id":"cebpf4jnsgd1na2vs0mg"},{"bike_id":"41386a75-315f-418f-b6c9-d56e48590a3e","system_id":"levelo_inurba_marseille","lat":43.33605,"lon":5.40976,"is_reserved":false,"is_disabled":false,"rental_uris":{"android":"levelo://app?vid=41386a75-315f-418f-b6c9-d56e48590a3e","ios":"levelo://app?vid=41386a75-315f-418f-b6c9-d56e48590a3e"},"vehicle_type_id":"4","last_reported":1745399507,"current_range_meters":12000,"station_id":"ce4bhqh2rcd13ifvqhmg","pricing_plan_id":"cebpf4jnsgd1na2vs0mg"},{"bike_id":"761ae269-6b1f-4092-8e33-c55e4d5d8dff","system_id":"levelo_inurba_marseille","lat":43.2293,"lon":5.35371,"is_reserved":false,"is_disabled":false,"rental_uris":{"android":"levelo://app?vid=761ae269-6b1f-4092-8e33-c55e4d5d8dff","ios":"levelo://app?vid=761ae269-6b1f-4092-8e33-c55e4d5d8dff"},"vehicle_type_id":"4","last_reported":1745399507,"current_range_meters":12000,"station_id":"cpo3532slgdg3j2ikp40","pricing_plan_id":"cebpf4jnsgd1na2vs0mg"},{"bike_id":"b74100ec-2ebe-4d0f-bc2e-73a63b38fda8","system_id":"levelo_inurba_marseille","lat":43.31406,"lon":5.3667,"is_reserved":false,"is_disabled":true,"rental_uris":{"android":"levelo://app?vid=b74100ec-2ebe-4d0f-bc2e-73a63b38fda8","ios":"levelo://app?vid=b74100ec-2ebe-4d0f-bc2e-73a63b38fda8"},"vehicle_type_id":"4","last_reported":1745399507,"current_range_meters":12000,"station_id":"ce4bgr92rcd13ifvqc6g","pricing_plan_id":"cebpf4jnsgd1na2vs0mg"},{"bike_id":"b0e8a2c8-af71-46b6-869f-03c9ce2ca907","system_id":"levelo_inurba_marseille","lat":43.25953,"lon":5.40866,"is_reserved":false,"is_disabled":false,"rental_uris":{"android":"levelo://app?vid=b0e8a2c8-af71-46b6-869f-03c9ce2ca907","ios":"levelo://app?vid=b0e8a2c8-af71-46b6-869f-03c9ce2ca907"},"vehicle_type_id":"4","last_reported":1745399507,"current_range_meters":12400,"station_id":"ce4bhm92rcd13ifvqglg","pricing_plan_id":"cebpf4jnsgd1na2vs0mg"},{"bike_id":"1d69148a-3697-41e1-8a99-8502f810a09d","system_id":"levelo_inurba_marseille","lat":43.27497,"lon":5.4246,"is_reserved":false,"is_disabled":false,"rental_uris":{"android":"levelo://app?vid=1d69148a-3697-41e1-8a99-8502f810a09d","ios":"levelo://app?vid=1d69148a-3697-41e1-8a99-8502f810a09d"},"vehicle_type_id":"4","last_reported":1745399507,"current_range_meters":12400,"station_id":"ce4bhn92rcd13ifvqgrg","pricing_plan_id":"cebpf4jnsgd1na2vs0mg"},{"bike_id":"895e2774-83ed-45d3-ac91-c323553e326f","system_id":"levelo_inurba_marseille","lat":43.27501,"lon":5.42466,"is_reserved":false,"is_disabled":false,"rental_uris":{"android":"levelo://app?vid=895e2774-83ed-45d3-ac91-c323553e326f","ios":"levelo://app?vid=895e2774-83ed-45d3-ac91-c323553e326f"},"vehicle_type_id":"4","last_reported":1745399507,"current_range_meters":12400,"station_id":"ce4bhn92rcd13ifvqgrg","pricing_plan_id":"cebpf4jnsgd1na2vs0mg"},{"bike_id":"55650ded-2588-4e83-8365-d229a50994a3","system_id":"levelo_inurba_marseille","lat":43.31685,"lon":5.40469,"is_reserved":false,"is_disabled":false,"rental_uris":{"android":"levelo://app?vid=55650ded-2588-4e83-8365-d229a50994a3","ios":"levelo://app?vid=55650ded-2588-4e83-8365-d229a50994a3"},"vehicle_type_id":"4","last_reported":1745399507,"current_range_meters":12800,"station_id":"ce4bh012rcd13ifvqd00","pricing_plan_id":"cebpf4jnsgd1na2vs0mg"},{"bike_id":"abd226a8-d003-4133-b9d2-b7c952b7ead1","system_id":"levelo_inurba_marseille","lat":43.23058,"lon":5.35492,"is_reserved":false,"is_disabled":false,"rental_uris":{"android":"levelo://app?vid=abd226a8-d003-4133-b9d2-b7c952b7ead1","ios":"levelo://app?vid=abd226a8-d003-4133-b9d2-b7c952b7ead1"},"vehicle_type_id":"4","last_reported":1745399507,"current_range_meters":12800,"station_id":"cpo3342slgdg3j2ifvpg","pricing_plan_id":"cebpf4jnsgd1na2vs0mg"},{"bike_id":"97a3c613-4961-43c8-be1b-2f86b9a327e8","system_id":"levelo_inurba_marseille","lat":43.25924,"lon":5.40902,"is_reserved":false,"is_disabled":false,"rental_uris":{"android":"levelo://app?vid=97a3c613-4961-43c8-be1b-2f86b9a327e8","ios":"levelo://app?vid=97a3c613-4961-43c8-be1b-2f86b9a327e8"},"vehicle_type_id":"4","last_reported":1745399507,"current_range_meters":12800,"station_id":"ce4bhm92rcd13ifvqglg","pricing_plan_id":"cebpf4jnsgd1na2vs0mg"},{"bike_id":"f36d089e-788c-4bd3-9198-e8cacf91e002","system_id":"levelo_inurba_marseille","lat":43.31202,"lon":5.36869,"is_reserved":false,"is_disabled":false,"rental_uris":{"android":"levelo://app?vid=f36d089e-788c-4bd3-9198-e8cacf91e002","ios":"levelo://app?vid=f36d089e-788c-4bd3-9198-e8cacf91e002"},"vehicle_type_id":"4","last_reported":1745399507,"current_range_meters":12800,"station_id":"ce4bgl92rcd13ifvqbq0","pricing_plan_id":"cebpf4jnsgd1na2vs0mg"},{"bike_id":"172c2dfe-099d-4080-8eec-3f22a46625e0","system_id":"levelo_inurba_marseille","lat":43.272083,"lon":5.391801,"is_reserved":false,"is_disabled":false,"rental_uris":{"android":"levelo://app?vid=172c2dfe-099d-4080-8eec-3f22a46625e0","ios":"levelo://app?vid=172c2dfe-099d-4080-8eec-3f22a46625e0"},"vehicle_type_id":"4","last_reported":1745399507,"current_range_meters":12800,"station_id":"ce4bhh92rcd13ifvqfj0","pricing_plan_id":"cebpf4jnsgd1na2vs0mg"},{"bike_id":"352b22fd-34ad-40b2-931e-af71fad0a0bf","system_id":"levelo_inurba_marseille","lat":43.30956,"lon":5.39049,"is_reserved":false,"is_disabled":false,"rental_uris":{"android":"levelo://app?vid=352b22fd-34ad-40b2-931e-af71fad0a0bf","ios":"levelo://app?vid=352b22fd-34ad-40b2-931e-af71fad0a0bf"},"vehicle_type_id":"4","last_reported":1745399507,"current_range_meters":13600,"station_id":"ce4bgup2rcd13ifvqco0","pricing_plan_id":"cebpf4jnsgd1na2vs0mg"},{"bike_id":"a36cd4a4-963a-47dd-8f74-0d11648db85b","system_id":"levelo_inurba_marseille","lat":43.28264,"lon":5.35056,"is_reserved":false,"is_disabled":false,"rental_uris":{"android":"levelo://app?vid=a36cd4a4-963a-47dd-8f74-0d11648db85b","ios":"levelo://app?vid=a36cd4a4-963a-47dd-8f74-0d11648db85b"},"vehicle_type_id":"4","last_reported":1745399507,"current_range_meters":13600,"station_id":"ce4bhbp2rcd13ifvqerg","pricing_plan_id":"cebpf4jnsgd1na2vs0mg"},{"bike_id":"7c3e5472-85df-463b-8275-3e11f23fd60f","system_id":"levelo_inurba_marseille","lat":43.25934,"lon":5.4091,"is_reserved":false,"is_disabled":false,"rental_uris":{"android":"levelo://app?vid=7c3e5472-85df-463b-8275-3e11f23fd60f","ios":"levelo://app?vid=7c3e5472-85df-463b-8275-3e11f23fd60f"},"vehicle_type_id":"4","last_reported":1745399507,"current_range_meters":13600,"station_id":"ce4bhm92rcd13ifvqglg","pricing_plan_id":"cebpf4jnsgd1na2vs0mg"},{"bike_id":"bac72351-a88e-4107-b318-edd11bc8f783","system_id":"levelo_inurba_marseille","lat":43.25932,"lon":5.40882,"is_reserved":false,"is_disabled":false,"rental_uris":{"android":"levelo://app?vid=bac72351-a88e-4107-b318-edd11bc8f783","ios":"levelo://app?vid=bac72351-a88e-4107-b318-edd11bc8f783"},"vehicle_type_id":"4","last_reported":1745399507,"current_range_meters":13600,"station_id":"ce4bhm92rcd13ifvqglg","pricing_plan_id":"cebpf4jnsgd1na2vs0mg"},{"bike_id":"1b903b38-38de-4714-9a2c-59836acfa168","system_id":"levelo_inurba_marseille","lat":43.31713,"lon":5.43698,"is_reserved":false,"is_disabled":true,"rental_uris":{"android":"levelo://app?vid=1b903b38-38de-4714-9a2c-59836acfa168","ios":"levelo://app?vid=1b903b38-38de-4714-9a2c-59836acfa168"},"vehicle_type_id":"4","last_reported":1745399507,"current_range_meters":13600,"station_id":"ce4bhp92rcd13ifvqhcg","pricing_plan_id":"cebpf4jnsgd1na2vs0mg"},{"bike_id":"7c110556-51f7-4ebc-a93b-d3e946a92a50","system_id":"levelo_inurba_marseille","lat":43.31729,"lon":5.43687,"is_reserved":false,"is_disabled":true,"rental_uris":{"android":"levelo://app?vid=7c110556-51f7-4ebc-a93b-d3e946a92a50","ios":"levelo://app?vid=7c110556-51f7-4ebc-a93b-d3e946a92a50"},"vehicle_type_id":"4","last_reported":1745399507,"current_range_meters":13600,"station_id":"ce4bhp92rcd13ifvqhcg","pricing_plan_id":"cebpf4jnsgd1na2vs0mg"},{"bike_id":"4133eced-2f68-4794-96a6-14fdb18a5b78","system_id":"levelo_inurba_marseille","lat":43.30149,"lon":5.38068,"is_reserved":false,"is_disabled":false,"rental_uris":{"android":"levelo://app?vid=4133eced-2f68-4794-96a6-14fdb18a5b78","ios":"levelo://app?vid=4133eced-2f68-4794-96a6-14fdb18a5b78"},"vehicle_type_id":"4","last_reported":1745399507,"current_range_meters":14000,"station_id":"ce4bgjp2rcd13ifvqbh0","pricing_plan_id":"cebpf4jnsgd1na2vs0mg"},{"bike_id":"b96d48d5-fc65-423b-9a30-5d2c864e8939","system_id":"levelo_inurba_marseille","lat":43.22507,"lon":5.34778,"is_reserved":false,"is_disabled":true,"rental_uris":{"android":"levelo://app?vid=b96d48d5-fc65-423b-9a30-5d2c864e8939","ios":"levelo://app?vid=b96d48d5-fc65-423b-9a30-5d2c864e8939"},"vehicle_type_id":"4","last_reported":1745399507,"current_range_meters":14000,"station_id":"st_cvj5dfep6f1abm77gieg","pricing_plan_id":"cebpf4jnsgd1na2vs0mg"},{"bike_id":"3f2ca6c8-3ed7-4f65-98ce-fa51e4471ae3","system_id":"levelo_inurba_marseille","lat":43.31276,"lon":5.40182,"is_reserved":false,"is_disabled":false,"rental_uris":{"android":"levelo://app?vid=3f2ca6c8-3ed7-4f65-98ce-fa51e4471ae3","ios":"levelo://app?vid=3f2ca6c8-3ed7-4f65-98ce-fa51e4471ae3"},"vehicle_type_id":"4","last_reported":1745399507,"current_range_meters":14000,"station_id":"ce4bh092rcd13ifvqd30","pricing_plan_id":"cebpf4jnsgd1na2vs0mg"},{"bike_id":"398936bf-83ab-47f5-84e9-a2bb713f6e36","system_id":"levelo_inurba_marseille","lat":43.24067,"lon":5.37769,"is_reserved":false,"is_disabled":false,"rental_uris":{"android":"levelo://app?vid=398936bf-83ab-47f5-84e9-a2bb713f6e36","ios":"levelo://app?vid=398936bf-83ab-47f5-84e9-a2bb713f6e36"},"vehicle_type_id":"4","last_reported":1745399507,"current_range_meters":14000,"station_id":"ce4bhnp2rcd13ifvqgvg","pricing_plan_id":"cebpf4jnsgd1na2vs0mg"},{"bike_id":"3f4ce14a-b97c-45b4-8990-bafe9aac152d","system_id":"levelo_inurba_marseille","lat":43.30907,"lon":5.36846,"is_reserved":false,"is_disabled":false,"rental_uris":{"android":"levelo://app?vid=3f4ce14a-b97c-45b4-8990-bafe9aac152d","ios":"levelo://app?vid=3f4ce14a-b97c-45b4-8990-bafe9aac152d"},"vehicle_type_id":"4","last_reported":1745399507,"current_range_meters":14000,"station_id":"ce4bgn92rcd13ifvqbvg","pricing_plan_id":"cebpf4jnsgd1na2vs0mg"},{"bike_id":"d8317863-310f-463b-86f1-b7c52563e707","system_id":"levelo_inurba_marseille","lat":43.23151,"lon":5.43721,"is_reserved":false,"is_disabled":false,"rental_uris":{"android":"levelo://app?vid=d8317863-310f-463b-86f1-b7c52563e707","ios":"levelo://app?vid=d8317863-310f-463b-86f1-b7c52563e707"},"vehicle_type_id":"4","last_reported":1745399507,"current_range_meters":14000,"station_id":"ce4bhmp2rcd13ifvqgog","pricing_plan_id":"cebpf4jnsgd1na2vs0mg"},{"bike_id":"d8ef3988-002f-42dc-b706-ecebe9835e72","system_id":"levelo_inurba_marseille","lat":43.29894,"lon":5.43665,"is_reserved":false,"is_disabled":false,"rental_uris":{"android":"levelo://app?vid=d8ef3988-002f-42dc-b706-ecebe9835e72","ios":"levelo://app?vid=d8ef3988-002f-42dc-b706-ecebe9835e72"},"vehicle_type_id":"4","last_reported":1745399507,"current_range_meters":14400,"station_id":"ce4bhpp2rcd13ifvqhfg","pricing_plan_id":"cebpf4jnsgd1na2vs0mg"},{"bike_id":"0eda7991-7ece-44cc-943a-e7eeed56fcd2","system_id":"levelo_inurba_marseille","lat":43.31485,"lon":5.37304,"is_reserved":false,"is_disabled":true,"rental_uris":{"android":"levelo://app?vid=0eda7991-7ece-44cc-943a-e7eeed56fcd2","ios":"levelo://app?vid=0eda7991-7ece-44cc-943a-e7eeed56fcd2"},"vehicle_type_id":"4","last_reported":1745399507,"current_range_meters":14400,"station_id":"ce4bgt12rcd13ifvqcd0","pricing_plan_id":"cebpf4jnsgd1na2vs0mg"},{"bike_id":"57610af4-b160-40c8-871a-b9e9811398fa","system_id":"levelo_inurba_marseille","lat":43.28361,"lon":5.38636,"is_reserved":false,"is_disabled":true,"rental_uris":{"android":"levelo://app?vid=57610af4-b160-40c8-871a-b9e9811398fa","ios":"levelo://app?vid=57610af4-b160-40c8-871a-b9e9811398fa"},"vehicle_type_id":"4","last_reported":1745399507,"current_range_meters":14400,"station_id":"ce4bh492rcd13ifvqdvg","pricing_plan_id":"cebpf4jnsgd1na2vs0mg"},{"bike_id":"e22b3338-3de3-4ef9-b0eb-963ce12a611b","system_id":"levelo_inurba_marseille","lat":43.30554,"lon":5.36482,"is_reserved":false,"is_disabled":false,"rental_uris":{"android":"levelo://app?vid=e22b3338-3de3-4ef9-b0eb-963ce12a611b","ios":"levelo://app?vid=e22b3338-3de3-4ef9-b0eb-963ce12a611b"},"vehicle_type_id":"4","last_reported":1745399507,"current_range_meters":14400,"station_id":"","pricing_plan_id":"cebpf4jnsgd1na2vs0mg"},{"bike_id":"3e8f0127-96fd-4fdd-97f2-be6e836f9523","system_id":"levelo_inurba_marseille","lat":43.33765,"lon":5.37432,"is_reserved":false,"is_disabled":false,"rental_uris":{"android":"levelo://app?vid=3e8f0127-96fd-4fdd-97f2-be6e836f9523","ios":"levelo://app?vid=3e8f0127-96fd-4fdd-97f2-be6e836f9523"},"vehicle_type_id":"4","last_reported":1745399507,"current_range_meters":14400,"station_id":"","pricing_plan_id":"cebpf4jnsgd1na2vs0mg"},{"bike_id":"23b8b8a8-e81a-4aa4-9d79-58e086d12a4b","system_id":"levelo_inurba_marseille","lat":43.301422,"lon":5.374057,"is_reserved":false,"is_disabled":false,"rental_uris":{"android":"levelo://app?vid=23b8b8a8-e81a-4aa4-9d79-58e086d12a4b","ios":"levelo://app?vid=23b8b8a8-e81a-4aa4-9d79-58e086d12a4b"},"vehicle_type_id":"4","last_reported":1745399507,"current_range_meters":14800,"station_id":"ce4bgs92rcd13ifvqcc0","pricing_plan_id":"cebpf4jnsgd1na2vs0mg"},{"bike_id":"646143b9-0af8-41a7-9efd-95e5528bc556","system_id":"levelo_inurba_marseille","lat":43.24081,"lon":5.37757,"is_reserved":false,"is_disabled":false,"rental_uris":{"android":"levelo://app?vid=646143b9-0af8-41a7-9efd-95e5528bc556","ios":"levelo://app?vid=646143b9-0af8-41a7-9efd-95e5528bc556"},"vehicle_type_id":"4","last_reported":1745399507,"current_range_meters":15200,"station_id":"ce4bhnp2rcd13ifvqgvg","pricing_plan_id":"cebpf4jnsgd1na2vs0mg"},{"bike_id":"a1835b16-9e05-4b53-baf5-10eeb04320bb","system_id":"levelo_inurba_marseille","lat":43.28716,"lon":5.37405,"is_reserved":false,"is_disabled":true,"rental_uris":{"android":"levelo://app?vid=a1835b16-9e05-4b53-baf5-10eeb04320bb","ios":"levelo://app?vid=a1835b16-9e05-4b53-baf5-10eeb04320bb"},"vehicle_type_id":"4","last_reported":1745399507,"current_range_meters":15200,"station_id":"ce4bh3p2rcd13ifvqdq0","pricing_plan_id":"cebpf4jnsgd1na2vs0mg"},{"bike_id":"322995c8-8601-4b19-ac1c-f357afc63d51","system_id":"levelo_inurba_marseille","lat":43.23153,"lon":5.43713,"is_reserved":false,"is_disabled":false,"rental_uris":{"android":"levelo://app?vid=322995c8-8601-4b19-ac1c-f357afc63d51","ios":"levelo://app?vid=322995c8-8601-4b19-ac1c-f357afc63d51"},"vehicle_type_id":"4","last_reported":1745399507,"current_range_meters":15200,"station_id":"ce4bhmp2rcd13ifvqgog","pricing_plan_id":"cebpf4jnsgd1na2vs0mg"},{"bike_id":"4470ead3-5684-45c1-b5ed-db69858a2e7c","system_id":"levelo_inurba_marseille","lat":43.29006,"lon":5.3561,"is_reserved":false,"is_disabled":false,"rental_uris":{"android":"levelo://app?vid=4470ead3-5684-45c1-b5ed-db69858a2e7c","ios":"levelo://app?vid=4470ead3-5684-45c1-b5ed-db69858a2e7c"},"vehicle_type_id":"4","last_reported":1745399507,"current_range_meters":16400,"station_id":"ce4bhb92rcd13ifvqen0","pricing_plan_id":"cebpf4jnsgd1na2vs0mg"},{"bike_id":"afc41356-a2b6-4fcb-a539-c3caa81c24b2","system_id":"levelo_inurba_marseille","lat":43.27499,"lon":5.42468,"is_reserved":false,"is_disabled":false,"rental_uris":{"android":"levelo://app?vid=afc41356-a2b6-4fcb-a539-c3caa81c24b2","ios":"levelo://app?vid=afc41356-a2b6-4fcb-a539-c3caa81c24b2"},"vehicle_type_id":"4","last_reported":1745399507,"current_range_meters":15200,"station_id":"ce4bhn92rcd13ifvqgrg","pricing_plan_id":"cebpf4jnsgd1na2vs0mg"},{"bike_id":"3f51fe93-8fea-43ae-8610-d4e457d31959","system_id":"levelo_inurba_marseille","lat":43.29579,"lon":5.36736,"is_reserved":false,"is_disabled":false,"rental_uris":{"android":"levelo://app?vid=3f51fe93-8fea-43ae-8610-d4e457d31959","ios":"levelo://app?vid=3f51fe93-8fea-43ae-8610-d4e457d31959"},"vehicle_type_id":"4","last_reported":1745399507,"current_range_meters":16000,"station_id":"ce4bgph2rcd13ifvqc2g","pricing_plan_id":"cebpf4jnsgd1na2vs0mg"},{"bike_id":"a2f407dc-7fa5-4d61-bbb5-5e7c2043ecfd","system_id":"levelo_inurba_marseille","lat":43.33629,"lon":5.40963,"is_reserved":false,"is_disabled":false,"rental_uris":{"android":"levelo://app?vid=a2f407dc-7fa5-4d61-bbb5-5e7c2043ecfd","ios":"levelo://app?vid=a2f407dc-7fa5-4d61-bbb5-5e7c2043ecfd"},"vehicle_type_id":"4","last_reported":1745399507,"current_range_meters":16000,"station_id":"ce4bhqh2rcd13ifvqhmg","pricing_plan_id":"cebpf4jnsgd1na2vs0mg"},{"bike_id":"2d284c2d-b4e7-4bd2-85f9-86d7a5a2147c","system_id":"levelo_inurba_marseille","lat":43.27066,"lon":5.42272,"is_reserved":false,"is_disabled":false,"rental_uris":{"android":"levelo://app?vid=2d284c2d-b4e7-4bd2-85f9-86d7a5a2147c","ios":"levelo://app?vid=2d284c2d-b4e7-4bd2-85f9-86d7a5a2147c"},"vehicle_type_id":"4","last_reported":1745399507,"current_range_meters":16000,"station_id":"ce4bhk92rcd13ifvqgb0","pricing_plan_id":"cebpf4jnsgd1na2vs0mg"},{"bike_id":"49a9d462-1dd2-48bd-8984-546cb07c15b6","system_id":"levelo_inurba_marseille","lat":43.25821,"lon":5.39433,"is_reserved":false,"is_disabled":false,"rental_uris":{"android":"levelo://app?vid=49a9d462-1dd2-48bd-8984-546cb07c15b6","ios":"levelo://app?vid=49a9d462-1dd2-48bd-8984-546cb07c15b6"},"vehicle_type_id":"4","last_reported":1745399507,"current_range_meters":14400,"station_id":"ce4bhip2rcd13ifvqft0","pricing_plan_id":"cebpf4jnsgd1na2vs0mg"},{"bike_id":"d7611341-26f5-4464-908e-1875c41cfc4f","system_id":"levelo_inurba_marseille","lat":43.27055,"lon":5.40258,"is_reserved":false,"is_disabled":false,"rental_uris":{"android":"levelo://app?vid=d7611341-26f5-4464-908e-1875c41cfc4f","ios":"levelo://app?vid=d7611341-26f5-4464-908e-1875c41cfc4f"},"vehicle_type_id":"4","last_reported":1745399507,"current_range_meters":16000,"station_id":"ce4bhk92rcd13ifvqgc0","pricing_plan_id":"cebpf4jnsgd1na2vs0mg"},{"bike_id":"770a8ebe-ad9f-4ca8-8223-e84205b78a55","system_id":"levelo_inurba_marseille","lat":43.24544,"lon":5.39519,"is_reserved":false,"is_disabled":false,"rental_uris":{"android":"levelo://app?vid=770a8ebe-ad9f-4ca8-8223-e84205b78a55","ios":"levelo://app?vid=770a8ebe-ad9f-4ca8-8223-e84205b78a55"},"vehicle_type_id":"4","last_reported":1745399507,"current_range_meters":16000,"station_id":"ce4bhlp2rcd13ifvqgjg","pricing_plan_id":"cebpf4jnsgd1na2vs0mg"},{"bike_id":"bceb8cba-0252-464f-a7c9-f9b4548f7a27","system_id":"levelo_inurba_marseille","lat":43.2807,"lon":5.39649,"is_reserved":false,"is_disabled":true,"rental_uris":{"android":"levelo://app?vid=bceb8cba-0252-464f-a7c9-f9b4548f7a27","ios":"levelo://app?vid=bceb8cba-0252-464f-a7c9-f9b4548f7a27"},"vehicle_type_id":"4","last_reported":1745399507,"current_range_meters":16000,"station_id":"ce4bho12rcd13ifvqh2g","pricing_plan_id":"cebpf4jnsgd1na2vs0mg"},{"bike_id":"34d18faf-fe69-46ed-a4a9-9e404cad30f2","system_id":"levelo_inurba_marseille","lat":43.30893,"lon":5.368,"is_reserved":false,"is_disabled":false,"rental_uris":{"android":"levelo://app?vid=34d18faf-fe69-46ed-a4a9-9e404cad30f2","ios":"levelo://app?vid=34d18faf-fe69-46ed-a4a9-9e404cad30f2"},"vehicle_type_id":"4","last_reported":1745399507,"current_range_meters":16400,"station_id":"ce4bgn92rcd13ifvqbvg","pricing_plan_id":"cebpf4jnsgd1na2vs0mg"},{"bike_id":"384f7ad4-1720-44d0-b2a3-ca24af9b40d2","system_id":"levelo_inurba_marseille","lat":43.30598,"lon":5.3722,"is_reserved":false,"is_disabled":false,"rental_uris":{"android":"levelo://app?vid=384f7ad4-1720-44d0-b2a3-ca24af9b40d2","ios":"levelo://app?vid=384f7ad4-1720-44d0-b2a3-ca24af9b40d2"},"vehicle_type_id":"4","last_reported":1745399507,"current_range_meters":16400,"station_id":"ce4bgqh2rcd13ifvqc4g","pricing_plan_id":"cebpf4jnsgd1na2vs0mg"},{"bike_id":"378d59fa-5c4d-475a-ab80-86c54755eb3c","system_id":"levelo_inurba_marseille","lat":43.30495,"lon":5.37927,"is_reserved":false,"is_disabled":false,"rental_uris":{"android":"levelo://app?vid=378d59fa-5c4d-475a-ab80-86c54755eb3c","ios":"levelo://app?vid=378d59fa-5c4d-475a-ab80-86c54755eb3c"},"vehicle_type_id":"4","last_reported":1745399507,"current_range_meters":16400,"station_id":"ce4bgup2rcd13ifvqcn0","pricing_plan_id":"cebpf4jnsgd1na2vs0mg"},{"bike_id":"2f25445a-f6ab-411f-ad8f-95a306476cb0","system_id":"levelo_inurba_marseille","lat":43.240781,"lon":5.377544,"is_reserved":false,"is_disabled":false,"rental_uris":{"android":"levelo://app?vid=2f25445a-f6ab-411f-ad8f-95a306476cb0","ios":"levelo://app?vid=2f25445a-f6ab-411f-ad8f-95a306476cb0"},"vehicle_type_id":"4","last_reported":1745399507,"current_range_meters":16400,"station_id":"ce4bhnp2rcd13ifvqgvg","pricing_plan_id":"cebpf4jnsgd1na2vs0mg"},{"bike_id":"d3f211aa-741d-4922-9d00-0aa8ee7227fc","system_id":"levelo_inurba_marseille","lat":43.30958,"lon":5.39047,"is_reserved":false,"is_disabled":false,"rental_uris":{"android":"levelo://app?vid=d3f211aa-741d-4922-9d00-0aa8ee7227fc","ios":"levelo://app?vid=d3f211aa-741d-4922-9d00-0aa8ee7227fc"},"vehicle_type_id":"4","last_reported":1745399507,"current_range_meters":16400,"station_id":"ce4bgup2rcd13ifvqco0","pricing_plan_id":"cebpf4jnsgd1na2vs0mg"},{"bike_id":"02a40b03-b567-43bf-a8de-5120621bb488","system_id":"levelo_inurba_marseille","lat":43.22497,"lon":5.3477,"is_reserved":false,"is_disabled":false,"rental_uris":{"android":"levelo://app?vid=02a40b03-b567-43bf-a8de-5120621bb488","ios":"levelo://app?vid=02a40b03-b567-43bf-a8de-5120621bb488"},"vehicle_type_id":"4","last_reported":1745399507,"current_range_meters":16400,"station_id":"","pricing_plan_id":"cebpf4jnsgd1na2vs0mg"},{"bike_id":"1de3c508-e85c-42f0-b982-e083e926cca1","system_id":"levelo_inurba_marseille","lat":43.26197,"lon":5.37446,"is_reserved":false,"is_disabled":false,"rental_uris":{"android":"levelo://app?vid=1de3c508-e85c-42f0-b982-e083e926cca1","ios":"levelo://app?vid=1de3c508-e85c-42f0-b982-e083e926cca1"},"vehicle_type_id":"4","last_reported":1745399507,"current_range_meters":16400,"station_id":"ce4bhgp2rcd13ifvqfc0","pricing_plan_id":"cebpf4jnsgd1na2vs0mg"},{"bike_id":"db6c3ea9-7917-44bd-958f-99f8a50fb72d","system_id":"levelo_inurba_marseille","lat":43.30905,"lon":5.36857,"is_reserved":false,"is_disabled":false,"rental_uris":{"android":"levelo://app?vid=db6c3ea9-7917-44bd-958f-99f8a50fb72d","ios":"levelo://app?vid=db6c3ea9-7917-44bd-958f-99f8a50fb72d"},"vehicle_type_id":"4","last_reported":1745399507,"current_range_meters":16400,"station_id":"ce4bgn92rcd13ifvqbvg","pricing_plan_id":"cebpf4jnsgd1na2vs0mg"},{"bike_id":"b5d609bf-0c9b-49e3-9426-ce02cb8383b8","system_id":"levelo_inurba_marseille","lat":43.34058,"lon":5.40894,"is_reserved":false,"is_disabled":true,"rental_uris":{"android":"levelo://app?vid=b5d609bf-0c9b-49e3-9426-ce02cb8383b8","ios":"levelo://app?vid=b5d609bf-0c9b-49e3-9426-ce02cb8383b8"},"vehicle_type_id":"4","last_reported":1745399507,"current_range_meters":16800,"station_id":"ce4bhqh2rcd13ifvqhlg","pricing_plan_id":"cebpf4jnsgd1na2vs0mg"},{"bike_id":"46374c49-3adc-4c5a-8966-e00f056c0d57","system_id":"levelo_inurba_marseille","lat":43.27846,"lon":5.35442,"is_reserved":false,"is_disabled":false,"rental_uris":{"android":"levelo://app?vid=46374c49-3adc-4c5a-8966-e00f056c0d57","ios":"levelo://app?vid=46374c49-3adc-4c5a-8966-e00f056c0d57"},"vehicle_type_id":"4","last_reported":1745399507,"current_range_meters":16800,"station_id":"","pricing_plan_id":"cebpf4jnsgd1na2vs0mg"},{"bike_id":"1dd2ac2a-4c94-4464-a499-c31d4cd58712","system_id":"levelo_inurba_marseille","lat":43.30143,"lon":5.37408,"is_reserved":false,"is_disabled":false,"rental_uris":{"android":"levelo://app?vid=1dd2ac2a-4c94-4464-a499-c31d4cd58712","ios":"levelo://app?vid=1dd2ac2a-4c94-4464-a499-c31d4cd58712"},"vehicle_type_id":"4","last_reported":1745399507,"current_range_meters":16800,"station_id":"ce4bgs92rcd13ifvqcc0","pricing_plan_id":"cebpf4jnsgd1na2vs0mg"},{"bike_id":"1e94a062-fcf4-4099-9327-07da6afdd8e3","system_id":"levelo_inurba_marseille","lat":43.28941,"lon":5.38401,"is_reserved":false,"is_disabled":false,"rental_uris":{"android":"levelo://app?vid=1e94a062-fcf4-4099-9327-07da6afdd8e3","ios":"levelo://app?vid=1e94a062-fcf4-4099-9327-07da6afdd8e3"},"vehicle_type_id":"4","last_reported":1745399507,"current_range_meters":16800,"station_id":"ce4bh612rcd13ifvqe6g","pricing_plan_id":"cebpf4jnsgd1na2vs0mg"},{"bike_id":"f4cf2b50-5f9e-49ff-80a5-4899979e4fc4","system_id":"levelo_inurba_marseille","lat":43.248057,"lon":5.374624,"is_reserved":false,"is_disabled":false,"rental_uris":{"android":"levelo://app?vid=f4cf2b50-5f9e-49ff-80a5-4899979e4fc4","ios":"levelo://app?vid=f4cf2b50-5f9e-49ff-80a5-4899979e4fc4"},"vehicle_type_id":"4","last_reported":1745399507,"current_range_meters":17200,"station_id":"ce4bhgh2rcd13ifvqfb0","pricing_plan_id":"cebpf4jnsgd1na2vs0mg"},{"bike_id":"96b0f47a-df73-4c76-a290-a8c86dfa6161","system_id":"levelo_inurba_marseille","lat":43.32556,"lon":5.41486,"is_reserved":false,"is_disabled":false,"rental_uris":{"android":"levelo://app?vid=96b0f47a-df73-4c76-a290-a8c86dfa6161","ios":"levelo://app?vid=96b0f47a-df73-4c76-a290-a8c86dfa6161"},"vehicle_type_id":"4","last_reported":1745399507,"current_range_meters":17200,"station_id":"ce4bhq12rcd13ifvqhhg","pricing_plan_id":"cebpf4jnsgd1na2vs0mg"},{"bike_id":"7b3b4f60-bf9c-4025-b10a-6b97b1277562","system_id":"levelo_inurba_marseille","lat":43.2315,"lon":5.43714,"is_reserved":false,"is_disabled":false,"rental_uris":{"android":"levelo://app?vid=7b3b4f60-bf9c-4025-b10a-6b97b1277562","ios":"levelo://app?vid=7b3b4f60-bf9c-4025-b10a-6b97b1277562"},"vehicle_type_id":"4","last_reported":1745399507,"current_range_meters":17200,"station_id":"ce4bhmp2rcd13ifvqgog","pricing_plan_id":"cebpf4jnsgd1na2vs0mg"},{"bike_id":"ae5d327f-5620-42de-8ddf-d3ae78b63b26","system_id":"levelo_inurba_marseille","lat":43.30269,"lon":5.37703,"is_reserved":false,"is_disabled":false,"rental_uris":{"android":"levelo://app?vid=ae5d327f-5620-42de-8ddf-d3ae78b63b26","ios":"levelo://app?vid=ae5d327f-5620-42de-8ddf-d3ae78b63b26"},"vehicle_type_id":"4","last_reported":1745399507,"current_range_meters":17200,"station_id":"ce4bguh2rcd13ifvqcj0","pricing_plan_id":"cebpf4jnsgd1na2vs0mg"},{"bike_id":"9ec49457-910a-4a25-9cd0-b82d5625cff5","system_id":"levelo_inurba_marseille","lat":43.23155,"lon":5.43706,"is_reserved":false,"is_disabled":false,"rental_uris":{"android":"levelo://app?vid=9ec49457-910a-4a25-9cd0-b82d5625cff5","ios":"levelo://app?vid=9ec49457-910a-4a25-9cd0-b82d5625cff5"},"vehicle_type_id":"4","last_reported":1745399507,"current_range_meters":17200,"station_id":"ce4bhmp2rcd13ifvqgog","pricing_plan_id":"cebpf4jnsgd1na2vs0mg"},{"bike_id":"b244cdd7-891e-41d3-bbdf-d6e3de24d190","system_id":"levelo_inurba_marseille","lat":43.29195,"lon":5.35782,"is_reserved":false,"is_disabled":true,"rental_uris":{"android":"levelo://app?vid=b244cdd7-891e-41d3-bbdf-d6e3de24d190","ios":"levelo://app?vid=b244cdd7-891e-41d3-bbdf-d6e3de24d190"},"vehicle_type_id":"4","last_reported":1745399507,"current_range_meters":17600,"station_id":"ce4bhb12rcd13ifvqel0","pricing_plan_id":"cebpf4jnsgd1na2vs0mg"},{"bike_id":"f6f7c569-cd2a-44b3-9b15-e69c7b4b597f","system_id":"levelo_inurba_marseille","lat":43.29005,"lon":5.3561,"is_reserved":false,"is_disabled":false,"rental_uris":{"android":"levelo://app?vid=f6f7c569-cd2a-44b3-9b15-e69c7b4b597f","ios":"levelo://app?vid=f6f7c569-cd2a-44b3-9b15-e69c7b4b597f"},"vehicle_type_id":"4","last_reported":1745399507,"current_range_meters":17200,"station_id":"ce4bhb92rcd13ifvqen0","pricing_plan_id":"cebpf4jnsgd1na2vs0mg"},{"bike_id":"e880ecc6-a27b-473c-93e6-655ca4a033b2","system_id":"levelo_inurba_marseille","lat":43.30379,"lon":5.42469,"is_reserved":false,"is_disabled":false,"rental_uris":{"android":"levelo://app?vid=e880ecc6-a27b-473c-93e6-655ca4a033b2","ios":"levelo://app?vid=e880ecc6-a27b-473c-93e6-655ca4a033b2"},"vehicle_type_id":"4","last_reported":1745399507,"current_range_meters":17600,"station_id":"ce4bhoh2rcd13ifvqh6g","pricing_plan_id":"cebpf4jnsgd1na2vs0mg"},{"bike_id":"0a19e66b-6692-451e-b60a-94056cc8c1b1","system_id":"levelo_inurba_marseille","lat":43.296278,"lon":5.371623,"is_reserved":false,"is_disabled":false,"rental_uris":{"android":"levelo://app?vid=0a19e66b-6692-451e-b60a-94056cc8c1b1","ios":"levelo://app?vid=0a19e66b-6692-451e-b60a-94056cc8c1b1"},"vehicle_type_id":"4","last_reported":1745399507,"current_range_meters":17600,"station_id":"ce4bgnh2rcd13ifvqc0g","pricing_plan_id":"cebpf4jnsgd1na2vs0mg"},{"bike_id":"9966e2c4-c438-4020-9570-af75c54f7699","system_id":"levelo_inurba_marseille","lat":43.2512,"lon":5.40306,"is_reserved":false,"is_disabled":false,"rental_uris":{"android":"levelo://app?vid=9966e2c4-c438-4020-9570-af75c54f7699","ios":"levelo://app?vid=9966e2c4-c438-4020-9570-af75c54f7699"},"vehicle_type_id":"4","last_reported":1745399507,"current_range_meters":17600,"station_id":"ce4bhlh2rcd13ifvqgig","pricing_plan_id":"cebpf4jnsgd1na2vs0mg"},{"bike_id":"012877b6-e9c9-482d-997f-6a78ad0ac83b","system_id":"levelo_inurba_marseille","lat":43.302405,"lon":5.373818,"is_reserved":false,"is_disabled":false,"rental_uris":{"android":"levelo://app?vid=012877b6-e9c9-482d-997f-6a78ad0ac83b","ios":"levelo://app?vid=012877b6-e9c9-482d-997f-6a78ad0ac83b"},"vehicle_type_id":"4","last_reported":1745399507,"current_range_meters":17600,"station_id":"ce4bgnh2rcd13ifvqc0g","pricing_plan_id":"cebpf4jnsgd1na2vs0mg"},{"bike_id":"548a676c-6329-4f1b-a15f-51e09f419043","system_id":"levelo_inurba_marseille","lat":43.26948,"lon":5.386527,"is_reserved":false,"is_disabled":true,"rental_uris":{"android":"levelo://app?vid=548a676c-6329-4f1b-a15f-51e09f419043","ios":"levelo://app?vid=548a676c-6329-4f1b-a15f-51e09f419043"},"vehicle_type_id":"4","last_reported":1745399507,"current_range_meters":18000,"station_id":"ce4bhh92rcd13ifvqfh0","pricing_plan_id":"cebpf4jnsgd1na2vs0mg"},{"bike_id":"5d40e2a0-1ea7-46ee-9ca4-db030bf28951","system_id":"levelo_inurba_marseille","lat":43.30149,"lon":5.37435,"is_reserved":false,"is_disabled":false,"rental_uris":{"android":"levelo://app?vid=5d40e2a0-1ea7-46ee-9ca4-db030bf28951","ios":"levelo://app?vid=5d40e2a0-1ea7-46ee-9ca4-db030bf28951"},"vehicle_type_id":"4","last_reported":1745399507,"current_range_meters":18000,"station_id":"ce4bgs92rcd13ifvqcc0","pricing_plan_id":"cebpf4jnsgd1na2vs0mg"},{"bike_id":"2c210749-934e-4075-8f69-64b44da87771","system_id":"levelo_inurba_marseille","lat":43.30306,"lon":5.39213,"is_reserved":false,"is_disabled":true,"rental_uris":{"android":"levelo://app?vid=2c210749-934e-4075-8f69-64b44da87771","ios":"levelo://app?vid=2c210749-934e-4075-8f69-64b44da87771"},"vehicle_type_id":"4","last_reported":1745399507,"current_range_meters":18000,"station_id":"ce4bgkh2rcd13ifvqbk0","pricing_plan_id":"cebpf4jnsgd1na2vs0mg"},{"bike_id":"f14e05df-6b48-48e9-a4b2-0a922790be98","system_id":"levelo_inurba_marseille","lat":43.29265,"lon":5.36847,"is_reserved":false,"is_disabled":false,"rental_uris":{"android":"levelo://app?vid=f14e05df-6b48-48e9-a4b2-0a922790be98","ios":"levelo://app?vid=f14e05df-6b48-48e9-a4b2-0a922790be98"},"vehicle_type_id":"4","last_reported":1745399507,"current_range_meters":18000,"station_id":"ce4bhbp2rcd13ifvqesg","pricing_plan_id":"cebpf4jnsgd1na2vs0mg"},{"bike_id":"ef7b4785-fa2b-49c3-8f9c-177a53d7e716","system_id":"levelo_inurba_marseille","lat":43.30312,"lon":5.3692,"is_reserved":false,"is_disabled":false,"rental_uris":{"android":"levelo://app?vid=ef7b4785-fa2b-49c3-8f9c-177a53d7e716","ios":"levelo://app?vid=ef7b4785-fa2b-49c3-8f9c-177a53d7e716"},"vehicle_type_id":"4","last_reported":1745399507,"current_range_meters":18000,"station_id":"ce4bgqh2rcd13ifvqc5g","pricing_plan_id":"cebpf4jnsgd1na2vs0mg"},{"bike_id":"8492fc37-6c73-4a09-9b31-986bd564c641","system_id":"levelo_inurba_marseille","lat":43.31696,"lon":5.4046,"is_reserved":false,"is_disabled":false,"rental_uris":{"android":"levelo://app?vid=8492fc37-6c73-4a09-9b31-986bd564c641","ios":"levelo://app?vid=8492fc37-6c73-4a09-9b31-986bd564c641"},"vehicle_type_id":"4","last_reported":1745399507,"current_range_meters":18000,"station_id":"ce4bh012rcd13ifvqd00","pricing_plan_id":"cebpf4jnsgd1na2vs0mg"},{"bike_id":"4d635c25-b855-4f73-8a73-055420da109a","system_id":"levelo_inurba_marseille","lat":43.29579,"lon":5.36734,"is_reserved":false,"is_disabled":false,"rental_uris":{"android":"levelo://app?vid=4d635c25-b855-4f73-8a73-055420da109a","ios":"levelo://app?vid=4d635c25-b855-4f73-8a73-055420da109a"},"vehicle_type_id":"4","last_reported":1745399507,"current_range_meters":18000,"station_id":"ce4bgph2rcd13ifvqc2g","pricing_plan_id":"cebpf4jnsgd1na2vs0mg"},{"bike_id":"1aa656ae-0dd8-48ec-9f42-95c2db273681","system_id":"levelo_inurba_marseille","lat":43.30553,"lon":5.36703,"is_reserved":false,"is_disabled":false,"rental_uris":{"android":"levelo://app?vid=1aa656ae-0dd8-48ec-9f42-95c2db273681","ios":"levelo://app?vid=1aa656ae-0dd8-48ec-9f42-95c2db273681"},"vehicle_type_id":"4","last_reported":1745399507,"current_range_meters":18000,"station_id":"ce4bgrp2rcd13ifvqc9g","pricing_plan_id":"cebpf4jnsgd1na2vs0mg"},{"bike_id":"0ea362ce-4354-4f0f-acc7-962b146816c7","system_id":"levelo_inurba_marseille","lat":43.25854,"lon":5.39904,"is_reserved":false,"is_disabled":true,"rental_uris":{"android":"levelo://app?vid=0ea362ce-4354-4f0f-acc7-962b146816c7","ios":"levelo://app?vid=0ea362ce-4354-4f0f-acc7-962b146816c7"},"vehicle_type_id":"4","last_reported":1745399507,"current_range_meters":18800,"station_id":"ce4bhl92rcd13ifvqghg","pricing_plan_id":"cebpf4jnsgd1na2vs0mg"},{"bike_id":"c74c4806-b340-4b33-a8ef-ae1db8d6c100","system_id":"levelo_inurba_marseille","lat":43.24057,"lon":5.37719,"is_reserved":false,"is_disabled":false,"rental_uris":{"android":"levelo://app?vid=c74c4806-b340-4b33-a8ef-ae1db8d6c100","ios":"levelo://app?vid=c74c4806-b340-4b33-a8ef-ae1db8d6c100"},"vehicle_type_id":"4","last_reported":1745399507,"current_range_meters":18800,"station_id":"ce4bhnp2rcd13ifvqgvg","pricing_plan_id":"cebpf4jnsgd1na2vs0mg"},{"bike_id":"413f4d9d-b034-4a62-9dd5-fb1e57ec700a","system_id":"levelo_inurba_marseille","lat":43.23126,"lon":5.43696,"is_reserved":false,"is_disabled":false,"rental_uris":{"android":"levelo://app?vid=413f4d9d-b034-4a62-9dd5-fb1e57ec700a","ios":"levelo://app?vid=413f4d9d-b034-4a62-9dd5-fb1e57ec700a"},"vehicle_type_id":"4","last_reported":1745399507,"current_range_meters":18800,"station_id":"ce4bhmp2rcd13ifvqgog","pricing_plan_id":"cebpf4jnsgd1na2vs0mg"},{"bike_id":"a2832b2f-f5e2-4efc-a54b-c971a1f1c20a","system_id":"levelo_inurba_marseille","lat":43.29581,"lon":5.36747,"is_reserved":false,"is_disabled":false,"rental_uris":{"android":"levelo://app?vid=a2832b2f-f5e2-4efc-a54b-c971a1f1c20a","ios":"levelo://app?vid=a2832b2f-f5e2-4efc-a54b-c971a1f1c20a"},"vehicle_type_id":"4","last_reported":1745399507,"current_range_meters":18800,"station_id":"ce4bgph2rcd13ifvqc2g","pricing_plan_id":"cebpf4jnsgd1na2vs0mg"},{"bike_id":"4bc4cd93-e9bd-4431-9aba-4a53a5a1a94b","system_id":"levelo_inurba_marseille","lat":43.3056,"lon":5.3669,"is_reserved":false,"is_disabled":false,"rental_uris":{"android":"levelo://app?vid=4bc4cd93-e9bd-4431-9aba-4a53a5a1a94b","ios":"levelo://app?vid=4bc4cd93-e9bd-4431-9aba-4a53a5a1a94b"},"vehicle_type_id":"4","last_reported":1745399507,"current_range_meters":18800,"station_id":"ce4bgrp2rcd13ifvqc9g","pricing_plan_id":"cebpf4jnsgd1na2vs0mg"},{"bike_id":"4808c725-c781-4348-9a21-ae1bba238ba1","system_id":"levelo_inurba_marseille","lat":43.32039,"lon":5.41534,"is_reserved":false,"is_disabled":false,"rental_uris":{"android":"levelo://app?vid=4808c725-c781-4348-9a21-ae1bba238ba1","ios":"levelo://app?vid=4808c725-c781-4348-9a21-ae1bba238ba1"},"vehicle_type_id":"4","last_reported":1745399507,"current_range_meters":18000,"station_id":"ce4bhq92rcd13ifvqhkg","pricing_plan_id":"cebpf4jnsgd1na2vs0mg"},{"bike_id":"f39a5ed8-2be4-4254-916e-d88677df50a0","system_id":"levelo_inurba_marseille","lat":43.275,"lon":5.42481,"is_reserved":false,"is_disabled":false,"rental_uris":{"android":"levelo://app?vid=f39a5ed8-2be4-4254-916e-d88677df50a0","ios":"levelo://app?vid=f39a5ed8-2be4-4254-916e-d88677df50a0"},"vehicle_type_id":"4","last_reported":1745399507,"current_range_meters":19200,"station_id":"ce4bhn92rcd13ifvqgrg","pricing_plan_id":"cebpf4jnsgd1na2vs0mg"},{"bike_id":"7bda5196-b22a-4d62-8cbb-997368bea13c","system_id":"levelo_inurba_marseille","lat":43.30316,"lon":5.36907,"is_reserved":false,"is_disabled":false,"rental_uris":{"android":"levelo://app?vid=7bda5196-b22a-4d62-8cbb-997368bea13c","ios":"levelo://app?vid=7bda5196-b22a-4d62-8cbb-997368bea13c"},"vehicle_type_id":"4","last_reported":1745399507,"current_range_meters":19200,"station_id":"ce4bgqh2rcd13ifvqc5g","pricing_plan_id":"cebpf4jnsgd1na2vs0mg"},{"bike_id":"74f5a9cf-fc0b-4267-be16-a01935c45e2e","system_id":"levelo_inurba_marseille","lat":43.28156,"lon":5.42644,"is_reserved":false,"is_disabled":false,"rental_uris":{"android":"levelo://app?vid=74f5a9cf-fc0b-4267-be16-a01935c45e2e","ios":"levelo://app?vid=74f5a9cf-fc0b-4267-be16-a01935c45e2e"},"vehicle_type_id":"4","last_reported":1745399507,"current_range_meters":19200,"station_id":"ce4bhnh2rcd13ifvqgug","pricing_plan_id":"cebpf4jnsgd1na2vs0mg"},{"bike_id":"a50c0add-04db-4008-88e1-60ef015df2b9","system_id":"levelo_inurba_marseille","lat":43.33602,"lon":5.41017,"is_reserved":false,"is_disabled":false,"rental_uris":{"android":"levelo://app?vid=a50c0add-04db-4008-88e1-60ef015df2b9","ios":"levelo://app?vid=a50c0add-04db-4008-88e1-60ef015df2b9"},"vehicle_type_id":"4","last_reported":1745399507,"current_range_meters":19200,"station_id":"ce4bhqh2rcd13ifvqhmg","pricing_plan_id":"cebpf4jnsgd1na2vs0mg"},{"bike_id":"8d5d7cd5-e12f-4baa-824c-3739f9cf306e","system_id":"levelo_inurba_marseille","lat":43.26935,"lon":5.38909,"is_reserved":false,"is_disabled":false,"rental_uris":{"android":"levelo://app?vid=8d5d7cd5-e12f-4baa-824c-3739f9cf306e","ios":"levelo://app?vid=8d5d7cd5-e12f-4baa-824c-3739f9cf306e"},"vehicle_type_id":"4","last_reported":1745399507,"current_range_meters":19200,"station_id":"ce4bhhh2rcd13ifvqfl0","pricing_plan_id":"cebpf4jnsgd1na2vs0mg"},{"bike_id":"9c39910c-0f98-481a-a46b-0ccccfed5033","system_id":"levelo_inurba_marseille","lat":43.29373,"lon":5.37838,"is_reserved":false,"is_disabled":false,"rental_uris":{"android":"levelo://app?vid=9c39910c-0f98-481a-a46b-0ccccfed5033","ios":"levelo://app?vid=9c39910c-0f98-481a-a46b-0ccccfed5033"},"vehicle_type_id":"4","last_reported":1745399507,"current_range_meters":19200,"station_id":"ce4bgjh2rcd13ifvqbf0","pricing_plan_id":"cebpf4jnsgd1na2vs0mg"},{"bike_id":"4913507c-096c-4918-8edb-802e1c951937","system_id":"levelo_inurba_marseille","lat":43.29898,"lon":5.43671,"is_reserved":false,"is_disabled":false,"rental_uris":{"android":"levelo://app?vid=4913507c-096c-4918-8edb-802e1c951937","ios":"levelo://app?vid=4913507c-096c-4918-8edb-802e1c951937"},"vehicle_type_id":"4","last_reported":1745399507,"current_range_meters":19200,"station_id":"ce4bhpp2rcd13ifvqhfg","pricing_plan_id":"cebpf4jnsgd1na2vs0mg"},{"bike_id":"7993698a-d13b-4b53-a8ad-ad982a6911b1","system_id":"levelo_inurba_marseille","lat":43.26566,"lon":5.39002,"is_reserved":false,"is_disabled":false,"rental_uris":{"android":"levelo://app?vid=7993698a-d13b-4b53-a8ad-ad982a6911b1","ios":"levelo://app?vid=7993698a-d13b-4b53-a8ad-ad982a6911b1"},"vehicle_type_id":"4","last_reported":1745399507,"current_range_meters":19200,"station_id":"ce4bhe12rcd13ifvqf30","pricing_plan_id":"cebpf4jnsgd1na2vs0mg"},{"bike_id":"c7b90bf3-baf1-4b35-b182-f85c92c205a4","system_id":"levelo_inurba_marseille","lat":43.28417,"lon":5.34982,"is_reserved":false,"is_disabled":false,"rental_uris":{"android":"levelo://app?vid=c7b90bf3-baf1-4b35-b182-f85c92c205a4","ios":"levelo://app?vid=c7b90bf3-baf1-4b35-b182-f85c92c205a4"},"vehicle_type_id":"4","last_reported":1745399507,"current_range_meters":19200,"station_id":"ce4bhbh2rcd13ifvqepg","pricing_plan_id":"cebpf4jnsgd1na2vs0mg"},{"bike_id":"ef731f68-4f9b-4309-a878-72324d5e4f24","system_id":"levelo_inurba_marseille","lat":43.30141,"lon":5.37405,"is_reserved":false,"is_disabled":false,"rental_uris":{"android":"levelo://app?vid=ef731f68-4f9b-4309-a878-72324d5e4f24","ios":"levelo://app?vid=ef731f68-4f9b-4309-a878-72324d5e4f24"},"vehicle_type_id":"4","last_reported":1745399507,"current_range_meters":19200,"station_id":"ce4bgs92rcd13ifvqcc0","pricing_plan_id":"cebpf4jnsgd1na2vs0mg"},{"bike_id":"00560a0c-5029-41ca-a201-b1a5d77f0f9b","system_id":"levelo_inurba_marseille","lat":43.297508,"lon":5.373261,"is_reserved":false,"is_disabled":false,"rental_uris":{"android":"levelo://app?vid=00560a0c-5029-41ca-a201-b1a5d77f0f9b","ios":"levelo://app?vid=00560a0c-5029-41ca-a201-b1a5d77f0f9b"},"vehicle_type_id":"4","last_reported":1745399507,"current_range_meters":19600,"station_id":"ce4bgi92rcd13ifvqb90","pricing_plan_id":"cebpf4jnsgd1na2vs0mg"},{"bike_id":"99a764d9-c775-4ca6-a51a-b13cec54798f","system_id":"levelo_inurba_marseille","lat":43.3046,"lon":5.37895,"is_reserved":false,"is_disabled":false,"rental_uris":{"android":"levelo://app?vid=99a764d9-c775-4ca6-a51a-b13cec54798f","ios":"levelo://app?vid=99a764d9-c775-4ca6-a51a-b13cec54798f"},"vehicle_type_id":"4","last_reported":1745399507,"current_range_meters":19600,"station_id":"ce4bgup2rcd13ifvqcn0","pricing_plan_id":"cebpf4jnsgd1na2vs0mg"},{"bike_id":"b8fb165a-8bde-4bbe-a3eb-ad74c528b8d4","system_id":"levelo_inurba_marseille","lat":43.229293,"lon":5.353763,"is_reserved":false,"is_disabled":false,"rental_uris":{"android":"levelo://app?vid=b8fb165a-8bde-4bbe-a3eb-ad74c528b8d4","ios":"levelo://app?vid=b8fb165a-8bde-4bbe-a3eb-ad74c528b8d4"},"vehicle_type_id":"4","last_reported":1745399507,"current_range_meters":19600,"station_id":"cpo3532slgdg3j2ikp40","pricing_plan_id":"cebpf4jnsgd1na2vs0mg"},{"bike_id":"675a939b-d753-43ff-a709-52593e152734","system_id":"levelo_inurba_marseille","lat":43.3171,"lon":5.40237,"is_reserved":false,"is_disabled":false,"rental_uris":{"android":"levelo://app?vid=675a939b-d753-43ff-a709-52593e152734","ios":"levelo://app?vid=675a939b-d753-43ff-a709-52593e152734"},"vehicle_type_id":"4","last_reported":1745399507,"current_range_meters":19600,"station_id":"ce4bh012rcd13ifvqd00","pricing_plan_id":"cebpf4jnsgd1na2vs0mg"},{"bike_id":"7d17f1ab-c860-4664-96b0-e22f8b47b09b","system_id":"levelo_inurba_marseille","lat":43.299349,"lon":5.374163,"is_reserved":false,"is_disabled":false,"rental_uris":{"android":"levelo://app?vid=7d17f1ab-c860-4664-96b0-e22f8b47b09b","ios":"levelo://app?vid=7d17f1ab-c860-4664-96b0-e22f8b47b09b"},"vehicle_type_id":"4","last_reported":1745399507,"current_range_meters":19600,"station_id":"ce4bgs92rcd13ifvqcc0","pricing_plan_id":"cebpf4jnsgd1na2vs0mg"},{"bike_id":"6e0b1c01-6a8d-44fd-a45a-7c53164ee423","system_id":"levelo_inurba_marseille","lat":43.24161,"lon":5.39761,"is_reserved":false,"is_disabled":false,"rental_uris":{"android":"levelo://app?vid=6e0b1c01-6a8d-44fd-a45a-7c53164ee423","ios":"levelo://app?vid=6e0b1c01-6a8d-44fd-a45a-7c53164ee423"},"vehicle_type_id":"4","last_reported":1745399507,"current_range_meters":20000,"station_id":"ce4bhn12rcd13ifvqgpg","pricing_plan_id":"cebpf4jnsgd1na2vs0mg"},{"bike_id":"daea874d-487d-4e98-9991-6e3a44dd30e4","system_id":"levelo_inurba_marseille","lat":43.28419,"lon":5.34979,"is_reserved":false,"is_disabled":false,"rental_uris":{"android":"levelo://app?vid=daea874d-487d-4e98-9991-6e3a44dd30e4","ios":"levelo://app?vid=daea874d-487d-4e98-9991-6e3a44dd30e4"},"vehicle_type_id":"4","last_reported":1745399507,"current_range_meters":20000,"station_id":"ce4bhbh2rcd13ifvqepg","pricing_plan_id":"cebpf4jnsgd1na2vs0mg"},{"bike_id":"7f4c3b02-135e-4c8b-ae41-58f43c6a5eeb","system_id":"levelo_inurba_marseille","lat":43.32489,"lon":5.36556,"is_reserved":false,"is_disabled":false,"rental_uris":{"android":"levelo://app?vid=7f4c3b02-135e-4c8b-ae41-58f43c6a5eeb","ios":"levelo://app?vid=7f4c3b02-135e-4c8b-ae41-58f43c6a5eeb"},"vehicle_type_id":"4","last_reported":1745399507,"current_range_meters":20000,"station_id":"ce4bhs12rcd13ifvqhvg","pricing_plan_id":"cebpf4jnsgd1na2vs0mg"},{"bike_id":"32f4fde7-f9bb-48cf-850f-4f6df8e3f810","system_id":"levelo_inurba_marseille","lat":43.29841,"lon":5.36272,"is_reserved":false,"is_disabled":false,"rental_uris":{"android":"levelo://app?vid=32f4fde7-f9bb-48cf-850f-4f6df8e3f810","ios":"levelo://app?vid=32f4fde7-f9bb-48cf-850f-4f6df8e3f810"},"vehicle_type_id":"4","last_reported":1745399507,"current_range_meters":20000,"station_id":"ce4bgpp2rcd13ifvqc3g","pricing_plan_id":"cebpf4jnsgd1na2vs0mg"},{"bike_id":"894b8530-885f-4d4d-a2ae-913958cbbe2f","system_id":"levelo_inurba_marseille","lat":43.25902,"lon":5.40871,"is_reserved":false,"is_disabled":true,"rental_uris":{"android":"levelo://app?vid=894b8530-885f-4d4d-a2ae-913958cbbe2f","ios":"levelo://app?vid=894b8530-885f-4d4d-a2ae-913958cbbe2f"},"vehicle_type_id":"4","last_reported":1745399507,"current_range_meters":20000,"station_id":"ce4bhm92rcd13ifvqglg","pricing_plan_id":"cebpf4jnsgd1na2vs0mg"},{"bike_id":"8b13a928-cf73-4379-a0db-2b466786b7d8","system_id":"levelo_inurba_marseille","lat":43.33768,"lon":5.37428,"is_reserved":false,"is_disabled":false,"rental_uris":{"android":"levelo://app?vid=8b13a928-cf73-4379-a0db-2b466786b7d8","ios":"levelo://app?vid=8b13a928-cf73-4379-a0db-2b466786b7d8"},"vehicle_type_id":"4","last_reported":1745399507,"current_range_meters":20400,"station_id":"","pricing_plan_id":"cebpf4jnsgd1na2vs0mg"},{"bike_id":"17f64928-2dde-4002-ba54-81b220f041ae","system_id":"levelo_inurba_marseille","lat":43.28413,"lon":5.34974,"is_reserved":false,"is_disabled":false,"rental_uris":{"android":"levelo://app?vid=17f64928-2dde-4002-ba54-81b220f041ae","ios":"levelo://app?vid=17f64928-2dde-4002-ba54-81b220f041ae"},"vehicle_type_id":"4","last_reported":1745399507,"current_range_meters":20400,"station_id":"ce4bhbh2rcd13ifvqepg","pricing_plan_id":"cebpf4jnsgd1na2vs0mg"},{"bike_id":"b80022cb-a29e-4744-b1c0-16d659917ee2","system_id":"levelo_inurba_marseille","lat":43.29849,"lon":5.36271,"is_reserved":false,"is_disabled":false,"rental_uris":{"android":"levelo://app?vid=b80022cb-a29e-4744-b1c0-16d659917ee2","ios":"levelo://app?vid=b80022cb-a29e-4744-b1c0-16d659917ee2"},"vehicle_type_id":"4","last_reported":1745399507,"current_range_meters":20400,"station_id":"ce4bgpp2rcd13ifvqc3g","pricing_plan_id":"cebpf4jnsgd1na2vs0mg"},{"bike_id":"1d2222fc-b545-4f16-b71c-bc76dcbcbaa9","system_id":"levelo_inurba_marseille","lat":43.24175,"lon":5.39734,"is_reserved":false,"is_disabled":false,"rental_uris":{"android":"levelo://app?vid=1d2222fc-b545-4f16-b71c-bc76dcbcbaa9","ios":"levelo://app?vid=1d2222fc-b545-4f16-b71c-bc76dcbcbaa9"},"vehicle_type_id":"4","last_reported":1745399507,"current_range_meters":20400,"station_id":"ce4bhn12rcd13ifvqgpg","pricing_plan_id":"cebpf4jnsgd1na2vs0mg"},{"bike_id":"72fb5944-f486-4626-b3da-a2ca4b7af937","system_id":"levelo_inurba_marseille","lat":43.32656,"lon":5.36711,"is_reserved":false,"is_disabled":false,"rental_uris":{"android":"levelo://app?vid=72fb5944-f486-4626-b3da-a2ca4b7af937","ios":"levelo://app?vid=72fb5944-f486-4626-b3da-a2ca4b7af937"},"vehicle_type_id":"4","last_reported":1745399507,"current_range_meters":20400,"station_id":"","pricing_plan_id":"cebpf4jnsgd1na2vs0mg"},{"bike_id":"7049f559-46ea-469f-b042-655207f67349","system_id":"levelo_inurba_marseille","lat":43.23143,"lon":5.43722,"is_reserved":false,"is_disabled":false,"rental_uris":{"android":"levelo://app?vid=7049f559-46ea-469f-b042-655207f67349","ios":"levelo://app?vid=7049f559-46ea-469f-b042-655207f67349"},"vehicle_type_id":"4","last_reported":1745399507,"current_range_meters":20400,"station_id":"ce4bhmp2rcd13ifvqgog","pricing_plan_id":"cebpf4jnsgd1na2vs0mg"},{"bike_id":"f9e03743-d133-4ab7-a384-4df5473e2e58","system_id":"levelo_inurba_marseille","lat":43.29579,"lon":5.36753,"is_reserved":false,"is_disabled":false,"rental_uris":{"android":"levelo://app?vid=f9e03743-d133-4ab7-a384-4df5473e2e58","ios":"levelo://app?vid=f9e03743-d133-4ab7-a384-4df5473e2e58"},"vehicle_type_id":"4","last_reported":1745399507,"current_range_meters":20800,"station_id":"ce4bgph2rcd13ifvqc2g","pricing_plan_id":"cebpf4jnsgd1na2vs0mg"},{"bike_id":"0df880a8-465e-4ea8-8fa3-2ec62dc6eba8","system_id":"levelo_inurba_marseille","lat":43.23151,"lon":5.43709,"is_reserved":false,"is_disabled":false,"rental_uris":{"android":"levelo://app?vid=0df880a8-465e-4ea8-8fa3-2ec62dc6eba8","ios":"levelo://app?vid=0df880a8-465e-4ea8-8fa3-2ec62dc6eba8"},"vehicle_type_id":"4","last_reported":1745399507,"current_range_meters":20800,"station_id":"ce4bhmp2rcd13ifvqgog","pricing_plan_id":"cebpf4jnsgd1na2vs0mg"},{"bike_id":"70946ed7-4927-4bf5-865f-45243b2b71e5","system_id":"levelo_inurba_marseille","lat":43.30467,"lon":5.37887,"is_reserved":false,"is_disabled":false,"rental_uris":{"android":"levelo://app?vid=70946ed7-4927-4bf5-865f-45243b2b71e5","ios":"levelo://app?vid=70946ed7-4927-4bf5-865f-45243b2b71e5"},"vehicle_type_id":"4","last_reported":1745399507,"current_range_meters":20800,"station_id":"ce4bgup2rcd13ifvqcn0","pricing_plan_id":"cebpf4jnsgd1na2vs0mg"},{"bike_id":"f797ecb0-8a34-414b-a9ce-bcf202061427","system_id":"levelo_inurba_marseille","lat":43.29296,"lon":5.37461,"is_reserved":false,"is_disabled":false,"rental_uris":{"android":"levelo://app?vid=f797ecb0-8a34-414b-a9ce-bcf202061427","ios":"levelo://app?vid=f797ecb0-8a34-414b-a9ce-bcf202061427"},"vehicle_type_id":"4","last_reported":1745399507,"current_range_meters":20800,"station_id":"ce4bgi12rcd13ifvqb70","pricing_plan_id":"cebpf4jnsgd1na2vs0mg"},{"bike_id":"58739a59-40a4-4b4c-8074-3b3b445971ef","system_id":"levelo_inurba_marseille","lat":43.23148,"lon":5.43722,"is_reserved":false,"is_disabled":false,"rental_uris":{"android":"levelo://app?vid=58739a59-40a4-4b4c-8074-3b3b445971ef","ios":"levelo://app?vid=58739a59-40a4-4b4c-8074-3b3b445971ef"},"vehicle_type_id":"4","last_reported":1745399507,"current_range_meters":20800,"station_id":"ce4bhmp2rcd13ifvqgog","pricing_plan_id":"cebpf4jnsgd1na2vs0mg"},{"bike_id":"8f83e5e0-2ab2-4d00-be36-004e3cf89343","system_id":"levelo_inurba_marseille","lat":43.30953,"lon":5.39042,"is_reserved":false,"is_disabled":false,"rental_uris":{"android":"levelo://app?vid=8f83e5e0-2ab2-4d00-be36-004e3cf89343","ios":"levelo://app?vid=8f83e5e0-2ab2-4d00-be36-004e3cf89343"},"vehicle_type_id":"4","last_reported":1745399507,"current_range_meters":21600,"station_id":"ce4bgup2rcd13ifvqco0","pricing_plan_id":"cebpf4jnsgd1na2vs0mg"},{"bike_id":"f833d503-12b8-4936-91fd-3d6ad89b5d4a","system_id":"levelo_inurba_marseille","lat":43.26671,"lon":5.38258,"is_reserved":false,"is_disabled":false,"rental_uris":{"android":"levelo://app?vid=f833d503-12b8-4936-91fd-3d6ad89b5d4a","ios":"levelo://app?vid=f833d503-12b8-4936-91fd-3d6ad89b5d4a"},"vehicle_type_id":"4","last_reported":1745399507,"current_range_meters":21600,"station_id":"ce4bhg92rcd13ifvqf90","pricing_plan_id":"cebpf4jnsgd1na2vs0mg"},{"bike_id":"15b1e3a6-3edd-43e1-81af-a0c269fd4aad","system_id":"levelo_inurba_marseille","lat":43.25817,"lon":5.39437,"is_reserved":false,"is_disabled":false,"rental_uris":{"android":"levelo://app?vid=15b1e3a6-3edd-43e1-81af-a0c269fd4aad","ios":"levelo://app?vid=15b1e3a6-3edd-43e1-81af-a0c269fd4aad"},"vehicle_type_id":"4","last_reported":1745399507,"current_range_meters":20800,"station_id":"ce4bhip2rcd13ifvqft0","pricing_plan_id":"cebpf4jnsgd1na2vs0mg"},{"bike_id":"d5fa6a7e-ae6f-48cd-8dc8-6ec1473fc099","system_id":"levelo_inurba_marseille","lat":43.31344,"lon":5.36712,"is_reserved":false,"is_disabled":false,"rental_uris":{"android":"levelo://app?vid=d5fa6a7e-ae6f-48cd-8dc8-6ec1473fc099","ios":"levelo://app?vid=d5fa6a7e-ae6f-48cd-8dc8-6ec1473fc099"},"vehicle_type_id":"4","last_reported":1745399507,"current_range_meters":21600,"station_id":"ce4bgr92rcd13ifvqc6g","pricing_plan_id":"cebpf4jnsgd1na2vs0mg"},{"bike_id":"262a976b-72e6-4c5f-94df-55d494e7a1e6","system_id":"levelo_inurba_marseille","lat":43.26193,"lon":5.3745,"is_reserved":false,"is_disabled":false,"rental_uris":{"android":"levelo://app?vid=262a976b-72e6-4c5f-94df-55d494e7a1e6","ios":"levelo://app?vid=262a976b-72e6-4c5f-94df-55d494e7a1e6"},"vehicle_type_id":"4","last_reported":1745399507,"current_range_meters":21600,"station_id":"ce4bhgp2rcd13ifvqfc0","pricing_plan_id":"cebpf4jnsgd1na2vs0mg"},{"bike_id":"11f4ee4a-7fa1-4c62-b378-a96e1722a902","system_id":"levelo_inurba_marseille","lat":43.305539,"lon":5.367124,"is_reserved":false,"is_disabled":true,"rental_uris":{"android":"levelo://app?vid=11f4ee4a-7fa1-4c62-b378-a96e1722a902","ios":"levelo://app?vid=11f4ee4a-7fa1-4c62-b378-a96e1722a902"},"vehicle_type_id":"4","last_reported":1745399507,"current_range_meters":22000,"station_id":"ce4bgrp2rcd13ifvqc9g","pricing_plan_id":"cebpf4jnsgd1na2vs0mg"},{"bike_id":"996046b0-ff39-4ce4-8979-a60dca7b9bfc","system_id":"levelo_inurba_marseille","lat":43.31222,"lon":5.36891,"is_reserved":false,"is_disabled":false,"rental_uris":{"android":"levelo://app?vid=996046b0-ff39-4ce4-8979-a60dca7b9bfc","ios":"levelo://app?vid=996046b0-ff39-4ce4-8979-a60dca7b9bfc"},"vehicle_type_id":"4","last_reported":1745399507,"current_range_meters":22000,"station_id":"ce4bgl92rcd13ifvqbq0","pricing_plan_id":"cebpf4jnsgd1na2vs0mg"},{"bike_id":"8b43b1fb-5cab-4db8-ae05-f66514d8855e","system_id":"levelo_inurba_marseille","lat":43.31283,"lon":5.37307,"is_reserved":false,"is_disabled":false,"rental_uris":{"android":"levelo://app?vid=8b43b1fb-5cab-4db8-ae05-f66514d8855e","ios":"levelo://app?vid=8b43b1fb-5cab-4db8-ae05-f66514d8855e"},"vehicle_type_id":"4","last_reported":1745399507,"current_range_meters":22000,"station_id":"","pricing_plan_id":"cebpf4jnsgd1na2vs0mg"},{"bike_id":"ab8406b2-4f8d-4381-8821-3db52b0a4d4d","system_id":"levelo_inurba_marseille","lat":43.2735,"lon":5.37835,"is_reserved":false,"is_disabled":false,"rental_uris":{"android":"levelo://app?vid=ab8406b2-4f8d-4381-8821-3db52b0a4d4d","ios":"levelo://app?vid=ab8406b2-4f8d-4381-8821-3db52b0a4d4d"},"vehicle_type_id":"4","last_reported":1745399507,"current_range_meters":22000,"station_id":"","pricing_plan_id":"cebpf4jnsgd1na2vs0mg"},{"bike_id":"56586c01-cf36-412a-9be7-3863c7c9cb16","system_id":"levelo_inurba_marseille","lat":43.302917,"lon":5.36975,"is_reserved":false,"is_disabled":false,"rental_uris":{"android":"levelo://app?vid=56586c01-cf36-412a-9be7-3863c7c9cb16","ios":"levelo://app?vid=56586c01-cf36-412a-9be7-3863c7c9cb16"},"vehicle_type_id":"4","last_reported":1745399507,"current_range_meters":22000,"station_id":"ce4bgqh2rcd13ifvqc5g","pricing_plan_id":"cebpf4jnsgd1na2vs0mg"},{"bike_id":"230eae56-6890-4c96-b49e-c6cd4245a0cb","system_id":"levelo_inurba_marseille","lat":43.30523,"lon":5.36687,"is_reserved":false,"is_disabled":true,"rental_uris":{"android":"levelo://app?vid=230eae56-6890-4c96-b49e-c6cd4245a0cb","ios":"levelo://app?vid=230eae56-6890-4c96-b49e-c6cd4245a0cb"},"vehicle_type_id":"4","last_reported":1745399507,"current_range_meters":22000,"station_id":"ce4bgrp2rcd13ifvqc9g","pricing_plan_id":"cebpf4jnsgd1na2vs0mg"},{"bike_id":"d094f750-52b0-465a-86d2-2596eef1132c","system_id":"levelo_inurba_marseille","lat":43.23062,"lon":5.35496,"is_reserved":false,"is_disabled":false,"rental_uris":{"android":"levelo://app?vid=d094f750-52b0-465a-86d2-2596eef1132c","ios":"levelo://app?vid=d094f750-52b0-465a-86d2-2596eef1132c"},"vehicle_type_id":"4","last_reported":1745399507,"current_range_meters":22000,"station_id":"cpo3342slgdg3j2ifvpg","pricing_plan_id":"cebpf4jnsgd1na2vs0mg"},{"bike_id":"1b5663e5-fa1e-4630-8f65-b3909e0dcf1e","system_id":"levelo_inurba_marseille","lat":43.30542,"lon":5.36702,"is_reserved":false,"is_disabled":false,"rental_uris":{"android":"levelo://app?vid=1b5663e5-fa1e-4630-8f65-b3909e0dcf1e","ios":"levelo://app?vid=1b5663e5-fa1e-4630-8f65-b3909e0dcf1e"},"vehicle_type_id":"4","last_reported":1745399507,"current_range_meters":22000,"station_id":"ce4bgrp2rcd13ifvqc9g","pricing_plan_id":"cebpf4jnsgd1na2vs0mg"},{"bike_id":"88f6c99a-43ba-416e-ba6a-2f58169b8954","system_id":"levelo_inurba_marseille","lat":43.29579,"lon":5.36739,"is_reserved":false,"is_disabled":false,"rental_uris":{"android":"levelo://app?vid=88f6c99a-43ba-416e-ba6a-2f58169b8954","ios":"levelo://app?vid=88f6c99a-43ba-416e-ba6a-2f58169b8954"},"vehicle_type_id":"4","last_reported":1745399507,"current_range_meters":22400,"station_id":"ce4bgph2rcd13ifvqc2g","pricing_plan_id":"cebpf4jnsgd1na2vs0mg"},{"bike_id":"abcdb708-5905-4153-aed5-c8e9944ecc13","system_id":"levelo_inurba_marseille","lat":43.31495,"lon":5.3731,"is_reserved":false,"is_disabled":false,"rental_uris":{"android":"levelo://app?vid=abcdb708-5905-4153-aed5-c8e9944ecc13","ios":"levelo://app?vid=abcdb708-5905-4153-aed5-c8e9944ecc13"},"vehicle_type_id":"4","last_reported":1745399507,"current_range_meters":22400,"station_id":"ce4bgt12rcd13ifvqcd0","pricing_plan_id":"cebpf4jnsgd1na2vs0mg"},{"bike_id":"214bbde7-aa65-480a-8046-2c18c1efb04d","system_id":"levelo_inurba_marseille","lat":43.29815,"lon":5.38085,"is_reserved":false,"is_disabled":true,"rental_uris":{"android":"levelo://app?vid=214bbde7-aa65-480a-8046-2c18c1efb04d","ios":"levelo://app?vid=214bbde7-aa65-480a-8046-2c18c1efb04d"},"vehicle_type_id":"4","last_reported":1745399507,"current_range_meters":22400,"station_id":"ce4bgip2rcd13ifvqbb0","pricing_plan_id":"cebpf4jnsgd1na2vs0mg"},{"bike_id":"8a716f10-6abe-4f80-94ce-4c02fac0f570","system_id":"levelo_inurba_marseille","lat":43.25009,"lon":5.3893,"is_reserved":false,"is_disabled":false,"rental_uris":{"android":"levelo://app?vid=8a716f10-6abe-4f80-94ce-4c02fac0f570","ios":"levelo://app?vid=8a716f10-6abe-4f80-94ce-4c02fac0f570"},"vehicle_type_id":"4","last_reported":1745399507,"current_range_meters":22400,"station_id":"ce4bhgp2rcd13ifvqfd0","pricing_plan_id":"cebpf4jnsgd1na2vs0mg"},{"bike_id":"a5856b95-9e19-4436-b973-344e5d5dcbd8","system_id":"levelo_inurba_marseille","lat":43.24168,"lon":5.36405,"is_reserved":false,"is_disabled":false,"rental_uris":{"android":"levelo://app?vid=a5856b95-9e19-4436-b973-344e5d5dcbd8","ios":"levelo://app?vid=a5856b95-9e19-4436-b973-344e5d5dcbd8"},"vehicle_type_id":"4","last_reported":1745399507,"current_range_meters":22400,"station_id":"cpo36qri1sfpv3e86is0","pricing_plan_id":"cebpf4jnsgd1na2vs0mg"},{"bike_id":"dfc424fb-3a80-47f5-acb6-71c55bf4dcf6","system_id":"levelo_inurba_marseille","lat":43.314882,"lon":5.37302,"is_reserved":false,"is_disabled":false,"rental_uris":{"android":"levelo://app?vid=dfc424fb-3a80-47f5-acb6-71c55bf4dcf6","ios":"levelo://app?vid=dfc424fb-3a80-47f5-acb6-71c55bf4dcf6"},"vehicle_type_id":"4","last_reported":1745399507,"current_range_meters":22400,"station_id":"ce4bgt12rcd13ifvqcd0","pricing_plan_id":"cebpf4jnsgd1na2vs0mg"},{"bike_id":"b9611d6f-f645-4ade-a236-c3249b854dba","system_id":"levelo_inurba_marseille","lat":43.29919,"lon":5.37491,"is_reserved":false,"is_disabled":false,"rental_uris":{"android":"levelo://app?vid=b9611d6f-f645-4ade-a236-c3249b854dba","ios":"levelo://app?vid=b9611d6f-f645-4ade-a236-c3249b854dba"},"vehicle_type_id":"4","last_reported":1745399507,"current_range_meters":22400,"station_id":"ce4bgjh2rcd13ifvqbg0","pricing_plan_id":"cebpf4jnsgd1na2vs0mg"},{"bike_id":"49bd2d45-19f5-42e9-822b-a732c75fa933","system_id":"levelo_inurba_marseille","lat":43.28972,"lon":5.37839,"is_reserved":false,"is_disabled":false,"rental_uris":{"android":"levelo://app?vid=49bd2d45-19f5-42e9-822b-a732c75fa933","ios":"levelo://app?vid=49bd2d45-19f5-42e9-822b-a732c75fa933"},"vehicle_type_id":"4","last_reported":1745399507,"current_range_meters":22400,"station_id":"ce4bh9p2rcd13ifvqed0","pricing_plan_id":"cebpf4jnsgd1na2vs0mg"},{"bike_id":"f22eda7d-3646-407f-9b9a-5d016360cf86","system_id":"levelo_inurba_marseille","lat":43.24078,"lon":5.37759,"is_reserved":false,"is_disabled":false,"rental_uris":{"android":"levelo://app?vid=f22eda7d-3646-407f-9b9a-5d016360cf86","ios":"levelo://app?vid=f22eda7d-3646-407f-9b9a-5d016360cf86"},"vehicle_type_id":"4","last_reported":1745399507,"current_range_meters":22400,"station_id":"ce4bhnp2rcd13ifvqgvg","pricing_plan_id":"cebpf4jnsgd1na2vs0mg"},{"bike_id":"b872debc-f981-4b3b-88d7-7f829e75a9cc","system_id":"levelo_inurba_marseille","lat":43.32068,"lon":5.37482,"is_reserved":false,"is_disabled":false,"rental_uris":{"android":"levelo://app?vid=b872debc-f981-4b3b-88d7-7f829e75a9cc","ios":"levelo://app?vid=b872debc-f981-4b3b-88d7-7f829e75a9cc"},"vehicle_type_id":"4","last_reported":1745399507,"current_range_meters":22400,"station_id":"","pricing_plan_id":"cebpf4jnsgd1na2vs0mg"},{"bike_id":"e3d519ce-0d17-4030-ac2e-cfcc981d8dde","system_id":"levelo_inurba_marseille","lat":43.268915,"lon":5.385869,"is_reserved":false,"is_disabled":false,"rental_uris":{"android":"levelo://app?vid=e3d519ce-0d17-4030-ac2e-cfcc981d8dde","ios":"levelo://app?vid=e3d519ce-0d17-4030-ac2e-cfcc981d8dde"},"vehicle_type_id":"4","last_reported":1745399507,"current_range_meters":22800,"station_id":"ce4bhh12rcd13ifvqff0","pricing_plan_id":"cebpf4jnsgd1na2vs0mg"},{"bike_id":"1268eca7-5306-402c-838e-17a0fe43d9f0","system_id":"levelo_inurba_marseille","lat":43.23146,"lon":5.43715,"is_reserved":false,"is_disabled":false,"rental_uris":{"android":"levelo://app?vid=1268eca7-5306-402c-838e-17a0fe43d9f0","ios":"levelo://app?vid=1268eca7-5306-402c-838e-17a0fe43d9f0"},"vehicle_type_id":"4","last_reported":1745399507,"current_range_meters":22800,"station_id":"ce4bhmp2rcd13ifvqgog","pricing_plan_id":"cebpf4jnsgd1na2vs0mg"},{"bike_id":"2f59be3e-9234-4f82-9cf4-b2ffa9e9f3bd","system_id":"levelo_inurba_marseille","lat":43.23162,"lon":5.43702,"is_reserved":false,"is_disabled":false,"rental_uris":{"android":"levelo://app?vid=2f59be3e-9234-4f82-9cf4-b2ffa9e9f3bd","ios":"levelo://app?vid=2f59be3e-9234-4f82-9cf4-b2ffa9e9f3bd"},"vehicle_type_id":"4","last_reported":1745399507,"current_range_meters":22800,"station_id":"ce4bhmp2rcd13ifvqgog","pricing_plan_id":"cebpf4jnsgd1na2vs0mg"},{"bike_id":"ec5df1ef-c4a2-40d6-947e-08f83bb0f0bd","system_id":"levelo_inurba_marseille","lat":43.24182,"lon":5.39724,"is_reserved":false,"is_disabled":false,"rental_uris":{"android":"levelo://app?vid=ec5df1ef-c4a2-40d6-947e-08f83bb0f0bd","ios":"levelo://app?vid=ec5df1ef-c4a2-40d6-947e-08f83bb0f0bd"},"vehicle_type_id":"4","last_reported":1745399507,"current_range_meters":23200,"station_id":"ce4bhn12rcd13ifvqgpg","pricing_plan_id":"cebpf4jnsgd1na2vs0mg"},{"bike_id":"551d446e-37b3-496f-910e-9612f4dd6882","system_id":"levelo_inurba_marseille","lat":43.27424,"lon":5.39412,"is_reserved":false,"is_disabled":true,"rental_uris":{"android":"levelo://app?vid=551d446e-37b3-496f-910e-9612f4dd6882","ios":"levelo://app?vid=551d446e-37b3-496f-910e-9612f4dd6882"},"vehicle_type_id":"4","last_reported":1745399507,"current_range_meters":23200,"station_id":"ce4bhdp2rcd13ifvqf20","pricing_plan_id":"cebpf4jnsgd1na2vs0mg"},{"bike_id":"73f40cff-bb71-4b7a-8ad7-f06c69fb0596","system_id":"levelo_inurba_marseille","lat":43.21191,"lon":5.35084,"is_reserved":false,"is_disabled":false,"rental_uris":{"android":"levelo://app?vid=73f40cff-bb71-4b7a-8ad7-f06c69fb0596","ios":"levelo://app?vid=73f40cff-bb71-4b7a-8ad7-f06c69fb0596"},"vehicle_type_id":"4","last_reported":1745399507,"current_range_meters":23200,"station_id":"st_cvj6sg6p6f1abm77japg","pricing_plan_id":"cebpf4jnsgd1na2vs0mg"},{"bike_id":"a09d1f25-50a0-4a39-938f-8708b336d9f8","system_id":"levelo_inurba_marseille","lat":43.33723,"lon":5.39176,"is_reserved":false,"is_disabled":false,"rental_uris":{"android":"levelo://app?vid=a09d1f25-50a0-4a39-938f-8708b336d9f8","ios":"levelo://app?vid=a09d1f25-50a0-4a39-938f-8708b336d9f8"},"vehicle_type_id":"4","last_reported":1745399507,"current_range_meters":23200,"station_id":"ce4bhr92rcd13ifvqhsg","pricing_plan_id":"cebpf4jnsgd1na2vs0mg"},{"bike_id":"7a38cd50-7a93-4627-806c-1a69d66aceb3","system_id":"levelo_inurba_marseille","lat":43.307946,"lon":5.435271,"is_reserved":false,"is_disabled":false,"rental_uris":{"android":"levelo://app?vid=7a38cd50-7a93-4627-806c-1a69d66aceb3","ios":"levelo://app?vid=7a38cd50-7a93-4627-806c-1a69d66aceb3"},"vehicle_type_id":"4","last_reported":1745399507,"current_range_meters":23200,"station_id":"ce4bhph2rcd13ifvqheg","pricing_plan_id":"cebpf4jnsgd1na2vs0mg"},{"bike_id":"a3b1a9d2-0170-4398-995b-a8853572e80e","system_id":"levelo_inurba_marseille","lat":43.26558,"lon":5.37279,"is_reserved":false,"is_disabled":false,"rental_uris":{"android":"levelo://app?vid=a3b1a9d2-0170-4398-995b-a8853572e80e","ios":"levelo://app?vid=a3b1a9d2-0170-4398-995b-a8853572e80e"},"vehicle_type_id":"4","last_reported":1745399507,"current_range_meters":23200,"station_id":"ce4bhg12rcd13ifvqf70","pricing_plan_id":"cebpf4jnsgd1na2vs0mg"},{"bike_id":"f74241a5-6e21-410e-8d71-963df1180ed2","system_id":"levelo_inurba_marseille","lat":43.282616,"lon":5.350568,"is_reserved":false,"is_disabled":false,"rental_uris":{"android":"levelo://app?vid=f74241a5-6e21-410e-8d71-963df1180ed2","ios":"levelo://app?vid=f74241a5-6e21-410e-8d71-963df1180ed2"},"vehicle_type_id":"4","last_reported":1745399507,"current_range_meters":23200,"station_id":"ce4bhbp2rcd13ifvqerg","pricing_plan_id":"cebpf4jnsgd1na2vs0mg"},{"bike_id":"67d250d8-05ec-459c-a12c-6f6771c8dbe1","system_id":"levelo_inurba_marseille","lat":43.32102,"lon":5.36777,"is_reserved":false,"is_disabled":false,"rental_uris":{"android":"levelo://app?vid=67d250d8-05ec-459c-a12c-6f6771c8dbe1","ios":"levelo://app?vid=67d250d8-05ec-459c-a12c-6f6771c8dbe1"},"vehicle_type_id":"4","last_reported":1745399507,"current_range_meters":24000,"station_id":"ce4bhrh2rcd13ifvqhug","pricing_plan_id":"cebpf4jnsgd1na2vs0mg"},{"bike_id":"73b54c58-6236-44f3-8812-61e251b3b227","system_id":"levelo_inurba_marseille","lat":43.28416,"lon":5.34986,"is_reserved":false,"is_disabled":false,"rental_uris":{"android":"levelo://app?vid=73b54c58-6236-44f3-8812-61e251b3b227","ios":"levelo://app?vid=73b54c58-6236-44f3-8812-61e251b3b227"},"vehicle_type_id":"4","last_reported":1745399507,"current_range_meters":24000,"station_id":"ce4bhbh2rcd13ifvqepg","pricing_plan_id":"cebpf4jnsgd1na2vs0mg"},