{"last_updated":1732356602,"ttl":60,"version":"2.2","data":{"bikes":[{"bike_id":"0ba0f55e-a8ae-49b7-a185-88fc1db665fe","system_id":"levelo_inurba_marseille","lat":43.28671,"lon":5.36353,"is_reserved":false,"is_disabled":false,"rental_uris":{"android":"levelo://app?vid=0ba0f55e-a8ae-49b7-a185-88fc1db665fe","ios":"levelo://app?vid=0ba0f55e-a8ae-49b7-a185-88fc1db665fe"},"vehicle_type_id":"4","last_reported":1732356602,"current_range_meters":14000,"station_id":"ce4bhah2rcd13ifvqej0","pricing_plan_id":"cebpf4jnsgd1na2vs0mg"},{"bike_id":"1ac50ca9-5dc0-4399-ab45-e7d2260cba9c","system_id":"levelo_inurba_marseille","lat":43.297866,"lon":5.38088,"is_reserved":false,"is_disabled":false,"rental_uris":{"android":"levelo://app?vid=1ac50ca9-5dc0-4399-ab45-e7d2260cba9c","ios":"levelo://app?vid=1ac50ca9-5dc0-4399-ab45-e7d2260cba9c"},"vehicle_type_id":"4","last_reported":1732356602,"current_range_meters":38000,"station_id":"ce4bgip2rcd13ifvqbb0","pricing_plan_id":"cebpf4jnsgd1na2vs0mg"},{"bike_id":"7149e19c-0e51-4fb3-be72-219430288b9a","system_id":"levelo_inurba_marseille","lat":43.24385,"lon":5.37055,"is_reserved":false,"is_disabled":false,"rental_uris":{"android":"levelo://app?vid=7149e19c-0e51-4fb3-be72-219430288b9a","ios":"levelo://app?vid=7149e19c-0e51-4fb3-be72-219430288b9a"},"vehicle_type_id":"4","last_reported":1732356602,"current_range_meters":14400,"station_id":"ce4bhhh2rcd13ifvqfk0","pricing_plan_id":"cebpf4jnsgd1na2vs0mg"},{"bike_id":"ac10654d-2ec7-40fe-ab44-0840abdc5133","system_id":"levelo_inurba_marseille","lat":43.29579,"lon":5.36735,"is_reserved":false,"is_disabled":false,"rental_uris":{"android":"levelo://app?vid=ac10654d-2ec7-40fe-ab44-0840abdc5133","ios":"levelo://app?vid=ac10654d-2ec7-40fe-ab44-0840abdc5133"},"vehicle_type_id":"4","last_reported":1732356602,"current_range_meters":13600,"station_id":"ce4bgph2rcd13ifvqc2g","pricing_plan_id":"cebpf4jnsgd1na2vs0mg"},{"bike_id":"5fd683e1-4200-427d-b022-85d61b63da51","system_id":"levelo_inurba_marseille","lat":43.29572,"lon":5.3752,"is_reserved":false,"is_disabled":false,"rental_uris":{"android":"levelo://app?vid=5fd683e1-4200-427d-b022-85d61b63da51","ios":"levelo://app?vid=5fd683e1-4200-427d-b022-85d61b63da51"},"vehicle_type_id":"4","last_reported":1732356602,"current_range_meters":36400,"station_id":"ce4bgh92rcd13ifvqb50","pricing_plan_id":"cebpf4jnsgd1na2vs0mg"},{"bike_id":"08f392b7-fb0b-40fb-b32a-822f164ec237","system_id":"levelo_inurba_marseille","lat":43.26937,"lon":5.40243,"is_reserved":false,"is_disabled":false,"rental_uris":{"android":"levelo://app?vid=08f392b7-fb0b-40fb-b32a-822f164ec237","ios":"levelo://app?vid=08f392b7-fb0b-40fb-b32a-822f164ec237"},"vehicle_type_id":"4","last_reported":1732356602,"current_range_meters":8000,"station_id":"cjm6bp8fraef2m0cb0m0","pricing_plan_id":"cebpf4jnsgd1na2vs0mg"},{"bike_id":"b053f4c7-0b17-4107-9a52-88b2e3f2b21f","system_id":"levelo_inurba_marseille","lat":43.3042,"lon":5.41306,"is_reserved":false,"is_disabled":false,"rental_uris":{"android":"levelo://app?vid=b053f4c7-0b17-4107-9a52-88b2e3f2b21f","ios":"levelo://app?vid=b053f4c7-0b17-4107-9a52-88b2e3f2b21f"},"vehicle_type_id":"4","last_reported":1732356602,"current_range_meters":11200,"station_id":"ce4bhop2rcd13ifvqh8g","pricing_plan_id":"cebpf4jnsgd1na2vs0mg"},{"bike_id":"74b01ad4-f80b-4b68-939b-1ee3a94b8ed3","system_id":"levelo_inurba_marseille","lat":43.29032,"lon":5.38651,"is_reserved":false,"is_disabled":false,"rental_uris":{"android":"levelo://app?vid=74b01ad4-f80b-4b68-939b-1ee3a94b8ed3","ios":"levelo://app?vid=74b01ad4-f80b-4b68-939b-1ee3a94b8ed3"},"vehicle_type_id":"4","last_reported":1732356602,"current_range_meters":36800,"station_id":"ce4bh4p2rcd13ifvqe0g","pricing_plan_id":"cebpf4jnsgd1na2vs0mg"},{"bike_id":"8a121b48-1f5b-4c33-b9ca-47a97d05b778","system_id":"levelo_inurba_marseille","lat":43.3248,"lon":5.36555,"is_reserved":false,"is_disabled":false,"rental_uris":{"android":"levelo://app?vid=8a121b48-1f5b-4c33-b9ca-47a97d05b778","ios":"levelo://app?vid=8a121b48-1f5b-4c33-b9ca-47a97d05b778"},"vehicle_type_id":"4","last_reported":1732356602,"current_range_meters":10000,"station_id":"ce4bhs12rcd13ifvqhvg","pricing_plan_id":"cebpf4jnsgd1na2vs0mg"},{"bike_id":"4441f99d-07ad-49b5-a5b6-5cb62c19fe38","system_id":"levelo_inurba_marseille","lat":43.29574,"lon":5.37507,"is_reserved":false,"is_disabled":false,"rental_uris":{"android":"levelo://app?vid=4441f99d-07ad-49b5-a5b6-5cb62c19fe38","ios":"levelo://app?vid=4441f99d-07ad-49b5-a5b6-5cb62c19fe38"},"vehicle_type_id":"4","last_reported":1732356602,"current_range_meters":39200,"station_id":"ce4bgh92rcd13ifvqb50","pricing_plan_id":"cebpf4jnsgd1na2vs0mg"},{"bike_id":"11114092-3108-4d5a-be35-06e9090d2527","system_id":"levelo_inurba_marseille","lat":43.27055,"lon":5.40261,"is_reserved":false,"is_disabled":false,"rental_uris":{"android":"levelo://app?vid=11114092-3108-4d5a-be35-06e9090d2527","ios":"levelo://app?vid=11114092-3108-4d5a-be35-06e9090d2527"},"vehicle_type_id":"4","last_reported":1732356602,"current_range_meters":24000,"station_id":"ce4bhk92rcd13ifvqgc0","pricing_plan_id":"cebpf4jnsgd1na2vs0mg"},{"bike_id":"250b57d6-656b-430a-9248-9bf10be7fde1","system_id":"levelo_inurba_marseille","lat":43.30597,"lon":5.3935,"is_reserved":false,"is_disabled":true,"rental_uris":{"android":"levelo://app?vid=250b57d6-656b-430a-9248-9bf10be7fde1","ios":"levelo://app?vid=250b57d6-656b-430a-9248-9bf10be7fde1"},"vehicle_type_id":"4","last_reported":1732356602,"current_range_meters":36800,"station_id":"ce4bh0p2rcd13ifvqd80","pricing_plan_id":"cebpf4jnsgd1na2vs0mg"},{"bike_id":"cc45001e-86ba-42cc-9993-ed5261abbfe0","system_id":"levelo_inurba_marseille","lat":43.32364,"lon":5.38882,"is_reserved":false,"is_disabled":false,"rental_uris":{"android":"levelo://app?vid=cc45001e-86ba-42cc-9993-ed5261abbfe0","ios":"levelo://app?vid=cc45001e-86ba-42cc-9993-ed5261abbfe0"},"vehicle_type_id":"4","last_reported":1732356602,"current_range_meters":9200,"station_id":"ce4bhqp2rcd13ifvqhog","pricing_plan_id":"cebpf4jnsgd1na2vs0mg"},{"bike_id":"c7e0bd32-9b36-4a54-9f26-7366a978efde","system_id":"levelo_inurba_marseille","lat":43.26199,"lon":5.37933,"is_reserved":false,"is_disabled":false,"rental_uris":{"android":"levelo://app?vid=c7e0bd32-9b36-4a54-9f26-7366a978efde","ios":"levelo://app?vid=c7e0bd32-9b36-4a54-9f26-7366a978efde"},"vehicle_type_id":"4","last_reported":1732356602,"current_range_meters":23200,"station_id":"ce4bhjp2rcd13ifvqg90","pricing_plan_id":"cebpf4jnsgd1na2vs0mg"},{"bike_id":"5d39d563-1de5-4b84-8127-7326954dce5a","system_id":"levelo_inurba_marseille","lat":43.27368,"lon":5.36258,"is_reserved":false,"is_disabled":false,"rental_uris":{"android":"levelo://app?vid=5d39d563-1de5-4b84-8127-7326954dce5a","ios":"levelo://app?vid=5d39d563-1de5-4b84-8127-7326954dce5a"},"vehicle_type_id":"4","last_reported":1732356602,"current_range_meters":38800,"station_id":"ce4bhbh2rcd13ifvqeo0","pricing_plan_id":"cebpf4jnsgd1na2vs0mg"},{"bike_id":"c0755ad7-8353-40d1-98a4-bba43ca0e3ab","system_id":"levelo_inurba_marseille","lat":43.3372,"lon":5.39176,"is_reserved":false,"is_disabled":false,"rental_uris":{"android":"levelo://app?vid=c0755ad7-8353-40d1-98a4-bba43ca0e3ab","ios":"levelo://app?vid=c0755ad7-8353-40d1-98a4-bba43ca0e3ab"},"vehicle_type_id":"4","last_reported":1732356602,"current_range_meters":8000,"station_id":"ce4bhr92rcd13ifvqhsg","pricing_plan_id":"cebpf4jnsgd1na2vs0mg"},{"bike_id":"edaabcbb-a319-46a6-b7fa-afd8b9ab0018","system_id":"levelo_inurba_marseille","lat":43.29844,"lon":5.36267,"is_reserved":false,"is_disabled":false,"rental_uris":{"android":"levelo://app?vid=edaabcbb-a319-46a6-b7fa-afd8b9ab0018","ios":"levelo://app?vid=edaabcbb-a319-46a6-b7fa-afd8b9ab0018"},"vehicle_type_id":"4","last_reported":1732356602,"current_range_meters":24000,"station_id":"ce4bgpp2rcd13ifvqc3g","pricing_plan_id":"cebpf4jnsgd1na2vs0mg"},{"bike_id":"d3a939c1-c073-43b5-a24f-f191fd9ab4ab","system_id":"levelo_inurba_marseille","lat":43.26188,"lon":5.37447,"is_reserved":false,"is_disabled":false,"rental_uris":{"android":"levelo://app?vid=d3a939c1-c073-43b5-a24f-f191fd9ab4ab","ios":"levelo://app?vid=d3a939c1-c073-43b5-a24f-f191fd9ab4ab"},"vehicle_type_id":"4","last_reported":1732356602,"current_range_meters":38000,"station_id":"ce4bhgp2rcd13ifvqfc0","pricing_plan_id":"cebpf4jnsgd1na2vs0mg"},{"bike_id":"92aca063-e395-402a-a362-69eb5641c33c","system_id":"levelo_inurba_marseille","lat":43.28555,"lon":5.35197,"is_reserved":false,"is_disabled":false,"rental_uris":{"android":"levelo://app?vid=92aca063-e395-402a-a362-69eb5641c33c","ios":"levelo://app?vid=92aca063-e395-402a-a362-69eb5641c33c"},"vehicle_type_id":"4","last_reported":1732356602,"current_range_meters":6400,"station_id":"","pricing_plan_id":"cebpf4jnsgd1na2vs0mg"},{"bike_id":"9b280c9c-fd49-45c4-951e-8b6e17f414f5","system_id":"levelo_inurba_marseille","lat":43.25867,"lon":5.39898,"is_reserved":false,"is_disabled":false,"rental_uris":{"android":"levelo://app?vid=9b280c9c-fd49-45c4-951e-8b6e17f414f5","ios":"levelo://app?vid=9b280c9c-fd49-45c4-951e-8b6e17f414f5"},"vehicle_type_id":"4","last_reported":1732356602,"current_range_meters":38800,"station_id":"ce4bhl92rcd13ifvqghg","pricing_plan_id":"cebpf4jnsgd1na2vs0mg"},{"bike_id":"0f0930d7-5589-4df9-967e-09a853194fd9","system_id":"levelo_inurba_marseille","lat":43.30199,"lon":5.36609,"is_reserved":false,"is_disabled":false,"rental_uris":{"android":"levelo://app?vid=0f0930d7-5589-4df9-967e-09a853194fd9","ios":"levelo://app?vid=0f0930d7-5589-4df9-967e-09a853194fd9"},"vehicle_type_id":"4","last_reported":1732356602,"current_range_meters":30000,"station_id":"ce4bgrh2rcd13ifvqc8g","pricing_plan_id":"cebpf4jnsgd1na2vs0mg"},{"bike_id":"7ed373fa-e29c-4ceb-b4cf-b4727f191d71","system_id":"levelo_inurba_marseille","lat":43.29851,"lon":5.36286,"is_reserved":false,"is_disabled":false,"rental_uris":{"android":"levelo://app?vid=7ed373fa-e29c-4ceb-b4cf-b4727f191d71","ios":"levelo://app?vid=7ed373fa-e29c-4ceb-b4cf-b4727f191d71"},"vehicle_type_id":"4","last_reported":1732356602,"current_range_meters":16400,"station_id":"ce4bgpp2rcd13ifvqc3g","pricing_plan_id":"cebpf4jnsgd1na2vs0mg"},{"bike_id":"561692a1-369c-4ac8-a04a-5193554f2e90","system_id":"levelo_inurba_marseille","lat":43.32112,"lon":5.36774,"is_reserved":false,"is_disabled":false,"rental_uris":{"android":"levelo://app?vid=561692a1-369c-4ac8-a04a-5193554f2e90","ios":"levelo://app?vid=561692a1-369c-4ac8-a04a-5193554f2e90"},"vehicle_type_id":"4","last_reported":1732356602,"current_range_meters":26800,"station_id":"ce4bhrh2rcd13ifvqhug","pricing_plan_id":"cebpf4jnsgd1na2vs0mg"},{"bike_id":"a3dfa29f-d880-4cbe-b909-b4e217158e03","system_id":"levelo_inurba_marseille","lat":43.27166,"lon":5.40998,"is_reserved":false,"is_disabled":false,"rental_uris":{"android":"levelo://app?vid=a3dfa29f-d880-4cbe-b909-b4e217158e03","ios":"levelo://app?vid=a3dfa29f-d880-4cbe-b909-b4e217158e03"},"vehicle_type_id":"4","last_reported":1732356602,"current_range_meters":35200,"station_id":"ce4bhl12rcd13ifvqgf0","pricing_plan_id":"cebpf4jnsgd1na2vs0mg"},{"bike_id":"27d8d3ee-c64d-40a8-8b39-f1a8f00306c8","system_id":"levelo_inurba_marseille","lat":43.26197,"lon":5.37931,"is_reserved":false,"is_disabled":false,"rental_uris":{"android":"levelo://app?vid=27d8d3ee-c64d-40a8-8b39-f1a8f00306c8","ios":"levelo://app?vid=27d8d3ee-c64d-40a8-8b39-f1a8f00306c8"},"vehicle_type_id":"4","last_reported":1732356602,"current_range_meters":26000,"station_id":"ce4bhjp2rcd13ifvqg90","pricing_plan_id":"cebpf4jnsgd1na2vs0mg"},{"bike_id":"c6c7bbf3-8b84-4684-bfed-6d8fdbcd89dc","system_id":"levelo_inurba_marseille","lat":43.30349,"lon":5.41866,"is_reserved":false,"is_disabled":false,"rental_uris":{"android":"levelo://app?vid=c6c7bbf3-8b84-4684-bfed-6d8fdbcd89dc","ios":"levelo://app?vid=c6c7bbf3-8b84-4684-bfed-6d8fdbcd89dc"},"vehicle_type_id":"4","last_reported":1732356602,"current_range_meters":38800,"station_id":"ce4bhop2rcd13ifvqh7g","pricing_plan_id":"cebpf4jnsgd1na2vs0mg"},{"bike_id":"5c3000a0-a190-4007-a723-aa2707fd1ce3","system_id":"levelo_inurba_marseille","lat":43.22977,"lon":5.35422,"is_reserved":false,"is_disabled":false,"rental_uris":{"android":"levelo://app?vid=5c3000a0-a190-4007-a723-aa2707fd1ce3","ios":"levelo://app?vid=5c3000a0-a190-4007-a723-aa2707fd1ce3"},"vehicle_type_id":"4","last_reported":1732356602,"current_range_meters":38800,"station_id":"cpo3532slgdg3j2ikp40","pricing_plan_id":"cebpf4jnsgd1na2vs0mg"},{"bike_id":"1c5fdcc2-ba84-4c46-bf38-3d224d434b52","system_id":"levelo_inurba_marseille","lat":43.32335,"lon":5.40626,"is_reserved":false,"is_disabled":false,"rental_uris":{"android":"levelo://app?vid=1c5fdcc2-ba84-4c46-bf38-3d224d434b52","ios":"levelo://app?vid=1c5fdcc2-ba84-4c46-bf38-3d224d434b52"},"vehicle_type_id":"4","last_reported":1732356602,"current_range_meters":36800,"station_id":"ce4bhq92rcd13ifvqhjg","pricing_plan_id":"cebpf4jnsgd1na2vs0mg"},{"bike_id":"4b46b4a8-c534-4533-ad03-6863448127e0","system_id":"levelo_inurba_marseille","lat":43.32484,"lon":5.36567,"is_reserved":false,"is_disabled":false,"rental_uris":{"android":"levelo://app?vid=4b46b4a8-c534-4533-ad03-6863448127e0","ios":"levelo://app?vid=4b46b4a8-c534-4533-ad03-6863448127e0"},"vehicle_type_id":"4","last_reported":1732356602,"current_range_meters":14800,"station_id":"ce4bhs12rcd13ifvqhvg","pricing_plan_id":"cebpf4jnsgd1na2vs0mg"},{"bike_id":"37b8e2c5-c010-44cd-b246-aec37cf93c7f","system_id":"levelo_inurba_marseille","lat":43.32471,"lon":5.36547,"is_reserved":false,"is_disabled":false,"rental_uris":{"android":"levelo://app?vid=37b8e2c5-c010-44cd-b246-aec37cf93c7f","ios":"levelo://app?vid=37b8e2c5-c010-44cd-b246-aec37cf93c7f"},"vehicle_type_id":"4","last_reported":1732356602,"current_range_meters":13600,"station_id":"ce4bhs12rcd13ifvqhvg","pricing_plan_id":"cebpf4jnsgd1na2vs0mg"},{"bike_id":"3f4b586a-f19b-437c-a62a-b21b76562db2","system_id":"levelo_inurba_marseille","lat":43.23181,"lon":5.39979,"is_reserved":false,"is_disabled":false,"rental_uris":{"android":"levelo://app?vid=3f4b586a-f19b-437c-a62a-b21b76562db2","ios":"levelo://app?vid=3f4b586a-f19b-437c-a62a-b21b76562db2"},"vehicle_type_id":"4","last_reported":1732356602,"current_range_meters":36800,"station_id":"ce4bhn12rcd13ifvqgqg","pricing_plan_id":"cebpf4jnsgd1na2vs0mg"},{"bike_id":"ceb57955-f95f-4258-94bf-2be7e5c0b433","system_id":"levelo_inurba_marseille","lat":43.27912,"lon":5.37995,"is_reserved":false,"is_disabled":false,"rental_uris":{"android":"levelo://app?vid=ceb57955-f95f-4258-94bf-2be7e5c0b433","ios":"levelo://app?vid=ceb57955-f95f-4258-94bf-2be7e5c0b433"},"vehicle_type_id":"4","last_reported":1732356602,"current_range_meters":38800,"station_id":"ce4bhf92rcd13ifvqf50","pricing_plan_id":"cebpf4jnsgd1na2vs0mg"},{"bike_id":"a70a93ff-1ced-4e9b-963c-8900c1d589f1","system_id":"levelo_inurba_marseille","lat":43.29624,"lon":5.37193,"is_reserved":false,"is_disabled":false,"rental_uris":{"android":"levelo://app?vid=a70a93ff-1ced-4e9b-963c-8900c1d589f1","ios":"levelo://app?vid=a70a93ff-1ced-4e9b-963c-8900c1d589f1"},"vehicle_type_id":"4","last_reported":1732356602,"current_range_meters":38800,"station_id":"","pricing_plan_id":"cebpf4jnsgd1na2vs0mg"},{"bike_id":"ff3594ee-f948-4832-9680-599cfdacc368","system_id":"levelo_inurba_marseille","lat":43.27191,"lon":5.40991,"is_reserved":false,"is_disabled":false,"rental_uris":{"android":"levelo://app?vid=ff3594ee-f948-4832-9680-599cfdacc368","ios":"levelo://app?vid=ff3594ee-f948-4832-9680-599cfdacc368"},"vehicle_type_id":"4","last_reported":1732356602,"current_range_meters":38000,"station_id":"ce4bhl12rcd13ifvqgf0","pricing_plan_id":"cebpf4jnsgd1na2vs0mg"},{"bike_id":"94105770-b94e-4ca6-ac67-172c63c1eeee","system_id":"levelo_inurba_marseille","lat":43.30641,"lon":5.40097,"is_reserved":false,"is_disabled":true,"rental_uris":{"android":"levelo://app?vid=94105770-b94e-4ca6-ac67-172c63c1eeee","ios":"levelo://app?vid=94105770-b94e-4ca6-ac67-172c63c1eeee"},"vehicle_type_id":"4","last_reported":1732356602,"current_range_meters":1200,"station_id":"ce4bh112rcd13ifvqda0","pricing_plan_id":"cebpf4jnsgd1na2vs0mg"},{"bike_id":"b4d16515-3c99-43bc-bea8-ba25a95ad5a3","system_id":"levelo_inurba_marseille","lat":43.29801,"lon":5.38094,"is_reserved":false,"is_disabled":false,"rental_uris":{"android":"levelo://app?vid=b4d16515-3c99-43bc-bea8-ba25a95ad5a3","ios":"levelo://app?vid=b4d16515-3c99-43bc-bea8-ba25a95ad5a3"},"vehicle_type_id":"4","last_reported":1732356602,"current_range_meters":38800,"station_id":"ce4bgip2rcd13ifvqbb0","pricing_plan_id":"cebpf4jnsgd1na2vs0mg"},{"bike_id":"856c5296-7fea-42cc-be09-a6b9a37c0b30","system_id":"levelo_inurba_marseille","lat":43.27373,"lon":5.36254,"is_reserved":false,"is_disabled":true,"rental_uris":{"android":"levelo://app?vid=856c5296-7fea-42cc-be09-a6b9a37c0b30","ios":"levelo://app?vid=856c5296-7fea-42cc-be09-a6b9a37c0b30"},"vehicle_type_id":"4","last_reported":1732356602,"current_range_meters":0,"station_id":"ce4bhbh2rcd13ifvqeo0","pricing_plan_id":"cebpf4jnsgd1na2vs0mg"},{"bike_id":"8323ea15-bdcd-4359-94fe-7faf521b6997","system_id":"levelo_inurba_marseille","lat":43.29377,"lon":5.3783,"is_reserved":false,"is_disabled":false,"rental_uris":{"android":"levelo://app?vid=8323ea15-bdcd-4359-94fe-7faf521b6997","ios":"levelo://app?vid=8323ea15-bdcd-4359-94fe-7faf521b6997"},"vehicle_type_id":"4","last_reported":1732356602,"current_range_meters":22800,"station_id":"ce4bgjh2rcd13ifvqbf0","pricing_plan_id":"cebpf4jnsgd1na2vs0mg"},{"bike_id":"13ad8f6f-5ea8-43d5-9643-e38394fa7fe9","system_id":"levelo_inurba_marseille","lat":43.25581,"lon":5.38228,"is_reserved":false,"is_disabled":false,"rental_uris":{"android":"levelo://app?vid=13ad8f6f-5ea8-43d5-9643-e38394fa7fe9","ios":"levelo://app?vid=13ad8f6f-5ea8-43d5-9643-e38394fa7fe9"},"vehicle_type_id":"4","last_reported":1732356602,"current_range_meters":11200,"station_id":"ce4bhih2rcd13ifvqfs0","pricing_plan_id":"cebpf4jnsgd1na2vs0mg"},{"bike_id":"0ddfa46a-4055-4654-8da1-794fa513a354","system_id":"levelo_inurba_marseille","lat":43.26209,"lon":5.37922,"is_reserved":false,"is_disabled":false,"rental_uris":{"android":"levelo://app?vid=0ddfa46a-4055-4654-8da1-794fa513a354","ios":"levelo://app?vid=0ddfa46a-4055-4654-8da1-794fa513a354"},"vehicle_type_id":"4","last_reported":1732356602,"current_range_meters":6800,"station_id":"ce4bhjp2rcd13ifvqg90","pricing_plan_id":"cebpf4jnsgd1na2vs0mg"},{"bike_id":"0a71953d-7603-49a2-af71-ad46d3eb07d0","system_id":"levelo_inurba_marseille","lat":43.27376,"lon":5.36253,"is_reserved":false,"is_disabled":false,"rental_uris":{"android":"levelo://app?vid=0a71953d-7603-49a2-af71-ad46d3eb07d0","ios":"levelo://app?vid=0a71953d-7603-49a2-af71-ad46d3eb07d0"},"vehicle_type_id":"4","last_reported":1732356602,"current_range_meters":5600,"station_id":"ce4bhbh2rcd13ifvqeo0","pricing_plan_id":"cebpf4jnsgd1na2vs0mg"},{"bike_id":"9a122f92-8d1b-4a84-9637-aeed9243668f","system_id":"levelo_inurba_marseille","lat":43.28941,"lon":5.36634,"is_reserved":false,"is_disabled":true,"rental_uris":{"android":"levelo://app?vid=9a122f92-8d1b-4a84-9637-aeed9243668f","ios":"levelo://app?vid=9a122f92-8d1b-4a84-9637-aeed9243668f"},"vehicle_type_id":"4","last_reported":1732356602,"current_range_meters":38800,"station_id":"ce4bhap2rcd13ifvqek0","pricing_plan_id":"cebpf4jnsgd1na2vs0mg"},{"bike_id":"e9d021a9-f81b-4245-b46b-e03c063c72d8","system_id":"levelo_inurba_marseille","lat":43.262002,"lon":5.379243,"is_reserved":false,"is_disabled":false,"rental_uris":{"android":"levelo://app?vid=e9d021a9-f81b-4245-b46b-e03c063c72d8","ios":"levelo://app?vid=e9d021a9-f81b-4245-b46b-e03c063c72d8"},"vehicle_type_id":"4","last_reported":1732356602,"current_range_meters":23200,"station_id":"ce4bhjp2rcd13ifvqg90","pricing_plan_id":"cebpf4jnsgd1na2vs0mg"},{"bike_id":"ac1b3788-b03a-4376-bf72-320fd033ea51","system_id":"levelo_inurba_marseille","lat":43.27666,"lon":5.38908,"is_reserved":false,"is_disabled":true,"rental_uris":{"android":"levelo://app?vid=ac1b3788-b03a-4376-bf72-320fd033ea51","ios":"levelo://app?vid=ac1b3788-b03a-4376-bf72-320fd033ea51"},"vehicle_type_id":"4","last_reported":1732356602,"current_range_meters":4400,"station_id":"ce4bhi12rcd13ifvqfo0","pricing_plan_id":"cebpf4jnsgd1na2vs0mg"},{"bike_id":"1118ed0f-e495-4fc3-888a-0615f01ed515","system_id":"levelo_inurba_marseille","lat":43.275,"lon":5.42442,"is_reserved":false,"is_disabled":false,"rental_uris":{"android":"levelo://app?vid=1118ed0f-e495-4fc3-888a-0615f01ed515","ios":"levelo://app?vid=1118ed0f-e495-4fc3-888a-0615f01ed515"},"vehicle_type_id":"4","last_reported":1732356602,"current_range_meters":24800,"station_id":"ce4bhn92rcd13ifvqgrg","pricing_plan_id":"cebpf4jnsgd1na2vs0mg"},{"bike_id":"c42cf5b3-1ac4-4085-8875-d04df261aee4","system_id":"levelo_inurba_marseille","lat":43.30156,"lon":5.38086,"is_reserved":false,"is_disabled":false,"rental_uris":{"android":"levelo://app?vid=c42cf5b3-1ac4-4085-8875-d04df261aee4","ios":"levelo://app?vid=c42cf5b3-1ac4-4085-8875-d04df261aee4"},"vehicle_type_id":"4","last_reported":1732356602,"current_range_meters":36000,"station_id":"ce4bgjp2rcd13ifvqbh0","pricing_plan_id":"cebpf4jnsgd1na2vs0mg"},{"bike_id":"98e8c8fc-e9d2-4c51-b113-d3db53cc3c19","system_id":"levelo_inurba_marseille","lat":43.29619,"lon":5.37722,"is_reserved":false,"is_disabled":false,"rental_uris":{"android":"levelo://app?vid=98e8c8fc-e9d2-4c51-b113-d3db53cc3c19","ios":"levelo://app?vid=98e8c8fc-e9d2-4c51-b113-d3db53cc3c19"},"vehicle_type_id":"4","last_reported":1732356602,"current_range_meters":32000,"station_id":"ce4bgi92rcd13ifvqb90","pricing_plan_id":"cebpf4jnsgd1na2vs0mg"},{"bike_id":"ebe2b43b-e5bb-4158-835b-e46b2ce0d167","system_id":"levelo_inurba_marseille","lat":43.22928,"lon":5.35374,"is_reserved":false,"is_disabled":false,"rental_uris":{"android":"levelo://app?vid=ebe2b43b-e5bb-4158-835b-e46b2ce0d167","ios":"levelo://app?vid=ebe2b43b-e5bb-4158-835b-e46b2ce0d167"},"vehicle_type_id":"4","last_reported":1732356602,"current_range_meters":30000,"station_id":"cpo3532slgdg3j2ikp40","pricing_plan_id":"cebpf4jnsgd1na2vs0mg"},{"bike_id":"7ac6acb5-fe8d-4ea0-b41d-d2dd7257b3b0","system_id":"levelo_inurba_marseille","lat":43.29855,"lon":5.36285,"is_reserved":false,"is_disabled":false,"rental_uris":{"android":"levelo://app?vid=7ac6acb5-fe8d-4ea0-b41d-d2dd7257b3b0","ios":"levelo://app?vid=7ac6acb5-fe8d-4ea0-b41d-d2dd7257b3b0"},"vehicle_type_id":"4","last_reported":1732356602,"current_range_meters":30000,"station_id":"ce4bgpp2rcd13ifvqc3g","pricing_plan_id":"cebpf4jnsgd1na2vs0mg"},{"bike_id":"266d8467-8ae6-464a-a246-c74905326d16","system_id":"levelo_inurba_marseille","lat":43.30145,"lon":5.37415,"is_reserved":false,"is_disabled":false,"rental_uris":{"android":"levelo://app?vid=266d8467-8ae6-464a-a246-c74905326d16","ios":"levelo://app?vid=266d8467-8ae6-464a-a246-c74905326d16"},"vehicle_type_id":"4","last_reported":1732356602,"current_range_meters":30800,"station_id":"ce4bgs92rcd13ifvqcc0","pricing_plan_id":"cebpf4jnsgd1na2vs0mg"},{"bike_id":"fa8314ae-1864-43c4-8fa1-c6e47ea1e55c","system_id":"levelo_inurba_marseille","lat":43.32105,"lon":5.36769,"is_reserved":false,"is_disabled":false,"rental_uris":{"android":"levelo://app?vid=fa8314ae-1864-43c4-8fa1-c6e47ea1e55c","ios":"levelo://app?vid=fa8314ae-1864-43c4-8fa1-c6e47ea1e55c"},"vehicle_type_id":"4","last_reported":1732356602,"current_range_meters":28400,"station_id":"ce4bhrh2rcd13ifvqhug","pricing_plan_id":"cebpf4jnsgd1na2vs0mg"},{"bike_id":"4dbda78b-8ea9-4175-9532-9ae620f0e65d","system_id":"levelo_inurba_marseille","lat":43.23186,"lon":5.39986,"is_reserved":false,"is_disabled":false,"rental_uris":{"android":"levelo://app?vid=4dbda78b-8ea9-4175-9532-9ae620f0e65d","ios":"levelo://app?vid=4dbda78b-8ea9-4175-9532-9ae620f0e65d"},"vehicle_type_id":"4","last_reported":1732356602,"current_range_meters":39200,"station_id":"ce4bhn12rcd13ifvqgqg","pricing_plan_id":"cebpf4jnsgd1na2vs0mg"},{"bike_id":"2839b2c8-1a2b-4a2a-97da-974264f94700","system_id":"levelo_inurba_marseille","lat":43.28715,"lon":5.39986,"is_reserved":false,"is_disabled":true,"rental_uris":{"android":"levelo://app?vid=2839b2c8-1a2b-4a2a-97da-974264f94700","ios":"levelo://app?vid=2839b2c8-1a2b-4a2a-97da-974264f94700"},"vehicle_type_id":"4","last_reported":1732356602,"current_range_meters":25600,"station_id":"ce4bho92rcd13ifvqh3g","pricing_plan_id":"cebpf4jnsgd1na2vs0mg"},{"bike_id":"8fa68e1a-8679-4fb8-bfdb-c33e42c58989","system_id":"levelo_inurba_marseille","lat":43.27615,"lon":5.36113,"is_reserved":false,"is_disabled":false,"rental_uris":{"android":"levelo://app?vid=8fa68e1a-8679-4fb8-bfdb-c33e42c58989","ios":"levelo://app?vid=8fa68e1a-8679-4fb8-bfdb-c33e42c58989"},"vehicle_type_id":"4","last_reported":1732356602,"current_range_meters":38800,"station_id":"ce4bgj92rcd13ifvqbe0","pricing_plan_id":"cebpf4jnsgd1na2vs0mg"},{"bike_id":"93e22be2-ce4d-4082-96d3-753b4a20df2d","system_id":"levelo_inurba_marseille","lat":43.24075,"lon":5.37758,"is_reserved":false,"is_disabled":false,"rental_uris":{"android":"levelo://app?vid=93e22be2-ce4d-4082-96d3-753b4a20df2d","ios":"levelo://app?vid=93e22be2-ce4d-4082-96d3-753b4a20df2d"},"vehicle_type_id":"4","last_reported":1732356602,"current_range_meters":36400,"station_id":"ce4bhnp2rcd13ifvqgvg","pricing_plan_id":"cebpf4jnsgd1na2vs0mg"},{"bike_id":"e3a7083a-e480-4f6c-ba83-af7ce96c7a44","system_id":"levelo_inurba_marseille","lat":43.29977,"lon":5.37177,"is_reserved":false,"is_disabled":false,"rental_uris":{"android":"levelo://app?vid=e3a7083a-e480-4f6c-ba83-af7ce96c7a44","ios":"levelo://app?vid=e3a7083a-e480-4f6c-ba83-af7ce96c7a44"},"vehicle_type_id":"4","last_reported":1732356602,"current_range_meters":16400,"station_id":"ce4bgr92rcd13ifvqc7g","pricing_plan_id":"cebpf4jnsgd1na2vs0mg"},{"bike_id":"4614c3ce-fa32-4b49-800d-cf02516d6ab9","system_id":"levelo_inurba_marseille","lat":43.32368,"lon":5.38887,"is_reserved":false,"is_disabled":false,"rental_uris":{"android":"levelo://app?vid=4614c3ce-fa32-4b49-800d-cf02516d6ab9","ios":"levelo://app?vid=4614c3ce-fa32-4b49-800d-cf02516d6ab9"},"vehicle_type_id":"4","last_reported":1732356602,"current_range_meters":24400,"station_id":"ce4bhqp2rcd13ifvqhog","pricing_plan_id":"cebpf4jnsgd1na2vs0mg"},{"bike_id":"c3379793-7e7e-4e75-892b-627682a03205","system_id":"levelo_inurba_marseille","lat":43.30161,"lon":5.38087,"is_reserved":false,"is_disabled":false,"rental_uris":{"android":"levelo://app?vid=c3379793-7e7e-4e75-892b-627682a03205","ios":"levelo://app?vid=c3379793-7e7e-4e75-892b-627682a03205"},"vehicle_type_id":"4","last_reported":1732356602,"current_range_meters":8000,"station_id":"ce4bgjp2rcd13ifvqbh0","pricing_plan_id":"cebpf4jnsgd1na2vs0mg"},{"bike_id":"f1a11a40-449e-466f-a236-1a05e3c5bf49","system_id":"levelo_inurba_marseille","lat":43.295349,"lon":5.390355,"is_reserved":false,"is_disabled":false,"rental_uris":{"android":"levelo://app?vid=f1a11a40-449e-466f-a236-1a05e3c5bf49","ios":"levelo://app?vid=f1a11a40-449e-466f-a236-1a05e3c5bf49"},"vehicle_type_id":"4","last_reported":1732356602,"current_range_meters":30400,"station_id":"ce4bh3p2rcd13ifvqdp0","pricing_plan_id":"cebpf4jnsgd1na2vs0mg"},{"bike_id":"091cc9eb-8580-435f-ab25-55aa0962542e","system_id":"levelo_inurba_marseille","lat":43.2603,"lon":5.37546,"is_reserved":false,"is_disabled":false,"rental_uris":{"android":"levelo://app?vid=091cc9eb-8580-435f-ab25-55aa0962542e","ios":"levelo://app?vid=091cc9eb-8580-435f-ab25-55aa0962542e"},"vehicle_type_id":"4","last_reported":1732356602,"current_range_meters":27600,"station_id":"ce4bhgh2rcd13ifvqfa0","pricing_plan_id":"cebpf4jnsgd1na2vs0mg"},{"bike_id":"f8a8a492-aaea-4018-90af-bfa3e05e159b","system_id":"levelo_inurba_marseille","lat":43.32662,"lon":5.40991,"is_reserved":false,"is_disabled":false,"rental_uris":{"android":"levelo://app?vid=f8a8a492-aaea-4018-90af-bfa3e05e159b","ios":"levelo://app?vid=f8a8a492-aaea-4018-90af-bfa3e05e159b"},"vehicle_type_id":"4","last_reported":1732356602,"current_range_meters":24000,"station_id":"ce4bhpp2rcd13ifvqhgg","pricing_plan_id":"cebpf4jnsgd1na2vs0mg"},{"bike_id":"bef6d52c-9135-4320-af9b-47093ee6b2a8","system_id":"levelo_inurba_marseille","lat":43.26944,"lon":5.38916,"is_reserved":false,"is_disabled":false,"rental_uris":{"android":"levelo://app?vid=bef6d52c-9135-4320-af9b-47093ee6b2a8","ios":"levelo://app?vid=bef6d52c-9135-4320-af9b-47093ee6b2a8"},"vehicle_type_id":"4","last_reported":1732356602,"current_range_meters":31200,"station_id":"ce4bhhh2rcd13ifvqfl0","pricing_plan_id":"cebpf4jnsgd1na2vs0mg"},{"bike_id":"ab98a49c-144b-468d-871d-e8e8492470bf","system_id":"levelo_inurba_marseille","lat":43.31274,"lon":5.40167,"is_reserved":false,"is_disabled":false,"rental_uris":{"android":"levelo://app?vid=ab98a49c-144b-468d-871d-e8e8492470bf","ios":"levelo://app?vid=ab98a49c-144b-468d-871d-e8e8492470bf"},"vehicle_type_id":"4","last_reported":1732356602,"current_range_meters":11200,"station_id":"ce4bh092rcd13ifvqd30","pricing_plan_id":"cebpf4jnsgd1na2vs0mg"},{"bike_id":"c147cf55-46df-42e1-a1dc-7c65ce259a82","system_id":"levelo_inurba_marseille","lat":43.30158,"lon":5.38088,"is_reserved":false,"is_disabled":false,"rental_uris":{"android":"levelo://app?vid=c147cf55-46df-42e1-a1dc-7c65ce259a82","ios":"levelo://app?vid=c147cf55-46df-42e1-a1dc-7c65ce259a82"},"vehicle_type_id":"4","last_reported":1732356602,"current_range_meters":10000,"station_id":"ce4bgjp2rcd13ifvqbh0","pricing_plan_id":"cebpf4jnsgd1na2vs0mg"},{"bike_id":"f9e35db8-2f7a-4f43-8c70-83778761d42d","system_id":"levelo_inurba_marseille","lat":43.2319,"lon":5.3556,"is_reserved":false,"is_disabled":true,"rental_uris":{"android":"levelo://app?vid=f9e35db8-2f7a-4f43-8c70-83778761d42d","ios":"levelo://app?vid=f9e35db8-2f7a-4f43-8c70-83778761d42d"},"vehicle_type_id":"4","last_reported":1732356602,"current_range_meters":32000,"station_id":"ce4bhu92rcd13ifvqi70","pricing_plan_id":"cebpf4jnsgd1na2vs0mg"},{"bike_id":"1d93f50e-bb78-4a0c-9e5e-1fec05a894ad","system_id":"levelo_inurba_marseille","lat":43.29613,"lon":5.37717,"is_reserved":false,"is_disabled":false,"rental_uris":{"android":"levelo://app?vid=1d93f50e-bb78-4a0c-9e5e-1fec05a894ad","ios":"levelo://app?vid=1d93f50e-bb78-4a0c-9e5e-1fec05a894ad"},"vehicle_type_id":"4","last_reported":1732356602,"current_range_meters":28800,"station_id":"ce4bgi92rcd13ifvqb90","pricing_plan_id":"cebpf4jnsgd1na2vs0mg"},{"bike_id":"4c990199-844f-4948-811b-72c21866712b","system_id":"levelo_inurba_marseille","lat":43.29034,"lon":5.39978,"is_reserved":false,"is_disabled":true,"rental_uris":{"android":"levelo://app?vid=4c990199-844f-4948-811b-72c21866712b","ios":"levelo://app?vid=4c990199-844f-4948-811b-72c21866712b"},"vehicle_type_id":"4","last_reported":1732356602,"current_range_meters":39200,"station_id":"ce4bh392rcd13ifvqdm0","pricing_plan_id":"cebpf4jnsgd1na2vs0mg"},{"bike_id":"1108659d-c798-48fb-a758-9ac015354e35","system_id":"levelo_inurba_marseille","lat":43.26209,"lon":5.37926,"is_reserved":false,"is_disabled":false,"rental_uris":{"android":"levelo://app?vid=1108659d-c798-48fb-a758-9ac015354e35","ios":"levelo://app?vid=1108659d-c798-48fb-a758-9ac015354e35"},"vehicle_type_id":"4","last_reported":1732356602,"current_range_meters":24400,"station_id":"ce4bhjp2rcd13ifvqg90","pricing_plan_id":"cebpf4jnsgd1na2vs0mg"},{"bike_id":"1f5a72a0-3240-401f-8965-8959c734d798","system_id":"levelo_inurba_marseille","lat":43.23962,"lon":5.36632,"is_reserved":false,"is_disabled":false,"rental_uris":{"android":"levelo://app?vid=1f5a72a0-3240-401f-8965-8959c734d798","ios":"levelo://app?vid=1f5a72a0-3240-401f-8965-8959c734d798"},"vehicle_type_id":"4","last_reported":1732356602,"current_range_meters":38800,"station_id":"ce4bhi12rcd13ifvqfp0","pricing_plan_id":"cebpf4jnsgd1na2vs0mg"},{"bike_id":"a4bf7a25-6668-4904-8b02-9fc015406405","system_id":"levelo_inurba_marseille","lat":43.29784,"lon":5.38093,"is_reserved":false,"is_disabled":false,"rental_uris":{"android":"levelo://app?vid=a4bf7a25-6668-4904-8b02-9fc015406405","ios":"levelo://app?vid=a4bf7a25-6668-4904-8b02-9fc015406405"},"vehicle_type_id":"4","last_reported":1732356602,"current_range_meters":38800,"station_id":"ce4bgip2rcd13ifvqbb0","pricing_plan_id":"cebpf4jnsgd1na2vs0mg"},{"bike_id":"2b892fb1-2c0c-43e6-8cef-13d95d3adba3","system_id":"levelo_inurba_marseille","lat":43.28265,"lon":5.35065,"is_reserved":false,"is_disabled":false,"rental_uris":{"android":"levelo://app?vid=2b892fb1-2c0c-43e6-8cef-13d95d3adba3","ios":"levelo://app?vid=2b892fb1-2c0c-43e6-8cef-13d95d3adba3"},"vehicle_type_id":"4","last_reported":1732356602,"current_range_meters":26000,"station_id":"ce4bhbp2rcd13ifvqerg","pricing_plan_id":"cebpf4jnsgd1na2vs0mg"},{"bike_id":"423a9818-7bff-4486-a519-c2edd613d48b","system_id":"levelo_inurba_marseille","lat":43.29957,"lon":5.41319,"is_reserved":false,"is_disabled":false,"rental_uris":{"android":"levelo://app?vid=423a9818-7bff-4486-a519-c2edd613d48b","ios":"levelo://app?vid=423a9818-7bff-4486-a519-c2edd613d48b"},"vehicle_type_id":"4","last_reported":1732356602,"current_range_meters":28400,"station_id":"ce4bhp12rcd13ifvqh9g","pricing_plan_id":"cebpf4jnsgd1na2vs0mg"},{"bike_id":"06017421-e72d-4fde-9b6f-832698f511a5","system_id":"levelo_inurba_marseille","lat":43.29582,"lon":5.36742,"is_reserved":false,"is_disabled":false,"rental_uris":{"android":"levelo://app?vid=06017421-e72d-4fde-9b6f-832698f511a5","ios":"levelo://app?vid=06017421-e72d-4fde-9b6f-832698f511a5"},"vehicle_type_id":"4","last_reported":1732356602,"current_range_meters":38400,"station_id":"ce4bgph2rcd13ifvqc2g","pricing_plan_id":"cebpf4jnsgd1na2vs0mg"},{"bike_id":"503daa12-02e5-4851-bd94-955537b0fe99","system_id":"levelo_inurba_marseille","lat":43.26498,"lon":5.39537,"is_reserved":false,"is_disabled":false,"rental_uris":{"android":"levelo://app?vid=503daa12-02e5-4851-bd94-955537b0fe99","ios":"levelo://app?vid=503daa12-02e5-4851-bd94-955537b0fe99"},"vehicle_type_id":"4","last_reported":1732356602,"current_range_meters":38400,"station_id":"ce4bhi12rcd13ifvqfq0","pricing_plan_id":"cebpf4jnsgd1na2vs0mg"},{"bike_id":"3d3e1c02-e434-42cd-a71e-c228de53e864","system_id":"levelo_inurba_marseille","lat":43.24392,"lon":5.37061,"is_reserved":false,"is_disabled":false,"rental_uris":{"android":"levelo://app?vid=3d3e1c02-e434-42cd-a71e-c228de53e864","ios":"levelo://app?vid=3d3e1c02-e434-42cd-a71e-c228de53e864"},"vehicle_type_id":"4","last_reported":1732356602,"current_range_meters":13600,"station_id":"ce4bhhh2rcd13ifvqfk0","pricing_plan_id":"cebpf4jnsgd1na2vs0mg"},{"bike_id":"4019a364-a600-4e71-a4e2-d80658dc9920","system_id":"levelo_inurba_marseille","lat":43.33725,"lon":5.39186,"is_reserved":false,"is_disabled":false,"rental_uris":{"android":"levelo://app?vid=4019a364-a600-4e71-a4e2-d80658dc9920","ios":"levelo://app?vid=4019a364-a600-4e71-a4e2-d80658dc9920"},"vehicle_type_id":"4","last_reported":1732356602,"current_range_meters":21600,"station_id":"ce4bhr92rcd13ifvqhsg","pricing_plan_id":"cebpf4jnsgd1na2vs0mg"},{"bike_id":"5d89816e-0afd-4910-9a3d-37d05296c402","system_id":"levelo_inurba_marseille","lat":43.3249,"lon":5.3656,"is_reserved":false,"is_disabled":false,"rental_uris":{"android":"levelo://app?vid=5d89816e-0afd-4910-9a3d-37d05296c402","ios":"levelo://app?vid=5d89816e-0afd-4910-9a3d-37d05296c402"},"vehicle_type_id":"4","last_reported":1732356602,"current_range_meters":36000,"station_id":"ce4bhs12rcd13ifvqhvg","pricing_plan_id":"cebpf4jnsgd1na2vs0mg"},{"bike_id":"d3e3e973-f89c-4419-9e76-db3faf490d9b","system_id":"levelo_inurba_marseille","lat":43.30159,"lon":5.3808,"is_reserved":false,"is_disabled":false,"rental_uris":{"android":"levelo://app?vid=d3e3e973-f89c-4419-9e76-db3faf490d9b","ios":"levelo://app?vid=d3e3e973-f89c-4419-9e76-db3faf490d9b"},"vehicle_type_id":"4","last_reported":1732356602,"current_range_meters":33600,"station_id":"ce4bgjp2rcd13ifvqbh0","pricing_plan_id":"cebpf4jnsgd1na2vs0mg"},{"bike_id":"3e333b68-b605-4dba-a35f-20d21a6cb235","system_id":"levelo_inurba_marseille","lat":43.25085,"lon":5.39521,"is_reserved":false,"is_disabled":false,"rental_uris":{"android":"levelo://app?vid=3e333b68-b605-4dba-a35f-20d21a6cb235","ios":"levelo://app?vid=3e333b68-b605-4dba-a35f-20d21a6cb235"},"vehicle_type_id":"4","last_reported":1732356602,"current_range_meters":19200,"station_id":"ce4bhm12rcd13ifvqgkg","pricing_plan_id":"cebpf4jnsgd1na2vs0mg"},{"bike_id":"c64b573f-7a4d-4300-ae42-f380caa3d1ee","system_id":"levelo_inurba_marseille","lat":43.3016,"lon":5.38083,"is_reserved":false,"is_disabled":false,"rental_uris":{"android":"levelo://app?vid=c64b573f-7a4d-4300-ae42-f380caa3d1ee","ios":"levelo://app?vid=c64b573f-7a4d-4300-ae42-f380caa3d1ee"},"vehicle_type_id":"4","last_reported":1732356602,"current_range_meters":38800,"station_id":"ce4bgjp2rcd13ifvqbh0","pricing_plan_id":"cebpf4jnsgd1na2vs0mg"},{"bike_id":"4cb716de-3f19-43d4-b34b-8b9ce425eaf2","system_id":"levelo_inurba_marseille","lat":43.25864,"lon":5.39898,"is_reserved":false,"is_disabled":false,"rental_uris":{"android":"levelo://app?vid=4cb716de-3f19-43d4-b34b-8b9ce425eaf2","ios":"levelo://app?vid=4cb716de-3f19-43d4-b34b-8b9ce425eaf2"},"vehicle_type_id":"4","last_reported":1732356602,"current_range_meters":24800,"station_id":"ce4bhl92rcd13ifvqghg","pricing_plan_id":"cebpf4jnsgd1na2vs0mg"},{"bike_id":"fa223770-c7b5-4176-b2a9-f62d86c16ea2","system_id":"levelo_inurba_marseille","lat":43.336669,"lon":5.39812,"is_reserved":false,"is_disabled":true,"rental_uris":{"android":"levelo://app?vid=fa223770-c7b5-4176-b2a9-f62d86c16ea2","ios":"levelo://app?vid=fa223770-c7b5-4176-b2a9-f62d86c16ea2"},"vehicle_type_id":"4","last_reported":1732356602,"current_range_meters":29600,"station_id":"","pricing_plan_id":"cebpf4jnsgd1na2vs0mg"},{"bike_id":"fec7a2fc-8bce-478d-addb-850f8222a122","system_id":"levelo_inurba_marseille","lat":43.29849,"lon":5.36286,"is_reserved":false,"is_disabled":false,"rental_uris":{"android":"levelo://app?vid=fec7a2fc-8bce-478d-addb-850f8222a122","ios":"levelo://app?vid=fec7a2fc-8bce-478d-addb-850f8222a122"},"vehicle_type_id":"4","last_reported":1732356602,"current_range_meters":35600,"station_id":"ce4bgpp2rcd13ifvqc3g","pricing_plan_id":"cebpf4jnsgd1na2vs0mg"},{"bike_id":"99d5eeb3-6513-46db-81bf-de6e43866527","system_id":"levelo_inurba_marseille","lat":43.32365,"lon":5.38884,"is_reserved":false,"is_disabled":false,"rental_uris":{"android":"levelo://app?vid=99d5eeb3-6513-46db-81bf-de6e43866527","ios":"levelo://app?vid=99d5eeb3-6513-46db-81bf-de6e43866527"},"vehicle_type_id":"4","last_reported":1732356602,"current_range_meters":34800,"station_id":"ce4bhqp2rcd13ifvqhog","pricing_plan_id":"cebpf4jnsgd1na2vs0mg"},{"bike_id":"c4ccc157-c468-4377-a433-663861abb2c0","system_id":"levelo_inurba_marseille","lat":43.2928,"lon":5.40119,"is_reserved":false,"is_disabled":false,"rental_uris":{"android":"levelo://app?vid=c4ccc157-c468-4377-a433-663861abb2c0","ios":"levelo://app?vid=c4ccc157-c468-4377-a433-663861abb2c0"},"vehicle_type_id":"4","last_reported":1732356602,"current_range_meters":8800,"station_id":"ce4bh312rcd13ifvqdk0","pricing_plan_id":"cebpf4jnsgd1na2vs0mg"},{"bike_id":"294eeb79-af1b-495a-909f-216801ae6b41","system_id":"levelo_inurba_marseille","lat":43.337444,"lon":5.374475,"is_reserved":false,"is_disabled":true,"rental_uris":{"android":"levelo://app?vid=294eeb79-af1b-495a-909f-216801ae6b41","ios":"levelo://app?vid=294eeb79-af1b-495a-909f-216801ae6b41"},"vehicle_type_id":"4","last_reported":1732356602,"current_range_meters":0,"station_id":"","pricing_plan_id":"cebpf4jnsgd1na2vs0mg"},{"bike_id":"e5d63661-ea2d-4e9d-bdce-dbbf19d65c3c","system_id":"levelo_inurba_marseille","lat":43.32355,"lon":5.36749,"is_reserved":false,"is_disabled":false,"rental_uris":{"android":"levelo://app?vid=e5d63661-ea2d-4e9d-bdce-dbbf19d65c3c","ios":"levelo://app?vid=e5d63661-ea2d-4e9d-bdce-dbbf19d65c3c"},"vehicle_type_id":"4","last_reported":1732356602,"current_range_meters":38800,"station_id":"ce4bhsh2rcd13ifvqi2g","pricing_plan_id":"cebpf4jnsgd1na2vs0mg"},{"bike_id":"9bd81088-0083-41fe-bb10-323bc946e5a6","system_id":"levelo_inurba_marseille","lat":43.29003,"lon":5.35599,"is_reserved":false,"is_disabled":false,"rental_uris":{"android":"levelo://app?vid=9bd81088-0083-41fe-bb10-323bc946e5a6","ios":"levelo://app?vid=9bd81088-0083-41fe-bb10-323bc946e5a6"},"vehicle_type_id":"4","last_reported":1732356602,"current_range_meters":37600,"station_id":"ce4bhb92rcd13ifvqen0","pricing_plan_id":"cebpf4jnsgd1na2vs0mg"},{"bike_id":"98ab5a7f-9cae-4986-b654-30b32853e56e","system_id":"levelo_inurba_marseille","lat":43.28262,"lon":5.35074,"is_reserved":false,"is_disabled":false,"rental_uris":{"android":"levelo://app?vid=98ab5a7f-9cae-4986-b654-30b32853e56e","ios":"levelo://app?vid=98ab5a7f-9cae-4986-b654-30b32853e56e"},"vehicle_type_id":"4","last_reported":1732356602,"current_range_meters":22800,"station_id":"ce4bhbp2rcd13ifvqerg","pricing_plan_id":"cebpf4jnsgd1na2vs0mg"},{"bike_id":"d96b489a-522c-4ddf-b5da-967352673770","system_id":"levelo_inurba_marseille","lat":43.31706,"lon":5.37734,"is_reserved":false,"is_disabled":false,"rental_uris":{"android":"levelo://app?vid=d96b489a-522c-4ddf-b5da-967352673770","ios":"levelo://app?vid=d96b489a-522c-4ddf-b5da-967352673770"},"vehicle_type_id":"4","last_reported":1732356602,"current_range_meters":19600,"station_id":"ce4bgth2rcd13ifvqch0","pricing_plan_id":"cebpf4jnsgd1na2vs0mg"},{"bike_id":"90cc99af-54e0-4698-bffa-7f2f1beb1a95","system_id":"levelo_inurba_marseille","lat":43.27997,"lon":5.41667,"is_reserved":false,"is_disabled":false,"rental_uris":{"android":"levelo://app?vid=90cc99af-54e0-4698-bffa-7f2f1beb1a95","ios":"levelo://app?vid=90cc99af-54e0-4698-bffa-7f2f1beb1a95"},"vehicle_type_id":"4","last_reported":1732356602,"current_range_meters":38800,"station_id":"ce4bho12rcd13ifvqh1g","pricing_plan_id":"cebpf4jnsgd1na2vs0mg"},{"bike_id":"81640bf4-dd0f-4830-8546-4d4867cc58a5","system_id":"levelo_inurba_marseille","lat":43.23102,"lon":5.40479,"is_reserved":false,"is_disabled":false,"rental_uris":{"android":"levelo://app?vid=81640bf4-dd0f-4830-8546-4d4867cc58a5","ios":"levelo://app?vid=81640bf4-dd0f-4830-8546-4d4867cc58a5"},"vehicle_type_id":"4","last_reported":1732356602,"current_range_meters":8400,"station_id":"","pricing_plan_id":"cebpf4jnsgd1na2vs0mg"},{"bike_id":"c9d20d7e-94a0-4c8b-b70d-f64cda2d5d16","system_id":"levelo_inurba_marseille","lat":43.29216,"lon":5.40001,"is_reserved":false,"is_disabled":false,"rental_uris":{"android":"levelo://app?vid=c9d20d7e-94a0-4c8b-b70d-f64cda2d5d16","ios":"levelo://app?vid=c9d20d7e-94a0-4c8b-b70d-f64cda2d5d16"},"vehicle_type_id":"4","last_reported":1732356602,"current_range_meters":12800,"station_id":"","pricing_plan_id":"cebpf4jnsgd1na2vs0mg"},{"bike_id":"cd78312a-142a-42d0-92e1-dbc654bf8bb4","system_id":"levelo_inurba_marseille","lat":43.24175,"lon":5.39717,"is_reserved":false,"is_disabled":true,"rental_uris":{"android":"levelo://app?vid=cd78312a-142a-42d0-92e1-dbc654bf8bb4","ios":"levelo://app?vid=cd78312a-142a-42d0-92e1-dbc654bf8bb4"},"vehicle_type_id":"4","last_reported":1732356602,"current_range_meters":15200,"station_id":"ce4bhn12rcd13ifvqgpg","pricing_plan_id":"cebpf4jnsgd1na2vs0mg"},{"bike_id":"f28c82ad-6f3c-4c01-88a7-477b9b26f762","system_id":"levelo_inurba_marseille","lat":43.2396,"lon":5.36633,"is_reserved":false,"is_disabled":false,"rental_uris":{"android":"levelo://app?vid=f28c82ad-6f3c-4c01-88a7-477b9b26f762","ios":"levelo://app?vid=f28c82ad-6f3c-4c01-88a7-477b9b26f762"},"vehicle_type_id":"4","last_reported":1732356602,"current_range_meters":27600,"station_id":"ce4bhi12rcd13ifvqfp0","pricing_plan_id":"cebpf4jnsgd1na2vs0mg"},{"bike_id":"11c5ed7c-dad2-4605-8db8-4918d0818190","system_id":"levelo_inurba_marseille","lat":43.31731,"lon":5.42395,"is_reserved":false,"is_disabled":false,"rental_uris":{"android":"levelo://app?vid=11c5ed7c-dad2-4605-8db8-4918d0818190","ios":"levelo://app?vid=11c5ed7c-dad2-4605-8db8-4918d0818190"},"vehicle_type_id":"4","last_reported":1732356602,"current_range_meters":38400,"station_id":"ce4bhp92rcd13ifvqhbg","pricing_plan_id":"cebpf4jnsgd1na2vs0mg"},{"bike_id":"3dedd3a3-3784-47e0-bd52-94265bd44a24","system_id":"levelo_inurba_marseille","lat":43.24551,"lon":5.37326,"is_reserved":false,"is_disabled":true,"rental_uris":{"android":"levelo://app?vid=3dedd3a3-3784-47e0-bd52-94265bd44a24","ios":"levelo://app?vid=3dedd3a3-3784-47e0-bd52-94265bd44a24"},"vehicle_type_id":"4","last_reported":1732356602,"current_range_meters":0,"station_id":"","pricing_plan_id":"cebpf4jnsgd1na2vs0mg"},{"bike_id":"0f73c7e1-9f37-4805-b324-faa77a592d73","system_id":"levelo_inurba_marseille","lat":43.24069,"lon":5.37752,"is_reserved":false,"is_disabled":false,"rental_uris":{"android":"levelo://app?vid=0f73c7e1-9f37-4805-b324-faa77a592d73","ios":"levelo://app?vid=0f73c7e1-9f37-4805-b324-faa77a592d73"},"vehicle_type_id":"4","last_reported":1732356602,"current_range_meters":18800,"station_id":"ce4bhnp2rcd13ifvqgvg","pricing_plan_id":"cebpf4jnsgd1na2vs0mg"},{"bike_id":"3cad28ed-9d9b-4f45-be59-0e2342451c4d","system_id":"levelo_inurba_marseille","lat":43.24669,"lon":5.38166,"is_reserved":false,"is_disabled":false,"rental_uris":{"android":"levelo://app?vid=3cad28ed-9d9b-4f45-be59-0e2342451c4d","ios":"levelo://app?vid=3cad28ed-9d9b-4f45-be59-0e2342451c4d"},"vehicle_type_id":"4","last_reported":1732356602,"current_range_meters":8000,"station_id":"ce4bhih2rcd13ifvqfr0","pricing_plan_id":"cebpf4jnsgd1na2vs0mg"},{"bike_id":"508e64fb-b601-4256-a33d-1741da3fb5eb","system_id":"levelo_inurba_marseille","lat":43.2408,"lon":5.3775,"is_reserved":false,"is_disabled":false,"rental_uris":{"android":"levelo://app?vid=508e64fb-b601-4256-a33d-1741da3fb5eb","ios":"levelo://app?vid=508e64fb-b601-4256-a33d-1741da3fb5eb"},"vehicle_type_id":"4","last_reported":1732356602,"current_range_meters":4400,"station_id":"ce4bhnp2rcd13ifvqgvg","pricing_plan_id":"cebpf4jnsgd1na2vs0mg"},{"bike_id":"bcf5a7ef-45e7-40a2-a25a-d01db7f9684d","system_id":"levelo_inurba_marseille","lat":43.25383,"lon":5.4017,"is_reserved":false,"is_disabled":true,"rental_uris":{"android":"levelo://app?vid=bcf5a7ef-45e7-40a2-a25a-d01db7f9684d","ios":"levelo://app?vid=bcf5a7ef-45e7-40a2-a25a-d01db7f9684d"},"vehicle_type_id":"4","last_reported":1732356602,"current_range_meters":0,"station_id":"","pricing_plan_id":"cebpf4jnsgd1na2vs0mg"},{"bike_id":"3193222d-584b-4642-a1d8-0c04b2309736","system_id":"levelo_inurba_marseille","lat":43.33729,"lon":5.39185,"is_reserved":false,"is_disabled":false,"rental_uris":{"android":"levelo://app?vid=3193222d-584b-4642-a1d8-0c04b2309736","ios":"levelo://app?vid=3193222d-584b-4642-a1d8-0c04b2309736"},"vehicle_type_id":"4","last_reported":1732356602,"current_range_meters":32800,"station_id":"ce4bhr92rcd13ifvqhsg","pricing_plan_id":"cebpf4jnsgd1na2vs0mg"},{"bike_id":"7c2f19f3-5373-4c2a-87bb-e1fd3ef39822","system_id":"levelo_inurba_marseille","lat":43.26559,"lon":5.390088,"is_reserved":false,"is_disabled":true,"rental_uris":{"android":"levelo://app?vid=7c2f19f3-5373-4c2a-87bb-e1fd3ef39822","ios":"levelo://app?vid=7c2f19f3-5373-4c2a-87bb-e1fd3ef39822"},"vehicle_type_id":"4","last_reported":1732356602,"current_range_meters":26000,"station_id":"ce4bhe12rcd13ifvqf30","pricing_plan_id":"cebpf4jnsgd1na2vs0mg"},{"bike_id":"36ef9a42-f4d8-45f5-adc2-b51fb9b962d0","system_id":"levelo_inurba_marseille","lat":43.34152,"lon":5.40897,"is_reserved":false,"is_disabled":false,"rental_uris":{"android":"levelo://app?vid=36ef9a42-f4d8-45f5-adc2-b51fb9b962d0","ios":"levelo://app?vid=36ef9a42-f4d8-45f5-adc2-b51fb9b962d0"},"vehicle_type_id":"4","last_reported":1732356602,"current_range_meters":40000,"station_id":"ce4bhqh2rcd13ifvqhlg","pricing_plan_id":"cebpf4jnsgd1na2vs0mg"},{"bike_id":"6ce6086b-6084-46f4-ba4b-69f8aaaa51b2","system_id":"levelo_inurba_marseille","lat":43.30539,"lon":5.38427,"is_reserved":false,"is_disabled":true,"rental_uris":{"android":"levelo://app?vid=6ce6086b-6084-46f4-ba4b-69f8aaaa51b2","ios":"levelo://app?vid=6ce6086b-6084-46f4-ba4b-69f8aaaa51b2"},"vehicle_type_id":"4","last_reported":1732356602,"current_range_meters":29600,"station_id":"ce4bgg92rcd13ifvqb30","pricing_plan_id":"cebpf4jnsgd1na2vs0mg"},{"bike_id":"1fe36207-a189-42b7-a2ae-a1bed57e3dd0","system_id":"levelo_inurba_marseille","lat":43.2603,"lon":5.37555,"is_reserved":false,"is_disabled":false,"rental_uris":{"android":"levelo://app?vid=1fe36207-a189-42b7-a2ae-a1bed57e3dd0","ios":"levelo://app?vid=1fe36207-a189-42b7-a2ae-a1bed57e3dd0"},"vehicle_type_id":"4","last_reported":1732356602,"current_range_meters":14000,"station_id":"ce4bhgh2rcd13ifvqfa0","pricing_plan_id":"cebpf4jnsgd1na2vs0mg"},{"bike_id":"4ecdaf55-87e7-42ea-ac0e-a41de2a6b49d","system_id":"levelo_inurba_marseille","lat":43.31993,"lon":5.38149,"is_reserved":false,"is_disabled":false,"rental_uris":{"android":"levelo://app?vid=4ecdaf55-87e7-42ea-ac0e-a41de2a6b49d","ios":"levelo://app?vid=4ecdaf55-87e7-42ea-ac0e-a41de2a6b49d"},"vehicle_type_id":"4","last_reported":1732356602,"current_range_meters":24000,"station_id":"ce4bhr12rcd13ifvqhpg","pricing_plan_id":"cebpf4jnsgd1na2vs0mg"},{"bike_id":"51ce6112-ca51-4a26-8335-063dea88ee84","system_id":"levelo_inurba_marseille","lat":43.26676,"lon":5.38965,"is_reserved":false,"is_disabled":false,"rental_uris":{"android":"levelo://app?vid=51ce6112-ca51-4a26-8335-063dea88ee84","ios":"levelo://app?vid=51ce6112-ca51-4a26-8335-063dea88ee84"},"vehicle_type_id":"4","last_reported":1732356602,"current_range_meters":8000,"station_id":"","pricing_plan_id":"cebpf4jnsgd1na2vs0mg"},{"bike_id":"4566aa86-5c03-4882-bf35-1fa691dcd11c","system_id":"levelo_inurba_marseille","lat":43.26954,"lon":5.38623,"is_reserved":false,"is_disabled":false,"rental_uris":{"android":"levelo://app?vid=4566aa86-5c03-4882-bf35-1fa691dcd11c","ios":"levelo://app?vid=4566aa86-5c03-4882-bf35-1fa691dcd11c"},"vehicle_type_id":"4","last_reported":1732356602,"current_range_meters":35200,"station_id":"ce4bhh92rcd13ifvqfh0","pricing_plan_id":"cebpf4jnsgd1na2vs0mg"},{"bike_id":"cfc767cd-9618-4d08-911d-05f95c52ffa4","system_id":"levelo_inurba_marseille","lat":43.29263,"lon":5.40902,"is_reserved":false,"is_disabled":false,"rental_uris":{"android":"levelo://app?vid=cfc767cd-9618-4d08-911d-05f95c52ffa4","ios":"levelo://app?vid=cfc767cd-9618-4d08-911d-05f95c52ffa4"},"vehicle_type_id":"4","last_reported":1732356602,"current_range_meters":35600,"station_id":"ce4bh192rcd13ifvqdc0","pricing_plan_id":"cebpf4jnsgd1na2vs0mg"},{"bike_id":"fc0b1b0c-9a21-495d-be52-0d91f5503bfa","system_id":"levelo_inurba_marseille","lat":43.2293,"lon":5.35371,"is_reserved":false,"is_disabled":false,"rental_uris":{"android":"levelo://app?vid=fc0b1b0c-9a21-495d-be52-0d91f5503bfa","ios":"levelo://app?vid=fc0b1b0c-9a21-495d-be52-0d91f5503bfa"},"vehicle_type_id":"4","last_reported":1732356602,"current_range_meters":22400,"station_id":"cpo3532slgdg3j2ikp40","pricing_plan_id":"cebpf4jnsgd1na2vs0mg"},{"bike_id":"fb8722dd-7f32-4ddd-b094-d27e50ec04ba","system_id":"levelo_inurba_marseille","lat":43.24068,"lon":5.3776,"is_reserved":false,"is_disabled":false,"rental_uris":{"android":"levelo://app?vid=fb8722dd-7f32-4ddd-b094-d27e50ec04ba","ios":"levelo://app?vid=fb8722dd-7f32-4ddd-b094-d27e50ec04ba"},"vehicle_type_id":"4","last_reported":1732356602,"current_range_meters":40000,"station_id":"ce4bhnp2rcd13ifvqgvg","pricing_plan_id":"cebpf4jnsgd1na2vs0mg"},{"bike_id":"2ad2228f-4f5c-4680-8c7f-1a2f231a33bd","system_id":"levelo_inurba_marseille","lat":43.27556,"lon":5.38423,"is_reserved":false,"is_disabled":false,"rental_uris":{"android":"levelo://app?vid=2ad2228f-4f5c-4680-8c7f-1a2f231a33bd","ios":"levelo://app?vid=2ad2228f-4f5c-4680-8c7f-1a2f231a33bd"},"vehicle_type_id":"4","last_reported":1732356602,"current_range_meters":16800,"station_id":"ce4bhh92rcd13ifvqfi0","pricing_plan_id":"cebpf4jnsgd1na2vs0mg"},{"bike_id":"94101e33-ee43-4b1f-9078-47da1f716263","system_id":"levelo_inurba_marseille","lat":43.26946,"lon":5.38636,"is_reserved":false,"is_disabled":false,"rental_uris":{"android":"levelo://app?vid=94101e33-ee43-4b1f-9078-47da1f716263","ios":"levelo://app?vid=94101e33-ee43-4b1f-9078-47da1f716263"},"vehicle_type_id":"4","last_reported":1732356602,"current_range_meters":39200,"station_id":"ce4bhh92rcd13ifvqfh0","pricing_plan_id":"cebpf4jnsgd1na2vs0mg"},{"bike_id":"97437fd5-e381-403b-962e-cf899defef24","system_id":"levelo_inurba_marseille","lat":43.32483,"lon":5.36554,"is_reserved":false,"is_disabled":false,"rental_uris":{"android":"levelo://app?vid=97437fd5-e381-403b-962e-cf899defef24","ios":"levelo://app?vid=97437fd5-e381-403b-962e-cf899defef24"},"vehicle_type_id":"4","last_reported":1732356602,"current_range_meters":25600,"station_id":"ce4bhs12rcd13ifvqhvg","pricing_plan_id":"cebpf4jnsgd1na2vs0mg"},{"bike_id":"68f9bc67-7a46-4c54-8555-1eed96ca8ef0","system_id":"levelo_inurba_marseille","lat":43.32107,"lon":5.36778,"is_reserved":false,"is_disabled":false,"rental_uris":{"android":"levelo://app?vid=68f9bc67-7a46-4c54-8555-1eed96ca8ef0","ios":"levelo://app?vid=68f9bc67-7a46-4c54-8555-1eed96ca8ef0"},"vehicle_type_id":"4","last_reported":1732356602,"current_range_meters":36800,"station_id":"ce4bhrh2rcd13ifvqhug","pricing_plan_id":"cebpf4jnsgd1na2vs0mg"},{"bike_id":"9f2d87b3-b732-4f0b-a482-72509ea4f76c","system_id":"levelo_inurba_marseille","lat":43.30151,"lon":5.38087,"is_reserved":false,"is_disabled":false,"rental_uris":{"android":"levelo://app?vid=9f2d87b3-b732-4f0b-a482-72509ea4f76c","ios":"levelo://app?vid=9f2d87b3-b732-4f0b-a482-72509ea4f76c"},"vehicle_type_id":"4","last_reported":1732356602,"current_range_meters":29600,"station_id":"ce4bgjp2rcd13ifvqbh0","pricing_plan_id":"cebpf4jnsgd1na2vs0mg"},{"bike_id":"a0a4a4c0-89ae-4c60-9d83-7a54cad703d8","system_id":"levelo_inurba_marseille","lat":43.29434,"lon":5.39753,"is_reserved":false,"is_disabled":false,"rental_uris":{"android":"levelo://app?vid=a0a4a4c0-89ae-4c60-9d83-7a54cad703d8","ios":"levelo://app?vid=a0a4a4c0-89ae-4c60-9d83-7a54cad703d8"},"vehicle_type_id":"4","last_reported":1732356602,"current_range_meters":9600,"station_id":"ce4bh3h2rcd13ifvqdo0","pricing_plan_id":"cebpf4jnsgd1na2vs0mg"},{"bike_id":"31a3efa5-23ff-4d63-a675-e8128f858976","system_id":"levelo_inurba_marseille","lat":43.29844,"lon":5.36264,"is_reserved":false,"is_disabled":false,"rental_uris":{"android":"levelo://app?vid=31a3efa5-23ff-4d63-a675-e8128f858976","ios":"levelo://app?vid=31a3efa5-23ff-4d63-a675-e8128f858976"},"vehicle_type_id":"4","last_reported":1732356602,"current_range_meters":38800,"station_id":"ce4bgpp2rcd13ifvqc3g","pricing_plan_id":"cebpf4jnsgd1na2vs0mg"},{"bike_id":"dab91a37-38d9-40d1-92ef-9579082d09de","system_id":"levelo_inurba_marseille","lat":43.26552,"lon":5.37281,"is_reserved":false,"is_disabled":false,"rental_uris":{"android":"levelo://app?vid=dab91a37-38d9-40d1-92ef-9579082d09de","ios":"levelo://app?vid=dab91a37-38d9-40d1-92ef-9579082d09de"},"vehicle_type_id":"4","last_reported":1732356602,"current_range_meters":19200,"station_id":"ce4bhg12rcd13ifvqf70","pricing_plan_id":"cebpf4jnsgd1na2vs0mg"},{"bike_id":"bc253db0-f00b-4bb0-84b9-1f8f01714743","system_id":"levelo_inurba_marseille","lat":43.239637,"lon":5.366308,"is_reserved":false,"is_disabled":false,"rental_uris":{"android":"levelo://app?vid=bc253db0-f00b-4bb0-84b9-1f8f01714743","ios":"levelo://app?vid=bc253db0-f00b-4bb0-84b9-1f8f01714743"},"vehicle_type_id":"4","last_reported":1732356602,"current_range_meters":16400,"station_id":"ce4bhi12rcd13ifvqfp0","pricing_plan_id":"cebpf4jnsgd1na2vs0mg"},{"bike_id":"d60edd73-4923-4330-b16d-caf6d1490a7d","system_id":"levelo_inurba_marseille","lat":43.315365,"lon":5.380356,"is_reserved":false,"is_disabled":false,"rental_uris":{"android":"levelo://app?vid=d60edd73-4923-4330-b16d-caf6d1490a7d","ios":"levelo://app?vid=d60edd73-4923-4330-b16d-caf6d1490a7d"},"vehicle_type_id":"4","last_reported":1732356602,"current_range_meters":10800,"station_id":"ce4bhsp2rcd13ifvqi50","pricing_plan_id":"cebpf4jnsgd1na2vs0mg"},{"bike_id":"155adc05-caef-4a7f-9f77-5dc13b580f69","system_id":"levelo_inurba_marseille","lat":43.28408,"lon":5.34978,"is_reserved":false,"is_disabled":false,"rental_uris":{"android":"levelo://app?vid=155adc05-caef-4a7f-9f77-5dc13b580f69","ios":"levelo://app?vid=155adc05-caef-4a7f-9f77-5dc13b580f69"},"vehicle_type_id":"4","last_reported":1732356602,"current_range_meters":24800,"station_id":"ce4bhbh2rcd13ifvqepg","pricing_plan_id":"cebpf4jnsgd1na2vs0mg"},{"bike_id":"2ce56eac-607f-4aee-97f1-1efe9a148076","system_id":"levelo_inurba_marseille","lat":43.22927,"lon":5.35377,"is_reserved":false,"is_disabled":false,"rental_uris":{"android":"levelo://app?vid=2ce56eac-607f-4aee-97f1-1efe9a148076","ios":"levelo://app?vid=2ce56eac-607f-4aee-97f1-1efe9a148076"},"vehicle_type_id":"4","last_reported":1732356602,"current_range_meters":10000,"station_id":"cpo3532slgdg3j2ikp40","pricing_plan_id":"cebpf4jnsgd1na2vs0mg"},{"bike_id":"3c5d0254-2542-44e0-aa08-1a8753e937a8","system_id":"levelo_inurba_marseille","lat":43.26688,"lon":5.3827,"is_reserved":false,"is_disabled":false,"rental_uris":{"android":"levelo://app?vid=3c5d0254-2542-44e0-aa08-1a8753e937a8","ios":"levelo://app?vid=3c5d0254-2542-44e0-aa08-1a8753e937a8"},"vehicle_type_id":"4","last_reported":1732356602,"current_range_meters":36400,"station_id":"ce4bhg92rcd13ifvqf90","pricing_plan_id":"cebpf4jnsgd1na2vs0mg"},{"bike_id":"9ca48d70-c6cf-4872-94ae-24ea58b6e497","system_id":"levelo_inurba_marseille","lat":43.24804,"lon":5.37451,"is_reserved":false,"is_disabled":false,"rental_uris":{"android":"levelo://app?vid=9ca48d70-c6cf-4872-94ae-24ea58b6e497","ios":"levelo://app?vid=9ca48d70-c6cf-4872-94ae-24ea58b6e497"},"vehicle_type_id":"4","last_reported":1732356602,"current_range_meters":22400,"station_id":"ce4bhgh2rcd13ifvqfb0","pricing_plan_id":"cebpf4jnsgd1na2vs0mg"},{"bike_id":"c74abcec-f83d-46ae-b5a9-0a57cc1c1c41","system_id":"levelo_inurba_marseille","lat":43.23195,"lon":5.35552,"is_reserved":false,"is_disabled":false,"rental_uris":{"android":"levelo://app?vid=c74abcec-f83d-46ae-b5a9-0a57cc1c1c41","ios":"levelo://app?vid=c74abcec-f83d-46ae-b5a9-0a57cc1c1c41"},"vehicle_type_id":"4","last_reported":1732356602,"current_range_meters":34000,"station_id":"ce4bhu92rcd13ifvqi70","pricing_plan_id":"cebpf4jnsgd1na2vs0mg"},{"bike_id":"6bc5e554-d491-43d8-af78-57fbd87f8a20","system_id":"levelo_inurba_marseille","lat":43.29847,"lon":5.36285,"is_reserved":false,"is_disabled":false,"rental_uris":{"android":"levelo://app?vid=6bc5e554-d491-43d8-af78-57fbd87f8a20","ios":"levelo://app?vid=6bc5e554-d491-43d8-af78-57fbd87f8a20"},"vehicle_type_id":"4","last_reported":1732356602,"current_range_meters":40000,"station_id":"ce4bgpp2rcd13ifvqc3g","pricing_plan_id":"cebpf4jnsgd1na2vs0mg"},{"bike_id":"f178d73e-7087-445c-94a7-11e2cc14d97c","system_id":"levelo_inurba_marseille","lat":43.296851,"lon":5.373126,"is_reserved":false,"is_disabled":false,"rental_uris":{"android":"levelo://app?vid=f178d73e-7087-445c-94a7-11e2cc14d97c","ios":"levelo://app?vid=f178d73e-7087-445c-94a7-11e2cc14d97c"},"vehicle_type_id":"4","last_reported":1732356602,"current_range_meters":29600,"station_id":"ce4bgk12rcd13ifvqbj0","pricing_plan_id":"cebpf4jnsgd1na2vs0mg"},{"bike_id":"c3a9fd83-5a98-42b2-a8f7-5104c351d62e","system_id":"levelo_inurba_marseille","lat":43.30456,"lon":5.37902,"is_reserved":false,"is_disabled":false,"rental_uris":{"android":"levelo://app?vid=c3a9fd83-5a98-42b2-a8f7-5104c351d62e","ios":"levelo://app?vid=c3a9fd83-5a98-42b2-a8f7-5104c351d62e"},"vehicle_type_id":"4","last_reported":1732356602,"current_range_meters":38800,"station_id":"ce4bgup2rcd13ifvqcn0","pricing_plan_id":"cebpf4jnsgd1na2vs0mg"},{"bike_id":"dda371ed-f57e-4a13-b59e-715c3af9050e","system_id":"levelo_inurba_marseille","lat":43.24172,"lon":5.36383,"is_reserved":false,"is_disabled":false,"rental_uris":{"android":"levelo://app?vid=dda371ed-f57e-4a13-b59e-715c3af9050e","ios":"levelo://app?vid=dda371ed-f57e-4a13-b59e-715c3af9050e"},"vehicle_type_id":"4","last_reported":1732356602,"current_range_meters":18000,"station_id":"cpo36qri1sfpv3e86is0","pricing_plan_id":"cebpf4jnsgd1na2vs0mg"},{"bike_id":"1eff5ce5-2d56-4465-a12c-60db9ec2175a","system_id":"levelo_inurba_marseille","lat":43.22928,"lon":5.35383,"is_reserved":false,"is_disabled":false,"rental_uris":{"android":"levelo://app?vid=1eff5ce5-2d56-4465-a12c-60db9ec2175a","ios":"levelo://app?vid=1eff5ce5-2d56-4465-a12c-60db9ec2175a"},"vehicle_type_id":"4","last_reported":1732356602,"current_range_meters":36800,"station_id":"cpo3532slgdg3j2ikp40","pricing_plan_id":"cebpf4jnsgd1na2vs0mg"},{"bike_id":"dc815649-e3e3-48aa-b0fd-022cdb8ac58a","system_id":"levelo_inurba_marseille","lat":43.32371,"lon":5.38878,"is_reserved":false,"is_disabled":false,"rental_uris":{"android":"levelo://app?vid=dc815649-e3e3-48aa-b0fd-022cdb8ac58a","ios":"levelo://app?vid=dc815649-e3e3-48aa-b0fd-022cdb8ac58a"},"vehicle_type_id":"4","last_reported":1732356602,"current_range_meters":32000,"station_id":"ce4bhqp2rcd13ifvqhog","pricing_plan_id":"cebpf4jnsgd1na2vs0mg"},{"bike_id":"54e13867-7be1-43f2-81a3-c250d50dfbf0","system_id":"levelo_inurba_marseille","lat":43.30556,"lon":5.36555,"is_reserved":false,"is_disabled":false,"rental_uris":{"android":"levelo://app?vid=54e13867-7be1-43f2-81a3-c250d50dfbf0","ios":"levelo://app?vid=54e13867-7be1-43f2-81a3-c250d50dfbf0"},"vehicle_type_id":"4","last_reported":1732356602,"current_range_meters":26000,"station_id":"ce4bgs12rcd13ifvqcag","pricing_plan_id":"cebpf4jnsgd1na2vs0mg"},{"bike_id":"a0fc717f-3f7c-40e4-95d9-620a9b366eae","system_id":"levelo_inurba_marseille","lat":43.28851,"lon":5.35853,"is_reserved":false,"is_disabled":false,"rental_uris":{"android":"levelo://app?vid=a0fc717f-3f7c-40e4-95d9-620a9b366eae","ios":"levelo://app?vid=a0fc717f-3f7c-40e4-95d9-620a9b366eae"},"vehicle_type_id":"4","last_reported":1732356602,"current_range_meters":32000,"station_id":"ce4bhb12rcd13ifvqem0","pricing_plan_id":"cebpf4jnsgd1na2vs0mg"},{"bike_id":"c1a23233-ef6c-4487-baed-828c9845eb79","system_id":"levelo_inurba_marseille","lat":43.2511,"lon":5.40323,"is_reserved":false,"is_disabled":false,"rental_uris":{"android":"levelo://app?vid=c1a23233-ef6c-4487-baed-828c9845eb79","ios":"levelo://app?vid=c1a23233-ef6c-4487-baed-828c9845eb79"},"vehicle_type_id":"4","last_reported":1732356602,"current_range_meters":39200,"station_id":"ce4bhlh2rcd13ifvqgig","pricing_plan_id":"cebpf4jnsgd1na2vs0mg"},{"bike_id":"b591530d-38c7-4ac0-9ebb-398fb1409b71","system_id":"levelo_inurba_marseille","lat":43.29379,"lon":5.37832,"is_reserved":false,"is_disabled":false,"rental_uris":{"android":"levelo://app?vid=b591530d-38c7-4ac0-9ebb-398fb1409b71","ios":"levelo://app?vid=b591530d-38c7-4ac0-9ebb-398fb1409b71"},"vehicle_type_id":"4","last_reported":1732356602,"current_range_meters":18000,"station_id":"ce4bgjh2rcd13ifvqbf0","pricing_plan_id":"cebpf4jnsgd1na2vs0mg"},{"bike_id":"5f401a72-6ce7-4d38-9fb6-ee5260b34669","system_id":"levelo_inurba_marseille","lat":43.24083,"lon":5.37751,"is_reserved":false,"is_disabled":false,"rental_uris":{"android":"levelo://app?vid=5f401a72-6ce7-4d38-9fb6-ee5260b34669","ios":"levelo://app?vid=5f401a72-6ce7-4d38-9fb6-ee5260b34669"},"vehicle_type_id":"4","last_reported":1732356602,"current_range_meters":37600,"station_id":"ce4bhnp2rcd13ifvqgvg","pricing_plan_id":"cebpf4jnsgd1na2vs0mg"},{"bike_id":"e6cd0c8f-d7f7-4b8c-b79a-5062102cc9cc","system_id":"levelo_inurba_marseille","lat":43.29571,"lon":5.3752,"is_reserved":false,"is_disabled":false,"rental_uris":{"android":"levelo://app?vid=e6cd0c8f-d7f7-4b8c-b79a-5062102cc9cc","ios":"levelo://app?vid=e6cd0c8f-d7f7-4b8c-b79a-5062102cc9cc"},"vehicle_type_id":"4","last_reported":1732356602,"current_range_meters":11200,"station_id":"ce4bgh92rcd13ifvqb50","pricing_plan_id":"cebpf4jnsgd1na2vs0mg"},{"bike_id":"85cbb33f-a99e-400b-b36f-99b5dfc7002e","system_id":"levelo_inurba_marseille","lat":43.29024,"lon":5.38641,"is_reserved":false,"is_disabled":false,"rental_uris":{"android":"levelo://app?vid=85cbb33f-a99e-400b-b36f-99b5dfc7002e","ios":"levelo://app?vid=85cbb33f-a99e-400b-b36f-99b5dfc7002e"},"vehicle_type_id":"4","last_reported":1732356602,"current_range_meters":33200,"station_id":"ce4bh4p2rcd13ifvqe0g","pricing_plan_id":"cebpf4jnsgd1na2vs0mg"},{"bike_id":"f796b412-9140-415f-9f98-4b489dc2b14e","system_id":"levelo_inurba_marseille","lat":43.26936,"lon":5.40246,"is_reserved":false,"is_disabled":false,"rental_uris":{"android":"levelo://app?vid=f796b412-9140-415f-9f98-4b489dc2b14e","ios":"levelo://app?vid=f796b412-9140-415f-9f98-4b489dc2b14e"},"vehicle_type_id":"4","last_reported":1732356602,"current_range_meters":36800,"station_id":"cjm6bp8fraef2m0cb0m0","pricing_plan_id":"cebpf4jnsgd1na2vs0mg"},{"bike_id":"bc1a35dd-80e6-4c98-afa3-c3d970bfb1ef","system_id":"levelo_inurba_marseille","lat":43.29038,"lon":5.37558,"is_reserved":false,"is_disabled":false,"rental_uris":{"android":"levelo://app?vid=bc1a35dd-80e6-4c98-afa3-c3d970bfb1ef","ios":"levelo://app?vid=bc1a35dd-80e6-4c98-afa3-c3d970bfb1ef"},"vehicle_type_id":"4","last_reported":1732356602,"current_range_meters":15200,"station_id":"ce4bh692rcd13ifvqe90","pricing_plan_id":"cebpf4jnsgd1na2vs0mg"},{"bike_id":"f3db8695-64da-47ec-8340-c4c8a6858e41","system_id":"levelo_inurba_marseille","lat":43.32283,"lon":5.38292,"is_reserved":false,"is_disabled":false,"rental_uris":{"android":"levelo://app?vid=f3db8695-64da-47ec-8340-c4c8a6858e41","ios":"levelo://app?vid=f3db8695-64da-47ec-8340-c4c8a6858e41"},"vehicle_type_id":"4","last_reported":1732356602,"current_range_meters":18000,"station_id":"ce4bhr12rcd13ifvqhqg","pricing_plan_id":"cebpf4jnsgd1na2vs0mg"},{"bike_id":"2671fb8a-3452-46fd-bec4-bd169133378c","system_id":"levelo_inurba_marseille","lat":43.26689,"lon":5.38275,"is_reserved":false,"is_disabled":true,"rental_uris":{"android":"levelo://app?vid=2671fb8a-3452-46fd-bec4-bd169133378c","ios":"levelo://app?vid=2671fb8a-3452-46fd-bec4-bd169133378c"},"vehicle_type_id":"4","last_reported":1732356602,"current_range_meters":0,"station_id":"ce4bhg92rcd13ifvqf90","pricing_plan_id":"cebpf4jnsgd1na2vs0mg"},{"bike_id":"0002c982-3dcd-4105-b4f8-7e0a03270684","system_id":"levelo_inurba_marseille","lat":43.24079,"lon":5.37754,"is_reserved":false,"is_disabled":false,"rental_uris":{"android":"levelo://app?vid=0002c982-3dcd-4105-b4f8-7e0a03270684","ios":"levelo://app?vid=0002c982-3dcd-4105-b4f8-7e0a03270684"},"vehicle_type_id":"4","last_reported":1732356602,"current_range_meters":4800,"station_id":"ce4bhnp2rcd13ifvqgvg","pricing_plan_id":"cebpf4jnsgd1na2vs0mg"},{"bike_id":"8f965d98-ed0b-4d4e-889d-7e115e8d38c5","system_id":"levelo_inurba_marseille","lat":43.31719,"lon":5.424,"is_reserved":false,"is_disabled":false,"rental_uris":{"android":"levelo://app?vid=8f965d98-ed0b-4d4e-889d-7e115e8d38c5","ios":"levelo://app?vid=8f965d98-ed0b-4d4e-889d-7e115e8d38c5"},"vehicle_type_id":"4","last_reported":1732356602,"current_range_meters":8800,"station_id":"ce4bhp92rcd13ifvqhbg","pricing_plan_id":"cebpf4jnsgd1na2vs0mg"},{"bike_id":"57280779-aa4b-42aa-b70f-28d025254a69","system_id":"levelo_inurba_marseille","lat":43.288056,"lon":5.400196,"is_reserved":false,"is_disabled":false,"rental_uris":{"android":"levelo://app?vid=57280779-aa4b-42aa-b70f-28d025254a69","ios":"levelo://app?vid=57280779-aa4b-42aa-b70f-28d025254a69"},"vehicle_type_id":"4","last_reported":1732356602,"current_range_meters":9200,"station_id":"","pricing_plan_id":"cebpf4jnsgd1na2vs0mg"},{"bike_id":"1752c724-2da7-45b5-8b48-74d9be0dc05d","system_id":"levelo_inurba_marseille","lat":43.27992,"lon":5.40015,"is_reserved":false,"is_disabled":true,"rental_uris":{"android":"levelo://app?vid=1752c724-2da7-45b5-8b48-74d9be0dc05d","ios":"levelo://app?vid=1752c724-2da7-45b5-8b48-74d9be0dc05d"},"vehicle_type_id":"4","last_reported":1732356602,"current_range_meters":0,"station_id":"ce4bho92rcd13ifvqh4g","pricing_plan_id":"cebpf4jnsgd1na2vs0mg"},{"bike_id":"22b7a080-3091-439b-8ebf-1a312cb542bf","system_id":"levelo_inurba_marseille","lat":43.29527,"lon":5.37499,"is_reserved":false,"is_disabled":false,"rental_uris":{"android":"levelo://app?vid=22b7a080-3091-439b-8ebf-1a312cb542bf","ios":"levelo://app?vid=22b7a080-3091-439b-8ebf-1a312cb542bf"},"vehicle_type_id":"4","last_reported":1732356602,"current_range_meters":35600,"station_id":"ce4bgkp2rcd13ifvqbmg","pricing_plan_id":"cebpf4jnsgd1na2vs0mg"},{"bike_id":"f099390a-c100-4560-9274-ff7be92824ac","system_id":"levelo_inurba_marseille","lat":43.30273,"lon":5.37692,"is_reserved":false,"is_disabled":false,"rental_uris":{"android":"levelo://app?vid=f099390a-c100-4560-9274-ff7be92824ac","ios":"levelo://app?vid=f099390a-c100-4560-9274-ff7be92824ac"},"vehicle_type_id":"4","last_reported":1732356602,"current_range_meters":38400,"station_id":"ce4bguh2rcd13ifvqcj0","pricing_plan_id":"cebpf4jnsgd1na2vs0mg"},{"bike_id":"dd4544df-eb9d-4c40-8b48-01c6ba03ca19","system_id":"levelo_inurba_marseille","lat":43.31995,"lon":5.38143,"is_reserved":false,"is_disabled":false,"rental_uris":{"android":"levelo://app?vid=dd4544df-eb9d-4c40-8b48-01c6ba03ca19","ios":"levelo://app?vid=dd4544df-eb9d-4c40-8b48-01c6ba03ca19"},"vehicle_type_id":"4","last_reported":1732356602,"current_range_meters":38800,"station_id":"ce4bhr12rcd13ifvqhpg","pricing_plan_id":"cebpf4jnsgd1na2vs0mg"},{"bike_id":"6f917eb1-620a-4a10-9dee-e6130505a742","system_id":"levelo_inurba_marseille","lat":43.29845,"lon":5.36273,"is_reserved":false,"is_disabled":false,"rental_uris":{"android":"levelo://app?vid=6f917eb1-620a-4a10-9dee-e6130505a742","ios":"levelo://app?vid=6f917eb1-620a-4a10-9dee-e6130505a742"},"vehicle_type_id":"4","last_reported":1732356602,"current_range_meters":36000,"station_id":"ce4bgpp2rcd13ifvqc3g","pricing_plan_id":"cebpf4jnsgd1na2vs0mg"},{"bike_id":"7b3c1754-0f5c-4003-abbb-41136549a06e","system_id":"levelo_inurba_marseille","lat":43.29556,"lon":5.42281,"is_reserved":false,"is_disabled":false,"rental_uris":{"android":"levelo://app?vid=7b3c1754-0f5c-4003-abbb-41136549a06e","ios":"levelo://app?vid=7b3c1754-0f5c-4003-abbb-41136549a06e"},"vehicle_type_id":"4","last_reported":1732356602,"current_range_meters":37600,"station_id":"ce4bhph2rcd13ifvqhdg","pricing_plan_id":"cebpf4jnsgd1na2vs0mg"},{"bike_id":"dffeccd3-600e-418b-9fc1-99c6dfe6c759","system_id":"levelo_inurba_marseille","lat":43.30135,"lon":5.37418,"is_reserved":false,"is_disabled":false,"rental_uris":{"android":"levelo://app?vid=dffeccd3-600e-418b-9fc1-99c6dfe6c759","ios":"levelo://app?vid=dffeccd3-600e-418b-9fc1-99c6dfe6c759"},"vehicle_type_id":"4","last_reported":1732356602,"current_range_meters":23200,"station_id":"ce4bgs92rcd13ifvqcc0","pricing_plan_id":"cebpf4jnsgd1na2vs0mg"},{"bike_id":"d99d745a-edcb-4d3d-bf9d-7fa79bc2aaf5","system_id":"levelo_inurba_marseille","lat":43.31991,"lon":5.38137,"is_reserved":false,"is_disabled":false,"rental_uris":{"android":"levelo://app?vid=d99d745a-edcb-4d3d-bf9d-7fa79bc2aaf5","ios":"levelo://app?vid=d99d745a-edcb-4d3d-bf9d-7fa79bc2aaf5"},"vehicle_type_id":"4","last_reported":1732356602,"current_range_meters":11600,"station_id":"ce4bhr12rcd13ifvqhpg","pricing_plan_id":"cebpf4jnsgd1na2vs0mg"},{"bike_id":"3421b059-913b-482a-a8f2-557f3cb5c3a2","system_id":"levelo_inurba_marseille","lat":43.25586,"lon":5.38229,"is_reserved":false,"is_disabled":false,"rental_uris":{"android":"levelo://app?vid=3421b059-913b-482a-a8f2-557f3cb5c3a2","ios":"levelo://app?vid=3421b059-913b-482a-a8f2-557f3cb5c3a2"},"vehicle_type_id":"4","last_reported":1732356602,"current_range_meters":29600,"station_id":"ce4bhih2rcd13ifvqfs0","pricing_plan_id":"cebpf4jnsgd1na2vs0mg"},{"bike_id":"8d20487e-66d2-44df-9f0c-38950df9794a","system_id":"levelo_inurba_marseille","lat":43.292806,"lon":5.401231,"is_reserved":false,"is_disabled":false,"rental_uris":{"android":"levelo://app?vid=8d20487e-66d2-44df-9f0c-38950df9794a","ios":"levelo://app?vid=8d20487e-66d2-44df-9f0c-38950df9794a"},"vehicle_type_id":"4","last_reported":1732356602,"current_range_meters":38000,"station_id":"ce4bh312rcd13ifvqdk0","pricing_plan_id":"cebpf4jnsgd1na2vs0mg"},{"bike_id":"6481890f-7176-46c4-924d-da316590a54c","system_id":"levelo_inurba_marseille","lat":43.29266,"lon":5.3843,"is_reserved":false,"is_disabled":false,"rental_uris":{"android":"levelo://app?vid=6481890f-7176-46c4-924d-da316590a54c","ios":"levelo://app?vid=6481890f-7176-46c4-924d-da316590a54c"},"vehicle_type_id":"4","last_reported":1732356602,"current_range_meters":28400,"station_id":"ce4bh692rcd13ifvqea0","pricing_plan_id":"cebpf4jnsgd1na2vs0mg"},{"bike_id":"552ae1f9-34eb-4d70-a19b-3616d3661778","system_id":"levelo_inurba_marseille","lat":43.33724,"lon":5.39182,"is_reserved":false,"is_disabled":false,"rental_uris":{"android":"levelo://app?vid=552ae1f9-34eb-4d70-a19b-3616d3661778","ios":"levelo://app?vid=552ae1f9-34eb-4d70-a19b-3616d3661778"},"vehicle_type_id":"4","last_reported":1732356602,"current_range_meters":22000,"station_id":"ce4bhr92rcd13ifvqhsg","pricing_plan_id":"cebpf4jnsgd1na2vs0mg"},{"bike_id":"f7f3756c-1ec7-4782-9c87-6273f87b6774","system_id":"levelo_inurba_marseille","lat":43.337444,"lon":5.374475,"is_reserved":false,"is_disabled":true,"rental_uris":{"android":"levelo://app?vid=f7f3756c-1ec7-4782-9c87-6273f87b6774","ios":"levelo://app?vid=f7f3756c-1ec7-4782-9c87-6273f87b6774"},"vehicle_type_id":"4","last_reported":1732356602,"current_range_meters":33600,"station_id":"","pricing_plan_id":"cebpf4jnsgd1na2vs0mg"},{"bike_id":"bdca9a5b-dace-4172-b957-73aa4aa4eeb4","system_id":"levelo_inurba_marseille","lat":43.26565,"lon":5.39002,"is_reserved":false,"is_disabled":true,"rental_uris":{"android":"levelo://app?vid=bdca9a5b-dace-4172-b957-73aa4aa4eeb4","ios":"levelo://app?vid=bdca9a5b-dace-4172-b957-73aa4aa4eeb4"},"vehicle_type_id":"4","last_reported":1732356602,"current_range_meters":37600,"station_id":"ce4bhe12rcd13ifvqf30","pricing_plan_id":"cebpf4jnsgd1na2vs0mg"},{"bike_id":"d33b2ae0-6bf9-4b5f-a113-bead742dfab7","system_id":"levelo_inurba_marseille","lat":43.25579,"lon":5.38229,"is_reserved":false,"is_disabled":false,"rental_uris":{"android":"levelo://app?vid=d33b2ae0-6bf9-4b5f-a113-bead742dfab7","ios":"levelo://app?vid=d33b2ae0-6bf9-4b5f-a113-bead742dfab7"},"vehicle_type_id":"4","last_reported":1732356602,"current_range_meters":27600,"station_id":"ce4bhih2rcd13ifvqfs0","pricing_plan_id":"cebpf4jnsgd1na2vs0mg"},{"bike_id":"e8f826ec-cf1d-427e-a65b-cf83f280be00","system_id":"levelo_inurba_marseille","lat":43.27063,"lon":5.40257,"is_reserved":false,"is_disabled":true,"rental_uris":{"android":"levelo://app?vid=e8f826ec-cf1d-427e-a65b-cf83f280be00","ios":"levelo://app?vid=e8f826ec-cf1d-427e-a65b-cf83f280be00"},"vehicle_type_id":"4","last_reported":1732356602,"current_range_meters":1200,"station_id":"ce4bhk92rcd13ifvqgc0","pricing_plan_id":"cebpf4jnsgd1na2vs0mg"},{"bike_id":"99280cf8-c049-4d28-b9ac-acaa05e32f0f","system_id":"levelo_inurba_marseille","lat":43.29549,"lon":5.42282,"is_reserved":false,"is_disabled":false,"rental_uris":{"android":"levelo://app?vid=99280cf8-c049-4d28-b9ac-acaa05e32f0f","ios":"levelo://app?vid=99280cf8-c049-4d28-b9ac-acaa05e32f0f"},"vehicle_type_id":"4","last_reported":1732356602,"current_range_meters":40000,"station_id":"ce4bhph2rcd13ifvqhdg","pricing_plan_id":"cebpf4jnsgd1na2vs0mg"},{"bike_id":"7321aabf-b088-45e0-9d91-8e497e6d692a","system_id":"levelo_inurba_marseille","lat":43.31762,"lon":5.39011,"is_reserved":false,"is_disabled":false,"rental_uris":{"android":"levelo://app?vid=7321aabf-b088-45e0-9d91-8e497e6d692a","ios":"levelo://app?vid=7321aabf-b088-45e0-9d91-8e497e6d692a"},"vehicle_type_id":"4","last_reported":1732356602,"current_range_meters":26800,"station_id":"ce4bhqp2rcd13ifvqhng","pricing_plan_id":"cebpf4jnsgd1na2vs0mg"},{"bike_id":"2aec2b20-29ec-4b13-93d4-f3905b097ac5","system_id":"levelo_inurba_marseille","lat":43.28106,"lon":5.3518,"is_reserved":false,"is_disabled":false,"rental_uris":{"android":"levelo://app?vid=2aec2b20-29ec-4b13-93d4-f3905b097ac5","ios":"levelo://app?vid=2aec2b20-29ec-4b13-93d4-f3905b097ac5"},"vehicle_type_id":"4","last_reported":1732356602,"current_range_meters":18000,"station_id":"","pricing_plan_id":"cebpf4jnsgd1na2vs0mg"},{"bike_id":"e74125a9-74c4-4830-af92-47ce6562e6bd","system_id":"levelo_inurba_marseille","lat":43.24653,"lon":5.38892,"is_reserved":false,"is_disabled":false,"rental_uris":{"android":"levelo://app?vid=e74125a9-74c4-4830-af92-47ce6562e6bd","ios":"levelo://app?vid=e74125a9-74c4-4830-af92-47ce6562e6bd"},"vehicle_type_id":"4","last_reported":1732356602,"current_range_meters":38800,"station_id":"ce4bhg12rcd13ifvqf60","pricing_plan_id":"cebpf4jnsgd1na2vs0mg"},{"bike_id":"004b1cb8-188f-4e0a-83af-382dd195ad54","system_id":"levelo_inurba_marseille","lat":43.23192,"lon":5.35549,"is_reserved":false,"is_disabled":false,"rental_uris":{"android":"levelo://app?vid=004b1cb8-188f-4e0a-83af-382dd195ad54","ios":"levelo://app?vid=004b1cb8-188f-4e0a-83af-382dd195ad54"},"vehicle_type_id":"4","last_reported":1732356602,"current_range_meters":30400,"station_id":"ce4bhu92rcd13ifvqi70","pricing_plan_id":"cebpf4jnsgd1na2vs0mg"},{"bike_id":"b1654935-7f71-4443-b30e-d2c1c5a3b68d","system_id":"levelo_inurba_marseille","lat":43.30223,"lon":5.3947,"is_reserved":false,"is_disabled":false,"rental_uris":{"android":"levelo://app?vid=b1654935-7f71-4443-b30e-d2c1c5a3b68d","ios":"levelo://app?vid=b1654935-7f71-4443-b30e-d2c1c5a3b68d"},"vehicle_type_id":"4","last_reported":1732356602,"current_range_meters":30400,"station_id":"ce4bh0p2rcd13ifvqd70","pricing_plan_id":"cebpf4jnsgd1na2vs0mg"},{"bike_id":"c2a59ab3-d6b8-4918-82c9-bfcce921601e","system_id":"levelo_inurba_marseille","lat":43.32485,"lon":5.36582,"is_reserved":false,"is_disabled":false,"rental_uris":{"android":"levelo://app?vid=c2a59ab3-d6b8-4918-82c9-bfcce921601e","ios":"levelo://app?vid=c2a59ab3-d6b8-4918-82c9-bfcce921601e"},"vehicle_type_id":"4","last_reported":1732356602,"current_range_meters":12000,"station_id":"ce4bhs12rcd13ifvqhvg","pricing_plan_id":"cebpf4jnsgd1na2vs0mg"},{"bike_id":"c4813390-7cb1-4cbe-a0ed-dfe351f3fbd2","system_id":"levelo_inurba_marseille","lat":43.29573,"lon":5.3752,"is_reserved":false,"is_disabled":false,"rental_uris":{"android":"levelo://app?vid=c4813390-7cb1-4cbe-a0ed-dfe351f3fbd2","ios":"levelo://app?vid=c4813390-7cb1-4cbe-a0ed-dfe351f3fbd2"},"vehicle_type_id":"4","last_reported":1732356602,"current_range_meters":31200,"station_id":"ce4bgh92rcd13ifvqb50","pricing_plan_id":"cebpf4jnsgd1na2vs0mg"},{"bike_id":"58c180dc-c06a-46fe-9701-0fd5163c8626","system_id":"levelo_inurba_marseille","lat":43.29578,"lon":5.42304,"is_reserved":false,"is_disabled":false,"rental_uris":{"android":"levelo://app?vid=58c180dc-c06a-46fe-9701-0fd5163c8626","ios":"levelo://app?vid=58c180dc-c06a-46fe-9701-0fd5163c8626"},"vehicle_type_id":"4","last_reported":1732356602,"current_range_meters":36800,"station_id":"ce4bhph2rcd13ifvqhdg","pricing_plan_id":"cebpf4jnsgd1na2vs0mg"},{"bike_id":"41a2b897-b7fa-43cb-93d2-17b62d1ee220","system_id":"levelo_inurba_marseille","lat":43.26204,"lon":5.37443,"is_reserved":false,"is_disabled":false,"rental_uris":{"android":"levelo://app?vid=41a2b897-b7fa-43cb-93d2-17b62d1ee220","ios":"levelo://app?vid=41a2b897-b7fa-43cb-93d2-17b62d1ee220"},"vehicle_type_id":"4","last_reported":1732356602,"current_range_meters":36800,"station_id":"ce4bhgp2rcd13ifvqfc0","pricing_plan_id":"cebpf4jnsgd1na2vs0mg"},{"bike_id":"252c8262-fde7-42db-851f-9022b4276b02","system_id":"levelo_inurba_marseille","lat":43.26951,"lon":5.38645,"is_reserved":false,"is_disabled":false,"rental_uris":{"android":"levelo://app?vid=252c8262-fde7-42db-851f-9022b4276b02","ios":"levelo://app?vid=252c8262-fde7-42db-851f-9022b4276b02"},"vehicle_type_id":"4","last_reported":1732356602,"current_range_meters":14000,"station_id":"ce4bhh92rcd13ifvqfh0","pricing_plan_id":"cebpf4jnsgd1na2vs0mg"},{"bike_id":"20db0e6b-7fc1-4f13-aeb2-811ab390dd13","system_id":"levelo_inurba_marseille","lat":43.32486,"lon":5.36573,"is_reserved":false,"is_disabled":false,"rental_uris":{"android":"levelo://app?vid=20db0e6b-7fc1-4f13-aeb2-811ab390dd13","ios":"levelo://app?vid=20db0e6b-7fc1-4f13-aeb2-811ab390dd13"},"vehicle_type_id":"4","last_reported":1732356602,"current_range_meters":36800,"station_id":"ce4bhs12rcd13ifvqhvg","pricing_plan_id":"cebpf4jnsgd1na2vs0mg"},{"bike_id":"0b0796e8-4aa1-47ec-bf36-a7060666faa4","system_id":"levelo_inurba_marseille","lat":43.29224,"lon":5.36066,"is_reserved":false,"is_disabled":false,"rental_uris":{"android":"levelo://app?vid=0b0796e8-4aa1-47ec-bf36-a7060666faa4","ios":"levelo://app?vid=0b0796e8-4aa1-47ec-bf36-a7060666faa4"},"vehicle_type_id":"4","last_reported":1732356602,"current_range_meters":36400,"station_id":"ce4bhbh2rcd13ifvqeqg","pricing_plan_id":"cebpf4jnsgd1na2vs0mg"},{"bike_id":"13b751d7-077d-4f29-8350-fc32ddaecb6a","system_id":"levelo_inurba_marseille","lat":43.26557,"lon":5.37281,"is_reserved":false,"is_disabled":false,"rental_uris":{"android":"levelo://app?vid=13b751d7-077d-4f29-8350-fc32ddaecb6a","ios":"levelo://app?vid=13b751d7-077d-4f29-8350-fc32ddaecb6a"},"vehicle_type_id":"4","last_reported":1732356602,"current_range_meters":36000,"station_id":"ce4bhg12rcd13ifvqf70","pricing_plan_id":"cebpf4jnsgd1na2vs0mg"},{"bike_id":"e5951ee3-4a5a-4ebb-b469-096c5188dfa3","system_id":"levelo_inurba_marseille","lat":43.23187,"lon":5.35551,"is_reserved":false,"is_disabled":false,"rental_uris":{"android":"levelo://app?vid=e5951ee3-4a5a-4ebb-b469-096c5188dfa3","ios":"levelo://app?vid=e5951ee3-4a5a-4ebb-b469-096c5188dfa3"},"vehicle_type_id":"4","last_reported":1732356602,"current_range_meters":24800,"station_id":"ce4bhu92rcd13ifvqi70","pricing_plan_id":"cebpf4jnsgd1na2vs0mg"},{"bike_id":"598543c3-4504-4ea3-976e-b45e767de5ed","system_id":"levelo_inurba_marseille","lat":43.3236,"lon":5.38883,"is_reserved":false,"is_disabled":false,"rental_uris":{"android":"levelo://app?vid=598543c3-4504-4ea3-976e-b45e767de5ed","ios":"levelo://app?vid=598543c3-4504-4ea3-976e-b45e767de5ed"},"vehicle_type_id":"4","last_reported":1732356602,"current_range_meters":31200,"station_id":"ce4bhqp2rcd13ifvqhog","pricing_plan_id":"cebpf4jnsgd1na2vs0mg"},{"bike_id":"e89acc00-2b06-4720-9a63-22cf0d597a07","system_id":"levelo_inurba_marseille","lat":43.25007,"lon":5.38918,"is_reserved":false,"is_disabled":true,"rental_uris":{"android":"levelo://app?vid=e89acc00-2b06-4720-9a63-22cf0d597a07","ios":"levelo://app?vid=e89acc00-2b06-4720-9a63-22cf0d597a07"},"vehicle_type_id":"4","last_reported":1732356602,"current_range_meters":36000,"station_id":"ce4bhgp2rcd13ifvqfd0","pricing_plan_id":"cebpf4jnsgd1na2vs0mg"},{"bike_id":"44abef4f-7bb3-417f-9f17-632a234b6e5d","system_id":"levelo_inurba_marseille","lat":43.32106,"lon":5.36785,"is_reserved":false,"is_disabled":false,"rental_uris":{"android":"levelo://app?vid=44abef4f-7bb3-417f-9f17-632a234b6e5d","ios":"levelo://app?vid=44abef4f-7bb3-417f-9f17-632a234b6e5d"},"vehicle_type_id":"4","last_reported":1732356602,"current_range_meters":17600,"station_id":"ce4bhrh2rcd13ifvqhug","pricing_plan_id":"cebpf4jnsgd1na2vs0mg"},{"bike_id":"830ab6f1-9f97-4b81-a374-96032fba99d2","system_id":"levelo_inurba_marseille","lat":43.24469,"lon":5.36926,"is_reserved":false,"is_disabled":true,"rental_uris":{"android":"levelo://app?vid=830ab6f1-9f97-4b81-a374-96032fba99d2","ios":"levelo://app?vid=830ab6f1-9f97-4b81-a374-96032fba99d2"},"vehicle_type_id":"4","last_reported":1732356602,"current_range_meters":22800,"station_id":"","pricing_plan_id":"cebpf4jnsgd1na2vs0mg"},{"bike_id":"6c948e9c-d5b3-4fe5-a918-1bd2f7c83b02","system_id":"levelo_inurba_marseille","lat":43.321116,"lon":5.367711,"is_reserved":false,"is_disabled":false,"rental_uris":{"android":"levelo://app?vid=6c948e9c-d5b3-4fe5-a918-1bd2f7c83b02","ios":"levelo://app?vid=6c948e9c-d5b3-4fe5-a918-1bd2f7c83b02"},"vehicle_type_id":"4","last_reported":1732356602,"current_range_meters":34000,"station_id":"ce4bhrh2rcd13ifvqhug","pricing_plan_id":"cebpf4jnsgd1na2vs0mg"},{"bike_id":"9e620abf-d324-4f99-84fc-d67e71109f2a","system_id":"levelo_inurba_marseille","lat":43.31075,"lon":5.42432,"is_reserved":false,"is_disabled":true,"rental_uris":{"android":"levelo://app?vid=9e620abf-d324-4f99-84fc-d67e71109f2a","ios":"levelo://app?vid=9e620abf-d324-4f99-84fc-d67e71109f2a"},"vehicle_type_id":"4","last_reported":1732356602,"current_range_meters":0,"station_id":"ce4bhp92rcd13ifvqhag","pricing_plan_id":"cebpf4jnsgd1na2vs0mg"},{"bike_id":"9388a7ff-9c5c-4c26-9899-39b2408cf7e3","system_id":"levelo_inurba_marseille","lat":43.31025,"lon":5.38342,"is_reserved":false,"is_disabled":true,"rental_uris":{"android":"levelo://app?vid=9388a7ff-9c5c-4c26-9899-39b2408cf7e3","ios":"levelo://app?vid=9388a7ff-9c5c-4c26-9899-39b2408cf7e3"},"vehicle_type_id":"4","last_reported":1732356602,"current_range_meters":0,"station_id":"","pricing_plan_id":"cebpf4jnsgd1na2vs0mg"},{"bike_id":"66ee35b6-2e86-4380-a3c4-e228b6d3b9e8","system_id":"levelo_inurba_marseille","lat":43.24076,"lon":5.37756,"is_reserved":false,"is_disabled":false,"rental_uris":{"android":"levelo://app?vid=66ee35b6-2e86-4380-a3c4-e228b6d3b9e8","ios":"levelo://app?vid=66ee35b6-2e86-4380-a3c4-e228b6d3b9e8"},"vehicle_type_id":"4","last_reported":1732356602,"current_range_meters":18800,"station_id":"ce4bhnp2rcd13ifvqgvg","pricing_plan_id":"cebpf4jnsgd1na2vs0mg"},{"bike_id":"b655e67f-3daa-4d19-94e5-9c754246564d","system_id":"levelo_inurba_marseille","lat":43.32365,"lon":5.3888,"is_reserved":false,"is_disabled":false,"rental_uris":{"android":"levelo://app?vid=b655e67f-3daa-4d19-94e5-9c754246564d","ios":"levelo://app?vid=b655e67f-3daa-4d19-94e5-9c754246564d"},"vehicle_type_id":"4","last_reported":1732356602,"current_range_meters":14800,"station_id":"ce4bhqp2rcd13ifvqhog","pricing_plan_id":"cebpf4jnsgd1na2vs0mg"},{"bike_id":"fa101fde-e678-41f6-b3c1-92168de05b68","system_id":"levelo_inurba_marseille","lat":43.30217,"lon":5.39465,"is_reserved":false,"is_disabled":false,"rental_uris":{"android":"levelo://app?vid=fa101fde-e678-41f6-b3c1-92168de05b68","ios":"levelo://app?vid=fa101fde-e678-41f6-b3c1-92168de05b68"},"vehicle_type_id":"4","last_reported":1732356602,"current_range_meters":30400,"station_id":"ce4bh0p2rcd13ifvqd70","pricing_plan_id":"cebpf4jnsgd1na2vs0mg"},{"bike_id":"70113052-99f4-4944-a08f-adbe86885018","system_id":"levelo_inurba_marseille","lat":43.26058,"lon":5.39401,"is_reserved":false,"is_disabled":false,"rental_uris":{"android":"levelo://app?vid=70113052-99f4-4944-a08f-adbe86885018","ios":"levelo://app?vid=70113052-99f4-4944-a08f-adbe86885018"},"vehicle_type_id":"4","last_reported":1732356602,"current_range_meters":17600,"station_id":"ce4bhh92rcd13ifvqfj0","pricing_plan_id":"cebpf4jnsgd1na2vs0mg"},{"bike_id":"5c53cfbd-2547-413a-b79a-f8cc3b1ca992","system_id":"levelo_inurba_marseille","lat":43.32109,"lon":5.3678,"is_reserved":false,"is_disabled":false,"rental_uris":{"android":"levelo://app?vid=5c53cfbd-2547-413a-b79a-f8cc3b1ca992","ios":"levelo://app?vid=5c53cfbd-2547-413a-b79a-f8cc3b1ca992"},"vehicle_type_id":"4","last_reported":1732356602,"current_range_meters":10800,"station_id":"ce4bhrh2rcd13ifvqhug","pricing_plan_id":"cebpf4jnsgd1na2vs0mg"},{"bike_id":"d07c3f7d-ecc3-4106-8302-3984f760ea4d","system_id":"levelo_inurba_marseille","lat":43.30218,"lon":5.39465,"is_reserved":false,"is_disabled":false,"rental_uris":{"android":"levelo://app?vid=d07c3f7d-ecc3-4106-8302-3984f760ea4d","ios":"levelo://app?vid=d07c3f7d-ecc3-4106-8302-3984f760ea4d"},"vehicle_type_id":"4","last_reported":1732356602,"current_range_meters":38400,"station_id":"ce4bh0p2rcd13ifvqd70","pricing_plan_id":"cebpf4jnsgd1na2vs0mg"},{"bike_id":"971e29a4-1532-4c01-a795-587a635c8413","system_id":"levelo_inurba_marseille","lat":43.26957,"lon":5.38633,"is_reserved":false,"is_disabled":false,"rental_uris":{"android":"levelo://app?vid=971e29a4-1532-4c01-a795-587a635c8413","ios":"levelo://app?vid=971e29a4-1532-4c01-a795-587a635c8413"},"vehicle_type_id":"4","last_reported":1732356602,"current_range_meters":23200,"station_id":"ce4bhh92rcd13ifvqfh0","pricing_plan_id":"cebpf4jnsgd1na2vs0mg"},{"bike_id":"85c01c0b-dd5c-4809-bf61-68287b12d903","system_id":"levelo_inurba_marseille","lat":43.323656,"lon":5.38897,"is_reserved":false,"is_disabled":false,"rental_uris":{"android":"levelo://app?vid=85c01c0b-dd5c-4809-bf61-68287b12d903","ios":"levelo://app?vid=85c01c0b-dd5c-4809-bf61-68287b12d903"},"vehicle_type_id":"4","last_reported":1732356602,"current_range_meters":31200,"station_id":"ce4bhqp2rcd13ifvqhog","pricing_plan_id":"cebpf4jnsgd1na2vs0mg"},{"bike_id":"b7f87af2-cd52-4384-8d26-e04d9de98ada","system_id":"levelo_inurba_marseille","lat":43.31125,"lon":5.37761,"is_reserved":false,"is_disabled":false,"rental_uris":{"android":"levelo://app?vid=b7f87af2-cd52-4384-8d26-e04d9de98ada","ios":"levelo://app?vid=b7f87af2-cd52-4384-8d26-e04d9de98ada"},"vehicle_type_id":"4","last_reported":1732356602,"current_range_meters":31200,"station_id":"ce4bgt92rcd13ifvqcg0","pricing_plan_id":"cebpf4jnsgd1na2vs0mg"},{"bike_id":"7d22169d-907d-479c-8664-ebd6dadb86ca","system_id":"levelo_inurba_marseille","lat":43.24391,"lon":5.37047,"is_reserved":false,"is_disabled":false,"rental_uris":{"android":"levelo://app?vid=7d22169d-907d-479c-8664-ebd6dadb86ca","ios":"levelo://app?vid=7d22169d-907d-479c-8664-ebd6dadb86ca"},"vehicle_type_id":"4","last_reported":1732356602,"current_range_meters":37600,"station_id":"ce4bhhh2rcd13ifvqfk0","pricing_plan_id":"cebpf4jnsgd1na2vs0mg"},{"bike_id":"5739a3b5-f327-4b24-8d9c-0078f71aa84a","system_id":"levelo_inurba_marseille","lat":43.25579,"lon":5.38242,"is_reserved":false,"is_disabled":false,"rental_uris":{"android":"levelo://app?vid=5739a3b5-f327-4b24-8d9c-0078f71aa84a","ios":"levelo://app?vid=5739a3b5-f327-4b24-8d9c-0078f71aa84a"},"vehicle_type_id":"4","last_reported":1732356602,"current_range_meters":34000,"station_id":"ce4bhih2rcd13ifvqfs0","pricing_plan_id":"cebpf4jnsgd1na2vs0mg"},{"bike_id":"37ef7934-0a76-4b57-806b-40587504b279","system_id":"levelo_inurba_marseille","lat":43.287057,"lon":5.399926,"is_reserved":false,"is_disabled":true,"rental_uris":{"android":"levelo://app?vid=37ef7934-0a76-4b57-806b-40587504b279","ios":"levelo://app?vid=37ef7934-0a76-4b57-806b-40587504b279"},"vehicle_type_id":"4","last_reported":1732356602,"current_range_meters":9600,"station_id":"ce4bho92rcd13ifvqh3g","pricing_plan_id":"cebpf4jnsgd1na2vs0mg"},{"bike_id":"56ca6b93-ca3d-4dfc-8e20-e35c24d8bd07","system_id":"levelo_inurba_marseille","lat":43.337444,"lon":5.374475,"is_reserved":false,"is_disabled":true,"rental_uris":{"android":"levelo://app?vid=56ca6b93-ca3d-4dfc-8e20-e35c24d8bd07","ios":"levelo://app?vid=56ca6b93-ca3d-4dfc-8e20-e35c24d8bd07"},"vehicle_type_id":"4","last_reported":1732356602,"current_range_meters":1600,"station_id":"","pricing_plan_id":"cebpf4jnsgd1na2vs0mg"},{"bike_id":"62100017-c228-4778-8fb1-55628752a109","system_id":"levelo_inurba_marseille","lat":43.296,"lon":5.38093,"is_reserved":false,"is_disabled":false,"rental_uris":{"android":"levelo://app?vid=62100017-c228-4778-8fb1-55628752a109","ios":"levelo://app?vid=62100017-c228-4778-8fb1-55628752a109"},"vehicle_type_id":"4","last_reported":1732356602,"current_range_meters":36400,"station_id":"ce4bgl12rcd13ifvqbo0","pricing_plan_id":"cebpf4jnsgd1na2vs0mg"},{"bike_id":"8b913213-c82c-4e11-967e-7d3c72942d7d","system_id":"levelo_inurba_marseille","lat":43.279893,"lon":5.400116,"is_reserved":false,"is_disabled":true,"rental_uris":{"android":"levelo://app?vid=8b913213-c82c-4e11-967e-7d3c72942d7d","ios":"levelo://app?vid=8b913213-c82c-4e11-967e-7d3c72942d7d"},"vehicle_type_id":"4","last_reported":1732356602,"current_range_meters":30400,"station_id":"ce4bho92rcd13ifvqh4g","pricing_plan_id":"cebpf4jnsgd1na2vs0mg"},{"bike_id":"9efab7bb-b9af-4dfb-bd79-748c30966d28","system_id":"levelo_inurba_marseille","lat":43.31757,"lon":5.39011,"is_reserved":false,"is_disabled":true,"rental_uris":{"android":"levelo://app?vid=9efab7bb-b9af-4dfb-bd79-748c30966d28","ios":"levelo://app?vid=9efab7bb-b9af-4dfb-bd79-748c30966d28"},"vehicle_type_id":"4","last_reported":1732356602,"current_range_meters":39200,"station_id":"ce4bhqp2rcd13ifvqhng","pricing_plan_id":"cebpf4jnsgd1na2vs0mg"},{"bike_id":"b9241f7d-d489-42c0-871a-6631f3408ea8","system_id":"levelo_inurba_marseille","lat":43.28409,"lon":5.37519,"is_reserved":false,"is_disabled":false,"rental_uris":{"android":"levelo://app?vid=b9241f7d-d489-42c0-871a-6631f3408ea8","ios":"levelo://app?vid=b9241f7d-d489-42c0-871a-6631f3408ea8"},"vehicle_type_id":"4","last_reported":1732356602,"current_range_meters":16400,"station_id":"ce4bh412rcd13ifvqds0","pricing_plan_id":"cebpf4jnsgd1na2vs0mg"},{"bike_id":"594f540e-403c-4bee-be2a-22e379ef7d84","system_id":"levelo_inurba_marseille","lat":43.251085,"lon":5.403335,"is_reserved":false,"is_disabled":false,"rental_uris":{"android":"levelo://app?vid=594f540e-403c-4bee-be2a-22e379ef7d84","ios":"levelo://app?vid=594f540e-403c-4bee-be2a-22e379ef7d84"},"vehicle_type_id":"4","last_reported":1732356602,"current_range_meters":22800,"station_id":"ce4bhlh2rcd13ifvqgig","pricing_plan_id":"cebpf4jnsgd1na2vs0mg"},{"bike_id":"10145440-b08b-48ae-b06a-f971d0533430","system_id":"levelo_inurba_marseille","lat":43.29011,"lon":5.35622,"is_reserved":false,"is_disabled":false,"rental_uris":{"android":"levelo://app?vid=10145440-b08b-48ae-b06a-f971d0533430","ios":"levelo://app?vid=10145440-b08b-48ae-b06a-f971d0533430"},"vehicle_type_id":"4","last_reported":1732356602,"current_range_meters":24800,"station_id":"ce4bhb92rcd13ifvqen0","pricing_plan_id":"cebpf4jnsgd1na2vs0mg"},{"bike_id":"e9fc18e1-4686-452d-b29b-bde3e9705fd0","system_id":"levelo_inurba_marseille","lat":43.24073,"lon":5.37755,"is_reserved":false,"is_disabled":false,"rental_uris":{"android":"levelo://app?vid=e9fc18e1-4686-452d-b29b-bde3e9705fd0","ios":"levelo://app?vid=e9fc18e1-4686-452d-b29b-bde3e9705fd0"},"vehicle_type_id":"4","last_reported":1732356602,"current_range_meters":11200,"station_id":"ce4bhnp2rcd13ifvqgvg","pricing_plan_id":"cebpf4jnsgd1na2vs0mg"},{"bike_id":"5dd0614d-8509-4a17-9246-efc4f3a3f829","system_id":"levelo_inurba_marseille","lat":43.30154,"lon":5.38074,"is_reserved":false,"is_disabled":false,"rental_uris":{"android":"levelo://app?vid=5dd0614d-8509-4a17-9246-efc4f3a3f829","ios":"levelo://app?vid=5dd0614d-8509-4a17-9246-efc4f3a3f829"},"vehicle_type_id":"4","last_reported":1732356602,"current_range_meters":33600,"station_id":"ce4bgjp2rcd13ifvqbh0","pricing_plan_id":"cebpf4jnsgd1na2vs0mg"},{"bike_id":"89429ed2-f839-4749-bcb9-3e5230fe3bfb","system_id":"levelo_inurba_marseille","lat":43.33723,"lon":5.39177,"is_reserved":false,"is_disabled":false,"rental_uris":{"android":"levelo://app?vid=89429ed2-f839-4749-bcb9-3e5230fe3bfb","ios":"levelo://app?vid=89429ed2-f839-4749-bcb9-3e5230fe3bfb"},"vehicle_type_id":"4","last_reported":1732356602,"current_range_meters":34000,"station_id":"ce4bhr92rcd13ifvqhsg","pricing_plan_id":"cebpf4jnsgd1na2vs0mg"},{"bike_id":"7ee0d92a-2b8a-4a28-a935-b4ff9ea817b2","system_id":"levelo_inurba_marseille","lat":43.29846,"lon":5.36275,"is_reserved":false,"is_disabled":false,"rental_uris":{"android":"levelo://app?vid=7ee0d92a-2b8a-4a28-a935-b4ff9ea817b2","ios":"levelo://app?vid=7ee0d92a-2b8a-4a28-a935-b4ff9ea817b2"},"vehicle_type_id":"4","last_reported":1732356602,"current_range_meters":28400,"station_id":"ce4bgpp2rcd13ifvqc3g","pricing_plan_id":"cebpf4jnsgd1na2vs0mg"},{"bike_id":"3dd78b4b-4521-4012-bd7b-0cca73dc3f91","system_id":"levelo_inurba_marseille","lat":43.24165,"lon":5.36395,"is_reserved":false,"is_disabled":false,"rental_uris":{"android":"levelo://app?vid=3dd78b4b-4521-4012-bd7b-0cca73dc3f91","ios":"levelo://app?vid=3dd78b4b-4521-4012-bd7b-0cca73dc3f91"},"vehicle_type_id":"4","last_reported":1732356602,"current_range_meters":28800,"station_id":"cpo36qri1sfpv3e86is0","pricing_plan_id":"cebpf4jnsgd1na2vs0mg"},{"bike_id":"f69c285f-5a57-461d-aa0c-c84a132a3d57","system_id":"levelo_inurba_marseille","lat":43.25715,"lon":5.41109,"is_reserved":false,"is_disabled":false,"rental_uris":{"android":"levelo://app?vid=f69c285f-5a57-461d-aa0c-c84a132a3d57","ios":"levelo://app?vid=f69c285f-5a57-461d-aa0c-c84a132a3d57"},"vehicle_type_id":"4","last_reported":1732356602,"current_range_meters":7200,"station_id":"ce4bhkp2rcd13ifvqgd0","pricing_plan_id":"cebpf4jnsgd1na2vs0mg"},{"bike_id":"1d0bfd23-988f-4e43-8a2b-2049fac987f7","system_id":"levelo_inurba_marseille","lat":43.26556,"lon":5.37282,"is_reserved":false,"is_disabled":false,"rental_uris":{"android":"levelo://app?vid=1d0bfd23-988f-4e43-8a2b-2049fac987f7","ios":"levelo://app?vid=1d0bfd23-988f-4e43-8a2b-2049fac987f7"},"vehicle_type_id":"4","last_reported":1732356602,"current_range_meters":34800,"station_id":"ce4bhg12rcd13ifvqf70","pricing_plan_id":"cebpf4jnsgd1na2vs0mg"},{"bike_id":"67b557bc-dd8a-4c48-bb66-79df3db76e57","system_id":"levelo_inurba_marseille","lat":43.2907,"lon":5.37157,"is_reserved":false,"is_disabled":false,"rental_uris":{"android":"levelo://app?vid=67b557bc-dd8a-4c48-bb66-79df3db76e57","ios":"levelo://app?vid=67b557bc-dd8a-4c48-bb66-79df3db76e57"},"vehicle_type_id":"4","last_reported":1732356602,"current_range_meters":36800,"station_id":"ce4bh5p2rcd13ifvqe4g","pricing_plan_id":"cebpf4jnsgd1na2vs0mg"},{"bike_id":"4937a3cb-c161-4ff8-ad5d-747586d9f27b","system_id":"levelo_inurba_marseille","lat":43.25817,"lon":5.39427,"is_reserved":false,"is_disabled":false,"rental_uris":{"android":"levelo://app?vid=4937a3cb-c161-4ff8-ad5d-747586d9f27b","ios":"levelo://app?vid=4937a3cb-c161-4ff8-ad5d-747586d9f27b"},"vehicle_type_id":"4","last_reported":1732356602,"current_range_meters":19200,"station_id":"ce4bhip2rcd13ifvqft0","pricing_plan_id":"cebpf4jnsgd1na2vs0mg"},{"bike_id":"050ff910-f189-4012-80f4-5bdec5f34eb2","system_id":"levelo_inurba_marseille","lat":43.2979,"lon":5.42662,"is_reserved":false,"is_disabled":true,"rental_uris":{"android":"levelo://app?vid=050ff910-f189-4012-80f4-5bdec5f34eb2","ios":"levelo://app?vid=050ff910-f189-4012-80f4-5bdec5f34eb2"},"vehicle_type_id":"4","last_reported":1732356602,"current_range_meters":0,"station_id":"","pricing_plan_id":"cebpf4jnsgd1na2vs0mg"},{"bike_id":"400447e1-d4e4-48e9-9d14-56df700b12e8","system_id":"levelo_inurba_marseille","lat":43.29677,"lon":5.3729,"is_reserved":false,"is_disabled":false,"rental_uris":{"android":"levelo://app?vid=400447e1-d4e4-48e9-9d14-56df700b12e8","ios":"levelo://app?vid=400447e1-d4e4-48e9-9d14-56df700b12e8"},"vehicle_type_id":"4","last_reported":1732356602,"current_range_meters":38000,"station_id":"ce4bgk12rcd13ifvqbj0","pricing_plan_id":"cebpf4jnsgd1na2vs0mg"},{"bike_id":"dd06f5aa-0054-4c09-997a-930f36cb820e","system_id":"levelo_inurba_marseille","lat":43.29176,"lon":5.37136,"is_reserved":false,"is_disabled":false,"rental_uris":{"android":"levelo://app?vid=dd06f5aa-0054-4c09-997a-930f36cb820e","ios":"levelo://app?vid=dd06f5aa-0054-4c09-997a-930f36cb820e"},"vehicle_type_id":"4","last_reported":1732356602,"current_range_meters":28400,"station_id":"ce4bha92rcd13ifvqeh0","pricing_plan_id":"cebpf4jnsgd1na2vs0mg"},{"bike_id":"7770b1cc-2a54-4d08-8255-6bed2fc397aa","system_id":"levelo_inurba_marseille","lat":43.23196,"lon":5.35557,"is_reserved":false,"is_disabled":false,"rental_uris":{"android":"levelo://app?vid=7770b1cc-2a54-4d08-8255-6bed2fc397aa","ios":"levelo://app?vid=7770b1cc-2a54-4d08-8255-6bed2fc397aa"},"vehicle_type_id":"4","last_reported":1732356602,"current_range_meters":6000,"station_id":"ce4bhu92rcd13ifvqi70","pricing_plan_id":"cebpf4jnsgd1na2vs0mg"},{"bike_id":"602cf2a4-1a06-4441-b678-3f02a988ffa5","system_id":"levelo_inurba_marseille","lat":43.27669,"lon":5.3887,"is_reserved":false,"is_disabled":false,"rental_uris":{"android":"levelo://app?vid=602cf2a4-1a06-4441-b678-3f02a988ffa5","ios":"levelo://app?vid=602cf2a4-1a06-4441-b678-3f02a988ffa5"},"vehicle_type_id":"4","last_reported":1732356602,"current_range_meters":36000,"station_id":"ce4bhi12rcd13ifvqfo0","pricing_plan_id":"cebpf4jnsgd1na2vs0mg"},{"bike_id":"577b5ce8-c8a1-4aa2-a2d4-4577b3cf7687","system_id":"levelo_inurba_marseille","lat":43.26549,"lon":5.37287,"is_reserved":false,"is_disabled":false,"rental_uris":{"android":"levelo://app?vid=577b5ce8-c8a1-4aa2-a2d4-4577b3cf7687","ios":"levelo://app?vid=577b5ce8-c8a1-4aa2-a2d4-4577b3cf7687"},"vehicle_type_id":"4","last_reported":1732356602,"current_range_meters":6800,"station_id":"ce4bhg12rcd13ifvqf70","pricing_plan_id":"cebpf4jnsgd1na2vs0mg"},