{"last_updated":1770040422,"ttl":60,"version":"2.2","data":{"bikes":[{"bike_id":"780ad082-2264-435f-ba30-af1593346a47","system_id":"levelo_inurba_marseille","lat":43.281608,"lon":5.42626,"is_reserved":false,"is_disabled":false,"rental_uris":{"android":"levelo://app?vid=780ad082-2264-435f-ba30-af1593346a47","ios":"levelo://app?vid=780ad082-2264-435f-ba30-af1593346a47"},"vehicle_type_id":"4","last_reported":1770040423,"current_range_meters":2800,"station_id":"ce4bhnh2rcd13ifvqgug","pricing_plan_id":"cebpf4jnsgd1na2vs0mg"},{"bike_id":"8718110c-117d-4379-90d8-449fa7c0ad64","system_id":"levelo_inurba_marseille","lat":43.22562,"lon":5.41624,"is_reserved":false,"is_disabled":false,"rental_uris":{"android":"levelo://app?vid=8718110c-117d-4379-90d8-449fa7c0ad64","ios":"levelo://app?vid=8718110c-117d-4379-90d8-449fa7c0ad64"},"vehicle_type_id":"4","last_reported":1770040423,"current_range_meters":2800,"station_id":"st_d2o4gvlbi1j2169b742g","pricing_plan_id":"cebpf4jnsgd1na2vs0mg"},{"bike_id":"d1c2a63e-a934-4c50-adfc-42f5f8d11fde","system_id":"levelo_inurba_marseille","lat":43.31687,"lon":5.3776,"is_reserved":false,"is_disabled":false,"rental_uris":{"android":"levelo://app?vid=d1c2a63e-a934-4c50-adfc-42f5f8d11fde","ios":"levelo://app?vid=d1c2a63e-a934-4c50-adfc-42f5f8d11fde"},"vehicle_type_id":"4","last_reported":1770040423,"current_range_meters":2800,"station_id":"ce4bgth2rcd13ifvqch0","pricing_plan_id":"cebpf4jnsgd1na2vs0mg"},{"bike_id":"bd0c6f7a-2b8b-481a-a748-72a1baa7a0d4","system_id":"levelo_inurba_marseille","lat":43.26217,"lon":5.37432,"is_reserved":false,"is_disabled":true,"rental_uris":{"android":"levelo://app?vid=bd0c6f7a-2b8b-481a-a748-72a1baa7a0d4","ios":"levelo://app?vid=bd0c6f7a-2b8b-481a-a748-72a1baa7a0d4"},"vehicle_type_id":"4","last_reported":1770040423,"current_range_meters":2800,"station_id":"ce4bhgp2rcd13ifvqfc0","pricing_plan_id":"cebpf4jnsgd1na2vs0mg"},{"bike_id":"ee906aec-cc88-4933-b2d7-4fa717d8f8e3","system_id":"levelo_inurba_marseille","lat":43.27371,"lon":5.36265,"is_reserved":false,"is_disabled":false,"rental_uris":{"android":"levelo://app?vid=ee906aec-cc88-4933-b2d7-4fa717d8f8e3","ios":"levelo://app?vid=ee906aec-cc88-4933-b2d7-4fa717d8f8e3"},"vehicle_type_id":"4","last_reported":1770040423,"current_range_meters":2800,"station_id":"ce4bhbh2rcd13ifvqeo0","pricing_plan_id":"cebpf4jnsgd1na2vs0mg"},{"bike_id":"969aaab6-4863-48ee-ae73-cff0fa90d3ee","system_id":"levelo_inurba_marseille","lat":43.312177,"lon":5.368743,"is_reserved":false,"is_disabled":false,"rental_uris":{"android":"levelo://app?vid=969aaab6-4863-48ee-ae73-cff0fa90d3ee","ios":"levelo://app?vid=969aaab6-4863-48ee-ae73-cff0fa90d3ee"},"vehicle_type_id":"4","last_reported":1770040423,"current_range_meters":2800,"station_id":"ce4bgl92rcd13ifvqbq0","pricing_plan_id":"cebpf4jnsgd1na2vs0mg"},{"bike_id":"5c753f9a-f266-4031-acdc-8ad27980a571","system_id":"levelo_inurba_marseille","lat":43.26209,"lon":5.37932,"is_reserved":false,"is_disabled":false,"rental_uris":{"android":"levelo://app?vid=5c753f9a-f266-4031-acdc-8ad27980a571","ios":"levelo://app?vid=5c753f9a-f266-4031-acdc-8ad27980a571"},"vehicle_type_id":"4","last_reported":1770040423,"current_range_meters":2800,"station_id":"ce4bhjp2rcd13ifvqg90","pricing_plan_id":"cebpf4jnsgd1na2vs0mg"},{"bike_id":"1d38c5ef-3b7f-4420-a188-9645b478f8d9","system_id":"levelo_inurba_marseille","lat":43.25572,"lon":5.38247,"is_reserved":false,"is_disabled":false,"rental_uris":{"android":"levelo://app?vid=1d38c5ef-3b7f-4420-a188-9645b478f8d9","ios":"levelo://app?vid=1d38c5ef-3b7f-4420-a188-9645b478f8d9"},"vehicle_type_id":"4","last_reported":1770040423,"current_range_meters":3200,"station_id":"ce4bhih2rcd13ifvqfs0","pricing_plan_id":"cebpf4jnsgd1na2vs0mg"},{"bike_id":"4439bd76-39b1-4169-90ae-19276fc4a8d2","system_id":"levelo_inurba_marseille","lat":43.33616,"lon":5.41032,"is_reserved":false,"is_disabled":false,"rental_uris":{"android":"levelo://app?vid=4439bd76-39b1-4169-90ae-19276fc4a8d2","ios":"levelo://app?vid=4439bd76-39b1-4169-90ae-19276fc4a8d2"},"vehicle_type_id":"4","last_reported":1770040423,"current_range_meters":3200,"station_id":"ce4bhqh2rcd13ifvqhmg","pricing_plan_id":"cebpf4jnsgd1na2vs0mg"},{"bike_id":"be7ab9e4-5622-445b-9f21-82284cb93ec1","system_id":"levelo_inurba_marseille","lat":43.26587,"lon":5.40287,"is_reserved":false,"is_disabled":true,"rental_uris":{"android":"levelo://app?vid=be7ab9e4-5622-445b-9f21-82284cb93ec1","ios":"levelo://app?vid=be7ab9e4-5622-445b-9f21-82284cb93ec1"},"vehicle_type_id":"4","last_reported":1770040423,"current_range_meters":3200,"station_id":"","pricing_plan_id":"cebpf4jnsgd1na2vs0mg"},{"bike_id":"04213df7-be1c-45ce-bf51-8b2cb7ae6140","system_id":"levelo_inurba_marseille","lat":43.24091,"lon":5.37737,"is_reserved":false,"is_disabled":false,"rental_uris":{"android":"levelo://app?vid=04213df7-be1c-45ce-bf51-8b2cb7ae6140","ios":"levelo://app?vid=04213df7-be1c-45ce-bf51-8b2cb7ae6140"},"vehicle_type_id":"4","last_reported":1770040423,"current_range_meters":3200,"station_id":"ce4bhnp2rcd13ifvqgvg","pricing_plan_id":"cebpf4jnsgd1na2vs0mg"},{"bike_id":"28449bcc-6120-470d-8caf-28ba1534bc7e","system_id":"levelo_inurba_marseille","lat":43.3121,"lon":5.36877,"is_reserved":false,"is_disabled":false,"rental_uris":{"android":"levelo://app?vid=28449bcc-6120-470d-8caf-28ba1534bc7e","ios":"levelo://app?vid=28449bcc-6120-470d-8caf-28ba1534bc7e"},"vehicle_type_id":"4","last_reported":1770040423,"current_range_meters":3200,"station_id":"ce4bgl92rcd13ifvqbq0","pricing_plan_id":"cebpf4jnsgd1na2vs0mg"},{"bike_id":"388c23eb-3651-45e4-a1cd-740c5e78994a","system_id":"levelo_inurba_marseille","lat":43.24071,"lon":5.3777,"is_reserved":false,"is_disabled":false,"rental_uris":{"android":"levelo://app?vid=388c23eb-3651-45e4-a1cd-740c5e78994a","ios":"levelo://app?vid=388c23eb-3651-45e4-a1cd-740c5e78994a"},"vehicle_type_id":"4","last_reported":1770040423,"current_range_meters":3200,"station_id":"ce4bhnp2rcd13ifvqgvg","pricing_plan_id":"cebpf4jnsgd1na2vs0mg"},{"bike_id":"906b0d7d-1d13-4963-94d1-1482c4097fac","system_id":"levelo_inurba_marseille","lat":43.28344,"lon":5.38106,"is_reserved":false,"is_disabled":false,"rental_uris":{"android":"levelo://app?vid=906b0d7d-1d13-4963-94d1-1482c4097fac","ios":"levelo://app?vid=906b0d7d-1d13-4963-94d1-1482c4097fac"},"vehicle_type_id":"4","last_reported":1770040423,"current_range_meters":3200,"station_id":"ce4bh412rcd13ifvqdr0","pricing_plan_id":"cebpf4jnsgd1na2vs0mg"},{"bike_id":"42ecb532-f5c3-4ec0-8230-24a6cd041e87","system_id":"levelo_inurba_marseille","lat":43.26564,"lon":5.40324,"is_reserved":false,"is_disabled":false,"rental_uris":{"android":"levelo://app?vid=42ecb532-f5c3-4ec0-8230-24a6cd041e87","ios":"levelo://app?vid=42ecb532-f5c3-4ec0-8230-24a6cd041e87"},"vehicle_type_id":"4","last_reported":1770040423,"current_range_meters":3200,"station_id":"ce4bhmp2rcd13ifvqgng","pricing_plan_id":"cebpf4jnsgd1na2vs0mg"},{"bike_id":"f9d88a3b-520d-4dec-94f9-4819179415a1","system_id":"levelo_inurba_marseille","lat":43.2396,"lon":5.36641,"is_reserved":false,"is_disabled":false,"rental_uris":{"android":"levelo://app?vid=f9d88a3b-520d-4dec-94f9-4819179415a1","ios":"levelo://app?vid=f9d88a3b-520d-4dec-94f9-4819179415a1"},"vehicle_type_id":"4","last_reported":1770040423,"current_range_meters":3200,"station_id":"ce4bhi12rcd13ifvqfp0","pricing_plan_id":"cebpf4jnsgd1na2vs0mg"},{"bike_id":"81cddbe1-5b72-48ed-a7a4-1031532f66af","system_id":"levelo_inurba_marseille","lat":43.24803,"lon":5.37448,"is_reserved":false,"is_disabled":false,"rental_uris":{"android":"levelo://app?vid=81cddbe1-5b72-48ed-a7a4-1031532f66af","ios":"levelo://app?vid=81cddbe1-5b72-48ed-a7a4-1031532f66af"},"vehicle_type_id":"4","last_reported":1770040423,"current_range_meters":3600,"station_id":"ce4bhgh2rcd13ifvqfb0","pricing_plan_id":"cebpf4jnsgd1na2vs0mg"},{"bike_id":"72489c9e-01d3-484c-a253-4279fe296b12","system_id":"levelo_inurba_marseille","lat":43.23193,"lon":5.35563,"is_reserved":false,"is_disabled":false,"rental_uris":{"android":"levelo://app?vid=72489c9e-01d3-484c-a253-4279fe296b12","ios":"levelo://app?vid=72489c9e-01d3-484c-a253-4279fe296b12"},"vehicle_type_id":"4","last_reported":1770040423,"current_range_meters":3600,"station_id":"ce4bhu92rcd13ifvqi70","pricing_plan_id":"cebpf4jnsgd1na2vs0mg"},{"bike_id":"8627f7e3-95b0-48aa-8d02-4dad162dfa1b","system_id":"levelo_inurba_marseille","lat":43.265496,"lon":5.372842,"is_reserved":false,"is_disabled":false,"rental_uris":{"android":"levelo://app?vid=8627f7e3-95b0-48aa-8d02-4dad162dfa1b","ios":"levelo://app?vid=8627f7e3-95b0-48aa-8d02-4dad162dfa1b"},"vehicle_type_id":"4","last_reported":1770040423,"current_range_meters":3600,"station_id":"ce4bhg12rcd13ifvqf70","pricing_plan_id":"cebpf4jnsgd1na2vs0mg"},{"bike_id":"79812d79-066c-4d3c-91f1-ee83530e917c","system_id":"levelo_inurba_marseille","lat":43.2408,"lon":5.37754,"is_reserved":false,"is_disabled":false,"rental_uris":{"android":"levelo://app?vid=79812d79-066c-4d3c-91f1-ee83530e917c","ios":"levelo://app?vid=79812d79-066c-4d3c-91f1-ee83530e917c"},"vehicle_type_id":"4","last_reported":1770040423,"current_range_meters":3600,"station_id":"ce4bhnp2rcd13ifvqgvg","pricing_plan_id":"cebpf4jnsgd1na2vs0mg"},{"bike_id":"8bf0a4a1-008f-413c-86d3-88caed95d082","system_id":"levelo_inurba_marseille","lat":43.2587,"lon":5.39901,"is_reserved":false,"is_disabled":false,"rental_uris":{"android":"levelo://app?vid=8bf0a4a1-008f-413c-86d3-88caed95d082","ios":"levelo://app?vid=8bf0a4a1-008f-413c-86d3-88caed95d082"},"vehicle_type_id":"4","last_reported":1770040423,"current_range_meters":3600,"station_id":"ce4bhl92rcd13ifvqghg","pricing_plan_id":"cebpf4jnsgd1na2vs0mg"},{"bike_id":"815932e9-3490-41c8-9f18-17529b2fcd92","system_id":"levelo_inurba_marseille","lat":43.23146,"lon":5.43721,"is_reserved":false,"is_disabled":false,"rental_uris":{"android":"levelo://app?vid=815932e9-3490-41c8-9f18-17529b2fcd92","ios":"levelo://app?vid=815932e9-3490-41c8-9f18-17529b2fcd92"},"vehicle_type_id":"4","last_reported":1770040423,"current_range_meters":3600,"station_id":"ce4bhmp2rcd13ifvqgog","pricing_plan_id":"cebpf4jnsgd1na2vs0mg"},{"bike_id":"984e4efc-c386-42ae-8b6d-40935c3f9e9d","system_id":"levelo_inurba_marseille","lat":43.30323,"lon":5.40422,"is_reserved":false,"is_disabled":false,"rental_uris":{"android":"levelo://app?vid=984e4efc-c386-42ae-8b6d-40935c3f9e9d","ios":"levelo://app?vid=984e4efc-c386-42ae-8b6d-40935c3f9e9d"},"vehicle_type_id":"4","last_reported":1770040423,"current_range_meters":3600,"station_id":"ce4bh012rcd13ifvqd10","pricing_plan_id":"cebpf4jnsgd1na2vs0mg"},{"bike_id":"fe96b3e6-31d2-4dd0-93a5-43e5f652f8f8","system_id":"levelo_inurba_marseille","lat":43.26228,"lon":5.4044,"is_reserved":false,"is_disabled":false,"rental_uris":{"android":"levelo://app?vid=fe96b3e6-31d2-4dd0-93a5-43e5f652f8f8","ios":"levelo://app?vid=fe96b3e6-31d2-4dd0-93a5-43e5f652f8f8"},"vehicle_type_id":"4","last_reported":1770040423,"current_range_meters":4000,"station_id":"ce4bhmh2rcd13ifvqgmg","pricing_plan_id":"cebpf4jnsgd1na2vs0mg"},{"bike_id":"f1d50575-fb64-4d33-9fc8-58d6bfc9abc1","system_id":"levelo_inurba_marseille","lat":43.24071,"lon":5.37766,"is_reserved":false,"is_disabled":false,"rental_uris":{"android":"levelo://app?vid=f1d50575-fb64-4d33-9fc8-58d6bfc9abc1","ios":"levelo://app?vid=f1d50575-fb64-4d33-9fc8-58d6bfc9abc1"},"vehicle_type_id":"4","last_reported":1770040423,"current_range_meters":4000,"station_id":"ce4bhnp2rcd13ifvqgvg","pricing_plan_id":"cebpf4jnsgd1na2vs0mg"},{"bike_id":"637b915d-60b9-4796-9bb5-f9845c8d4a81","system_id":"levelo_inurba_marseille","lat":43.23029,"lon":5.35501,"is_reserved":false,"is_disabled":false,"rental_uris":{"android":"levelo://app?vid=637b915d-60b9-4796-9bb5-f9845c8d4a81","ios":"levelo://app?vid=637b915d-60b9-4796-9bb5-f9845c8d4a81"},"vehicle_type_id":"4","last_reported":1770040423,"current_range_meters":4000,"station_id":"cpo3342slgdg3j2ifvpg","pricing_plan_id":"cebpf4jnsgd1na2vs0mg"},{"bike_id":"1f486a1c-75c0-4ffe-8ffc-311b7aefb900","system_id":"levelo_inurba_marseille","lat":43.2695,"lon":5.3864,"is_reserved":false,"is_disabled":false,"rental_uris":{"android":"levelo://app?vid=1f486a1c-75c0-4ffe-8ffc-311b7aefb900","ios":"levelo://app?vid=1f486a1c-75c0-4ffe-8ffc-311b7aefb900"},"vehicle_type_id":"4","last_reported":1770040423,"current_range_meters":4000,"station_id":"ce4bhh92rcd13ifvqfh0","pricing_plan_id":"cebpf4jnsgd1na2vs0mg"},{"bike_id":"d0ce876f-4532-462c-9c29-e674a02453f0","system_id":"levelo_inurba_marseille","lat":43.273773,"lon":5.362561,"is_reserved":false,"is_disabled":false,"rental_uris":{"android":"levelo://app?vid=d0ce876f-4532-462c-9c29-e674a02453f0","ios":"levelo://app?vid=d0ce876f-4532-462c-9c29-e674a02453f0"},"vehicle_type_id":"4","last_reported":1770040423,"current_range_meters":4000,"station_id":"ce4bhbh2rcd13ifvqeo0","pricing_plan_id":"cebpf4jnsgd1na2vs0mg"},{"bike_id":"3a8d9304-a8da-498b-9861-32e0da444916","system_id":"levelo_inurba_marseille","lat":43.30263,"lon":5.40053,"is_reserved":false,"is_disabled":false,"rental_uris":{"android":"levelo://app?vid=3a8d9304-a8da-498b-9861-32e0da444916","ios":"levelo://app?vid=3a8d9304-a8da-498b-9861-32e0da444916"},"vehicle_type_id":"4","last_reported":1770040423,"current_range_meters":4000,"station_id":"ce4bgvh2rcd13ifvqcs0","pricing_plan_id":"cebpf4jnsgd1na2vs0mg"},{"bike_id":"64342d69-ab30-4801-8539-fc98ba700298","system_id":"levelo_inurba_marseille","lat":43.248006,"lon":5.374518,"is_reserved":false,"is_disabled":false,"rental_uris":{"android":"levelo://app?vid=64342d69-ab30-4801-8539-fc98ba700298","ios":"levelo://app?vid=64342d69-ab30-4801-8539-fc98ba700298"},"vehicle_type_id":"4","last_reported":1770040423,"current_range_meters":4400,"station_id":"ce4bhgh2rcd13ifvqfb0","pricing_plan_id":"cebpf4jnsgd1na2vs0mg"},{"bike_id":"0398f9ac-4213-4f68-b419-f7bff731c5c6","system_id":"levelo_inurba_marseille","lat":43.33359,"lon":5.43133,"is_reserved":false,"is_disabled":false,"rental_uris":{"android":"levelo://app?vid=0398f9ac-4213-4f68-b419-f7bff731c5c6","ios":"levelo://app?vid=0398f9ac-4213-4f68-b419-f7bff731c5c6"},"vehicle_type_id":"4","last_reported":1770040423,"current_range_meters":4400,"station_id":"","pricing_plan_id":"cebpf4jnsgd1na2vs0mg"},{"bike_id":"3145bee7-9947-4048-a6c8-4a6751fb3e81","system_id":"levelo_inurba_marseille","lat":43.255112,"lon":5.376535,"is_reserved":false,"is_disabled":false,"rental_uris":{"android":"levelo://app?vid=3145bee7-9947-4048-a6c8-4a6751fb3e81","ios":"levelo://app?vid=3145bee7-9947-4048-a6c8-4a6751fb3e81"},"vehicle_type_id":"4","last_reported":1770040423,"current_range_meters":4400,"station_id":"ce4bhh12rcd13ifvqff0","pricing_plan_id":"cebpf4jnsgd1na2vs0mg"},{"bike_id":"b327d0f9-e910-4cd3-a345-f7ea449db020","system_id":"levelo_inurba_marseille","lat":43.24386,"lon":5.37102,"is_reserved":false,"is_disabled":false,"rental_uris":{"android":"levelo://app?vid=b327d0f9-e910-4cd3-a345-f7ea449db020","ios":"levelo://app?vid=b327d0f9-e910-4cd3-a345-f7ea449db020"},"vehicle_type_id":"4","last_reported":1770040423,"current_range_meters":4400,"station_id":"ce4bhhh2rcd13ifvqfk0","pricing_plan_id":"cebpf4jnsgd1na2vs0mg"},{"bike_id":"20f8dacb-5cfb-411b-aac6-04b0743b3a2b","system_id":"levelo_inurba_marseille","lat":43.25646,"lon":5.37626,"is_reserved":false,"is_disabled":false,"rental_uris":{"android":"levelo://app?vid=20f8dacb-5cfb-411b-aac6-04b0743b3a2b","ios":"levelo://app?vid=20f8dacb-5cfb-411b-aac6-04b0743b3a2b"},"vehicle_type_id":"4","last_reported":1770040423,"current_range_meters":4400,"station_id":"","pricing_plan_id":"cebpf4jnsgd1na2vs0mg"},{"bike_id":"686cba03-bde7-46d9-afd0-0bddade62cdd","system_id":"levelo_inurba_marseille","lat":43.28366,"lon":5.38635,"is_reserved":false,"is_disabled":false,"rental_uris":{"android":"levelo://app?vid=686cba03-bde7-46d9-afd0-0bddade62cdd","ios":"levelo://app?vid=686cba03-bde7-46d9-afd0-0bddade62cdd"},"vehicle_type_id":"4","last_reported":1770040423,"current_range_meters":4400,"station_id":"ce4bh492rcd13ifvqdvg","pricing_plan_id":"cebpf4jnsgd1na2vs0mg"},{"bike_id":"8dbcb872-c448-4799-82fc-c68a10ceeb1a","system_id":"levelo_inurba_marseille","lat":43.27076,"lon":5.42286,"is_reserved":false,"is_disabled":false,"rental_uris":{"android":"levelo://app?vid=8dbcb872-c448-4799-82fc-c68a10ceeb1a","ios":"levelo://app?vid=8dbcb872-c448-4799-82fc-c68a10ceeb1a"},"vehicle_type_id":"4","last_reported":1770040423,"current_range_meters":4400,"station_id":"ce4bhk92rcd13ifvqgb0","pricing_plan_id":"cebpf4jnsgd1na2vs0mg"},{"bike_id":"70aad063-ceac-4b3b-8a1d-80471a1d623b","system_id":"levelo_inurba_marseille","lat":43.23061,"lon":5.355,"is_reserved":false,"is_disabled":false,"rental_uris":{"android":"levelo://app?vid=70aad063-ceac-4b3b-8a1d-80471a1d623b","ios":"levelo://app?vid=70aad063-ceac-4b3b-8a1d-80471a1d623b"},"vehicle_type_id":"4","last_reported":1770040423,"current_range_meters":4800,"station_id":"cpo3342slgdg3j2ifvpg","pricing_plan_id":"cebpf4jnsgd1na2vs0mg"},{"bike_id":"e76b3d8e-b3d4-4100-9a39-297c53b12c01","system_id":"levelo_inurba_marseille","lat":43.29532,"lon":5.375,"is_reserved":false,"is_disabled":false,"rental_uris":{"android":"levelo://app?vid=e76b3d8e-b3d4-4100-9a39-297c53b12c01","ios":"levelo://app?vid=e76b3d8e-b3d4-4100-9a39-297c53b12c01"},"vehicle_type_id":"4","last_reported":1770040423,"current_range_meters":4800,"station_id":"ce4bgkp2rcd13ifvqbmg","pricing_plan_id":"cebpf4jnsgd1na2vs0mg"},{"bike_id":"da6fbfd9-2478-4674-aee3-488f3a8493fc","system_id":"levelo_inurba_marseille","lat":43.29265,"lon":5.38435,"is_reserved":false,"is_disabled":false,"rental_uris":{"android":"levelo://app?vid=da6fbfd9-2478-4674-aee3-488f3a8493fc","ios":"levelo://app?vid=da6fbfd9-2478-4674-aee3-488f3a8493fc"},"vehicle_type_id":"4","last_reported":1770040423,"current_range_meters":4800,"station_id":"ce4bh692rcd13ifvqea0","pricing_plan_id":"cebpf4jnsgd1na2vs0mg"},{"bike_id":"a1f01d0e-daec-4baf-acde-adf9612a1a61","system_id":"levelo_inurba_marseille","lat":43.26552,"lon":5.39021,"is_reserved":false,"is_disabled":false,"rental_uris":{"android":"levelo://app?vid=a1f01d0e-daec-4baf-acde-adf9612a1a61","ios":"levelo://app?vid=a1f01d0e-daec-4baf-acde-adf9612a1a61"},"vehicle_type_id":"4","last_reported":1770040423,"current_range_meters":4800,"station_id":"ce4bhe12rcd13ifvqf30","pricing_plan_id":"cebpf4jnsgd1na2vs0mg"},{"bike_id":"a6ab1dbd-7d2f-441a-88b2-8e2bc94dc087","system_id":"levelo_inurba_marseille","lat":43.24986,"lon":5.38961,"is_reserved":false,"is_disabled":false,"rental_uris":{"android":"levelo://app?vid=a6ab1dbd-7d2f-441a-88b2-8e2bc94dc087","ios":"levelo://app?vid=a6ab1dbd-7d2f-441a-88b2-8e2bc94dc087"},"vehicle_type_id":"4","last_reported":1770040423,"current_range_meters":4800,"station_id":"ce4bhgp2rcd13ifvqfd0","pricing_plan_id":"cebpf4jnsgd1na2vs0mg"},{"bike_id":"1f26521f-96c7-4695-a6b6-cd40543db4db","system_id":"levelo_inurba_marseille","lat":43.24021,"lon":5.37789,"is_reserved":false,"is_disabled":true,"rental_uris":{"android":"levelo://app?vid=1f26521f-96c7-4695-a6b6-cd40543db4db","ios":"levelo://app?vid=1f26521f-96c7-4695-a6b6-cd40543db4db"},"vehicle_type_id":"4","last_reported":1770040423,"current_range_meters":4800,"station_id":"ce4bhnp2rcd13ifvqgvg","pricing_plan_id":"cebpf4jnsgd1na2vs0mg"},{"bike_id":"add23a6e-2cb1-4e17-b5cd-55749b066478","system_id":"levelo_inurba_marseille","lat":43.30534,"lon":5.36531,"is_reserved":false,"is_disabled":false,"rental_uris":{"android":"levelo://app?vid=add23a6e-2cb1-4e17-b5cd-55749b066478","ios":"levelo://app?vid=add23a6e-2cb1-4e17-b5cd-55749b066478"},"vehicle_type_id":"4","last_reported":1770040423,"current_range_meters":4800,"station_id":"ce4bgs12rcd13ifvqcag","pricing_plan_id":"cebpf4jnsgd1na2vs0mg"},{"bike_id":"b1a30502-6152-4500-ad1b-fb5cab24c42c","system_id":"levelo_inurba_marseille","lat":43.2885,"lon":5.35852,"is_reserved":false,"is_disabled":false,"rental_uris":{"android":"levelo://app?vid=b1a30502-6152-4500-ad1b-fb5cab24c42c","ios":"levelo://app?vid=b1a30502-6152-4500-ad1b-fb5cab24c42c"},"vehicle_type_id":"4","last_reported":1770040423,"current_range_meters":4800,"station_id":"ce4bhb12rcd13ifvqem0","pricing_plan_id":"cebpf4jnsgd1na2vs0mg"},{"bike_id":"376232b5-fd9d-4a27-a8c8-b8a78b760878","system_id":"levelo_inurba_marseille","lat":43.24171,"lon":5.39734,"is_reserved":false,"is_disabled":false,"rental_uris":{"android":"levelo://app?vid=376232b5-fd9d-4a27-a8c8-b8a78b760878","ios":"levelo://app?vid=376232b5-fd9d-4a27-a8c8-b8a78b760878"},"vehicle_type_id":"4","last_reported":1770040423,"current_range_meters":5600,"station_id":"ce4bhn12rcd13ifvqgpg","pricing_plan_id":"cebpf4jnsgd1na2vs0mg"},{"bike_id":"61d232a6-c72b-43f7-8d84-c786e5f463d1","system_id":"levelo_inurba_marseille","lat":43.25946,"lon":5.40886,"is_reserved":false,"is_disabled":false,"rental_uris":{"android":"levelo://app?vid=61d232a6-c72b-43f7-8d84-c786e5f463d1","ios":"levelo://app?vid=61d232a6-c72b-43f7-8d84-c786e5f463d1"},"vehicle_type_id":"4","last_reported":1770040423,"current_range_meters":5600,"station_id":"ce4bhm92rcd13ifvqglg","pricing_plan_id":"cebpf4jnsgd1na2vs0mg"},{"bike_id":"f92823b8-4fef-4833-b634-08b82223de18","system_id":"levelo_inurba_marseille","lat":43.23174,"lon":5.40004,"is_reserved":false,"is_disabled":false,"rental_uris":{"android":"levelo://app?vid=f92823b8-4fef-4833-b634-08b82223de18","ios":"levelo://app?vid=f92823b8-4fef-4833-b634-08b82223de18"},"vehicle_type_id":"4","last_reported":1770040423,"current_range_meters":5600,"station_id":"ce4bhn12rcd13ifvqgqg","pricing_plan_id":"cebpf4jnsgd1na2vs0mg"},{"bike_id":"28bfa2f4-2006-455b-869d-ecfd9de41a93","system_id":"levelo_inurba_marseille","lat":43.25513,"lon":5.37614,"is_reserved":false,"is_disabled":false,"rental_uris":{"android":"levelo://app?vid=28bfa2f4-2006-455b-869d-ecfd9de41a93","ios":"levelo://app?vid=28bfa2f4-2006-455b-869d-ecfd9de41a93"},"vehicle_type_id":"4","last_reported":1770040423,"current_range_meters":5600,"station_id":"ce4bhh12rcd13ifvqff0","pricing_plan_id":"cebpf4jnsgd1na2vs0mg"},{"bike_id":"c08fb5ce-410b-4e3b-bd2b-37b604cc356e","system_id":"levelo_inurba_marseille","lat":43.309327,"lon":5.401364,"is_reserved":false,"is_disabled":false,"rental_uris":{"android":"levelo://app?vid=c08fb5ce-410b-4e3b-bd2b-37b604cc356e","ios":"levelo://app?vid=c08fb5ce-410b-4e3b-bd2b-37b604cc356e"},"vehicle_type_id":"4","last_reported":1770040423,"current_range_meters":5600,"station_id":"","pricing_plan_id":"cebpf4jnsgd1na2vs0mg"},{"bike_id":"e96133eb-f771-40b1-ae3b-574adab8fad6","system_id":"levelo_inurba_marseille","lat":43.27983,"lon":5.40008,"is_reserved":false,"is_disabled":false,"rental_uris":{"android":"levelo://app?vid=e96133eb-f771-40b1-ae3b-574adab8fad6","ios":"levelo://app?vid=e96133eb-f771-40b1-ae3b-574adab8fad6"},"vehicle_type_id":"4","last_reported":1770040423,"current_range_meters":5600,"station_id":"ce4bho92rcd13ifvqh4g","pricing_plan_id":"cebpf4jnsgd1na2vs0mg"},{"bike_id":"25d0f7fe-41f8-46bf-baa3-e8549fe6ba7b","system_id":"levelo_inurba_marseille","lat":43.28199,"lon":5.39049,"is_reserved":false,"is_disabled":false,"rental_uris":{"android":"levelo://app?vid=25d0f7fe-41f8-46bf-baa3-e8549fe6ba7b","ios":"levelo://app?vid=25d0f7fe-41f8-46bf-baa3-e8549fe6ba7b"},"vehicle_type_id":"4","last_reported":1770040423,"current_range_meters":5600,"station_id":"ce4bhn92rcd13ifvqgsg","pricing_plan_id":"cebpf4jnsgd1na2vs0mg"},{"bike_id":"90571ef0-791e-4871-aeb5-858fb1e1086c","system_id":"levelo_inurba_marseille","lat":43.2861,"lon":5.39876,"is_reserved":false,"is_disabled":false,"rental_uris":{"android":"levelo://app?vid=90571ef0-791e-4871-aeb5-858fb1e1086c","ios":"levelo://app?vid=90571ef0-791e-4871-aeb5-858fb1e1086c"},"vehicle_type_id":"4","last_reported":1770040423,"current_range_meters":5600,"station_id":"st_d4a7ka997mjs738ck50g","pricing_plan_id":"cebpf4jnsgd1na2vs0mg"},{"bike_id":"15e6d019-3403-4dba-a8b7-1ced23eb3314","system_id":"levelo_inurba_marseille","lat":43.30149,"lon":5.38071,"is_reserved":false,"is_disabled":false,"rental_uris":{"android":"levelo://app?vid=15e6d019-3403-4dba-a8b7-1ced23eb3314","ios":"levelo://app?vid=15e6d019-3403-4dba-a8b7-1ced23eb3314"},"vehicle_type_id":"4","last_reported":1770040423,"current_range_meters":5600,"station_id":"ce4bgjp2rcd13ifvqbh0","pricing_plan_id":"cebpf4jnsgd1na2vs0mg"},{"bike_id":"11a4253c-c87d-43fc-b4fa-6f18163ba935","system_id":"levelo_inurba_marseille","lat":43.28488,"lon":5.48389,"is_reserved":false,"is_disabled":false,"rental_uris":{"android":"levelo://app?vid=11a4253c-c87d-43fc-b4fa-6f18163ba935","ios":"levelo://app?vid=11a4253c-c87d-43fc-b4fa-6f18163ba935"},"vehicle_type_id":"4","last_reported":1770040423,"current_range_meters":5600,"station_id":"st_d3svhcjqgbts73a3dn0g","pricing_plan_id":"cebpf4jnsgd1na2vs0mg"},{"bike_id":"caec583a-6768-49bf-a58a-63877e3b3870","system_id":"levelo_inurba_marseille","lat":43.2408,"lon":5.36379,"is_reserved":false,"is_disabled":false,"rental_uris":{"android":"levelo://app?vid=caec583a-6768-49bf-a58a-63877e3b3870","ios":"levelo://app?vid=caec583a-6768-49bf-a58a-63877e3b3870"},"vehicle_type_id":"4","last_reported":1770040423,"current_range_meters":6000,"station_id":"","pricing_plan_id":"cebpf4jnsgd1na2vs0mg"},{"bike_id":"5a35c11b-d6ee-46a6-aea3-b3c58bc3ce92","system_id":"levelo_inurba_marseille","lat":43.331615,"lon":5.376902,"is_reserved":false,"is_disabled":false,"rental_uris":{"android":"levelo://app?vid=5a35c11b-d6ee-46a6-aea3-b3c58bc3ce92","ios":"levelo://app?vid=5a35c11b-d6ee-46a6-aea3-b3c58bc3ce92"},"vehicle_type_id":"4","last_reported":1770040423,"current_range_meters":6000,"station_id":"st_d46cu089ee8s73dldbu0","pricing_plan_id":"cebpf4jnsgd1na2vs0mg"},{"bike_id":"f9dfcac1-eeee-44a9-84ce-d1427d4e1c1f","system_id":"levelo_inurba_marseille","lat":43.26778,"lon":5.3941,"is_reserved":false,"is_disabled":false,"rental_uris":{"android":"levelo://app?vid=f9dfcac1-eeee-44a9-84ce-d1427d4e1c1f","ios":"levelo://app?vid=f9dfcac1-eeee-44a9-84ce-d1427d4e1c1f"},"vehicle_type_id":"4","last_reported":1770040423,"current_range_meters":6000,"station_id":"ce4bhh12rcd13ifvqfg0","pricing_plan_id":"cebpf4jnsgd1na2vs0mg"},{"bike_id":"ae356d66-7cb8-4ba5-82bc-bb4594e60975","system_id":"levelo_inurba_marseille","lat":43.23153,"lon":5.43719,"is_reserved":false,"is_disabled":false,"rental_uris":{"android":"levelo://app?vid=ae356d66-7cb8-4ba5-82bc-bb4594e60975","ios":"levelo://app?vid=ae356d66-7cb8-4ba5-82bc-bb4594e60975"},"vehicle_type_id":"4","last_reported":1770040423,"current_range_meters":6000,"station_id":"ce4bhmp2rcd13ifvqgog","pricing_plan_id":"cebpf4jnsgd1na2vs0mg"},{"bike_id":"0c37f209-4da2-456d-badb-27f46c6c7d3c","system_id":"levelo_inurba_marseille","lat":43.3032,"lon":5.36876,"is_reserved":false,"is_disabled":false,"rental_uris":{"android":"levelo://app?vid=0c37f209-4da2-456d-badb-27f46c6c7d3c","ios":"levelo://app?vid=0c37f209-4da2-456d-badb-27f46c6c7d3c"},"vehicle_type_id":"4","last_reported":1770040423,"current_range_meters":6000,"station_id":"ce4bgqh2rcd13ifvqc5g","pricing_plan_id":"cebpf4jnsgd1na2vs0mg"},{"bike_id":"0830e9a7-a744-43b1-8872-2a8033326e31","system_id":"levelo_inurba_marseille","lat":43.24077,"lon":5.37755,"is_reserved":false,"is_disabled":false,"rental_uris":{"android":"levelo://app?vid=0830e9a7-a744-43b1-8872-2a8033326e31","ios":"levelo://app?vid=0830e9a7-a744-43b1-8872-2a8033326e31"},"vehicle_type_id":"4","last_reported":1770040423,"current_range_meters":6400,"station_id":"ce4bhnp2rcd13ifvqgvg","pricing_plan_id":"cebpf4jnsgd1na2vs0mg"},{"bike_id":"7e8ce13a-d5d2-43d6-b821-ba3c9c440f78","system_id":"levelo_inurba_marseille","lat":43.31353,"lon":5.36725,"is_reserved":false,"is_disabled":false,"rental_uris":{"android":"levelo://app?vid=7e8ce13a-d5d2-43d6-b821-ba3c9c440f78","ios":"levelo://app?vid=7e8ce13a-d5d2-43d6-b821-ba3c9c440f78"},"vehicle_type_id":"4","last_reported":1770040423,"current_range_meters":6400,"station_id":"ce4bgr92rcd13ifvqc6g","pricing_plan_id":"cebpf4jnsgd1na2vs0mg"},{"bike_id":"85428305-1bb4-473c-8f99-d0d3438a6dfd","system_id":"levelo_inurba_marseille","lat":43.24068,"lon":5.3776,"is_reserved":false,"is_disabled":false,"rental_uris":{"android":"levelo://app?vid=85428305-1bb4-473c-8f99-d0d3438a6dfd","ios":"levelo://app?vid=85428305-1bb4-473c-8f99-d0d3438a6dfd"},"vehicle_type_id":"4","last_reported":1770040423,"current_range_meters":6400,"station_id":"ce4bhnp2rcd13ifvqgvg","pricing_plan_id":"cebpf4jnsgd1na2vs0mg"},{"bike_id":"33cfd768-2ed8-4c90-a060-322f7c560d2a","system_id":"levelo_inurba_marseille","lat":43.24831,"lon":5.38475,"is_reserved":false,"is_disabled":false,"rental_uris":{"android":"levelo://app?vid=33cfd768-2ed8-4c90-a060-322f7c560d2a","ios":"levelo://app?vid=33cfd768-2ed8-4c90-a060-322f7c560d2a"},"vehicle_type_id":"4","last_reported":1770040423,"current_range_meters":6400,"station_id":"","pricing_plan_id":"cebpf4jnsgd1na2vs0mg"},{"bike_id":"3b2a0495-d056-4726-ad48-0a57214f6b42","system_id":"levelo_inurba_marseille","lat":43.312043,"lon":5.368431,"is_reserved":false,"is_disabled":false,"rental_uris":{"android":"levelo://app?vid=3b2a0495-d056-4726-ad48-0a57214f6b42","ios":"levelo://app?vid=3b2a0495-d056-4726-ad48-0a57214f6b42"},"vehicle_type_id":"4","last_reported":1770040423,"current_range_meters":6400,"station_id":"ce4bgl92rcd13ifvqbq0","pricing_plan_id":"cebpf4jnsgd1na2vs0mg"},{"bike_id":"ba3bb0ae-6d0b-465d-9918-abbd509ada18","system_id":"levelo_inurba_marseille","lat":43.29804,"lon":5.38075,"is_reserved":false,"is_disabled":false,"rental_uris":{"android":"levelo://app?vid=ba3bb0ae-6d0b-465d-9918-abbd509ada18","ios":"levelo://app?vid=ba3bb0ae-6d0b-465d-9918-abbd509ada18"},"vehicle_type_id":"4","last_reported":1770040423,"current_range_meters":6400,"station_id":"ce4bgip2rcd13ifvqbb0","pricing_plan_id":"cebpf4jnsgd1na2vs0mg"},{"bike_id":"e22e1f26-0b48-4184-a7ce-d50ac63de7a5","system_id":"levelo_inurba_marseille","lat":43.22566,"lon":5.41599,"is_reserved":false,"is_disabled":false,"rental_uris":{"android":"levelo://app?vid=e22e1f26-0b48-4184-a7ce-d50ac63de7a5","ios":"levelo://app?vid=e22e1f26-0b48-4184-a7ce-d50ac63de7a5"},"vehicle_type_id":"4","last_reported":1770040423,"current_range_meters":6400,"station_id":"st_d2o4gvlbi1j2169b742g","pricing_plan_id":"cebpf4jnsgd1na2vs0mg"},{"bike_id":"e25162d3-4d5d-419d-b20d-2ec1bcdee6fb","system_id":"levelo_inurba_marseille","lat":43.310591,"lon":5.371811,"is_reserved":false,"is_disabled":false,"rental_uris":{"android":"levelo://app?vid=e25162d3-4d5d-419d-b20d-2ec1bcdee6fb","ios":"levelo://app?vid=e25162d3-4d5d-419d-b20d-2ec1bcdee6fb"},"vehicle_type_id":"4","last_reported":1770040423,"current_range_meters":6400,"station_id":"st_d4kl2rp97mjs73e7tdfg","pricing_plan_id":"cebpf4jnsgd1na2vs0mg"},{"bike_id":"8cb17e9d-6956-4db9-870e-851f50514412","system_id":"levelo_inurba_marseille","lat":43.32092,"lon":5.36761,"is_reserved":false,"is_disabled":false,"rental_uris":{"android":"levelo://app?vid=8cb17e9d-6956-4db9-870e-851f50514412","ios":"levelo://app?vid=8cb17e9d-6956-4db9-870e-851f50514412"},"vehicle_type_id":"4","last_reported":1770040423,"current_range_meters":6400,"station_id":"ce4bhrh2rcd13ifvqhug","pricing_plan_id":"cebpf4jnsgd1na2vs0mg"},{"bike_id":"56a4d0be-bbc8-4231-9fe6-eff4b0a1d827","system_id":"levelo_inurba_marseille","lat":43.27192,"lon":5.39196,"is_reserved":false,"is_disabled":false,"rental_uris":{"android":"levelo://app?vid=56a4d0be-bbc8-4231-9fe6-eff4b0a1d827","ios":"levelo://app?vid=56a4d0be-bbc8-4231-9fe6-eff4b0a1d827"},"vehicle_type_id":"4","last_reported":1770040423,"current_range_meters":6400,"station_id":"ce4bhhp2rcd13ifvqfm0","pricing_plan_id":"cebpf4jnsgd1na2vs0mg"},{"bike_id":"56421f3f-ab50-4688-9d91-461a5a4dc039","system_id":"levelo_inurba_marseille","lat":43.29946,"lon":5.36514,"is_reserved":false,"is_disabled":false,"rental_uris":{"android":"levelo://app?vid=56421f3f-ab50-4688-9d91-461a5a4dc039","ios":"levelo://app?vid=56421f3f-ab50-4688-9d91-461a5a4dc039"},"vehicle_type_id":"4","last_reported":1770040423,"current_range_meters":6400,"station_id":"ce4bgm92rcd13ifvqbr0","pricing_plan_id":"cebpf4jnsgd1na2vs0mg"},{"bike_id":"dc8b8f8d-3b68-40cb-9565-8f7614c37d7f","system_id":"levelo_inurba_marseille","lat":43.255774,"lon":5.382299,"is_reserved":false,"is_disabled":false,"rental_uris":{"android":"levelo://app?vid=dc8b8f8d-3b68-40cb-9565-8f7614c37d7f","ios":"levelo://app?vid=dc8b8f8d-3b68-40cb-9565-8f7614c37d7f"},"vehicle_type_id":"4","last_reported":1770040423,"current_range_meters":6400,"station_id":"ce4bhih2rcd13ifvqfs0","pricing_plan_id":"cebpf4jnsgd1na2vs0mg"},{"bike_id":"424d0d3d-de1c-4125-82ac-0faa3cd4c48d","system_id":"levelo_inurba_marseille","lat":43.30881,"lon":5.37144,"is_reserved":false,"is_disabled":false,"rental_uris":{"android":"levelo://app?vid=424d0d3d-de1c-4125-82ac-0faa3cd4c48d","ios":"levelo://app?vid=424d0d3d-de1c-4125-82ac-0faa3cd4c48d"},"vehicle_type_id":"4","last_reported":1770040423,"current_range_meters":6400,"station_id":"ce4bguh2rcd13ifvqckg","pricing_plan_id":"cebpf4jnsgd1na2vs0mg"},{"bike_id":"cbe5f632-f95e-4ffb-9f92-e743ffab6e3e","system_id":"levelo_inurba_marseille","lat":43.28874,"lon":5.42515,"is_reserved":false,"is_disabled":false,"rental_uris":{"android":"levelo://app?vid=cbe5f632-f95e-4ffb-9f92-e743ffab6e3e","ios":"levelo://app?vid=cbe5f632-f95e-4ffb-9f92-e743ffab6e3e"},"vehicle_type_id":"4","last_reported":1770040423,"current_range_meters":6400,"station_id":"st_d3b462108ojc7389ooeg","pricing_plan_id":"cebpf4jnsgd1na2vs0mg"},{"bike_id":"ea661064-3ae5-4d6b-a32a-51c2bc3bcb30","system_id":"levelo_inurba_marseille","lat":43.32487,"lon":5.38298,"is_reserved":false,"is_disabled":false,"rental_uris":{"android":"levelo://app?vid=ea661064-3ae5-4d6b-a32a-51c2bc3bcb30","ios":"levelo://app?vid=ea661064-3ae5-4d6b-a32a-51c2bc3bcb30"},"vehicle_type_id":"4","last_reported":1770040423,"current_range_meters":6800,"station_id":"st_d4asgbiv49dc73anf9m0","pricing_plan_id":"cebpf4jnsgd1na2vs0mg"},{"bike_id":"6dcbafdd-a1b9-4d04-af91-285dc70eef9b","system_id":"levelo_inurba_marseille","lat":43.21743,"lon":5.34599,"is_reserved":false,"is_disabled":false,"rental_uris":{"android":"levelo://app?vid=6dcbafdd-a1b9-4d04-af91-285dc70eef9b","ios":"levelo://app?vid=6dcbafdd-a1b9-4d04-af91-285dc70eef9b"},"vehicle_type_id":"4","last_reported":1770040423,"current_range_meters":6800,"station_id":"","pricing_plan_id":"cebpf4jnsgd1na2vs0mg"},{"bike_id":"e9a8ad83-a2d5-4795-8073-fda176633ed6","system_id":"levelo_inurba_marseille","lat":43.26688,"lon":5.38278,"is_reserved":false,"is_disabled":false,"rental_uris":{"android":"levelo://app?vid=e9a8ad83-a2d5-4795-8073-fda176633ed6","ios":"levelo://app?vid=e9a8ad83-a2d5-4795-8073-fda176633ed6"},"vehicle_type_id":"4","last_reported":1770040423,"current_range_meters":6800,"station_id":"ce4bhg92rcd13ifvqf90","pricing_plan_id":"cebpf4jnsgd1na2vs0mg"},{"bike_id":"bc369e37-0db9-4f5e-8ed7-8d614542a8dc","system_id":"levelo_inurba_marseille","lat":43.24068,"lon":5.37742,"is_reserved":false,"is_disabled":false,"rental_uris":{"android":"levelo://app?vid=bc369e37-0db9-4f5e-8ed7-8d614542a8dc","ios":"levelo://app?vid=bc369e37-0db9-4f5e-8ed7-8d614542a8dc"},"vehicle_type_id":"4","last_reported":1770040423,"current_range_meters":6800,"station_id":"ce4bhnp2rcd13ifvqgvg","pricing_plan_id":"cebpf4jnsgd1na2vs0mg"},{"bike_id":"886d4339-cd62-4942-9dfe-c188edbba93b","system_id":"levelo_inurba_marseille","lat":43.30102,"lon":5.37322,"is_reserved":false,"is_disabled":false,"rental_uris":{"android":"levelo://app?vid=886d4339-cd62-4942-9dfe-c188edbba93b","ios":"levelo://app?vid=886d4339-cd62-4942-9dfe-c188edbba93b"},"vehicle_type_id":"4","last_reported":1770040423,"current_range_meters":6800,"station_id":"","pricing_plan_id":"cebpf4jnsgd1na2vs0mg"},{"bike_id":"ccb5d46a-ecff-465a-9ac7-27ecb353316f","system_id":"levelo_inurba_marseille","lat":43.30527,"lon":5.36541,"is_reserved":false,"is_disabled":false,"rental_uris":{"android":"levelo://app?vid=ccb5d46a-ecff-465a-9ac7-27ecb353316f","ios":"levelo://app?vid=ccb5d46a-ecff-465a-9ac7-27ecb353316f"},"vehicle_type_id":"4","last_reported":1770040423,"current_range_meters":6800,"station_id":"ce4bgs12rcd13ifvqcag","pricing_plan_id":"cebpf4jnsgd1na2vs0mg"},{"bike_id":"da5d36b5-17e7-4fdc-8dff-f0cf1edd336f","system_id":"levelo_inurba_marseille","lat":43.29253,"lon":5.36869,"is_reserved":false,"is_disabled":false,"rental_uris":{"android":"levelo://app?vid=da5d36b5-17e7-4fdc-8dff-f0cf1edd336f","ios":"levelo://app?vid=da5d36b5-17e7-4fdc-8dff-f0cf1edd336f"},"vehicle_type_id":"4","last_reported":1770040423,"current_range_meters":6800,"station_id":"ce4bhbp2rcd13ifvqesg","pricing_plan_id":"cebpf4jnsgd1na2vs0mg"},{"bike_id":"437958b3-1fc1-421f-a410-c2cb6fec2333","system_id":"levelo_inurba_marseille","lat":43.24817,"lon":5.37459,"is_reserved":false,"is_disabled":false,"rental_uris":{"android":"levelo://app?vid=437958b3-1fc1-421f-a410-c2cb6fec2333","ios":"levelo://app?vid=437958b3-1fc1-421f-a410-c2cb6fec2333"},"vehicle_type_id":"4","last_reported":1770040423,"current_range_meters":6800,"station_id":"ce4bhgh2rcd13ifvqfb0","pricing_plan_id":"cebpf4jnsgd1na2vs0mg"},{"bike_id":"fda17309-67c6-493d-a11a-fed18f5561b2","system_id":"levelo_inurba_marseille","lat":43.25016,"lon":5.38912,"is_reserved":false,"is_disabled":false,"rental_uris":{"android":"levelo://app?vid=fda17309-67c6-493d-a11a-fed18f5561b2","ios":"levelo://app?vid=fda17309-67c6-493d-a11a-fed18f5561b2"},"vehicle_type_id":"4","last_reported":1770040423,"current_range_meters":6800,"station_id":"ce4bhgp2rcd13ifvqfd0","pricing_plan_id":"cebpf4jnsgd1na2vs0mg"},{"bike_id":"b4873a82-2f32-41d8-8437-9c51d0a41162","system_id":"levelo_inurba_marseille","lat":43.29604,"lon":5.37726,"is_reserved":false,"is_disabled":false,"rental_uris":{"android":"levelo://app?vid=b4873a82-2f32-41d8-8437-9c51d0a41162","ios":"levelo://app?vid=b4873a82-2f32-41d8-8437-9c51d0a41162"},"vehicle_type_id":"4","last_reported":1770040423,"current_range_meters":6800,"station_id":"ce4bgi92rcd13ifvqb90","pricing_plan_id":"cebpf4jnsgd1na2vs0mg"},{"bike_id":"efce2137-b0be-4054-a267-e94b648d99d2","system_id":"levelo_inurba_marseille","lat":43.25035,"lon":5.38909,"is_reserved":false,"is_disabled":false,"rental_uris":{"android":"levelo://app?vid=efce2137-b0be-4054-a267-e94b648d99d2","ios":"levelo://app?vid=efce2137-b0be-4054-a267-e94b648d99d2"},"vehicle_type_id":"4","last_reported":1770040423,"current_range_meters":6800,"station_id":"ce4bhgp2rcd13ifvqfd0","pricing_plan_id":"cebpf4jnsgd1na2vs0mg"},{"bike_id":"1ff141c8-70ed-430e-a2ad-3da9ebd8d3d1","system_id":"levelo_inurba_marseille","lat":43.2953,"lon":5.38547,"is_reserved":false,"is_disabled":false,"rental_uris":{"android":"levelo://app?vid=1ff141c8-70ed-430e-a2ad-3da9ebd8d3d1","ios":"levelo://app?vid=1ff141c8-70ed-430e-a2ad-3da9ebd8d3d1"},"vehicle_type_id":"4","last_reported":1770040423,"current_range_meters":6800,"station_id":"ce4bgih2rcd13ifvqba0","pricing_plan_id":"cebpf4jnsgd1na2vs0mg"},{"bike_id":"966a8ff8-5a79-46f0-8f3c-c2d11ddde5d2","system_id":"levelo_inurba_marseille","lat":43.27378,"lon":5.36261,"is_reserved":false,"is_disabled":false,"rental_uris":{"android":"levelo://app?vid=966a8ff8-5a79-46f0-8f3c-c2d11ddde5d2","ios":"levelo://app?vid=966a8ff8-5a79-46f0-8f3c-c2d11ddde5d2"},"vehicle_type_id":"4","last_reported":1770040423,"current_range_meters":7200,"station_id":"ce4bhbh2rcd13ifvqeo0","pricing_plan_id":"cebpf4jnsgd1na2vs0mg"},{"bike_id":"325d9984-4029-4d00-8c76-8002734e01d5","system_id":"levelo_inurba_marseille","lat":43.28035,"lon":5.36943,"is_reserved":false,"is_disabled":true,"rental_uris":{"android":"levelo://app?vid=325d9984-4029-4d00-8c76-8002734e01d5","ios":"levelo://app?vid=325d9984-4029-4d00-8c76-8002734e01d5"},"vehicle_type_id":"4","last_reported":1770040423,"current_range_meters":7200,"station_id":"ce4bha12rcd13ifvqef0","pricing_plan_id":"cebpf4jnsgd1na2vs0mg"},{"bike_id":"81675ce0-40e0-484f-b5d0-d332c2114be4","system_id":"levelo_inurba_marseille","lat":43.26775,"lon":5.39424,"is_reserved":false,"is_disabled":false,"rental_uris":{"android":"levelo://app?vid=81675ce0-40e0-484f-b5d0-d332c2114be4","ios":"levelo://app?vid=81675ce0-40e0-484f-b5d0-d332c2114be4"},"vehicle_type_id":"4","last_reported":1770040423,"current_range_meters":7200,"station_id":"ce4bhh12rcd13ifvqfg0","pricing_plan_id":"cebpf4jnsgd1na2vs0mg"},{"bike_id":"0b29bd96-af36-409b-85f4-994b381fba73","system_id":"levelo_inurba_marseille","lat":43.29896,"lon":5.38397,"is_reserved":false,"is_disabled":false,"rental_uris":{"android":"levelo://app?vid=0b29bd96-af36-409b-85f4-994b381fba73","ios":"levelo://app?vid=0b29bd96-af36-409b-85f4-994b381fba73"},"vehicle_type_id":"4","last_reported":1770040423,"current_range_meters":7200,"station_id":"","pricing_plan_id":"cebpf4jnsgd1na2vs0mg"},{"bike_id":"498925b7-5c1b-4bf1-a053-60e9a71a743b","system_id":"levelo_inurba_marseille","lat":43.29532,"lon":5.37524,"is_reserved":false,"is_disabled":false,"rental_uris":{"android":"levelo://app?vid=498925b7-5c1b-4bf1-a053-60e9a71a743b","ios":"levelo://app?vid=498925b7-5c1b-4bf1-a053-60e9a71a743b"},"vehicle_type_id":"4","last_reported":1770040423,"current_range_meters":7200,"station_id":"ce4bgkp2rcd13ifvqbmg","pricing_plan_id":"cebpf4jnsgd1na2vs0mg"},{"bike_id":"413b8a77-1046-4771-925d-47277f3fd485","system_id":"levelo_inurba_marseille","lat":43.301065,"lon":5.390804,"is_reserved":false,"is_disabled":false,"rental_uris":{"android":"levelo://app?vid=413b8a77-1046-4771-925d-47277f3fd485","ios":"levelo://app?vid=413b8a77-1046-4771-925d-47277f3fd485"},"vehicle_type_id":"4","last_reported":1770040423,"current_range_meters":7200,"station_id":"ce4bh192rcd13ifvqdb0","pricing_plan_id":"cebpf4jnsgd1na2vs0mg"},{"bike_id":"a408d5d2-5427-46e8-87f7-6b2377b7fcd5","system_id":"levelo_inurba_marseille","lat":43.25925,"lon":5.40903,"is_reserved":false,"is_disabled":false,"rental_uris":{"android":"levelo://app?vid=a408d5d2-5427-46e8-87f7-6b2377b7fcd5","ios":"levelo://app?vid=a408d5d2-5427-46e8-87f7-6b2377b7fcd5"},"vehicle_type_id":"4","last_reported":1770040423,"current_range_meters":7200,"station_id":"ce4bhm92rcd13ifvqglg","pricing_plan_id":"cebpf4jnsgd1na2vs0mg"},{"bike_id":"7e7cded1-d7df-4b4d-9ff3-49738118bd9d","system_id":"levelo_inurba_marseille","lat":43.253366,"lon":5.4217,"is_reserved":false,"is_disabled":false,"rental_uris":{"android":"levelo://app?vid=7e7cded1-d7df-4b4d-9ff3-49738118bd9d","ios":"levelo://app?vid=7e7cded1-d7df-4b4d-9ff3-49738118bd9d"},"vehicle_type_id":"4","last_reported":1770040423,"current_range_meters":7200,"station_id":"st_d2m65c5bi1j21697t3ng","pricing_plan_id":"cebpf4jnsgd1na2vs0mg"},{"bike_id":"ccd35117-377c-4d30-8b61-f0f5e1a94688","system_id":"levelo_inurba_marseille","lat":43.293117,"lon":5.374503,"is_reserved":false,"is_disabled":false,"rental_uris":{"android":"levelo://app?vid=ccd35117-377c-4d30-8b61-f0f5e1a94688","ios":"levelo://app?vid=ccd35117-377c-4d30-8b61-f0f5e1a94688"},"vehicle_type_id":"4","last_reported":1770040423,"current_range_meters":7200,"station_id":"","pricing_plan_id":"cebpf4jnsgd1na2vs0mg"},{"bike_id":"04b51904-c5b4-44cd-8294-eb71740e98db","system_id":"levelo_inurba_marseille","lat":43.26967,"lon":5.38607,"is_reserved":false,"is_disabled":false,"rental_uris":{"android":"levelo://app?vid=04b51904-c5b4-44cd-8294-eb71740e98db","ios":"levelo://app?vid=04b51904-c5b4-44cd-8294-eb71740e98db"},"vehicle_type_id":"4","last_reported":1770040423,"current_range_meters":7200,"station_id":"ce4bhh92rcd13ifvqfh0","pricing_plan_id":"cebpf4jnsgd1na2vs0mg"},{"bike_id":"dfb7cc79-8510-46d4-921c-b52269205d9c","system_id":"levelo_inurba_marseille","lat":43.2847,"lon":5.38422,"is_reserved":false,"is_disabled":false,"rental_uris":{"android":"levelo://app?vid=dfb7cc79-8510-46d4-921c-b52269205d9c","ios":"levelo://app?vid=dfb7cc79-8510-46d4-921c-b52269205d9c"},"vehicle_type_id":"4","last_reported":1770040423,"current_range_meters":7200,"station_id":"ce4bh512rcd13ifvqe3g","pricing_plan_id":"cebpf4jnsgd1na2vs0mg"},{"bike_id":"8e17897f-aa86-4517-a1e7-41bb2cad72b6","system_id":"levelo_inurba_marseille","lat":43.30152,"lon":5.3809,"is_reserved":false,"is_disabled":false,"rental_uris":{"android":"levelo://app?vid=8e17897f-aa86-4517-a1e7-41bb2cad72b6","ios":"levelo://app?vid=8e17897f-aa86-4517-a1e7-41bb2cad72b6"},"vehicle_type_id":"4","last_reported":1770040423,"current_range_meters":7200,"station_id":"ce4bgjp2rcd13ifvqbh0","pricing_plan_id":"cebpf4jnsgd1na2vs0mg"},{"bike_id":"49bf327a-ba73-49d7-972a-14f3999e1f9c","system_id":"levelo_inurba_marseille","lat":43.26497,"lon":5.39529,"is_reserved":false,"is_disabled":false,"rental_uris":{"android":"levelo://app?vid=49bf327a-ba73-49d7-972a-14f3999e1f9c","ios":"levelo://app?vid=49bf327a-ba73-49d7-972a-14f3999e1f9c"},"vehicle_type_id":"4","last_reported":1770040423,"current_range_meters":7200,"station_id":"ce4bhi12rcd13ifvqfq0","pricing_plan_id":"cebpf4jnsgd1na2vs0mg"},{"bike_id":"a44a6052-5c9e-4904-8c17-baba671574f9","system_id":"levelo_inurba_marseille","lat":43.29798,"lon":5.38104,"is_reserved":false,"is_disabled":false,"rental_uris":{"android":"levelo://app?vid=a44a6052-5c9e-4904-8c17-baba671574f9","ios":"levelo://app?vid=a44a6052-5c9e-4904-8c17-baba671574f9"},"vehicle_type_id":"4","last_reported":1770040423,"current_range_meters":8000,"station_id":"ce4bgip2rcd13ifvqbb0","pricing_plan_id":"cebpf4jnsgd1na2vs0mg"},{"bike_id":"6e11a266-36e7-4957-9519-66b62e07609e","system_id":"levelo_inurba_marseille","lat":43.27278,"lon":5.39148,"is_reserved":false,"is_disabled":false,"rental_uris":{"android":"levelo://app?vid=6e11a266-36e7-4957-9519-66b62e07609e","ios":"levelo://app?vid=6e11a266-36e7-4957-9519-66b62e07609e"},"vehicle_type_id":"4","last_reported":1770040423,"current_range_meters":8000,"station_id":"ce4bhgp2rcd13ifvqfe0","pricing_plan_id":"cebpf4jnsgd1na2vs0mg"},{"bike_id":"a8b33ee5-98b1-4b91-a976-d816491fae12","system_id":"levelo_inurba_marseille","lat":43.26794,"lon":5.39409,"is_reserved":false,"is_disabled":true,"rental_uris":{"android":"levelo://app?vid=a8b33ee5-98b1-4b91-a976-d816491fae12","ios":"levelo://app?vid=a8b33ee5-98b1-4b91-a976-d816491fae12"},"vehicle_type_id":"4","last_reported":1770040423,"current_range_meters":8000,"station_id":"ce4bhh12rcd13ifvqfg0","pricing_plan_id":"cebpf4jnsgd1na2vs0mg"},{"bike_id":"fa4c8fe2-be53-41f3-8e22-e1517f70e2a6","system_id":"levelo_inurba_marseille","lat":43.29287,"lon":5.38416,"is_reserved":false,"is_disabled":false,"rental_uris":{"android":"levelo://app?vid=fa4c8fe2-be53-41f3-8e22-e1517f70e2a6","ios":"levelo://app?vid=fa4c8fe2-be53-41f3-8e22-e1517f70e2a6"},"vehicle_type_id":"4","last_reported":1770040423,"current_range_meters":8000,"station_id":"ce4bh692rcd13ifvqea0","pricing_plan_id":"cebpf4jnsgd1na2vs0mg"},{"bike_id":"132c2e4f-f164-4506-8200-75a72b5316b3","system_id":"levelo_inurba_marseille","lat":43.2257,"lon":5.41617,"is_reserved":false,"is_disabled":false,"rental_uris":{"android":"levelo://app?vid=132c2e4f-f164-4506-8200-75a72b5316b3","ios":"levelo://app?vid=132c2e4f-f164-4506-8200-75a72b5316b3"},"vehicle_type_id":"4","last_reported":1770040423,"current_range_meters":8000,"station_id":"st_d2o4gvlbi1j2169b742g","pricing_plan_id":"cebpf4jnsgd1na2vs0mg"},{"bike_id":"b163a954-4c36-4104-b455-807b6fc9d458","system_id":"levelo_inurba_marseille","lat":43.26207,"lon":5.3746,"is_reserved":false,"is_disabled":false,"rental_uris":{"android":"levelo://app?vid=b163a954-4c36-4104-b455-807b6fc9d458","ios":"levelo://app?vid=b163a954-4c36-4104-b455-807b6fc9d458"},"vehicle_type_id":"4","last_reported":1770040423,"current_range_meters":8000,"station_id":"ce4bhgp2rcd13ifvqfc0","pricing_plan_id":"cebpf4jnsgd1na2vs0mg"},{"bike_id":"d6ff0c2e-1b73-4afa-8f0f-7ada026e25d1","system_id":"levelo_inurba_marseille","lat":43.294757,"lon":5.376075,"is_reserved":false,"is_disabled":false,"rental_uris":{"android":"levelo://app?vid=d6ff0c2e-1b73-4afa-8f0f-7ada026e25d1","ios":"levelo://app?vid=d6ff0c2e-1b73-4afa-8f0f-7ada026e25d1"},"vehicle_type_id":"4","last_reported":1770040423,"current_range_meters":8000,"station_id":"","pricing_plan_id":"cebpf4jnsgd1na2vs0mg"},{"bike_id":"b4b49109-c680-49e7-b78f-0963342a85a5","system_id":"levelo_inurba_marseille","lat":43.30557,"lon":5.36519,"is_reserved":false,"is_disabled":false,"rental_uris":{"android":"levelo://app?vid=b4b49109-c680-49e7-b78f-0963342a85a5","ios":"levelo://app?vid=b4b49109-c680-49e7-b78f-0963342a85a5"},"vehicle_type_id":"4","last_reported":1770040423,"current_range_meters":8000,"station_id":"ce4bgs12rcd13ifvqcag","pricing_plan_id":"cebpf4jnsgd1na2vs0mg"},{"bike_id":"869c8635-5586-4b79-82de-bbb9bf370b58","system_id":"levelo_inurba_marseille","lat":43.292633,"lon":5.376233,"is_reserved":false,"is_disabled":false,"rental_uris":{"android":"levelo://app?vid=869c8635-5586-4b79-82de-bbb9bf370b58","ios":"levelo://app?vid=869c8635-5586-4b79-82de-bbb9bf370b58"},"vehicle_type_id":"4","last_reported":1770040423,"current_range_meters":8000,"station_id":"ce4bgi12rcd13ifvqb80","pricing_plan_id":"cebpf4jnsgd1na2vs0mg"},{"bike_id":"d2330287-ed3a-45b2-a971-ee635889e5bb","system_id":"levelo_inurba_marseille","lat":43.29105,"lon":5.38139,"is_reserved":false,"is_disabled":false,"rental_uris":{"android":"levelo://app?vid=d2330287-ed3a-45b2-a971-ee635889e5bb","ios":"levelo://app?vid=d2330287-ed3a-45b2-a971-ee635889e5bb"},"vehicle_type_id":"4","last_reported":1770040423,"current_range_meters":8000,"station_id":"ce4bh512rcd13ifvqe2g","pricing_plan_id":"cebpf4jnsgd1na2vs0mg"},{"bike_id":"225e9d09-83ee-4f1c-a930-a97429c83cb7","system_id":"levelo_inurba_marseille","lat":43.23201,"lon":5.35552,"is_reserved":false,"is_disabled":false,"rental_uris":{"android":"levelo://app?vid=225e9d09-83ee-4f1c-a930-a97429c83cb7","ios":"levelo://app?vid=225e9d09-83ee-4f1c-a930-a97429c83cb7"},"vehicle_type_id":"4","last_reported":1770040423,"current_range_meters":8000,"station_id":"ce4bhu92rcd13ifvqi70","pricing_plan_id":"cebpf4jnsgd1na2vs0mg"},{"bike_id":"6a131f0d-6128-445c-99a5-319bcf3a622a","system_id":"levelo_inurba_marseille","lat":43.284761,"lon":5.484034,"is_reserved":false,"is_disabled":false,"rental_uris":{"android":"levelo://app?vid=6a131f0d-6128-445c-99a5-319bcf3a622a","ios":"levelo://app?vid=6a131f0d-6128-445c-99a5-319bcf3a622a"},"vehicle_type_id":"4","last_reported":1770040423,"current_range_meters":8000,"station_id":"st_d3svhcjqgbts73a3dn0g","pricing_plan_id":"cebpf4jnsgd1na2vs0mg"},{"bike_id":"91604460-68c0-4492-894c-a238619d1f72","system_id":"levelo_inurba_marseille","lat":43.23194,"lon":5.3554,"is_reserved":false,"is_disabled":false,"rental_uris":{"android":"levelo://app?vid=91604460-68c0-4492-894c-a238619d1f72","ios":"levelo://app?vid=91604460-68c0-4492-894c-a238619d1f72"},"vehicle_type_id":"4","last_reported":1770040423,"current_range_meters":8000,"station_id":"ce4bhu92rcd13ifvqi70","pricing_plan_id":"cebpf4jnsgd1na2vs0mg"},{"bike_id":"2d936841-4888-41f5-8bc5-c0a8ed45869c","system_id":"levelo_inurba_marseille","lat":43.259321,"lon":5.409055,"is_reserved":false,"is_disabled":false,"rental_uris":{"android":"levelo://app?vid=2d936841-4888-41f5-8bc5-c0a8ed45869c","ios":"levelo://app?vid=2d936841-4888-41f5-8bc5-c0a8ed45869c"},"vehicle_type_id":"4","last_reported":1770040423,"current_range_meters":8000,"station_id":"ce4bhm92rcd13ifvqglg","pricing_plan_id":"cebpf4jnsgd1na2vs0mg"},{"bike_id":"fde960eb-ebcb-4257-b304-493f3bc8c919","system_id":"levelo_inurba_marseille","lat":43.31222,"lon":5.3686,"is_reserved":false,"is_disabled":false,"rental_uris":{"android":"levelo://app?vid=fde960eb-ebcb-4257-b304-493f3bc8c919","ios":"levelo://app?vid=fde960eb-ebcb-4257-b304-493f3bc8c919"},"vehicle_type_id":"4","last_reported":1770040423,"current_range_meters":8000,"station_id":"ce4bgl92rcd13ifvqbq0","pricing_plan_id":"cebpf4jnsgd1na2vs0mg"},{"bike_id":"d1c9b204-7e8f-461e-be45-0d6d5def56d9","system_id":"levelo_inurba_marseille","lat":43.2693,"lon":5.38912,"is_reserved":false,"is_disabled":false,"rental_uris":{"android":"levelo://app?vid=d1c9b204-7e8f-461e-be45-0d6d5def56d9","ios":"levelo://app?vid=d1c9b204-7e8f-461e-be45-0d6d5def56d9"},"vehicle_type_id":"4","last_reported":1770040423,"current_range_meters":8400,"station_id":"ce4bhhh2rcd13ifvqfl0","pricing_plan_id":"cebpf4jnsgd1na2vs0mg"},{"bike_id":"02b06200-6f0c-4fbe-a288-f34e85c983a1","system_id":"levelo_inurba_marseille","lat":43.23772,"lon":5.36626,"is_reserved":false,"is_disabled":false,"rental_uris":{"android":"levelo://app?vid=02b06200-6f0c-4fbe-a288-f34e85c983a1","ios":"levelo://app?vid=02b06200-6f0c-4fbe-a288-f34e85c983a1"},"vehicle_type_id":"4","last_reported":1770040423,"current_range_meters":8400,"station_id":"st_d3nk18o9ro0c73en2l3g","pricing_plan_id":"cebpf4jnsgd1na2vs0mg"},{"bike_id":"448aac68-1f9e-4017-99cd-3bab5b285023","system_id":"levelo_inurba_marseille","lat":43.27368,"lon":5.36243,"is_reserved":false,"is_disabled":false,"rental_uris":{"android":"levelo://app?vid=448aac68-1f9e-4017-99cd-3bab5b285023","ios":"levelo://app?vid=448aac68-1f9e-4017-99cd-3bab5b285023"},"vehicle_type_id":"4","last_reported":1770040423,"current_range_meters":8400,"station_id":"ce4bhbh2rcd13ifvqeo0","pricing_plan_id":"cebpf4jnsgd1na2vs0mg"},{"bike_id":"89dacfb9-9707-42fe-a9c8-524d3751d080","system_id":"levelo_inurba_marseille","lat":43.23137,"lon":5.43722,"is_reserved":false,"is_disabled":false,"rental_uris":{"android":"levelo://app?vid=89dacfb9-9707-42fe-a9c8-524d3751d080","ios":"levelo://app?vid=89dacfb9-9707-42fe-a9c8-524d3751d080"},"vehicle_type_id":"4","last_reported":1770040423,"current_range_meters":8400,"station_id":"ce4bhmp2rcd13ifvqgog","pricing_plan_id":"cebpf4jnsgd1na2vs0mg"},{"bike_id":"21c4fcf7-3264-44b7-ab1d-96b7867eb7f9","system_id":"levelo_inurba_marseille","lat":43.24176,"lon":5.39729,"is_reserved":false,"is_disabled":false,"rental_uris":{"android":"levelo://app?vid=21c4fcf7-3264-44b7-ab1d-96b7867eb7f9","ios":"levelo://app?vid=21c4fcf7-3264-44b7-ab1d-96b7867eb7f9"},"vehicle_type_id":"4","last_reported":1770040423,"current_range_meters":8400,"station_id":"ce4bhn12rcd13ifvqgpg","pricing_plan_id":"cebpf4jnsgd1na2vs0mg"},{"bike_id":"dd31698a-3042-473a-bd53-ac0632646f44","system_id":"levelo_inurba_marseille","lat":43.244758,"lon":5.425273,"is_reserved":false,"is_disabled":false,"rental_uris":{"android":"levelo://app?vid=dd31698a-3042-473a-bd53-ac0632646f44","ios":"levelo://app?vid=dd31698a-3042-473a-bd53-ac0632646f44"},"vehicle_type_id":"4","last_reported":1770040423,"current_range_meters":8400,"station_id":"st_d4a3vfp97mjs738cd8kg","pricing_plan_id":"cebpf4jnsgd1na2vs0mg"},{"bike_id":"12fdd701-eb06-48fd-ad5f-93aca9d9dea7","system_id":"levelo_inurba_marseille","lat":43.29227,"lon":5.3606,"is_reserved":false,"is_disabled":false,"rental_uris":{"android":"levelo://app?vid=12fdd701-eb06-48fd-ad5f-93aca9d9dea7","ios":"levelo://app?vid=12fdd701-eb06-48fd-ad5f-93aca9d9dea7"},"vehicle_type_id":"4","last_reported":1770040423,"current_range_meters":8400,"station_id":"ce4bhbh2rcd13ifvqeqg","pricing_plan_id":"cebpf4jnsgd1na2vs0mg"},{"bike_id":"d1b13232-2b6a-4f8b-916b-669102049645","system_id":"levelo_inurba_marseille","lat":43.25937,"lon":5.4089,"is_reserved":false,"is_disabled":false,"rental_uris":{"android":"levelo://app?vid=d1b13232-2b6a-4f8b-916b-669102049645","ios":"levelo://app?vid=d1b13232-2b6a-4f8b-916b-669102049645"},"vehicle_type_id":"4","last_reported":1770040423,"current_range_meters":8400,"station_id":"ce4bhm92rcd13ifvqglg","pricing_plan_id":"cebpf4jnsgd1na2vs0mg"},{"bike_id":"9cbcf585-a58e-4938-b69e-d4c3022c57ef","system_id":"levelo_inurba_marseille","lat":43.24082,"lon":5.37752,"is_reserved":false,"is_disabled":false,"rental_uris":{"android":"levelo://app?vid=9cbcf585-a58e-4938-b69e-d4c3022c57ef","ios":"levelo://app?vid=9cbcf585-a58e-4938-b69e-d4c3022c57ef"},"vehicle_type_id":"4","last_reported":1770040423,"current_range_meters":8400,"station_id":"ce4bhnp2rcd13ifvqgvg","pricing_plan_id":"cebpf4jnsgd1na2vs0mg"},{"bike_id":"66f7b0ee-1ff1-4347-a9d6-8c7cc4ec28cb","system_id":"levelo_inurba_marseille","lat":43.273379,"lon":5.390881,"is_reserved":false,"is_disabled":false,"rental_uris":{"android":"levelo://app?vid=66f7b0ee-1ff1-4347-a9d6-8c7cc4ec28cb","ios":"levelo://app?vid=66f7b0ee-1ff1-4347-a9d6-8c7cc4ec28cb"},"vehicle_type_id":"4","last_reported":1770040423,"current_range_meters":8400,"station_id":"ce4bhgp2rcd13ifvqfe0","pricing_plan_id":"cebpf4jnsgd1na2vs0mg"},{"bike_id":"1ed602b0-b379-43ba-a200-faad5b1252c0","system_id":"levelo_inurba_marseille","lat":43.28924,"lon":5.38398,"is_reserved":false,"is_disabled":false,"rental_uris":{"android":"levelo://app?vid=1ed602b0-b379-43ba-a200-faad5b1252c0","ios":"levelo://app?vid=1ed602b0-b379-43ba-a200-faad5b1252c0"},"vehicle_type_id":"4","last_reported":1770040423,"current_range_meters":8400,"station_id":"ce4bh612rcd13ifvqe6g","pricing_plan_id":"cebpf4jnsgd1na2vs0mg"},{"bike_id":"ff4e3223-1956-4870-9ba6-85cdece0847d","system_id":"levelo_inurba_marseille","lat":43.25925,"lon":5.409,"is_reserved":false,"is_disabled":false,"rental_uris":{"android":"levelo://app?vid=ff4e3223-1956-4870-9ba6-85cdece0847d","ios":"levelo://app?vid=ff4e3223-1956-4870-9ba6-85cdece0847d"},"vehicle_type_id":"4","last_reported":1770040423,"current_range_meters":8400,"station_id":"ce4bhm92rcd13ifvqglg","pricing_plan_id":"cebpf4jnsgd1na2vs0mg"},{"bike_id":"f40b24a5-bf74-4433-adfa-9cc7e924510b","system_id":"levelo_inurba_marseille","lat":43.297489,"lon":5.378468,"is_reserved":false,"is_disabled":false,"rental_uris":{"android":"levelo://app?vid=f40b24a5-bf74-4433-adfa-9cc7e924510b","ios":"levelo://app?vid=f40b24a5-bf74-4433-adfa-9cc7e924510b"},"vehicle_type_id":"4","last_reported":1770040423,"current_range_meters":8800,"station_id":"","pricing_plan_id":"cebpf4jnsgd1na2vs0mg"},{"bike_id":"23af0394-5a4b-41c7-a956-1b9443f015ff","system_id":"levelo_inurba_marseille","lat":43.331538,"lon":5.376933,"is_reserved":false,"is_disabled":false,"rental_uris":{"android":"levelo://app?vid=23af0394-5a4b-41c7-a956-1b9443f015ff","ios":"levelo://app?vid=23af0394-5a4b-41c7-a956-1b9443f015ff"},"vehicle_type_id":"4","last_reported":1770040423,"current_range_meters":8800,"station_id":"st_d46cu089ee8s73dldbu0","pricing_plan_id":"cebpf4jnsgd1na2vs0mg"},{"bike_id":"1b204181-222d-4067-86e4-48096500f801","system_id":"levelo_inurba_marseille","lat":43.29298,"lon":5.37151,"is_reserved":false,"is_disabled":false,"rental_uris":{"android":"levelo://app?vid=1b204181-222d-4067-86e4-48096500f801","ios":"levelo://app?vid=1b204181-222d-4067-86e4-48096500f801"},"vehicle_type_id":"4","last_reported":1770040423,"current_range_meters":8800,"station_id":"ce4bgh92rcd13ifvqb40","pricing_plan_id":"cebpf4jnsgd1na2vs0mg"},{"bike_id":"6bdf1fea-ba1e-4757-902b-69d62dfd0d72","system_id":"levelo_inurba_marseille","lat":43.29763,"lon":5.42771,"is_reserved":false,"is_disabled":false,"rental_uris":{"android":"levelo://app?vid=6bdf1fea-ba1e-4757-902b-69d62dfd0d72","ios":"levelo://app?vid=6bdf1fea-ba1e-4757-902b-69d62dfd0d72"},"vehicle_type_id":"4","last_reported":1770040423,"current_range_meters":8800,"station_id":"st_d3md5207bmas73dh9klg","pricing_plan_id":"cebpf4jnsgd1na2vs0mg"},{"bike_id":"9436c3fb-a74e-4fd5-8b2a-988e84b82382","system_id":"levelo_inurba_marseille","lat":43.241755,"lon":5.397296,"is_reserved":false,"is_disabled":false,"rental_uris":{"android":"levelo://app?vid=9436c3fb-a74e-4fd5-8b2a-988e84b82382","ios":"levelo://app?vid=9436c3fb-a74e-4fd5-8b2a-988e84b82382"},"vehicle_type_id":"4","last_reported":1770040423,"current_range_meters":8800,"station_id":"ce4bhn12rcd13ifvqgpg","pricing_plan_id":"cebpf4jnsgd1na2vs0mg"},{"bike_id":"666fe0ba-7059-4036-966c-707260bcf29b","system_id":"levelo_inurba_marseille","lat":43.30462,"lon":5.37904,"is_reserved":false,"is_disabled":false,"rental_uris":{"android":"levelo://app?vid=666fe0ba-7059-4036-966c-707260bcf29b","ios":"levelo://app?vid=666fe0ba-7059-4036-966c-707260bcf29b"},"vehicle_type_id":"4","last_reported":1770040423,"current_range_meters":8800,"station_id":"ce4bgup2rcd13ifvqcn0","pricing_plan_id":"cebpf4jnsgd1na2vs0mg"},{"bike_id":"76154380-766b-4767-81b3-83dc44f40b7b","system_id":"levelo_inurba_marseille","lat":43.33535,"lon":5.37467,"is_reserved":false,"is_disabled":false,"rental_uris":{"android":"levelo://app?vid=76154380-766b-4767-81b3-83dc44f40b7b","ios":"levelo://app?vid=76154380-766b-4767-81b3-83dc44f40b7b"},"vehicle_type_id":"4","last_reported":1770040423,"current_range_meters":8800,"station_id":"st_d46tts09ee8s73dlu43g","pricing_plan_id":"cebpf4jnsgd1na2vs0mg"},{"bike_id":"ed02cb4c-388a-4f26-a459-0831f95c479b","system_id":"levelo_inurba_marseille","lat":43.299,"lon":5.43664,"is_reserved":false,"is_disabled":false,"rental_uris":{"android":"levelo://app?vid=ed02cb4c-388a-4f26-a459-0831f95c479b","ios":"levelo://app?vid=ed02cb4c-388a-4f26-a459-0831f95c479b"},"vehicle_type_id":"4","last_reported":1770040423,"current_range_meters":8800,"station_id":"ce4bhpp2rcd13ifvqhfg","pricing_plan_id":"cebpf4jnsgd1na2vs0mg"},{"bike_id":"d673d0a1-f309-49cd-b45d-49b1a04e548e","system_id":"levelo_inurba_marseille","lat":43.29767,"lon":5.36378,"is_reserved":false,"is_disabled":false,"rental_uris":{"android":"levelo://app?vid=d673d0a1-f309-49cd-b45d-49b1a04e548e","ios":"levelo://app?vid=d673d0a1-f309-49cd-b45d-49b1a04e548e"},"vehicle_type_id":"4","last_reported":1770040423,"current_range_meters":8800,"station_id":"","pricing_plan_id":"cebpf4jnsgd1na2vs0mg"},{"bike_id":"33155caa-8021-4913-a666-e828c4426fe1","system_id":"levelo_inurba_marseille","lat":43.23198,"lon":5.35534,"is_reserved":false,"is_disabled":false,"rental_uris":{"android":"levelo://app?vid=33155caa-8021-4913-a666-e828c4426fe1","ios":"levelo://app?vid=33155caa-8021-4913-a666-e828c4426fe1"},"vehicle_type_id":"4","last_reported":1770040423,"current_range_meters":8800,"station_id":"ce4bhu92rcd13ifvqi70","pricing_plan_id":"cebpf4jnsgd1na2vs0mg"},{"bike_id":"dd789ece-b6e4-4c2e-b0c1-877c84b17297","system_id":"levelo_inurba_marseille","lat":43.21195,"lon":5.35076,"is_reserved":false,"is_disabled":false,"rental_uris":{"android":"levelo://app?vid=dd789ece-b6e4-4c2e-b0c1-877c84b17297","ios":"levelo://app?vid=dd789ece-b6e4-4c2e-b0c1-877c84b17297"},"vehicle_type_id":"4","last_reported":1770040423,"current_range_meters":8800,"station_id":"st_cvj6sg6p6f1abm77japg","pricing_plan_id":"cebpf4jnsgd1na2vs0mg"},{"bike_id":"c88f0555-1f86-4c6a-8a83-a35fff635196","system_id":"levelo_inurba_marseille","lat":43.24063,"lon":5.37758,"is_reserved":false,"is_disabled":false,"rental_uris":{"android":"levelo://app?vid=c88f0555-1f86-4c6a-8a83-a35fff635196","ios":"levelo://app?vid=c88f0555-1f86-4c6a-8a83-a35fff635196"},"vehicle_type_id":"4","last_reported":1770040423,"current_range_meters":8800,"station_id":"ce4bhnp2rcd13ifvqgvg","pricing_plan_id":"cebpf4jnsgd1na2vs0mg"},{"bike_id":"643eb387-14f4-4c58-80f7-56e1e995c75e","system_id":"levelo_inurba_marseille","lat":43.27499,"lon":5.42447,"is_reserved":false,"is_disabled":false,"rental_uris":{"android":"levelo://app?vid=643eb387-14f4-4c58-80f7-56e1e995c75e","ios":"levelo://app?vid=643eb387-14f4-4c58-80f7-56e1e995c75e"},"vehicle_type_id":"4","last_reported":1770040423,"current_range_meters":8800,"station_id":"ce4bhn92rcd13ifvqgrg","pricing_plan_id":"cebpf4jnsgd1na2vs0mg"},{"bike_id":"95a36824-7633-4167-83cd-e093cea92804","system_id":"levelo_inurba_marseille","lat":43.31718,"lon":5.42393,"is_reserved":false,"is_disabled":false,"rental_uris":{"android":"levelo://app?vid=95a36824-7633-4167-83cd-e093cea92804","ios":"levelo://app?vid=95a36824-7633-4167-83cd-e093cea92804"},"vehicle_type_id":"4","last_reported":1770040423,"current_range_meters":8800,"station_id":"ce4bhp92rcd13ifvqhbg","pricing_plan_id":"cebpf4jnsgd1na2vs0mg"},{"bike_id":"d1786d71-cdac-413b-898f-401144ede37d","system_id":"levelo_inurba_marseille","lat":43.25344,"lon":5.42172,"is_reserved":false,"is_disabled":false,"rental_uris":{"android":"levelo://app?vid=d1786d71-cdac-413b-898f-401144ede37d","ios":"levelo://app?vid=d1786d71-cdac-413b-898f-401144ede37d"},"vehicle_type_id":"4","last_reported":1770040423,"current_range_meters":8800,"station_id":"st_d2m65c5bi1j21697t3ng","pricing_plan_id":"cebpf4jnsgd1na2vs0mg"},{"bike_id":"222db6d2-88ff-479f-9abb-5dc93feec713","system_id":"levelo_inurba_marseille","lat":43.31276,"lon":5.37757,"is_reserved":false,"is_disabled":false,"rental_uris":{"android":"levelo://app?vid=222db6d2-88ff-479f-9abb-5dc93feec713","ios":"levelo://app?vid=222db6d2-88ff-479f-9abb-5dc93feec713"},"vehicle_type_id":"4","last_reported":1770040423,"current_range_meters":8800,"station_id":"","pricing_plan_id":"cebpf4jnsgd1na2vs0mg"},{"bike_id":"5dae8e7a-771c-417a-921b-2f019b85b891","system_id":"levelo_inurba_marseille","lat":43.29874,"lon":5.43622,"is_reserved":false,"is_disabled":false,"rental_uris":{"android":"levelo://app?vid=5dae8e7a-771c-417a-921b-2f019b85b891","ios":"levelo://app?vid=5dae8e7a-771c-417a-921b-2f019b85b891"},"vehicle_type_id":"4","last_reported":1770040423,"current_range_meters":8800,"station_id":"ce4bhpp2rcd13ifvqhfg","pricing_plan_id":"cebpf4jnsgd1na2vs0mg"},{"bike_id":"23aa10f2-ced9-4cc9-b468-7f0d30263b76","system_id":"levelo_inurba_marseille","lat":43.30535,"lon":5.36505,"is_reserved":false,"is_disabled":false,"rental_uris":{"android":"levelo://app?vid=23aa10f2-ced9-4cc9-b468-7f0d30263b76","ios":"levelo://app?vid=23aa10f2-ced9-4cc9-b468-7f0d30263b76"},"vehicle_type_id":"4","last_reported":1770040423,"current_range_meters":8800,"station_id":"","pricing_plan_id":"cebpf4jnsgd1na2vs0mg"},{"bike_id":"fb6d0c92-aa07-41c5-bb64-ff22908e7b14","system_id":"levelo_inurba_marseille","lat":43.33551,"lon":5.37468,"is_reserved":false,"is_disabled":false,"rental_uris":{"android":"levelo://app?vid=fb6d0c92-aa07-41c5-bb64-ff22908e7b14","ios":"levelo://app?vid=fb6d0c92-aa07-41c5-bb64-ff22908e7b14"},"vehicle_type_id":"4","last_reported":1770040423,"current_range_meters":8800,"station_id":"st_d46tts09ee8s73dlu43g","pricing_plan_id":"cebpf4jnsgd1na2vs0mg"},{"bike_id":"4e6b93e4-ee39-4999-bfda-7b5048ef544e","system_id":"levelo_inurba_marseille","lat":43.29804,"lon":5.38099,"is_reserved":false,"is_disabled":false,"rental_uris":{"android":"levelo://app?vid=4e6b93e4-ee39-4999-bfda-7b5048ef544e","ios":"levelo://app?vid=4e6b93e4-ee39-4999-bfda-7b5048ef544e"},"vehicle_type_id":"4","last_reported":1770040423,"current_range_meters":9200,"station_id":"ce4bgip2rcd13ifvqbb0","pricing_plan_id":"cebpf4jnsgd1na2vs0mg"},{"bike_id":"5891190f-4b60-40d6-ad8e-0b4fb4aa8265","system_id":"levelo_inurba_marseille","lat":43.31195,"lon":5.36892,"is_reserved":false,"is_disabled":false,"rental_uris":{"android":"levelo://app?vid=5891190f-4b60-40d6-ad8e-0b4fb4aa8265","ios":"levelo://app?vid=5891190f-4b60-40d6-ad8e-0b4fb4aa8265"},"vehicle_type_id":"4","last_reported":1770040423,"current_range_meters":9200,"station_id":"ce4bgl92rcd13ifvqbq0","pricing_plan_id":"cebpf4jnsgd1na2vs0mg"},{"bike_id":"cef9edb7-4d2e-4ab7-9675-6b816e961933","system_id":"levelo_inurba_marseille","lat":43.24179,"lon":5.39732,"is_reserved":false,"is_disabled":false,"rental_uris":{"android":"levelo://app?vid=cef9edb7-4d2e-4ab7-9675-6b816e961933","ios":"levelo://app?vid=cef9edb7-4d2e-4ab7-9675-6b816e961933"},"vehicle_type_id":"4","last_reported":1770040423,"current_range_meters":9200,"station_id":"ce4bhn12rcd13ifvqgpg","pricing_plan_id":"cebpf4jnsgd1na2vs0mg"},{"bike_id":"efbef786-6b3c-4aff-b7c5-e3a42e8d7d43","system_id":"levelo_inurba_marseille","lat":43.29268,"lon":5.36853,"is_reserved":false,"is_disabled":false,"rental_uris":{"android":"levelo://app?vid=efbef786-6b3c-4aff-b7c5-e3a42e8d7d43","ios":"levelo://app?vid=efbef786-6b3c-4aff-b7c5-e3a42e8d7d43"},"vehicle_type_id":"4","last_reported":1770040423,"current_range_meters":9200,"station_id":"ce4bhbp2rcd13ifvqesg","pricing_plan_id":"cebpf4jnsgd1na2vs0mg"},{"bike_id":"49b55540-f880-4fa3-bd04-5084d68b6b89","system_id":"levelo_inurba_marseille","lat":43.30935,"lon":5.40138,"is_reserved":false,"is_disabled":false,"rental_uris":{"android":"levelo://app?vid=49b55540-f880-4fa3-bd04-5084d68b6b89","ios":"levelo://app?vid=49b55540-f880-4fa3-bd04-5084d68b6b89"},"vehicle_type_id":"4","last_reported":1770040423,"current_range_meters":9200,"station_id":"ce4bgvp2rcd13ifvqct0","pricing_plan_id":"cebpf4jnsgd1na2vs0mg"},{"bike_id":"6da72cdc-500c-4ba3-95a0-693b1fd985c5","system_id":"levelo_inurba_marseille","lat":43.31063,"lon":5.37169,"is_reserved":false,"is_disabled":false,"rental_uris":{"android":"levelo://app?vid=6da72cdc-500c-4ba3-95a0-693b1fd985c5","ios":"levelo://app?vid=6da72cdc-500c-4ba3-95a0-693b1fd985c5"},"vehicle_type_id":"4","last_reported":1770040423,"current_range_meters":9200,"station_id":"st_d4kl2rp97mjs73e7tdfg","pricing_plan_id":"cebpf4jnsgd1na2vs0mg"},{"bike_id":"e5039c56-5199-4176-914c-6032a6fc6ed3","system_id":"levelo_inurba_marseille","lat":43.24805,"lon":5.37469,"is_reserved":false,"is_disabled":false,"rental_uris":{"android":"levelo://app?vid=e5039c56-5199-4176-914c-6032a6fc6ed3","ios":"levelo://app?vid=e5039c56-5199-4176-914c-6032a6fc6ed3"},"vehicle_type_id":"4","last_reported":1770040423,"current_range_meters":9200,"station_id":"ce4bhgh2rcd13ifvqfb0","pricing_plan_id":"cebpf4jnsgd1na2vs0mg"},{"bike_id":"4dd6841e-e470-4207-bb73-65a47c0e81c5","system_id":"levelo_inurba_marseille","lat":43.312,"lon":5.38018,"is_reserved":false,"is_disabled":false,"rental_uris":{"android":"levelo://app?vid=4dd6841e-e470-4207-bb73-65a47c0e81c5","ios":"levelo://app?vid=4dd6841e-e470-4207-bb73-65a47c0e81c5"},"vehicle_type_id":"4","last_reported":1770040423,"current_range_meters":9200,"station_id":"","pricing_plan_id":"cebpf4jnsgd1na2vs0mg"},{"bike_id":"f421983c-521b-4abe-a7d2-556d63e232d6","system_id":"levelo_inurba_marseille","lat":43.286011,"lon":5.384295,"is_reserved":false,"is_disabled":false,"rental_uris":{"android":"levelo://app?vid=f421983c-521b-4abe-a7d2-556d63e232d6","ios":"levelo://app?vid=f421983c-521b-4abe-a7d2-556d63e232d6"},"vehicle_type_id":"4","last_reported":1770040423,"current_range_meters":9200,"station_id":"","pricing_plan_id":"cebpf4jnsgd1na2vs0mg"},{"bike_id":"9ede7f02-b7e5-4592-92c0-07143ca08c00","system_id":"levelo_inurba_marseille","lat":43.313,"lon":5.36823,"is_reserved":false,"is_disabled":false,"rental_uris":{"android":"levelo://app?vid=9ede7f02-b7e5-4592-92c0-07143ca08c00","ios":"levelo://app?vid=9ede7f02-b7e5-4592-92c0-07143ca08c00"},"vehicle_type_id":"4","last_reported":1770040423,"current_range_meters":9200,"station_id":"","pricing_plan_id":"cebpf4jnsgd1na2vs0mg"},{"bike_id":"f8e7e4d9-f87a-42a2-9144-b6886b943f25","system_id":"levelo_inurba_marseille","lat":43.249935,"lon":5.389369,"is_reserved":false,"is_disabled":false,"rental_uris":{"android":"levelo://app?vid=f8e7e4d9-f87a-42a2-9144-b6886b943f25","ios":"levelo://app?vid=f8e7e4d9-f87a-42a2-9144-b6886b943f25"},"vehicle_type_id":"4","last_reported":1770040423,"current_range_meters":9600,"station_id":"ce4bhgp2rcd13ifvqfd0","pricing_plan_id":"cebpf4jnsgd1na2vs0mg"},{"bike_id":"ebfaf8ab-15db-4613-b78e-7b21e23ec36c","system_id":"levelo_inurba_marseille","lat":43.29188,"lon":5.39321,"is_reserved":false,"is_disabled":false,"rental_uris":{"android":"levelo://app?vid=ebfaf8ab-15db-4613-b78e-7b21e23ec36c","ios":"levelo://app?vid=ebfaf8ab-15db-4613-b78e-7b21e23ec36c"},"vehicle_type_id":"4","last_reported":1770040423,"current_range_meters":9600,"station_id":"ce4bh192rcd13ifvqdd0","pricing_plan_id":"cebpf4jnsgd1na2vs0mg"},{"bike_id":"03f466db-20dc-42d9-8a0d-992246935b4c","system_id":"levelo_inurba_marseille","lat":43.290786,"lon":5.371694,"is_reserved":false,"is_disabled":false,"rental_uris":{"android":"levelo://app?vid=03f466db-20dc-42d9-8a0d-992246935b4c","ios":"levelo://app?vid=03f466db-20dc-42d9-8a0d-992246935b4c"},"vehicle_type_id":"4","last_reported":1770040423,"current_range_meters":9600,"station_id":"ce4bh5p2rcd13ifvqe4g","pricing_plan_id":"cebpf4jnsgd1na2vs0mg"},{"bike_id":"6b9396ac-cc81-45e0-ae3e-d5c56db5ca0b","system_id":"levelo_inurba_marseille","lat":43.24076,"lon":5.37766,"is_reserved":false,"is_disabled":false,"rental_uris":{"android":"levelo://app?vid=6b9396ac-cc81-45e0-ae3e-d5c56db5ca0b","ios":"levelo://app?vid=6b9396ac-cc81-45e0-ae3e-d5c56db5ca0b"},"vehicle_type_id":"4","last_reported":1770040423,"current_range_meters":9600,"station_id":"ce4bhnp2rcd13ifvqgvg","pricing_plan_id":"cebpf4jnsgd1na2vs0mg"},{"bike_id":"da7a648f-d687-44eb-890c-e06e37b85bcc","system_id":"levelo_inurba_marseille","lat":43.313437,"lon":5.367043,"is_reserved":false,"is_disabled":false,"rental_uris":{"android":"levelo://app?vid=da7a648f-d687-44eb-890c-e06e37b85bcc","ios":"levelo://app?vid=da7a648f-d687-44eb-890c-e06e37b85bcc"},"vehicle_type_id":"4","last_reported":1770040423,"current_range_meters":9600,"station_id":"ce4bgr92rcd13ifvqc6g","pricing_plan_id":"cebpf4jnsgd1na2vs0mg"},{"bike_id":"9c2508a9-b968-4bec-819a-5127bc67b58d","system_id":"levelo_inurba_marseille","lat":43.28415,"lon":5.375,"is_reserved":false,"is_disabled":true,"rental_uris":{"android":"levelo://app?vid=9c2508a9-b968-4bec-819a-5127bc67b58d","ios":"levelo://app?vid=9c2508a9-b968-4bec-819a-5127bc67b58d"},"vehicle_type_id":"4","last_reported":1770040423,"current_range_meters":9600,"station_id":"ce4bh412rcd13ifvqds0","pricing_plan_id":"cebpf4jnsgd1na2vs0mg"},{"bike_id":"686ffc6c-816e-4651-ba1b-022731140755","system_id":"levelo_inurba_marseille","lat":43.29712,"lon":5.36611,"is_reserved":false,"is_disabled":false,"rental_uris":{"android":"levelo://app?vid=686ffc6c-816e-4651-ba1b-022731140755","ios":"levelo://app?vid=686ffc6c-816e-4651-ba1b-022731140755"},"vehicle_type_id":"4","last_reported":1770040423,"current_range_meters":9600,"station_id":"ce4bgn12rcd13ifvqbt0","pricing_plan_id":"cebpf4jnsgd1na2vs0mg"},{"bike_id":"3b045c13-e3dc-455a-9124-9baa0984bfcc","system_id":"levelo_inurba_marseille","lat":43.265345,"lon":5.37283,"is_reserved":false,"is_disabled":true,"rental_uris":{"android":"levelo://app?vid=3b045c13-e3dc-455a-9124-9baa0984bfcc","ios":"levelo://app?vid=3b045c13-e3dc-455a-9124-9baa0984bfcc"},"vehicle_type_id":"4","last_reported":1770040423,"current_range_meters":9600,"station_id":"ce4bhg12rcd13ifvqf70","pricing_plan_id":"cebpf4jnsgd1na2vs0mg"},{"bike_id":"0589821d-f034-4f83-8ff9-c71ef9ae0965","system_id":"levelo_inurba_marseille","lat":43.29567,"lon":5.39978,"is_reserved":false,"is_disabled":false,"rental_uris":{"android":"levelo://app?vid=0589821d-f034-4f83-8ff9-c71ef9ae0965","ios":"levelo://app?vid=0589821d-f034-4f83-8ff9-c71ef9ae0965"},"vehicle_type_id":"4","last_reported":1770040423,"current_range_meters":9600,"station_id":"ce4bh312rcd13ifvqdj0","pricing_plan_id":"cebpf4jnsgd1na2vs0mg"},{"bike_id":"e9c5afc7-c303-4df3-a0d1-811595814b02","system_id":"levelo_inurba_marseille","lat":43.240717,"lon":5.377605,"is_reserved":false,"is_disabled":false,"rental_uris":{"android":"levelo://app?vid=e9c5afc7-c303-4df3-a0d1-811595814b02","ios":"levelo://app?vid=e9c5afc7-c303-4df3-a0d1-811595814b02"},"vehicle_type_id":"4","last_reported":1770040423,"current_range_meters":9600,"station_id":"ce4bhnp2rcd13ifvqgvg","pricing_plan_id":"cebpf4jnsgd1na2vs0mg"},{"bike_id":"42438931-a3e2-419c-b0a7-dfaeb23a5a8e","system_id":"levelo_inurba_marseille","lat":43.28154,"lon":5.42641,"is_reserved":false,"is_disabled":false,"rental_uris":{"android":"levelo://app?vid=42438931-a3e2-419c-b0a7-dfaeb23a5a8e","ios":"levelo://app?vid=42438931-a3e2-419c-b0a7-dfaeb23a5a8e"},"vehicle_type_id":"4","last_reported":1770040423,"current_range_meters":9600,"station_id":"ce4bhnh2rcd13ifvqgug","pricing_plan_id":"cebpf4jnsgd1na2vs0mg"},{"bike_id":"e5dea8b0-374b-41ef-92b6-e57da53b2141","system_id":"levelo_inurba_marseille","lat":43.299652,"lon":5.371903,"is_reserved":false,"is_disabled":false,"rental_uris":{"android":"levelo://app?vid=e5dea8b0-374b-41ef-92b6-e57da53b2141","ios":"levelo://app?vid=e5dea8b0-374b-41ef-92b6-e57da53b2141"},"vehicle_type_id":"4","last_reported":1770040423,"current_range_meters":9600,"station_id":"ce4bgr92rcd13ifvqc7g","pricing_plan_id":"cebpf4jnsgd1na2vs0mg"},{"bike_id":"af6fe419-abd0-4c08-bd2b-c8ba340332c1","system_id":"levelo_inurba_marseille","lat":43.263226,"lon":5.373963,"is_reserved":false,"is_disabled":false,"rental_uris":{"android":"levelo://app?vid=af6fe419-abd0-4c08-bd2b-c8ba340332c1","ios":"levelo://app?vid=af6fe419-abd0-4c08-bd2b-c8ba340332c1"},"vehicle_type_id":"4","last_reported":1770040423,"current_range_meters":9600,"station_id":"","pricing_plan_id":"cebpf4jnsgd1na2vs0mg"},{"bike_id":"a25ca560-93d3-4032-826d-a62f5af3c69b","system_id":"levelo_inurba_marseille","lat":43.308073,"lon":5.381471,"is_reserved":false,"is_disabled":false,"rental_uris":{"android":"levelo://app?vid=a25ca560-93d3-4032-826d-a62f5af3c69b","ios":"levelo://app?vid=a25ca560-93d3-4032-826d-a62f5af3c69b"},"vehicle_type_id":"4","last_reported":1770040423,"current_range_meters":9600,"station_id":"ce4bgpp2rcd13ifvqc3g","pricing_plan_id":"cebpf4jnsgd1na2vs0mg"},{"bike_id":"53547880-1d53-45a5-bb5f-da3863195742","system_id":"levelo_inurba_marseille","lat":43.29563,"lon":5.37522,"is_reserved":false,"is_disabled":false,"rental_uris":{"android":"levelo://app?vid=53547880-1d53-45a5-bb5f-da3863195742","ios":"levelo://app?vid=53547880-1d53-45a5-bb5f-da3863195742"},"vehicle_type_id":"4","last_reported":1770040423,"current_range_meters":9600,"station_id":"ce4bgh92rcd13ifvqb50","pricing_plan_id":"cebpf4jnsgd1na2vs0mg"},{"bike_id":"ad601413-a38b-4c55-b3a7-e45a929d33e1","system_id":"levelo_inurba_marseille","lat":43.26929,"lon":5.3892,"is_reserved":false,"is_disabled":false,"rental_uris":{"android":"levelo://app?vid=ad601413-a38b-4c55-b3a7-e45a929d33e1","ios":"levelo://app?vid=ad601413-a38b-4c55-b3a7-e45a929d33e1"},"vehicle_type_id":"4","last_reported":1770040423,"current_range_meters":9600,"station_id":"ce4bhhh2rcd13ifvqfl0","pricing_plan_id":"cebpf4jnsgd1na2vs0mg"},{"bike_id":"405ea4a7-897c-4c33-b952-8c30fed84872","system_id":"levelo_inurba_marseille","lat":43.2849,"lon":5.3841,"is_reserved":false,"is_disabled":false,"rental_uris":{"android":"levelo://app?vid=405ea4a7-897c-4c33-b952-8c30fed84872","ios":"levelo://app?vid=405ea4a7-897c-4c33-b952-8c30fed84872"},"vehicle_type_id":"4","last_reported":1770040423,"current_range_meters":9600,"station_id":"ce4bh512rcd13ifvqe3g","pricing_plan_id":"cebpf4jnsgd1na2vs0mg"},{"bike_id":"e1e72a87-79b2-4727-ab3b-747e4a3fa96f","system_id":"levelo_inurba_marseille","lat":43.300852,"lon":5.374261,"is_reserved":false,"is_disabled":false,"rental_uris":{"android":"levelo://app?vid=e1e72a87-79b2-4727-ab3b-747e4a3fa96f","ios":"levelo://app?vid=e1e72a87-79b2-4727-ab3b-747e4a3fa96f"},"vehicle_type_id":"4","last_reported":1770040423,"current_range_meters":9600,"station_id":"","pricing_plan_id":"cebpf4jnsgd1na2vs0mg"},{"bike_id":"91ad75e8-5b1a-4be8-9c68-03ec794be202","system_id":"levelo_inurba_marseille","lat":43.25923,"lon":5.40879,"is_reserved":false,"is_disabled":false,"rental_uris":{"android":"levelo://app?vid=91ad75e8-5b1a-4be8-9c68-03ec794be202","ios":"levelo://app?vid=91ad75e8-5b1a-4be8-9c68-03ec794be202"},"vehicle_type_id":"4","last_reported":1770040423,"current_range_meters":9600,"station_id":"ce4bhm92rcd13ifvqglg","pricing_plan_id":"cebpf4jnsgd1na2vs0mg"},{"bike_id":"79534d48-e26f-4999-a98b-9bc2adced944","system_id":"levelo_inurba_marseille","lat":43.294233,"lon":5.429417,"is_reserved":false,"is_disabled":false,"rental_uris":{"android":"levelo://app?vid=79534d48-e26f-4999-a98b-9bc2adced944","ios":"levelo://app?vid=79534d48-e26f-4999-a98b-9bc2adced944"},"vehicle_type_id":"4","last_reported":1770040423,"current_range_meters":10000,"station_id":"","pricing_plan_id":"cebpf4jnsgd1na2vs0mg"},{"bike_id":"eee54609-a6c8-4bc7-a936-6a1b442519d3","system_id":"levelo_inurba_marseille","lat":43.31046,"lon":5.37176,"is_reserved":false,"is_disabled":false,"rental_uris":{"android":"levelo://app?vid=eee54609-a6c8-4bc7-a936-6a1b442519d3","ios":"levelo://app?vid=eee54609-a6c8-4bc7-a936-6a1b442519d3"},"vehicle_type_id":"4","last_reported":1770040423,"current_range_meters":10000,"station_id":"st_d4kl2rp97mjs73e7tdfg","pricing_plan_id":"cebpf4jnsgd1na2vs0mg"},{"bike_id":"62e27a91-d1f4-4b1a-b2a6-3405a804b362","system_id":"levelo_inurba_marseille","lat":43.27065,"lon":5.42292,"is_reserved":false,"is_disabled":false,"rental_uris":{"android":"levelo://app?vid=62e27a91-d1f4-4b1a-b2a6-3405a804b362","ios":"levelo://app?vid=62e27a91-d1f4-4b1a-b2a6-3405a804b362"},"vehicle_type_id":"4","last_reported":1770040423,"current_range_meters":10000,"station_id":"ce4bhk92rcd13ifvqgb0","pricing_plan_id":"cebpf4jnsgd1na2vs0mg"},{"bike_id":"67949cb0-ad73-42aa-8494-c2a7d6735f87","system_id":"levelo_inurba_marseille","lat":43.31213,"lon":5.36875,"is_reserved":false,"is_disabled":false,"rental_uris":{"android":"levelo://app?vid=67949cb0-ad73-42aa-8494-c2a7d6735f87","ios":"levelo://app?vid=67949cb0-ad73-42aa-8494-c2a7d6735f87"},"vehicle_type_id":"4","last_reported":1770040423,"current_range_meters":10000,"station_id":"ce4bgl92rcd13ifvqbq0","pricing_plan_id":"cebpf4jnsgd1na2vs0mg"},{"bike_id":"1d567b04-d4f6-4239-98d7-929537b34c88","system_id":"levelo_inurba_marseille","lat":43.29187,"lon":5.37139,"is_reserved":false,"is_disabled":false,"rental_uris":{"android":"levelo://app?vid=1d567b04-d4f6-4239-98d7-929537b34c88","ios":"levelo://app?vid=1d567b04-d4f6-4239-98d7-929537b34c88"},"vehicle_type_id":"4","last_reported":1770040423,"current_range_meters":10000,"station_id":"ce4bha92rcd13ifvqeh0","pricing_plan_id":"cebpf4jnsgd1na2vs0mg"},{"bike_id":"d4392431-c253-40ef-a0d5-dd4ab6a1f20c","system_id":"levelo_inurba_marseille","lat":43.2408,"lon":5.37733,"is_reserved":false,"is_disabled":false,"rental_uris":{"android":"levelo://app?vid=d4392431-c253-40ef-a0d5-dd4ab6a1f20c","ios":"levelo://app?vid=d4392431-c253-40ef-a0d5-dd4ab6a1f20c"},"vehicle_type_id":"4","last_reported":1770040423,"current_range_meters":10000,"station_id":"ce4bhnp2rcd13ifvqgvg","pricing_plan_id":"cebpf4jnsgd1na2vs0mg"},{"bike_id":"51cbf713-f79b-4c2d-9d8b-9a1117324cc6","system_id":"levelo_inurba_marseille","lat":43.28998,"lon":5.35612,"is_reserved":false,"is_disabled":false,"rental_uris":{"android":"levelo://app?vid=51cbf713-f79b-4c2d-9d8b-9a1117324cc6","ios":"levelo://app?vid=51cbf713-f79b-4c2d-9d8b-9a1117324cc6"},"vehicle_type_id":"4","last_reported":1770040423,"current_range_meters":10000,"station_id":"ce4bhb92rcd13ifvqen0","pricing_plan_id":"cebpf4jnsgd1na2vs0mg"},{"bike_id":"eacab8c5-ae8d-4933-89ca-bb8acaba05e8","system_id":"levelo_inurba_marseille","lat":43.24809,"lon":5.37458,"is_reserved":false,"is_disabled":false,"rental_uris":{"android":"levelo://app?vid=eacab8c5-ae8d-4933-89ca-bb8acaba05e8","ios":"levelo://app?vid=eacab8c5-ae8d-4933-89ca-bb8acaba05e8"},"vehicle_type_id":"4","last_reported":1770040423,"current_range_meters":10000,"station_id":"ce4bhgh2rcd13ifvqfb0","pricing_plan_id":"cebpf4jnsgd1na2vs0mg"},{"bike_id":"643c0e4e-fd1c-4522-9a10-84fe63051179","system_id":"levelo_inurba_marseille","lat":43.279188,"lon":5.395893,"is_reserved":false,"is_disabled":false,"rental_uris":{"android":"levelo://app?vid=643c0e4e-fd1c-4522-9a10-84fe63051179","ios":"levelo://app?vid=643c0e4e-fd1c-4522-9a10-84fe63051179"},"vehicle_type_id":"4","last_reported":1770040423,"current_range_meters":10000,"station_id":"ce4bhf92rcd13ifvqf40","pricing_plan_id":"cebpf4jnsgd1na2vs0mg"},{"bike_id":"9f15acd3-c235-4225-bd95-53a025e87871","system_id":"levelo_inurba_marseille","lat":43.24181,"lon":5.39721,"is_reserved":false,"is_disabled":false,"rental_uris":{"android":"levelo://app?vid=9f15acd3-c235-4225-bd95-53a025e87871","ios":"levelo://app?vid=9f15acd3-c235-4225-bd95-53a025e87871"},"vehicle_type_id":"4","last_reported":1770040423,"current_range_meters":10000,"station_id":"ce4bhn12rcd13ifvqgpg","pricing_plan_id":"cebpf4jnsgd1na2vs0mg"},{"bike_id":"3ce871a0-823d-47d6-87f8-8ef4cc2a6659","system_id":"levelo_inurba_marseille","lat":43.26376,"lon":5.41073,"is_reserved":false,"is_disabled":false,"rental_uris":{"android":"levelo://app?vid=3ce871a0-823d-47d6-87f8-8ef4cc2a6659","ios":"levelo://app?vid=3ce871a0-823d-47d6-87f8-8ef4cc2a6659"},"vehicle_type_id":"4","last_reported":1770040423,"current_range_meters":10000,"station_id":"st_d4e5ca6na9uc73bfl5fg","pricing_plan_id":"cebpf4jnsgd1na2vs0mg"},{"bike_id":"2ca907d9-5500-42b8-85ca-dc89bdcedccd","system_id":"levelo_inurba_marseille","lat":43.28025,"lon":5.36945,"is_reserved":false,"is_disabled":false,"rental_uris":{"android":"levelo://app?vid=2ca907d9-5500-42b8-85ca-dc89bdcedccd","ios":"levelo://app?vid=2ca907d9-5500-42b8-85ca-dc89bdcedccd"},"vehicle_type_id":"4","last_reported":1770040423,"current_range_meters":10000,"station_id":"ce4bha12rcd13ifvqef0","pricing_plan_id":"cebpf4jnsgd1na2vs0mg"},{"bike_id":"6ddf7e79-fc33-436a-9f2e-0297899e5607","system_id":"levelo_inurba_marseille","lat":43.28491,"lon":5.48402,"is_reserved":false,"is_disabled":false,"rental_uris":{"android":"levelo://app?vid=6ddf7e79-fc33-436a-9f2e-0297899e5607","ios":"levelo://app?vid=6ddf7e79-fc33-436a-9f2e-0297899e5607"},"vehicle_type_id":"4","last_reported":1770040423,"current_range_meters":10000,"station_id":"","pricing_plan_id":"cebpf4jnsgd1na2vs0mg"},{"bike_id":"fcf0ecce-0d76-4462-b036-5e939a7ffa3b","system_id":"levelo_inurba_marseille","lat":43.30253,"lon":5.40062,"is_reserved":false,"is_disabled":false,"rental_uris":{"android":"levelo://app?vid=fcf0ecce-0d76-4462-b036-5e939a7ffa3b","ios":"levelo://app?vid=fcf0ecce-0d76-4462-b036-5e939a7ffa3b"},"vehicle_type_id":"4","last_reported":1770040423,"current_range_meters":10000,"station_id":"ce4bgvh2rcd13ifvqcs0","pricing_plan_id":"cebpf4jnsgd1na2vs0mg"},{"bike_id":"be616c8a-7d9f-44f2-9914-b719781dfdee","system_id":"levelo_inurba_marseille","lat":43.239652,"lon":5.36654,"is_reserved":false,"is_disabled":false,"rental_uris":{"android":"levelo://app?vid=be616c8a-7d9f-44f2-9914-b719781dfdee","ios":"levelo://app?vid=be616c8a-7d9f-44f2-9914-b719781dfdee"},"vehicle_type_id":"4","last_reported":1770040423,"current_range_meters":10000,"station_id":"ce4bhi12rcd13ifvqfp0","pricing_plan_id":"cebpf4jnsgd1na2vs0mg"},{"bike_id":"df927227-7d5d-4d8a-bbcb-ee0cc8404d12","system_id":"levelo_inurba_marseille","lat":43.31171,"lon":5.38713,"is_reserved":false,"is_disabled":false,"rental_uris":{"android":"levelo://app?vid=df927227-7d5d-4d8a-bbcb-ee0cc8404d12","ios":"levelo://app?vid=df927227-7d5d-4d8a-bbcb-ee0cc8404d12"},"vehicle_type_id":"4","last_reported":1770040423,"current_range_meters":10000,"station_id":"ce4bgv12rcd13ifvqcp0","pricing_plan_id":"cebpf4jnsgd1na2vs0mg"},{"bike_id":"5b3811ef-5681-4c18-aac4-a62920f9a85c","system_id":"levelo_inurba_marseille","lat":43.28466,"lon":5.51487,"is_reserved":false,"is_disabled":false,"rental_uris":{"android":"levelo://app?vid=5b3811ef-5681-4c18-aac4-a62920f9a85c","ios":"levelo://app?vid=5b3811ef-5681-4c18-aac4-a62920f9a85c"},"vehicle_type_id":"4","last_reported":1770040423,"current_range_meters":10000,"station_id":"","pricing_plan_id":"cebpf4jnsgd1na2vs0mg"},{"bike_id":"1bff195f-878b-4a6e-8675-61979ef9dcf7","system_id":"levelo_inurba_marseille","lat":43.23206,"lon":5.35536,"is_reserved":false,"is_disabled":false,"rental_uris":{"android":"levelo://app?vid=1bff195f-878b-4a6e-8675-61979ef9dcf7","ios":"levelo://app?vid=1bff195f-878b-4a6e-8675-61979ef9dcf7"},"vehicle_type_id":"4","last_reported":1770040423,"current_range_meters":10000,"station_id":"ce4bhu92rcd13ifvqi70","pricing_plan_id":"cebpf4jnsgd1na2vs0mg"},{"bike_id":"3e1dde1f-9ef9-4fd2-b365-458b3ab247fb","system_id":"levelo_inurba_marseille","lat":43.30957,"lon":5.39033,"is_reserved":false,"is_disabled":false,"rental_uris":{"android":"levelo://app?vid=3e1dde1f-9ef9-4fd2-b365-458b3ab247fb","ios":"levelo://app?vid=3e1dde1f-9ef9-4fd2-b365-458b3ab247fb"},"vehicle_type_id":"4","last_reported":1770040423,"current_range_meters":10000,"station_id":"ce4bgup2rcd13ifvqco0","pricing_plan_id":"cebpf4jnsgd1na2vs0mg"},{"bike_id":"94df161b-0ecb-44ae-8fb0-8997ac070984","system_id":"levelo_inurba_marseille","lat":43.313459,"lon":5.36724,"is_reserved":false,"is_disabled":false,"rental_uris":{"android":"levelo://app?vid=94df161b-0ecb-44ae-8fb0-8997ac070984","ios":"levelo://app?vid=94df161b-0ecb-44ae-8fb0-8997ac070984"},"vehicle_type_id":"4","last_reported":1770040423,"current_range_meters":10000,"station_id":"ce4bgr92rcd13ifvqc6g","pricing_plan_id":"cebpf4jnsgd1na2vs0mg"},{"bike_id":"ded542fb-57b4-4000-a893-2cf12f56ca91","system_id":"levelo_inurba_marseille","lat":43.31061,"lon":5.37147,"is_reserved":false,"is_disabled":false,"rental_uris":{"android":"levelo://app?vid=ded542fb-57b4-4000-a893-2cf12f56ca91","ios":"levelo://app?vid=ded542fb-57b4-4000-a893-2cf12f56ca91"},"vehicle_type_id":"4","last_reported":1770040423,"current_range_meters":10000,"station_id":"st_d4kl2rp97mjs73e7tdfg","pricing_plan_id":"cebpf4jnsgd1na2vs0mg"},{"bike_id":"f8fb60d6-a5e7-4966-96bd-4f078ebf31c3","system_id":"levelo_inurba_marseille","lat":43.28031,"lon":5.36954,"is_reserved":false,"is_disabled":false,"rental_uris":{"android":"levelo://app?vid=f8fb60d6-a5e7-4966-96bd-4f078ebf31c3","ios":"levelo://app?vid=f8fb60d6-a5e7-4966-96bd-4f078ebf31c3"},"vehicle_type_id":"4","last_reported":1770040423,"current_range_meters":10000,"station_id":"ce4bha12rcd13ifvqef0","pricing_plan_id":"cebpf4jnsgd1na2vs0mg"},{"bike_id":"8300bb2e-96f4-4e9e-92a9-a4d1e04694a4","system_id":"levelo_inurba_marseille","lat":43.231541,"lon":5.437106,"is_reserved":false,"is_disabled":false,"rental_uris":{"android":"levelo://app?vid=8300bb2e-96f4-4e9e-92a9-a4d1e04694a4","ios":"levelo://app?vid=8300bb2e-96f4-4e9e-92a9-a4d1e04694a4"},"vehicle_type_id":"4","last_reported":1770040423,"current_range_meters":10800,"station_id":"ce4bhmp2rcd13ifvqgog","pricing_plan_id":"cebpf4jnsgd1na2vs0mg"},{"bike_id":"f1a8fe67-5e18-4ef9-90d1-a7d3c9939adc","system_id":"levelo_inurba_marseille","lat":43.28148,"lon":5.42639,"is_reserved":false,"is_disabled":false,"rental_uris":{"android":"levelo://app?vid=f1a8fe67-5e18-4ef9-90d1-a7d3c9939adc","ios":"levelo://app?vid=f1a8fe67-5e18-4ef9-90d1-a7d3c9939adc"},"vehicle_type_id":"4","last_reported":1770040423,"current_range_meters":10800,"station_id":"ce4bhnh2rcd13ifvqgug","pricing_plan_id":"cebpf4jnsgd1na2vs0mg"},{"bike_id":"fd4003f9-ae57-43d9-af54-09e855d38b22","system_id":"levelo_inurba_marseille","lat":43.28543,"lon":5.44097,"is_reserved":false,"is_disabled":false,"rental_uris":{"android":"levelo://app?vid=fd4003f9-ae57-43d9-af54-09e855d38b22","ios":"levelo://app?vid=fd4003f9-ae57-43d9-af54-09e855d38b22"},"vehicle_type_id":"4","last_reported":1770040423,"current_range_meters":10800,"station_id":"st_d3j3df2ikq2c7380ej80","pricing_plan_id":"cebpf4jnsgd1na2vs0mg"},{"bike_id":"f5f68397-fddd-40b2-82ac-209f8b502496","system_id":"levelo_inurba_marseille","lat":43.27944,"lon":5.41011,"is_reserved":false,"is_disabled":false,"rental_uris":{"android":"levelo://app?vid=f5f68397-fddd-40b2-82ac-209f8b502496","ios":"levelo://app?vid=f5f68397-fddd-40b2-82ac-209f8b502496"},"vehicle_type_id":"4","last_reported":1770040423,"current_range_meters":10800,"station_id":"ce4bhnp2rcd13ifvqh0g","pricing_plan_id":"cebpf4jnsgd1na2vs0mg"},{"bike_id":"2c0bc4db-f557-470b-bd8a-9520318620b0","system_id":"levelo_inurba_marseille","lat":43.28412,"lon":5.34996,"is_reserved":false,"is_disabled":false,"rental_uris":{"android":"levelo://app?vid=2c0bc4db-f557-470b-bd8a-9520318620b0","ios":"levelo://app?vid=2c0bc4db-f557-470b-bd8a-9520318620b0"},"vehicle_type_id":"4","last_reported":1770040423,"current_range_meters":10800,"station_id":"ce4bhbh2rcd13ifvqepg","pricing_plan_id":"cebpf4jnsgd1na2vs0mg"},{"bike_id":"05f3e44e-c770-4b61-8b7e-293d128988a6","system_id":"levelo_inurba_marseille","lat":43.29857,"lon":5.36276,"is_reserved":false,"is_disabled":false,"rental_uris":{"android":"levelo://app?vid=05f3e44e-c770-4b61-8b7e-293d128988a6","ios":"levelo://app?vid=05f3e44e-c770-4b61-8b7e-293d128988a6"},"vehicle_type_id":"4","last_reported":1770040423,"current_range_meters":10800,"station_id":"ce4bgpp2rcd13ifvqc3g","pricing_plan_id":"cebpf4jnsgd1na2vs0mg"},{"bike_id":"12778361-2a90-4cfd-b78b-a91e7248d3ab","system_id":"levelo_inurba_marseille","lat":43.26542,"lon":5.3728,"is_reserved":false,"is_disabled":true,"rental_uris":{"android":"levelo://app?vid=12778361-2a90-4cfd-b78b-a91e7248d3ab","ios":"levelo://app?vid=12778361-2a90-4cfd-b78b-a91e7248d3ab"},"vehicle_type_id":"4","last_reported":1770040423,"current_range_meters":10800,"station_id":"ce4bhg12rcd13ifvqf70","pricing_plan_id":"cebpf4jnsgd1na2vs0mg"},{"bike_id":"68d2a9d1-2044-4f9c-8e7b-e4d9640d90af","system_id":"levelo_inurba_marseille","lat":43.2971,"lon":5.37957,"is_reserved":false,"is_disabled":false,"rental_uris":{"android":"levelo://app?vid=68d2a9d1-2044-4f9c-8e7b-e4d9640d90af","ios":"levelo://app?vid=68d2a9d1-2044-4f9c-8e7b-e4d9640d90af"},"vehicle_type_id":"4","last_reported":1770040423,"current_range_meters":10800,"station_id":"","pricing_plan_id":"cebpf4jnsgd1na2vs0mg"},{"bike_id":"605e5e97-d62d-47ec-b520-e9b6f67b4725","system_id":"levelo_inurba_marseille","lat":43.240654,"lon":5.37766,"is_reserved":false,"is_disabled":false,"rental_uris":{"android":"levelo://app?vid=605e5e97-d62d-47ec-b520-e9b6f67b4725","ios":"levelo://app?vid=605e5e97-d62d-47ec-b520-e9b6f67b4725"},"vehicle_type_id":"4","last_reported":1770040423,"current_range_meters":10800,"station_id":"ce4bhnp2rcd13ifvqgvg","pricing_plan_id":"cebpf4jnsgd1na2vs0mg"},{"bike_id":"afdea8e1-936c-4253-b210-06e476aef613","system_id":"levelo_inurba_marseille","lat":43.2999,"lon":5.37172,"is_reserved":false,"is_disabled":false,"rental_uris":{"android":"levelo://app?vid=afdea8e1-936c-4253-b210-06e476aef613","ios":"levelo://app?vid=afdea8e1-936c-4253-b210-06e476aef613"},"vehicle_type_id":"4","last_reported":1770040423,"current_range_meters":10800,"station_id":"ce4bgr92rcd13ifvqc7g","pricing_plan_id":"cebpf4jnsgd1na2vs0mg"},{"bike_id":"d8867ddc-8e09-4bfb-b89b-948c7ce07af7","system_id":"levelo_inurba_marseille","lat":43.27501,"lon":5.4246,"is_reserved":false,"is_disabled":false,"rental_uris":{"android":"levelo://app?vid=d8867ddc-8e09-4bfb-b89b-948c7ce07af7","ios":"levelo://app?vid=d8867ddc-8e09-4bfb-b89b-948c7ce07af7"},"vehicle_type_id":"4","last_reported":1770040423,"current_range_meters":10800,"station_id":"ce4bhn92rcd13ifvqgrg","pricing_plan_id":"cebpf4jnsgd1na2vs0mg"},{"bike_id":"120e4aac-e935-41ee-bc27-24be3776229a","system_id":"levelo_inurba_marseille","lat":43.279484,"lon":5.410354,"is_reserved":false,"is_disabled":false,"rental_uris":{"android":"levelo://app?vid=120e4aac-e935-41ee-bc27-24be3776229a","ios":"levelo://app?vid=120e4aac-e935-41ee-bc27-24be3776229a"},"vehicle_type_id":"4","last_reported":1770040423,"current_range_meters":10800,"station_id":"ce4bhnp2rcd13ifvqh0g","pricing_plan_id":"cebpf4jnsgd1na2vs0mg"},{"bike_id":"67d94700-218b-4e1b-9b09-f23953a1fdd8","system_id":"levelo_inurba_marseille","lat":43.26215,"lon":5.40473,"is_reserved":false,"is_disabled":false,"rental_uris":{"android":"levelo://app?vid=67d94700-218b-4e1b-9b09-f23953a1fdd8","ios":"levelo://app?vid=67d94700-218b-4e1b-9b09-f23953a1fdd8"},"vehicle_type_id":"4","last_reported":1770040423,"current_range_meters":10800,"station_id":"ce4bhmh2rcd13ifvqgmg","pricing_plan_id":"cebpf4jnsgd1na2vs0mg"},{"bike_id":"7a0b05a7-dd69-497a-b391-90e693659fcf","system_id":"levelo_inurba_marseille","lat":43.29276,"lon":5.40116,"is_reserved":false,"is_disabled":false,"rental_uris":{"android":"levelo://app?vid=7a0b05a7-dd69-497a-b391-90e693659fcf","ios":"levelo://app?vid=7a0b05a7-dd69-497a-b391-90e693659fcf"},"vehicle_type_id":"4","last_reported":1770040423,"current_range_meters":10800,"station_id":"ce4bh312rcd13ifvqdk0","pricing_plan_id":"cebpf4jnsgd1na2vs0mg"},{"bike_id":"549d637b-91c5-48ec-83fa-865a463b6a4b","system_id":"levelo_inurba_marseille","lat":43.23189,"lon":5.35557,"is_reserved":false,"is_disabled":false,"rental_uris":{"android":"levelo://app?vid=549d637b-91c5-48ec-83fa-865a463b6a4b","ios":"levelo://app?vid=549d637b-91c5-48ec-83fa-865a463b6a4b"},"vehicle_type_id":"4","last_reported":1770040423,"current_range_meters":10800,"station_id":"ce4bhu92rcd13ifvqi70","pricing_plan_id":"cebpf4jnsgd1na2vs0mg"},{"bike_id":"7bd1a0d5-99af-4dd1-b812-22e6ca08e9f0","system_id":"levelo_inurba_marseille","lat":43.2928,"lon":5.40127,"is_reserved":false,"is_disabled":false,"rental_uris":{"android":"levelo://app?vid=7bd1a0d5-99af-4dd1-b812-22e6ca08e9f0","ios":"levelo://app?vid=7bd1a0d5-99af-4dd1-b812-22e6ca08e9f0"},"vehicle_type_id":"4","last_reported":1770040423,"current_range_meters":10800,"station_id":"ce4bh312rcd13ifvqdk0","pricing_plan_id":"cebpf4jnsgd1na2vs0mg"},{"bike_id":"e54d1a6c-1d24-448b-bd43-0ba1a1168302","system_id":"levelo_inurba_marseille","lat":43.28349,"lon":5.38111,"is_reserved":false,"is_disabled":false,"rental_uris":{"android":"levelo://app?vid=e54d1a6c-1d24-448b-bd43-0ba1a1168302","ios":"levelo://app?vid=e54d1a6c-1d24-448b-bd43-0ba1a1168302"},"vehicle_type_id":"4","last_reported":1770040423,"current_range_meters":10800,"station_id":"ce4bh412rcd13ifvqdr0","pricing_plan_id":"cebpf4jnsgd1na2vs0mg"},{"bike_id":"deb9e4eb-a481-4dbd-9838-7e21c4114a77","system_id":"levelo_inurba_marseille","lat":43.24627,"lon":5.38909,"is_reserved":false,"is_disabled":false,"rental_uris":{"android":"levelo://app?vid=deb9e4eb-a481-4dbd-9838-7e21c4114a77","ios":"levelo://app?vid=deb9e4eb-a481-4dbd-9838-7e21c4114a77"},"vehicle_type_id":"4","last_reported":1770040423,"current_range_meters":10800,"station_id":"ce4bhg12rcd13ifvqf60","pricing_plan_id":"cebpf4jnsgd1na2vs0mg"},{"bike_id":"98fce53e-2f71-43cb-b9de-a1e78e7dc72e","system_id":"levelo_inurba_marseille","lat":43.23184,"lon":5.39943,"is_reserved":false,"is_disabled":false,"rental_uris":{"android":"levelo://app?vid=98fce53e-2f71-43cb-b9de-a1e78e7dc72e","ios":"levelo://app?vid=98fce53e-2f71-43cb-b9de-a1e78e7dc72e"},"vehicle_type_id":"4","last_reported":1770040423,"current_range_meters":11200,"station_id":"","pricing_plan_id":"cebpf4jnsgd1na2vs0mg"},{"bike_id":"90cafb22-43f6-47bb-9e80-c8fa9891709f","system_id":"levelo_inurba_marseille","lat":43.26187,"lon":5.37916,"is_reserved":false,"is_disabled":false,"rental_uris":{"android":"levelo://app?vid=90cafb22-43f6-47bb-9e80-c8fa9891709f","ios":"levelo://app?vid=90cafb22-43f6-47bb-9e80-c8fa9891709f"},"vehicle_type_id":"4","last_reported":1770040423,"current_range_meters":11200,"station_id":"ce4bhjp2rcd13ifvqg90","pricing_plan_id":"cebpf4jnsgd1na2vs0mg"},{"bike_id":"c3ba0fed-3d29-4191-b8a3-c899b1e9e5ad","system_id":"levelo_inurba_marseille","lat":43.25588,"lon":5.38227,"is_reserved":false,"is_disabled":false,"rental_uris":{"android":"levelo://app?vid=c3ba0fed-3d29-4191-b8a3-c899b1e9e5ad","ios":"levelo://app?vid=c3ba0fed-3d29-4191-b8a3-c899b1e9e5ad"},"vehicle_type_id":"4","last_reported":1770040423,"current_range_meters":11200,"station_id":"ce4bhih2rcd13ifvqfs0","pricing_plan_id":"cebpf4jnsgd1na2vs0mg"},{"bike_id":"cc7be9e8-a1a0-4f68-8d42-c70d6cdd5d6b","system_id":"levelo_inurba_marseille","lat":43.29557,"lon":5.42286,"is_reserved":false,"is_disabled":false,"rental_uris":{"android":"levelo://app?vid=cc7be9e8-a1a0-4f68-8d42-c70d6cdd5d6b","ios":"levelo://app?vid=cc7be9e8-a1a0-4f68-8d42-c70d6cdd5d6b"},"vehicle_type_id":"4","last_reported":1770040423,"current_range_meters":11200,"station_id":"ce4bhph2rcd13ifvqhdg","pricing_plan_id":"cebpf4jnsgd1na2vs0mg"},{"bike_id":"8549a1d1-68eb-4349-9b09-4c0cf211ff20","system_id":"levelo_inurba_marseille","lat":43.29941,"lon":5.36552,"is_reserved":false,"is_disabled":false,"rental_uris":{"android":"levelo://app?vid=8549a1d1-68eb-4349-9b09-4c0cf211ff20","ios":"levelo://app?vid=8549a1d1-68eb-4349-9b09-4c0cf211ff20"},"vehicle_type_id":"4","last_reported":1770040423,"current_range_meters":11200,"station_id":"ce4bgm92rcd13ifvqbr0","pricing_plan_id":"cebpf4jnsgd1na2vs0mg"},{"bike_id":"ba3390f5-14ed-4160-abcf-8bea19885613","system_id":"levelo_inurba_marseille","lat":43.28477,"lon":5.48397,"is_reserved":false,"is_disabled":false,"rental_uris":{"android":"levelo://app?vid=ba3390f5-14ed-4160-abcf-8bea19885613","ios":"levelo://app?vid=ba3390f5-14ed-4160-abcf-8bea19885613"},"vehicle_type_id":"4","last_reported":1770040423,"current_range_meters":11200,"station_id":"st_d3svhcjqgbts73a3dn0g","pricing_plan_id":"cebpf4jnsgd1na2vs0mg"},{"bike_id":"18d1a03c-71f9-47bc-804b-7e0c3eef0ad0","system_id":"levelo_inurba_marseille","lat":43.30131,"lon":5.43119,"is_reserved":false,"is_disabled":false,"rental_uris":{"android":"levelo://app?vid=18d1a03c-71f9-47bc-804b-7e0c3eef0ad0","ios":"levelo://app?vid=18d1a03c-71f9-47bc-804b-7e0c3eef0ad0"},