{"last_updated":1691258820,"ttl":30,"version":"2.2","data":{"bikes":[{"bike_id":"964bd1ad-3b74-4968-adaf-519aedac0048","system_id":"levelo_inurba_marseille","lat":43.313391,"lon":5.36706,"is_reserved":false,"is_disabled":false,"rental_uris":{"android":"levelo://app?vid=964bd1ad-3b74-4968-adaf-519aedac0048","ios":"levelo://app?vid=964bd1ad-3b74-4968-adaf-519aedac0048"},"vehicle_type_id":"4","last_reported":1691258820,"current_range_meters":9200,"station_id":"ce4bgr92rcd13ifvqc6g","pricing_plan_id":"free"},{"bike_id":"3f9f44c5-19b8-4b87-b198-0c2a0309261b","system_id":"levelo_inurba_marseille","lat":43.313391,"lon":5.36706,"is_reserved":false,"is_disabled":false,"rental_uris":{"android":"levelo://app?vid=3f9f44c5-19b8-4b87-b198-0c2a0309261b","ios":"levelo://app?vid=3f9f44c5-19b8-4b87-b198-0c2a0309261b"},"vehicle_type_id":"4","last_reported":1691258820,"current_range_meters":31200,"station_id":"ce4bgr92rcd13ifvqc6g","pricing_plan_id":"free"},{"bike_id":"363bfedb-233c-4cf8-a5fc-03ac7e313e52","system_id":"levelo_inurba_marseille","lat":43.31214,"lon":5.36831,"is_reserved":false,"is_disabled":false,"rental_uris":{"android":"levelo://app?vid=363bfedb-233c-4cf8-a5fc-03ac7e313e52","ios":"levelo://app?vid=363bfedb-233c-4cf8-a5fc-03ac7e313e52"},"vehicle_type_id":"4","last_reported":1691258820,"current_range_meters":0,"station_id":"ce4bgl92rcd13ifvqbq0","pricing_plan_id":"free"},{"bike_id":"d1e84a2d-6d9a-4149-974c-74efb4a0e2aa","system_id":"levelo_inurba_marseille","lat":43.312239,"lon":5.368562,"is_reserved":false,"is_disabled":false,"rental_uris":{"android":"levelo://app?vid=d1e84a2d-6d9a-4149-974c-74efb4a0e2aa","ios":"levelo://app?vid=d1e84a2d-6d9a-4149-974c-74efb4a0e2aa"},"vehicle_type_id":"4","last_reported":1691258820,"current_range_meters":17600,"station_id":"ce4bgl92rcd13ifvqbq0","pricing_plan_id":"free"},{"bike_id":"68f2d993-5618-43ca-bf4e-bc3b15c1bb74","system_id":"levelo_inurba_marseille","lat":43.309076,"lon":5.368465,"is_reserved":false,"is_disabled":false,"rental_uris":{"android":"levelo://app?vid=68f2d993-5618-43ca-bf4e-bc3b15c1bb74","ios":"levelo://app?vid=68f2d993-5618-43ca-bf4e-bc3b15c1bb74"},"vehicle_type_id":"4","last_reported":1691258820,"current_range_meters":0,"station_id":"ce4bgn92rcd13ifvqbvg","pricing_plan_id":"free"},{"bike_id":"fb723523-b0a8-405e-9ecb-29b6ee47ad2f","system_id":"levelo_inurba_marseille","lat":43.309076,"lon":5.368465,"is_reserved":false,"is_disabled":false,"rental_uris":{"android":"levelo://app?vid=fb723523-b0a8-405e-9ecb-29b6ee47ad2f","ios":"levelo://app?vid=fb723523-b0a8-405e-9ecb-29b6ee47ad2f"},"vehicle_type_id":"4","last_reported":1691258820,"current_range_meters":7200,"station_id":"ce4bgn92rcd13ifvqbvg","pricing_plan_id":"free"},{"bike_id":"272591e7-b4f8-45cf-bfcc-93c2daea1e43","system_id":"levelo_inurba_marseille","lat":43.31488,"lon":5.37301,"is_reserved":false,"is_disabled":false,"rental_uris":{"android":"levelo://app?vid=272591e7-b4f8-45cf-bfcc-93c2daea1e43","ios":"levelo://app?vid=272591e7-b4f8-45cf-bfcc-93c2daea1e43"},"vehicle_type_id":"4","last_reported":1691258820,"current_range_meters":13600,"station_id":"ce4bgt12rcd13ifvqcd0","pricing_plan_id":"free"},{"bike_id":"73637a7d-f912-41f7-b340-e5f7996859f9","system_id":"levelo_inurba_marseille","lat":43.314811,"lon":5.373103,"is_reserved":false,"is_disabled":false,"rental_uris":{"android":"levelo://app?vid=73637a7d-f912-41f7-b340-e5f7996859f9","ios":"levelo://app?vid=73637a7d-f912-41f7-b340-e5f7996859f9"},"vehicle_type_id":"4","last_reported":1691258820,"current_range_meters":24800,"station_id":"ce4bgt12rcd13ifvqcd0","pricing_plan_id":"free"},{"bike_id":"1c13d891-21d9-41b2-92da-7a15ad627ce6","system_id":"levelo_inurba_marseille","lat":43.31485,"lon":5.37307,"is_reserved":false,"is_disabled":false,"rental_uris":{"android":"levelo://app?vid=1c13d891-21d9-41b2-92da-7a15ad627ce6","ios":"levelo://app?vid=1c13d891-21d9-41b2-92da-7a15ad627ce6"},"vehicle_type_id":"4","last_reported":1691258820,"current_range_meters":24000,"station_id":"ce4bgt12rcd13ifvqcd0","pricing_plan_id":"free"},{"bike_id":"7cfb81a3-fd7f-41d1-987d-c1037b7c6b4a","system_id":"levelo_inurba_marseille","lat":43.31421,"lon":5.37417,"is_reserved":false,"is_disabled":false,"rental_uris":{"android":"levelo://app?vid=7cfb81a3-fd7f-41d1-987d-c1037b7c6b4a","ios":"levelo://app?vid=7cfb81a3-fd7f-41d1-987d-c1037b7c6b4a"},"vehicle_type_id":"4","last_reported":1691258820,"current_range_meters":12000,"station_id":"","pricing_plan_id":"free"},{"bike_id":"f20ea888-8740-440b-bfeb-8eb2a7c1f652","system_id":"levelo_inurba_marseille","lat":43.305989,"lon":5.37225,"is_reserved":false,"is_disabled":false,"rental_uris":{"android":"levelo://app?vid=f20ea888-8740-440b-bfeb-8eb2a7c1f652","ios":"levelo://app?vid=f20ea888-8740-440b-bfeb-8eb2a7c1f652"},"vehicle_type_id":"4","last_reported":1691258820,"current_range_meters":31200,"station_id":"ce4bgqh2rcd13ifvqc4g","pricing_plan_id":"free"},{"bike_id":"feb399b5-2817-4b32-8ab4-fc09e0682c77","system_id":"levelo_inurba_marseille","lat":43.307945,"lon":5.376487,"is_reserved":false,"is_disabled":false,"rental_uris":{"android":"levelo://app?vid=feb399b5-2817-4b32-8ab4-fc09e0682c77","ios":"levelo://app?vid=feb399b5-2817-4b32-8ab4-fc09e0682c77"},"vehicle_type_id":"4","last_reported":1691258820,"current_range_meters":15200,"station_id":"ce4bgv92rcd13ifvqcq0","pricing_plan_id":"free"},{"bike_id":"d0cda0df-b450-40b5-8ebf-842c2fc10716","system_id":"levelo_inurba_marseille","lat":43.31696,"lon":5.3773,"is_reserved":false,"is_disabled":false,"rental_uris":{"android":"levelo://app?vid=d0cda0df-b450-40b5-8ebf-842c2fc10716","ios":"levelo://app?vid=d0cda0df-b450-40b5-8ebf-842c2fc10716"},"vehicle_type_id":"4","last_reported":1691258820,"current_range_meters":17200,"station_id":"","pricing_plan_id":"free"},{"bike_id":"7cd2cfdc-c3d5-4161-8654-05e0945ffa2c","system_id":"levelo_inurba_marseille","lat":43.317075,"lon":5.377367,"is_reserved":false,"is_disabled":false,"rental_uris":{"android":"levelo://app?vid=7cd2cfdc-c3d5-4161-8654-05e0945ffa2c","ios":"levelo://app?vid=7cd2cfdc-c3d5-4161-8654-05e0945ffa2c"},"vehicle_type_id":"4","last_reported":1691258820,"current_range_meters":26000,"station_id":"ce4bgth2rcd13ifvqch0","pricing_plan_id":"free"},{"bike_id":"7e5c2d62-3821-43cf-b989-f061fa07d40c","system_id":"levelo_inurba_marseille","lat":43.302784,"lon":5.377158,"is_reserved":false,"is_disabled":false,"rental_uris":{"android":"levelo://app?vid=7e5c2d62-3821-43cf-b989-f061fa07d40c","ios":"levelo://app?vid=7e5c2d62-3821-43cf-b989-f061fa07d40c"},"vehicle_type_id":"4","last_reported":1691258820,"current_range_meters":30400,"station_id":"ce4bguh2rcd13ifvqcj0","pricing_plan_id":"free"},{"bike_id":"a1d0e86a-d995-4069-b0e5-3a4165716b43","system_id":"levelo_inurba_marseille","lat":43.302784,"lon":5.377158,"is_reserved":false,"is_disabled":false,"rental_uris":{"android":"levelo://app?vid=a1d0e86a-d995-4069-b0e5-3a4165716b43","ios":"levelo://app?vid=a1d0e86a-d995-4069-b0e5-3a4165716b43"},"vehicle_type_id":"4","last_reported":1691258820,"current_range_meters":12400,"station_id":"ce4bguh2rcd13ifvqcj0","pricing_plan_id":"free"},{"bike_id":"d212a228-7223-4a91-bcfd-cb5f329fbdba","system_id":"levelo_inurba_marseille","lat":43.31993,"lon":5.38163,"is_reserved":false,"is_disabled":false,"rental_uris":{"android":"levelo://app?vid=d212a228-7223-4a91-bcfd-cb5f329fbdba","ios":"levelo://app?vid=d212a228-7223-4a91-bcfd-cb5f329fbdba"},"vehicle_type_id":"4","last_reported":1691258820,"current_range_meters":20000,"station_id":"ce4bhr12rcd13ifvqhpg","pricing_plan_id":"free"},{"bike_id":"91c1e68c-072c-41ed-ab7d-e40ec14976ba","system_id":"levelo_inurba_marseille","lat":43.31999,"lon":5.38161,"is_reserved":false,"is_disabled":false,"rental_uris":{"android":"levelo://app?vid=91c1e68c-072c-41ed-ab7d-e40ec14976ba","ios":"levelo://app?vid=91c1e68c-072c-41ed-ab7d-e40ec14976ba"},"vehicle_type_id":"4","last_reported":1691258820,"current_range_meters":4000,"station_id":"ce4bhr12rcd13ifvqhpg","pricing_plan_id":"free"},{"bike_id":"cb31e567-1f56-4c43-a0bd-9189e49b78a1","system_id":"levelo_inurba_marseille","lat":43.31999,"lon":5.38163,"is_reserved":false,"is_disabled":false,"rental_uris":{"android":"levelo://app?vid=cb31e567-1f56-4c43-a0bd-9189e49b78a1","ios":"levelo://app?vid=cb31e567-1f56-4c43-a0bd-9189e49b78a1"},"vehicle_type_id":"4","last_reported":1691258820,"current_range_meters":15600,"station_id":"ce4bhr12rcd13ifvqhpg","pricing_plan_id":"free"},{"bike_id":"e859c33c-dbd6-45fb-872a-fc2cce2269ed","system_id":"levelo_inurba_marseille","lat":43.313571,"lon":5.384829,"is_reserved":false,"is_disabled":false,"rental_uris":{"android":"levelo://app?vid=e859c33c-dbd6-45fb-872a-fc2cce2269ed","ios":"levelo://app?vid=e859c33c-dbd6-45fb-872a-fc2cce2269ed"},"vehicle_type_id":"4","last_reported":1691258820,"current_range_meters":25200,"station_id":"ce4bgt92rcd13ifvqcf0","pricing_plan_id":"free"},{"bike_id":"2ee7e6f7-6cae-45ec-99ff-b4f2ad9ee201","system_id":"levelo_inurba_marseille","lat":43.313571,"lon":5.384829,"is_reserved":false,"is_disabled":false,"rental_uris":{"android":"levelo://app?vid=2ee7e6f7-6cae-45ec-99ff-b4f2ad9ee201","ios":"levelo://app?vid=2ee7e6f7-6cae-45ec-99ff-b4f2ad9ee201"},"vehicle_type_id":"4","last_reported":1691258820,"current_range_meters":16800,"station_id":"ce4bgt92rcd13ifvqcf0","pricing_plan_id":"free"},{"bike_id":"5e43a2e6-5007-4eab-8aa4-0253fa65da97","system_id":"levelo_inurba_marseille","lat":43.313571,"lon":5.384829,"is_reserved":false,"is_disabled":false,"rental_uris":{"android":"levelo://app?vid=5e43a2e6-5007-4eab-8aa4-0253fa65da97","ios":"levelo://app?vid=5e43a2e6-5007-4eab-8aa4-0253fa65da97"},"vehicle_type_id":"4","last_reported":1691258820,"current_range_meters":8400,"station_id":"ce4bgt92rcd13ifvqcf0","pricing_plan_id":"free"},{"bike_id":"3e76ada0-5d72-4dd4-a406-81875221f849","system_id":"levelo_inurba_marseille","lat":43.313571,"lon":5.384829,"is_reserved":false,"is_disabled":false,"rental_uris":{"android":"levelo://app?vid=3e76ada0-5d72-4dd4-a406-81875221f849","ios":"levelo://app?vid=3e76ada0-5d72-4dd4-a406-81875221f849"},"vehicle_type_id":"4","last_reported":1691258820,"current_range_meters":9200,"station_id":"ce4bgt92rcd13ifvqcf0","pricing_plan_id":"free"},{"bike_id":"8a227b8b-c1ce-4208-a954-c7b5a6e684fe","system_id":"levelo_inurba_marseille","lat":43.313571,"lon":5.384829,"is_reserved":false,"is_disabled":false,"rental_uris":{"android":"levelo://app?vid=8a227b8b-c1ce-4208-a954-c7b5a6e684fe","ios":"levelo://app?vid=8a227b8b-c1ce-4208-a954-c7b5a6e684fe"},"vehicle_type_id":"4","last_reported":1691258820,"current_range_meters":15600,"station_id":"ce4bgt92rcd13ifvqcf0","pricing_plan_id":"free"},{"bike_id":"3cb7fd70-121e-4eb5-9a01-ecc8718aa1bb","system_id":"levelo_inurba_marseille","lat":43.29943,"lon":5.36525,"is_reserved":false,"is_disabled":false,"rental_uris":{"android":"levelo://app?vid=3cb7fd70-121e-4eb5-9a01-ecc8718aa1bb","ios":"levelo://app?vid=3cb7fd70-121e-4eb5-9a01-ecc8718aa1bb"},"vehicle_type_id":"4","last_reported":1691258820,"current_range_meters":28800,"station_id":"ce4bgm92rcd13ifvqbr0","pricing_plan_id":"free"},{"bike_id":"30537d43-af02-4a10-b928-7b9b8cf633d2","system_id":"levelo_inurba_marseille","lat":43.30545,"lon":5.38421,"is_reserved":false,"is_disabled":false,"rental_uris":{"android":"levelo://app?vid=30537d43-af02-4a10-b928-7b9b8cf633d2","ios":"levelo://app?vid=30537d43-af02-4a10-b928-7b9b8cf633d2"},"vehicle_type_id":"4","last_reported":1691258820,"current_range_meters":29600,"station_id":"ce4bgg92rcd13ifvqb30","pricing_plan_id":"free"},{"bike_id":"3709f9b9-8236-43c5-98cb-51c5f455d0cb","system_id":"levelo_inurba_marseille","lat":43.29849,"lon":5.36285,"is_reserved":false,"is_disabled":false,"rental_uris":{"android":"levelo://app?vid=3709f9b9-8236-43c5-98cb-51c5f455d0cb","ios":"levelo://app?vid=3709f9b9-8236-43c5-98cb-51c5f455d0cb"},"vehicle_type_id":"4","last_reported":1691258820,"current_range_meters":14400,"station_id":"ce4bgpp2rcd13ifvqc3g","pricing_plan_id":"free"},{"bike_id":"28d74007-a6d7-4e77-b70d-ee39d0448f93","system_id":"levelo_inurba_marseille","lat":43.29923,"lon":5.37471,"is_reserved":false,"is_disabled":false,"rental_uris":{"android":"levelo://app?vid=28d74007-a6d7-4e77-b70d-ee39d0448f93","ios":"levelo://app?vid=28d74007-a6d7-4e77-b70d-ee39d0448f93"},"vehicle_type_id":"4","last_reported":1691258820,"current_range_meters":0,"station_id":"ce4bgjh2rcd13ifvqbg0","pricing_plan_id":"free"},{"bike_id":"67c721e4-d6ec-4696-9c8d-7c8479e2eb6e","system_id":"levelo_inurba_marseille","lat":43.2992,"lon":5.37477,"is_reserved":false,"is_disabled":false,"rental_uris":{"android":"levelo://app?vid=67c721e4-d6ec-4696-9c8d-7c8479e2eb6e","ios":"levelo://app?vid=67c721e4-d6ec-4696-9c8d-7c8479e2eb6e"},"vehicle_type_id":"4","last_reported":1691258820,"current_range_meters":26800,"station_id":"ce4bgjh2rcd13ifvqbg0","pricing_plan_id":"free"},{"bike_id":"a146da5b-7064-4878-8f72-f66f53b7419a","system_id":"levelo_inurba_marseille","lat":43.299243,"lon":5.374807,"is_reserved":false,"is_disabled":false,"rental_uris":{"android":"levelo://app?vid=a146da5b-7064-4878-8f72-f66f53b7419a","ios":"levelo://app?vid=a146da5b-7064-4878-8f72-f66f53b7419a"},"vehicle_type_id":"4","last_reported":1691258820,"current_range_meters":2400,"station_id":"ce4bgjh2rcd13ifvqbg0","pricing_plan_id":"free"},{"bike_id":"f88c31a1-4330-46bb-9e0b-9d6563accafe","system_id":"levelo_inurba_marseille","lat":43.29916,"lon":5.37474,"is_reserved":false,"is_disabled":false,"rental_uris":{"android":"levelo://app?vid=f88c31a1-4330-46bb-9e0b-9d6563accafe","ios":"levelo://app?vid=f88c31a1-4330-46bb-9e0b-9d6563accafe"},"vehicle_type_id":"4","last_reported":1691258820,"current_range_meters":5600,"station_id":"ce4bgjh2rcd13ifvqbg0","pricing_plan_id":"free"},{"bike_id":"ff1b2287-7cdf-4e9f-8cbe-3ed146e677c7","system_id":"levelo_inurba_marseille","lat":43.311722,"lon":5.387247,"is_reserved":false,"is_disabled":false,"rental_uris":{"android":"levelo://app?vid=ff1b2287-7cdf-4e9f-8cbe-3ed146e677c7","ios":"levelo://app?vid=ff1b2287-7cdf-4e9f-8cbe-3ed146e677c7"},"vehicle_type_id":"4","last_reported":1691258820,"current_range_meters":23600,"station_id":"ce4bgv12rcd13ifvqcp0","pricing_plan_id":"free"},{"bike_id":"c18ea6d4-b39d-4066-95a2-5beb40bc1cfb","system_id":"levelo_inurba_marseille","lat":43.297794,"lon":5.370888,"is_reserved":false,"is_disabled":false,"rental_uris":{"android":"levelo://app?vid=c18ea6d4-b39d-4066-95a2-5beb40bc1cfb","ios":"levelo://app?vid=c18ea6d4-b39d-4066-95a2-5beb40bc1cfb"},"vehicle_type_id":"4","last_reported":1691258820,"current_range_meters":30400,"station_id":"ce4bgop2rcd13ifvqc1g","pricing_plan_id":"free"},{"bike_id":"3235488a-5abe-4f27-a56a-50e7b9989127","system_id":"levelo_inurba_marseille","lat":43.32289,"lon":5.38268,"is_reserved":false,"is_disabled":false,"rental_uris":{"android":"levelo://app?vid=3235488a-5abe-4f27-a56a-50e7b9989127","ios":"levelo://app?vid=3235488a-5abe-4f27-a56a-50e7b9989127"},"vehicle_type_id":"4","last_reported":1691258820,"current_range_meters":30400,"station_id":"ce4bhr12rcd13ifvqhqg","pricing_plan_id":"free"},{"bike_id":"4711f823-9a36-491d-a201-28215b8e5924","system_id":"levelo_inurba_marseille","lat":43.32288,"lon":5.38275,"is_reserved":false,"is_disabled":false,"rental_uris":{"android":"levelo://app?vid=4711f823-9a36-491d-a201-28215b8e5924","ios":"levelo://app?vid=4711f823-9a36-491d-a201-28215b8e5924"},"vehicle_type_id":"4","last_reported":1691258820,"current_range_meters":16000,"station_id":"ce4bhr12rcd13ifvqhqg","pricing_plan_id":"free"},{"bike_id":"8ae2a292-4b68-4114-8267-e4d284ceb76e","system_id":"levelo_inurba_marseille","lat":43.32818,"lon":5.36669,"is_reserved":false,"is_disabled":false,"rental_uris":{"android":"levelo://app?vid=8ae2a292-4b68-4114-8267-e4d284ceb76e","ios":"levelo://app?vid=8ae2a292-4b68-4114-8267-e4d284ceb76e"},"vehicle_type_id":"4","last_reported":1691258820,"current_range_meters":22000,"station_id":"ce4bhs92rcd13ifvqi0g","pricing_plan_id":"free"},{"bike_id":"0963bae3-5b20-4e80-bff4-aafb7af6f51f","system_id":"levelo_inurba_marseille","lat":43.32822,"lon":5.36685,"is_reserved":false,"is_disabled":false,"rental_uris":{"android":"levelo://app?vid=0963bae3-5b20-4e80-bff4-aafb7af6f51f","ios":"levelo://app?vid=0963bae3-5b20-4e80-bff4-aafb7af6f51f"},"vehicle_type_id":"4","last_reported":1691258820,"current_range_meters":11200,"station_id":"ce4bhs92rcd13ifvqi0g","pricing_plan_id":"free"},{"bike_id":"b817d5ed-7bfc-4b4f-ab91-d197cc36525d","system_id":"levelo_inurba_marseille","lat":43.32824,"lon":5.36681,"is_reserved":false,"is_disabled":false,"rental_uris":{"android":"levelo://app?vid=b817d5ed-7bfc-4b4f-ab91-d197cc36525d","ios":"levelo://app?vid=b817d5ed-7bfc-4b4f-ab91-d197cc36525d"},"vehicle_type_id":"4","last_reported":1691258820,"current_range_meters":27600,"station_id":"ce4bhs92rcd13ifvqi0g","pricing_plan_id":"free"},{"bike_id":"268db224-141b-439d-90ff-927b3c861c0e","system_id":"levelo_inurba_marseille","lat":43.32824,"lon":5.36677,"is_reserved":false,"is_disabled":false,"rental_uris":{"android":"levelo://app?vid=268db224-141b-439d-90ff-927b3c861c0e","ios":"levelo://app?vid=268db224-141b-439d-90ff-927b3c861c0e"},"vehicle_type_id":"4","last_reported":1691258820,"current_range_meters":8800,"station_id":"ce4bhs92rcd13ifvqi0g","pricing_plan_id":"free"},{"bike_id":"1978f8e7-0ba9-4d32-8a0a-3849b4985817","system_id":"levelo_inurba_marseille","lat":43.32825,"lon":5.36684,"is_reserved":false,"is_disabled":false,"rental_uris":{"android":"levelo://app?vid=1978f8e7-0ba9-4d32-8a0a-3849b4985817","ios":"levelo://app?vid=1978f8e7-0ba9-4d32-8a0a-3849b4985817"},"vehicle_type_id":"4","last_reported":1691258820,"current_range_meters":8800,"station_id":"ce4bhs92rcd13ifvqi0g","pricing_plan_id":"free"},{"bike_id":"925d80fe-dd88-4a52-a938-71d3f7293e55","system_id":"levelo_inurba_marseille","lat":43.328371,"lon":5.366909,"is_reserved":false,"is_disabled":false,"rental_uris":{"android":"levelo://app?vid=925d80fe-dd88-4a52-a938-71d3f7293e55","ios":"levelo://app?vid=925d80fe-dd88-4a52-a938-71d3f7293e55"},"vehicle_type_id":"4","last_reported":1691258820,"current_range_meters":14000,"station_id":"ce4bhs92rcd13ifvqi0g","pricing_plan_id":"free"},{"bike_id":"70df08ad-aacf-44be-9921-61b46d710b54","system_id":"levelo_inurba_marseille","lat":43.32826,"lon":5.36677,"is_reserved":false,"is_disabled":false,"rental_uris":{"android":"levelo://app?vid=70df08ad-aacf-44be-9921-61b46d710b54","ios":"levelo://app?vid=70df08ad-aacf-44be-9921-61b46d710b54"},"vehicle_type_id":"4","last_reported":1691258820,"current_range_meters":28800,"station_id":"ce4bhs92rcd13ifvqi0g","pricing_plan_id":"free"},{"bike_id":"dc0d3889-70c4-4dba-8f83-071e4628efeb","system_id":"levelo_inurba_marseille","lat":43.328371,"lon":5.366909,"is_reserved":false,"is_disabled":false,"rental_uris":{"android":"levelo://app?vid=dc0d3889-70c4-4dba-8f83-071e4628efeb","ios":"levelo://app?vid=dc0d3889-70c4-4dba-8f83-071e4628efeb"},"vehicle_type_id":"4","last_reported":1691258820,"current_range_meters":30800,"station_id":"ce4bhs92rcd13ifvqi0g","pricing_plan_id":"free"},{"bike_id":"f3a2ce3e-e2ec-4940-9eb3-9ecf5bedfd7e","system_id":"levelo_inurba_marseille","lat":43.328316,"lon":5.366902,"is_reserved":false,"is_disabled":false,"rental_uris":{"android":"levelo://app?vid=f3a2ce3e-e2ec-4940-9eb3-9ecf5bedfd7e","ios":"levelo://app?vid=f3a2ce3e-e2ec-4940-9eb3-9ecf5bedfd7e"},"vehicle_type_id":"4","last_reported":1691258820,"current_range_meters":16000,"station_id":"","pricing_plan_id":"free"},{"bike_id":"dd789220-e7b5-42c1-b9dc-dc4243148021","system_id":"levelo_inurba_marseille","lat":43.297163,"lon":5.365866,"is_reserved":false,"is_disabled":false,"rental_uris":{"android":"levelo://app?vid=dd789220-e7b5-42c1-b9dc-dc4243148021","ios":"levelo://app?vid=dd789220-e7b5-42c1-b9dc-dc4243148021"},"vehicle_type_id":"4","last_reported":1691258820,"current_range_meters":31200,"station_id":"ce4bgn12rcd13ifvqbt0","pricing_plan_id":"free"},{"bike_id":"ae95c671-edfb-4b70-ab79-c3b1cb239ba9","system_id":"levelo_inurba_marseille","lat":43.29573,"lon":5.367355,"is_reserved":false,"is_disabled":false,"rental_uris":{"android":"levelo://app?vid=ae95c671-edfb-4b70-ab79-c3b1cb239ba9","ios":"levelo://app?vid=ae95c671-edfb-4b70-ab79-c3b1cb239ba9"},"vehicle_type_id":"4","last_reported":1691258820,"current_range_meters":18800,"station_id":"ce4bgph2rcd13ifvqc2g","pricing_plan_id":"free"},{"bike_id":"592b08a0-8688-48d8-98f1-7e30ef0ec5b8","system_id":"levelo_inurba_marseille","lat":43.296131,"lon":5.370773,"is_reserved":false,"is_disabled":false,"rental_uris":{"android":"levelo://app?vid=592b08a0-8688-48d8-98f1-7e30ef0ec5b8","ios":"levelo://app?vid=592b08a0-8688-48d8-98f1-7e30ef0ec5b8"},"vehicle_type_id":"4","last_reported":1691258820,"current_range_meters":20800,"station_id":"ce4bgnh2rcd13ifvqc0g","pricing_plan_id":"free"},{"bike_id":"93c4685c-c1ca-4762-a77f-3b0197353f6a","system_id":"levelo_inurba_marseille","lat":43.29573,"lon":5.367355,"is_reserved":false,"is_disabled":false,"rental_uris":{"android":"levelo://app?vid=93c4685c-c1ca-4762-a77f-3b0197353f6a","ios":"levelo://app?vid=93c4685c-c1ca-4762-a77f-3b0197353f6a"},"vehicle_type_id":"4","last_reported":1691258820,"current_range_meters":1200,"station_id":"ce4bgph2rcd13ifvqc2g","pricing_plan_id":"free"},{"bike_id":"14c88e5f-8e67-47ad-a857-d236176ee3f4","system_id":"levelo_inurba_marseille","lat":43.29573,"lon":5.367355,"is_reserved":false,"is_disabled":false,"rental_uris":{"android":"levelo://app?vid=14c88e5f-8e67-47ad-a857-d236176ee3f4","ios":"levelo://app?vid=14c88e5f-8e67-47ad-a857-d236176ee3f4"},"vehicle_type_id":"4","last_reported":1691258820,"current_range_meters":23200,"station_id":"ce4bgph2rcd13ifvqc2g","pricing_plan_id":"free"},{"bike_id":"33e67e94-2587-46bc-8e14-71b6a13b82fd","system_id":"levelo_inurba_marseille","lat":43.29573,"lon":5.367355,"is_reserved":false,"is_disabled":false,"rental_uris":{"android":"levelo://app?vid=33e67e94-2587-46bc-8e14-71b6a13b82fd","ios":"levelo://app?vid=33e67e94-2587-46bc-8e14-71b6a13b82fd"},"vehicle_type_id":"4","last_reported":1691258820,"current_range_meters":26800,"station_id":"ce4bgph2rcd13ifvqc2g","pricing_plan_id":"free"},{"bike_id":"7101c861-05bc-4e9a-9957-17f459a13632","system_id":"levelo_inurba_marseille","lat":43.29573,"lon":5.367355,"is_reserved":false,"is_disabled":false,"rental_uris":{"android":"levelo://app?vid=7101c861-05bc-4e9a-9957-17f459a13632","ios":"levelo://app?vid=7101c861-05bc-4e9a-9957-17f459a13632"},"vehicle_type_id":"4","last_reported":1691258820,"current_range_meters":400,"station_id":"ce4bgph2rcd13ifvqc2g","pricing_plan_id":"free"},{"bike_id":"29f47e17-ca9d-4f5e-a861-27a1366b8028","system_id":"levelo_inurba_marseille","lat":43.29918,"lon":5.38129,"is_reserved":false,"is_disabled":false,"rental_uris":{"android":"levelo://app?vid=29f47e17-ca9d-4f5e-a861-27a1366b8028","ios":"levelo://app?vid=29f47e17-ca9d-4f5e-a861-27a1366b8028"},"vehicle_type_id":"4","last_reported":1691258820,"current_range_meters":8400,"station_id":"ce4bgj12rcd13ifvqbc0","pricing_plan_id":"free"},{"bike_id":"98396cb5-b538-422d-85fc-332f26ac30b1","system_id":"levelo_inurba_marseille","lat":43.299028,"lon":5.381509,"is_reserved":false,"is_disabled":false,"rental_uris":{"android":"levelo://app?vid=98396cb5-b538-422d-85fc-332f26ac30b1","ios":"levelo://app?vid=98396cb5-b538-422d-85fc-332f26ac30b1"},"vehicle_type_id":"4","last_reported":1691258820,"current_range_meters":12800,"station_id":"ce4bgj12rcd13ifvqbc0","pricing_plan_id":"free"},{"bike_id":"75b68506-2442-4795-b250-a3f64e34c9e6","system_id":"levelo_inurba_marseille","lat":43.299028,"lon":5.381509,"is_reserved":false,"is_disabled":false,"rental_uris":{"android":"levelo://app?vid=75b68506-2442-4795-b250-a3f64e34c9e6","ios":"levelo://app?vid=75b68506-2442-4795-b250-a3f64e34c9e6"},"vehicle_type_id":"4","last_reported":1691258820,"current_range_meters":22400,"station_id":"ce4bgj12rcd13ifvqbc0","pricing_plan_id":"free"},{"bike_id":"f0b1921d-8fc5-42f6-8214-26455e772ce5","system_id":"levelo_inurba_marseille","lat":43.309589,"lon":5.390258,"is_reserved":false,"is_disabled":false,"rental_uris":{"android":"levelo://app?vid=f0b1921d-8fc5-42f6-8214-26455e772ce5","ios":"levelo://app?vid=f0b1921d-8fc5-42f6-8214-26455e772ce5"},"vehicle_type_id":"4","last_reported":1691258820,"current_range_meters":25600,"station_id":"ce4bgup2rcd13ifvqco0","pricing_plan_id":"free"},{"bike_id":"7e874520-54ff-423e-a15a-7481c353b19b","system_id":"levelo_inurba_marseille","lat":43.309589,"lon":5.390258,"is_reserved":false,"is_disabled":false,"rental_uris":{"android":"levelo://app?vid=7e874520-54ff-423e-a15a-7481c353b19b","ios":"levelo://app?vid=7e874520-54ff-423e-a15a-7481c353b19b"},"vehicle_type_id":"4","last_reported":1691258820,"current_range_meters":24000,"station_id":"ce4bgup2rcd13ifvqco0","pricing_plan_id":"free"},{"bike_id":"e03d3dc6-6e84-4f8c-b3ce-24a7f7b71c77","system_id":"levelo_inurba_marseille","lat":43.299028,"lon":5.381509,"is_reserved":false,"is_disabled":false,"rental_uris":{"android":"levelo://app?vid=e03d3dc6-6e84-4f8c-b3ce-24a7f7b71c77","ios":"levelo://app?vid=e03d3dc6-6e84-4f8c-b3ce-24a7f7b71c77"},"vehicle_type_id":"4","last_reported":1691258820,"current_range_meters":23600,"station_id":"ce4bgj12rcd13ifvqbc0","pricing_plan_id":"free"},{"bike_id":"aeba4117-4324-492b-b05b-37bcc45b3f39","system_id":"levelo_inurba_marseille","lat":43.317557,"lon":5.390173,"is_reserved":false,"is_disabled":false,"rental_uris":{"android":"levelo://app?vid=aeba4117-4324-492b-b05b-37bcc45b3f39","ios":"levelo://app?vid=aeba4117-4324-492b-b05b-37bcc45b3f39"},"vehicle_type_id":"4","last_reported":1691258820,"current_range_meters":19200,"station_id":"ce4bhqp2rcd13ifvqhng","pricing_plan_id":"free"},{"bike_id":"c070a522-6c17-4333-a9ee-bbef4dc643ed","system_id":"levelo_inurba_marseille","lat":43.317557,"lon":5.390173,"is_reserved":false,"is_disabled":false,"rental_uris":{"android":"levelo://app?vid=c070a522-6c17-4333-a9ee-bbef4dc643ed","ios":"levelo://app?vid=c070a522-6c17-4333-a9ee-bbef4dc643ed"},"vehicle_type_id":"4","last_reported":1691258820,"current_range_meters":31200,"station_id":"ce4bhqp2rcd13ifvqhng","pricing_plan_id":"free"},{"bike_id":"ffe83563-fe7b-4abd-90a1-b737e09347c0","system_id":"levelo_inurba_marseille","lat":43.317557,"lon":5.390173,"is_reserved":false,"is_disabled":false,"rental_uris":{"android":"levelo://app?vid=ffe83563-fe7b-4abd-90a1-b737e09347c0","ios":"levelo://app?vid=ffe83563-fe7b-4abd-90a1-b737e09347c0"},"vehicle_type_id":"4","last_reported":1691258820,"current_range_meters":31200,"station_id":"ce4bhqp2rcd13ifvqhng","pricing_plan_id":"free"},{"bike_id":"4879b09e-5533-49cc-808c-be115b214b19","system_id":"levelo_inurba_marseille","lat":43.317557,"lon":5.390173,"is_reserved":false,"is_disabled":false,"rental_uris":{"android":"levelo://app?vid=4879b09e-5533-49cc-808c-be115b214b19","ios":"levelo://app?vid=4879b09e-5533-49cc-808c-be115b214b19"},"vehicle_type_id":"4","last_reported":1691258820,"current_range_meters":31200,"station_id":"ce4bhqp2rcd13ifvqhng","pricing_plan_id":"free"},{"bike_id":"fb5d1b63-b2f2-4d34-b700-b062bf6b4e69","system_id":"levelo_inurba_marseille","lat":43.317557,"lon":5.390173,"is_reserved":false,"is_disabled":false,"rental_uris":{"android":"levelo://app?vid=fb5d1b63-b2f2-4d34-b700-b062bf6b4e69","ios":"levelo://app?vid=fb5d1b63-b2f2-4d34-b700-b062bf6b4e69"},"vehicle_type_id":"4","last_reported":1691258820,"current_range_meters":31200,"station_id":"ce4bhqp2rcd13ifvqhng","pricing_plan_id":"free"},{"bike_id":"fa6bc584-cf09-4409-9009-8eb9b42b181d","system_id":"levelo_inurba_marseille","lat":43.317557,"lon":5.390173,"is_reserved":false,"is_disabled":false,"rental_uris":{"android":"levelo://app?vid=fa6bc584-cf09-4409-9009-8eb9b42b181d","ios":"levelo://app?vid=fa6bc584-cf09-4409-9009-8eb9b42b181d"},"vehicle_type_id":"4","last_reported":1691258820,"current_range_meters":12400,"station_id":"ce4bhqp2rcd13ifvqhng","pricing_plan_id":"free"},{"bike_id":"90569ba5-8bb9-4d2d-b876-dc35e42f9a0c","system_id":"levelo_inurba_marseille","lat":43.317557,"lon":5.390173,"is_reserved":false,"is_disabled":false,"rental_uris":{"android":"levelo://app?vid=90569ba5-8bb9-4d2d-b876-dc35e42f9a0c","ios":"levelo://app?vid=90569ba5-8bb9-4d2d-b876-dc35e42f9a0c"},"vehicle_type_id":"4","last_reported":1691258820,"current_range_meters":31200,"station_id":"ce4bhqp2rcd13ifvqhng","pricing_plan_id":"free"},{"bike_id":"37440da6-a52c-4d8b-bad8-8479cc4c329c","system_id":"levelo_inurba_marseille","lat":43.317557,"lon":5.390173,"is_reserved":false,"is_disabled":false,"rental_uris":{"android":"levelo://app?vid=37440da6-a52c-4d8b-bad8-8479cc4c329c","ios":"levelo://app?vid=37440da6-a52c-4d8b-bad8-8479cc4c329c"},"vehicle_type_id":"4","last_reported":1691258820,"current_range_meters":30000,"station_id":"ce4bhqp2rcd13ifvqhng","pricing_plan_id":"free"},{"bike_id":"33289ce5-1059-4419-aac6-0b635209ed94","system_id":"levelo_inurba_marseille","lat":43.317557,"lon":5.390173,"is_reserved":false,"is_disabled":false,"rental_uris":{"android":"levelo://app?vid=33289ce5-1059-4419-aac6-0b635209ed94","ios":"levelo://app?vid=33289ce5-1059-4419-aac6-0b635209ed94"},"vehicle_type_id":"4","last_reported":1691258820,"current_range_meters":22000,"station_id":"ce4bhqp2rcd13ifvqhng","pricing_plan_id":"free"},{"bike_id":"ea01d5ca-46b8-4e12-9d73-863370000a06","system_id":"levelo_inurba_marseille","lat":43.317557,"lon":5.390173,"is_reserved":false,"is_disabled":false,"rental_uris":{"android":"levelo://app?vid=ea01d5ca-46b8-4e12-9d73-863370000a06","ios":"levelo://app?vid=ea01d5ca-46b8-4e12-9d73-863370000a06"},"vehicle_type_id":"4","last_reported":1691258820,"current_range_meters":31200,"station_id":"ce4bhqp2rcd13ifvqhng","pricing_plan_id":"free"},{"bike_id":"f488259e-0941-43e7-aa97-578336da7044","system_id":"levelo_inurba_marseille","lat":43.298037,"lon":5.381066,"is_reserved":false,"is_disabled":false,"rental_uris":{"android":"levelo://app?vid=f488259e-0941-43e7-aa97-578336da7044","ios":"levelo://app?vid=f488259e-0941-43e7-aa97-578336da7044"},"vehicle_type_id":"4","last_reported":1691258820,"current_range_meters":2800,"station_id":"ce4bgip2rcd13ifvqbb0","pricing_plan_id":"free"},{"bike_id":"0644e8f3-ee31-424a-82fe-8eaa6fb7fbb9","system_id":"levelo_inurba_marseille","lat":43.298037,"lon":5.381066,"is_reserved":false,"is_disabled":false,"rental_uris":{"android":"levelo://app?vid=0644e8f3-ee31-424a-82fe-8eaa6fb7fbb9","ios":"levelo://app?vid=0644e8f3-ee31-424a-82fe-8eaa6fb7fbb9"},"vehicle_type_id":"4","last_reported":1691258820,"current_range_meters":28000,"station_id":"ce4bgip2rcd13ifvqbb0","pricing_plan_id":"free"},{"bike_id":"21459467-bdda-40be-8d02-ea50a224e3ed","system_id":"levelo_inurba_marseille","lat":43.298037,"lon":5.381066,"is_reserved":false,"is_disabled":false,"rental_uris":{"android":"levelo://app?vid=21459467-bdda-40be-8d02-ea50a224e3ed","ios":"levelo://app?vid=21459467-bdda-40be-8d02-ea50a224e3ed"},"vehicle_type_id":"4","last_reported":1691258820,"current_range_meters":28800,"station_id":"ce4bgip2rcd13ifvqbb0","pricing_plan_id":"free"},{"bike_id":"a4df99ce-0488-49dd-a888-94686f562e88","system_id":"levelo_inurba_marseille","lat":43.2957,"lon":5.37495,"is_reserved":false,"is_disabled":false,"rental_uris":{"android":"levelo://app?vid=a4df99ce-0488-49dd-a888-94686f562e88","ios":"levelo://app?vid=a4df99ce-0488-49dd-a888-94686f562e88"},"vehicle_type_id":"4","last_reported":1691258820,"current_range_meters":23200,"station_id":"ce4bgh92rcd13ifvqb50","pricing_plan_id":"free"},{"bike_id":"a503ce1c-7388-448d-b79d-e1f9d3a7cc3d","system_id":"levelo_inurba_marseille","lat":43.30422,"lon":5.38885,"is_reserved":false,"is_disabled":false,"rental_uris":{"android":"levelo://app?vid=a503ce1c-7388-448d-b79d-e1f9d3a7cc3d","ios":"levelo://app?vid=a503ce1c-7388-448d-b79d-e1f9d3a7cc3d"},"vehicle_type_id":"4","last_reported":1691258820,"current_range_meters":9600,"station_id":"ce4bgk12rcd13ifvqbi0","pricing_plan_id":"free"},{"bike_id":"46276baf-6331-4516-9cc2-26c7c784beb2","system_id":"levelo_inurba_marseille","lat":43.295279,"lon":5.375048,"is_reserved":false,"is_disabled":false,"rental_uris":{"android":"levelo://app?vid=46276baf-6331-4516-9cc2-26c7c784beb2","ios":"levelo://app?vid=46276baf-6331-4516-9cc2-26c7c784beb2"},"vehicle_type_id":"4","last_reported":1691258820,"current_range_meters":9200,"station_id":"ce4bgkp2rcd13ifvqbmg","pricing_plan_id":"free"},{"bike_id":"696ed9b6-9beb-423c-9d06-defcf66f30b9","system_id":"levelo_inurba_marseille","lat":43.32367,"lon":5.388836,"is_reserved":false,"is_disabled":false,"rental_uris":{"android":"levelo://app?vid=696ed9b6-9beb-423c-9d06-defcf66f30b9","ios":"levelo://app?vid=696ed9b6-9beb-423c-9d06-defcf66f30b9"},"vehicle_type_id":"4","last_reported":1691258820,"current_range_meters":10000,"station_id":"ce4bhqp2rcd13ifvqhog","pricing_plan_id":"free"},{"bike_id":"51a94a8b-791c-4738-b220-ee8689f99230","system_id":"levelo_inurba_marseille","lat":43.32367,"lon":5.38873,"is_reserved":false,"is_disabled":false,"rental_uris":{"android":"levelo://app?vid=51a94a8b-791c-4738-b220-ee8689f99230","ios":"levelo://app?vid=51a94a8b-791c-4738-b220-ee8689f99230"},"vehicle_type_id":"4","last_reported":1691258820,"current_range_meters":1200,"station_id":"ce4bhqp2rcd13ifvqhog","pricing_plan_id":"free"},{"bike_id":"fbc3a92c-f948-48e9-a3fc-f0e8af1a9259","system_id":"levelo_inurba_marseille","lat":43.32364,"lon":5.38877,"is_reserved":false,"is_disabled":false,"rental_uris":{"android":"levelo://app?vid=fbc3a92c-f948-48e9-a3fc-f0e8af1a9259","ios":"levelo://app?vid=fbc3a92c-f948-48e9-a3fc-f0e8af1a9259"},"vehicle_type_id":"4","last_reported":1691258820,"current_range_meters":29600,"station_id":"ce4bhqp2rcd13ifvqhog","pricing_plan_id":"free"},{"bike_id":"b47ca02a-40ba-4dc8-abeb-b1a2c4b62cd0","system_id":"levelo_inurba_marseille","lat":43.32367,"lon":5.388836,"is_reserved":false,"is_disabled":false,"rental_uris":{"android":"levelo://app?vid=b47ca02a-40ba-4dc8-abeb-b1a2c4b62cd0","ios":"levelo://app?vid=b47ca02a-40ba-4dc8-abeb-b1a2c4b62cd0"},"vehicle_type_id":"4","last_reported":1691258820,"current_range_meters":29200,"station_id":"ce4bhqp2rcd13ifvqhog","pricing_plan_id":"free"},{"bike_id":"31c4ebe8-2a4f-41b7-966a-7ad502ff3d8a","system_id":"levelo_inurba_marseille","lat":43.32364,"lon":5.38879,"is_reserved":false,"is_disabled":false,"rental_uris":{"android":"levelo://app?vid=31c4ebe8-2a4f-41b7-966a-7ad502ff3d8a","ios":"levelo://app?vid=31c4ebe8-2a4f-41b7-966a-7ad502ff3d8a"},"vehicle_type_id":"4","last_reported":1691258820,"current_range_meters":18800,"station_id":"ce4bhqp2rcd13ifvqhog","pricing_plan_id":"free"},{"bike_id":"5f1c231d-5549-420b-a974-1b1406435a60","system_id":"levelo_inurba_marseille","lat":43.32367,"lon":5.388836,"is_reserved":false,"is_disabled":false,"rental_uris":{"android":"levelo://app?vid=5f1c231d-5549-420b-a974-1b1406435a60","ios":"levelo://app?vid=5f1c231d-5549-420b-a974-1b1406435a60"},"vehicle_type_id":"4","last_reported":1691258820,"current_range_meters":20800,"station_id":"ce4bhqp2rcd13ifvqhog","pricing_plan_id":"free"},{"bike_id":"34ef5601-8765-4b80-bdc1-e9818152ffab","system_id":"levelo_inurba_marseille","lat":43.32366,"lon":5.38881,"is_reserved":false,"is_disabled":false,"rental_uris":{"android":"levelo://app?vid=34ef5601-8765-4b80-bdc1-e9818152ffab","ios":"levelo://app?vid=34ef5601-8765-4b80-bdc1-e9818152ffab"},"vehicle_type_id":"4","last_reported":1691258820,"current_range_meters":24000,"station_id":"ce4bhqp2rcd13ifvqhog","pricing_plan_id":"free"},{"bike_id":"ed5b971a-2b8a-4f89-9487-7e8342d0b66b","system_id":"levelo_inurba_marseille","lat":43.32365,"lon":5.38882,"is_reserved":false,"is_disabled":false,"rental_uris":{"android":"levelo://app?vid=ed5b971a-2b8a-4f89-9487-7e8342d0b66b","ios":"levelo://app?vid=ed5b971a-2b8a-4f89-9487-7e8342d0b66b"},"vehicle_type_id":"4","last_reported":1691258820,"current_range_meters":20400,"station_id":"ce4bhqp2rcd13ifvqhog","pricing_plan_id":"free"},{"bike_id":"5bdf8c20-9c72-47ab-afc6-2b84567e0617","system_id":"levelo_inurba_marseille","lat":43.32364,"lon":5.38883,"is_reserved":false,"is_disabled":false,"rental_uris":{"android":"levelo://app?vid=5bdf8c20-9c72-47ab-afc6-2b84567e0617","ios":"levelo://app?vid=5bdf8c20-9c72-47ab-afc6-2b84567e0617"},"vehicle_type_id":"4","last_reported":1691258820,"current_range_meters":18400,"station_id":"ce4bhqp2rcd13ifvqhog","pricing_plan_id":"free"},{"bike_id":"153806a9-c106-4acb-8efe-f81ba29b58d3","system_id":"levelo_inurba_marseille","lat":43.32366,"lon":5.38882,"is_reserved":false,"is_disabled":false,"rental_uris":{"android":"levelo://app?vid=153806a9-c106-4acb-8efe-f81ba29b58d3","ios":"levelo://app?vid=153806a9-c106-4acb-8efe-f81ba29b58d3"},"vehicle_type_id":"4","last_reported":1691258820,"current_range_meters":22800,"station_id":"ce4bhqp2rcd13ifvqhog","pricing_plan_id":"free"},{"bike_id":"6be534a9-96c6-4989-b3bb-e9dea76376c4","system_id":"levelo_inurba_marseille","lat":43.32367,"lon":5.388836,"is_reserved":false,"is_disabled":false,"rental_uris":{"android":"levelo://app?vid=6be534a9-96c6-4989-b3bb-e9dea76376c4","ios":"levelo://app?vid=6be534a9-96c6-4989-b3bb-e9dea76376c4"},"vehicle_type_id":"4","last_reported":1691258820,"current_range_meters":30800,"station_id":"ce4bhqp2rcd13ifvqhog","pricing_plan_id":"free"},{"bike_id":"b986fddb-c995-4b2c-ab90-6a71381416a3","system_id":"levelo_inurba_marseille","lat":43.29601,"lon":5.381084,"is_reserved":false,"is_disabled":false,"rental_uris":{"android":"levelo://app?vid=b986fddb-c995-4b2c-ab90-6a71381416a3","ios":"levelo://app?vid=b986fddb-c995-4b2c-ab90-6a71381416a3"},"vehicle_type_id":"4","last_reported":1691258820,"current_range_meters":6400,"station_id":"ce4bgl12rcd13ifvqbo0","pricing_plan_id":"free"},{"bike_id":"2147ad9d-3e8e-4ca8-bea7-d7ad2c6e520b","system_id":"levelo_inurba_marseille","lat":43.29602,"lon":5.381084,"is_reserved":false,"is_disabled":false,"rental_uris":{"android":"levelo://app?vid=2147ad9d-3e8e-4ca8-bea7-d7ad2c6e520b","ios":"levelo://app?vid=2147ad9d-3e8e-4ca8-bea7-d7ad2c6e520b"},"vehicle_type_id":"4","last_reported":1691258820,"current_range_meters":29600,"station_id":"ce4bgl12rcd13ifvqbo0","pricing_plan_id":"free"},{"bike_id":"bc657f41-d4dd-411d-a905-0081109d7568","system_id":"levelo_inurba_marseille","lat":43.292749,"lon":5.368402,"is_reserved":false,"is_disabled":false,"rental_uris":{"android":"levelo://app?vid=bc657f41-d4dd-411d-a905-0081109d7568","ios":"levelo://app?vid=bc657f41-d4dd-411d-a905-0081109d7568"},"vehicle_type_id":"4","last_reported":1691258820,"current_range_meters":22400,"station_id":"ce4bhbp2rcd13ifvqesg","pricing_plan_id":"free"},{"bike_id":"6a36c558-489d-4683-8c10-82463c848b09","system_id":"levelo_inurba_marseille","lat":43.292749,"lon":5.368398,"is_reserved":false,"is_disabled":false,"rental_uris":{"android":"levelo://app?vid=6a36c558-489d-4683-8c10-82463c848b09","ios":"levelo://app?vid=6a36c558-489d-4683-8c10-82463c848b09"},"vehicle_type_id":"4","last_reported":1691258820,"current_range_meters":5200,"station_id":"ce4bhbp2rcd13ifvqesg","pricing_plan_id":"free"},{"bike_id":"44859ea0-4130-4097-a21c-9f016c3b26b2","system_id":"levelo_inurba_marseille","lat":43.292749,"lon":5.368402,"is_reserved":false,"is_disabled":false,"rental_uris":{"android":"levelo://app?vid=44859ea0-4130-4097-a21c-9f016c3b26b2","ios":"levelo://app?vid=44859ea0-4130-4097-a21c-9f016c3b26b2"},"vehicle_type_id":"4","last_reported":1691258820,"current_range_meters":12000,"station_id":"ce4bhbp2rcd13ifvqesg","pricing_plan_id":"free"},{"bike_id":"f8e2d9eb-ebd1-4431-a752-35b3eb6d8cb5","system_id":"levelo_inurba_marseille","lat":43.292749,"lon":5.368402,"is_reserved":false,"is_disabled":false,"rental_uris":{"android":"levelo://app?vid=f8e2d9eb-ebd1-4431-a752-35b3eb6d8cb5","ios":"levelo://app?vid=f8e2d9eb-ebd1-4431-a752-35b3eb6d8cb5"},"vehicle_type_id":"4","last_reported":1691258820,"current_range_meters":24000,"station_id":"ce4bhbp2rcd13ifvqesg","pricing_plan_id":"free"},{"bike_id":"e2463d94-087a-4262-9117-d2e915bf8ebe","system_id":"levelo_inurba_marseille","lat":43.292749,"lon":5.368402,"is_reserved":false,"is_disabled":false,"rental_uris":{"android":"levelo://app?vid=e2463d94-087a-4262-9117-d2e915bf8ebe","ios":"levelo://app?vid=e2463d94-087a-4262-9117-d2e915bf8ebe"},"vehicle_type_id":"4","last_reported":1691258820,"current_range_meters":17600,"station_id":"ce4bhbp2rcd13ifvqesg","pricing_plan_id":"free"},{"bike_id":"81cccb6f-fe34-4807-b796-32b2c942389d","system_id":"levelo_inurba_marseille","lat":43.292749,"lon":5.368398,"is_reserved":false,"is_disabled":false,"rental_uris":{"android":"levelo://app?vid=81cccb6f-fe34-4807-b796-32b2c942389d","ios":"levelo://app?vid=81cccb6f-fe34-4807-b796-32b2c942389d"},"vehicle_type_id":"4","last_reported":1691258820,"current_range_meters":16000,"station_id":"ce4bhbp2rcd13ifvqesg","pricing_plan_id":"free"},{"bike_id":"1ac084df-c6e4-47ee-8efa-949fb14e9e2a","system_id":"levelo_inurba_marseille","lat":43.293009,"lon":5.374584,"is_reserved":false,"is_disabled":false,"rental_uris":{"android":"levelo://app?vid=1ac084df-c6e4-47ee-8efa-949fb14e9e2a","ios":"levelo://app?vid=1ac084df-c6e4-47ee-8efa-949fb14e9e2a"},"vehicle_type_id":"4","last_reported":1691258820,"current_range_meters":24000,"station_id":"ce4bgi12rcd13ifvqb70","pricing_plan_id":"free"},{"bike_id":"20581fc9-2aac-4973-b0cf-1cd160ebc7c3","system_id":"levelo_inurba_marseille","lat":43.302992,"lon":5.392136,"is_reserved":false,"is_disabled":false,"rental_uris":{"android":"levelo://app?vid=20581fc9-2aac-4973-b0cf-1cd160ebc7c3","ios":"levelo://app?vid=20581fc9-2aac-4973-b0cf-1cd160ebc7c3"},"vehicle_type_id":"4","last_reported":1691258820,"current_range_meters":12400,"station_id":"ce4bgkh2rcd13ifvqbk0","pricing_plan_id":"free"},{"bike_id":"b777567e-d136-4c71-97cf-95d6c1589c28","system_id":"levelo_inurba_marseille","lat":43.2989,"lon":5.38894,"is_reserved":false,"is_disabled":false,"rental_uris":{"android":"levelo://app?vid=b777567e-d136-4c71-97cf-95d6c1589c28","ios":"levelo://app?vid=b777567e-d136-4c71-97cf-95d6c1589c28"},"vehicle_type_id":"4","last_reported":1691258820,"current_range_meters":3600,"station_id":"ce4bh392rcd13ifvqdl0","pricing_plan_id":"free"},{"bike_id":"b6dd4b62-0969-43e7-9c73-194c4e187444","system_id":"levelo_inurba_marseille","lat":43.292663,"lon":5.376394,"is_reserved":false,"is_disabled":false,"rental_uris":{"android":"levelo://app?vid=b6dd4b62-0969-43e7-9c73-194c4e187444","ios":"levelo://app?vid=b6dd4b62-0969-43e7-9c73-194c4e187444"},"vehicle_type_id":"4","last_reported":1691258820,"current_range_meters":8400,"station_id":"ce4bgi12rcd13ifvqb80","pricing_plan_id":"free"},{"bike_id":"a29e5838-968a-4dda-959c-fb330b3474be","system_id":"levelo_inurba_marseille","lat":43.292663,"lon":5.376389,"is_reserved":false,"is_disabled":false,"rental_uris":{"android":"levelo://app?vid=a29e5838-968a-4dda-959c-fb330b3474be","ios":"levelo://app?vid=a29e5838-968a-4dda-959c-fb330b3474be"},"vehicle_type_id":"4","last_reported":1691258820,"current_range_meters":0,"station_id":"ce4bgi12rcd13ifvqb80","pricing_plan_id":"free"},{"bike_id":"1c63d07f-3176-458c-8e1d-4e000fd516d2","system_id":"levelo_inurba_marseille","lat":43.29258,"lon":5.37627,"is_reserved":false,"is_disabled":false,"rental_uris":{"android":"levelo://app?vid=1c63d07f-3176-458c-8e1d-4e000fd516d2","ios":"levelo://app?vid=1c63d07f-3176-458c-8e1d-4e000fd516d2"},"vehicle_type_id":"4","last_reported":1691258820,"current_range_meters":29200,"station_id":"ce4bgi12rcd13ifvqb80","pricing_plan_id":"free"},{"bike_id":"3c4dd1b0-7a14-45aa-9ba4-cfd2f6dd205d","system_id":"levelo_inurba_marseille","lat":43.29875,"lon":5.389,"is_reserved":false,"is_disabled":false,"rental_uris":{"android":"levelo://app?vid=3c4dd1b0-7a14-45aa-9ba4-cfd2f6dd205d","ios":"levelo://app?vid=3c4dd1b0-7a14-45aa-9ba4-cfd2f6dd205d"},"vehicle_type_id":"4","last_reported":1691258820,"current_range_meters":28800,"station_id":"ce4bh392rcd13ifvqdl0","pricing_plan_id":"free"},{"bike_id":"ef8f8abb-2682-4bb7-893b-997b008c3a3c","system_id":"levelo_inurba_marseille","lat":43.309038,"lon":5.396546,"is_reserved":false,"is_disabled":false,"rental_uris":{"android":"levelo://app?vid=ef8f8abb-2682-4bb7-893b-997b008c3a3c","ios":"levelo://app?vid=ef8f8abb-2682-4bb7-893b-997b008c3a3c"},"vehicle_type_id":"4","last_reported":1691258820,"current_range_meters":24800,"station_id":"ce4bh012rcd13ifvqcv0","pricing_plan_id":"free"},{"bike_id":"40b0dbf0-87f6-4363-b8e9-d1cac15b6861","system_id":"levelo_inurba_marseille","lat":43.31324,"lon":5.39684,"is_reserved":false,"is_disabled":false,"rental_uris":{"android":"levelo://app?vid=40b0dbf0-87f6-4363-b8e9-d1cac15b6861","ios":"levelo://app?vid=40b0dbf0-87f6-4363-b8e9-d1cac15b6861"},"vehicle_type_id":"4","last_reported":1691258820,"current_range_meters":24800,"station_id":"ce4bgvp2rcd13ifvqcu0","pricing_plan_id":"free"},{"bike_id":"f5b4f85e-8e6e-496d-8ec9-e3a1c16a5266","system_id":"levelo_inurba_marseille","lat":43.29195,"lon":5.35804,"is_reserved":false,"is_disabled":false,"rental_uris":{"android":"levelo://app?vid=f5b4f85e-8e6e-496d-8ec9-e3a1c16a5266","ios":"levelo://app?vid=f5b4f85e-8e6e-496d-8ec9-e3a1c16a5266"},"vehicle_type_id":"4","last_reported":1691258820,"current_range_meters":1600,"station_id":"ce4bhb12rcd13ifvqel0","pricing_plan_id":"free"},{"bike_id":"6bf6bfc6-351a-4103-82bc-0b9e0e553956","system_id":"levelo_inurba_marseille","lat":43.31328,"lon":5.39688,"is_reserved":false,"is_disabled":false,"rental_uris":{"android":"levelo://app?vid=6bf6bfc6-351a-4103-82bc-0b9e0e553956","ios":"levelo://app?vid=6bf6bfc6-351a-4103-82bc-0b9e0e553956"},"vehicle_type_id":"4","last_reported":1691258820,"current_range_meters":18400,"station_id":"ce4bgvp2rcd13ifvqcu0","pricing_plan_id":"free"},{"bike_id":"8aae3035-641f-4cb1-8c24-c1d329d8e1c0","system_id":"levelo_inurba_marseille","lat":43.30888,"lon":5.39645,"is_reserved":false,"is_disabled":false,"rental_uris":{"android":"levelo://app?vid=8aae3035-641f-4cb1-8c24-c1d329d8e1c0","ios":"levelo://app?vid=8aae3035-641f-4cb1-8c24-c1d329d8e1c0"},"vehicle_type_id":"4","last_reported":1691258820,"current_range_meters":26400,"station_id":"ce4bh012rcd13ifvqcv0","pricing_plan_id":"free"},{"bike_id":"5b02d5e5-d783-4ffa-ab35-29dd46c9323a","system_id":"levelo_inurba_marseille","lat":43.30884,"lon":5.39645,"is_reserved":false,"is_disabled":false,"rental_uris":{"android":"levelo://app?vid=5b02d5e5-d783-4ffa-ab35-29dd46c9323a","ios":"levelo://app?vid=5b02d5e5-d783-4ffa-ab35-29dd46c9323a"},"vehicle_type_id":"4","last_reported":1691258820,"current_range_meters":9600,"station_id":"ce4bh012rcd13ifvqcv0","pricing_plan_id":"free"},{"bike_id":"d59cd80a-fcb3-4e3d-abbe-8ec073ed2fc7","system_id":"levelo_inurba_marseille","lat":43.31327,"lon":5.39693,"is_reserved":false,"is_disabled":false,"rental_uris":{"android":"levelo://app?vid=d59cd80a-fcb3-4e3d-abbe-8ec073ed2fc7","ios":"levelo://app?vid=d59cd80a-fcb3-4e3d-abbe-8ec073ed2fc7"},"vehicle_type_id":"4","last_reported":1691258820,"current_range_meters":7600,"station_id":"ce4bgvp2rcd13ifvqcu0","pricing_plan_id":"free"},{"bike_id":"af9ed230-1b46-455e-978a-bcb043082fdc","system_id":"levelo_inurba_marseille","lat":43.31332,"lon":5.39693,"is_reserved":false,"is_disabled":false,"rental_uris":{"android":"levelo://app?vid=af9ed230-1b46-455e-978a-bcb043082fdc","ios":"levelo://app?vid=af9ed230-1b46-455e-978a-bcb043082fdc"},"vehicle_type_id":"4","last_reported":1691258820,"current_range_meters":4000,"station_id":"ce4bgvp2rcd13ifvqcu0","pricing_plan_id":"free"},{"bike_id":"0af3fe36-e418-4c0c-912f-8afc13cc777b","system_id":"levelo_inurba_marseille","lat":43.31327,"lon":5.39695,"is_reserved":false,"is_disabled":false,"rental_uris":{"android":"levelo://app?vid=0af3fe36-e418-4c0c-912f-8afc13cc777b","ios":"levelo://app?vid=0af3fe36-e418-4c0c-912f-8afc13cc777b"},"vehicle_type_id":"4","last_reported":1691258820,"current_range_meters":21200,"station_id":"ce4bgvp2rcd13ifvqcu0","pricing_plan_id":"free"},{"bike_id":"3d14bc3e-eabc-44e1-b5c3-5da3969f1f31","system_id":"levelo_inurba_marseille","lat":43.29529,"lon":5.385581,"is_reserved":false,"is_disabled":false,"rental_uris":{"android":"levelo://app?vid=3d14bc3e-eabc-44e1-b5c3-5da3969f1f31","ios":"levelo://app?vid=3d14bc3e-eabc-44e1-b5c3-5da3969f1f31"},"vehicle_type_id":"4","last_reported":1691258820,"current_range_meters":30400,"station_id":"ce4bgih2rcd13ifvqba0","pricing_plan_id":"free"},{"bike_id":"4747f3b1-f333-4771-be6f-455881665793","system_id":"levelo_inurba_marseille","lat":43.29529,"lon":5.385581,"is_reserved":false,"is_disabled":false,"rental_uris":{"android":"levelo://app?vid=4747f3b1-f333-4771-be6f-455881665793","ios":"levelo://app?vid=4747f3b1-f333-4771-be6f-455881665793"},"vehicle_type_id":"4","last_reported":1691258820,"current_range_meters":14800,"station_id":"ce4bgih2rcd13ifvqba0","pricing_plan_id":"free"},{"bike_id":"b0018b66-14d4-4dd0-8926-2679453252c3","system_id":"levelo_inurba_marseille","lat":43.290779,"lon":5.371482,"is_reserved":false,"is_disabled":false,"rental_uris":{"android":"levelo://app?vid=b0018b66-14d4-4dd0-8926-2679453252c3","ios":"levelo://app?vid=b0018b66-14d4-4dd0-8926-2679453252c3"},"vehicle_type_id":"4","last_reported":1691258820,"current_range_meters":6000,"station_id":"ce4bh5p2rcd13ifvqe4g","pricing_plan_id":"free"},{"bike_id":"8ef74201-cb37-4cbe-8b9f-9c5508dfeffe","system_id":"levelo_inurba_marseille","lat":43.290779,"lon":5.371482,"is_reserved":false,"is_disabled":false,"rental_uris":{"android":"levelo://app?vid=8ef74201-cb37-4cbe-8b9f-9c5508dfeffe","ios":"levelo://app?vid=8ef74201-cb37-4cbe-8b9f-9c5508dfeffe"},"vehicle_type_id":"4","last_reported":1691258820,"current_range_meters":19200,"station_id":"ce4bh5p2rcd13ifvqe4g","pricing_plan_id":"free"},{"bike_id":"3d151a57-552f-4991-bba6-918323cf422b","system_id":"levelo_inurba_marseille","lat":43.294153,"lon":5.386305,"is_reserved":false,"is_disabled":false,"rental_uris":{"android":"levelo://app?vid=3d151a57-552f-4991-bba6-918323cf422b","ios":"levelo://app?vid=3d151a57-552f-4991-bba6-918323cf422b"},"vehicle_type_id":"4","last_reported":1691258820,"current_range_meters":14400,"station_id":"ce4bh2h2rcd13ifvqdh0","pricing_plan_id":"free"},{"bike_id":"19c92c3f-336c-4d59-81e9-e3a263371655","system_id":"levelo_inurba_marseille","lat":43.29422,"lon":5.3862,"is_reserved":false,"is_disabled":false,"rental_uris":{"android":"levelo://app?vid=19c92c3f-336c-4d59-81e9-e3a263371655","ios":"levelo://app?vid=19c92c3f-336c-4d59-81e9-e3a263371655"},"vehicle_type_id":"4","last_reported":1691258820,"current_range_meters":16000,"station_id":"ce4bh2h2rcd13ifvqdh0","pricing_plan_id":"free"},{"bike_id":"6f6e9984-4db8-4b67-9be9-fd268e9107c3","system_id":"levelo_inurba_marseille","lat":43.29419,"lon":5.38621,"is_reserved":false,"is_disabled":false,"rental_uris":{"android":"levelo://app?vid=6f6e9984-4db8-4b67-9be9-fd268e9107c3","ios":"levelo://app?vid=6f6e9984-4db8-4b67-9be9-fd268e9107c3"},"vehicle_type_id":"4","last_reported":1691258820,"current_range_meters":17200,"station_id":"ce4bh2h2rcd13ifvqdh0","pricing_plan_id":"free"},{"bike_id":"63a34a59-d3ca-4d42-aabe-2fe50e86ab94","system_id":"levelo_inurba_marseille","lat":43.294162,"lon":5.386292,"is_reserved":false,"is_disabled":false,"rental_uris":{"android":"levelo://app?vid=63a34a59-d3ca-4d42-aabe-2fe50e86ab94","ios":"levelo://app?vid=63a34a59-d3ca-4d42-aabe-2fe50e86ab94"},"vehicle_type_id":"4","last_reported":1691258820,"current_range_meters":4000,"station_id":"ce4bh2h2rcd13ifvqdh0","pricing_plan_id":"free"},{"bike_id":"90fb25d9-4cfa-42e7-8e04-da303d17622f","system_id":"levelo_inurba_marseille","lat":43.294162,"lon":5.386292,"is_reserved":false,"is_disabled":false,"rental_uris":{"android":"levelo://app?vid=90fb25d9-4cfa-42e7-8e04-da303d17622f","ios":"levelo://app?vid=90fb25d9-4cfa-42e7-8e04-da303d17622f"},"vehicle_type_id":"4","last_reported":1691258820,"current_range_meters":13600,"station_id":"ce4bh2h2rcd13ifvqdh0","pricing_plan_id":"free"},{"bike_id":"1d737908-eb83-47d9-add8-1f8e909f99a2","system_id":"levelo_inurba_marseille","lat":43.292644,"lon":5.384257,"is_reserved":false,"is_disabled":false,"rental_uris":{"android":"levelo://app?vid=1d737908-eb83-47d9-add8-1f8e909f99a2","ios":"levelo://app?vid=1d737908-eb83-47d9-add8-1f8e909f99a2"},"vehicle_type_id":"4","last_reported":1691258820,"current_range_meters":14800,"station_id":"ce4bh692rcd13ifvqea0","pricing_plan_id":"free"},{"bike_id":"5fadf7cc-1cae-4a22-94f1-b33cb9d60720","system_id":"levelo_inurba_marseille","lat":43.292644,"lon":5.384257,"is_reserved":false,"is_disabled":false,"rental_uris":{"android":"levelo://app?vid=5fadf7cc-1cae-4a22-94f1-b33cb9d60720","ios":"levelo://app?vid=5fadf7cc-1cae-4a22-94f1-b33cb9d60720"},"vehicle_type_id":"4","last_reported":1691258820,"current_range_meters":27600,"station_id":"ce4bh692rcd13ifvqea0","pricing_plan_id":"free"},{"bike_id":"73399446-6bdb-49c3-a9ec-2e058cf26023","system_id":"levelo_inurba_marseille","lat":43.292644,"lon":5.384257,"is_reserved":false,"is_disabled":false,"rental_uris":{"android":"levelo://app?vid=73399446-6bdb-49c3-a9ec-2e058cf26023","ios":"levelo://app?vid=73399446-6bdb-49c3-a9ec-2e058cf26023"},"vehicle_type_id":"4","last_reported":1691258820,"current_range_meters":20000,"station_id":"ce4bh692rcd13ifvqea0","pricing_plan_id":"free"},{"bike_id":"c2d7e352-8466-4509-a0a6-a51d94c55b1d","system_id":"levelo_inurba_marseille","lat":43.292644,"lon":5.384257,"is_reserved":false,"is_disabled":false,"rental_uris":{"android":"levelo://app?vid=c2d7e352-8466-4509-a0a6-a51d94c55b1d","ios":"levelo://app?vid=c2d7e352-8466-4509-a0a6-a51d94c55b1d"},"vehicle_type_id":"4","last_reported":1691258820,"current_range_meters":21200,"station_id":"ce4bh692rcd13ifvqea0","pricing_plan_id":"free"},{"bike_id":"d1acc293-6a6c-4975-a118-c3a075361935","system_id":"levelo_inurba_marseille","lat":43.292644,"lon":5.384257,"is_reserved":false,"is_disabled":false,"rental_uris":{"android":"levelo://app?vid=d1acc293-6a6c-4975-a118-c3a075361935","ios":"levelo://app?vid=d1acc293-6a6c-4975-a118-c3a075361935"},"vehicle_type_id":"4","last_reported":1691258820,"current_range_meters":18800,"station_id":"ce4bh692rcd13ifvqea0","pricing_plan_id":"free"},{"bike_id":"bc546f93-586a-41eb-aefd-b3dc17c4d38c","system_id":"levelo_inurba_marseille","lat":43.292642,"lon":5.384254,"is_reserved":false,"is_disabled":false,"rental_uris":{"android":"levelo://app?vid=bc546f93-586a-41eb-aefd-b3dc17c4d38c","ios":"levelo://app?vid=bc546f93-586a-41eb-aefd-b3dc17c4d38c"},"vehicle_type_id":"4","last_reported":1691258820,"current_range_meters":6000,"station_id":"ce4bh692rcd13ifvqea0","pricing_plan_id":"free"},{"bike_id":"be060fb5-4022-4ae3-8686-3b745b2773f1","system_id":"levelo_inurba_marseille","lat":43.292644,"lon":5.384257,"is_reserved":false,"is_disabled":false,"rental_uris":{"android":"levelo://app?vid=be060fb5-4022-4ae3-8686-3b745b2773f1","ios":"levelo://app?vid=be060fb5-4022-4ae3-8686-3b745b2773f1"},"vehicle_type_id":"4","last_reported":1691258820,"current_range_meters":19200,"station_id":"ce4bh692rcd13ifvqea0","pricing_plan_id":"free"},{"bike_id":"9c30aaa7-421b-4be3-ba5f-5bbe2cb6f4d2","system_id":"levelo_inurba_marseille","lat":43.292642,"lon":5.384254,"is_reserved":false,"is_disabled":false,"rental_uris":{"android":"levelo://app?vid=9c30aaa7-421b-4be3-ba5f-5bbe2cb6f4d2","ios":"levelo://app?vid=9c30aaa7-421b-4be3-ba5f-5bbe2cb6f4d2"},"vehicle_type_id":"4","last_reported":1691258820,"current_range_meters":2000,"station_id":"ce4bh692rcd13ifvqea0","pricing_plan_id":"free"},{"bike_id":"e3964a23-b15b-4e38-99e1-3056af9aa29b","system_id":"levelo_inurba_marseille","lat":43.292642,"lon":5.384254,"is_reserved":false,"is_disabled":false,"rental_uris":{"android":"levelo://app?vid=e3964a23-b15b-4e38-99e1-3056af9aa29b","ios":"levelo://app?vid=e3964a23-b15b-4e38-99e1-3056af9aa29b"},"vehicle_type_id":"4","last_reported":1691258820,"current_range_meters":1200,"station_id":"ce4bh692rcd13ifvqea0","pricing_plan_id":"free"},{"bike_id":"d3c27e98-82c6-4cd0-bfaa-68cec38e2795","system_id":"levelo_inurba_marseille","lat":43.292642,"lon":5.384254,"is_reserved":false,"is_disabled":false,"rental_uris":{"android":"levelo://app?vid=d3c27e98-82c6-4cd0-bfaa-68cec38e2795","ios":"levelo://app?vid=d3c27e98-82c6-4cd0-bfaa-68cec38e2795"},"vehicle_type_id":"4","last_reported":1691258820,"current_range_meters":28800,"station_id":"ce4bh692rcd13ifvqea0","pricing_plan_id":"free"},{"bike_id":"0444cc78-b3cb-4566-a909-41cd125bc6c4","system_id":"levelo_inurba_marseille","lat":43.292644,"lon":5.384257,"is_reserved":false,"is_disabled":false,"rental_uris":{"android":"levelo://app?vid=0444cc78-b3cb-4566-a909-41cd125bc6c4","ios":"levelo://app?vid=0444cc78-b3cb-4566-a909-41cd125bc6c4"},"vehicle_type_id":"4","last_reported":1691258820,"current_range_meters":16000,"station_id":"ce4bh692rcd13ifvqea0","pricing_plan_id":"free"},{"bike_id":"1115cb4b-19b0-4a17-9bd1-fb4570c68d4e","system_id":"levelo_inurba_marseille","lat":43.292644,"lon":5.384257,"is_reserved":false,"is_disabled":false,"rental_uris":{"android":"levelo://app?vid=1115cb4b-19b0-4a17-9bd1-fb4570c68d4e","ios":"levelo://app?vid=1115cb4b-19b0-4a17-9bd1-fb4570c68d4e"},"vehicle_type_id":"4","last_reported":1691258820,"current_range_meters":31200,"station_id":"ce4bh692rcd13ifvqea0","pricing_plan_id":"free"},{"bike_id":"c5b4eeba-4cf5-445e-b68e-fab475a4da68","system_id":"levelo_inurba_marseille","lat":43.292642,"lon":5.384254,"is_reserved":false,"is_disabled":false,"rental_uris":{"android":"levelo://app?vid=c5b4eeba-4cf5-445e-b68e-fab475a4da68","ios":"levelo://app?vid=c5b4eeba-4cf5-445e-b68e-fab475a4da68"},"vehicle_type_id":"4","last_reported":1691258820,"current_range_meters":18800,"station_id":"ce4bh692rcd13ifvqea0","pricing_plan_id":"free"},{"bike_id":"a102cf37-7cb6-47f3-8643-731f3cb0dc3c","system_id":"levelo_inurba_marseille","lat":43.292642,"lon":5.384254,"is_reserved":false,"is_disabled":false,"rental_uris":{"android":"levelo://app?vid=a102cf37-7cb6-47f3-8643-731f3cb0dc3c","ios":"levelo://app?vid=a102cf37-7cb6-47f3-8643-731f3cb0dc3c"},"vehicle_type_id":"4","last_reported":1691258820,"current_range_meters":6400,"station_id":"ce4bh692rcd13ifvqea0","pricing_plan_id":"free"},{"bike_id":"fb647d96-c019-426f-af16-d31d091d516a","system_id":"levelo_inurba_marseille","lat":43.292644,"lon":5.384257,"is_reserved":false,"is_disabled":false,"rental_uris":{"android":"levelo://app?vid=fb647d96-c019-426f-af16-d31d091d516a","ios":"levelo://app?vid=fb647d96-c019-426f-af16-d31d091d516a"},"vehicle_type_id":"4","last_reported":1691258820,"current_range_meters":31200,"station_id":"ce4bh692rcd13ifvqea0","pricing_plan_id":"free"},{"bike_id":"5d339101-cd77-4677-a8eb-a398f62d54aa","system_id":"levelo_inurba_marseille","lat":43.292642,"lon":5.384254,"is_reserved":false,"is_disabled":false,"rental_uris":{"android":"levelo://app?vid=5d339101-cd77-4677-a8eb-a398f62d54aa","ios":"levelo://app?vid=5d339101-cd77-4677-a8eb-a398f62d54aa"},"vehicle_type_id":"4","last_reported":1691258820,"current_range_meters":3600,"station_id":"ce4bh692rcd13ifvqea0","pricing_plan_id":"free"},{"bike_id":"79a68400-afa6-48b2-bd4b-45482a6d1675","system_id":"levelo_inurba_marseille","lat":43.292642,"lon":5.384254,"is_reserved":false,"is_disabled":false,"rental_uris":{"android":"levelo://app?vid=79a68400-afa6-48b2-bd4b-45482a6d1675","ios":"levelo://app?vid=79a68400-afa6-48b2-bd4b-45482a6d1675"},"vehicle_type_id":"4","last_reported":1691258820,"current_range_meters":12800,"station_id":"ce4bh692rcd13ifvqea0","pricing_plan_id":"free"},{"bike_id":"d48d65e4-5e9d-4094-8745-1104c698e0ff","system_id":"levelo_inurba_marseille","lat":43.292642,"lon":5.384254,"is_reserved":false,"is_disabled":false,"rental_uris":{"android":"levelo://app?vid=d48d65e4-5e9d-4094-8745-1104c698e0ff","ios":"levelo://app?vid=d48d65e4-5e9d-4094-8745-1104c698e0ff"},"vehicle_type_id":"4","last_reported":1691258820,"current_range_meters":6000,"station_id":"ce4bh692rcd13ifvqea0","pricing_plan_id":"free"},{"bike_id":"7a950cce-c6a9-45bd-b7b0-94b1bc42690f","system_id":"levelo_inurba_marseille","lat":43.292644,"lon":5.384257,"is_reserved":false,"is_disabled":false,"rental_uris":{"android":"levelo://app?vid=7a950cce-c6a9-45bd-b7b0-94b1bc42690f","ios":"levelo://app?vid=7a950cce-c6a9-45bd-b7b0-94b1bc42690f"},"vehicle_type_id":"4","last_reported":1691258820,"current_range_meters":9600,"station_id":"ce4bh692rcd13ifvqea0","pricing_plan_id":"free"},{"bike_id":"cedbc9c4-3cd8-4974-be60-104359550a71","system_id":"levelo_inurba_marseille","lat":43.33039,"lon":5.38906,"is_reserved":false,"is_disabled":false,"rental_uris":{"android":"levelo://app?vid=cedbc9c4-3cd8-4974-be60-104359550a71","ios":"levelo://app?vid=cedbc9c4-3cd8-4974-be60-104359550a71"},"vehicle_type_id":"4","last_reported":1691258820,"current_range_meters":30800,"station_id":"ce4bhr92rcd13ifvqhrg","pricing_plan_id":"free"},{"bike_id":"2f2d42a2-8de0-405f-9429-d3eae654394c","system_id":"levelo_inurba_marseille","lat":43.33037,"lon":5.38912,"is_reserved":false,"is_disabled":false,"rental_uris":{"android":"levelo://app?vid=2f2d42a2-8de0-405f-9429-d3eae654394c","ios":"levelo://app?vid=2f2d42a2-8de0-405f-9429-d3eae654394c"},"vehicle_type_id":"4","last_reported":1691258820,"current_range_meters":16000,"station_id":"ce4bhr92rcd13ifvqhrg","pricing_plan_id":"free"},{"bike_id":"f67edc25-bcc7-41fb-8431-1add679b0933","system_id":"levelo_inurba_marseille","lat":43.33041,"lon":5.38906,"is_reserved":false,"is_disabled":false,"rental_uris":{"android":"levelo://app?vid=f67edc25-bcc7-41fb-8431-1add679b0933","ios":"levelo://app?vid=f67edc25-bcc7-41fb-8431-1add679b0933"},"vehicle_type_id":"4","last_reported":1691258820,"current_range_meters":15200,"station_id":"ce4bhr92rcd13ifvqhrg","pricing_plan_id":"free"},{"bike_id":"3468d6ee-41ad-4796-b726-52055f3c03fd","system_id":"levelo_inurba_marseille","lat":43.33043,"lon":5.38903,"is_reserved":false,"is_disabled":false,"rental_uris":{"android":"levelo://app?vid=3468d6ee-41ad-4796-b726-52055f3c03fd","ios":"levelo://app?vid=3468d6ee-41ad-4796-b726-52055f3c03fd"},"vehicle_type_id":"4","last_reported":1691258820,"current_range_meters":26800,"station_id":"ce4bhr92rcd13ifvqhrg","pricing_plan_id":"free"},{"bike_id":"00b2dcdc-2882-40a1-9132-89c3ec15cf18","system_id":"levelo_inurba_marseille","lat":43.33038,"lon":5.38913,"is_reserved":false,"is_disabled":false,"rental_uris":{"android":"levelo://app?vid=00b2dcdc-2882-40a1-9132-89c3ec15cf18","ios":"levelo://app?vid=00b2dcdc-2882-40a1-9132-89c3ec15cf18"},"vehicle_type_id":"4","last_reported":1691258820,"current_range_meters":13600,"station_id":"ce4bhr92rcd13ifvqhrg","pricing_plan_id":"free"},{"bike_id":"2dba05d3-f7a4-4dcc-9133-7e306f42ddbb","system_id":"levelo_inurba_marseille","lat":43.3304,"lon":5.38912,"is_reserved":false,"is_disabled":false,"rental_uris":{"android":"levelo://app?vid=2dba05d3-f7a4-4dcc-9133-7e306f42ddbb","ios":"levelo://app?vid=2dba05d3-f7a4-4dcc-9133-7e306f42ddbb"},"vehicle_type_id":"4","last_reported":1691258820,"current_range_meters":30000,"station_id":"ce4bhr92rcd13ifvqhrg","pricing_plan_id":"free"},{"bike_id":"20cf3f6d-acf4-4653-bf24-baa04253f77a","system_id":"levelo_inurba_marseille","lat":43.33041,"lon":5.38915,"is_reserved":false,"is_disabled":false,"rental_uris":{"android":"levelo://app?vid=20cf3f6d-acf4-4653-bf24-baa04253f77a","ios":"levelo://app?vid=20cf3f6d-acf4-4653-bf24-baa04253f77a"},"vehicle_type_id":"4","last_reported":1691258820,"current_range_meters":13600,"station_id":"ce4bhr92rcd13ifvqhrg","pricing_plan_id":"free"},{"bike_id":"e6c6e4e8-edee-449e-8936-76c8ef3752c4","system_id":"levelo_inurba_marseille","lat":43.33041,"lon":5.38916,"is_reserved":false,"is_disabled":false,"rental_uris":{"android":"levelo://app?vid=e6c6e4e8-edee-449e-8936-76c8ef3752c4","ios":"levelo://app?vid=e6c6e4e8-edee-449e-8936-76c8ef3752c4"},"vehicle_type_id":"4","last_reported":1691258820,"current_range_meters":18800,"station_id":"ce4bhr92rcd13ifvqhrg","pricing_plan_id":"free"},{"bike_id":"98f910d2-52f4-4465-977e-10142d8cca43","system_id":"levelo_inurba_marseille","lat":43.3304,"lon":5.38918,"is_reserved":false,"is_disabled":false,"rental_uris":{"android":"levelo://app?vid=98f910d2-52f4-4465-977e-10142d8cca43","ios":"levelo://app?vid=98f910d2-52f4-4465-977e-10142d8cca43"},"vehicle_type_id":"4","last_reported":1691258820,"current_range_meters":15600,"station_id":"ce4bhr92rcd13ifvqhrg","pricing_plan_id":"free"},{"bike_id":"9ce62819-7d94-47c9-aff2-f56e39f0ba59","system_id":"levelo_inurba_marseille","lat":43.33042,"lon":5.38917,"is_reserved":false,"is_disabled":false,"rental_uris":{"android":"levelo://app?vid=9ce62819-7d94-47c9-aff2-f56e39f0ba59","ios":"levelo://app?vid=9ce62819-7d94-47c9-aff2-f56e39f0ba59"},"vehicle_type_id":"4","last_reported":1691258820,"current_range_meters":26800,"station_id":"ce4bhr92rcd13ifvqhrg","pricing_plan_id":"free"},{"bike_id":"976f718a-bfdb-4480-a757-e5b9a5d1a5d6","system_id":"levelo_inurba_marseille","lat":43.33045,"lon":5.38916,"is_reserved":false,"is_disabled":false,"rental_uris":{"android":"levelo://app?vid=976f718a-bfdb-4480-a757-e5b9a5d1a5d6","ios":"levelo://app?vid=976f718a-bfdb-4480-a757-e5b9a5d1a5d6"},"vehicle_type_id":"4","last_reported":1691258820,"current_range_meters":24400,"station_id":"ce4bhr92rcd13ifvqhrg","pricing_plan_id":"free"},{"bike_id":"34fc0bae-b089-42d1-99d0-10d5b39f2b41","system_id":"levelo_inurba_marseille","lat":43.33041,"lon":5.38923,"is_reserved":false,"is_disabled":false,"rental_uris":{"android":"levelo://app?vid=34fc0bae-b089-42d1-99d0-10d5b39f2b41","ios":"levelo://app?vid=34fc0bae-b089-42d1-99d0-10d5b39f2b41"},"vehicle_type_id":"4","last_reported":1691258820,"current_range_meters":21200,"station_id":"ce4bhr92rcd13ifvqhrg","pricing_plan_id":"free"},{"bike_id":"38c1adea-6867-4940-9699-a628b1958570","system_id":"levelo_inurba_marseille","lat":43.33047,"lon":5.38915,"is_reserved":false,"is_disabled":false,"rental_uris":{"android":"levelo://app?vid=38c1adea-6867-4940-9699-a628b1958570","ios":"levelo://app?vid=38c1adea-6867-4940-9699-a628b1958570"},"vehicle_type_id":"4","last_reported":1691258820,"current_range_meters":27600,"station_id":"ce4bhr92rcd13ifvqhrg","pricing_plan_id":"free"},{"bike_id":"37fde894-3336-4087-bf88-b0989bbc514a","system_id":"levelo_inurba_marseille","lat":43.33047,"lon":5.38917,"is_reserved":false,"is_disabled":false,"rental_uris":{"android":"levelo://app?vid=37fde894-3336-4087-bf88-b0989bbc514a","ios":"levelo://app?vid=37fde894-3336-4087-bf88-b0989bbc514a"},"vehicle_type_id":"4","last_reported":1691258820,"current_range_meters":31200,"station_id":"ce4bhr92rcd13ifvqhrg","pricing_plan_id":"free"},{"bike_id":"7c01c94f-e684-411f-a62e-be27c5e2d0dc","system_id":"levelo_inurba_marseille","lat":43.290995,"lon":5.381361,"is_reserved":false,"is_disabled":false,"rental_uris":{"android":"levelo://app?vid=7c01c94f-e684-411f-a62e-be27c5e2d0dc","ios":"levelo://app?vid=7c01c94f-e684-411f-a62e-be27c5e2d0dc"},"vehicle_type_id":"4","last_reported":1691258820,"current_range_meters":12800,"station_id":"ce4bh512rcd13ifvqe2g","pricing_plan_id":"free"},{"bike_id":"64460322-e7cf-4548-bf27-182060984958","system_id":"levelo_inurba_marseille","lat":43.290995,"lon":5.381361,"is_reserved":false,"is_disabled":false,"rental_uris":{"android":"levelo://app?vid=64460322-e7cf-4548-bf27-182060984958","ios":"levelo://app?vid=64460322-e7cf-4548-bf27-182060984958"},"vehicle_type_id":"4","last_reported":1691258820,"current_range_meters":10400,"station_id":"ce4bh512rcd13ifvqe2g","pricing_plan_id":"free"},{"bike_id":"05bf2cc0-c80b-4d3b-9303-5cea93148e89","system_id":"levelo_inurba_marseille","lat":43.290995,"lon":5.381361,"is_reserved":false,"is_disabled":false,"rental_uris":{"android":"levelo://app?vid=05bf2cc0-c80b-4d3b-9303-5cea93148e89","ios":"levelo://app?vid=05bf2cc0-c80b-4d3b-9303-5cea93148e89"},"vehicle_type_id":"4","last_reported":1691258820,"current_range_meters":30000,"station_id":"ce4bh512rcd13ifvqe2g","pricing_plan_id":"free"},{"bike_id":"71f6b7b8-a6b4-491d-9f3c-3a5f66c187b0","system_id":"levelo_inurba_marseille","lat":43.295169,"lon":5.390426,"is_reserved":false,"is_disabled":false,"rental_uris":{"android":"levelo://app?vid=71f6b7b8-a6b4-491d-9f3c-3a5f66c187b0","ios":"levelo://app?vid=71f6b7b8-a6b4-491d-9f3c-3a5f66c187b0"},"vehicle_type_id":"4","last_reported":1691258820,"current_range_meters":25200,"station_id":"ce4bh3p2rcd13ifvqdp0","pricing_plan_id":"free"},{"bike_id":"fb999472-3fc5-4c8c-83ed-813a7447dc94","system_id":"levelo_inurba_marseille","lat":43.297815,"lon":5.393548,"is_reserved":false,"is_disabled":false,"rental_uris":{"android":"levelo://app?vid=fb999472-3fc5-4c8c-83ed-813a7447dc94","ios":"levelo://app?vid=fb999472-3fc5-4c8c-83ed-813a7447dc94"},"vehicle_type_id":"4","last_reported":1691258820,"current_range_meters":29600,"station_id":"chh1huq6cuj3fo74tm60","pricing_plan_id":"free"},{"bike_id":"90198e68-51ee-449f-aae9-ee07dd376f7e","system_id":"levelo_inurba_marseille","lat":43.295169,"lon":5.390426,"is_reserved":false,"is_disabled":false,"rental_uris":{"android":"levelo://app?vid=90198e68-51ee-449f-aae9-ee07dd376f7e","ios":"levelo://app?vid=90198e68-51ee-449f-aae9-ee07dd376f7e"},"vehicle_type_id":"4","last_reported":1691258820,"current_range_meters":22000,"station_id":"ce4bh3p2rcd13ifvqdp0","pricing_plan_id":"free"},{"bike_id":"33fa619f-fad1-4474-97ac-dd824d19bed8","system_id":"levelo_inurba_marseille","lat":43.29782,"lon":5.39344,"is_reserved":false,"is_disabled":false,"rental_uris":{"android":"levelo://app?vid=33fa619f-fad1-4474-97ac-dd824d19bed8","ios":"levelo://app?vid=33fa619f-fad1-4474-97ac-dd824d19bed8"},"vehicle_type_id":"4","last_reported":1691258820,"current_range_meters":26800,"station_id":"","pricing_plan_id":"free"},{"bike_id":"d5e97910-5d35-4f3b-8ab0-0c4782c1d009","system_id":"levelo_inurba_marseille","lat":43.295169,"lon":5.390426,"is_reserved":false,"is_disabled":false,"rental_uris":{"android":"levelo://app?vid=d5e97910-5d35-4f3b-8ab0-0c4782c1d009","ios":"levelo://app?vid=d5e97910-5d35-4f3b-8ab0-0c4782c1d009"},"vehicle_type_id":"4","last_reported":1691258820,"current_range_meters":29200,"station_id":"ce4bh3p2rcd13ifvqdp0","pricing_plan_id":"free"},{"bike_id":"ac2f1d65-8964-48c0-a6b1-03653c9f1db8","system_id":"levelo_inurba_marseille","lat":43.28972,"lon":5.37818,"is_reserved":false,"is_disabled":false,"rental_uris":{"android":"levelo://app?vid=ac2f1d65-8964-48c0-a6b1-03653c9f1db8","ios":"levelo://app?vid=ac2f1d65-8964-48c0-a6b1-03653c9f1db8"},"vehicle_type_id":"4","last_reported":1691258820,"current_range_meters":29200,"station_id":"ce4bh9p2rcd13ifvqed0","pricing_plan_id":"free"},{"bike_id":"73513267-d29e-4931-82aa-5f50ee3c7d76","system_id":"levelo_inurba_marseille","lat":43.290374,"lon":5.38131,"is_reserved":false,"is_disabled":false,"rental_uris":{"android":"levelo://app?vid=73513267-d29e-4931-82aa-5f50ee3c7d76","ios":"levelo://app?vid=73513267-d29e-4931-82aa-5f50ee3c7d76"},"vehicle_type_id":"4","last_reported":1691258820,"current_range_meters":6000,"station_id":"ce4bh4p2rcd13ifvqe1g","pricing_plan_id":"free"},{"bike_id":"c0b190af-52d9-4a3e-bc6d-0159388908a6","system_id":"levelo_inurba_marseille","lat":43.29028,"lon":5.38129,"is_reserved":false,"is_disabled":false,"rental_uris":{"android":"levelo://app?vid=c0b190af-52d9-4a3e-bc6d-0159388908a6","ios":"levelo://app?vid=c0b190af-52d9-4a3e-bc6d-0159388908a6"},"vehicle_type_id":"4","last_reported":1691258820,"current_range_meters":18800,"station_id":"ce4bh4p2rcd13ifvqe1g","pricing_plan_id":"free"},{"bike_id":"7a39c89c-d52a-42bd-b6ba-2802780a9e15","system_id":"levelo_inurba_marseille","lat":43.2901,"lon":5.381269,"is_reserved":false,"is_disabled":false,"rental_uris":{"android":"levelo://app?vid=7a39c89c-d52a-42bd-b6ba-2802780a9e15","ios":"levelo://app?vid=7a39c89c-d52a-42bd-b6ba-2802780a9e15"},"vehicle_type_id":"4","last_reported":1691258820,"current_range_meters":22400,"station_id":"ce4bh4p2rcd13ifvqe1g","pricing_plan_id":"free"},{"bike_id":"49e0dfb0-0a14-4482-ba91-65973ed04b8b","system_id":"levelo_inurba_marseille","lat":43.29024,"lon":5.38131,"is_reserved":false,"is_disabled":false,"rental_uris":{"android":"levelo://app?vid=49e0dfb0-0a14-4482-ba91-65973ed04b8b","ios":"levelo://app?vid=49e0dfb0-0a14-4482-ba91-65973ed04b8b"},"vehicle_type_id":"4","last_reported":1691258820,"current_range_meters":2800,"station_id":"ce4bh4p2rcd13ifvqe1g","pricing_plan_id":"free"},{"bike_id":"cffa9ef5-ebfb-4547-9cd1-731364486699","system_id":"levelo_inurba_marseille","lat":43.2901,"lon":5.381269,"is_reserved":false,"is_disabled":false,"rental_uris":{"android":"levelo://app?vid=cffa9ef5-ebfb-4547-9cd1-731364486699","ios":"levelo://app?vid=cffa9ef5-ebfb-4547-9cd1-731364486699"},"vehicle_type_id":"4","last_reported":1691258820,"current_range_meters":0,"station_id":"ce4bh4p2rcd13ifvqe1g","pricing_plan_id":"free"},{"bike_id":"8c6f0bb9-fd92-422e-baff-0bb812929630","system_id":"levelo_inurba_marseille","lat":43.30935,"lon":5.40136,"is_reserved":false,"is_disabled":false,"rental_uris":{"android":"levelo://app?vid=8c6f0bb9-fd92-422e-baff-0bb812929630","ios":"levelo://app?vid=8c6f0bb9-fd92-422e-baff-0bb812929630"},"vehicle_type_id":"4","last_reported":1691258820,"current_range_meters":14000,"station_id":"ce4bgvp2rcd13ifvqct0","pricing_plan_id":"free"},{"bike_id":"7a2d3f9b-4f5b-40fe-8ce1-45d9c5149eb3","system_id":"levelo_inurba_marseille","lat":43.30642,"lon":5.401031,"is_reserved":false,"is_disabled":false,"rental_uris":{"android":"levelo://app?vid=7a2d3f9b-4f5b-40fe-8ce1-45d9c5149eb3","ios":"levelo://app?vid=7a2d3f9b-4f5b-40fe-8ce1-45d9c5149eb3"},"vehicle_type_id":"4","last_reported":1691258820,"current_range_meters":28000,"station_id":"ce4bh112rcd13ifvqda0","pricing_plan_id":"free"},{"bike_id":"dbd04be6-7fce-45ad-b2b3-f4274f895128","system_id":"levelo_inurba_marseille","lat":43.30642,"lon":5.401031,"is_reserved":false,"is_disabled":false,"rental_uris":{"android":"levelo://app?vid=dbd04be6-7fce-45ad-b2b3-f4274f895128","ios":"levelo://app?vid=dbd04be6-7fce-45ad-b2b3-f4274f895128"},"vehicle_type_id":"4","last_reported":1691258820,"current_range_meters":15200,"station_id":"ce4bh112rcd13ifvqda0","pricing_plan_id":"free"},{"bike_id":"f3eb4af9-9f02-417f-8403-b2c13da95b35","system_id":"levelo_inurba_marseille","lat":43.298681,"lon":5.397225,"is_reserved":false,"is_disabled":false,"rental_uris":{"android":"levelo://app?vid=f3eb4af9-9f02-417f-8403-b2c13da95b35","ios":"levelo://app?vid=f3eb4af9-9f02-417f-8403-b2c13da95b35"},"vehicle_type_id":"4","last_reported":1691258820,"current_range_meters":14800,"station_id":"ce4bh0h2rcd13ifvqd50","pricing_plan_id":"free"},{"bike_id":"7ca2ba6d-8e3e-4fa0-82ad-7e64f40c794f","system_id":"levelo_inurba_marseille","lat":43.298681,"lon":5.397225,"is_reserved":false,"is_disabled":false,"rental_uris":{"android":"levelo://app?vid=7ca2ba6d-8e3e-4fa0-82ad-7e64f40c794f","ios":"levelo://app?vid=7ca2ba6d-8e3e-4fa0-82ad-7e64f40c794f"},"vehicle_type_id":"4","last_reported":1691258820,"current_range_meters":12800,"station_id":"ce4bh0h2rcd13ifvqd50","pricing_plan_id":"free"},{"bike_id":"3fc61213-e009-45eb-a5fe-d7c65dd9c34d","system_id":"levelo_inurba_marseille","lat":43.29872,"lon":5.39735,"is_reserved":false,"is_disabled":false,"rental_uris":{"android":"levelo://app?vid=3fc61213-e009-45eb-a5fe-d7c65dd9c34d","ios":"levelo://app?vid=3fc61213-e009-45eb-a5fe-d7c65dd9c34d"},"vehicle_type_id":"4","last_reported":1691258820,"current_range_meters":1200,"station_id":"ce4bh0h2rcd13ifvqd50","pricing_plan_id":"free"},{"bike_id":"75199276-b705-4ad7-b6a9-49aeaa84628a","system_id":"levelo_inurba_marseille","lat":43.286591,"lon":5.363346,"is_reserved":false,"is_disabled":false,"rental_uris":{"android":"levelo://app?vid=75199276-b705-4ad7-b6a9-49aeaa84628a","ios":"levelo://app?vid=75199276-b705-4ad7-b6a9-49aeaa84628a"},"vehicle_type_id":"4","last_reported":1691258820,"current_range_meters":31200,"station_id":"ce4bhah2rcd13ifvqej0","pricing_plan_id":"free"},{"bike_id":"3afc3aa9-369a-488e-ab58-89cbf0b1ce1a","system_id":"levelo_inurba_marseille","lat":43.29033,"lon":5.38633,"is_reserved":false,"is_disabled":false,"rental_uris":{"android":"levelo://app?vid=3afc3aa9-369a-488e-ab58-89cbf0b1ce1a","ios":"levelo://app?vid=3afc3aa9-369a-488e-ab58-89cbf0b1ce1a"},"vehicle_type_id":"4","last_reported":1691258820,"current_range_meters":26800,"station_id":"ce4bh4p2rcd13ifvqe0g","pricing_plan_id":"free"},{"bike_id":"0ad362ae-987b-42f9-a0cc-ef9be251340a","system_id":"levelo_inurba_marseille","lat":43.290345,"lon":5.38646,"is_reserved":false,"is_disabled":false,"rental_uris":{"android":"levelo://app?vid=0ad362ae-987b-42f9-a0cc-ef9be251340a","ios":"levelo://app?vid=0ad362ae-987b-42f9-a0cc-ef9be251340a"},"vehicle_type_id":"4","last_reported":1691258820,"current_range_meters":24800,"station_id":"ce4bh4p2rcd13ifvqe0g","pricing_plan_id":"free"},{"bike_id":"7b9e2d57-7c2f-4652-8ec0-ee4d147afe24","system_id":"levelo_inurba_marseille","lat":43.302548,"lon":5.400568,"is_reserved":false,"is_disabled":false,"rental_uris":{"android":"levelo://app?vid=7b9e2d57-7c2f-4652-8ec0-ee4d147afe24","ios":"levelo://app?vid=7b9e2d57-7c2f-4652-8ec0-ee4d147afe24"},"vehicle_type_id":"4","last_reported":1691258820,"current_range_meters":10000,"station_id":"","pricing_plan_id":"free"},{"bike_id":"8ba4b56c-6f70-482b-b14a-466113bf2c77","system_id":"levelo_inurba_marseille","lat":43.290336,"lon":5.386425,"is_reserved":false,"is_disabled":false,"rental_uris":{"android":"levelo://app?vid=8ba4b56c-6f70-482b-b14a-466113bf2c77","ios":"levelo://app?vid=8ba4b56c-6f70-482b-b14a-466113bf2c77"},"vehicle_type_id":"4","last_reported":1691258820,"current_range_meters":28800,"station_id":"ce4bh4p2rcd13ifvqe0g","pricing_plan_id":"free"},{"bike_id":"ac4856a5-663c-40ff-82c8-641ca269d65f","system_id":"levelo_inurba_marseille","lat":43.286039,"lon":5.370679,"is_reserved":false,"is_disabled":false,"rental_uris":{"android":"levelo://app?vid=ac4856a5-663c-40ff-82c8-641ca269d65f","ios":"levelo://app?vid=ac4856a5-663c-40ff-82c8-641ca269d65f"},"vehicle_type_id":"4","last_reported":1691258820,"current_range_meters":1200,"station_id":"ce4bht12rcd13ifvqi60","pricing_plan_id":"free"},{"bike_id":"c6ec8958-cc93-4a08-9e06-d0267102ee98","system_id":"levelo_inurba_marseille","lat":43.286039,"lon":5.370679,"is_reserved":false,"is_disabled":false,"rental_uris":{"android":"levelo://app?vid=c6ec8958-cc93-4a08-9e06-d0267102ee98","ios":"levelo://app?vid=c6ec8958-cc93-4a08-9e06-d0267102ee98"},"vehicle_type_id":"4","last_reported":1691258820,"current_range_meters":4800,"station_id":"ce4bht12rcd13ifvqi60","pricing_plan_id":"free"},{"bike_id":"ecbedee9-aa1a-44ba-be7d-1a44cbc183bb","system_id":"levelo_inurba_marseille","lat":43.286039,"lon":5.370679,"is_reserved":false,"is_disabled":false,"rental_uris":{"android":"levelo://app?vid=ecbedee9-aa1a-44ba-be7d-1a44cbc183bb","ios":"levelo://app?vid=ecbedee9-aa1a-44ba-be7d-1a44cbc183bb"},"vehicle_type_id":"4","last_reported":1691258820,"current_range_meters":23600,"station_id":"ce4bht12rcd13ifvqi60","pricing_plan_id":"free"},{"bike_id":"b6dee2db-02b6-4277-a3a8-5e6dee64cdf8","system_id":"levelo_inurba_marseille","lat":43.286039,"lon":5.370679,"is_reserved":false,"is_disabled":false,"rental_uris":{"android":"levelo://app?vid=b6dee2db-02b6-4277-a3a8-5e6dee64cdf8","ios":"levelo://app?vid=b6dee2db-02b6-4277-a3a8-5e6dee64cdf8"},"vehicle_type_id":"4","last_reported":1691258820,"current_range_meters":7600,"station_id":"ce4bht12rcd13ifvqi60","pricing_plan_id":"free"},{"bike_id":"8ffa7a4a-ee91-4471-bc22-0ea98cd90ff6","system_id":"levelo_inurba_marseille","lat":43.286039,"lon":5.370679,"is_reserved":false,"is_disabled":false,"rental_uris":{"android":"levelo://app?vid=8ffa7a4a-ee91-4471-bc22-0ea98cd90ff6","ios":"levelo://app?vid=8ffa7a4a-ee91-4471-bc22-0ea98cd90ff6"},"vehicle_type_id":"4","last_reported":1691258820,"current_range_meters":4000,"station_id":"ce4bht12rcd13ifvqi60","pricing_plan_id":"free"},{"bike_id":"42100a72-4e91-4453-a1f8-a05372468574","system_id":"levelo_inurba_marseille","lat":43.286039,"lon":5.370681,"is_reserved":false,"is_disabled":false,"rental_uris":{"android":"levelo://app?vid=42100a72-4e91-4453-a1f8-a05372468574","ios":"levelo://app?vid=42100a72-4e91-4453-a1f8-a05372468574"},"vehicle_type_id":"4","last_reported":1691258820,"current_range_meters":21200,"station_id":"ce4bht12rcd13ifvqi60","pricing_plan_id":"free"},{"bike_id":"59416073-ea3c-4ff0-8338-b007351a3a07","system_id":"levelo_inurba_marseille","lat":43.28606,"lon":5.37064,"is_reserved":false,"is_disabled":false,"rental_uris":{"android":"levelo://app?vid=59416073-ea3c-4ff0-8338-b007351a3a07","ios":"levelo://app?vid=59416073-ea3c-4ff0-8338-b007351a3a07"},"vehicle_type_id":"4","last_reported":1691258820,"current_range_meters":20000,"station_id":"ce4bht12rcd13ifvqi60","pricing_plan_id":"free"},{"bike_id":"4525ddb2-f47e-44bf-9e1a-c1c4c206976d","system_id":"levelo_inurba_marseille","lat":43.286045,"lon":5.370615,"is_reserved":false,"is_disabled":false,"rental_uris":{"android":"levelo://app?vid=4525ddb2-f47e-44bf-9e1a-c1c4c206976d","ios":"levelo://app?vid=4525ddb2-f47e-44bf-9e1a-c1c4c206976d"},"vehicle_type_id":"4","last_reported":1691258820,"current_range_meters":23200,"station_id":"ce4bht12rcd13ifvqi60","pricing_plan_id":"free"},{"bike_id":"6f55646d-c5a1-40ed-8c7b-27081eb80385","system_id":"levelo_inurba_marseille","lat":43.29363,"lon":5.39282,"is_reserved":false,"is_disabled":false,"rental_uris":{"android":"levelo://app?vid=6f55646d-c5a1-40ed-8c7b-27081eb80385","ios":"levelo://app?vid=6f55646d-c5a1-40ed-8c7b-27081eb80385"},"vehicle_type_id":"4","last_reported":1691258820,"current_range_meters":17600,"station_id":"","pricing_plan_id":"free"},{"bike_id":"7fdc46fd-3139-490a-809f-cede1ec18d44","system_id":"levelo_inurba_marseille","lat":43.287184,"lon":5.37937,"is_reserved":false,"is_disabled":false,"rental_uris":{"android":"levelo://app?vid=7fdc46fd-3139-490a-809f-cede1ec18d44","ios":"levelo://app?vid=7fdc46fd-3139-490a-809f-cede1ec18d44"},"vehicle_type_id":"4","last_reported":1691258820,"current_range_meters":1600,"station_id":"ce4bh9p2rcd13ifvqec0","pricing_plan_id":"free"},{"bike_id":"d0a0565a-8ba1-4570-acea-2f5266376318","system_id":"levelo_inurba_marseille","lat":43.287184,"lon":5.37937,"is_reserved":false,"is_disabled":false,"rental_uris":{"android":"levelo://app?vid=d0a0565a-8ba1-4570-acea-2f5266376318","ios":"levelo://app?vid=d0a0565a-8ba1-4570-acea-2f5266376318"},"vehicle_type_id":"4","last_reported":1691258820,"current_range_meters":1200,"station_id":"ce4bh9p2rcd13ifvqec0","pricing_plan_id":"free"},{"bike_id":"c72f2d32-2e3d-41fc-b999-365347f033cc","system_id":"levelo_inurba_marseille","lat":43.31649,"lon":5.40433,"is_reserved":false,"is_disabled":false,"rental_uris":{"android":"levelo://app?vid=c72f2d32-2e3d-41fc-b999-365347f033cc","ios":"levelo://app?vid=c72f2d32-2e3d-41fc-b999-365347f033cc"},"vehicle_type_id":"4","last_reported":1691258820,"current_range_meters":11600,"station_id":"ce4bh012rcd13ifvqd00","pricing_plan_id":"free"},{"bike_id":"60d4d096-46b5-4aa1-bd4d-738c46f02aea","system_id":"levelo_inurba_marseille","lat":43.284538,"lon":5.358657,"is_reserved":false,"is_disabled":false,"rental_uris":{"android":"levelo://app?vid=60d4d096-46b5-4aa1-bd4d-738c46f02aea","ios":"levelo://app?vid=60d4d096-46b5-4aa1-bd4d-738c46f02aea"},"vehicle_type_id":"4","last_reported":1691258820,"current_range_meters":24000,"station_id":"ce4bhah2rcd13ifvqei0","pricing_plan_id":"free"},{"bike_id":"7b78d55e-e99c-4fa7-968a-c672d6912f00","system_id":"levelo_inurba_marseille","lat":43.284534,"lon":5.358662,"is_reserved":false,"is_disabled":false,"rental_uris":{"android":"levelo://app?vid=7b78d55e-e99c-4fa7-968a-c672d6912f00","ios":"levelo://app?vid=7b78d55e-e99c-4fa7-968a-c672d6912f00"},"vehicle_type_id":"4","last_reported":1691258820,"current_range_meters":31200,"station_id":"ce4bhah2rcd13ifvqei0","pricing_plan_id":"free"},{"bike_id":"5c845889-ddaa-4b13-8fa9-2020117476ad","system_id":"levelo_inurba_marseille","lat":43.284538,"lon":5.358657,"is_reserved":false,"is_disabled":false,"rental_uris":{"android":"levelo://app?vid=5c845889-ddaa-4b13-8fa9-2020117476ad","ios":"levelo://app?vid=5c845889-ddaa-4b13-8fa9-2020117476ad"},"vehicle_type_id":"4","last_reported":1691258820,"current_range_meters":2000,"station_id":"ce4bhah2rcd13ifvqei0","pricing_plan_id":"free"},{"bike_id":"daabc7da-57dd-4649-a754-5c9076f425d0","system_id":"levelo_inurba_marseille","lat":43.28622,"lon":5.35104,"is_reserved":false,"is_disabled":false,"rental_uris":{"android":"levelo://app?vid=daabc7da-57dd-4649-a754-5c9076f425d0","ios":"levelo://app?vid=daabc7da-57dd-4649-a754-5c9076f425d0"},"vehicle_type_id":"4","last_reported":1691258820,"current_range_meters":27600,"station_id":"ce4bhch2rcd13ifvqeug","pricing_plan_id":"free"},{"bike_id":"27945e63-572b-46ea-a56c-f8608c34b147","system_id":"levelo_inurba_marseille","lat":43.286199,"lon":5.3511,"is_reserved":false,"is_disabled":false,"rental_uris":{"android":"levelo://app?vid=27945e63-572b-46ea-a56c-f8608c34b147","ios":"levelo://app?vid=27945e63-572b-46ea-a56c-f8608c34b147"},"vehicle_type_id":"4","last_reported":1691258820,"current_range_meters":31200,"station_id":"ce4bhch2rcd13ifvqeug","pricing_plan_id":"free"},{"bike_id":"3161442f-58ec-4d7b-8fa7-b2e0b77bfe63","system_id":"levelo_inurba_marseille","lat":43.28619,"lon":5.351107,"is_reserved":false,"is_disabled":false,"rental_uris":{"android":"levelo://app?vid=3161442f-58ec-4d7b-8fa7-b2e0b77bfe63","ios":"levelo://app?vid=3161442f-58ec-4d7b-8fa7-b2e0b77bfe63"},"vehicle_type_id":"4","last_reported":1691258820,"current_range_meters":31200,"station_id":"ce4bhch2rcd13ifvqeug","pricing_plan_id":"free"},{"bike_id":"d7c750dc-4241-4adc-a615-ebf6445b8a77","system_id":"levelo_inurba_marseille","lat":43.28617,"lon":5.35109,"is_reserved":false,"is_disabled":false,"rental_uris":{"android":"levelo://app?vid=d7c750dc-4241-4adc-a615-ebf6445b8a77","ios":"levelo://app?vid=d7c750dc-4241-4adc-a615-ebf6445b8a77"},"vehicle_type_id":"4","last_reported":1691258820,"current_range_meters":10400,"station_id":"ce4bhch2rcd13ifvqeug","pricing_plan_id":"free"},{"bike_id":"cdf78fbc-b727-4350-8c01-23b712e8faf2","system_id":"levelo_inurba_marseille","lat":43.28618,"lon":5.35101,"is_reserved":false,"is_disabled":false,"rental_uris":{"android":"levelo://app?vid=cdf78fbc-b727-4350-8c01-23b712e8faf2","ios":"levelo://app?vid=cdf78fbc-b727-4350-8c01-23b712e8faf2"},"vehicle_type_id":"4","last_reported":1691258820,"current_range_meters":8800,"station_id":"ce4bhch2rcd13ifvqeug","pricing_plan_id":"free"},{"bike_id":"c5b7fca3-e3d2-48c7-9a26-207f07189c9f","system_id":"levelo_inurba_marseille","lat":43.286156,"lon":5.351083,"is_reserved":false,"is_disabled":false,"rental_uris":{"android":"levelo://app?vid=c5b7fca3-e3d2-48c7-9a26-207f07189c9f","ios":"levelo://app?vid=c5b7fca3-e3d2-48c7-9a26-207f07189c9f"},"vehicle_type_id":"4","last_reported":1691258820,"current_range_meters":31200,"station_id":"ce4bhch2rcd13ifvqeug","pricing_plan_id":"free"},{"bike_id":"21a91f06-23fa-46ca-8bc5-a0b20dd580aa","system_id":"levelo_inurba_marseille","lat":43.28616,"lon":5.35106,"is_reserved":false,"is_disabled":false,"rental_uris":{"android":"levelo://app?vid=21a91f06-23fa-46ca-8bc5-a0b20dd580aa","ios":"levelo://app?vid=21a91f06-23fa-46ca-8bc5-a0b20dd580aa"},"vehicle_type_id":"4","last_reported":1691258820,"current_range_meters":31200,"station_id":"ce4bhch2rcd13ifvqeug","pricing_plan_id":"free"},{"bike_id":"4d1fb9fe-6c7c-4b81-a9ab-f43a3c15b388","system_id":"levelo_inurba_marseille","lat":43.285856,"lon":5.350771,"is_reserved":false,"is_disabled":false,"rental_uris":{"android":"levelo://app?vid=4d1fb9fe-6c7c-4b81-a9ab-f43a3c15b388","ios":"levelo://app?vid=4d1fb9fe-6c7c-4b81-a9ab-f43a3c15b388"},"vehicle_type_id":"4","last_reported":1691258820,"current_range_meters":18800,"station_id":"ce4bhch2rcd13ifvqeug","pricing_plan_id":"free"},{"bike_id":"ed2b39ae-ccec-4e04-9146-658d6b1c5129","system_id":"levelo_inurba_marseille","lat":43.28615,"lon":5.351,"is_reserved":false,"is_disabled":false,"rental_uris":{"android":"levelo://app?vid=ed2b39ae-ccec-4e04-9146-658d6b1c5129","ios":"levelo://app?vid=ed2b39ae-ccec-4e04-9146-658d6b1c5129"},"vehicle_type_id":"4","last_reported":1691258820,"current_range_meters":18800,"station_id":"ce4bhch2rcd13ifvqeug","pricing_plan_id":"free"},{"bike_id":"9de85def-13fe-454c-a86e-67c49fad86de","system_id":"levelo_inurba_marseille","lat":43.28614,"lon":5.35103,"is_reserved":false,"is_disabled":false,"rental_uris":{"android":"levelo://app?vid=9de85def-13fe-454c-a86e-67c49fad86de","ios":"levelo://app?vid=9de85def-13fe-454c-a86e-67c49fad86de"},"vehicle_type_id":"4","last_reported":1691258820,"current_range_meters":26000,"station_id":"ce4bhch2rcd13ifvqeug","pricing_plan_id":"free"},{"bike_id":"0dd6cd48-c9ad-4924-b4ff-44d4aa4e5529","system_id":"levelo_inurba_marseille","lat":43.28613,"lon":5.35106,"is_reserved":false,"is_disabled":false,"rental_uris":{"android":"levelo://app?vid=0dd6cd48-c9ad-4924-b4ff-44d4aa4e5529","ios":"levelo://app?vid=0dd6cd48-c9ad-4924-b4ff-44d4aa4e5529"},"vehicle_type_id":"4","last_reported":1691258820,"current_range_meters":22000,"station_id":"ce4bhch2rcd13ifvqeug","pricing_plan_id":"free"},{"bike_id":"826d63ed-c8ce-4dd0-9b0c-a95beffb957c","system_id":"levelo_inurba_marseille","lat":43.28613,"lon":5.35106,"is_reserved":false,"is_disabled":false,"rental_uris":{"android":"levelo://app?vid=826d63ed-c8ce-4dd0-9b0c-a95beffb957c","ios":"levelo://app?vid=826d63ed-c8ce-4dd0-9b0c-a95beffb957c"},"vehicle_type_id":"4","last_reported":1691258820,"current_range_meters":12800,"station_id":"ce4bhch2rcd13ifvqeug","pricing_plan_id":"free"},{"bike_id":"e431f523-df62-41e2-bd37-dfc917fd59a0","system_id":"levelo_inurba_marseille","lat":43.285856,"lon":5.350771,"is_reserved":false,"is_disabled":false,"rental_uris":{"android":"levelo://app?vid=e431f523-df62-41e2-bd37-dfc917fd59a0","ios":"levelo://app?vid=e431f523-df62-41e2-bd37-dfc917fd59a0"},"vehicle_type_id":"4","last_reported":1691258820,"current_range_meters":22000,"station_id":"ce4bhch2rcd13ifvqeug","pricing_plan_id":"free"},{"bike_id":"412d174b-a4d5-40e9-ba46-328d886d7d1e","system_id":"levelo_inurba_marseille","lat":43.286125,"lon":5.351064,"is_reserved":false,"is_disabled":false,"rental_uris":{"android":"levelo://app?vid=412d174b-a4d5-40e9-ba46-328d886d7d1e","ios":"levelo://app?vid=412d174b-a4d5-40e9-ba46-328d886d7d1e"},"vehicle_type_id":"4","last_reported":1691258820,"current_range_meters":31200,"station_id":"ce4bhch2rcd13ifvqeug","pricing_plan_id":"free"},{"bike_id":"f162fc97-e5ad-4213-bf2d-00f486fc23a4","system_id":"levelo_inurba_marseille","lat":43.286133,"lon":5.35103,"is_reserved":false,"is_disabled":false,"rental_uris":{"android":"levelo://app?vid=f162fc97-e5ad-4213-bf2d-00f486fc23a4","ios":"levelo://app?vid=f162fc97-e5ad-4213-bf2d-00f486fc23a4"},"vehicle_type_id":"4","last_reported":1691258820,"current_range_meters":24800,"station_id":"ce4bhch2rcd13ifvqeug","pricing_plan_id":"free"},{"bike_id":"c6076a00-007e-445d-a238-41d464260c23","system_id":"levelo_inurba_marseille","lat":43.28614,"lon":5.35099,"is_reserved":false,"is_disabled":false,"rental_uris":{"android":"levelo://app?vid=c6076a00-007e-445d-a238-41d464260c23","ios":"levelo://app?vid=c6076a00-007e-445d-a238-41d464260c23"},"vehicle_type_id":"4","last_reported":1691258820,"current_range_meters":17200,"station_id":"ce4bhch2rcd13ifvqeug","pricing_plan_id":"free"},{"bike_id":"bbd13f55-12c2-40b4-90d3-ce7dc7beb321","system_id":"levelo_inurba_marseille","lat":43.285856,"lon":5.350771,"is_reserved":false,"is_disabled":false,"rental_uris":{"android":"levelo://app?vid=bbd13f55-12c2-40b4-90d3-ce7dc7beb321","ios":"levelo://app?vid=bbd13f55-12c2-40b4-90d3-ce7dc7beb321"},"vehicle_type_id":"4","last_reported":1691258820,"current_range_meters":28800,"station_id":"ce4bhch2rcd13ifvqeug","pricing_plan_id":"free"},{"bike_id":"095911da-4ce8-4e6d-bdba-81c7247c01a4","system_id":"levelo_inurba_marseille","lat":43.286111,"lon":5.350981,"is_reserved":false,"is_disabled":false,"rental_uris":{"android":"levelo://app?vid=095911da-4ce8-4e6d-bdba-81c7247c01a4","ios":"levelo://app?vid=095911da-4ce8-4e6d-bdba-81c7247c01a4"},"vehicle_type_id":"4","last_reported":1691258820,"current_range_meters":24400,"station_id":"ce4bhch2rcd13ifvqeug","pricing_plan_id":"free"},{"bike_id":"a2989afd-34dc-47c7-8e05-80d48dccf8c6","system_id":"levelo_inurba_marseille","lat":43.283998,"lon":5.375062,"is_reserved":false,"is_disabled":false,"rental_uris":{"android":"levelo://app?vid=a2989afd-34dc-47c7-8e05-80d48dccf8c6","ios":"levelo://app?vid=a2989afd-34dc-47c7-8e05-80d48dccf8c6"},"vehicle_type_id":"4","last_reported":1691258820,"current_range_meters":16000,"station_id":"ce4bh412rcd13ifvqds0","pricing_plan_id":"free"},{"bike_id":"75ae4b47-97a2-4652-994d-398c5d7e8606","system_id":"levelo_inurba_marseille","lat":43.283998,"lon":5.375062,"is_reserved":false,"is_disabled":false,"rental_uris":{"android":"levelo://app?vid=75ae4b47-97a2-4652-994d-398c5d7e8606","ios":"levelo://app?vid=75ae4b47-97a2-4652-994d-398c5d7e8606"},"vehicle_type_id":"4","last_reported":1691258820,"current_range_meters":14000,"station_id":"ce4bh412rcd13ifvqds0","pricing_plan_id":"free"},{"bike_id":"2ea6657b-88e0-4490-82c9-09eb5391100d","system_id":"levelo_inurba_marseille","lat":43.283998,"lon":5.375062,"is_reserved":false,"is_disabled":false,"rental_uris":{"android":"levelo://app?vid=2ea6657b-88e0-4490-82c9-09eb5391100d","ios":"levelo://app?vid=2ea6657b-88e0-4490-82c9-09eb5391100d"},"vehicle_type_id":"4","last_reported":1691258820,"current_range_meters":11600,"station_id":"ce4bh412rcd13ifvqds0","pricing_plan_id":"free"},{"bike_id":"a6f4820d-3db5-4db7-aeeb-d5b92fece3fa","system_id":"levelo_inurba_marseille","lat":43.28407,"lon":5.3751,"is_reserved":false,"is_disabled":false,"rental_uris":{"android":"levelo://app?vid=a6f4820d-3db5-4db7-aeeb-d5b92fece3fa","ios":"levelo://app?vid=a6f4820d-3db5-4db7-aeeb-d5b92fece3fa"},"vehicle_type_id":"4","last_reported":1691258820,"current_range_meters":21600,"station_id":"ce4bh412rcd13ifvqds0","pricing_plan_id":"free"},{"bike_id":"6329e75b-cf24-4364-9412-98785e55fa7b","system_id":"levelo_inurba_marseille","lat":43.286595,"lon":5.386795,"is_reserved":false,"is_disabled":false,"rental_uris":{"android":"levelo://app?vid=6329e75b-cf24-4364-9412-98785e55fa7b","ios":"levelo://app?vid=6329e75b-cf24-4364-9412-98785e55fa7b"},"vehicle_type_id":"4","last_reported":1691258820,"current_range_meters":6400,"station_id":"ce4bh492rcd13ifvqdug","pricing_plan_id":"free"},{"bike_id":"914fd451-35b2-4c6c-9d31-cf13ecf2c058","system_id":"levelo_inurba_marseille","lat":43.286595,"lon":5.386795,"is_reserved":false,"is_disabled":false,"rental_uris":{"android":"levelo://app?vid=914fd451-35b2-4c6c-9d31-cf13ecf2c058","ios":"levelo://app?vid=914fd451-35b2-4c6c-9d31-cf13ecf2c058"},"vehicle_type_id":"4","last_reported":1691258820,"current_range_meters":13200,"station_id":"ce4bh492rcd13ifvqdug","pricing_plan_id":"free"},{"bike_id":"67cc63cf-039c-438b-952e-f8adc1554672","system_id":"levelo_inurba_marseille","lat":43.286595,"lon":5.386795,"is_reserved":false,"is_disabled":false,"rental_uris":{"android":"levelo://app?vid=67cc63cf-039c-438b-952e-f8adc1554672","ios":"levelo://app?vid=67cc63cf-039c-438b-952e-f8adc1554672"},"vehicle_type_id":"4","last_reported":1691258820,"current_range_meters":8000,"station_id":"ce4bh492rcd13ifvqdug","pricing_plan_id":"free"},{"bike_id":"d6a3d6f8-fdfe-4028-9cce-8f0c32f49662","system_id":"levelo_inurba_marseille","lat":43.286595,"lon":5.386795,"is_reserved":false,"is_disabled":false,"rental_uris":{"android":"levelo://app?vid=d6a3d6f8-fdfe-4028-9cce-8f0c32f49662","ios":"levelo://app?vid=d6a3d6f8-fdfe-4028-9cce-8f0c32f49662"},"vehicle_type_id":"4","last_reported":1691258820,"current_range_meters":3200,"station_id":"ce4bh492rcd13ifvqdug","pricing_plan_id":"free"},{"bike_id":"767473cc-43f4-40ee-b843-9139feb42934","system_id":"levelo_inurba_marseille","lat":43.286595,"lon":5.386795,"is_reserved":false,"is_disabled":false,"rental_uris":{"android":"levelo://app?vid=767473cc-43f4-40ee-b843-9139feb42934","ios":"levelo://app?vid=767473cc-43f4-40ee-b843-9139feb42934"},"vehicle_type_id":"4","last_reported":1691258820,"current_range_meters":20800,"station_id":"ce4bh492rcd13ifvqdug","pricing_plan_id":"free"},{"bike_id":"7bef9b59-7c70-40ed-a6d7-b8b122968b4e","system_id":"levelo_inurba_marseille","lat":43.286595,"lon":5.386795,"is_reserved":false,"is_disabled":false,"rental_uris":{"android":"levelo://app?vid=7bef9b59-7c70-40ed-a6d7-b8b122968b4e","ios":"levelo://app?vid=7bef9b59-7c70-40ed-a6d7-b8b122968b4e"},"vehicle_type_id":"4","last_reported":1691258820,"current_range_meters":12800,"station_id":"ce4bh492rcd13ifvqdug","pricing_plan_id":"free"},{"bike_id":"b18923a1-deeb-42ec-969b-a47b0e158bbe","system_id":"levelo_inurba_marseille","lat":43.286595,"lon":5.386795,"is_reserved":false,"is_disabled":false,"rental_uris":{"android":"levelo://app?vid=b18923a1-deeb-42ec-969b-a47b0e158bbe","ios":"levelo://app?vid=b18923a1-deeb-42ec-969b-a47b0e158bbe"},"vehicle_type_id":"4","last_reported":1691258820,"current_range_meters":13200,"station_id":"ce4bh492rcd13ifvqdug","pricing_plan_id":"free"},{"bike_id":"e830b6a2-f8fe-49f7-a153-fb8eb46562ec","system_id":"levelo_inurba_marseille","lat":43.286595,"lon":5.386795,"is_reserved":false,"is_disabled":false,"rental_uris":{"android":"levelo://app?vid=e830b6a2-f8fe-49f7-a153-fb8eb46562ec","ios":"levelo://app?vid=e830b6a2-f8fe-49f7-a153-fb8eb46562ec"},"vehicle_type_id":"4","last_reported":1691258820,"current_range_meters":18400,"station_id":"ce4bh492rcd13ifvqdug","pricing_plan_id":"free"},{"bike_id":"8a68b422-727e-4822-aaae-cc830c57c7e3","system_id":"levelo_inurba_marseille","lat":43.319179,"lon":5.407725,"is_reserved":false,"is_disabled":false,"rental_uris":{"android":"levelo://app?vid=8a68b422-727e-4822-aaae-cc830c57c7e3","ios":"levelo://app?vid=8a68b422-727e-4822-aaae-cc830c57c7e3"},"vehicle_type_id":"4","last_reported":1691258820,"current_range_meters":11600,"station_id":"ce4bhq12rcd13ifvqhig","pricing_plan_id":"free"},{"bike_id":"c59f30af-b7c9-4762-b544-56156d6a8a97","system_id":"levelo_inurba_marseille","lat":43.33719,"lon":5.39174,"is_reserved":false,"is_disabled":false,"rental_uris":{"android":"levelo://app?vid=c59f30af-b7c9-4762-b544-56156d6a8a97","ios":"levelo://app?vid=c59f30af-b7c9-4762-b544-56156d6a8a97"},"vehicle_type_id":"4","last_reported":1691258820,"current_range_meters":16000,"station_id":"ce4bhr92rcd13ifvqhsg","pricing_plan_id":"free"},{"bike_id":"9ed5c8cd-5716-467d-9a0b-e5002dcb5a2c","system_id":"levelo_inurba_marseille","lat":43.33716,"lon":5.39183,"is_reserved":false,"is_disabled":false,"rental_uris":{"android":"levelo://app?vid=9ed5c8cd-5716-467d-9a0b-e5002dcb5a2c","ios":"levelo://app?vid=9ed5c8cd-5716-467d-9a0b-e5002dcb5a2c"},"vehicle_type_id":"4","last_reported":1691258820,"current_range_meters":24800,"station_id":"ce4bhr92rcd13ifvqhsg","pricing_plan_id":"free"},{"bike_id":"df82d2f9-f688-4670-ac84-3e543122cedb","system_id":"levelo_inurba_marseille","lat":43.33718,"lon":5.3918,"is_reserved":false,"is_disabled":false,"rental_uris":{"android":"levelo://app?vid=df82d2f9-f688-4670-ac84-3e543122cedb","ios":"levelo://app?vid=df82d2f9-f688-4670-ac84-3e543122cedb"},"vehicle_type_id":"4","last_reported":1691258820,"current_range_meters":27600,"station_id":"ce4bhr92rcd13ifvqhsg","pricing_plan_id":"free"},{"bike_id":"3e563380-a985-451c-801d-2783d7714294","system_id":"levelo_inurba_marseille","lat":43.33723,"lon":5.39172,"is_reserved":false,"is_disabled":false,"rental_uris":{"android":"levelo://app?vid=3e563380-a985-451c-801d-2783d7714294","ios":"levelo://app?vid=3e563380-a985-451c-801d-2783d7714294"},"vehicle_type_id":"4","last_reported":1691258820,"current_range_meters":30400,"station_id":"ce4bhr92rcd13ifvqhsg","pricing_plan_id":"free"},{"bike_id":"939edbe6-adcc-4f97-ad69-99748df4073d","system_id":"levelo_inurba_marseille","lat":43.33719,"lon":5.39182,"is_reserved":false,"is_disabled":false,"rental_uris":{"android":"levelo://app?vid=939edbe6-adcc-4f97-ad69-99748df4073d","ios":"levelo://app?vid=939edbe6-adcc-4f97-ad69-99748df4073d"},"vehicle_type_id":"4","last_reported":1691258820,"current_range_meters":19600,"station_id":"ce4bhr92rcd13ifvqhsg","pricing_plan_id":"free"},