{"last_updated":1702815109,"ttl":30,"version":"2.2","data":{"bikes":[{"bike_id":"4e69901f-a731-47ea-a03b-42b9a548cee2","system_id":"levelo_inurba_marseille","lat":43.309076,"lon":5.368465,"is_reserved":false,"is_disabled":false,"rental_uris":{"android":"levelo://app?vid=4e69901f-a731-47ea-a03b-42b9a548cee2","ios":"levelo://app?vid=4e69901f-a731-47ea-a03b-42b9a548cee2"},"vehicle_type_id":"4","last_reported":1702815109,"current_range_meters":24000,"station_id":"ce4bgn92rcd13ifvqbvg","pricing_plan_id":"free"},{"bike_id":"7b0cc67b-8515-42ee-a954-0a2fb7cb29ca","system_id":"levelo_inurba_marseille","lat":43.30887,"lon":5.372085,"is_reserved":false,"is_disabled":false,"rental_uris":{"android":"levelo://app?vid=7b0cc67b-8515-42ee-a954-0a2fb7cb29ca","ios":"levelo://app?vid=7b0cc67b-8515-42ee-a954-0a2fb7cb29ca"},"vehicle_type_id":"4","last_reported":1702815109,"current_range_meters":26800,"station_id":"ce4bguh2rcd13ifvqckg","pricing_plan_id":"free"},{"bike_id":"3f8b821f-e430-4a35-bf14-f8b6e777ea11","system_id":"levelo_inurba_marseille","lat":43.313939,"lon":5.375306,"is_reserved":false,"is_disabled":false,"rental_uris":{"android":"levelo://app?vid=3f8b821f-e430-4a35-bf14-f8b6e777ea11","ios":"levelo://app?vid=3f8b821f-e430-4a35-bf14-f8b6e777ea11"},"vehicle_type_id":"4","last_reported":1702815109,"current_range_meters":0,"station_id":"","pricing_plan_id":"free"},{"bike_id":"ffb8790a-d413-4f06-a96d-1e2f6ffe7daa","system_id":"levelo_inurba_marseille","lat":43.30538,"lon":5.36702,"is_reserved":false,"is_disabled":false,"rental_uris":{"android":"levelo://app?vid=ffb8790a-d413-4f06-a96d-1e2f6ffe7daa","ios":"levelo://app?vid=ffb8790a-d413-4f06-a96d-1e2f6ffe7daa"},"vehicle_type_id":"4","last_reported":1702815109,"current_range_meters":24400,"station_id":"ce4bgrp2rcd13ifvqc9g","pricing_plan_id":"free"},{"bike_id":"8de64512-3cc1-4bf5-85f5-cfe595ba708d","system_id":"levelo_inurba_marseille","lat":43.305714,"lon":5.365633,"is_reserved":false,"is_disabled":false,"rental_uris":{"android":"levelo://app?vid=8de64512-3cc1-4bf5-85f5-cfe595ba708d","ios":"levelo://app?vid=8de64512-3cc1-4bf5-85f5-cfe595ba708d"},"vehicle_type_id":"4","last_reported":1702815109,"current_range_meters":23200,"station_id":"ce4bgs12rcd13ifvqcag","pricing_plan_id":"free"},{"bike_id":"e7715dbc-ad54-4c11-a25f-b999e23b2f67","system_id":"levelo_inurba_marseille","lat":43.30543,"lon":5.36528,"is_reserved":false,"is_disabled":false,"rental_uris":{"android":"levelo://app?vid=e7715dbc-ad54-4c11-a25f-b999e23b2f67","ios":"levelo://app?vid=e7715dbc-ad54-4c11-a25f-b999e23b2f67"},"vehicle_type_id":"4","last_reported":1702815109,"current_range_meters":19200,"station_id":"ce4bgs12rcd13ifvqcag","pricing_plan_id":"free"},{"bike_id":"955e4ab2-16e5-44e8-a986-a2f50ff96c06","system_id":"levelo_inurba_marseille","lat":43.305382,"lon":5.365389,"is_reserved":false,"is_disabled":false,"rental_uris":{"android":"levelo://app?vid=955e4ab2-16e5-44e8-a986-a2f50ff96c06","ios":"levelo://app?vid=955e4ab2-16e5-44e8-a986-a2f50ff96c06"},"vehicle_type_id":"4","last_reported":1702815109,"current_range_meters":12000,"station_id":"","pricing_plan_id":"free"},{"bike_id":"996422e0-0f4f-4a95-8168-28282f942783","system_id":"levelo_inurba_marseille","lat":43.305706,"lon":5.365654,"is_reserved":false,"is_disabled":false,"rental_uris":{"android":"levelo://app?vid=996422e0-0f4f-4a95-8168-28282f942783","ios":"levelo://app?vid=996422e0-0f4f-4a95-8168-28282f942783"},"vehicle_type_id":"4","last_reported":1702815109,"current_range_meters":24000,"station_id":"ce4bgs12rcd13ifvqcag","pricing_plan_id":"free"},{"bike_id":"cb4cdf7b-b769-4b4a-a27e-ebc98df89b07","system_id":"levelo_inurba_marseille","lat":43.305989,"lon":5.37225,"is_reserved":false,"is_disabled":false,"rental_uris":{"android":"levelo://app?vid=cb4cdf7b-b769-4b4a-a27e-ebc98df89b07","ios":"levelo://app?vid=cb4cdf7b-b769-4b4a-a27e-ebc98df89b07"},"vehicle_type_id":"4","last_reported":1702815109,"current_range_meters":29200,"station_id":"ce4bgqh2rcd13ifvqc4g","pricing_plan_id":"free"},{"bike_id":"76be4ff7-b1ed-4443-b995-f8efb3e46e13","system_id":"levelo_inurba_marseille","lat":43.305989,"lon":5.37225,"is_reserved":false,"is_disabled":false,"rental_uris":{"android":"levelo://app?vid=76be4ff7-b1ed-4443-b995-f8efb3e46e13","ios":"levelo://app?vid=76be4ff7-b1ed-4443-b995-f8efb3e46e13"},"vehicle_type_id":"4","last_reported":1702815109,"current_range_meters":21200,"station_id":"ce4bgqh2rcd13ifvqc4g","pricing_plan_id":"free"},{"bike_id":"1656dc4c-a354-447c-ac95-67d395d09313","system_id":"levelo_inurba_marseille","lat":43.305989,"lon":5.37225,"is_reserved":false,"is_disabled":false,"rental_uris":{"android":"levelo://app?vid=1656dc4c-a354-447c-ac95-67d395d09313","ios":"levelo://app?vid=1656dc4c-a354-447c-ac95-67d395d09313"},"vehicle_type_id":"4","last_reported":1702815109,"current_range_meters":31200,"station_id":"ce4bgqh2rcd13ifvqc4g","pricing_plan_id":"free"},{"bike_id":"5e242f92-0b5b-4e05-81ec-75f146b168b3","system_id":"levelo_inurba_marseille","lat":43.305989,"lon":5.37225,"is_reserved":false,"is_disabled":false,"rental_uris":{"android":"levelo://app?vid=5e242f92-0b5b-4e05-81ec-75f146b168b3","ios":"levelo://app?vid=5e242f92-0b5b-4e05-81ec-75f146b168b3"},"vehicle_type_id":"4","last_reported":1702815109,"current_range_meters":31200,"station_id":"ce4bgqh2rcd13ifvqc4g","pricing_plan_id":"free"},{"bike_id":"f99a5682-f4d1-4eb2-a6ef-0f843eb882d2","system_id":"levelo_inurba_marseille","lat":43.305989,"lon":5.37225,"is_reserved":false,"is_disabled":false,"rental_uris":{"android":"levelo://app?vid=f99a5682-f4d1-4eb2-a6ef-0f843eb882d2","ios":"levelo://app?vid=f99a5682-f4d1-4eb2-a6ef-0f843eb882d2"},"vehicle_type_id":"4","last_reported":1702815109,"current_range_meters":28800,"station_id":"ce4bgqh2rcd13ifvqc4g","pricing_plan_id":"free"},{"bike_id":"6275422a-192a-4a59-b916-50882b789a5d","system_id":"levelo_inurba_marseille","lat":43.305989,"lon":5.37225,"is_reserved":false,"is_disabled":false,"rental_uris":{"android":"levelo://app?vid=6275422a-192a-4a59-b916-50882b789a5d","ios":"levelo://app?vid=6275422a-192a-4a59-b916-50882b789a5d"},"vehicle_type_id":"4","last_reported":1702815109,"current_range_meters":30400,"station_id":"ce4bgqh2rcd13ifvqc4g","pricing_plan_id":"free"},{"bike_id":"387d7128-0aa3-468d-bf5b-c5c6918ad224","system_id":"levelo_inurba_marseille","lat":43.305989,"lon":5.37225,"is_reserved":false,"is_disabled":false,"rental_uris":{"android":"levelo://app?vid=387d7128-0aa3-468d-bf5b-c5c6918ad224","ios":"levelo://app?vid=387d7128-0aa3-468d-bf5b-c5c6918ad224"},"vehicle_type_id":"4","last_reported":1702815109,"current_range_meters":31600,"station_id":"ce4bgqh2rcd13ifvqc4g","pricing_plan_id":"free"},{"bike_id":"39792ce2-7666-4967-9bd5-7b6f45843fe3","system_id":"levelo_inurba_marseille","lat":43.308012,"lon":5.381511,"is_reserved":false,"is_disabled":false,"rental_uris":{"android":"levelo://app?vid=39792ce2-7666-4967-9bd5-7b6f45843fe3","ios":"levelo://app?vid=39792ce2-7666-4967-9bd5-7b6f45843fe3"},"vehicle_type_id":"4","last_reported":1702815109,"current_range_meters":9200,"station_id":"ce4bgt12rcd13ifvqce0","pricing_plan_id":"free"},{"bike_id":"88f7ea2a-62f7-4a88-9e9d-900940b4d7e5","system_id":"levelo_inurba_marseille","lat":43.324771,"lon":5.36557,"is_reserved":false,"is_disabled":false,"rental_uris":{"android":"levelo://app?vid=88f7ea2a-62f7-4a88-9e9d-900940b4d7e5","ios":"levelo://app?vid=88f7ea2a-62f7-4a88-9e9d-900940b4d7e5"},"vehicle_type_id":"4","last_reported":1702815109,"current_range_meters":29200,"station_id":"ce4bhs12rcd13ifvqhvg","pricing_plan_id":"free"},{"bike_id":"cb269842-24eb-4ae3-ba6d-e7992618c7d9","system_id":"levelo_inurba_marseille","lat":43.30143,"lon":5.37413,"is_reserved":false,"is_disabled":false,"rental_uris":{"android":"levelo://app?vid=cb269842-24eb-4ae3-ba6d-e7992618c7d9","ios":"levelo://app?vid=cb269842-24eb-4ae3-ba6d-e7992618c7d9"},"vehicle_type_id":"4","last_reported":1702815109,"current_range_meters":8800,"station_id":"ce4bgs92rcd13ifvqcc0","pricing_plan_id":"free"},{"bike_id":"dd62cb3a-3f08-44cf-8561-0c89ff17ac35","system_id":"levelo_inurba_marseille","lat":43.313555,"lon":5.384709,"is_reserved":false,"is_disabled":false,"rental_uris":{"android":"levelo://app?vid=dd62cb3a-3f08-44cf-8561-0c89ff17ac35","ios":"levelo://app?vid=dd62cb3a-3f08-44cf-8561-0c89ff17ac35"},"vehicle_type_id":"4","last_reported":1702815109,"current_range_meters":17200,"station_id":"ce4bgt92rcd13ifvqcf0","pricing_plan_id":"free"},{"bike_id":"f6b39348-9601-48ed-8fde-9a57ad4b1f75","system_id":"levelo_inurba_marseille","lat":43.298433,"lon":5.362774,"is_reserved":false,"is_disabled":false,"rental_uris":{"android":"levelo://app?vid=f6b39348-9601-48ed-8fde-9a57ad4b1f75","ios":"levelo://app?vid=f6b39348-9601-48ed-8fde-9a57ad4b1f75"},"vehicle_type_id":"4","last_reported":1702815109,"current_range_meters":28800,"station_id":"ce4bgpp2rcd13ifvqc3g","pricing_plan_id":"free"},{"bike_id":"c4e77394-aef9-4077-b745-e99148625344","system_id":"levelo_inurba_marseille","lat":43.32733,"lon":5.36707,"is_reserved":false,"is_disabled":false,"rental_uris":{"android":"levelo://app?vid=c4e77394-aef9-4077-b745-e99148625344","ios":"levelo://app?vid=c4e77394-aef9-4077-b745-e99148625344"},"vehicle_type_id":"4","last_reported":1702815109,"current_range_meters":19200,"station_id":"","pricing_plan_id":"free"},{"bike_id":"819cb438-2e9c-4e0b-902b-5e19ef554d5c","system_id":"levelo_inurba_marseille","lat":43.305514,"lon":5.384359,"is_reserved":false,"is_disabled":false,"rental_uris":{"android":"levelo://app?vid=819cb438-2e9c-4e0b-902b-5e19ef554d5c","ios":"levelo://app?vid=819cb438-2e9c-4e0b-902b-5e19ef554d5c"},"vehicle_type_id":"4","last_reported":1702815109,"current_range_meters":12000,"station_id":"ce4bgg92rcd13ifvqb30","pricing_plan_id":"free"},{"bike_id":"6697af12-3dc7-409f-a68a-e6a1e422eaf3","system_id":"levelo_inurba_marseille","lat":43.298433,"lon":5.362774,"is_reserved":false,"is_disabled":false,"rental_uris":{"android":"levelo://app?vid=6697af12-3dc7-409f-a68a-e6a1e422eaf3","ios":"levelo://app?vid=6697af12-3dc7-409f-a68a-e6a1e422eaf3"},"vehicle_type_id":"4","last_reported":1702815109,"current_range_meters":10000,"station_id":"ce4bgpp2rcd13ifvqc3g","pricing_plan_id":"free"},{"bike_id":"db735cc7-3077-479c-83dd-9057c1e0ae64","system_id":"levelo_inurba_marseille","lat":43.298433,"lon":5.362774,"is_reserved":false,"is_disabled":false,"rental_uris":{"android":"levelo://app?vid=db735cc7-3077-479c-83dd-9057c1e0ae64","ios":"levelo://app?vid=db735cc7-3077-479c-83dd-9057c1e0ae64"},"vehicle_type_id":"4","last_reported":1702815109,"current_range_meters":27200,"station_id":"ce4bgpp2rcd13ifvqc3g","pricing_plan_id":"free"},{"bike_id":"6132e363-6fc3-45e3-87bf-fc40337a0436","system_id":"levelo_inurba_marseille","lat":43.322872,"lon":5.382756,"is_reserved":false,"is_disabled":false,"rental_uris":{"android":"levelo://app?vid=6132e363-6fc3-45e3-87bf-fc40337a0436","ios":"levelo://app?vid=6132e363-6fc3-45e3-87bf-fc40337a0436"},"vehicle_type_id":"4","last_reported":1702815109,"current_range_meters":29200,"station_id":"ce4bhr12rcd13ifvqhqg","pricing_plan_id":"free"},{"bike_id":"d552ebbe-3535-4233-b783-27841fdde344","system_id":"levelo_inurba_marseille","lat":43.32823,"lon":5.3667,"is_reserved":false,"is_disabled":false,"rental_uris":{"android":"levelo://app?vid=d552ebbe-3535-4233-b783-27841fdde344","ios":"levelo://app?vid=d552ebbe-3535-4233-b783-27841fdde344"},"vehicle_type_id":"4","last_reported":1702815109,"current_range_meters":30800,"station_id":"ce4bhs92rcd13ifvqi0g","pricing_plan_id":"free"},{"bike_id":"257e2c60-5deb-4d9a-9e2e-c2fc09067537","system_id":"levelo_inurba_marseille","lat":43.328284,"lon":5.366816,"is_reserved":false,"is_disabled":false,"rental_uris":{"android":"levelo://app?vid=257e2c60-5deb-4d9a-9e2e-c2fc09067537","ios":"levelo://app?vid=257e2c60-5deb-4d9a-9e2e-c2fc09067537"},"vehicle_type_id":"4","last_reported":1702815109,"current_range_meters":14800,"station_id":"ce4bhs92rcd13ifvqi0g","pricing_plan_id":"free"},{"bike_id":"f1491da4-2f54-4445-8640-37b7b5e9b0bd","system_id":"levelo_inurba_marseille","lat":43.32829,"lon":5.36676,"is_reserved":false,"is_disabled":false,"rental_uris":{"android":"levelo://app?vid=f1491da4-2f54-4445-8640-37b7b5e9b0bd","ios":"levelo://app?vid=f1491da4-2f54-4445-8640-37b7b5e9b0bd"},"vehicle_type_id":"4","last_reported":1702815109,"current_range_meters":30000,"station_id":"ce4bhs92rcd13ifvqi0g","pricing_plan_id":"free"},{"bike_id":"c2e8db70-2991-4692-ab34-0f4bdf5e108e","system_id":"levelo_inurba_marseille","lat":43.32833,"lon":5.36677,"is_reserved":false,"is_disabled":false,"rental_uris":{"android":"levelo://app?vid=c2e8db70-2991-4692-ab34-0f4bdf5e108e","ios":"levelo://app?vid=c2e8db70-2991-4692-ab34-0f4bdf5e108e"},"vehicle_type_id":"4","last_reported":1702815109,"current_range_meters":23600,"station_id":"ce4bhs92rcd13ifvqi0g","pricing_plan_id":"free"},{"bike_id":"e6338912-842e-4062-8f0a-b42e3ff31b4e","system_id":"levelo_inurba_marseille","lat":43.297163,"lon":5.365866,"is_reserved":false,"is_disabled":false,"rental_uris":{"android":"levelo://app?vid=e6338912-842e-4062-8f0a-b42e3ff31b4e","ios":"levelo://app?vid=e6338912-842e-4062-8f0a-b42e3ff31b4e"},"vehicle_type_id":"4","last_reported":1702815109,"current_range_meters":30000,"station_id":"ce4bgn12rcd13ifvqbt0","pricing_plan_id":"free"},{"bike_id":"39864b99-f0a4-4ccf-863a-accda0fd7f1f","system_id":"levelo_inurba_marseille","lat":43.299028,"lon":5.381509,"is_reserved":false,"is_disabled":false,"rental_uris":{"android":"levelo://app?vid=39864b99-f0a4-4ccf-863a-accda0fd7f1f","ios":"levelo://app?vid=39864b99-f0a4-4ccf-863a-accda0fd7f1f"},"vehicle_type_id":"4","last_reported":1702815109,"current_range_meters":5600,"station_id":"ce4bgj12rcd13ifvqbc0","pricing_plan_id":"free"},{"bike_id":"099d9bf9-53d0-4c60-9a56-ab31c639fe88","system_id":"levelo_inurba_marseille","lat":43.299028,"lon":5.381509,"is_reserved":false,"is_disabled":false,"rental_uris":{"android":"levelo://app?vid=099d9bf9-53d0-4c60-9a56-ab31c639fe88","ios":"levelo://app?vid=099d9bf9-53d0-4c60-9a56-ab31c639fe88"},"vehicle_type_id":"4","last_reported":1702815109,"current_range_meters":14800,"station_id":"ce4bgj12rcd13ifvqbc0","pricing_plan_id":"free"},{"bike_id":"0161c95f-fb1e-429a-b69a-dd30feb26713","system_id":"levelo_inurba_marseille","lat":43.299028,"lon":5.381509,"is_reserved":false,"is_disabled":false,"rental_uris":{"android":"levelo://app?vid=0161c95f-fb1e-429a-b69a-dd30feb26713","ios":"levelo://app?vid=0161c95f-fb1e-429a-b69a-dd30feb26713"},"vehicle_type_id":"4","last_reported":1702815109,"current_range_meters":0,"station_id":"ce4bgj12rcd13ifvqbc0","pricing_plan_id":"free"},{"bike_id":"2e4327a4-5c68-42c9-a75e-2a5f9b2ba77b","system_id":"levelo_inurba_marseille","lat":43.317557,"lon":5.390173,"is_reserved":false,"is_disabled":false,"rental_uris":{"android":"levelo://app?vid=2e4327a4-5c68-42c9-a75e-2a5f9b2ba77b","ios":"levelo://app?vid=2e4327a4-5c68-42c9-a75e-2a5f9b2ba77b"},"vehicle_type_id":"4","last_reported":1702815109,"current_range_meters":31200,"station_id":"ce4bhqp2rcd13ifvqhng","pricing_plan_id":"free"},{"bike_id":"668278d5-fd65-4d95-8d32-ef2280501078","system_id":"levelo_inurba_marseille","lat":43.317557,"lon":5.390173,"is_reserved":false,"is_disabled":false,"rental_uris":{"android":"levelo://app?vid=668278d5-fd65-4d95-8d32-ef2280501078","ios":"levelo://app?vid=668278d5-fd65-4d95-8d32-ef2280501078"},"vehicle_type_id":"4","last_reported":1702815109,"current_range_meters":30800,"station_id":"ce4bhqp2rcd13ifvqhng","pricing_plan_id":"free"},{"bike_id":"1757c6e9-202e-4c0b-be8e-95d0eab8273c","system_id":"levelo_inurba_marseille","lat":43.304274,"lon":5.388873,"is_reserved":false,"is_disabled":false,"rental_uris":{"android":"levelo://app?vid=1757c6e9-202e-4c0b-be8e-95d0eab8273c","ios":"levelo://app?vid=1757c6e9-202e-4c0b-be8e-95d0eab8273c"},"vehicle_type_id":"4","last_reported":1702815109,"current_range_meters":4400,"station_id":"ce4bgk12rcd13ifvqbi0","pricing_plan_id":"free"},{"bike_id":"f04764cb-66ae-4fb3-9def-669ceda25b08","system_id":"levelo_inurba_marseille","lat":43.304274,"lon":5.388873,"is_reserved":false,"is_disabled":false,"rental_uris":{"android":"levelo://app?vid=f04764cb-66ae-4fb3-9def-669ceda25b08","ios":"levelo://app?vid=f04764cb-66ae-4fb3-9def-669ceda25b08"},"vehicle_type_id":"4","last_reported":1702815109,"current_range_meters":27200,"station_id":"ce4bgk12rcd13ifvqbi0","pricing_plan_id":"free"},{"bike_id":"da2bf830-8371-4987-8296-d78e324a9b5b","system_id":"levelo_inurba_marseille","lat":43.29654,"lon":5.37967,"is_reserved":false,"is_disabled":false,"rental_uris":{"android":"levelo://app?vid=da2bf830-8371-4987-8296-d78e324a9b5b","ios":"levelo://app?vid=da2bf830-8371-4987-8296-d78e324a9b5b"},"vehicle_type_id":"4","last_reported":1702815109,"current_range_meters":400,"station_id":"","pricing_plan_id":"free"},{"bike_id":"7ff21894-2f32-4658-85e2-91c4f4d495d4","system_id":"levelo_inurba_marseille","lat":43.32357,"lon":5.38884,"is_reserved":false,"is_disabled":false,"rental_uris":{"android":"levelo://app?vid=7ff21894-2f32-4658-85e2-91c4f4d495d4","ios":"levelo://app?vid=7ff21894-2f32-4658-85e2-91c4f4d495d4"},"vehicle_type_id":"4","last_reported":1702815109,"current_range_meters":31200,"station_id":"ce4bhqp2rcd13ifvqhog","pricing_plan_id":"free"},{"bike_id":"2042f91b-e66e-46e6-884e-a4c43a3f662a","system_id":"levelo_inurba_marseille","lat":43.303002,"lon":5.392142,"is_reserved":false,"is_disabled":false,"rental_uris":{"android":"levelo://app?vid=2042f91b-e66e-46e6-884e-a4c43a3f662a","ios":"levelo://app?vid=2042f91b-e66e-46e6-884e-a4c43a3f662a"},"vehicle_type_id":"4","last_reported":1702815109,"current_range_meters":29200,"station_id":"ce4bgkh2rcd13ifvqbk0","pricing_plan_id":"free"},{"bike_id":"d9eb7424-822f-4ee5-8f81-fee9479658f6","system_id":"levelo_inurba_marseille","lat":43.2936,"lon":5.37835,"is_reserved":false,"is_disabled":false,"rental_uris":{"android":"levelo://app?vid=d9eb7424-822f-4ee5-8f81-fee9479658f6","ios":"levelo://app?vid=d9eb7424-822f-4ee5-8f81-fee9479658f6"},"vehicle_type_id":"4","last_reported":1702815109,"current_range_meters":14800,"station_id":"ce4bgjh2rcd13ifvqbf0","pricing_plan_id":"free"},{"bike_id":"593cb781-ae23-4383-bd6f-b562b9389d00","system_id":"levelo_inurba_marseille","lat":43.2936,"lon":5.37835,"is_reserved":false,"is_disabled":false,"rental_uris":{"android":"levelo://app?vid=593cb781-ae23-4383-bd6f-b562b9389d00","ios":"levelo://app?vid=593cb781-ae23-4383-bd6f-b562b9389d00"},"vehicle_type_id":"4","last_reported":1702815109,"current_range_meters":16800,"station_id":"ce4bgjh2rcd13ifvqbf0","pricing_plan_id":"free"},{"bike_id":"13a566a4-3661-4339-b322-a79241cb15a7","system_id":"levelo_inurba_marseille","lat":43.300852,"lon":5.390859,"is_reserved":false,"is_disabled":false,"rental_uris":{"android":"levelo://app?vid=13a566a4-3661-4339-b322-a79241cb15a7","ios":"levelo://app?vid=13a566a4-3661-4339-b322-a79241cb15a7"},"vehicle_type_id":"4","last_reported":1702815109,"current_range_meters":26000,"station_id":"ce4bh192rcd13ifvqdb0","pricing_plan_id":"free"},{"bike_id":"00015d78-d5c0-4c11-be6f-1e86775dcfd3","system_id":"levelo_inurba_marseille","lat":43.300852,"lon":5.390859,"is_reserved":false,"is_disabled":false,"rental_uris":{"android":"levelo://app?vid=00015d78-d5c0-4c11-be6f-1e86775dcfd3","ios":"levelo://app?vid=00015d78-d5c0-4c11-be6f-1e86775dcfd3"},"vehicle_type_id":"4","last_reported":1702815109,"current_range_meters":20800,"station_id":"ce4bh192rcd13ifvqdb0","pricing_plan_id":"free"},{"bike_id":"440eec67-7a67-4da0-9e74-a9258ed3f69d","system_id":"levelo_inurba_marseille","lat":43.30085,"lon":5.390856,"is_reserved":false,"is_disabled":false,"rental_uris":{"android":"levelo://app?vid=440eec67-7a67-4da0-9e74-a9258ed3f69d","ios":"levelo://app?vid=440eec67-7a67-4da0-9e74-a9258ed3f69d"},"vehicle_type_id":"4","last_reported":1702815109,"current_range_meters":7600,"station_id":"ce4bh192rcd13ifvqdb0","pricing_plan_id":"free"},{"bike_id":"b8bf904c-bbd4-4749-aa70-4c0f65dced37","system_id":"levelo_inurba_marseille","lat":43.29194,"lon":5.35803,"is_reserved":false,"is_disabled":false,"rental_uris":{"android":"levelo://app?vid=b8bf904c-bbd4-4749-aa70-4c0f65dced37","ios":"levelo://app?vid=b8bf904c-bbd4-4749-aa70-4c0f65dced37"},"vehicle_type_id":"4","last_reported":1702815109,"current_range_meters":21600,"station_id":"ce4bhb12rcd13ifvqel0","pricing_plan_id":"free"},{"bike_id":"0d880ae2-7bad-4917-9659-e72c2df59d08","system_id":"levelo_inurba_marseille","lat":43.309047,"lon":5.396551,"is_reserved":false,"is_disabled":false,"rental_uris":{"android":"levelo://app?vid=0d880ae2-7bad-4917-9659-e72c2df59d08","ios":"levelo://app?vid=0d880ae2-7bad-4917-9659-e72c2df59d08"},"vehicle_type_id":"4","last_reported":1702815109,"current_range_meters":22000,"station_id":"ce4bh012rcd13ifvqcv0","pricing_plan_id":"free"},{"bike_id":"b889d7ed-9d51-4eda-93ae-b2e45b8d07ca","system_id":"levelo_inurba_marseille","lat":43.29529,"lon":5.385581,"is_reserved":false,"is_disabled":false,"rental_uris":{"android":"levelo://app?vid=b889d7ed-9d51-4eda-93ae-b2e45b8d07ca","ios":"levelo://app?vid=b889d7ed-9d51-4eda-93ae-b2e45b8d07ca"},"vehicle_type_id":"4","last_reported":1702815109,"current_range_meters":21600,"station_id":"ce4bgih2rcd13ifvqba0","pricing_plan_id":"free"},{"bike_id":"54c8da24-1b77-4617-b698-7f88ac1b6d0f","system_id":"levelo_inurba_marseille","lat":43.302008,"lon":5.394694,"is_reserved":false,"is_disabled":false,"rental_uris":{"android":"levelo://app?vid=54c8da24-1b77-4617-b698-7f88ac1b6d0f","ios":"levelo://app?vid=54c8da24-1b77-4617-b698-7f88ac1b6d0f"},"vehicle_type_id":"4","last_reported":1702815109,"current_range_meters":30400,"station_id":"ce4bh0p2rcd13ifvqd70","pricing_plan_id":"free"},{"bike_id":"bb2ba52a-5be9-434f-b342-fa4023a410dd","system_id":"levelo_inurba_marseille","lat":43.290631,"lon":5.359244,"is_reserved":false,"is_disabled":false,"rental_uris":{"android":"levelo://app?vid=bb2ba52a-5be9-434f-b342-fa4023a410dd","ios":"levelo://app?vid=bb2ba52a-5be9-434f-b342-fa4023a410dd"},"vehicle_type_id":"4","last_reported":1702815109,"current_range_meters":18800,"station_id":"ce4bha92rcd13ifvqeg0","pricing_plan_id":"free"},{"bike_id":"256508d0-1746-43f1-9d18-cac6f94b026f","system_id":"levelo_inurba_marseille","lat":43.28946,"lon":5.36411,"is_reserved":false,"is_disabled":false,"rental_uris":{"android":"levelo://app?vid=256508d0-1746-43f1-9d18-cac6f94b026f","ios":"levelo://app?vid=256508d0-1746-43f1-9d18-cac6f94b026f"},"vehicle_type_id":"4","last_reported":1702815109,"current_range_meters":24000,"station_id":"ce4bhc92rcd13ifvqetg","pricing_plan_id":"free"},{"bike_id":"bb0e6179-e70e-4a55-8f2a-5678d159f6d5","system_id":"levelo_inurba_marseille","lat":43.292642,"lon":5.384254,"is_reserved":false,"is_disabled":false,"rental_uris":{"android":"levelo://app?vid=bb0e6179-e70e-4a55-8f2a-5678d159f6d5","ios":"levelo://app?vid=bb0e6179-e70e-4a55-8f2a-5678d159f6d5"},"vehicle_type_id":"4","last_reported":1702815109,"current_range_meters":30800,"station_id":"ce4bh692rcd13ifvqea0","pricing_plan_id":"free"},{"bike_id":"60100ea2-2819-4d44-a79a-6321ebe17905","system_id":"levelo_inurba_marseille","lat":43.290104,"lon":5.356111,"is_reserved":false,"is_disabled":false,"rental_uris":{"android":"levelo://app?vid=60100ea2-2819-4d44-a79a-6321ebe17905","ios":"levelo://app?vid=60100ea2-2819-4d44-a79a-6321ebe17905"},"vehicle_type_id":"4","last_reported":1702815109,"current_range_meters":26800,"station_id":"ce4bhb92rcd13ifvqen0","pricing_plan_id":"free"},{"bike_id":"0019cc72-50a3-4298-937a-c3025a814462","system_id":"levelo_inurba_marseille","lat":43.3304,"lon":5.38917,"is_reserved":false,"is_disabled":false,"rental_uris":{"android":"levelo://app?vid=0019cc72-50a3-4298-937a-c3025a814462","ios":"levelo://app?vid=0019cc72-50a3-4298-937a-c3025a814462"},"vehicle_type_id":"4","last_reported":1702815109,"current_range_meters":4800,"station_id":"ce4bhr92rcd13ifvqhrg","pricing_plan_id":"free"},{"bike_id":"dd21b57d-1184-48bd-803d-76dcea0b37a0","system_id":"levelo_inurba_marseille","lat":43.29006,"lon":5.356157,"is_reserved":false,"is_disabled":false,"rental_uris":{"android":"levelo://app?vid=dd21b57d-1184-48bd-803d-76dcea0b37a0","ios":"levelo://app?vid=dd21b57d-1184-48bd-803d-76dcea0b37a0"},"vehicle_type_id":"4","last_reported":1702815109,"current_range_meters":17200,"station_id":"ce4bhb92rcd13ifvqen0","pricing_plan_id":"free"},{"bike_id":"3ca4a558-3457-4395-9d5b-1be0b9c82184","system_id":"levelo_inurba_marseille","lat":43.289743,"lon":5.378304,"is_reserved":false,"is_disabled":false,"rental_uris":{"android":"levelo://app?vid=3ca4a558-3457-4395-9d5b-1be0b9c82184","ios":"levelo://app?vid=3ca4a558-3457-4395-9d5b-1be0b9c82184"},"vehicle_type_id":"4","last_reported":1702815109,"current_range_meters":29600,"station_id":"ce4bh9p2rcd13ifvqed0","pricing_plan_id":"free"},{"bike_id":"ad0f6538-ba65-40b7-bd35-329a98101cc1","system_id":"levelo_inurba_marseille","lat":43.289875,"lon":5.354916,"is_reserved":false,"is_disabled":false,"rental_uris":{"android":"levelo://app?vid=ad0f6538-ba65-40b7-bd35-329a98101cc1","ios":"levelo://app?vid=ad0f6538-ba65-40b7-bd35-329a98101cc1"},"vehicle_type_id":"4","last_reported":1702815109,"current_range_meters":6800,"station_id":"","pricing_plan_id":"free"},{"bike_id":"4a654c57-3008-4f1d-add9-c1ca56dbb09e","system_id":"levelo_inurba_marseille","lat":43.28856,"lon":5.358371,"is_reserved":false,"is_disabled":false,"rental_uris":{"android":"levelo://app?vid=4a654c57-3008-4f1d-add9-c1ca56dbb09e","ios":"levelo://app?vid=4a654c57-3008-4f1d-add9-c1ca56dbb09e"},"vehicle_type_id":"4","last_reported":1702815109,"current_range_meters":27600,"station_id":"ce4bhb12rcd13ifvqem0","pricing_plan_id":"free"},{"bike_id":"46a0c746-5f22-4a55-873c-989585dff7a3","system_id":"levelo_inurba_marseille","lat":43.288564,"lon":5.358498,"is_reserved":false,"is_disabled":false,"rental_uris":{"android":"levelo://app?vid=46a0c746-5f22-4a55-873c-989585dff7a3","ios":"levelo://app?vid=46a0c746-5f22-4a55-873c-989585dff7a3"},"vehicle_type_id":"4","last_reported":1702815109,"current_range_meters":9200,"station_id":"ce4bgph2rcd13ifvqc2g","pricing_plan_id":"free"},{"bike_id":"238114eb-e22a-4bc0-b487-cd0fc1f59b31","system_id":"levelo_inurba_marseille","lat":43.28852,"lon":5.35855,"is_reserved":false,"is_disabled":false,"rental_uris":{"android":"levelo://app?vid=238114eb-e22a-4bc0-b487-cd0fc1f59b31","ios":"levelo://app?vid=238114eb-e22a-4bc0-b487-cd0fc1f59b31"},"vehicle_type_id":"4","last_reported":1702815109,"current_range_meters":17200,"station_id":"ce4bhb12rcd13ifvqem0","pricing_plan_id":"free"},{"bike_id":"20402eae-2d3d-4903-9832-552b6048df27","system_id":"levelo_inurba_marseille","lat":43.337458,"lon":5.374512,"is_reserved":false,"is_disabled":false,"rental_uris":{"android":"levelo://app?vid=20402eae-2d3d-4903-9832-552b6048df27","ios":"levelo://app?vid=20402eae-2d3d-4903-9832-552b6048df27"},"vehicle_type_id":"4","last_reported":1702815109,"current_range_meters":28000,"station_id":"","pricing_plan_id":"free"},{"bike_id":"f0cd831c-cfb9-44c7-9487-103b6df223ca","system_id":"levelo_inurba_marseille","lat":43.337445,"lon":5.374592,"is_reserved":false,"is_disabled":false,"rental_uris":{"android":"levelo://app?vid=f0cd831c-cfb9-44c7-9487-103b6df223ca","ios":"levelo://app?vid=f0cd831c-cfb9-44c7-9487-103b6df223ca"},"vehicle_type_id":"4","last_reported":1702815109,"current_range_meters":25600,"station_id":"","pricing_plan_id":"free"},{"bike_id":"ef80ceab-dc9f-4b6c-8f52-707d5177f481","system_id":"levelo_inurba_marseille","lat":43.33752,"lon":5.37466,"is_reserved":false,"is_disabled":false,"rental_uris":{"android":"levelo://app?vid=ef80ceab-dc9f-4b6c-8f52-707d5177f481","ios":"levelo://app?vid=ef80ceab-dc9f-4b6c-8f52-707d5177f481"},"vehicle_type_id":"4","last_reported":1702815109,"current_range_meters":25200,"station_id":"","pricing_plan_id":"free"},{"bike_id":"9e56731c-f568-4167-bc73-60329c4abde2","system_id":"levelo_inurba_marseille","lat":43.33755,"lon":5.37456,"is_reserved":false,"is_disabled":false,"rental_uris":{"android":"levelo://app?vid=9e56731c-f568-4167-bc73-60329c4abde2","ios":"levelo://app?vid=9e56731c-f568-4167-bc73-60329c4abde2"},"vehicle_type_id":"4","last_reported":1702815109,"current_range_meters":30800,"station_id":"","pricing_plan_id":"free"},{"bike_id":"d1d36f78-7aa7-47c1-8e0f-442bee7af2dd","system_id":"levelo_inurba_marseille","lat":43.3377,"lon":5.37429,"is_reserved":false,"is_disabled":false,"rental_uris":{"android":"levelo://app?vid=d1d36f78-7aa7-47c1-8e0f-442bee7af2dd","ios":"levelo://app?vid=d1d36f78-7aa7-47c1-8e0f-442bee7af2dd"},"vehicle_type_id":"4","last_reported":1702815109,"current_range_meters":14400,"station_id":"","pricing_plan_id":"free"},{"bike_id":"74029e47-c92e-4a09-93e2-966e816bf173","system_id":"levelo_inurba_marseille","lat":43.33766,"lon":5.3747,"is_reserved":false,"is_disabled":false,"rental_uris":{"android":"levelo://app?vid=74029e47-c92e-4a09-93e2-966e816bf173","ios":"levelo://app?vid=74029e47-c92e-4a09-93e2-966e816bf173"},"vehicle_type_id":"4","last_reported":1702815109,"current_range_meters":28800,"station_id":"","pricing_plan_id":"free"},{"bike_id":"d4127a52-9feb-44f7-b110-e5063eb81648","system_id":"levelo_inurba_marseille","lat":43.306412,"lon":5.401035,"is_reserved":false,"is_disabled":false,"rental_uris":{"android":"levelo://app?vid=d4127a52-9feb-44f7-b110-e5063eb81648","ios":"levelo://app?vid=d4127a52-9feb-44f7-b110-e5063eb81648"},"vehicle_type_id":"4","last_reported":1702815109,"current_range_meters":23200,"station_id":"ce4bh112rcd13ifvqda0","pricing_plan_id":"free"},{"bike_id":"96c7d176-30ee-4732-9893-077729cb99be","system_id":"levelo_inurba_marseille","lat":43.28727,"lon":5.36078,"is_reserved":false,"is_disabled":false,"rental_uris":{"android":"levelo://app?vid=96c7d176-30ee-4732-9893-077729cb99be","ios":"levelo://app?vid=96c7d176-30ee-4732-9893-077729cb99be"},"vehicle_type_id":"4","last_reported":1702815109,"current_range_meters":24000,"station_id":"cki0cbj6b192h4jlfktg","pricing_plan_id":"free"},{"bike_id":"975030e3-4ac6-4a1d-8a98-56603ad29ce4","system_id":"levelo_inurba_marseille","lat":43.28727,"lon":5.36078,"is_reserved":false,"is_disabled":false,"rental_uris":{"android":"levelo://app?vid=975030e3-4ac6-4a1d-8a98-56603ad29ce4","ios":"levelo://app?vid=975030e3-4ac6-4a1d-8a98-56603ad29ce4"},"vehicle_type_id":"4","last_reported":1702815109,"current_range_meters":0,"station_id":"cki0cbj6b192h4jlfktg","pricing_plan_id":"free"},{"bike_id":"590dd379-5dc6-44c6-9686-da45a57c85ec","system_id":"levelo_inurba_marseille","lat":43.298681,"lon":5.397225,"is_reserved":false,"is_disabled":false,"rental_uris":{"android":"levelo://app?vid=590dd379-5dc6-44c6-9686-da45a57c85ec","ios":"levelo://app?vid=590dd379-5dc6-44c6-9686-da45a57c85ec"},"vehicle_type_id":"4","last_reported":1702815109,"current_range_meters":30000,"station_id":"ce4bh0h2rcd13ifvqd50","pricing_plan_id":"free"},{"bike_id":"845222fc-16a1-45df-8757-0290a23805b3","system_id":"levelo_inurba_marseille","lat":43.31697,"lon":5.40472,"is_reserved":false,"is_disabled":false,"rental_uris":{"android":"levelo://app?vid=845222fc-16a1-45df-8757-0290a23805b3","ios":"levelo://app?vid=845222fc-16a1-45df-8757-0290a23805b3"},"vehicle_type_id":"4","last_reported":1702815109,"current_range_meters":22000,"station_id":"ce4bh012rcd13ifvqd00","pricing_plan_id":"free"},{"bike_id":"bd83f5c8-0bf4-4a29-a9c8-b179d24e2586","system_id":"levelo_inurba_marseille","lat":43.284538,"lon":5.358657,"is_reserved":false,"is_disabled":false,"rental_uris":{"android":"levelo://app?vid=bd83f5c8-0bf4-4a29-a9c8-b179d24e2586","ios":"levelo://app?vid=bd83f5c8-0bf4-4a29-a9c8-b179d24e2586"},"vehicle_type_id":"4","last_reported":1702815109,"current_range_meters":19200,"station_id":"ce4bhah2rcd13ifvqei0","pricing_plan_id":"free"},{"bike_id":"2116278b-b79b-43b5-bea3-56fc6ffb2ccc","system_id":"levelo_inurba_marseille","lat":43.28618,"lon":5.35102,"is_reserved":false,"is_disabled":false,"rental_uris":{"android":"levelo://app?vid=2116278b-b79b-43b5-bea3-56fc6ffb2ccc","ios":"levelo://app?vid=2116278b-b79b-43b5-bea3-56fc6ffb2ccc"},"vehicle_type_id":"4","last_reported":1702815109,"current_range_meters":16400,"station_id":"ce4bhch2rcd13ifvqeug","pricing_plan_id":"free"},{"bike_id":"1ca16dac-52e7-4a19-8151-4c58d72b6d0d","system_id":"levelo_inurba_marseille","lat":43.285856,"lon":5.350771,"is_reserved":false,"is_disabled":false,"rental_uris":{"android":"levelo://app?vid=1ca16dac-52e7-4a19-8151-4c58d72b6d0d","ios":"levelo://app?vid=1ca16dac-52e7-4a19-8151-4c58d72b6d0d"},"vehicle_type_id":"4","last_reported":1702815109,"current_range_meters":2000,"station_id":"ce4bhch2rcd13ifvqeug","pricing_plan_id":"free"},{"bike_id":"2dfa5049-0e1b-4839-b5c3-156910a65dbd","system_id":"levelo_inurba_marseille","lat":43.33157,"lon":5.39807,"is_reserved":false,"is_disabled":false,"rental_uris":{"android":"levelo://app?vid=2dfa5049-0e1b-4839-b5c3-156910a65dbd","ios":"levelo://app?vid=2dfa5049-0e1b-4839-b5c3-156910a65dbd"},"vehicle_type_id":"4","last_reported":1702815109,"current_range_meters":6800,"station_id":"","pricing_plan_id":"free"},{"bike_id":"b1bba2b6-372d-49dd-b13b-1b4d710db23d","system_id":"levelo_inurba_marseille","lat":43.323464,"lon":5.406297,"is_reserved":false,"is_disabled":false,"rental_uris":{"android":"levelo://app?vid=b1bba2b6-372d-49dd-b13b-1b4d710db23d","ios":"levelo://app?vid=b1bba2b6-372d-49dd-b13b-1b4d710db23d"},"vehicle_type_id":"4","last_reported":1702815109,"current_range_meters":31200,"station_id":"ce4bhq92rcd13ifvqhjg","pricing_plan_id":"free"},{"bike_id":"2727c664-bd75-4b2f-b8dd-f20bae895db9","system_id":"levelo_inurba_marseille","lat":43.323464,"lon":5.406297,"is_reserved":false,"is_disabled":false,"rental_uris":{"android":"levelo://app?vid=2727c664-bd75-4b2f-b8dd-f20bae895db9","ios":"levelo://app?vid=2727c664-bd75-4b2f-b8dd-f20bae895db9"},"vehicle_type_id":"4","last_reported":1702815109,"current_range_meters":23200,"station_id":"ce4bhq92rcd13ifvqhjg","pricing_plan_id":"free"},{"bike_id":"a269a3ca-310d-4d84-b30d-a5da7b003b4c","system_id":"levelo_inurba_marseille","lat":43.284793,"lon":5.384113,"is_reserved":false,"is_disabled":false,"rental_uris":{"android":"levelo://app?vid=a269a3ca-310d-4d84-b30d-a5da7b003b4c","ios":"levelo://app?vid=a269a3ca-310d-4d84-b30d-a5da7b003b4c"},"vehicle_type_id":"4","last_reported":1702815109,"current_range_meters":12000,"station_id":"ce4bh512rcd13ifvqe3g","pricing_plan_id":"free"},{"bike_id":"5d8a2ada-7e2d-4b79-b002-150046b83a88","system_id":"levelo_inurba_marseille","lat":43.284793,"lon":5.384113,"is_reserved":false,"is_disabled":false,"rental_uris":{"android":"levelo://app?vid=5d8a2ada-7e2d-4b79-b002-150046b83a88","ios":"levelo://app?vid=5d8a2ada-7e2d-4b79-b002-150046b83a88"},"vehicle_type_id":"4","last_reported":1702815109,"current_range_meters":22000,"station_id":"ce4bh512rcd13ifvqe3g","pricing_plan_id":"free"},{"bike_id":"5756fceb-9040-4e6a-bed8-6fec32cc2198","system_id":"levelo_inurba_marseille","lat":43.284217,"lon":5.349697,"is_reserved":false,"is_disabled":false,"rental_uris":{"android":"levelo://app?vid=5756fceb-9040-4e6a-bed8-6fec32cc2198","ios":"levelo://app?vid=5756fceb-9040-4e6a-bed8-6fec32cc2198"},"vehicle_type_id":"4","last_reported":1702815109,"current_range_meters":21600,"station_id":"ce4bhbh2rcd13ifvqepg","pricing_plan_id":"free"},{"bike_id":"1f8faa7f-1039-475b-8ab4-100d36561f80","system_id":"levelo_inurba_marseille","lat":43.284217,"lon":5.349697,"is_reserved":false,"is_disabled":false,"rental_uris":{"android":"levelo://app?vid=1f8faa7f-1039-475b-8ab4-100d36561f80","ios":"levelo://app?vid=1f8faa7f-1039-475b-8ab4-100d36561f80"},"vehicle_type_id":"4","last_reported":1702815109,"current_range_meters":22000,"station_id":"ce4bhbh2rcd13ifvqepg","pricing_plan_id":"free"},{"bike_id":"d1234acc-5bed-41eb-be0a-8830a701fa7f","system_id":"levelo_inurba_marseille","lat":43.284217,"lon":5.349697,"is_reserved":false,"is_disabled":false,"rental_uris":{"android":"levelo://app?vid=d1234acc-5bed-41eb-be0a-8830a701fa7f","ios":"levelo://app?vid=d1234acc-5bed-41eb-be0a-8830a701fa7f"},"vehicle_type_id":"4","last_reported":1702815109,"current_range_meters":23200,"station_id":"ce4bhbh2rcd13ifvqepg","pricing_plan_id":"free"},{"bike_id":"fa5cfb0b-aca1-4a9e-87ff-917989e061ab","system_id":"levelo_inurba_marseille","lat":43.289363,"lon":5.396322,"is_reserved":false,"is_disabled":false,"rental_uris":{"android":"levelo://app?vid=fa5cfb0b-aca1-4a9e-87ff-917989e061ab","ios":"levelo://app?vid=fa5cfb0b-aca1-4a9e-87ff-917989e061ab"},"vehicle_type_id":"4","last_reported":1702815109,"current_range_meters":7600,"station_id":"ce4bh3h2rcd13ifvqdn0","pricing_plan_id":"free"},{"bike_id":"f067bbcd-09b4-49ef-9c27-d8d1bdec23cc","system_id":"levelo_inurba_marseille","lat":43.289363,"lon":5.396322,"is_reserved":false,"is_disabled":false,"rental_uris":{"android":"levelo://app?vid=f067bbcd-09b4-49ef-9c27-d8d1bdec23cc","ios":"levelo://app?vid=f067bbcd-09b4-49ef-9c27-d8d1bdec23cc"},"vehicle_type_id":"4","last_reported":1702815109,"current_range_meters":23600,"station_id":"ce4bh3h2rcd13ifvqdn0","pricing_plan_id":"free"},{"bike_id":"09d620b2-59f2-4ec4-983b-39e8bec778f4","system_id":"levelo_inurba_marseille","lat":43.282744,"lon":5.350533,"is_reserved":false,"is_disabled":false,"rental_uris":{"android":"levelo://app?vid=09d620b2-59f2-4ec4-983b-39e8bec778f4","ios":"levelo://app?vid=09d620b2-59f2-4ec4-983b-39e8bec778f4"},"vehicle_type_id":"4","last_reported":1702815109,"current_range_meters":10000,"station_id":"ce4bhbp2rcd13ifvqerg","pricing_plan_id":"free"},{"bike_id":"88989e94-2ada-4789-bfdc-d5dd6f504714","system_id":"levelo_inurba_marseille","lat":43.283502,"lon":5.386471,"is_reserved":false,"is_disabled":false,"rental_uris":{"android":"levelo://app?vid=88989e94-2ada-4789-bfdc-d5dd6f504714","ios":"levelo://app?vid=88989e94-2ada-4789-bfdc-d5dd6f504714"},"vehicle_type_id":"4","last_reported":1702815109,"current_range_meters":26800,"station_id":"ce4bh492rcd13ifvqdvg","pricing_plan_id":"free"},{"bike_id":"7bed120b-9509-455a-8b68-a367263bc11e","system_id":"levelo_inurba_marseille","lat":43.282744,"lon":5.350533,"is_reserved":false,"is_disabled":false,"rental_uris":{"android":"levelo://app?vid=7bed120b-9509-455a-8b68-a367263bc11e","ios":"levelo://app?vid=7bed120b-9509-455a-8b68-a367263bc11e"},"vehicle_type_id":"4","last_reported":1702815109,"current_range_meters":31200,"station_id":"ce4bhbp2rcd13ifvqerg","pricing_plan_id":"free"},{"bike_id":"5854b67d-e5de-4501-8ca2-bc2a722d6dd1","system_id":"levelo_inurba_marseille","lat":43.282744,"lon":5.350533,"is_reserved":false,"is_disabled":false,"rental_uris":{"android":"levelo://app?vid=5854b67d-e5de-4501-8ca2-bc2a722d6dd1","ios":"levelo://app?vid=5854b67d-e5de-4501-8ca2-bc2a722d6dd1"},"vehicle_type_id":"4","last_reported":1702815109,"current_range_meters":6400,"station_id":"ce4bhbp2rcd13ifvqerg","pricing_plan_id":"free"},{"bike_id":"5266768e-0aa1-4ea2-b58e-980be79e3ca6","system_id":"levelo_inurba_marseille","lat":43.280382,"lon":5.369291,"is_reserved":false,"is_disabled":false,"rental_uris":{"android":"levelo://app?vid=5266768e-0aa1-4ea2-b58e-980be79e3ca6","ios":"levelo://app?vid=5266768e-0aa1-4ea2-b58e-980be79e3ca6"},"vehicle_type_id":"4","last_reported":1702815109,"current_range_meters":19600,"station_id":"ce4bha12rcd13ifvqef0","pricing_plan_id":"free"},{"bike_id":"18480f3b-b636-427e-b429-e06871504cf4","system_id":"levelo_inurba_marseille","lat":43.280382,"lon":5.369291,"is_reserved":false,"is_disabled":false,"rental_uris":{"android":"levelo://app?vid=18480f3b-b636-427e-b429-e06871504cf4","ios":"levelo://app?vid=18480f3b-b636-427e-b429-e06871504cf4"},"vehicle_type_id":"4","last_reported":1702815109,"current_range_meters":10400,"station_id":"ce4bha12rcd13ifvqef0","pricing_plan_id":"free"},{"bike_id":"62257f14-3c9d-4eca-84fe-2193dd518c01","system_id":"levelo_inurba_marseille","lat":43.326605,"lon":5.409903,"is_reserved":false,"is_disabled":false,"rental_uris":{"android":"levelo://app?vid=62257f14-3c9d-4eca-84fe-2193dd518c01","ios":"levelo://app?vid=62257f14-3c9d-4eca-84fe-2193dd518c01"},"vehicle_type_id":"4","last_reported":1702815109,"current_range_meters":30400,"station_id":"ce4bhpp2rcd13ifvqhgg","pricing_plan_id":"free"},{"bike_id":"f286c0c4-bfc4-4520-af21-0b26c4d31f4b","system_id":"levelo_inurba_marseille","lat":43.279087,"lon":5.380114,"is_reserved":false,"is_disabled":false,"rental_uris":{"android":"levelo://app?vid=f286c0c4-bfc4-4520-af21-0b26c4d31f4b","ios":"levelo://app?vid=f286c0c4-bfc4-4520-af21-0b26c4d31f4b"},"vehicle_type_id":"4","last_reported":1702815109,"current_range_meters":2000,"station_id":"ce4bhf92rcd13ifvqf50","pricing_plan_id":"free"},{"bike_id":"bc6854b1-1c97-475b-94f4-a5fb757841a1","system_id":"levelo_inurba_marseille","lat":43.29964,"lon":5.41321,"is_reserved":false,"is_disabled":false,"rental_uris":{"android":"levelo://app?vid=bc6854b1-1c97-475b-94f4-a5fb757841a1","ios":"levelo://app?vid=bc6854b1-1c97-475b-94f4-a5fb757841a1"},"vehicle_type_id":"4","last_reported":1702815109,"current_range_meters":30800,"station_id":"ce4bhp12rcd13ifvqh9g","pricing_plan_id":"free"},{"bike_id":"3a57e97e-0661-4678-8660-64daa6b84577","system_id":"levelo_inurba_marseille","lat":43.29955,"lon":5.41317,"is_reserved":false,"is_disabled":false,"rental_uris":{"android":"levelo://app?vid=3a57e97e-0661-4678-8660-64daa6b84577","ios":"levelo://app?vid=3a57e97e-0661-4678-8660-64daa6b84577"},"vehicle_type_id":"4","last_reported":1702815109,"current_range_meters":23200,"station_id":"ce4bhp12rcd13ifvqh9g","pricing_plan_id":"free"},{"bike_id":"ef4ebfe6-544f-427a-ab41-4e8fcd066bd6","system_id":"levelo_inurba_marseille","lat":43.27611,"lon":5.36103,"is_reserved":false,"is_disabled":false,"rental_uris":{"android":"levelo://app?vid=ef4ebfe6-544f-427a-ab41-4e8fcd066bd6","ios":"levelo://app?vid=ef4ebfe6-544f-427a-ab41-4e8fcd066bd6"},"vehicle_type_id":"4","last_reported":1702815109,"current_range_meters":30400,"station_id":"ce4bgj92rcd13ifvqbe0","pricing_plan_id":"free"},{"bike_id":"3337a375-1c8b-4100-9c1e-7370b07e559b","system_id":"levelo_inurba_marseille","lat":43.280784,"lon":5.396622,"is_reserved":false,"is_disabled":false,"rental_uris":{"android":"levelo://app?vid=3337a375-1c8b-4100-9c1e-7370b07e559b","ios":"levelo://app?vid=3337a375-1c8b-4100-9c1e-7370b07e559b"},"vehicle_type_id":"4","last_reported":1702815109,"current_range_meters":30400,"station_id":"ce4bho12rcd13ifvqh2g","pricing_plan_id":"free"},{"bike_id":"133315a3-4ccd-409f-b74d-72000f8a8612","system_id":"levelo_inurba_marseille","lat":43.280784,"lon":5.396622,"is_reserved":false,"is_disabled":false,"rental_uris":{"android":"levelo://app?vid=133315a3-4ccd-409f-b74d-72000f8a8612","ios":"levelo://app?vid=133315a3-4ccd-409f-b74d-72000f8a8612"},"vehicle_type_id":"4","last_reported":1702815109,"current_range_meters":11600,"station_id":"ce4bho12rcd13ifvqh2g","pricing_plan_id":"free"},{"bike_id":"f492a511-ce54-47fb-a234-e90fa98e8a54","system_id":"levelo_inurba_marseille","lat":43.278401,"lon":5.392152,"is_reserved":false,"is_disabled":false,"rental_uris":{"android":"levelo://app?vid=f492a511-ce54-47fb-a234-e90fa98e8a54","ios":"levelo://app?vid=f492a511-ce54-47fb-a234-e90fa98e8a54"},"vehicle_type_id":"4","last_reported":1702815109,"current_range_meters":9200,"station_id":"ce4bhjp2rcd13ifvqga0","pricing_plan_id":"free"},{"bike_id":"02087654-3441-4009-af6d-9a61e3ef87b7","system_id":"levelo_inurba_marseille","lat":43.273613,"lon":5.362705,"is_reserved":false,"is_disabled":false,"rental_uris":{"android":"levelo://app?vid=02087654-3441-4009-af6d-9a61e3ef87b7","ios":"levelo://app?vid=02087654-3441-4009-af6d-9a61e3ef87b7"},"vehicle_type_id":"4","last_reported":1702815109,"current_range_meters":24400,"station_id":"ce4bhbh2rcd13ifvqeo0","pricing_plan_id":"free"},{"bike_id":"94be11cc-a992-46d0-acf7-fd472c700948","system_id":"levelo_inurba_marseille","lat":43.336148,"lon":5.410349,"is_reserved":false,"is_disabled":false,"rental_uris":{"android":"levelo://app?vid=94be11cc-a992-46d0-acf7-fd472c700948","ios":"levelo://app?vid=94be11cc-a992-46d0-acf7-fd472c700948"},"vehicle_type_id":"4","last_reported":1702815109,"current_range_meters":31200,"station_id":"ce4bhqh2rcd13ifvqhmg","pricing_plan_id":"free"},{"bike_id":"c8228718-97d4-40a3-af84-3ebdacc25472","system_id":"levelo_inurba_marseille","lat":43.336134,"lon":5.410341,"is_reserved":false,"is_disabled":false,"rental_uris":{"android":"levelo://app?vid=c8228718-97d4-40a3-af84-3ebdacc25472","ios":"levelo://app?vid=c8228718-97d4-40a3-af84-3ebdacc25472"},"vehicle_type_id":"4","last_reported":1702815109,"current_range_meters":30400,"station_id":"ce4bhqh2rcd13ifvqhmg","pricing_plan_id":"free"},{"bike_id":"73a8328a-9277-4995-b282-8f8e9fb4bed0","system_id":"levelo_inurba_marseille","lat":43.336134,"lon":5.410341,"is_reserved":false,"is_disabled":false,"rental_uris":{"android":"levelo://app?vid=73a8328a-9277-4995-b282-8f8e9fb4bed0","ios":"levelo://app?vid=73a8328a-9277-4995-b282-8f8e9fb4bed0"},"vehicle_type_id":"4","last_reported":1702815109,"current_range_meters":19200,"station_id":"ce4bhqh2rcd13ifvqhmg","pricing_plan_id":"free"},{"bike_id":"ea3d35f6-b07e-4308-ae51-5376e9d8e7cc","system_id":"levelo_inurba_marseille","lat":43.273435,"lon":5.364501,"is_reserved":false,"is_disabled":false,"rental_uris":{"android":"levelo://app?vid=ea3d35f6-b07e-4308-ae51-5376e9d8e7cc","ios":"levelo://app?vid=ea3d35f6-b07e-4308-ae51-5376e9d8e7cc"},"vehicle_type_id":"4","last_reported":1702815109,"current_range_meters":12000,"station_id":"","pricing_plan_id":"free"},{"bike_id":"6cb0c20f-91c9-4fdd-920d-ba0bd7960208","system_id":"levelo_inurba_marseille","lat":43.310785,"lon":5.424305,"is_reserved":false,"is_disabled":false,"rental_uris":{"android":"levelo://app?vid=6cb0c20f-91c9-4fdd-920d-ba0bd7960208","ios":"levelo://app?vid=6cb0c20f-91c9-4fdd-920d-ba0bd7960208"},"vehicle_type_id":"4","last_reported":1702815109,"current_range_meters":22000,"station_id":"ce4bhp92rcd13ifvqhag","pricing_plan_id":"free"},{"bike_id":"251de0dc-299e-4a18-abf1-eec4ea9c23e2","system_id":"levelo_inurba_marseille","lat":43.310785,"lon":5.424305,"is_reserved":false,"is_disabled":false,"rental_uris":{"android":"levelo://app?vid=251de0dc-299e-4a18-abf1-eec4ea9c23e2","ios":"levelo://app?vid=251de0dc-299e-4a18-abf1-eec4ea9c23e2"},"vehicle_type_id":"4","last_reported":1702815109,"current_range_meters":30800,"station_id":"ce4bhp92rcd13ifvqhag","pricing_plan_id":"free"},{"bike_id":"a3776f53-cea4-49f3-8100-19e61a426b19","system_id":"levelo_inurba_marseille","lat":43.310785,"lon":5.424305,"is_reserved":false,"is_disabled":false,"rental_uris":{"android":"levelo://app?vid=a3776f53-cea4-49f3-8100-19e61a426b19","ios":"levelo://app?vid=a3776f53-cea4-49f3-8100-19e61a426b19"},"vehicle_type_id":"4","last_reported":1702815109,"current_range_meters":18000,"station_id":"ce4bhp92rcd13ifvqhag","pricing_plan_id":"free"},{"bike_id":"6cafcd50-5756-4ad3-b29b-b85e323da656","system_id":"levelo_inurba_marseille","lat":43.310785,"lon":5.424305,"is_reserved":false,"is_disabled":false,"rental_uris":{"android":"levelo://app?vid=6cafcd50-5756-4ad3-b29b-b85e323da656","ios":"levelo://app?vid=6cafcd50-5756-4ad3-b29b-b85e323da656"},"vehicle_type_id":"4","last_reported":1702815109,"current_range_meters":24800,"station_id":"ce4bhp92rcd13ifvqhag","pricing_plan_id":"free"},{"bike_id":"f97f3ae3-0746-4a73-8a97-072f8aa9cb10","system_id":"levelo_inurba_marseille","lat":43.310785,"lon":5.424305,"is_reserved":false,"is_disabled":false,"rental_uris":{"android":"levelo://app?vid=f97f3ae3-0746-4a73-8a97-072f8aa9cb10","ios":"levelo://app?vid=f97f3ae3-0746-4a73-8a97-072f8aa9cb10"},"vehicle_type_id":"4","last_reported":1702815109,"current_range_meters":31200,"station_id":"ce4bhp92rcd13ifvqhag","pricing_plan_id":"free"},{"bike_id":"43844db9-0392-4da0-9a6e-40bbf1d336e6","system_id":"levelo_inurba_marseille","lat":43.340804,"lon":5.410219,"is_reserved":false,"is_disabled":false,"rental_uris":{"android":"levelo://app?vid=43844db9-0392-4da0-9a6e-40bbf1d336e6","ios":"levelo://app?vid=43844db9-0392-4da0-9a6e-40bbf1d336e6"},"vehicle_type_id":"4","last_reported":1702815109,"current_range_meters":29200,"station_id":"ce4bhqh2rcd13ifvqhlg","pricing_plan_id":"free"},{"bike_id":"cb8657c1-f91a-4cfd-a573-28533970bdba","system_id":"levelo_inurba_marseille","lat":43.34135,"lon":5.4091,"is_reserved":false,"is_disabled":false,"rental_uris":{"android":"levelo://app?vid=cb8657c1-f91a-4cfd-a573-28533970bdba","ios":"levelo://app?vid=cb8657c1-f91a-4cfd-a573-28533970bdba"},"vehicle_type_id":"4","last_reported":1702815109,"current_range_meters":28000,"station_id":"ce4bhqh2rcd13ifvqhlg","pricing_plan_id":"free"},{"bike_id":"3ca2c2d2-99b0-4aa6-a05d-e30f02e6a7fb","system_id":"levelo_inurba_marseille","lat":43.276092,"lon":5.395289,"is_reserved":false,"is_disabled":false,"rental_uris":{"android":"levelo://app?vid=3ca2c2d2-99b0-4aa6-a05d-e30f02e6a7fb","ios":"levelo://app?vid=3ca2c2d2-99b0-4aa6-a05d-e30f02e6a7fb"},"vehicle_type_id":"4","last_reported":1702815109,"current_range_meters":18800,"station_id":"","pricing_plan_id":"free"},{"bike_id":"13311358-1b29-4f57-8c2b-e34765fe1a1b","system_id":"levelo_inurba_marseille","lat":43.273125,"lon":5.390731,"is_reserved":false,"is_disabled":false,"rental_uris":{"android":"levelo://app?vid=13311358-1b29-4f57-8c2b-e34765fe1a1b","ios":"levelo://app?vid=13311358-1b29-4f57-8c2b-e34765fe1a1b"},"vehicle_type_id":"4","last_reported":1702815109,"current_range_meters":16400,"station_id":"ce4bhgp2rcd13ifvqfe0","pricing_plan_id":"free"},{"bike_id":"6cd39134-7e99-42b2-a0fe-23decf5008f2","system_id":"levelo_inurba_marseille","lat":43.274103,"lon":5.394016,"is_reserved":false,"is_disabled":false,"rental_uris":{"android":"levelo://app?vid=6cd39134-7e99-42b2-a0fe-23decf5008f2","ios":"levelo://app?vid=6cd39134-7e99-42b2-a0fe-23decf5008f2"},"vehicle_type_id":"4","last_reported":1702815109,"current_range_meters":3600,"station_id":"ce4bhdp2rcd13ifvqf20","pricing_plan_id":"free"},{"bike_id":"7c5e5a9a-9f39-4a14-9573-d5b8ab599dd5","system_id":"levelo_inurba_marseille","lat":43.27188,"lon":5.39224,"is_reserved":false,"is_disabled":false,"rental_uris":{"android":"levelo://app?vid=7c5e5a9a-9f39-4a14-9573-d5b8ab599dd5","ios":"levelo://app?vid=7c5e5a9a-9f39-4a14-9573-d5b8ab599dd5"},"vehicle_type_id":"4","last_reported":1702815109,"current_range_meters":18000,"station_id":"ce4bhhp2rcd13ifvqfm0","pricing_plan_id":"free"},{"bike_id":"1b8e49e0-a35c-40cc-b869-e3b6746f343f","system_id":"levelo_inurba_marseille","lat":43.278128,"lon":5.407195,"is_reserved":false,"is_disabled":false,"rental_uris":{"android":"levelo://app?vid=1b8e49e0-a35c-40cc-b869-e3b6746f343f","ios":"levelo://app?vid=1b8e49e0-a35c-40cc-b869-e3b6746f343f"},"vehicle_type_id":"4","last_reported":1702815109,"current_range_meters":13600,"station_id":"ce4bhnh2rcd13ifvqgtg","pricing_plan_id":"free"},{"bike_id":"c0d4131f-8d8d-4750-bf09-aa224f883954","system_id":"levelo_inurba_marseille","lat":43.27948,"lon":5.41045,"is_reserved":false,"is_disabled":false,"rental_uris":{"android":"levelo://app?vid=c0d4131f-8d8d-4750-bf09-aa224f883954","ios":"levelo://app?vid=c0d4131f-8d8d-4750-bf09-aa224f883954"},"vehicle_type_id":"4","last_reported":1702815109,"current_range_meters":0,"station_id":"ce4bhnp2rcd13ifvqh0g","pricing_plan_id":"free"},{"bike_id":"db774753-4382-453e-a138-c32d538f9839","system_id":"levelo_inurba_marseille","lat":43.358673,"lon":5.356739,"is_reserved":false,"is_disabled":false,"rental_uris":{"android":"levelo://app?vid=db774753-4382-453e-a138-c32d538f9839","ios":"levelo://app?vid=db774753-4382-453e-a138-c32d538f9839"},"vehicle_type_id":"4","last_reported":1702815109,"current_range_meters":11600,"station_id":"","pricing_plan_id":"free"},{"bike_id":"84eddff8-8488-4487-9dc5-3fef114ad3fb","system_id":"levelo_inurba_marseille","lat":43.26548,"lon":5.3729,"is_reserved":false,"is_disabled":false,"rental_uris":{"android":"levelo://app?vid=84eddff8-8488-4487-9dc5-3fef114ad3fb","ios":"levelo://app?vid=84eddff8-8488-4487-9dc5-3fef114ad3fb"},"vehicle_type_id":"4","last_reported":1702815109,"current_range_meters":17600,"station_id":"ce4bhg12rcd13ifvqf70","pricing_plan_id":"free"},{"bike_id":"3ec397f0-b8da-4e84-be43-f4abb20ebecf","system_id":"levelo_inurba_marseille","lat":43.276578,"lon":5.411792,"is_reserved":false,"is_disabled":false,"rental_uris":{"android":"levelo://app?vid=3ec397f0-b8da-4e84-be43-f4abb20ebecf","ios":"levelo://app?vid=3ec397f0-b8da-4e84-be43-f4abb20ebecf"},"vehicle_type_id":"4","last_reported":1702815109,"current_range_meters":27600,"station_id":"","pricing_plan_id":"free"},{"bike_id":"8a74afc9-c8ee-428c-95f4-83fc1e519239","system_id":"levelo_inurba_marseille","lat":43.280006,"lon":5.416643,"is_reserved":false,"is_disabled":false,"rental_uris":{"android":"levelo://app?vid=8a74afc9-c8ee-428c-95f4-83fc1e519239","ios":"levelo://app?vid=8a74afc9-c8ee-428c-95f4-83fc1e519239"},"vehicle_type_id":"4","last_reported":1702815109,"current_range_meters":0,"station_id":"ce4bho12rcd13ifvqh1g","pricing_plan_id":"free"},{"bike_id":"67feb958-45f6-4b1e-9da7-a4f583672ae8","system_id":"levelo_inurba_marseille","lat":43.265714,"lon":5.372891,"is_reserved":false,"is_disabled":false,"rental_uris":{"android":"levelo://app?vid=67feb958-45f6-4b1e-9da7-a4f583672ae8","ios":"levelo://app?vid=67feb958-45f6-4b1e-9da7-a4f583672ae8"},"vehicle_type_id":"4","last_reported":1702815109,"current_range_meters":16400,"station_id":"ce4bhg12rcd13ifvqf70","pricing_plan_id":"free"},{"bike_id":"55734505-8698-4229-b5ba-69de339b577b","system_id":"levelo_inurba_marseille","lat":43.265714,"lon":5.372891,"is_reserved":false,"is_disabled":false,"rental_uris":{"android":"levelo://app?vid=55734505-8698-4229-b5ba-69de339b577b","ios":"levelo://app?vid=55734505-8698-4229-b5ba-69de339b577b"},"vehicle_type_id":"4","last_reported":1702815109,"current_range_meters":14000,"station_id":"ce4bhg12rcd13ifvqf70","pricing_plan_id":"free"},{"bike_id":"11792dc4-f14d-4df8-828b-17478bc48a07","system_id":"levelo_inurba_marseille","lat":43.265714,"lon":5.372891,"is_reserved":false,"is_disabled":false,"rental_uris":{"android":"levelo://app?vid=11792dc4-f14d-4df8-828b-17478bc48a07","ios":"levelo://app?vid=11792dc4-f14d-4df8-828b-17478bc48a07"},"vehicle_type_id":"4","last_reported":1702815109,"current_range_meters":20400,"station_id":"ce4bhg12rcd13ifvqf70","pricing_plan_id":"free"},{"bike_id":"8bbdb3d9-81e1-41cf-a101-3f472e6de5ae","system_id":"levelo_inurba_marseille","lat":43.265714,"lon":5.372891,"is_reserved":false,"is_disabled":false,"rental_uris":{"android":"levelo://app?vid=8bbdb3d9-81e1-41cf-a101-3f472e6de5ae","ios":"levelo://app?vid=8bbdb3d9-81e1-41cf-a101-3f472e6de5ae"},"vehicle_type_id":"4","last_reported":1702815109,"current_range_meters":15200,"station_id":"ce4bhg12rcd13ifvqf70","pricing_plan_id":"free"},{"bike_id":"d729a1ca-b6e8-4c3e-95fd-24c1bf9fab70","system_id":"levelo_inurba_marseille","lat":43.26569,"lon":5.39009,"is_reserved":false,"is_disabled":false,"rental_uris":{"android":"levelo://app?vid=d729a1ca-b6e8-4c3e-95fd-24c1bf9fab70","ios":"levelo://app?vid=d729a1ca-b6e8-4c3e-95fd-24c1bf9fab70"},"vehicle_type_id":"4","last_reported":1702815109,"current_range_meters":30000,"station_id":"ce4bhe12rcd13ifvqf30","pricing_plan_id":"free"},{"bike_id":"37f33902-4f38-467e-8616-66e369e5adf5","system_id":"levelo_inurba_marseille","lat":43.261782,"lon":5.374515,"is_reserved":false,"is_disabled":false,"rental_uris":{"android":"levelo://app?vid=37f33902-4f38-467e-8616-66e369e5adf5","ios":"levelo://app?vid=37f33902-4f38-467e-8616-66e369e5adf5"},"vehicle_type_id":"4","last_reported":1702815109,"current_range_meters":7600,"station_id":"ce4bhgp2rcd13ifvqfc0","pricing_plan_id":"free"},{"bike_id":"0935ea5c-b672-44b5-8410-26fb735af5b9","system_id":"levelo_inurba_marseille","lat":43.317104,"lon":5.436818,"is_reserved":false,"is_disabled":false,"rental_uris":{"android":"levelo://app?vid=0935ea5c-b672-44b5-8410-26fb735af5b9","ios":"levelo://app?vid=0935ea5c-b672-44b5-8410-26fb735af5b9"},"vehicle_type_id":"4","last_reported":1702815109,"current_range_meters":8000,"station_id":"ce4bhp92rcd13ifvqhcg","pricing_plan_id":"free"},{"bike_id":"0be1f24e-99e9-4dcb-ad13-7f42404a6e66","system_id":"levelo_inurba_marseille","lat":43.262012,"lon":5.379307,"is_reserved":false,"is_disabled":false,"rental_uris":{"android":"levelo://app?vid=0be1f24e-99e9-4dcb-ad13-7f42404a6e66","ios":"levelo://app?vid=0be1f24e-99e9-4dcb-ad13-7f42404a6e66"},"vehicle_type_id":"4","last_reported":1702815109,"current_range_meters":26800,"station_id":"ce4bhjp2rcd13ifvqg90","pricing_plan_id":"free"},{"bike_id":"921391fc-c7fd-4da7-9ae6-39551a54a16d","system_id":"levelo_inurba_marseille","lat":43.262012,"lon":5.379307,"is_reserved":false,"is_disabled":false,"rental_uris":{"android":"levelo://app?vid=921391fc-c7fd-4da7-9ae6-39551a54a16d","ios":"levelo://app?vid=921391fc-c7fd-4da7-9ae6-39551a54a16d"},"vehicle_type_id":"4","last_reported":1702815109,"current_range_meters":29600,"station_id":"ce4bhjp2rcd13ifvqg90","pricing_plan_id":"free"},{"bike_id":"7743d713-d033-44f0-9919-d35e21ec4494","system_id":"levelo_inurba_marseille","lat":43.26502,"lon":5.39539,"is_reserved":false,"is_disabled":false,"rental_uris":{"android":"levelo://app?vid=7743d713-d033-44f0-9919-d35e21ec4494","ios":"levelo://app?vid=7743d713-d033-44f0-9919-d35e21ec4494"},"vehicle_type_id":"4","last_reported":1702815109,"current_range_meters":17600,"station_id":"","pricing_plan_id":"free"},{"bike_id":"b6518228-12c3-4225-894a-5f7dce8e8e5d","system_id":"levelo_inurba_marseille","lat":43.26497,"lon":5.39535,"is_reserved":false,"is_disabled":false,"rental_uris":{"android":"levelo://app?vid=b6518228-12c3-4225-894a-5f7dce8e8e5d","ios":"levelo://app?vid=b6518228-12c3-4225-894a-5f7dce8e8e5d"},"vehicle_type_id":"4","last_reported":1702815109,"current_range_meters":0,"station_id":"","pricing_plan_id":"free"},{"bike_id":"4c30ab0b-cc54-4ba6-ae72-a8fb812c2d2c","system_id":"levelo_inurba_marseille","lat":43.26498,"lon":5.3955,"is_reserved":false,"is_disabled":false,"rental_uris":{"android":"levelo://app?vid=4c30ab0b-cc54-4ba6-ae72-a8fb812c2d2c","ios":"levelo://app?vid=4c30ab0b-cc54-4ba6-ae72-a8fb812c2d2c"},"vehicle_type_id":"4","last_reported":1702815109,"current_range_meters":24000,"station_id":"","pricing_plan_id":"free"},{"bike_id":"f2318a53-9471-42dc-8d4f-a7730a7a36c8","system_id":"levelo_inurba_marseille","lat":43.264951,"lon":5.395419,"is_reserved":false,"is_disabled":false,"rental_uris":{"android":"levelo://app?vid=f2318a53-9471-42dc-8d4f-a7730a7a36c8","ios":"levelo://app?vid=f2318a53-9471-42dc-8d4f-a7730a7a36c8"},"vehicle_type_id":"4","last_reported":1702815109,"current_range_meters":2000,"station_id":"","pricing_plan_id":"free"},{"bike_id":"1765264f-1e74-4ce5-841e-c97748fde2f9","system_id":"levelo_inurba_marseille","lat":43.26497,"lon":5.39551,"is_reserved":false,"is_disabled":false,"rental_uris":{"android":"levelo://app?vid=1765264f-1e74-4ce5-841e-c97748fde2f9","ios":"levelo://app?vid=1765264f-1e74-4ce5-841e-c97748fde2f9"},"vehicle_type_id":"4","last_reported":1702815109,"current_range_meters":22800,"station_id":"","pricing_plan_id":"free"},{"bike_id":"1027c1c2-ba39-4720-b00d-2c56da016646","system_id":"levelo_inurba_marseille","lat":43.26496,"lon":5.39548,"is_reserved":false,"is_disabled":false,"rental_uris":{"android":"levelo://app?vid=1027c1c2-ba39-4720-b00d-2c56da016646","ios":"levelo://app?vid=1027c1c2-ba39-4720-b00d-2c56da016646"},"vehicle_type_id":"4","last_reported":1702815109,"current_range_meters":27600,"station_id":"","pricing_plan_id":"free"},{"bike_id":"7a85893a-7a2e-4136-aa77-946ebe94efae","system_id":"levelo_inurba_marseille","lat":43.264902,"lon":5.395458,"is_reserved":false,"is_disabled":false,"rental_uris":{"android":"levelo://app?vid=7a85893a-7a2e-4136-aa77-946ebe94efae","ios":"levelo://app?vid=7a85893a-7a2e-4136-aa77-946ebe94efae"},"vehicle_type_id":"4","last_reported":1702815109,"current_range_meters":21200,"station_id":"","pricing_plan_id":"free"},{"bike_id":"84d23a6b-18c6-4e12-abea-edef63349583","system_id":"levelo_inurba_marseille","lat":43.298768,"lon":5.43643,"is_reserved":false,"is_disabled":false,"rental_uris":{"android":"levelo://app?vid=84d23a6b-18c6-4e12-abea-edef63349583","ios":"levelo://app?vid=84d23a6b-18c6-4e12-abea-edef63349583"},"vehicle_type_id":"4","last_reported":1702815109,"current_range_meters":22000,"station_id":"ce4bhpp2rcd13ifvqhfg","pricing_plan_id":"free"},{"bike_id":"78f60701-8b22-4faf-9ad4-10254c27fa94","system_id":"levelo_inurba_marseille","lat":43.298768,"lon":5.43643,"is_reserved":false,"is_disabled":false,"rental_uris":{"android":"levelo://app?vid=78f60701-8b22-4faf-9ad4-10254c27fa94","ios":"levelo://app?vid=78f60701-8b22-4faf-9ad4-10254c27fa94"},"vehicle_type_id":"4","last_reported":1702815109,"current_range_meters":22800,"station_id":"ce4bhpp2rcd13ifvqhfg","pricing_plan_id":"free"},{"bike_id":"d084d587-4b27-4e47-8734-14f6d302ab83","system_id":"levelo_inurba_marseille","lat":43.298768,"lon":5.43643,"is_reserved":false,"is_disabled":false,"rental_uris":{"android":"levelo://app?vid=d084d587-4b27-4e47-8734-14f6d302ab83","ios":"levelo://app?vid=d084d587-4b27-4e47-8734-14f6d302ab83"},"vehicle_type_id":"4","last_reported":1702815109,"current_range_meters":31200,"station_id":"ce4bhpp2rcd13ifvqhfg","pricing_plan_id":"free"},{"bike_id":"4aea8348-023e-413e-9aa7-9704d55d30be","system_id":"levelo_inurba_marseille","lat":43.260225,"lon":5.375455,"is_reserved":false,"is_disabled":false,"rental_uris":{"android":"levelo://app?vid=4aea8348-023e-413e-9aa7-9704d55d30be","ios":"levelo://app?vid=4aea8348-023e-413e-9aa7-9704d55d30be"},"vehicle_type_id":"4","last_reported":1702815109,"current_range_meters":6800,"station_id":"ce4bhgh2rcd13ifvqfa0","pricing_plan_id":"free"},{"bike_id":"71252ba5-5619-4f36-b490-0c5903f0700e","system_id":"levelo_inurba_marseille","lat":43.281548,"lon":5.42643,"is_reserved":false,"is_disabled":false,"rental_uris":{"android":"levelo://app?vid=71252ba5-5619-4f36-b490-0c5903f0700e","ios":"levelo://app?vid=71252ba5-5619-4f36-b490-0c5903f0700e"},"vehicle_type_id":"4","last_reported":1702815109,"current_range_meters":3200,"station_id":"ce4bhnh2rcd13ifvqgug","pricing_plan_id":"free"},{"bike_id":"22afafb4-509d-4c4f-87d3-f4844f631844","system_id":"levelo_inurba_marseille","lat":43.281548,"lon":5.42643,"is_reserved":false,"is_disabled":false,"rental_uris":{"android":"levelo://app?vid=22afafb4-509d-4c4f-87d3-f4844f631844","ios":"levelo://app?vid=22afafb4-509d-4c4f-87d3-f4844f631844"},"vehicle_type_id":"4","last_reported":1702815109,"current_range_meters":26000,"station_id":"ce4bhnh2rcd13ifvqgug","pricing_plan_id":"free"},{"bike_id":"0fbb9982-628a-458e-8599-3a52f552df95","system_id":"levelo_inurba_marseille","lat":43.28149,"lon":5.42639,"is_reserved":false,"is_disabled":false,"rental_uris":{"android":"levelo://app?vid=0fbb9982-628a-458e-8599-3a52f552df95","ios":"levelo://app?vid=0fbb9982-628a-458e-8599-3a52f552df95"},"vehicle_type_id":"4","last_reported":1702815109,"current_range_meters":30000,"station_id":"ce4bhnh2rcd13ifvqgug","pricing_plan_id":"free"},{"bike_id":"d179c498-6590-4265-ba74-db4d632b80df","system_id":"levelo_inurba_marseille","lat":43.281548,"lon":5.42643,"is_reserved":false,"is_disabled":false,"rental_uris":{"android":"levelo://app?vid=d179c498-6590-4265-ba74-db4d632b80df","ios":"levelo://app?vid=d179c498-6590-4265-ba74-db4d632b80df"},"vehicle_type_id":"4","last_reported":1702815109,"current_range_meters":31200,"station_id":"ce4bhnh2rcd13ifvqgug","pricing_plan_id":"free"},{"bike_id":"4dd764f6-774c-4512-8b0e-1beb34d8f863","system_id":"levelo_inurba_marseille","lat":43.281548,"lon":5.42643,"is_reserved":false,"is_disabled":false,"rental_uris":{"android":"levelo://app?vid=4dd764f6-774c-4512-8b0e-1beb34d8f863","ios":"levelo://app?vid=4dd764f6-774c-4512-8b0e-1beb34d8f863"},"vehicle_type_id":"4","last_reported":1702815109,"current_range_meters":31200,"station_id":"ce4bhnh2rcd13ifvqgug","pricing_plan_id":"free"},{"bike_id":"c15ae3b7-8e97-4a88-a9b4-a63f88042490","system_id":"levelo_inurba_marseille","lat":43.281548,"lon":5.42643,"is_reserved":false,"is_disabled":false,"rental_uris":{"android":"levelo://app?vid=c15ae3b7-8e97-4a88-a9b4-a63f88042490","ios":"levelo://app?vid=c15ae3b7-8e97-4a88-a9b4-a63f88042490"},"vehicle_type_id":"4","last_reported":1702815109,"current_range_meters":1200,"station_id":"ce4bhnh2rcd13ifvqgug","pricing_plan_id":"free"},{"bike_id":"86e8efcc-9a9d-4657-8fc4-7b76fe514acc","system_id":"levelo_inurba_marseille","lat":43.275028,"lon":5.424534,"is_reserved":false,"is_disabled":false,"rental_uris":{"android":"levelo://app?vid=86e8efcc-9a9d-4657-8fc4-7b76fe514acc","ios":"levelo://app?vid=86e8efcc-9a9d-4657-8fc4-7b76fe514acc"},"vehicle_type_id":"4","last_reported":1702815109,"current_range_meters":10400,"station_id":"ce4bhn92rcd13ifvqgrg","pricing_plan_id":"free"},{"bike_id":"41bc15f8-3b1d-4ccf-944e-034bbcc08f91","system_id":"levelo_inurba_marseille","lat":43.275028,"lon":5.424534,"is_reserved":false,"is_disabled":false,"rental_uris":{"android":"levelo://app?vid=41bc15f8-3b1d-4ccf-944e-034bbcc08f91","ios":"levelo://app?vid=41bc15f8-3b1d-4ccf-944e-034bbcc08f91"},"vehicle_type_id":"4","last_reported":1702815109,"current_range_meters":30000,"station_id":"ce4bhn92rcd13ifvqgrg","pricing_plan_id":"free"},{"bike_id":"26edb7e5-1cc5-434c-a417-271b88181037","system_id":"levelo_inurba_marseille","lat":43.275028,"lon":5.424534,"is_reserved":false,"is_disabled":false,"rental_uris":{"android":"levelo://app?vid=26edb7e5-1cc5-434c-a417-271b88181037","ios":"levelo://app?vid=26edb7e5-1cc5-434c-a417-271b88181037"},"vehicle_type_id":"4","last_reported":1702815109,"current_range_meters":28000,"station_id":"ce4bhn92rcd13ifvqgrg","pricing_plan_id":"free"},{"bike_id":"b6836b5c-bf87-43d1-afcb-477e491235ab","system_id":"levelo_inurba_marseille","lat":43.26087,"lon":5.397654,"is_reserved":false,"is_disabled":false,"rental_uris":{"android":"levelo://app?vid=b6836b5c-bf87-43d1-afcb-477e491235ab","ios":"levelo://app?vid=b6836b5c-bf87-43d1-afcb-477e491235ab"},"vehicle_type_id":"4","last_reported":1702815109,"current_range_meters":800,"station_id":"","pricing_plan_id":"free"},{"bike_id":"9a221386-4eef-461d-8e18-f3fc3f633bbb","system_id":"levelo_inurba_marseille","lat":43.25739,"lon":5.38979,"is_reserved":false,"is_disabled":false,"rental_uris":{"android":"levelo://app?vid=9a221386-4eef-461d-8e18-f3fc3f633bbb","ios":"levelo://app?vid=9a221386-4eef-461d-8e18-f3fc3f633bbb"},"vehicle_type_id":"4","last_reported":1702815109,"current_range_meters":22000,"station_id":"","pricing_plan_id":"free"},{"bike_id":"3d93b5d1-fe78-44fb-9297-ab933b0bedb1","system_id":"levelo_inurba_marseille","lat":43.258337,"lon":5.394402,"is_reserved":false,"is_disabled":false,"rental_uris":{"android":"levelo://app?vid=3d93b5d1-fe78-44fb-9297-ab933b0bedb1","ios":"levelo://app?vid=3d93b5d1-fe78-44fb-9297-ab933b0bedb1"},"vehicle_type_id":"4","last_reported":1702815109,"current_range_meters":24800,"station_id":"ce4bhip2rcd13ifvqft0","pricing_plan_id":"free"},{"bike_id":"84fefe7d-29c6-4c99-a2d6-0a96a4f36a17","system_id":"levelo_inurba_marseille","lat":43.258205,"lon":5.394369,"is_reserved":false,"is_disabled":false,"rental_uris":{"android":"levelo://app?vid=84fefe7d-29c6-4c99-a2d6-0a96a4f36a17","ios":"levelo://app?vid=84fefe7d-29c6-4c99-a2d6-0a96a4f36a17"},"vehicle_type_id":"4","last_reported":1702815109,"current_range_meters":5200,"station_id":"ce4bhip2rcd13ifvqft0","pricing_plan_id":"free"},{"bike_id":"62de9976-dd34-404c-96bc-3d17794f52cd","system_id":"levelo_inurba_marseille","lat":43.25579,"lon":5.38231,"is_reserved":false,"is_disabled":false,"rental_uris":{"android":"levelo://app?vid=62de9976-dd34-404c-96bc-3d17794f52cd","ios":"levelo://app?vid=62de9976-dd34-404c-96bc-3d17794f52cd"},"vehicle_type_id":"4","last_reported":1702815109,"current_range_meters":29200,"station_id":"ce4bhih2rcd13ifvqfs0","pricing_plan_id":"free"},{"bike_id":"efafe018-162c-4b79-907a-8f00375474e6","system_id":"levelo_inurba_marseille","lat":43.258224,"lon":5.394369,"is_reserved":false,"is_disabled":false,"rental_uris":{"android":"levelo://app?vid=efafe018-162c-4b79-907a-8f00375474e6","ios":"levelo://app?vid=efafe018-162c-4b79-907a-8f00375474e6"},"vehicle_type_id":"4","last_reported":1702815109,"current_range_meters":19600,"station_id":"ce4bhip2rcd13ifvqft0","pricing_plan_id":"free"},{"bike_id":"4a14eb90-0bcc-46d5-a7ef-68f7a4f98435","system_id":"levelo_inurba_marseille","lat":43.25576,"lon":5.38235,"is_reserved":false,"is_disabled":false,"rental_uris":{"android":"levelo://app?vid=4a14eb90-0bcc-46d5-a7ef-68f7a4f98435","ios":"levelo://app?vid=4a14eb90-0bcc-46d5-a7ef-68f7a4f98435"},"vehicle_type_id":"4","last_reported":1702815109,"current_range_meters":29600,"station_id":"ce4bhih2rcd13ifvqfs0","pricing_plan_id":"free"},{"bike_id":"c9fbf818-8592-4295-a117-452e10098cd2","system_id":"levelo_inurba_marseille","lat":43.258224,"lon":5.394369,"is_reserved":false,"is_disabled":false,"rental_uris":{"android":"levelo://app?vid=c9fbf818-8592-4295-a117-452e10098cd2","ios":"levelo://app?vid=c9fbf818-8592-4295-a117-452e10098cd2"},"vehicle_type_id":"4","last_reported":1702815109,"current_range_meters":15600,"station_id":"ce4bhip2rcd13ifvqft0","pricing_plan_id":"free"},{"bike_id":"cd7237e2-5c04-4af1-b2c3-bb908fd64e5d","system_id":"levelo_inurba_marseille","lat":43.255003,"lon":5.376249,"is_reserved":false,"is_disabled":false,"rental_uris":{"android":"levelo://app?vid=cd7237e2-5c04-4af1-b2c3-bb908fd64e5d","ios":"levelo://app?vid=cd7237e2-5c04-4af1-b2c3-bb908fd64e5d"},"vehicle_type_id":"4","last_reported":1702815109,"current_range_meters":18400,"station_id":"ce4bhh12rcd13ifvqff0","pricing_plan_id":"free"},{"bike_id":"7a582b40-2371-4bb6-b6c9-3eebc8b67da8","system_id":"levelo_inurba_marseille","lat":43.25499,"lon":5.37649,"is_reserved":false,"is_disabled":false,"rental_uris":{"android":"levelo://app?vid=7a582b40-2371-4bb6-b6c9-3eebc8b67da8","ios":"levelo://app?vid=7a582b40-2371-4bb6-b6c9-3eebc8b67da8"},"vehicle_type_id":"4","last_reported":1702815109,"current_range_meters":15200,"station_id":"ce4bhh12rcd13ifvqff0","pricing_plan_id":"free"},{"bike_id":"ca09182d-f85e-490e-8b5c-94486064e272","system_id":"levelo_inurba_marseille","lat":43.25498,"lon":5.37647,"is_reserved":false,"is_disabled":false,"rental_uris":{"android":"levelo://app?vid=ca09182d-f85e-490e-8b5c-94486064e272","ios":"levelo://app?vid=ca09182d-f85e-490e-8b5c-94486064e272"},"vehicle_type_id":"4","last_reported":1702815109,"current_range_meters":27200,"station_id":"ce4bhh12rcd13ifvqff0","pricing_plan_id":"free"},{"bike_id":"67ac76b9-d69f-42cf-b861-38e636d9e23e","system_id":"levelo_inurba_marseille","lat":43.25498,"lon":5.3765,"is_reserved":false,"is_disabled":false,"rental_uris":{"android":"levelo://app?vid=67ac76b9-d69f-42cf-b861-38e636d9e23e","ios":"levelo://app?vid=67ac76b9-d69f-42cf-b861-38e636d9e23e"},"vehicle_type_id":"4","last_reported":1702815109,"current_range_meters":26000,"station_id":"ce4bhh12rcd13ifvqff0","pricing_plan_id":"free"},{"bike_id":"b7b9f492-0af9-46ff-8b31-3a7906180874","system_id":"levelo_inurba_marseille","lat":43.254968,"lon":5.376456,"is_reserved":false,"is_disabled":false,"rental_uris":{"android":"levelo://app?vid=b7b9f492-0af9-46ff-8b31-3a7906180874","ios":"levelo://app?vid=b7b9f492-0af9-46ff-8b31-3a7906180874"},"vehicle_type_id":"4","last_reported":1702815109,"current_range_meters":3200,"station_id":"ce4bhh12rcd13ifvqff0","pricing_plan_id":"free"},{"bike_id":"e650bb41-64fd-4d3c-b646-23c994a756b9","system_id":"levelo_inurba_marseille","lat":43.25497,"lon":5.376515,"is_reserved":false,"is_disabled":false,"rental_uris":{"android":"levelo://app?vid=e650bb41-64fd-4d3c-b646-23c994a756b9","ios":"levelo://app?vid=e650bb41-64fd-4d3c-b646-23c994a756b9"},"vehicle_type_id":"4","last_reported":1702815109,"current_range_meters":22000,"station_id":"ce4bhh12rcd13ifvqff0","pricing_plan_id":"free"},{"bike_id":"1ace9c64-be15-4225-91cc-d1d5e2234176","system_id":"levelo_inurba_marseille","lat":43.25496,"lon":5.37645,"is_reserved":false,"is_disabled":false,"rental_uris":{"android":"levelo://app?vid=1ace9c64-be15-4225-91cc-d1d5e2234176","ios":"levelo://app?vid=1ace9c64-be15-4225-91cc-d1d5e2234176"},"vehicle_type_id":"4","last_reported":1702815109,"current_range_meters":30800,"station_id":"ce4bhh12rcd13ifvqff0","pricing_plan_id":"free"},{"bike_id":"04827576-03c1-4517-8c81-dbcc995a56ae","system_id":"levelo_inurba_marseille","lat":43.25493,"lon":5.37648,"is_reserved":false,"is_disabled":false,"rental_uris":{"android":"levelo://app?vid=04827576-03c1-4517-8c81-dbcc995a56ae","ios":"levelo://app?vid=04827576-03c1-4517-8c81-dbcc995a56ae"},"vehicle_type_id":"4","last_reported":1702815109,"current_range_meters":17600,"station_id":"ce4bhh12rcd13ifvqff0","pricing_plan_id":"free"},{"bike_id":"7c68a6d7-1021-48f8-8474-744cd32fe033","system_id":"levelo_inurba_marseille","lat":43.27066,"lon":5.4228,"is_reserved":false,"is_disabled":false,"rental_uris":{"android":"levelo://app?vid=7c68a6d7-1021-48f8-8474-744cd32fe033","ios":"levelo://app?vid=7c68a6d7-1021-48f8-8474-744cd32fe033"},"vehicle_type_id":"4","last_reported":1702815109,"current_range_meters":20800,"station_id":"ce4bhk92rcd13ifvqgb0","pricing_plan_id":"free"},{"bike_id":"e22bfa2e-887e-4f39-94a3-367bba166b50","system_id":"levelo_inurba_marseille","lat":43.27069,"lon":5.42285,"is_reserved":false,"is_disabled":false,"rental_uris":{"android":"levelo://app?vid=e22bfa2e-887e-4f39-94a3-367bba166b50","ios":"levelo://app?vid=e22bfa2e-887e-4f39-94a3-367bba166b50"},"vehicle_type_id":"4","last_reported":1702815109,"current_range_meters":10800,"station_id":"ce4bhk92rcd13ifvqgb0","pricing_plan_id":"free"},{"bike_id":"deae5ee6-3fc6-48ca-bdbb-b43080c894be","system_id":"levelo_inurba_marseille","lat":43.258658,"lon":5.398935,"is_reserved":false,"is_disabled":false,"rental_uris":{"android":"levelo://app?vid=deae5ee6-3fc6-48ca-bdbb-b43080c894be","ios":"levelo://app?vid=deae5ee6-3fc6-48ca-bdbb-b43080c894be"},"vehicle_type_id":"4","last_reported":1702815109,"current_range_meters":26000,"station_id":"ce4bhl92rcd13ifvqghg","pricing_plan_id":"free"},{"bike_id":"486de631-4303-438d-8a28-45c67f8e2772","system_id":"levelo_inurba_marseille","lat":43.259303,"lon":5.409069,"is_reserved":false,"is_disabled":false,"rental_uris":{"android":"levelo://app?vid=486de631-4303-438d-8a28-45c67f8e2772","ios":"levelo://app?vid=486de631-4303-438d-8a28-45c67f8e2772"},"vehicle_type_id":"4","last_reported":1702815109,"current_range_meters":18400,"station_id":"ce4bhm92rcd13ifvqglg","pricing_plan_id":"free"},{"bike_id":"e341de01-5fcc-4f5d-9a6e-add29695d1df","system_id":"levelo_inurba_marseille","lat":43.259013,"lon":5.409301,"is_reserved":false,"is_disabled":false,"rental_uris":{"android":"levelo://app?vid=e341de01-5fcc-4f5d-9a6e-add29695d1df","ios":"levelo://app?vid=e341de01-5fcc-4f5d-9a6e-add29695d1df"},"vehicle_type_id":"4","last_reported":1702815109,"current_range_meters":18400,"station_id":"ce4bhm92rcd13ifvqglg","pricing_plan_id":"free"},{"bike_id":"790f0c85-435e-464f-af9f-df0afa087a9d","system_id":"levelo_inurba_marseille","lat":43.259283,"lon":5.40912,"is_reserved":false,"is_disabled":false,"rental_uris":{"android":"levelo://app?vid=790f0c85-435e-464f-af9f-df0afa087a9d","ios":"levelo://app?vid=790f0c85-435e-464f-af9f-df0afa087a9d"},"vehicle_type_id":"4","last_reported":1702815109,"current_range_meters":31600,"station_id":"ce4bhm92rcd13ifvqglg","pricing_plan_id":"free"},{"bike_id":"c42c8265-a87f-4db6-b8a4-696660579129","system_id":"levelo_inurba_marseille","lat":43.257079,"lon":5.411051,"is_reserved":false,"is_disabled":false,"rental_uris":{"android":"levelo://app?vid=c42c8265-a87f-4db6-b8a4-696660579129","ios":"levelo://app?vid=c42c8265-a87f-4db6-b8a4-696660579129"},"vehicle_type_id":"4","last_reported":1702815109,"current_range_meters":30000,"station_id":"ce4bhkp2rcd13ifvqgd0","pricing_plan_id":"free"},{"bike_id":"b975f840-e9e7-4103-847b-0b0ed2380f1b","system_id":"levelo_inurba_marseille","lat":43.257079,"lon":5.411051,"is_reserved":false,"is_disabled":false,"rental_uris":{"android":"levelo://app?vid=b975f840-e9e7-4103-847b-0b0ed2380f1b","ios":"levelo://app?vid=b975f840-e9e7-4103-847b-0b0ed2380f1b"},"vehicle_type_id":"4","last_reported":1702815109,"current_range_meters":22800,"station_id":"ce4bhkp2rcd13ifvqgd0","pricing_plan_id":"free"},{"bike_id":"3cec78b0-b5aa-41c7-86c1-de0e9bda6db8","system_id":"levelo_inurba_marseille","lat":43.25006,"lon":5.38915,"is_reserved":false,"is_disabled":false,"rental_uris":{"android":"levelo://app?vid=3cec78b0-b5aa-41c7-86c1-de0e9bda6db8","ios":"levelo://app?vid=3cec78b0-b5aa-41c7-86c1-de0e9bda6db8"},"vehicle_type_id":"4","last_reported":1702815109,"current_range_meters":11600,"station_id":"ce4bhgp2rcd13ifvqfd0","pricing_plan_id":"free"},{"bike_id":"cfdb5aee-8cde-4ef1-a0fa-0c2f819e64ed","system_id":"levelo_inurba_marseille","lat":43.250009,"lon":5.389195,"is_reserved":false,"is_disabled":false,"rental_uris":{"android":"levelo://app?vid=cfdb5aee-8cde-4ef1-a0fa-0c2f819e64ed","ios":"levelo://app?vid=cfdb5aee-8cde-4ef1-a0fa-0c2f819e64ed"},"vehicle_type_id":"4","last_reported":1702815109,"current_range_meters":28800,"station_id":"ce4bhgp2rcd13ifvqfd0","pricing_plan_id":"free"},{"bike_id":"7b29ee7f-149b-4304-ae3e-56a9d6d7abdf","system_id":"levelo_inurba_marseille","lat":43.24811,"lon":5.3746,"is_reserved":false,"is_disabled":false,"rental_uris":{"android":"levelo://app?vid=7b29ee7f-149b-4304-ae3e-56a9d6d7abdf","ios":"levelo://app?vid=7b29ee7f-149b-4304-ae3e-56a9d6d7abdf"},"vehicle_type_id":"4","last_reported":1702815109,"current_range_meters":21200,"station_id":"ce4bhgh2rcd13ifvqfb0","pricing_plan_id":"free"},{"bike_id":"05124e20-0317-4cd9-857c-cb9d875bdc0e","system_id":"levelo_inurba_marseille","lat":43.2479,"lon":5.374457,"is_reserved":false,"is_disabled":false,"rental_uris":{"android":"levelo://app?vid=05124e20-0317-4cd9-857c-cb9d875bdc0e","ios":"levelo://app?vid=05124e20-0317-4cd9-857c-cb9d875bdc0e"},"vehicle_type_id":"4","last_reported":1702815109,"current_range_meters":10800,"station_id":"ce4bhgh2rcd13ifvqfb0","pricing_plan_id":"free"},{"bike_id":"687adf15-9215-46c7-9e60-54619e51bfb0","system_id":"levelo_inurba_marseille","lat":43.25102,"lon":5.403214,"is_reserved":false,"is_disabled":false,"rental_uris":{"android":"levelo://app?vid=687adf15-9215-46c7-9e60-54619e51bfb0","ios":"levelo://app?vid=687adf15-9215-46c7-9e60-54619e51bfb0"},"vehicle_type_id":"4","last_reported":1702815109,"current_range_meters":23600,"station_id":"ce4bhlh2rcd13ifvqgig","pricing_plan_id":"free"},{"bike_id":"cda151f2-9ad2-46c9-9115-b73ba9a06619","system_id":"levelo_inurba_marseille","lat":43.252182,"lon":5.406419,"is_reserved":false,"is_disabled":false,"rental_uris":{"android":"levelo://app?vid=cda151f2-9ad2-46c9-9115-b73ba9a06619","ios":"levelo://app?vid=cda151f2-9ad2-46c9-9115-b73ba9a06619"},"vehicle_type_id":"4","last_reported":1702815109,"current_range_meters":0,"station_id":"","pricing_plan_id":"free"},{"bike_id":"c00c64f3-e3c6-4d6d-bf94-23f0ad1bce44","system_id":"levelo_inurba_marseille","lat":43.25102,"lon":5.403214,"is_reserved":false,"is_disabled":false,"rental_uris":{"android":"levelo://app?vid=c00c64f3-e3c6-4d6d-bf94-23f0ad1bce44","ios":"levelo://app?vid=c00c64f3-e3c6-4d6d-bf94-23f0ad1bce44"},"vehicle_type_id":"4","last_reported":1702815109,"current_range_meters":29200,"station_id":"ce4bhlh2rcd13ifvqgig","pricing_plan_id":"free"},{"bike_id":"7084b186-9844-43b1-92e3-50ac5f88c779","system_id":"levelo_inurba_marseille","lat":43.246461,"lon":5.389014,"is_reserved":false,"is_disabled":false,"rental_uris":{"android":"levelo://app?vid=7084b186-9844-43b1-92e3-50ac5f88c779","ios":"levelo://app?vid=7084b186-9844-43b1-92e3-50ac5f88c779"},"vehicle_type_id":"4","last_reported":1702815109,"current_range_meters":5600,"station_id":"ce4bhg12rcd13ifvqf60","pricing_plan_id":"free"},{"bike_id":"fb6b216e-c8bc-4f8b-9f09-6e8cc477e48d","system_id":"levelo_inurba_marseille","lat":43.24388,"lon":5.37055,"is_reserved":false,"is_disabled":false,"rental_uris":{"android":"levelo://app?vid=fb6b216e-c8bc-4f8b-9f09-6e8cc477e48d","ios":"levelo://app?vid=fb6b216e-c8bc-4f8b-9f09-6e8cc477e48d"},"vehicle_type_id":"4","last_reported":1702815109,"current_range_meters":25600,"station_id":"ce4bhhh2rcd13ifvqfk0","pricing_plan_id":"free"},{"bike_id":"ad39b28a-cc9c-451f-bec9-f872dbac09fc","system_id":"levelo_inurba_marseille","lat":43.243884,"lon":5.370737,"is_reserved":false,"is_disabled":false,"rental_uris":{"android":"levelo://app?vid=ad39b28a-cc9c-451f-bec9-f872dbac09fc","ios":"levelo://app?vid=ad39b28a-cc9c-451f-bec9-f872dbac09fc"},"vehicle_type_id":"4","last_reported":1702815109,"current_range_meters":21200,"station_id":"ce4bhhh2rcd13ifvqfk0","pricing_plan_id":"free"},{"bike_id":"3a342296-cbb3-4a72-9d8f-830899303254","system_id":"levelo_inurba_marseille","lat":43.243884,"lon":5.370737,"is_reserved":false,"is_disabled":false,"rental_uris":{"android":"levelo://app?vid=3a342296-cbb3-4a72-9d8f-830899303254","ios":"levelo://app?vid=3a342296-cbb3-4a72-9d8f-830899303254"},"vehicle_type_id":"4","last_reported":1702815109,"current_range_meters":29600,"station_id":"ce4bhhh2rcd13ifvqfk0","pricing_plan_id":"free"},{"bike_id":"e048174b-9a5a-45c9-9a41-3e830b6d71c5","system_id":"levelo_inurba_marseille","lat":43.243884,"lon":5.370737,"is_reserved":false,"is_disabled":false,"rental_uris":{"android":"levelo://app?vid=e048174b-9a5a-45c9-9a41-3e830b6d71c5","ios":"levelo://app?vid=e048174b-9a5a-45c9-9a41-3e830b6d71c5"},"vehicle_type_id":"4","last_reported":1702815109,"current_range_meters":22000,"station_id":"ce4bhhh2rcd13ifvqfk0","pricing_plan_id":"free"},{"bike_id":"0cbaa13e-7693-4357-aafe-b4bcfaab68d5","system_id":"levelo_inurba_marseille","lat":43.24385,"lon":5.37058,"is_reserved":false,"is_disabled":false,"rental_uris":{"android":"levelo://app?vid=0cbaa13e-7693-4357-aafe-b4bcfaab68d5","ios":"levelo://app?vid=0cbaa13e-7693-4357-aafe-b4bcfaab68d5"},"vehicle_type_id":"4","last_reported":1702815109,"current_range_meters":24800,"station_id":"ce4bhhh2rcd13ifvqfk0","pricing_plan_id":"free"},{"bike_id":"a4ccbe62-8c48-4f40-b637-643e05b69ed0","system_id":"levelo_inurba_marseille","lat":43.245581,"lon":5.395069,"is_reserved":false,"is_disabled":false,"rental_uris":{"android":"levelo://app?vid=a4ccbe62-8c48-4f40-b637-643e05b69ed0","ios":"levelo://app?vid=a4ccbe62-8c48-4f40-b637-643e05b69ed0"},"vehicle_type_id":"4","last_reported":1702815109,"current_range_meters":31600,"station_id":"ce4bhlp2rcd13ifvqgjg","pricing_plan_id":"free"},{"bike_id":"e0169ac0-e779-4925-9f2c-08e740226804","system_id":"levelo_inurba_marseille","lat":43.24067,"lon":5.37758,"is_reserved":false,"is_disabled":false,"rental_uris":{"android":"levelo://app?vid=e0169ac0-e779-4925-9f2c-08e740226804","ios":"levelo://app?vid=e0169ac0-e779-4925-9f2c-08e740226804"},"vehicle_type_id":"4","last_reported":1702815109,"current_range_meters":26400,"station_id":"ce4bhnp2rcd13ifvqgvg","pricing_plan_id":"free"},{"bike_id":"d19eda44-c59c-4f27-a3fe-d04f42d1bc4c","system_id":"levelo_inurba_marseille","lat":43.239588,"lon":5.366238,"is_reserved":false,"is_disabled":false,"rental_uris":{"android":"levelo://app?vid=d19eda44-c59c-4f27-a3fe-d04f42d1bc4c","ios":"levelo://app?vid=d19eda44-c59c-4f27-a3fe-d04f42d1bc4c"},"vehicle_type_id":"4","last_reported":1702815109,"current_range_meters":11600,"station_id":"ce4bhi12rcd13ifvqfp0","pricing_plan_id":"free"},{"bike_id":"23d837c6-d638-457e-90aa-163ac6a13346","system_id":"levelo_inurba_marseille","lat":43.239588,"lon":5.366238,"is_reserved":false,"is_disabled":false,"rental_uris":{"android":"levelo://app?vid=23d837c6-d638-457e-90aa-163ac6a13346","ios":"levelo://app?vid=23d837c6-d638-457e-90aa-163ac6a13346"},"vehicle_type_id":"4","last_reported":1702815109,"current_range_meters":22800,"station_id":"ce4bhi12rcd13ifvqfp0","pricing_plan_id":"free"},{"bike_id":"faa31a7e-54c4-4e18-86c2-0c32117bc5eb","system_id":"levelo_inurba_marseille","lat":43.239588,"lon":5.366238,"is_reserved":false,"is_disabled":false,"rental_uris":{"android":"levelo://app?vid=faa31a7e-54c4-4e18-86c2-0c32117bc5eb","ios":"levelo://app?vid=faa31a7e-54c4-4e18-86c2-0c32117bc5eb"},"vehicle_type_id":"4","last_reported":1702815109,"current_range_meters":10000,"station_id":"ce4bhi12rcd13ifvqfp0","pricing_plan_id":"free"},{"bike_id":"278a1b37-e293-4aa4-b3fb-dc5c002dcb21","system_id":"levelo_inurba_marseille","lat":43.239588,"lon":5.366238,"is_reserved":false,"is_disabled":false,"rental_uris":{"android":"levelo://app?vid=278a1b37-e293-4aa4-b3fb-dc5c002dcb21","ios":"levelo://app?vid=278a1b37-e293-4aa4-b3fb-dc5c002dcb21"},"vehicle_type_id":"4","last_reported":1702815109,"current_range_meters":20800,"station_id":"ce4bhi12rcd13ifvqfp0","pricing_plan_id":"free"},{"bike_id":"99dddd79-2a07-4af0-a550-fe20dbb7cfbb","system_id":"levelo_inurba_marseille","lat":43.239588,"lon":5.366238,"is_reserved":false,"is_disabled":false,"rental_uris":{"android":"levelo://app?vid=99dddd79-2a07-4af0-a550-fe20dbb7cfbb","ios":"levelo://app?vid=99dddd79-2a07-4af0-a550-fe20dbb7cfbb"},"vehicle_type_id":"4","last_reported":1702815109,"current_range_meters":30800,"station_id":"ce4bhi12rcd13ifvqfp0","pricing_plan_id":"free"},{"bike_id":"7730620f-a9e2-4b07-acc8-c4873c875b7d","system_id":"levelo_inurba_marseille","lat":43.239588,"lon":5.366238,"is_reserved":false,"is_disabled":false,"rental_uris":{"android":"levelo://app?vid=7730620f-a9e2-4b07-acc8-c4873c875b7d","ios":"levelo://app?vid=7730620f-a9e2-4b07-acc8-c4873c875b7d"},"vehicle_type_id":"4","last_reported":1702815109,"current_range_meters":19200,"station_id":"ce4bhi12rcd13ifvqfp0","pricing_plan_id":"free"},{"bike_id":"c6d9dfd2-a539-439d-8118-546d7460c24f","system_id":"levelo_inurba_marseille","lat":43.239588,"lon":5.366238,"is_reserved":false,"is_disabled":false,"rental_uris":{"android":"levelo://app?vid=c6d9dfd2-a539-439d-8118-546d7460c24f","ios":"levelo://app?vid=c6d9dfd2-a539-439d-8118-546d7460c24f"},"vehicle_type_id":"4","last_reported":1702815109,"current_range_meters":16400,"station_id":"ce4bhi12rcd13ifvqfp0","pricing_plan_id":"free"},{"bike_id":"052cba09-9723-4747-98d9-a70412aa9e3b","system_id":"levelo_inurba_marseille","lat":43.239588,"lon":5.366238,"is_reserved":false,"is_disabled":false,"rental_uris":{"android":"levelo://app?vid=052cba09-9723-4747-98d9-a70412aa9e3b","ios":"levelo://app?vid=052cba09-9723-4747-98d9-a70412aa9e3b"},"vehicle_type_id":"4","last_reported":1702815109,"current_range_meters":22400,"station_id":"ce4bhi12rcd13ifvqfp0","pricing_plan_id":"free"},{"bike_id":"17bfa225-c992-410c-ac61-25406d22d862","system_id":"levelo_inurba_marseille","lat":43.239588,"lon":5.366238,"is_reserved":false,"is_disabled":false,"rental_uris":{"android":"levelo://app?vid=17bfa225-c992-410c-ac61-25406d22d862","ios":"levelo://app?vid=17bfa225-c992-410c-ac61-25406d22d862"},"vehicle_type_id":"4","last_reported":1702815109,"current_range_meters":1600,"station_id":"ce4bhi12rcd13ifvqfp0","pricing_plan_id":"free"},{"bike_id":"9cefd1c4-2654-4779-abc8-cbf8b8647f9a","system_id":"levelo_inurba_marseille","lat":43.239588,"lon":5.366238,"is_reserved":false,"is_disabled":false,"rental_uris":{"android":"levelo://app?vid=9cefd1c4-2654-4779-abc8-cbf8b8647f9a","ios":"levelo://app?vid=9cefd1c4-2654-4779-abc8-cbf8b8647f9a"},"vehicle_type_id":"4","last_reported":1702815109,"current_range_meters":6800,"station_id":"ce4bhi12rcd13ifvqfp0","pricing_plan_id":"free"},{"bike_id":"d1a8358e-ea35-4d8f-bb74-cb28961860a8","system_id":"levelo_inurba_marseille","lat":43.239588,"lon":5.366238,"is_reserved":false,"is_disabled":false,"rental_uris":{"android":"levelo://app?vid=d1a8358e-ea35-4d8f-bb74-cb28961860a8","ios":"levelo://app?vid=d1a8358e-ea35-4d8f-bb74-cb28961860a8"},"vehicle_type_id":"4","last_reported":1702815109,"current_range_meters":6400,"station_id":"ce4bhi12rcd13ifvqfp0","pricing_plan_id":"free"},{"bike_id":"958f4ef7-1020-4ccd-8ff6-04ad9bdde8bf","system_id":"levelo_inurba_marseille","lat":43.239588,"lon":5.366238,"is_reserved":false,"is_disabled":false,"rental_uris":{"android":"levelo://app?vid=958f4ef7-1020-4ccd-8ff6-04ad9bdde8bf","ios":"levelo://app?vid=958f4ef7-1020-4ccd-8ff6-04ad9bdde8bf"},"vehicle_type_id":"4","last_reported":1702815109,"current_range_meters":10400,"station_id":"ce4bhi12rcd13ifvqfp0","pricing_plan_id":"free"},{"bike_id":"c9074b87-4262-4412-9d82-f62d3786e247","system_id":"levelo_inurba_marseille","lat":43.239588,"lon":5.366238,"is_reserved":false,"is_disabled":false,"rental_uris":{"android":"levelo://app?vid=c9074b87-4262-4412-9d82-f62d3786e247","ios":"levelo://app?vid=c9074b87-4262-4412-9d82-f62d3786e247"},"vehicle_type_id":"4","last_reported":1702815109,"current_range_meters":31200,"station_id":"ce4bhi12rcd13ifvqfp0","pricing_plan_id":"free"},{"bike_id":"31dc2d98-2dec-4733-96da-afc5ca9ff1c3","system_id":"levelo_inurba_marseille","lat":43.239588,"lon":5.366238,"is_reserved":false,"is_disabled":false,"rental_uris":{"android":"levelo://app?vid=31dc2d98-2dec-4733-96da-afc5ca9ff1c3","ios":"levelo://app?vid=31dc2d98-2dec-4733-96da-afc5ca9ff1c3"},"vehicle_type_id":"4","last_reported":1702815109,"current_range_meters":23200,"station_id":"ce4bhi12rcd13ifvqfp0","pricing_plan_id":"free"},{"bike_id":"630cf2f9-baf1-4860-be47-7a66ce2ac839","system_id":"levelo_inurba_marseille","lat":43.239588,"lon":5.366238,"is_reserved":false,"is_disabled":false,"rental_uris":{"android":"levelo://app?vid=630cf2f9-baf1-4860-be47-7a66ce2ac839","ios":"levelo://app?vid=630cf2f9-baf1-4860-be47-7a66ce2ac839"},"vehicle_type_id":"4","last_reported":1702815109,"current_range_meters":24800,"station_id":"ce4bhi12rcd13ifvqfp0","pricing_plan_id":"free"},{"bike_id":"32057596-041c-4625-8836-a3f0a8b776e3","system_id":"levelo_inurba_marseille","lat":43.241782,"lon":5.397264,"is_reserved":false,"is_disabled":false,"rental_uris":{"android":"levelo://app?vid=32057596-041c-4625-8836-a3f0a8b776e3","ios":"levelo://app?vid=32057596-041c-4625-8836-a3f0a8b776e3"},"vehicle_type_id":"4","last_reported":1702815109,"current_range_meters":30400,"station_id":"ce4bhn12rcd13ifvqgpg","pricing_plan_id":"free"},{"bike_id":"52cec7c2-48fa-468b-93eb-791e6fccd85c","system_id":"levelo_inurba_marseille","lat":43.24169,"lon":5.39731,"is_reserved":false,"is_disabled":false,"rental_uris":{"android":"levelo://app?vid=52cec7c2-48fa-468b-93eb-791e6fccd85c","ios":"levelo://app?vid=52cec7c2-48fa-468b-93eb-791e6fccd85c"},"vehicle_type_id":"4","last_reported":1702815109,"current_range_meters":15600,"station_id":"ce4bhn12rcd13ifvqgpg","pricing_plan_id":"free"},{"bike_id":"d3de5ca6-d559-43d0-8ed6-c46c756ed81c","system_id":"levelo_inurba_marseille","lat":43.23201,"lon":5.35551,"is_reserved":false,"is_disabled":false,"rental_uris":{"android":"levelo://app?vid=d3de5ca6-d559-43d0-8ed6-c46c756ed81c","ios":"levelo://app?vid=d3de5ca6-d559-43d0-8ed6-c46c756ed81c"},"vehicle_type_id":"4","last_reported":1702815109,"current_range_meters":30400,"station_id":"ce4bhu92rcd13ifvqi70","pricing_plan_id":"free"},{"bike_id":"931bef76-5b38-4910-abce-c3ab3961a0b7","system_id":"levelo_inurba_marseille","lat":43.231919,"lon":5.355532,"is_reserved":false,"is_disabled":false,"rental_uris":{"android":"levelo://app?vid=931bef76-5b38-4910-abce-c3ab3961a0b7","ios":"levelo://app?vid=931bef76-5b38-4910-abce-c3ab3961a0b7"},"vehicle_type_id":"4","last_reported":1702815109,"current_range_meters":13600,"station_id":"ce4bhu92rcd13ifvqi70","pricing_plan_id":"free"},{"bike_id":"be641546-dcea-4309-ad5a-32c7507f146a","system_id":"levelo_inurba_marseille","lat":43.231919,"lon":5.355532,"is_reserved":false,"is_disabled":false,"rental_uris":{"android":"levelo://app?vid=be641546-dcea-4309-ad5a-32c7507f146a","ios":"levelo://app?vid=be641546-dcea-4309-ad5a-32c7507f146a"},"vehicle_type_id":"4","last_reported":1702815109,"current_range_meters":10000,"station_id":"ce4bhu92rcd13ifvqi70","pricing_plan_id":"free"},{"bike_id":"947bd8ef-34e9-47ae-9f34-7d97f76cae41","system_id":"levelo_inurba_marseille","lat":43.23194,"lon":5.35553,"is_reserved":false,"is_disabled":false,"rental_uris":{"android":"levelo://app?vid=947bd8ef-34e9-47ae-9f34-7d97f76cae41","ios":"levelo://app?vid=947bd8ef-34e9-47ae-9f34-7d97f76cae41"},"vehicle_type_id":"4","last_reported":1702815109,"current_range_meters":15200,"station_id":"","pricing_plan_id":"free"},{"bike_id":"e4f94050-aae1-4821-b78a-030e7070af2a","system_id":"levelo_inurba_marseille","lat":43.231919,"lon":5.355532,"is_reserved":false,"is_disabled":false,"rental_uris":{"android":"levelo://app?vid=e4f94050-aae1-4821-b78a-030e7070af2a","ios":"levelo://app?vid=e4f94050-aae1-4821-b78a-030e7070af2a"},"vehicle_type_id":"4","last_reported":1702815109,"current_range_meters":16000,"station_id":"ce4bhu92rcd13ifvqi70","pricing_plan_id":"free"},{"bike_id":"79ddd983-a8fc-494d-84c2-53aea6d96edf","system_id":"levelo_inurba_marseille","lat":43.231919,"lon":5.355532,"is_reserved":false,"is_disabled":false,"rental_uris":{"android":"levelo://app?vid=79ddd983-a8fc-494d-84c2-53aea6d96edf","ios":"levelo://app?vid=79ddd983-a8fc-494d-84c2-53aea6d96edf"},"vehicle_type_id":"4","last_reported":1702815109,"current_range_meters":30400,"station_id":"ce4bhu92rcd13ifvqi70","pricing_plan_id":"free"},{"bike_id":"3dd05bbe-7d4d-4d5f-b9a9-4266846c777b","system_id":"levelo_inurba_marseille","lat":43.231919,"lon":5.355532,"is_reserved":false,"is_disabled":false,"rental_uris":{"android":"levelo://app?vid=3dd05bbe-7d4d-4d5f-b9a9-4266846c777b","ios":"levelo://app?vid=3dd05bbe-7d4d-4d5f-b9a9-4266846c777b"},"vehicle_type_id":"4","last_reported":1702815109,"current_range_meters":30000,"station_id":"ce4bhu92rcd13ifvqi70","pricing_plan_id":"free"},{"bike_id":"9b13ea6e-561a-4716-a516-c5aead357a46","system_id":"levelo_inurba_marseille","lat":43.231923,"lon":5.355545,"is_reserved":false,"is_disabled":false,"rental_uris":{"android":"levelo://app?vid=9b13ea6e-561a-4716-a516-c5aead357a46","ios":"levelo://app?vid=9b13ea6e-561a-4716-a516-c5aead357a46"},"vehicle_type_id":"4","last_reported":1702815109,"current_range_meters":17600,"station_id":"ce4bhu92rcd13ifvqi70","pricing_plan_id":"free"},{"bike_id":"e84f6252-dfd2-4688-b914-9eca8c7cdb93","system_id":"levelo_inurba_marseille","lat":43.23193,"lon":5.35545,"is_reserved":false,"is_disabled":false,"rental_uris":{"android":"levelo://app?vid=e84f6252-dfd2-4688-b914-9eca8c7cdb93","ios":"levelo://app?vid=e84f6252-dfd2-4688-b914-9eca8c7cdb93"},"vehicle_type_id":"4","last_reported":1702815109,"current_range_meters":21200,"station_id":"ce4bhu92rcd13ifvqi70","pricing_plan_id":"free"},{"bike_id":"b4ef03ff-13fe-4064-9c25-cb05667e9562","system_id":"levelo_inurba_marseille","lat":43.231919,"lon":5.355532,"is_reserved":false,"is_disabled":false,"rental_uris":{"android":"levelo://app?vid=b4ef03ff-13fe-4064-9c25-cb05667e9562","ios":"levelo://app?vid=b4ef03ff-13fe-4064-9c25-cb05667e9562"},"vehicle_type_id":"4","last_reported":1702815109,"current_range_meters":16400,"station_id":"ce4bhu92rcd13ifvqi70","pricing_plan_id":"free"},{"bike_id":"3187883e-eb78-44e3-ac3a-c702ba71e297","system_id":"levelo_inurba_marseille","lat":43.231919,"lon":5.355532,"is_reserved":false,"is_disabled":false,"rental_uris":{"android":"levelo://app?vid=3187883e-eb78-44e3-ac3a-c702ba71e297","ios":"levelo://app?vid=3187883e-eb78-44e3-ac3a-c702ba71e297"},"vehicle_type_id":"4","last_reported":1702815109,"current_range_meters":4400,"station_id":"ce4bhu92rcd13ifvqi70","pricing_plan_id":"free"},{"bike_id":"56dee7e6-1189-4420-98f7-78158f1ad0b3","system_id":"levelo_inurba_marseille","lat":43.23192,"lon":5.35546,"is_reserved":false,"is_disabled":false,"rental_uris":{"android":"levelo://app?vid=56dee7e6-1189-4420-98f7-78158f1ad0b3","ios":"levelo://app?vid=56dee7e6-1189-4420-98f7-78158f1ad0b3"},"vehicle_type_id":"4","last_reported":1702815109,"current_range_meters":27200,"station_id":"ce4bhu92rcd13ifvqi70","pricing_plan_id":"free"},{"bike_id":"8bde1f20-3114-431c-b2df-22d6e7b7655a","system_id":"levelo_inurba_marseille","lat":43.231919,"lon":5.355532,"is_reserved":false,"is_disabled":false,"rental_uris":{"android":"levelo://app?vid=8bde1f20-3114-431c-b2df-22d6e7b7655a","ios":"levelo://app?vid=8bde1f20-3114-431c-b2df-22d6e7b7655a"},"vehicle_type_id":"4","last_reported":1702815109,"current_range_meters":30800,"station_id":"ce4bhu92rcd13ifvqi70","pricing_plan_id":"free"},{"bike_id":"4bd2dd91-0f42-4138-8c5d-4a7f9aae6493","system_id":"levelo_inurba_marseille","lat":43.231919,"lon":5.355532,"is_reserved":false,"is_disabled":false,"rental_uris":{"android":"levelo://app?vid=4bd2dd91-0f42-4138-8c5d-4a7f9aae6493","ios":"levelo://app?vid=4bd2dd91-0f42-4138-8c5d-4a7f9aae6493"},"vehicle_type_id":"4","last_reported":1702815109,"current_range_meters":27200,"station_id":"ce4bhu92rcd13ifvqi70","pricing_plan_id":"free"},{"bike_id":"0914bc04-89c8-46f4-bf04-78aea5230869","system_id":"levelo_inurba_marseille","lat":43.231919,"lon":5.355532,"is_reserved":false,"is_disabled":false,"rental_uris":{"android":"levelo://app?vid=0914bc04-89c8-46f4-bf04-78aea5230869","ios":"levelo://app?vid=0914bc04-89c8-46f4-bf04-78aea5230869"},"vehicle_type_id":"4","last_reported":1702815109,"current_range_meters":26000,"station_id":"ce4bhu92rcd13ifvqi70","pricing_plan_id":"free"},{"bike_id":"c58c2105-152a-4be3-96b7-ef7d8114d5d4","system_id":"levelo_inurba_marseille","lat":43.231919,"lon":5.355532,"is_reserved":false,"is_disabled":false,"rental_uris":{"android":"levelo://app?vid=c58c2105-152a-4be3-96b7-ef7d8114d5d4","ios":"levelo://app?vid=c58c2105-152a-4be3-96b7-ef7d8114d5d4"},"vehicle_type_id":"4","last_reported":1702815109,"current_range_meters":13600,"station_id":"ce4bhu92rcd13ifvqi70","pricing_plan_id":"free"},{"bike_id":"6407938b-389d-4533-9ecb-2228594d1ac0","system_id":"levelo_inurba_marseille","lat":43.23189,"lon":5.355457,"is_reserved":false,"is_disabled":false,"rental_uris":{"android":"levelo://app?vid=6407938b-389d-4533-9ecb-2228594d1ac0","ios":"levelo://app?vid=6407938b-389d-4533-9ecb-2228594d1ac0"},"vehicle_type_id":"4","last_reported":1702815109,"current_range_meters":16400,"station_id":"ce4bhu92rcd13ifvqi70","pricing_plan_id":"free"},{"bike_id":"f5cfb89a-ce48-405c-82ee-5a941b48c540","system_id":"levelo_inurba_marseille","lat":43.23188,"lon":5.355448,"is_reserved":false,"is_disabled":false,"rental_uris":{"android":"levelo://app?vid=f5cfb89a-ce48-405c-82ee-5a941b48c540","ios":"levelo://app?vid=f5cfb89a-ce48-405c-82ee-5a941b48c540"},"vehicle_type_id":"4","last_reported":1702815109,"current_range_meters":18800,"station_id":"ce4bhu92rcd13ifvqi70","pricing_plan_id":"free"},{"bike_id":"f01df4f9-4c07-49f3-8959-762b34cdbe6c","system_id":"levelo_inurba_marseille","lat":43.231793,"lon":5.400044,"is_reserved":false,"is_disabled":false,"rental_uris":{"android":"levelo://app?vid=f01df4f9-4c07-49f3-8959-762b34cdbe6c","ios":"levelo://app?vid=f01df4f9-4c07-49f3-8959-762b34cdbe6c"},"vehicle_type_id":"4","last_reported":1702815109,"current_range_meters":29600,"station_id":"ce4bhn12rcd13ifvqgqg","pricing_plan_id":"free"},{"bike_id":"d5206a6c-92a9-4a75-8859-313a2b40fcd2","system_id":"levelo_inurba_marseille","lat":43.231793,"lon":5.400044,"is_reserved":false,"is_disabled":false,"rental_uris":{"android":"levelo://app?vid=d5206a6c-92a9-4a75-8859-313a2b40fcd2","ios":"levelo://app?vid=d5206a6c-92a9-4a75-8859-313a2b40fcd2"},"vehicle_type_id":"4","last_reported":1702815109,"current_range_meters":31200,"station_id":"ce4bhn12rcd13ifvqgqg","pricing_plan_id":"free"},{"bike_id":"6e314437-e406-44bb-9c7a-b82c090183e0","system_id":"levelo_inurba_marseille","lat":43.231794,"lon":5.400052,"is_reserved":false,"is_disabled":false,"rental_uris":{"android":"levelo://app?vid=6e314437-e406-44bb-9c7a-b82c090183e0","ios":"levelo://app?vid=6e314437-e406-44bb-9c7a-b82c090183e0"},"vehicle_type_id":"4","last_reported":1702815109,"current_range_meters":24800,"station_id":"ce4bhn12rcd13ifvqgqg","pricing_plan_id":"free"},{"bike_id":"82b0b121-d2e6-4f04-8530-97cda8a0fbcd","system_id":"levelo_inurba_marseille","lat":43.231794,"lon":5.400052,"is_reserved":false,"is_disabled":false,"rental_uris":{"android":"levelo://app?vid=82b0b121-d2e6-4f04-8530-97cda8a0fbcd","ios":"levelo://app?vid=82b0b121-d2e6-4f04-8530-97cda8a0fbcd"},"vehicle_type_id":"4","last_reported":1702815109,"current_range_meters":31200,"station_id":"ce4bhn12rcd13ifvqgqg","pricing_plan_id":"free"},