{"last_updated":1769303152,"ttl":60,"version":"2.2","data":{"bikes":[{"bike_id":"ce91f19c-6b5f-4475-ac98-6aba43530cf5","system_id":"levelo_inurba_marseille","lat":43.25026,"lon":5.3893,"is_reserved":false,"is_disabled":false,"rental_uris":{"android":"levelo://app?vid=ce91f19c-6b5f-4475-ac98-6aba43530cf5","ios":"levelo://app?vid=ce91f19c-6b5f-4475-ac98-6aba43530cf5"},"vehicle_type_id":"4","last_reported":1769303152,"current_range_meters":2800,"station_id":"ce4bhgp2rcd13ifvqfd0","pricing_plan_id":"cebpf4jnsgd1na2vs0mg"},{"bike_id":"651915f3-ebc5-4ef3-a2ae-2742ff4a9c5f","system_id":"levelo_inurba_marseille","lat":43.28145,"lon":5.42651,"is_reserved":false,"is_disabled":false,"rental_uris":{"android":"levelo://app?vid=651915f3-ebc5-4ef3-a2ae-2742ff4a9c5f","ios":"levelo://app?vid=651915f3-ebc5-4ef3-a2ae-2742ff4a9c5f"},"vehicle_type_id":"4","last_reported":1769303152,"current_range_meters":2800,"station_id":"ce4bhnh2rcd13ifvqgug","pricing_plan_id":"cebpf4jnsgd1na2vs0mg"},{"bike_id":"4d6c9847-fd2d-409c-b0fe-f478938c3007","system_id":"levelo_inurba_marseille","lat":43.30125,"lon":5.43105,"is_reserved":false,"is_disabled":false,"rental_uris":{"android":"levelo://app?vid=4d6c9847-fd2d-409c-b0fe-f478938c3007","ios":"levelo://app?vid=4d6c9847-fd2d-409c-b0fe-f478938c3007"},"vehicle_type_id":"4","last_reported":1769303152,"current_range_meters":2800,"station_id":"st_d3js3co5814s73ftftug","pricing_plan_id":"cebpf4jnsgd1na2vs0mg"},{"bike_id":"3f2251c2-5185-4cac-808a-d69526c32cf1","system_id":"levelo_inurba_marseille","lat":43.24952,"lon":5.40494,"is_reserved":false,"is_disabled":false,"rental_uris":{"android":"levelo://app?vid=3f2251c2-5185-4cac-808a-d69526c32cf1","ios":"levelo://app?vid=3f2251c2-5185-4cac-808a-d69526c32cf1"},"vehicle_type_id":"4","last_reported":1769303152,"current_range_meters":2800,"station_id":"st_d2ngiaodas8pm72gd1h0","pricing_plan_id":"cebpf4jnsgd1na2vs0mg"},{"bike_id":"04277308-a34e-4e95-b328-d631095696cf","system_id":"levelo_inurba_marseille","lat":43.24056,"lon":5.37711,"is_reserved":false,"is_disabled":false,"rental_uris":{"android":"levelo://app?vid=04277308-a34e-4e95-b328-d631095696cf","ios":"levelo://app?vid=04277308-a34e-4e95-b328-d631095696cf"},"vehicle_type_id":"4","last_reported":1769303152,"current_range_meters":2800,"station_id":"ce4bhnp2rcd13ifvqgvg","pricing_plan_id":"cebpf4jnsgd1na2vs0mg"},{"bike_id":"15ce2f7b-e27b-4b73-b1d7-521910c86f00","system_id":"levelo_inurba_marseille","lat":43.28471,"lon":5.48385,"is_reserved":false,"is_disabled":false,"rental_uris":{"android":"levelo://app?vid=15ce2f7b-e27b-4b73-b1d7-521910c86f00","ios":"levelo://app?vid=15ce2f7b-e27b-4b73-b1d7-521910c86f00"},"vehicle_type_id":"4","last_reported":1769303152,"current_range_meters":2800,"station_id":"st_d3svhcjqgbts73a3dn0g","pricing_plan_id":"cebpf4jnsgd1na2vs0mg"},{"bike_id":"da6a9b89-37b5-4c57-80bd-d21fe2120175","system_id":"levelo_inurba_marseille","lat":43.24549,"lon":5.39557,"is_reserved":false,"is_disabled":false,"rental_uris":{"android":"levelo://app?vid=da6a9b89-37b5-4c57-80bd-d21fe2120175","ios":"levelo://app?vid=da6a9b89-37b5-4c57-80bd-d21fe2120175"},"vehicle_type_id":"4","last_reported":1769303152,"current_range_meters":2800,"station_id":"ce4bhlp2rcd13ifvqgjg","pricing_plan_id":"cebpf4jnsgd1na2vs0mg"},{"bike_id":"2b16ff9b-1532-4a37-9b9d-95bb7d5a2516","system_id":"levelo_inurba_marseille","lat":43.28157,"lon":5.4264,"is_reserved":false,"is_disabled":true,"rental_uris":{"android":"levelo://app?vid=2b16ff9b-1532-4a37-9b9d-95bb7d5a2516","ios":"levelo://app?vid=2b16ff9b-1532-4a37-9b9d-95bb7d5a2516"},"vehicle_type_id":"4","last_reported":1769303152,"current_range_meters":2800,"station_id":"ce4bhnh2rcd13ifvqgug","pricing_plan_id":"cebpf4jnsgd1na2vs0mg"},{"bike_id":"43d8293a-9fd8-4a91-99e9-93bcd2e88730","system_id":"levelo_inurba_marseille","lat":43.22929,"lon":5.35384,"is_reserved":false,"is_disabled":false,"rental_uris":{"android":"levelo://app?vid=43d8293a-9fd8-4a91-99e9-93bcd2e88730","ios":"levelo://app?vid=43d8293a-9fd8-4a91-99e9-93bcd2e88730"},"vehicle_type_id":"4","last_reported":1769303152,"current_range_meters":3200,"station_id":"cpo3532slgdg3j2ikp40","pricing_plan_id":"cebpf4jnsgd1na2vs0mg"},{"bike_id":"17ed46bf-b051-47fc-a887-339e35ccca50","system_id":"levelo_inurba_marseille","lat":43.29041,"lon":5.37565,"is_reserved":false,"is_disabled":false,"rental_uris":{"android":"levelo://app?vid=17ed46bf-b051-47fc-a887-339e35ccca50","ios":"levelo://app?vid=17ed46bf-b051-47fc-a887-339e35ccca50"},"vehicle_type_id":"4","last_reported":1769303152,"current_range_meters":3200,"station_id":"ce4bh692rcd13ifvqe90","pricing_plan_id":"cebpf4jnsgd1na2vs0mg"},{"bike_id":"423bf7b2-6764-427f-a8b0-87b91bdf1b02","system_id":"levelo_inurba_marseille","lat":43.27967,"lon":5.4167,"is_reserved":false,"is_disabled":false,"rental_uris":{"android":"levelo://app?vid=423bf7b2-6764-427f-a8b0-87b91bdf1b02","ios":"levelo://app?vid=423bf7b2-6764-427f-a8b0-87b91bdf1b02"},"vehicle_type_id":"4","last_reported":1769303152,"current_range_meters":3200,"station_id":"ce4bho12rcd13ifvqh1g","pricing_plan_id":"cebpf4jnsgd1na2vs0mg"},{"bike_id":"8d651ce5-2af6-4d67-a695-d29bc342bb83","system_id":"levelo_inurba_marseille","lat":43.22926,"lon":5.3538,"is_reserved":false,"is_disabled":false,"rental_uris":{"android":"levelo://app?vid=8d651ce5-2af6-4d67-a695-d29bc342bb83","ios":"levelo://app?vid=8d651ce5-2af6-4d67-a695-d29bc342bb83"},"vehicle_type_id":"4","last_reported":1769303152,"current_range_meters":3200,"station_id":"cpo3532slgdg3j2ikp40","pricing_plan_id":"cebpf4jnsgd1na2vs0mg"},{"bike_id":"325d6000-e7a8-417c-aa29-6d5b58f2d9fb","system_id":"levelo_inurba_marseille","lat":43.29607,"lon":5.37183,"is_reserved":false,"is_disabled":false,"rental_uris":{"android":"levelo://app?vid=325d6000-e7a8-417c-aa29-6d5b58f2d9fb","ios":"levelo://app?vid=325d6000-e7a8-417c-aa29-6d5b58f2d9fb"},"vehicle_type_id":"4","last_reported":1769303152,"current_range_meters":3200,"station_id":"ce4bgnh2rcd13ifvqc0g","pricing_plan_id":"cebpf4jnsgd1na2vs0mg"},{"bike_id":"baab0e10-ea32-40b1-8345-dd563e57b7cf","system_id":"levelo_inurba_marseille","lat":43.30877,"lon":5.39643,"is_reserved":false,"is_disabled":false,"rental_uris":{"android":"levelo://app?vid=baab0e10-ea32-40b1-8345-dd563e57b7cf","ios":"levelo://app?vid=baab0e10-ea32-40b1-8345-dd563e57b7cf"},"vehicle_type_id":"4","last_reported":1769303152,"current_range_meters":3200,"station_id":"ce4bh012rcd13ifvqcv0","pricing_plan_id":"cebpf4jnsgd1na2vs0mg"},{"bike_id":"5fc384e4-f0b4-4c89-a573-763b54aad41c","system_id":"levelo_inurba_marseille","lat":43.2857,"lon":5.39506,"is_reserved":false,"is_disabled":false,"rental_uris":{"android":"levelo://app?vid=5fc384e4-f0b4-4c89-a573-763b54aad41c","ios":"levelo://app?vid=5fc384e4-f0b4-4c89-a573-763b54aad41c"},"vehicle_type_id":"4","last_reported":1769303152,"current_range_meters":3600,"station_id":"","pricing_plan_id":"cebpf4jnsgd1na2vs0mg"},{"bike_id":"0dc9dc39-9a79-4974-b3ae-9c8631cf059e","system_id":"levelo_inurba_marseille","lat":43.23986,"lon":5.3964,"is_reserved":false,"is_disabled":false,"rental_uris":{"android":"levelo://app?vid=0dc9dc39-9a79-4974-b3ae-9c8631cf059e","ios":"levelo://app?vid=0dc9dc39-9a79-4974-b3ae-9c8631cf059e"},"vehicle_type_id":"4","last_reported":1769303152,"current_range_meters":3600,"station_id":"","pricing_plan_id":"cebpf4jnsgd1na2vs0mg"},{"bike_id":"71d3d1bf-2396-432f-a9d4-0f03fb0e9eff","system_id":"levelo_inurba_marseille","lat":43.2605,"lon":5.39395,"is_reserved":false,"is_disabled":false,"rental_uris":{"android":"levelo://app?vid=71d3d1bf-2396-432f-a9d4-0f03fb0e9eff","ios":"levelo://app?vid=71d3d1bf-2396-432f-a9d4-0f03fb0e9eff"},"vehicle_type_id":"4","last_reported":1769303152,"current_range_meters":3600,"station_id":"ce4bhh92rcd13ifvqfj0","pricing_plan_id":"cebpf4jnsgd1na2vs0mg"},{"bike_id":"7c7cc252-7f4f-4ac1-8175-44f20e46ac77","system_id":"levelo_inurba_marseille","lat":43.2673,"lon":5.40192,"is_reserved":false,"is_disabled":false,"rental_uris":{"android":"levelo://app?vid=7c7cc252-7f4f-4ac1-8175-44f20e46ac77","ios":"levelo://app?vid=7c7cc252-7f4f-4ac1-8175-44f20e46ac77"},"vehicle_type_id":"4","last_reported":1769303152,"current_range_meters":3600,"station_id":"","pricing_plan_id":"cebpf4jnsgd1na2vs0mg"},{"bike_id":"e3bf064c-53bb-4e5e-a214-36779e2347bf","system_id":"levelo_inurba_marseille","lat":43.28028,"lon":5.41593,"is_reserved":false,"is_disabled":false,"rental_uris":{"android":"levelo://app?vid=e3bf064c-53bb-4e5e-a214-36779e2347bf","ios":"levelo://app?vid=e3bf064c-53bb-4e5e-a214-36779e2347bf"},"vehicle_type_id":"4","last_reported":1769303152,"current_range_meters":3600,"station_id":"ce4bho12rcd13ifvqh1g","pricing_plan_id":"cebpf4jnsgd1na2vs0mg"},{"bike_id":"d6bcc36c-0988-4104-853c-6ca0cbca9b29","system_id":"levelo_inurba_marseille","lat":43.28866,"lon":5.4253,"is_reserved":false,"is_disabled":false,"rental_uris":{"android":"levelo://app?vid=d6bcc36c-0988-4104-853c-6ca0cbca9b29","ios":"levelo://app?vid=d6bcc36c-0988-4104-853c-6ca0cbca9b29"},"vehicle_type_id":"4","last_reported":1769303152,"current_range_meters":3600,"station_id":"st_d3b462108ojc7389ooeg","pricing_plan_id":"cebpf4jnsgd1na2vs0mg"},{"bike_id":"19c9b524-76f1-4e5d-8be9-000b11a19079","system_id":"levelo_inurba_marseille","lat":43.25071,"lon":5.38898,"is_reserved":false,"is_disabled":false,"rental_uris":{"android":"levelo://app?vid=19c9b524-76f1-4e5d-8be9-000b11a19079","ios":"levelo://app?vid=19c9b524-76f1-4e5d-8be9-000b11a19079"},"vehicle_type_id":"4","last_reported":1769303152,"current_range_meters":4000,"station_id":"ce4bhgp2rcd13ifvqfd0","pricing_plan_id":"cebpf4jnsgd1na2vs0mg"},{"bike_id":"10c585ec-0d69-49bc-a403-a71e7446105a","system_id":"levelo_inurba_marseille","lat":43.24934,"lon":5.39694,"is_reserved":false,"is_disabled":false,"rental_uris":{"android":"levelo://app?vid=10c585ec-0d69-49bc-a403-a71e7446105a","ios":"levelo://app?vid=10c585ec-0d69-49bc-a403-a71e7446105a"},"vehicle_type_id":"4","last_reported":1769303152,"current_range_meters":4000,"station_id":"","pricing_plan_id":"cebpf4jnsgd1na2vs0mg"},{"bike_id":"f95f1b41-c459-4716-90e0-3945d441d261","system_id":"levelo_inurba_marseille","lat":43.29707,"lon":5.36611,"is_reserved":false,"is_disabled":false,"rental_uris":{"android":"levelo://app?vid=f95f1b41-c459-4716-90e0-3945d441d261","ios":"levelo://app?vid=f95f1b41-c459-4716-90e0-3945d441d261"},"vehicle_type_id":"4","last_reported":1769303152,"current_range_meters":4000,"station_id":"ce4bgn12rcd13ifvqbt0","pricing_plan_id":"cebpf4jnsgd1na2vs0mg"},{"bike_id":"8f72bfe4-ee21-4ee8-b70c-bdb39befee0d","system_id":"levelo_inurba_marseille","lat":43.2532,"lon":5.42156,"is_reserved":false,"is_disabled":false,"rental_uris":{"android":"levelo://app?vid=8f72bfe4-ee21-4ee8-b70c-bdb39befee0d","ios":"levelo://app?vid=8f72bfe4-ee21-4ee8-b70c-bdb39befee0d"},"vehicle_type_id":"4","last_reported":1769303152,"current_range_meters":4000,"station_id":"st_d2m65c5bi1j21697t3ng","pricing_plan_id":"cebpf4jnsgd1na2vs0mg"},{"bike_id":"671fa286-6452-40eb-8362-646a47a4999e","system_id":"levelo_inurba_marseille","lat":43.30395,"lon":5.39801,"is_reserved":false,"is_disabled":false,"rental_uris":{"android":"levelo://app?vid=671fa286-6452-40eb-8362-646a47a4999e","ios":"levelo://app?vid=671fa286-6452-40eb-8362-646a47a4999e"},"vehicle_type_id":"4","last_reported":1769303152,"current_range_meters":4000,"station_id":"ce4bh092rcd13ifvqd20","pricing_plan_id":"cebpf4jnsgd1na2vs0mg"},{"bike_id":"c6d7d6a7-9942-4d20-b186-d739489af7b7","system_id":"levelo_inurba_marseille","lat":43.29539,"lon":5.37514,"is_reserved":false,"is_disabled":false,"rental_uris":{"android":"levelo://app?vid=c6d7d6a7-9942-4d20-b186-d739489af7b7","ios":"levelo://app?vid=c6d7d6a7-9942-4d20-b186-d739489af7b7"},"vehicle_type_id":"4","last_reported":1769303152,"current_range_meters":4000,"station_id":"ce4bgkp2rcd13ifvqbmg","pricing_plan_id":"cebpf4jnsgd1na2vs0mg"},{"bike_id":"1ee07084-a0a9-43af-bdb4-955f248e5678","system_id":"levelo_inurba_marseille","lat":43.28388,"lon":5.387533,"is_reserved":false,"is_disabled":false,"rental_uris":{"android":"levelo://app?vid=1ee07084-a0a9-43af-bdb4-955f248e5678","ios":"levelo://app?vid=1ee07084-a0a9-43af-bdb4-955f248e5678"},"vehicle_type_id":"4","last_reported":1769303152,"current_range_meters":4000,"station_id":"","pricing_plan_id":"cebpf4jnsgd1na2vs0mg"},{"bike_id":"16525725-a4c4-4bd9-9925-eb9b950936aa","system_id":"levelo_inurba_marseille","lat":43.26908,"lon":5.39086,"is_reserved":false,"is_disabled":false,"rental_uris":{"android":"levelo://app?vid=16525725-a4c4-4bd9-9925-eb9b950936aa","ios":"levelo://app?vid=16525725-a4c4-4bd9-9925-eb9b950936aa"},"vehicle_type_id":"4","last_reported":1769303152,"current_range_meters":4000,"station_id":"","pricing_plan_id":"cebpf4jnsgd1na2vs0mg"},{"bike_id":"9297f7e5-c509-4aa5-8a02-80ee973c4bfa","system_id":"levelo_inurba_marseille","lat":43.29251,"lon":5.40897,"is_reserved":false,"is_disabled":false,"rental_uris":{"android":"levelo://app?vid=9297f7e5-c509-4aa5-8a02-80ee973c4bfa","ios":"levelo://app?vid=9297f7e5-c509-4aa5-8a02-80ee973c4bfa"},"vehicle_type_id":"4","last_reported":1769303152,"current_range_meters":4000,"station_id":"ce4bh192rcd13ifvqdc0","pricing_plan_id":"cebpf4jnsgd1na2vs0mg"},{"bike_id":"514778f3-cb3c-44e7-bfaa-f93fb491b5fc","system_id":"levelo_inurba_marseille","lat":43.25011,"lon":5.38919,"is_reserved":false,"is_disabled":false,"rental_uris":{"android":"levelo://app?vid=514778f3-cb3c-44e7-bfaa-f93fb491b5fc","ios":"levelo://app?vid=514778f3-cb3c-44e7-bfaa-f93fb491b5fc"},"vehicle_type_id":"4","last_reported":1769303152,"current_range_meters":4000,"station_id":"ce4bhgp2rcd13ifvqfd0","pricing_plan_id":"cebpf4jnsgd1na2vs0mg"},{"bike_id":"2925dd98-a61d-4832-85c4-5f2fb9cfdfdc","system_id":"levelo_inurba_marseille","lat":43.23968,"lon":5.36632,"is_reserved":false,"is_disabled":false,"rental_uris":{"android":"levelo://app?vid=2925dd98-a61d-4832-85c4-5f2fb9cfdfdc","ios":"levelo://app?vid=2925dd98-a61d-4832-85c4-5f2fb9cfdfdc"},"vehicle_type_id":"4","last_reported":1769303152,"current_range_meters":4000,"station_id":"ce4bhi12rcd13ifvqfp0","pricing_plan_id":"cebpf4jnsgd1na2vs0mg"},{"bike_id":"10dac023-1f57-4156-9f51-509fc0ece804","system_id":"levelo_inurba_marseille","lat":43.29026,"lon":5.38642,"is_reserved":false,"is_disabled":false,"rental_uris":{"android":"levelo://app?vid=10dac023-1f57-4156-9f51-509fc0ece804","ios":"levelo://app?vid=10dac023-1f57-4156-9f51-509fc0ece804"},"vehicle_type_id":"4","last_reported":1769303152,"current_range_meters":4000,"station_id":"ce4bh4p2rcd13ifvqe0g","pricing_plan_id":"cebpf4jnsgd1na2vs0mg"},{"bike_id":"2e2ce66a-3f89-4c21-a9df-34056a5a5860","system_id":"levelo_inurba_marseille","lat":43.22557,"lon":5.41629,"is_reserved":false,"is_disabled":false,"rental_uris":{"android":"levelo://app?vid=2e2ce66a-3f89-4c21-a9df-34056a5a5860","ios":"levelo://app?vid=2e2ce66a-3f89-4c21-a9df-34056a5a5860"},"vehicle_type_id":"4","last_reported":1769303152,"current_range_meters":4000,"station_id":"st_d2o4gvlbi1j2169b742g","pricing_plan_id":"cebpf4jnsgd1na2vs0mg"},{"bike_id":"e4c4f5dd-c80d-4d75-801c-35c973416425","system_id":"levelo_inurba_marseille","lat":43.26554,"lon":5.37309,"is_reserved":false,"is_disabled":false,"rental_uris":{"android":"levelo://app?vid=e4c4f5dd-c80d-4d75-801c-35c973416425","ios":"levelo://app?vid=e4c4f5dd-c80d-4d75-801c-35c973416425"},"vehicle_type_id":"4","last_reported":1769303152,"current_range_meters":4400,"station_id":"ce4bhg12rcd13ifvqf70","pricing_plan_id":"cebpf4jnsgd1na2vs0mg"},{"bike_id":"0067e0af-5ba0-4b0d-a268-ed0ed9e19547","system_id":"levelo_inurba_marseille","lat":43.32373,"lon":5.36796,"is_reserved":false,"is_disabled":false,"rental_uris":{"android":"levelo://app?vid=0067e0af-5ba0-4b0d-a268-ed0ed9e19547","ios":"levelo://app?vid=0067e0af-5ba0-4b0d-a268-ed0ed9e19547"},"vehicle_type_id":"4","last_reported":1769303152,"current_range_meters":4400,"station_id":"ce4bhsh2rcd13ifvqi2g","pricing_plan_id":"cebpf4jnsgd1na2vs0mg"},{"bike_id":"c161d157-674a-4fd5-8353-2f0f94b95e06","system_id":"levelo_inurba_marseille","lat":43.31479,"lon":5.3731,"is_reserved":false,"is_disabled":false,"rental_uris":{"android":"levelo://app?vid=c161d157-674a-4fd5-8353-2f0f94b95e06","ios":"levelo://app?vid=c161d157-674a-4fd5-8353-2f0f94b95e06"},"vehicle_type_id":"4","last_reported":1769303152,"current_range_meters":4400,"station_id":"ce4bgt12rcd13ifvqcd0","pricing_plan_id":"cebpf4jnsgd1na2vs0mg"},{"bike_id":"4534a25f-d769-4b6a-a99f-4b2ed7669914","system_id":"levelo_inurba_marseille","lat":43.295249,"lon":5.390412,"is_reserved":false,"is_disabled":false,"rental_uris":{"android":"levelo://app?vid=4534a25f-d769-4b6a-a99f-4b2ed7669914","ios":"levelo://app?vid=4534a25f-d769-4b6a-a99f-4b2ed7669914"},"vehicle_type_id":"4","last_reported":1769303152,"current_range_meters":4400,"station_id":"","pricing_plan_id":"cebpf4jnsgd1na2vs0mg"},{"bike_id":"f9b330f3-188f-4241-b131-04d52afbc95a","system_id":"levelo_inurba_marseille","lat":43.317167,"lon":5.437101,"is_reserved":false,"is_disabled":false,"rental_uris":{"android":"levelo://app?vid=f9b330f3-188f-4241-b131-04d52afbc95a","ios":"levelo://app?vid=f9b330f3-188f-4241-b131-04d52afbc95a"},"vehicle_type_id":"4","last_reported":1769303152,"current_range_meters":4400,"station_id":"ce4bhp92rcd13ifvqhcg","pricing_plan_id":"cebpf4jnsgd1na2vs0mg"},{"bike_id":"8e10ca4a-d962-4318-8f21-9c292cae2aca","system_id":"levelo_inurba_marseille","lat":43.2417,"lon":5.36403,"is_reserved":false,"is_disabled":false,"rental_uris":{"android":"levelo://app?vid=8e10ca4a-d962-4318-8f21-9c292cae2aca","ios":"levelo://app?vid=8e10ca4a-d962-4318-8f21-9c292cae2aca"},"vehicle_type_id":"4","last_reported":1769303152,"current_range_meters":4400,"station_id":"cpo36qri1sfpv3e86is0","pricing_plan_id":"cebpf4jnsgd1na2vs0mg"},{"bike_id":"b019e1a9-e9bb-4a00-b8fa-7bb78b5700ac","system_id":"levelo_inurba_marseille","lat":43.32367,"lon":5.36729,"is_reserved":false,"is_disabled":false,"rental_uris":{"android":"levelo://app?vid=b019e1a9-e9bb-4a00-b8fa-7bb78b5700ac","ios":"levelo://app?vid=b019e1a9-e9bb-4a00-b8fa-7bb78b5700ac"},"vehicle_type_id":"4","last_reported":1769303152,"current_range_meters":4800,"station_id":"ce4bhsh2rcd13ifvqi2g","pricing_plan_id":"cebpf4jnsgd1na2vs0mg"},{"bike_id":"6252b5bc-7f21-4a5c-90b2-fb54de33b122","system_id":"levelo_inurba_marseille","lat":43.24432,"lon":5.37034,"is_reserved":false,"is_disabled":false,"rental_uris":{"android":"levelo://app?vid=6252b5bc-7f21-4a5c-90b2-fb54de33b122","ios":"levelo://app?vid=6252b5bc-7f21-4a5c-90b2-fb54de33b122"},"vehicle_type_id":"4","last_reported":1769303152,"current_range_meters":4800,"station_id":"ce4bhhh2rcd13ifvqfk0","pricing_plan_id":"cebpf4jnsgd1na2vs0mg"},{"bike_id":"3dc327f4-e8d5-43a3-b4e6-944c33e6eea4","system_id":"levelo_inurba_marseille","lat":43.25557,"lon":5.38244,"is_reserved":false,"is_disabled":false,"rental_uris":{"android":"levelo://app?vid=3dc327f4-e8d5-43a3-b4e6-944c33e6eea4","ios":"levelo://app?vid=3dc327f4-e8d5-43a3-b4e6-944c33e6eea4"},"vehicle_type_id":"4","last_reported":1769303152,"current_range_meters":4800,"station_id":"ce4bhih2rcd13ifvqfs0","pricing_plan_id":"cebpf4jnsgd1na2vs0mg"},{"bike_id":"589eebb0-c0cf-4d19-afe3-eff9c648d5c0","system_id":"levelo_inurba_marseille","lat":43.26223,"lon":5.40459,"is_reserved":false,"is_disabled":false,"rental_uris":{"android":"levelo://app?vid=589eebb0-c0cf-4d19-afe3-eff9c648d5c0","ios":"levelo://app?vid=589eebb0-c0cf-4d19-afe3-eff9c648d5c0"},"vehicle_type_id":"4","last_reported":1769303152,"current_range_meters":4800,"station_id":"ce4bhmh2rcd13ifvqgmg","pricing_plan_id":"cebpf4jnsgd1na2vs0mg"},{"bike_id":"13641f28-c5ff-48ae-bd98-a147568d13d1","system_id":"levelo_inurba_marseille","lat":43.29023,"lon":5.3755,"is_reserved":false,"is_disabled":false,"rental_uris":{"android":"levelo://app?vid=13641f28-c5ff-48ae-bd98-a147568d13d1","ios":"levelo://app?vid=13641f28-c5ff-48ae-bd98-a147568d13d1"},"vehicle_type_id":"4","last_reported":1769303152,"current_range_meters":4800,"station_id":"ce4bh692rcd13ifvqe90","pricing_plan_id":"cebpf4jnsgd1na2vs0mg"},{"bike_id":"1aff2028-b8ee-49b2-b0a1-7896a3df4ba0","system_id":"levelo_inurba_marseille","lat":43.31281,"lon":5.40167,"is_reserved":false,"is_disabled":false,"rental_uris":{"android":"levelo://app?vid=1aff2028-b8ee-49b2-b0a1-7896a3df4ba0","ios":"levelo://app?vid=1aff2028-b8ee-49b2-b0a1-7896a3df4ba0"},"vehicle_type_id":"4","last_reported":1769303152,"current_range_meters":4800,"station_id":"ce4bh092rcd13ifvqd30","pricing_plan_id":"cebpf4jnsgd1na2vs0mg"},{"bike_id":"532e07ca-6ffb-4fb1-85b2-a4e5dabd1b17","system_id":"levelo_inurba_marseille","lat":43.2408,"lon":5.37681,"is_reserved":false,"is_disabled":true,"rental_uris":{"android":"levelo://app?vid=532e07ca-6ffb-4fb1-85b2-a4e5dabd1b17","ios":"levelo://app?vid=532e07ca-6ffb-4fb1-85b2-a4e5dabd1b17"},"vehicle_type_id":"4","last_reported":1769303152,"current_range_meters":4800,"station_id":"ce4bhnp2rcd13ifvqgvg","pricing_plan_id":"cebpf4jnsgd1na2vs0mg"},{"bike_id":"e1d27491-b72b-4ef0-a0bb-689c46d99a28","system_id":"levelo_inurba_marseille","lat":43.284749,"lon":5.483959,"is_reserved":false,"is_disabled":false,"rental_uris":{"android":"levelo://app?vid=e1d27491-b72b-4ef0-a0bb-689c46d99a28","ios":"levelo://app?vid=e1d27491-b72b-4ef0-a0bb-689c46d99a28"},"vehicle_type_id":"4","last_reported":1769303152,"current_range_meters":4800,"station_id":"","pricing_plan_id":"cebpf4jnsgd1na2vs0mg"},{"bike_id":"478d0946-d2b1-482f-ac5e-d37a7c92584b","system_id":"levelo_inurba_marseille","lat":43.22527,"lon":5.34818,"is_reserved":false,"is_disabled":false,"rental_uris":{"android":"levelo://app?vid=478d0946-d2b1-482f-ac5e-d37a7c92584b","ios":"levelo://app?vid=478d0946-d2b1-482f-ac5e-d37a7c92584b"},"vehicle_type_id":"4","last_reported":1769303152,"current_range_meters":4800,"station_id":"st_cvj5dfep6f1abm77gieg","pricing_plan_id":"cebpf4jnsgd1na2vs0mg"},{"bike_id":"424d688c-c8b8-4626-a702-361ed2d6a67f","system_id":"levelo_inurba_marseille","lat":43.29607,"lon":5.37687,"is_reserved":false,"is_disabled":false,"rental_uris":{"android":"levelo://app?vid=424d688c-c8b8-4626-a702-361ed2d6a67f","ios":"levelo://app?vid=424d688c-c8b8-4626-a702-361ed2d6a67f"},"vehicle_type_id":"4","last_reported":1769303152,"current_range_meters":4800,"station_id":"ce4bgi92rcd13ifvqb90","pricing_plan_id":"cebpf4jnsgd1na2vs0mg"},{"bike_id":"54247625-5421-4985-8cfb-4f29ba1ac252","system_id":"levelo_inurba_marseille","lat":43.31697,"lon":5.37609,"is_reserved":false,"is_disabled":false,"rental_uris":{"android":"levelo://app?vid=54247625-5421-4985-8cfb-4f29ba1ac252","ios":"levelo://app?vid=54247625-5421-4985-8cfb-4f29ba1ac252"},"vehicle_type_id":"4","last_reported":1769303152,"current_range_meters":4800,"station_id":"","pricing_plan_id":"cebpf4jnsgd1na2vs0mg"},{"bike_id":"7a1b6b69-5f61-4e11-91d3-12cf02858ca8","system_id":"levelo_inurba_marseille","lat":43.24509,"lon":5.37031,"is_reserved":false,"is_disabled":false,"rental_uris":{"android":"levelo://app?vid=7a1b6b69-5f61-4e11-91d3-12cf02858ca8","ios":"levelo://app?vid=7a1b6b69-5f61-4e11-91d3-12cf02858ca8"},"vehicle_type_id":"4","last_reported":1769303152,"current_range_meters":5600,"station_id":"","pricing_plan_id":"cebpf4jnsgd1na2vs0mg"},{"bike_id":"f50ab09b-5d0e-47a7-a8be-db0e252af394","system_id":"levelo_inurba_marseille","lat":43.22552,"lon":5.41636,"is_reserved":false,"is_disabled":false,"rental_uris":{"android":"levelo://app?vid=f50ab09b-5d0e-47a7-a8be-db0e252af394","ios":"levelo://app?vid=f50ab09b-5d0e-47a7-a8be-db0e252af394"},"vehicle_type_id":"4","last_reported":1769303152,"current_range_meters":5600,"station_id":"st_d2o4gvlbi1j2169b742g","pricing_plan_id":"cebpf4jnsgd1na2vs0mg"},{"bike_id":"ae71a52e-3d46-4289-a470-4e64eab9ff51","system_id":"levelo_inurba_marseille","lat":43.285322,"lon":5.440946,"is_reserved":false,"is_disabled":false,"rental_uris":{"android":"levelo://app?vid=ae71a52e-3d46-4289-a470-4e64eab9ff51","ios":"levelo://app?vid=ae71a52e-3d46-4289-a470-4e64eab9ff51"},"vehicle_type_id":"4","last_reported":1769303152,"current_range_meters":5600,"station_id":"st_d3j3df2ikq2c7380ej80","pricing_plan_id":"cebpf4jnsgd1na2vs0mg"},{"bike_id":"110848e0-ebb7-47d8-b578-622bfd506d04","system_id":"levelo_inurba_marseille","lat":43.309397,"lon":5.390433,"is_reserved":false,"is_disabled":false,"rental_uris":{"android":"levelo://app?vid=110848e0-ebb7-47d8-b578-622bfd506d04","ios":"levelo://app?vid=110848e0-ebb7-47d8-b578-622bfd506d04"},"vehicle_type_id":"4","last_reported":1769303152,"current_range_meters":5600,"station_id":"ce4bgup2rcd13ifvqco0","pricing_plan_id":"cebpf4jnsgd1na2vs0mg"},{"bike_id":"d2d53e0f-af2d-4a18-8781-8f93386bbf13","system_id":"levelo_inurba_marseille","lat":43.29567,"lon":5.37526,"is_reserved":false,"is_disabled":false,"rental_uris":{"android":"levelo://app?vid=d2d53e0f-af2d-4a18-8781-8f93386bbf13","ios":"levelo://app?vid=d2d53e0f-af2d-4a18-8781-8f93386bbf13"},"vehicle_type_id":"4","last_reported":1769303152,"current_range_meters":5600,"station_id":"ce4bgh92rcd13ifvqb50","pricing_plan_id":"cebpf4jnsgd1na2vs0mg"},{"bike_id":"5c44d9da-a9f7-4333-ab1c-8bd91f24f729","system_id":"levelo_inurba_marseille","lat":43.22554,"lon":5.41634,"is_reserved":false,"is_disabled":false,"rental_uris":{"android":"levelo://app?vid=5c44d9da-a9f7-4333-ab1c-8bd91f24f729","ios":"levelo://app?vid=5c44d9da-a9f7-4333-ab1c-8bd91f24f729"},"vehicle_type_id":"4","last_reported":1769303152,"current_range_meters":5600,"station_id":"st_d2o4gvlbi1j2169b742g","pricing_plan_id":"cebpf4jnsgd1na2vs0mg"},{"bike_id":"f0932922-1558-42f5-b099-f45ad080f453","system_id":"levelo_inurba_marseille","lat":43.25576,"lon":5.38251,"is_reserved":false,"is_disabled":false,"rental_uris":{"android":"levelo://app?vid=f0932922-1558-42f5-b099-f45ad080f453","ios":"levelo://app?vid=f0932922-1558-42f5-b099-f45ad080f453"},"vehicle_type_id":"4","last_reported":1769303152,"current_range_meters":5600,"station_id":"ce4bhih2rcd13ifvqfs0","pricing_plan_id":"cebpf4jnsgd1na2vs0mg"},{"bike_id":"60bef872-05bf-4251-9fbb-5033acce15f9","system_id":"levelo_inurba_marseille","lat":43.27838,"lon":5.39193,"is_reserved":false,"is_disabled":false,"rental_uris":{"android":"levelo://app?vid=60bef872-05bf-4251-9fbb-5033acce15f9","ios":"levelo://app?vid=60bef872-05bf-4251-9fbb-5033acce15f9"},"vehicle_type_id":"4","last_reported":1769303152,"current_range_meters":5600,"station_id":"ce4bhjp2rcd13ifvqga0","pricing_plan_id":"cebpf4jnsgd1na2vs0mg"},{"bike_id":"335214f1-f886-4643-b4c8-2a285ebc7245","system_id":"levelo_inurba_marseille","lat":43.29793,"lon":5.40416,"is_reserved":false,"is_disabled":false,"rental_uris":{"android":"levelo://app?vid=335214f1-f886-4643-b4c8-2a285ebc7245","ios":"levelo://app?vid=335214f1-f886-4643-b4c8-2a285ebc7245"},"vehicle_type_id":"4","last_reported":1769303152,"current_range_meters":6000,"station_id":"ce4bh112rcd13ifvqd90","pricing_plan_id":"cebpf4jnsgd1na2vs0mg"},{"bike_id":"33375b7b-1d58-47f3-81bb-abd7d093dc69","system_id":"levelo_inurba_marseille","lat":43.29594,"lon":5.37732,"is_reserved":false,"is_disabled":false,"rental_uris":{"android":"levelo://app?vid=33375b7b-1d58-47f3-81bb-abd7d093dc69","ios":"levelo://app?vid=33375b7b-1d58-47f3-81bb-abd7d093dc69"},"vehicle_type_id":"4","last_reported":1769303152,"current_range_meters":6000,"station_id":"ce4bgi92rcd13ifvqb90","pricing_plan_id":"cebpf4jnsgd1na2vs0mg"},{"bike_id":"fd9b2d1b-cdfa-4bcd-a2db-0d90de0d6b64","system_id":"levelo_inurba_marseille","lat":43.23149,"lon":5.43723,"is_reserved":false,"is_disabled":false,"rental_uris":{"android":"levelo://app?vid=fd9b2d1b-cdfa-4bcd-a2db-0d90de0d6b64","ios":"levelo://app?vid=fd9b2d1b-cdfa-4bcd-a2db-0d90de0d6b64"},"vehicle_type_id":"4","last_reported":1769303152,"current_range_meters":6000,"station_id":"ce4bhmp2rcd13ifvqgog","pricing_plan_id":"cebpf4jnsgd1na2vs0mg"},{"bike_id":"ad323744-06fd-45f0-8106-c7e6ac5566c6","system_id":"levelo_inurba_marseille","lat":43.295527,"lon":5.422914,"is_reserved":false,"is_disabled":false,"rental_uris":{"android":"levelo://app?vid=ad323744-06fd-45f0-8106-c7e6ac5566c6","ios":"levelo://app?vid=ad323744-06fd-45f0-8106-c7e6ac5566c6"},"vehicle_type_id":"4","last_reported":1769303152,"current_range_meters":6000,"station_id":"ce4bhph2rcd13ifvqhdg","pricing_plan_id":"cebpf4jnsgd1na2vs0mg"},{"bike_id":"89d2f176-9210-47d4-8e8a-9009973231fc","system_id":"levelo_inurba_marseille","lat":43.31372,"lon":5.36719,"is_reserved":false,"is_disabled":false,"rental_uris":{"android":"levelo://app?vid=89d2f176-9210-47d4-8e8a-9009973231fc","ios":"levelo://app?vid=89d2f176-9210-47d4-8e8a-9009973231fc"},"vehicle_type_id":"4","last_reported":1769303152,"current_range_meters":6000,"station_id":"ce4bgr92rcd13ifvqc6g","pricing_plan_id":"cebpf4jnsgd1na2vs0mg"},{"bike_id":"819d554d-33ee-4abe-894a-dc86ff277d52","system_id":"levelo_inurba_marseille","lat":43.22931,"lon":5.35372,"is_reserved":false,"is_disabled":false,"rental_uris":{"android":"levelo://app?vid=819d554d-33ee-4abe-894a-dc86ff277d52","ios":"levelo://app?vid=819d554d-33ee-4abe-894a-dc86ff277d52"},"vehicle_type_id":"4","last_reported":1769303152,"current_range_meters":6000,"station_id":"cpo3532slgdg3j2ikp40","pricing_plan_id":"cebpf4jnsgd1na2vs0mg"},{"bike_id":"5b91b93d-b3ae-4751-8498-b1dabc506a1f","system_id":"levelo_inurba_marseille","lat":43.24473,"lon":5.425332,"is_reserved":false,"is_disabled":false,"rental_uris":{"android":"levelo://app?vid=5b91b93d-b3ae-4751-8498-b1dabc506a1f","ios":"levelo://app?vid=5b91b93d-b3ae-4751-8498-b1dabc506a1f"},"vehicle_type_id":"4","last_reported":1769303152,"current_range_meters":6000,"station_id":"st_d4a3vfp97mjs738cd8kg","pricing_plan_id":"cebpf4jnsgd1na2vs0mg"},{"bike_id":"a15856db-9ac7-49b1-8876-30be7c45105f","system_id":"levelo_inurba_marseille","lat":43.24999,"lon":5.38943,"is_reserved":false,"is_disabled":false,"rental_uris":{"android":"levelo://app?vid=a15856db-9ac7-49b1-8876-30be7c45105f","ios":"levelo://app?vid=a15856db-9ac7-49b1-8876-30be7c45105f"},"vehicle_type_id":"4","last_reported":1769303152,"current_range_meters":6000,"station_id":"ce4bhgp2rcd13ifvqfd0","pricing_plan_id":"cebpf4jnsgd1na2vs0mg"},{"bike_id":"faa8663e-e142-45fc-9484-7a181dc4e401","system_id":"levelo_inurba_marseille","lat":43.27496,"lon":5.42452,"is_reserved":false,"is_disabled":false,"rental_uris":{"android":"levelo://app?vid=faa8663e-e142-45fc-9484-7a181dc4e401","ios":"levelo://app?vid=faa8663e-e142-45fc-9484-7a181dc4e401"},"vehicle_type_id":"4","last_reported":1769303152,"current_range_meters":6000,"station_id":"ce4bhn92rcd13ifvqgrg","pricing_plan_id":"cebpf4jnsgd1na2vs0mg"},{"bike_id":"b1b24ff6-a16a-49d4-8c80-da38825e8615","system_id":"levelo_inurba_marseille","lat":43.24389,"lon":5.37045,"is_reserved":false,"is_disabled":false,"rental_uris":{"android":"levelo://app?vid=b1b24ff6-a16a-49d4-8c80-da38825e8615","ios":"levelo://app?vid=b1b24ff6-a16a-49d4-8c80-da38825e8615"},"vehicle_type_id":"4","last_reported":1769303152,"current_range_meters":6000,"station_id":"ce4bhhh2rcd13ifvqfk0","pricing_plan_id":"cebpf4jnsgd1na2vs0mg"},{"bike_id":"a8902eb9-1e79-43bf-8303-145a87f0ae15","system_id":"levelo_inurba_marseille","lat":43.21743,"lon":5.34592,"is_reserved":false,"is_disabled":false,"rental_uris":{"android":"levelo://app?vid=a8902eb9-1e79-43bf-8303-145a87f0ae15","ios":"levelo://app?vid=a8902eb9-1e79-43bf-8303-145a87f0ae15"},"vehicle_type_id":"4","last_reported":1769303152,"current_range_meters":6000,"station_id":"st_cvj6r9ubvosntc0bgbag","pricing_plan_id":"cebpf4jnsgd1na2vs0mg"},{"bike_id":"e30305e0-1f67-4ff0-8a62-9b963fcf1b1d","system_id":"levelo_inurba_marseille","lat":43.30903,"lon":5.39631,"is_reserved":false,"is_disabled":false,"rental_uris":{"android":"levelo://app?vid=e30305e0-1f67-4ff0-8a62-9b963fcf1b1d","ios":"levelo://app?vid=e30305e0-1f67-4ff0-8a62-9b963fcf1b1d"},"vehicle_type_id":"4","last_reported":1769303152,"current_range_meters":6000,"station_id":"ce4bh012rcd13ifvqcv0","pricing_plan_id":"cebpf4jnsgd1na2vs0mg"},{"bike_id":"035ecca2-c8de-445b-ac9b-46e39ce6ca6a","system_id":"levelo_inurba_marseille","lat":43.31419,"lon":5.39296,"is_reserved":false,"is_disabled":false,"rental_uris":{"android":"levelo://app?vid=035ecca2-c8de-445b-ac9b-46e39ce6ca6a","ios":"levelo://app?vid=035ecca2-c8de-445b-ac9b-46e39ce6ca6a"},"vehicle_type_id":"4","last_reported":1769303152,"current_range_meters":6000,"station_id":"","pricing_plan_id":"cebpf4jnsgd1na2vs0mg"},{"bike_id":"903ed6fb-e30d-426f-a862-93953b3b0883","system_id":"levelo_inurba_marseille","lat":43.32329,"lon":5.36722,"is_reserved":false,"is_disabled":false,"rental_uris":{"android":"levelo://app?vid=903ed6fb-e30d-426f-a862-93953b3b0883","ios":"levelo://app?vid=903ed6fb-e30d-426f-a862-93953b3b0883"},"vehicle_type_id":"4","last_reported":1769303152,"current_range_meters":6400,"station_id":"ce4bhsh2rcd13ifvqi2g","pricing_plan_id":"cebpf4jnsgd1na2vs0mg"},{"bike_id":"9af51f60-0147-47d1-9c59-680e0d02c35a","system_id":"levelo_inurba_marseille","lat":43.21744,"lon":5.34625,"is_reserved":false,"is_disabled":false,"rental_uris":{"android":"levelo://app?vid=9af51f60-0147-47d1-9c59-680e0d02c35a","ios":"levelo://app?vid=9af51f60-0147-47d1-9c59-680e0d02c35a"},"vehicle_type_id":"4","last_reported":1769303152,"current_range_meters":6400,"station_id":"st_cvj6r9ubvosntc0bgbag","pricing_plan_id":"cebpf4jnsgd1na2vs0mg"},{"bike_id":"3f444b80-42a5-44cb-ab46-d7a22aca5751","system_id":"levelo_inurba_marseille","lat":43.265537,"lon":5.37295,"is_reserved":false,"is_disabled":false,"rental_uris":{"android":"levelo://app?vid=3f444b80-42a5-44cb-ab46-d7a22aca5751","ios":"levelo://app?vid=3f444b80-42a5-44cb-ab46-d7a22aca5751"},"vehicle_type_id":"4","last_reported":1769303152,"current_range_meters":6400,"station_id":"ce4bhg12rcd13ifvqf70","pricing_plan_id":"cebpf4jnsgd1na2vs0mg"},{"bike_id":"49208718-4763-495e-944d-0d3acc9a003f","system_id":"levelo_inurba_marseille","lat":43.288645,"lon":5.425122,"is_reserved":false,"is_disabled":false,"rental_uris":{"android":"levelo://app?vid=49208718-4763-495e-944d-0d3acc9a003f","ios":"levelo://app?vid=49208718-4763-495e-944d-0d3acc9a003f"},"vehicle_type_id":"4","last_reported":1769303152,"current_range_meters":6400,"station_id":"st_d3b462108ojc7389ooeg","pricing_plan_id":"cebpf4jnsgd1na2vs0mg"},{"bike_id":"9f3c3c2b-e4a8-4bfd-9222-bbcb11a650e6","system_id":"levelo_inurba_marseille","lat":43.30563,"lon":5.36556,"is_reserved":false,"is_disabled":false,"rental_uris":{"android":"levelo://app?vid=9f3c3c2b-e4a8-4bfd-9222-bbcb11a650e6","ios":"levelo://app?vid=9f3c3c2b-e4a8-4bfd-9222-bbcb11a650e6"},"vehicle_type_id":"4","last_reported":1769303152,"current_range_meters":6400,"station_id":"ce4bgs12rcd13ifvqcag","pricing_plan_id":"cebpf4jnsgd1na2vs0mg"},{"bike_id":"dc3bd017-a36c-437c-a91a-6cab42202242","system_id":"levelo_inurba_marseille","lat":43.28539,"lon":5.44102,"is_reserved":false,"is_disabled":false,"rental_uris":{"android":"levelo://app?vid=dc3bd017-a36c-437c-a91a-6cab42202242","ios":"levelo://app?vid=dc3bd017-a36c-437c-a91a-6cab42202242"},"vehicle_type_id":"4","last_reported":1769303152,"current_range_meters":6400,"station_id":"st_d3j3df2ikq2c7380ej80","pricing_plan_id":"cebpf4jnsgd1na2vs0mg"},{"bike_id":"c7bb1e75-854e-4b91-9eb4-49c4f9db6d4d","system_id":"levelo_inurba_marseille","lat":43.24957,"lon":5.40479,"is_reserved":false,"is_disabled":false,"rental_uris":{"android":"levelo://app?vid=c7bb1e75-854e-4b91-9eb4-49c4f9db6d4d","ios":"levelo://app?vid=c7bb1e75-854e-4b91-9eb4-49c4f9db6d4d"},"vehicle_type_id":"4","last_reported":1769303152,"current_range_meters":6400,"station_id":"st_d2ngiaodas8pm72gd1h0","pricing_plan_id":"cebpf4jnsgd1na2vs0mg"},{"bike_id":"86f63ab3-e846-4448-8035-b7a7a841c9c4","system_id":"levelo_inurba_marseille","lat":43.28655,"lon":5.3752,"is_reserved":false,"is_disabled":false,"rental_uris":{"android":"levelo://app?vid=86f63ab3-e846-4448-8035-b7a7a841c9c4","ios":"levelo://app?vid=86f63ab3-e846-4448-8035-b7a7a841c9c4"},"vehicle_type_id":"4","last_reported":1769303152,"current_range_meters":6400,"station_id":"","pricing_plan_id":"cebpf4jnsgd1na2vs0mg"},{"bike_id":"387d7740-676c-4cd2-8a5d-59752e7e6b9b","system_id":"levelo_inurba_marseille","lat":43.26413,"lon":5.41041,"is_reserved":false,"is_disabled":false,"rental_uris":{"android":"levelo://app?vid=387d7740-676c-4cd2-8a5d-59752e7e6b9b","ios":"levelo://app?vid=387d7740-676c-4cd2-8a5d-59752e7e6b9b"},"vehicle_type_id":"4","last_reported":1769303152,"current_range_meters":6400,"station_id":"st_d4e5ca6na9uc73bfl5fg","pricing_plan_id":"cebpf4jnsgd1na2vs0mg"},{"bike_id":"a167fc36-815e-4f2a-8af3-7ab5222499ca","system_id":"levelo_inurba_marseille","lat":43.24168,"lon":5.36398,"is_reserved":false,"is_disabled":false,"rental_uris":{"android":"levelo://app?vid=a167fc36-815e-4f2a-8af3-7ab5222499ca","ios":"levelo://app?vid=a167fc36-815e-4f2a-8af3-7ab5222499ca"},"vehicle_type_id":"4","last_reported":1769303152,"current_range_meters":6400,"station_id":"cpo36qri1sfpv3e86is0","pricing_plan_id":"cebpf4jnsgd1na2vs0mg"},{"bike_id":"fe6247c0-8b4c-45a3-872a-698b7c53d002","system_id":"levelo_inurba_marseille","lat":43.29629,"lon":5.37164,"is_reserved":false,"is_disabled":false,"rental_uris":{"android":"levelo://app?vid=fe6247c0-8b4c-45a3-872a-698b7c53d002","ios":"levelo://app?vid=fe6247c0-8b4c-45a3-872a-698b7c53d002"},"vehicle_type_id":"4","last_reported":1769303152,"current_range_meters":6400,"station_id":"ce4bgnh2rcd13ifvqc0g","pricing_plan_id":"cebpf4jnsgd1na2vs0mg"},{"bike_id":"0ca50414-b22f-4e75-aa54-cfd808d06083","system_id":"levelo_inurba_marseille","lat":43.33146,"lon":5.37707,"is_reserved":false,"is_disabled":false,"rental_uris":{"android":"levelo://app?vid=0ca50414-b22f-4e75-aa54-cfd808d06083","ios":"levelo://app?vid=0ca50414-b22f-4e75-aa54-cfd808d06083"},"vehicle_type_id":"4","last_reported":1769303152,"current_range_meters":6400,"station_id":"st_d46cu089ee8s73dldbu0","pricing_plan_id":"cebpf4jnsgd1na2vs0mg"},{"bike_id":"461590ec-e40b-4152-9dae-8f948fb069ad","system_id":"levelo_inurba_marseille","lat":43.295313,"lon":5.375139,"is_reserved":false,"is_disabled":false,"rental_uris":{"android":"levelo://app?vid=461590ec-e40b-4152-9dae-8f948fb069ad","ios":"levelo://app?vid=461590ec-e40b-4152-9dae-8f948fb069ad"},"vehicle_type_id":"4","last_reported":1769303152,"current_range_meters":6400,"station_id":"ce4bgkp2rcd13ifvqbmg","pricing_plan_id":"cebpf4jnsgd1na2vs0mg"},{"bike_id":"00da3708-e459-4447-91e4-64d1b9a20866","system_id":"levelo_inurba_marseille","lat":43.28254,"lon":5.35056,"is_reserved":false,"is_disabled":false,"rental_uris":{"android":"levelo://app?vid=00da3708-e459-4447-91e4-64d1b9a20866","ios":"levelo://app?vid=00da3708-e459-4447-91e4-64d1b9a20866"},"vehicle_type_id":"4","last_reported":1769303152,"current_range_meters":6400,"station_id":"ce4bhbp2rcd13ifvqerg","pricing_plan_id":"cebpf4jnsgd1na2vs0mg"},{"bike_id":"42a9072c-20ae-4f3e-9a38-771201cc3731","system_id":"levelo_inurba_marseille","lat":43.26551,"lon":5.37311,"is_reserved":false,"is_disabled":false,"rental_uris":{"android":"levelo://app?vid=42a9072c-20ae-4f3e-9a38-771201cc3731","ios":"levelo://app?vid=42a9072c-20ae-4f3e-9a38-771201cc3731"},"vehicle_type_id":"4","last_reported":1769303152,"current_range_meters":6800,"station_id":"ce4bhg12rcd13ifvqf70","pricing_plan_id":"cebpf4jnsgd1na2vs0mg"},{"bike_id":"d3809040-335d-41e0-882d-c4069e0593d6","system_id":"levelo_inurba_marseille","lat":43.26219,"lon":5.37444,"is_reserved":false,"is_disabled":false,"rental_uris":{"android":"levelo://app?vid=d3809040-335d-41e0-882d-c4069e0593d6","ios":"levelo://app?vid=d3809040-335d-41e0-882d-c4069e0593d6"},"vehicle_type_id":"4","last_reported":1769303152,"current_range_meters":6800,"station_id":"ce4bhgp2rcd13ifvqfc0","pricing_plan_id":"cebpf4jnsgd1na2vs0mg"},{"bike_id":"955b7b58-85d0-4b70-9dc4-029feb0cc2bd","system_id":"levelo_inurba_marseille","lat":43.297048,"lon":5.366266,"is_reserved":false,"is_disabled":false,"rental_uris":{"android":"levelo://app?vid=955b7b58-85d0-4b70-9dc4-029feb0cc2bd","ios":"levelo://app?vid=955b7b58-85d0-4b70-9dc4-029feb0cc2bd"},"vehicle_type_id":"4","last_reported":1769303152,"current_range_meters":6800,"station_id":"ce4bgn12rcd13ifvqbt0","pricing_plan_id":"cebpf4jnsgd1na2vs0mg"},{"bike_id":"c4b9fb50-c1c1-45e2-a420-d27b5fd55927","system_id":"levelo_inurba_marseille","lat":43.23183,"lon":5.39977,"is_reserved":false,"is_disabled":false,"rental_uris":{"android":"levelo://app?vid=c4b9fb50-c1c1-45e2-a420-d27b5fd55927","ios":"levelo://app?vid=c4b9fb50-c1c1-45e2-a420-d27b5fd55927"},"vehicle_type_id":"4","last_reported":1769303152,"current_range_meters":6800,"station_id":"ce4bhn12rcd13ifvqgqg","pricing_plan_id":"cebpf4jnsgd1na2vs0mg"},{"bike_id":"2762ef31-30af-4622-8a7b-f8bc59330d3d","system_id":"levelo_inurba_marseille","lat":43.30201,"lon":5.37441,"is_reserved":false,"is_disabled":false,"rental_uris":{"android":"levelo://app?vid=2762ef31-30af-4622-8a7b-f8bc59330d3d","ios":"levelo://app?vid=2762ef31-30af-4622-8a7b-f8bc59330d3d"},"vehicle_type_id":"4","last_reported":1769303152,"current_range_meters":6800,"station_id":"","pricing_plan_id":"cebpf4jnsgd1na2vs0mg"},{"bike_id":"695ba03e-aa60-4a16-ad44-0d1b43b21bd5","system_id":"levelo_inurba_marseille","lat":43.22578,"lon":5.41621,"is_reserved":false,"is_disabled":false,"rental_uris":{"android":"levelo://app?vid=695ba03e-aa60-4a16-ad44-0d1b43b21bd5","ios":"levelo://app?vid=695ba03e-aa60-4a16-ad44-0d1b43b21bd5"},"vehicle_type_id":"4","last_reported":1769303152,"current_range_meters":6800,"station_id":"st_d2o4gvlbi1j2169b742g","pricing_plan_id":"cebpf4jnsgd1na2vs0mg"},{"bike_id":"3b781fc0-785a-46db-80a2-c41d552c10df","system_id":"levelo_inurba_marseille","lat":43.23783,"lon":5.36634,"is_reserved":false,"is_disabled":false,"rental_uris":{"android":"levelo://app?vid=3b781fc0-785a-46db-80a2-c41d552c10df","ios":"levelo://app?vid=3b781fc0-785a-46db-80a2-c41d552c10df"},"vehicle_type_id":"4","last_reported":1769303152,"current_range_meters":6800,"station_id":"st_d3nk18o9ro0c73en2l3g","pricing_plan_id":"cebpf4jnsgd1na2vs0mg"},{"bike_id":"f5ac4918-0ec2-4761-b7b6-0929b50d8bfd","system_id":"levelo_inurba_marseille","lat":43.28472,"lon":5.48399,"is_reserved":false,"is_disabled":false,"rental_uris":{"android":"levelo://app?vid=f5ac4918-0ec2-4761-b7b6-0929b50d8bfd","ios":"levelo://app?vid=f5ac4918-0ec2-4761-b7b6-0929b50d8bfd"},"vehicle_type_id":"4","last_reported":1769303152,"current_range_meters":6800,"station_id":"st_d3svhcjqgbts73a3dn0g","pricing_plan_id":"cebpf4jnsgd1na2vs0mg"},{"bike_id":"58d2ae64-d77b-49b0-aa64-83302e76931b","system_id":"levelo_inurba_marseille","lat":43.24641,"lon":5.43149,"is_reserved":false,"is_disabled":false,"rental_uris":{"android":"levelo://app?vid=58d2ae64-d77b-49b0-aa64-83302e76931b","ios":"levelo://app?vid=58d2ae64-d77b-49b0-aa64-83302e76931b"},"vehicle_type_id":"4","last_reported":1769303152,"current_range_meters":6800,"station_id":"st_d2m6c4gdas8pm72e190g","pricing_plan_id":"cebpf4jnsgd1na2vs0mg"},{"bike_id":"810615af-4dfc-4ff9-8fd7-15ca4401249a","system_id":"levelo_inurba_marseille","lat":43.241785,"lon":5.397211,"is_reserved":false,"is_disabled":false,"rental_uris":{"android":"levelo://app?vid=810615af-4dfc-4ff9-8fd7-15ca4401249a","ios":"levelo://app?vid=810615af-4dfc-4ff9-8fd7-15ca4401249a"},"vehicle_type_id":"4","last_reported":1769303152,"current_range_meters":6800,"station_id":"ce4bhn12rcd13ifvqgpg","pricing_plan_id":"cebpf4jnsgd1na2vs0mg"},{"bike_id":"2866fb61-925b-47cb-ad30-ede99341e9de","system_id":"levelo_inurba_marseille","lat":43.24165,"lon":5.36404,"is_reserved":false,"is_disabled":false,"rental_uris":{"android":"levelo://app?vid=2866fb61-925b-47cb-ad30-ede99341e9de","ios":"levelo://app?vid=2866fb61-925b-47cb-ad30-ede99341e9de"},"vehicle_type_id":"4","last_reported":1769303152,"current_range_meters":6800,"station_id":"cpo36qri1sfpv3e86is0","pricing_plan_id":"cebpf4jnsgd1na2vs0mg"},{"bike_id":"40a3d8ce-9e0f-4525-b6d5-09da1e9b4b07","system_id":"levelo_inurba_marseille","lat":43.2314,"lon":5.43715,"is_reserved":false,"is_disabled":false,"rental_uris":{"android":"levelo://app?vid=40a3d8ce-9e0f-4525-b6d5-09da1e9b4b07","ios":"levelo://app?vid=40a3d8ce-9e0f-4525-b6d5-09da1e9b4b07"},"vehicle_type_id":"4","last_reported":1769303152,"current_range_meters":6800,"station_id":"ce4bhmp2rcd13ifvqgog","pricing_plan_id":"cebpf4jnsgd1na2vs0mg"},{"bike_id":"7fbd08ac-4873-40ce-8348-00e50d4fd738","system_id":"levelo_inurba_marseille","lat":43.27164,"lon":5.40997,"is_reserved":false,"is_disabled":false,"rental_uris":{"android":"levelo://app?vid=7fbd08ac-4873-40ce-8348-00e50d4fd738","ios":"levelo://app?vid=7fbd08ac-4873-40ce-8348-00e50d4fd738"},"vehicle_type_id":"4","last_reported":1769303152,"current_range_meters":7200,"station_id":"ce4bhl12rcd13ifvqgf0","pricing_plan_id":"cebpf4jnsgd1na2vs0mg"},{"bike_id":"7a4e3005-837e-4425-a268-ddb5f45bb9f3","system_id":"levelo_inurba_marseille","lat":43.2462,"lon":5.43108,"is_reserved":false,"is_disabled":false,"rental_uris":{"android":"levelo://app?vid=7a4e3005-837e-4425-a268-ddb5f45bb9f3","ios":"levelo://app?vid=7a4e3005-837e-4425-a268-ddb5f45bb9f3"},"vehicle_type_id":"4","last_reported":1769303152,"current_range_meters":7200,"station_id":"st_d2m6c4gdas8pm72e190g","pricing_plan_id":"cebpf4jnsgd1na2vs0mg"},{"bike_id":"bba8075a-c51f-4423-b12b-739ce4e2610f","system_id":"levelo_inurba_marseille","lat":43.28968,"lon":5.3637,"is_reserved":false,"is_disabled":false,"rental_uris":{"android":"levelo://app?vid=bba8075a-c51f-4423-b12b-739ce4e2610f","ios":"levelo://app?vid=bba8075a-c51f-4423-b12b-739ce4e2610f"},"vehicle_type_id":"4","last_reported":1769303152,"current_range_meters":7200,"station_id":"ce4bhc92rcd13ifvqetg","pricing_plan_id":"cebpf4jnsgd1na2vs0mg"},{"bike_id":"5d5ffbbb-74c0-43cf-b09c-4df4c0347781","system_id":"levelo_inurba_marseille","lat":43.26202,"lon":5.37926,"is_reserved":false,"is_disabled":false,"rental_uris":{"android":"levelo://app?vid=5d5ffbbb-74c0-43cf-b09c-4df4c0347781","ios":"levelo://app?vid=5d5ffbbb-74c0-43cf-b09c-4df4c0347781"},"vehicle_type_id":"4","last_reported":1769303152,"current_range_meters":7200,"station_id":"ce4bhjp2rcd13ifvqg90","pricing_plan_id":"cebpf4jnsgd1na2vs0mg"},{"bike_id":"5e973b9f-bab0-46bc-bdb3-50ab000bf111","system_id":"levelo_inurba_marseille","lat":43.29901,"lon":5.38339,"is_reserved":false,"is_disabled":false,"rental_uris":{"android":"levelo://app?vid=5e973b9f-bab0-46bc-bdb3-50ab000bf111","ios":"levelo://app?vid=5e973b9f-bab0-46bc-bdb3-50ab000bf111"},"vehicle_type_id":"4","last_reported":1769303152,"current_range_meters":7200,"station_id":"","pricing_plan_id":"cebpf4jnsgd1na2vs0mg"},{"bike_id":"e46d8a17-af5a-42e0-b036-cb3c86080336","system_id":"levelo_inurba_marseille","lat":43.244649,"lon":5.425543,"is_reserved":false,"is_disabled":false,"rental_uris":{"android":"levelo://app?vid=e46d8a17-af5a-42e0-b036-cb3c86080336","ios":"levelo://app?vid=e46d8a17-af5a-42e0-b036-cb3c86080336"},"vehicle_type_id":"4","last_reported":1769303152,"current_range_meters":7200,"station_id":"st_d4a3vfp97mjs738cd8kg","pricing_plan_id":"cebpf4jnsgd1na2vs0mg"},{"bike_id":"e74dd9b3-b6b2-4ded-9217-8e7bda3955d4","system_id":"levelo_inurba_marseille","lat":43.24395,"lon":5.3704,"is_reserved":false,"is_disabled":false,"rental_uris":{"android":"levelo://app?vid=e74dd9b3-b6b2-4ded-9217-8e7bda3955d4","ios":"levelo://app?vid=e74dd9b3-b6b2-4ded-9217-8e7bda3955d4"},"vehicle_type_id":"4","last_reported":1769303152,"current_range_meters":7200,"station_id":"ce4bhhh2rcd13ifvqfk0","pricing_plan_id":"cebpf4jnsgd1na2vs0mg"},{"bike_id":"c8f043c8-a1cd-4533-8ac5-09a3aac34519","system_id":"levelo_inurba_marseille","lat":43.26575,"lon":5.37306,"is_reserved":false,"is_disabled":false,"rental_uris":{"android":"levelo://app?vid=c8f043c8-a1cd-4533-8ac5-09a3aac34519","ios":"levelo://app?vid=c8f043c8-a1cd-4533-8ac5-09a3aac34519"},"vehicle_type_id":"4","last_reported":1769303152,"current_range_meters":7200,"station_id":"ce4bhg12rcd13ifvqf70","pricing_plan_id":"cebpf4jnsgd1na2vs0mg"},{"bike_id":"60b6fefc-4fad-4e17-b7b7-9a9bb822d822","system_id":"levelo_inurba_marseille","lat":43.317196,"lon":5.424073,"is_reserved":false,"is_disabled":false,"rental_uris":{"android":"levelo://app?vid=60b6fefc-4fad-4e17-b7b7-9a9bb822d822","ios":"levelo://app?vid=60b6fefc-4fad-4e17-b7b7-9a9bb822d822"},"vehicle_type_id":"4","last_reported":1769303152,"current_range_meters":7200,"station_id":"ce4bhp92rcd13ifvqhbg","pricing_plan_id":"cebpf4jnsgd1na2vs0mg"},{"bike_id":"3018bd0f-1eb9-47af-8fda-422f2be35d9a","system_id":"levelo_inurba_marseille","lat":43.212018,"lon":5.350697,"is_reserved":false,"is_disabled":false,"rental_uris":{"android":"levelo://app?vid=3018bd0f-1eb9-47af-8fda-422f2be35d9a","ios":"levelo://app?vid=3018bd0f-1eb9-47af-8fda-422f2be35d9a"},"vehicle_type_id":"4","last_reported":1769303152,"current_range_meters":7200,"station_id":"st_cvj6sg6p6f1abm77japg","pricing_plan_id":"cebpf4jnsgd1na2vs0mg"},{"bike_id":"3770c2e9-8904-416b-a171-2857d4f07466","system_id":"levelo_inurba_marseille","lat":43.24417,"lon":5.37069,"is_reserved":false,"is_disabled":false,"rental_uris":{"android":"levelo://app?vid=3770c2e9-8904-416b-a171-2857d4f07466","ios":"levelo://app?vid=3770c2e9-8904-416b-a171-2857d4f07466"},"vehicle_type_id":"4","last_reported":1769303152,"current_range_meters":7200,"station_id":"ce4bhhh2rcd13ifvqfk0","pricing_plan_id":"cebpf4jnsgd1na2vs0mg"},{"bike_id":"711b6451-3b81-4dd2-8591-37e710d5b943","system_id":"levelo_inurba_marseille","lat":43.28467,"lon":5.48357,"is_reserved":false,"is_disabled":false,"rental_uris":{"android":"levelo://app?vid=711b6451-3b81-4dd2-8591-37e710d5b943","ios":"levelo://app?vid=711b6451-3b81-4dd2-8591-37e710d5b943"},"vehicle_type_id":"4","last_reported":1769303152,"current_range_meters":7200,"station_id":"","pricing_plan_id":"cebpf4jnsgd1na2vs0mg"},{"bike_id":"5d801f85-a2b7-4a83-ab6e-a6c79e8187d4","system_id":"levelo_inurba_marseille","lat":43.30082,"lon":5.39075,"is_reserved":false,"is_disabled":false,"rental_uris":{"android":"levelo://app?vid=5d801f85-a2b7-4a83-ab6e-a6c79e8187d4","ios":"levelo://app?vid=5d801f85-a2b7-4a83-ab6e-a6c79e8187d4"},"vehicle_type_id":"4","last_reported":1769303152,"current_range_meters":7200,"station_id":"ce4bh192rcd13ifvqdb0","pricing_plan_id":"cebpf4jnsgd1na2vs0mg"},{"bike_id":"808f4e53-a8b8-4744-be76-00d5bcf647cd","system_id":"levelo_inurba_marseille","lat":43.29736,"lon":5.42775,"is_reserved":false,"is_disabled":false,"rental_uris":{"android":"levelo://app?vid=808f4e53-a8b8-4744-be76-00d5bcf647cd","ios":"levelo://app?vid=808f4e53-a8b8-4744-be76-00d5bcf647cd"},"vehicle_type_id":"4","last_reported":1769303152,"current_range_meters":7200,"station_id":"st_d3md5207bmas73dh9klg","pricing_plan_id":"cebpf4jnsgd1na2vs0mg"},{"bike_id":"09057f45-9965-402e-9f07-552bf0e1e186","system_id":"levelo_inurba_marseille","lat":43.30258,"lon":5.37716,"is_reserved":false,"is_disabled":false,"rental_uris":{"android":"levelo://app?vid=09057f45-9965-402e-9f07-552bf0e1e186","ios":"levelo://app?vid=09057f45-9965-402e-9f07-552bf0e1e186"},"vehicle_type_id":"4","last_reported":1769303152,"current_range_meters":7200,"station_id":"ce4bguh2rcd13ifvqcj0","pricing_plan_id":"cebpf4jnsgd1na2vs0mg"},{"bike_id":"d23e957b-30e5-4310-998d-191d81d5f962","system_id":"levelo_inurba_marseille","lat":43.28396,"lon":5.3873,"is_reserved":false,"is_disabled":false,"rental_uris":{"android":"levelo://app?vid=d23e957b-30e5-4310-998d-191d81d5f962","ios":"levelo://app?vid=d23e957b-30e5-4310-998d-191d81d5f962"},"vehicle_type_id":"4","last_reported":1769303152,"current_range_meters":7200,"station_id":"","pricing_plan_id":"cebpf4jnsgd1na2vs0mg"},{"bike_id":"ba883ae6-41d0-430b-b2c5-fa8f015c672b","system_id":"levelo_inurba_marseille","lat":43.3047,"lon":5.41049,"is_reserved":false,"is_disabled":false,"rental_uris":{"android":"levelo://app?vid=ba883ae6-41d0-430b-b2c5-fa8f015c672b","ios":"levelo://app?vid=ba883ae6-41d0-430b-b2c5-fa8f015c672b"},"vehicle_type_id":"4","last_reported":1769303152,"current_range_meters":7200,"station_id":"","pricing_plan_id":"cebpf4jnsgd1na2vs0mg"},{"bike_id":"7cc22443-c0b5-40d4-ac3d-23d1dc4d9574","system_id":"levelo_inurba_marseille","lat":43.30561,"lon":5.38435,"is_reserved":false,"is_disabled":false,"rental_uris":{"android":"levelo://app?vid=7cc22443-c0b5-40d4-ac3d-23d1dc4d9574","ios":"levelo://app?vid=7cc22443-c0b5-40d4-ac3d-23d1dc4d9574"},"vehicle_type_id":"4","last_reported":1769303152,"current_range_meters":7200,"station_id":"ce4bgg92rcd13ifvqb30","pricing_plan_id":"cebpf4jnsgd1na2vs0mg"},{"bike_id":"f9f84c03-f090-46ce-8d68-078d46085df1","system_id":"levelo_inurba_marseille","lat":43.24181,"lon":5.397218,"is_reserved":false,"is_disabled":false,"rental_uris":{"android":"levelo://app?vid=f9f84c03-f090-46ce-8d68-078d46085df1","ios":"levelo://app?vid=f9f84c03-f090-46ce-8d68-078d46085df1"},"vehicle_type_id":"4","last_reported":1769303152,"current_range_meters":8000,"station_id":"ce4bhn12rcd13ifvqgpg","pricing_plan_id":"cebpf4jnsgd1na2vs0mg"},{"bike_id":"6ebd8131-5347-4093-8c87-e0c7d5276e14","system_id":"levelo_inurba_marseille","lat":43.22553,"lon":5.41634,"is_reserved":false,"is_disabled":false,"rental_uris":{"android":"levelo://app?vid=6ebd8131-5347-4093-8c87-e0c7d5276e14","ios":"levelo://app?vid=6ebd8131-5347-4093-8c87-e0c7d5276e14"},"vehicle_type_id":"4","last_reported":1769303152,"current_range_meters":8000,"station_id":"st_d2o4gvlbi1j2169b742g","pricing_plan_id":"cebpf4jnsgd1na2vs0mg"},{"bike_id":"c95e6f4f-dea5-4c8f-900f-ccf591c989cb","system_id":"levelo_inurba_marseille","lat":43.25822,"lon":5.39435,"is_reserved":false,"is_disabled":false,"rental_uris":{"android":"levelo://app?vid=c95e6f4f-dea5-4c8f-900f-ccf591c989cb","ios":"levelo://app?vid=c95e6f4f-dea5-4c8f-900f-ccf591c989cb"},"vehicle_type_id":"4","last_reported":1769303152,"current_range_meters":8000,"station_id":"ce4bhip2rcd13ifvqft0","pricing_plan_id":"cebpf4jnsgd1na2vs0mg"},{"bike_id":"f8d6a6e0-1d68-4650-a94d-f633bf8c4370","system_id":"levelo_inurba_marseille","lat":43.23779,"lon":5.36635,"is_reserved":false,"is_disabled":false,"rental_uris":{"android":"levelo://app?vid=f8d6a6e0-1d68-4650-a94d-f633bf8c4370","ios":"levelo://app?vid=f8d6a6e0-1d68-4650-a94d-f633bf8c4370"},"vehicle_type_id":"4","last_reported":1769303152,"current_range_meters":8000,"station_id":"st_d3nk18o9ro0c73en2l3g","pricing_plan_id":"cebpf4jnsgd1na2vs0mg"},{"bike_id":"d23a99a3-e7b4-4b17-9ce7-d45cbdf6db89","system_id":"levelo_inurba_marseille","lat":43.32897,"lon":5.36697,"is_reserved":false,"is_disabled":false,"rental_uris":{"android":"levelo://app?vid=d23a99a3-e7b4-4b17-9ce7-d45cbdf6db89","ios":"levelo://app?vid=d23a99a3-e7b4-4b17-9ce7-d45cbdf6db89"},"vehicle_type_id":"4","last_reported":1769303152,"current_range_meters":8000,"station_id":"","pricing_plan_id":"cebpf4jnsgd1na2vs0mg"},{"bike_id":"e07e68dd-c898-432c-ba3f-2dae4d6b1eb0","system_id":"levelo_inurba_marseille","lat":43.2606,"lon":5.39405,"is_reserved":false,"is_disabled":false,"rental_uris":{"android":"levelo://app?vid=e07e68dd-c898-432c-ba3f-2dae4d6b1eb0","ios":"levelo://app?vid=e07e68dd-c898-432c-ba3f-2dae4d6b1eb0"},"vehicle_type_id":"4","last_reported":1769303152,"current_range_meters":8000,"station_id":"ce4bhh92rcd13ifvqfj0","pricing_plan_id":"cebpf4jnsgd1na2vs0mg"},{"bike_id":"531078e9-e6ae-426d-a507-48f287cdb17b","system_id":"levelo_inurba_marseille","lat":43.24676,"lon":5.38126,"is_reserved":false,"is_disabled":false,"rental_uris":{"android":"levelo://app?vid=531078e9-e6ae-426d-a507-48f287cdb17b","ios":"levelo://app?vid=531078e9-e6ae-426d-a507-48f287cdb17b"},"vehicle_type_id":"4","last_reported":1769303152,"current_range_meters":8000,"station_id":"ce4bhih2rcd13ifvqfr0","pricing_plan_id":"cebpf4jnsgd1na2vs0mg"},{"bike_id":"48f40c82-bbad-4ae0-9613-f836906f3c71","system_id":"levelo_inurba_marseille","lat":43.28084,"lon":5.43165,"is_reserved":false,"is_disabled":false,"rental_uris":{"android":"levelo://app?vid=48f40c82-bbad-4ae0-9613-f836906f3c71","ios":"levelo://app?vid=48f40c82-bbad-4ae0-9613-f836906f3c71"},"vehicle_type_id":"4","last_reported":1769303152,"current_range_meters":8000,"station_id":"","pricing_plan_id":"cebpf4jnsgd1na2vs0mg"},{"bike_id":"4e9a917f-788a-4fd3-a999-10045a9540fe","system_id":"levelo_inurba_marseille","lat":43.282658,"lon":5.350603,"is_reserved":false,"is_disabled":false,"rental_uris":{"android":"levelo://app?vid=4e9a917f-788a-4fd3-a999-10045a9540fe","ios":"levelo://app?vid=4e9a917f-788a-4fd3-a999-10045a9540fe"},"vehicle_type_id":"4","last_reported":1769303152,"current_range_meters":8000,"station_id":"ce4bhbp2rcd13ifvqerg","pricing_plan_id":"cebpf4jnsgd1na2vs0mg"},{"bike_id":"090d68fd-b8f6-42aa-a688-f39ed4d39c2d","system_id":"levelo_inurba_marseille","lat":43.22568,"lon":5.41632,"is_reserved":false,"is_disabled":false,"rental_uris":{"android":"levelo://app?vid=090d68fd-b8f6-42aa-a688-f39ed4d39c2d","ios":"levelo://app?vid=090d68fd-b8f6-42aa-a688-f39ed4d39c2d"},"vehicle_type_id":"4","last_reported":1769303152,"current_range_meters":8000,"station_id":"st_d2o4gvlbi1j2169b742g","pricing_plan_id":"cebpf4jnsgd1na2vs0mg"},{"bike_id":"e8cede09-25d9-464a-9863-7fcad8ebfe34","system_id":"levelo_inurba_marseille","lat":43.29932,"lon":5.36513,"is_reserved":false,"is_disabled":false,"rental_uris":{"android":"levelo://app?vid=e8cede09-25d9-464a-9863-7fcad8ebfe34","ios":"levelo://app?vid=e8cede09-25d9-464a-9863-7fcad8ebfe34"},"vehicle_type_id":"4","last_reported":1769303152,"current_range_meters":8000,"station_id":"ce4bgm92rcd13ifvqbr0","pricing_plan_id":"cebpf4jnsgd1na2vs0mg"},{"bike_id":"6c29796b-91a7-4fca-91ba-1f981077ace9","system_id":"levelo_inurba_marseille","lat":43.23147,"lon":5.43686,"is_reserved":false,"is_disabled":false,"rental_uris":{"android":"levelo://app?vid=6c29796b-91a7-4fca-91ba-1f981077ace9","ios":"levelo://app?vid=6c29796b-91a7-4fca-91ba-1f981077ace9"},"vehicle_type_id":"4","last_reported":1769303152,"current_range_meters":8000,"station_id":"ce4bhmp2rcd13ifvqgog","pricing_plan_id":"cebpf4jnsgd1na2vs0mg"},{"bike_id":"655bd777-1439-41cf-b1e8-61377b5a3625","system_id":"levelo_inurba_marseille","lat":43.29633,"lon":5.37561,"is_reserved":false,"is_disabled":false,"rental_uris":{"android":"levelo://app?vid=655bd777-1439-41cf-b1e8-61377b5a3625","ios":"levelo://app?vid=655bd777-1439-41cf-b1e8-61377b5a3625"},"vehicle_type_id":"4","last_reported":1769303152,"current_range_meters":8000,"station_id":"","pricing_plan_id":"cebpf4jnsgd1na2vs0mg"},{"bike_id":"dd369fb3-6a29-4c8b-9c32-c4dbeada70f4","system_id":"levelo_inurba_marseille","lat":43.22555,"lon":5.41639,"is_reserved":false,"is_disabled":false,"rental_uris":{"android":"levelo://app?vid=dd369fb3-6a29-4c8b-9c32-c4dbeada70f4","ios":"levelo://app?vid=dd369fb3-6a29-4c8b-9c32-c4dbeada70f4"},"vehicle_type_id":"4","last_reported":1769303152,"current_range_meters":8000,"station_id":"st_d2o4gvlbi1j2169b742g","pricing_plan_id":"cebpf4jnsgd1na2vs0mg"},{"bike_id":"bad91b1d-a96f-4305-ad07-6c37e885ca70","system_id":"levelo_inurba_marseille","lat":43.2315,"lon":5.43705,"is_reserved":false,"is_disabled":false,"rental_uris":{"android":"levelo://app?vid=bad91b1d-a96f-4305-ad07-6c37e885ca70","ios":"levelo://app?vid=bad91b1d-a96f-4305-ad07-6c37e885ca70"},"vehicle_type_id":"4","last_reported":1769303152,"current_range_meters":8000,"station_id":"ce4bhmp2rcd13ifvqgog","pricing_plan_id":"cebpf4jnsgd1na2vs0mg"},{"bike_id":"07e64c0a-8153-47c6-83e2-2e049e2bc39b","system_id":"levelo_inurba_marseille","lat":43.31976,"lon":5.38129,"is_reserved":false,"is_disabled":false,"rental_uris":{"android":"levelo://app?vid=07e64c0a-8153-47c6-83e2-2e049e2bc39b","ios":"levelo://app?vid=07e64c0a-8153-47c6-83e2-2e049e2bc39b"},"vehicle_type_id":"4","last_reported":1769303152,"current_range_meters":8000,"station_id":"ce4bhr12rcd13ifvqhpg","pricing_plan_id":"cebpf4jnsgd1na2vs0mg"},{"bike_id":"43ace758-19e2-45f5-81d3-4d0e67cb2c4e","system_id":"levelo_inurba_marseille","lat":43.23774,"lon":5.36634,"is_reserved":false,"is_disabled":false,"rental_uris":{"android":"levelo://app?vid=43ace758-19e2-45f5-81d3-4d0e67cb2c4e","ios":"levelo://app?vid=43ace758-19e2-45f5-81d3-4d0e67cb2c4e"},"vehicle_type_id":"4","last_reported":1769303152,"current_range_meters":8000,"station_id":"st_d3nk18o9ro0c73en2l3g","pricing_plan_id":"cebpf4jnsgd1na2vs0mg"},{"bike_id":"66e2db6e-199d-473b-a0ad-7077acb0bbdc","system_id":"levelo_inurba_marseille","lat":43.26549,"lon":5.37303,"is_reserved":false,"is_disabled":false,"rental_uris":{"android":"levelo://app?vid=66e2db6e-199d-473b-a0ad-7077acb0bbdc","ios":"levelo://app?vid=66e2db6e-199d-473b-a0ad-7077acb0bbdc"},"vehicle_type_id":"4","last_reported":1769303152,"current_range_meters":8000,"station_id":"ce4bhg12rcd13ifvqf70","pricing_plan_id":"cebpf4jnsgd1na2vs0mg"},{"bike_id":"acb7cfb5-c429-4bdf-a8aa-c19c7a57d3cf","system_id":"levelo_inurba_marseille","lat":43.23151,"lon":5.43711,"is_reserved":false,"is_disabled":false,"rental_uris":{"android":"levelo://app?vid=acb7cfb5-c429-4bdf-a8aa-c19c7a57d3cf","ios":"levelo://app?vid=acb7cfb5-c429-4bdf-a8aa-c19c7a57d3cf"},"vehicle_type_id":"4","last_reported":1769303152,"current_range_meters":8000,"station_id":"ce4bhmp2rcd13ifvqgog","pricing_plan_id":"cebpf4jnsgd1na2vs0mg"},{"bike_id":"c0bc2852-f707-4be0-bf2e-f4824af48c53","system_id":"levelo_inurba_marseille","lat":43.23189,"lon":5.399849,"is_reserved":false,"is_disabled":false,"rental_uris":{"android":"levelo://app?vid=c0bc2852-f707-4be0-bf2e-f4824af48c53","ios":"levelo://app?vid=c0bc2852-f707-4be0-bf2e-f4824af48c53"},"vehicle_type_id":"4","last_reported":1769303152,"current_range_meters":8400,"station_id":"ce4bhn12rcd13ifvqgqg","pricing_plan_id":"cebpf4jnsgd1na2vs0mg"},{"bike_id":"a3e6ae87-e48c-4eaa-b3fa-a476be4916aa","system_id":"levelo_inurba_marseille","lat":43.26049,"lon":5.39398,"is_reserved":false,"is_disabled":false,"rental_uris":{"android":"levelo://app?vid=a3e6ae87-e48c-4eaa-b3fa-a476be4916aa","ios":"levelo://app?vid=a3e6ae87-e48c-4eaa-b3fa-a476be4916aa"},"vehicle_type_id":"4","last_reported":1769303152,"current_range_meters":8400,"station_id":"ce4bhh92rcd13ifvqfj0","pricing_plan_id":"cebpf4jnsgd1na2vs0mg"},{"bike_id":"bfad4fe9-de3e-43c4-a41e-9324488c84ff","system_id":"levelo_inurba_marseille","lat":43.248038,"lon":5.40137,"is_reserved":false,"is_disabled":false,"rental_uris":{"android":"levelo://app?vid=bfad4fe9-de3e-43c4-a41e-9324488c84ff","ios":"levelo://app?vid=bfad4fe9-de3e-43c4-a41e-9324488c84ff"},"vehicle_type_id":"4","last_reported":1769303152,"current_range_meters":8400,"station_id":"","pricing_plan_id":"cebpf4jnsgd1na2vs0mg"},{"bike_id":"0c1db0f6-04c1-4e73-b12d-3dd98c0a03f3","system_id":"levelo_inurba_marseille","lat":43.31041,"lon":5.37213,"is_reserved":false,"is_disabled":false,"rental_uris":{"android":"levelo://app?vid=0c1db0f6-04c1-4e73-b12d-3dd98c0a03f3","ios":"levelo://app?vid=0c1db0f6-04c1-4e73-b12d-3dd98c0a03f3"},"vehicle_type_id":"4","last_reported":1769303152,"current_range_meters":8400,"station_id":"st_d4kl2rp97mjs73e7tdfg","pricing_plan_id":"cebpf4jnsgd1na2vs0mg"},{"bike_id":"b18b7c7b-dbe2-44bf-813a-828aad8a41bb","system_id":"levelo_inurba_marseille","lat":43.28264,"lon":5.35042,"is_reserved":false,"is_disabled":false,"rental_uris":{"android":"levelo://app?vid=b18b7c7b-dbe2-44bf-813a-828aad8a41bb","ios":"levelo://app?vid=b18b7c7b-dbe2-44bf-813a-828aad8a41bb"},"vehicle_type_id":"4","last_reported":1769303152,"current_range_meters":8400,"station_id":"","pricing_plan_id":"cebpf4jnsgd1na2vs0mg"},{"bike_id":"950a8f36-d1b1-436f-add6-cb84224c54a7","system_id":"levelo_inurba_marseille","lat":43.2588,"lon":5.39905,"is_reserved":false,"is_disabled":false,"rental_uris":{"android":"levelo://app?vid=950a8f36-d1b1-436f-add6-cb84224c54a7","ios":"levelo://app?vid=950a8f36-d1b1-436f-add6-cb84224c54a7"},"vehicle_type_id":"4","last_reported":1769303152,"current_range_meters":8400,"station_id":"ce4bhl92rcd13ifvqghg","pricing_plan_id":"cebpf4jnsgd1na2vs0mg"},{"bike_id":"a0c33308-b90a-484c-a006-c19b20a52375","system_id":"levelo_inurba_marseille","lat":43.26217,"lon":5.40455,"is_reserved":false,"is_disabled":false,"rental_uris":{"android":"levelo://app?vid=a0c33308-b90a-484c-a006-c19b20a52375","ios":"levelo://app?vid=a0c33308-b90a-484c-a006-c19b20a52375"},"vehicle_type_id":"4","last_reported":1769303152,"current_range_meters":8400,"station_id":"ce4bhmh2rcd13ifvqgmg","pricing_plan_id":"cebpf4jnsgd1na2vs0mg"},{"bike_id":"e336a442-3795-46b7-b3aa-60feff443ec2","system_id":"levelo_inurba_marseille","lat":43.25106,"lon":5.40331,"is_reserved":false,"is_disabled":true,"rental_uris":{"android":"levelo://app?vid=e336a442-3795-46b7-b3aa-60feff443ec2","ios":"levelo://app?vid=e336a442-3795-46b7-b3aa-60feff443ec2"},"vehicle_type_id":"4","last_reported":1769303152,"current_range_meters":8400,"station_id":"ce4bhlh2rcd13ifvqgig","pricing_plan_id":"cebpf4jnsgd1na2vs0mg"},{"bike_id":"abc3a781-f3d6-481a-9f61-a5b4b605dfec","system_id":"levelo_inurba_marseille","lat":43.32355,"lon":5.36727,"is_reserved":false,"is_disabled":false,"rental_uris":{"android":"levelo://app?vid=abc3a781-f3d6-481a-9f61-a5b4b605dfec","ios":"levelo://app?vid=abc3a781-f3d6-481a-9f61-a5b4b605dfec"},"vehicle_type_id":"4","last_reported":1769303152,"current_range_meters":8400,"station_id":"ce4bhsh2rcd13ifvqi2g","pricing_plan_id":"cebpf4jnsgd1na2vs0mg"},{"bike_id":"95266e8a-3296-46f7-90e2-c93290e8fd20","system_id":"levelo_inurba_marseille","lat":43.24947,"lon":5.40482,"is_reserved":false,"is_disabled":false,"rental_uris":{"android":"levelo://app?vid=95266e8a-3296-46f7-90e2-c93290e8fd20","ios":"levelo://app?vid=95266e8a-3296-46f7-90e2-c93290e8fd20"},"vehicle_type_id":"4","last_reported":1769303152,"current_range_meters":8400,"station_id":"st_d2ngiaodas8pm72gd1h0","pricing_plan_id":"cebpf4jnsgd1na2vs0mg"},{"bike_id":"c7734853-ab52-4a1d-8c88-3e90bd39f4d3","system_id":"levelo_inurba_marseille","lat":43.29027,"lon":5.37558,"is_reserved":false,"is_disabled":false,"rental_uris":{"android":"levelo://app?vid=c7734853-ab52-4a1d-8c88-3e90bd39f4d3","ios":"levelo://app?vid=c7734853-ab52-4a1d-8c88-3e90bd39f4d3"},"vehicle_type_id":"4","last_reported":1769303152,"current_range_meters":8400,"station_id":"ce4bh692rcd13ifvqe90","pricing_plan_id":"cebpf4jnsgd1na2vs0mg"},{"bike_id":"71dd4682-76a6-491b-bf42-a40c3a790b56","system_id":"levelo_inurba_marseille","lat":43.33012,"lon":5.39033,"is_reserved":false,"is_disabled":false,"rental_uris":{"android":"levelo://app?vid=71dd4682-76a6-491b-bf42-a40c3a790b56","ios":"levelo://app?vid=71dd4682-76a6-491b-bf42-a40c3a790b56"},"vehicle_type_id":"4","last_reported":1769303152,"current_range_meters":8400,"station_id":"ce4bhr92rcd13ifvqhrg","pricing_plan_id":"cebpf4jnsgd1na2vs0mg"},{"bike_id":"8d270819-adc1-49e1-abc4-b636cf1a9812","system_id":"levelo_inurba_marseille","lat":43.30545,"lon":5.36688,"is_reserved":false,"is_disabled":false,"rental_uris":{"android":"levelo://app?vid=8d270819-adc1-49e1-abc4-b636cf1a9812","ios":"levelo://app?vid=8d270819-adc1-49e1-abc4-b636cf1a9812"},"vehicle_type_id":"4","last_reported":1769303152,"current_range_meters":8400,"station_id":"ce4bgrp2rcd13ifvqc9g","pricing_plan_id":"cebpf4jnsgd1na2vs0mg"},{"bike_id":"51d73f4c-7fe3-405e-b3cb-19be79b40e6c","system_id":"levelo_inurba_marseille","lat":43.29534,"lon":5.38542,"is_reserved":false,"is_disabled":false,"rental_uris":{"android":"levelo://app?vid=51d73f4c-7fe3-405e-b3cb-19be79b40e6c","ios":"levelo://app?vid=51d73f4c-7fe3-405e-b3cb-19be79b40e6c"},"vehicle_type_id":"4","last_reported":1769303152,"current_range_meters":8400,"station_id":"ce4bgih2rcd13ifvqba0","pricing_plan_id":"cebpf4jnsgd1na2vs0mg"},{"bike_id":"b9917ecd-02a8-40e9-a0d0-4758759eb040","system_id":"levelo_inurba_marseille","lat":43.24553,"lon":5.37331,"is_reserved":false,"is_disabled":false,"rental_uris":{"android":"levelo://app?vid=b9917ecd-02a8-40e9-a0d0-4758759eb040","ios":"levelo://app?vid=b9917ecd-02a8-40e9-a0d0-4758759eb040"},"vehicle_type_id":"4","last_reported":1769303152,"current_range_meters":8400,"station_id":"","pricing_plan_id":"cebpf4jnsgd1na2vs0mg"},{"bike_id":"71da8860-67fd-467d-ab47-bcfee6c132db","system_id":"levelo_inurba_marseille","lat":43.27347,"lon":5.3625,"is_reserved":false,"is_disabled":false,"rental_uris":{"android":"levelo://app?vid=71da8860-67fd-467d-ab47-bcfee6c132db","ios":"levelo://app?vid=71da8860-67fd-467d-ab47-bcfee6c132db"},"vehicle_type_id":"4","last_reported":1769303152,"current_range_meters":8400,"station_id":"ce4bhbh2rcd13ifvqeo0","pricing_plan_id":"cebpf4jnsgd1na2vs0mg"},{"bike_id":"b63362d9-5612-4ee2-9f31-83089fb30059","system_id":"levelo_inurba_marseille","lat":43.30001,"lon":5.37175,"is_reserved":false,"is_disabled":false,"rental_uris":{"android":"levelo://app?vid=b63362d9-5612-4ee2-9f31-83089fb30059","ios":"levelo://app?vid=b63362d9-5612-4ee2-9f31-83089fb30059"},"vehicle_type_id":"4","last_reported":1769303152,"current_range_meters":8400,"station_id":"ce4bgr92rcd13ifvqc7g","pricing_plan_id":"cebpf4jnsgd1na2vs0mg"},{"bike_id":"a646072a-fa73-4383-afeb-7969ad030c56","system_id":"levelo_inurba_marseille","lat":43.30164,"lon":5.38072,"is_reserved":false,"is_disabled":true,"rental_uris":{"android":"levelo://app?vid=a646072a-fa73-4383-afeb-7969ad030c56","ios":"levelo://app?vid=a646072a-fa73-4383-afeb-7969ad030c56"},"vehicle_type_id":"4","last_reported":1769303152,"current_range_meters":8800,"station_id":"ce4bgjp2rcd13ifvqbh0","pricing_plan_id":"cebpf4jnsgd1na2vs0mg"},{"bike_id":"84d487cc-ac68-4107-ae2f-dc08e53e6d04","system_id":"levelo_inurba_marseille","lat":43.304334,"lon":5.401069,"is_reserved":false,"is_disabled":false,"rental_uris":{"android":"levelo://app?vid=84d487cc-ac68-4107-ae2f-dc08e53e6d04","ios":"levelo://app?vid=84d487cc-ac68-4107-ae2f-dc08e53e6d04"},"vehicle_type_id":"4","last_reported":1769303152,"current_range_meters":8800,"station_id":"ce4bh112rcd13ifvqda0","pricing_plan_id":"cebpf4jnsgd1na2vs0mg"},{"bike_id":"47da79bf-7b3a-42ef-a40c-f853cf618049","system_id":"levelo_inurba_marseille","lat":43.26555,"lon":5.39053,"is_reserved":false,"is_disabled":false,"rental_uris":{"android":"levelo://app?vid=47da79bf-7b3a-42ef-a40c-f853cf618049","ios":"levelo://app?vid=47da79bf-7b3a-42ef-a40c-f853cf618049"},"vehicle_type_id":"4","last_reported":1769303152,"current_range_meters":8800,"station_id":"ce4bhe12rcd13ifvqf30","pricing_plan_id":"cebpf4jnsgd1na2vs0mg"},{"bike_id":"e959911e-39b6-4aef-9393-4a25cfa3f98f","system_id":"levelo_inurba_marseille","lat":43.25519,"lon":5.37672,"is_reserved":false,"is_disabled":false,"rental_uris":{"android":"levelo://app?vid=e959911e-39b6-4aef-9393-4a25cfa3f98f","ios":"levelo://app?vid=e959911e-39b6-4aef-9393-4a25cfa3f98f"},"vehicle_type_id":"4","last_reported":1769303152,"current_range_meters":8800,"station_id":"ce4bhh12rcd13ifvqff0","pricing_plan_id":"cebpf4jnsgd1na2vs0mg"},{"bike_id":"912fe4a2-57c3-42ed-a356-1c2317e45cd9","system_id":"levelo_inurba_marseille","lat":43.24181,"lon":5.39722,"is_reserved":false,"is_disabled":false,"rental_uris":{"android":"levelo://app?vid=912fe4a2-57c3-42ed-a356-1c2317e45cd9","ios":"levelo://app?vid=912fe4a2-57c3-42ed-a356-1c2317e45cd9"},"vehicle_type_id":"4","last_reported":1769303152,"current_range_meters":8800,"station_id":"ce4bhn12rcd13ifvqgpg","pricing_plan_id":"cebpf4jnsgd1na2vs0mg"},{"bike_id":"77a8d6f7-8520-4e5a-a0e7-89573d4a6a77","system_id":"levelo_inurba_marseille","lat":43.2376,"lon":5.36602,"is_reserved":false,"is_disabled":false,"rental_uris":{"android":"levelo://app?vid=77a8d6f7-8520-4e5a-a0e7-89573d4a6a77","ios":"levelo://app?vid=77a8d6f7-8520-4e5a-a0e7-89573d4a6a77"},"vehicle_type_id":"4","last_reported":1769303152,"current_range_meters":8800,"station_id":"st_d3nk18o9ro0c73en2l3g","pricing_plan_id":"cebpf4jnsgd1na2vs0mg"},{"bike_id":"1beef04b-4086-4fc6-b6f2-b17b1d293024","system_id":"levelo_inurba_marseille","lat":43.296206,"lon":5.377134,"is_reserved":false,"is_disabled":false,"rental_uris":{"android":"levelo://app?vid=1beef04b-4086-4fc6-b6f2-b17b1d293024","ios":"levelo://app?vid=1beef04b-4086-4fc6-b6f2-b17b1d293024"},"vehicle_type_id":"4","last_reported":1769303152,"current_range_meters":8800,"station_id":"ce4bgi92rcd13ifvqb90","pricing_plan_id":"cebpf4jnsgd1na2vs0mg"},{"bike_id":"50032767-8484-4cbc-98a8-809f5b4fe8e9","system_id":"levelo_inurba_marseille","lat":43.28892,"lon":5.42529,"is_reserved":false,"is_disabled":false,"rental_uris":{"android":"levelo://app?vid=50032767-8484-4cbc-98a8-809f5b4fe8e9","ios":"levelo://app?vid=50032767-8484-4cbc-98a8-809f5b4fe8e9"},"vehicle_type_id":"4","last_reported":1769303152,"current_range_meters":8800,"station_id":"st_d3b462108ojc7389ooeg","pricing_plan_id":"cebpf4jnsgd1na2vs0mg"},{"bike_id":"2dfa7e03-78b3-4522-8f54-3c70061ea8cf","system_id":"levelo_inurba_marseille","lat":43.27369,"lon":5.3626,"is_reserved":false,"is_disabled":false,"rental_uris":{"android":"levelo://app?vid=2dfa7e03-78b3-4522-8f54-3c70061ea8cf","ios":"levelo://app?vid=2dfa7e03-78b3-4522-8f54-3c70061ea8cf"},"vehicle_type_id":"4","last_reported":1769303152,"current_range_meters":8800,"station_id":"ce4bhbh2rcd13ifvqeo0","pricing_plan_id":"cebpf4jnsgd1na2vs0mg"},{"bike_id":"5cfd7260-21a3-4346-b554-3744fc7c6072","system_id":"levelo_inurba_marseille","lat":43.295624,"lon":5.423007,"is_reserved":false,"is_disabled":false,"rental_uris":{"android":"levelo://app?vid=5cfd7260-21a3-4346-b554-3744fc7c6072","ios":"levelo://app?vid=5cfd7260-21a3-4346-b554-3744fc7c6072"},"vehicle_type_id":"4","last_reported":1769303152,"current_range_meters":8800,"station_id":"ce4bhph2rcd13ifvqhdg","pricing_plan_id":"cebpf4jnsgd1na2vs0mg"},{"bike_id":"7d0461be-78f7-48f2-819c-69235bf9b7f1","system_id":"levelo_inurba_marseille","lat":43.29139,"lon":5.40798,"is_reserved":false,"is_disabled":false,"rental_uris":{"android":"levelo://app?vid=7d0461be-78f7-48f2-819c-69235bf9b7f1","ios":"levelo://app?vid=7d0461be-78f7-48f2-819c-69235bf9b7f1"},"vehicle_type_id":"4","last_reported":1769303152,"current_range_meters":8800,"station_id":"","pricing_plan_id":"cebpf4jnsgd1na2vs0mg"},{"bike_id":"a0465d4f-9ced-4178-ad4c-29e5c29e87ff","system_id":"levelo_inurba_marseille","lat":43.28481,"lon":5.48401,"is_reserved":false,"is_disabled":false,"rental_uris":{"android":"levelo://app?vid=a0465d4f-9ced-4178-ad4c-29e5c29e87ff","ios":"levelo://app?vid=a0465d4f-9ced-4178-ad4c-29e5c29e87ff"},"vehicle_type_id":"4","last_reported":1769303152,"current_range_meters":8800,"station_id":"","pricing_plan_id":"cebpf4jnsgd1na2vs0mg"},{"bike_id":"b3542536-97a8-459c-8c23-1c1cf6a8cd15","system_id":"levelo_inurba_marseille","lat":43.29497,"lon":5.37534,"is_reserved":false,"is_disabled":false,"rental_uris":{"android":"levelo://app?vid=b3542536-97a8-459c-8c23-1c1cf6a8cd15","ios":"levelo://app?vid=b3542536-97a8-459c-8c23-1c1cf6a8cd15"},"vehicle_type_id":"4","last_reported":1769303152,"current_range_meters":8800,"station_id":"ce4bgkp2rcd13ifvqbmg","pricing_plan_id":"cebpf4jnsgd1na2vs0mg"},{"bike_id":"3acd5e62-3c65-4415-bcb0-7f611786b59c","system_id":"levelo_inurba_marseille","lat":43.27371,"lon":5.36242,"is_reserved":false,"is_disabled":false,"rental_uris":{"android":"levelo://app?vid=3acd5e62-3c65-4415-bcb0-7f611786b59c","ios":"levelo://app?vid=3acd5e62-3c65-4415-bcb0-7f611786b59c"},"vehicle_type_id":"4","last_reported":1769303152,"current_range_meters":8800,"station_id":"ce4bhbh2rcd13ifvqeo0","pricing_plan_id":"cebpf4jnsgd1na2vs0mg"},{"bike_id":"cefc0408-08b4-45e0-8592-a44786197f49","system_id":"levelo_inurba_marseille","lat":43.22575,"lon":5.41636,"is_reserved":false,"is_disabled":false,"rental_uris":{"android":"levelo://app?vid=cefc0408-08b4-45e0-8592-a44786197f49","ios":"levelo://app?vid=cefc0408-08b4-45e0-8592-a44786197f49"},"vehicle_type_id":"4","last_reported":1769303152,"current_range_meters":8800,"station_id":"st_d2o4gvlbi1j2169b742g","pricing_plan_id":"cebpf4jnsgd1na2vs0mg"},{"bike_id":"857024a2-b8bf-41e1-bec2-9e4e60b79c0e","system_id":"levelo_inurba_marseille","lat":43.29527,"lon":5.3749,"is_reserved":false,"is_disabled":false,"rental_uris":{"android":"levelo://app?vid=857024a2-b8bf-41e1-bec2-9e4e60b79c0e","ios":"levelo://app?vid=857024a2-b8bf-41e1-bec2-9e4e60b79c0e"},"vehicle_type_id":"4","last_reported":1769303152,"current_range_meters":8800,"station_id":"ce4bgkp2rcd13ifvqbmg","pricing_plan_id":"cebpf4jnsgd1na2vs0mg"},{"bike_id":"5cddebe9-9649-49ea-9c79-79e4ae8a20bb","system_id":"levelo_inurba_marseille","lat":43.30345,"lon":5.36888,"is_reserved":false,"is_disabled":false,"rental_uris":{"android":"levelo://app?vid=5cddebe9-9649-49ea-9c79-79e4ae8a20bb","ios":"levelo://app?vid=5cddebe9-9649-49ea-9c79-79e4ae8a20bb"},"vehicle_type_id":"4","last_reported":1769303152,"current_range_meters":8800,"station_id":"ce4bgqh2rcd13ifvqc5g","pricing_plan_id":"cebpf4jnsgd1na2vs0mg"},{"bike_id":"de5dd849-e4b4-4886-8230-06f684e730a5","system_id":"levelo_inurba_marseille","lat":43.24153,"lon":5.39725,"is_reserved":false,"is_disabled":false,"rental_uris":{"android":"levelo://app?vid=de5dd849-e4b4-4886-8230-06f684e730a5","ios":"levelo://app?vid=de5dd849-e4b4-4886-8230-06f684e730a5"},"vehicle_type_id":"4","last_reported":1769303152,"current_range_meters":8800,"station_id":"ce4bhn12rcd13ifvqgpg","pricing_plan_id":"cebpf4jnsgd1na2vs0mg"},{"bike_id":"911f0371-0df0-45e8-a323-aedfe8ac7407","system_id":"levelo_inurba_marseille","lat":43.33118,"lon":5.37769,"is_reserved":false,"is_disabled":false,"rental_uris":{"android":"levelo://app?vid=911f0371-0df0-45e8-a323-aedfe8ac7407","ios":"levelo://app?vid=911f0371-0df0-45e8-a323-aedfe8ac7407"},"vehicle_type_id":"4","last_reported":1769303152,"current_range_meters":8800,"station_id":"st_d46cu089ee8s73dldbu0","pricing_plan_id":"cebpf4jnsgd1na2vs0mg"},{"bike_id":"4aade3c0-5e93-41cd-864f-289395d6e581","system_id":"levelo_inurba_marseille","lat":43.31174,"lon":5.38721,"is_reserved":false,"is_disabled":false,"rental_uris":{"android":"levelo://app?vid=4aade3c0-5e93-41cd-864f-289395d6e581","ios":"levelo://app?vid=4aade3c0-5e93-41cd-864f-289395d6e581"},"vehicle_type_id":"4","last_reported":1769303152,"current_range_meters":8800,"station_id":"ce4bgv12rcd13ifvqcp0","pricing_plan_id":"cebpf4jnsgd1na2vs0mg"},{"bike_id":"9313abb2-b4dd-4478-8ad1-082ec047c3ed","system_id":"levelo_inurba_marseille","lat":43.26558,"lon":5.37293,"is_reserved":false,"is_disabled":false,"rental_uris":{"android":"levelo://app?vid=9313abb2-b4dd-4478-8ad1-082ec047c3ed","ios":"levelo://app?vid=9313abb2-b4dd-4478-8ad1-082ec047c3ed"},"vehicle_type_id":"4","last_reported":1769303152,"current_range_meters":8800,"station_id":"ce4bhg12rcd13ifvqf70","pricing_plan_id":"cebpf4jnsgd1na2vs0mg"},{"bike_id":"c1eb6e5d-e603-4baf-9e1a-9451b46aa176","system_id":"levelo_inurba_marseille","lat":43.29919,"lon":5.36519,"is_reserved":false,"is_disabled":false,"rental_uris":{"android":"levelo://app?vid=c1eb6e5d-e603-4baf-9e1a-9451b46aa176","ios":"levelo://app?vid=c1eb6e5d-e603-4baf-9e1a-9451b46aa176"},"vehicle_type_id":"4","last_reported":1769303152,"current_range_meters":8800,"station_id":"ce4bgm92rcd13ifvqbr0","pricing_plan_id":"cebpf4jnsgd1na2vs0mg"},{"bike_id":"10d9e279-fe7a-471e-97ab-fc14b4dd07f8","system_id":"levelo_inurba_marseille","lat":43.26554,"lon":5.37305,"is_reserved":false,"is_disabled":false,"rental_uris":{"android":"levelo://app?vid=10d9e279-fe7a-471e-97ab-fc14b4dd07f8","ios":"levelo://app?vid=10d9e279-fe7a-471e-97ab-fc14b4dd07f8"},"vehicle_type_id":"4","last_reported":1769303152,"current_range_meters":8800,"station_id":"ce4bhg12rcd13ifvqf70","pricing_plan_id":"cebpf4jnsgd1na2vs0mg"},{"bike_id":"5fa896a8-aba8-4143-b23e-82d35adec35e","system_id":"levelo_inurba_marseille","lat":43.26556,"lon":5.37287,"is_reserved":false,"is_disabled":false,"rental_uris":{"android":"levelo://app?vid=5fa896a8-aba8-4143-b23e-82d35adec35e","ios":"levelo://app?vid=5fa896a8-aba8-4143-b23e-82d35adec35e"},"vehicle_type_id":"4","last_reported":1769303152,"current_range_meters":8800,"station_id":"ce4bhg12rcd13ifvqf70","pricing_plan_id":"cebpf4jnsgd1na2vs0mg"},{"bike_id":"5dfc7d33-8364-45f9-863b-4d733de72506","system_id":"levelo_inurba_marseille","lat":43.30191,"lon":5.36611,"is_reserved":false,"is_disabled":false,"rental_uris":{"android":"levelo://app?vid=5dfc7d33-8364-45f9-863b-4d733de72506","ios":"levelo://app?vid=5dfc7d33-8364-45f9-863b-4d733de72506"},"vehicle_type_id":"4","last_reported":1769303152,"current_range_meters":8800,"station_id":"ce4bgrh2rcd13ifvqc8g","pricing_plan_id":"cebpf4jnsgd1na2vs0mg"},{"bike_id":"2183c868-18bc-43ee-94a6-b4cdb3d84f43","system_id":"levelo_inurba_marseille","lat":43.29022,"lon":5.38126,"is_reserved":false,"is_disabled":true,"rental_uris":{"android":"levelo://app?vid=2183c868-18bc-43ee-94a6-b4cdb3d84f43","ios":"levelo://app?vid=2183c868-18bc-43ee-94a6-b4cdb3d84f43"},"vehicle_type_id":"4","last_reported":1769303152,"current_range_meters":8800,"station_id":"ce4bh4p2rcd13ifvqe1g","pricing_plan_id":"cebpf4jnsgd1na2vs0mg"},{"bike_id":"0837d65f-ee92-4610-a9ad-56457e360035","system_id":"levelo_inurba_marseille","lat":43.29025,"lon":5.38625,"is_reserved":false,"is_disabled":false,"rental_uris":{"android":"levelo://app?vid=0837d65f-ee92-4610-a9ad-56457e360035","ios":"levelo://app?vid=0837d65f-ee92-4610-a9ad-56457e360035"},"vehicle_type_id":"4","last_reported":1769303152,"current_range_meters":8800,"station_id":"ce4bh4p2rcd13ifvqe0g","pricing_plan_id":"cebpf4jnsgd1na2vs0mg"},{"bike_id":"67a80a29-3730-47f9-a49d-4110e1150c8d","system_id":"levelo_inurba_marseille","lat":43.25111,"lon":5.40338,"is_reserved":false,"is_disabled":false,"rental_uris":{"android":"levelo://app?vid=67a80a29-3730-47f9-a49d-4110e1150c8d","ios":"levelo://app?vid=67a80a29-3730-47f9-a49d-4110e1150c8d"},"vehicle_type_id":"4","last_reported":1769303152,"current_range_meters":8800,"station_id":"ce4bhlh2rcd13ifvqgig","pricing_plan_id":"cebpf4jnsgd1na2vs0mg"},{"bike_id":"99bc9e46-2a2d-4354-b606-97e38b1b91d7","system_id":"levelo_inurba_marseille","lat":43.23932,"lon":5.37587,"is_reserved":false,"is_disabled":false,"rental_uris":{"android":"levelo://app?vid=99bc9e46-2a2d-4354-b606-97e38b1b91d7","ios":"levelo://app?vid=99bc9e46-2a2d-4354-b606-97e38b1b91d7"},"vehicle_type_id":"4","last_reported":1769303152,"current_range_meters":8800,"station_id":"","pricing_plan_id":"cebpf4jnsgd1na2vs0mg"},{"bike_id":"f380b1b7-d701-45ad-afb7-2c2bdd93024e","system_id":"levelo_inurba_marseille","lat":43.24373,"lon":5.3704,"is_reserved":false,"is_disabled":false,"rental_uris":{"android":"levelo://app?vid=f380b1b7-d701-45ad-afb7-2c2bdd93024e","ios":"levelo://app?vid=f380b1b7-d701-45ad-afb7-2c2bdd93024e"},"vehicle_type_id":"4","last_reported":1769303152,"current_range_meters":9200,"station_id":"ce4bhhh2rcd13ifvqfk0","pricing_plan_id":"cebpf4jnsgd1na2vs0mg"},{"bike_id":"965df6b7-673a-4e5d-9ee5-eda9741e28cb","system_id":"levelo_inurba_marseille","lat":43.30301,"lon":5.36915,"is_reserved":false,"is_disabled":false,"rental_uris":{"android":"levelo://app?vid=965df6b7-673a-4e5d-9ee5-eda9741e28cb","ios":"levelo://app?vid=965df6b7-673a-4e5d-9ee5-eda9741e28cb"},"vehicle_type_id":"4","last_reported":1769303152,"current_range_meters":9200,"station_id":"ce4bgqh2rcd13ifvqc5g","pricing_plan_id":"cebpf4jnsgd1na2vs0mg"},{"bike_id":"f7871c9a-41ca-46a0-b28f-114e4cd8fd3f","system_id":"levelo_inurba_marseille","lat":43.292568,"lon":5.377073,"is_reserved":false,"is_disabled":false,"rental_uris":{"android":"levelo://app?vid=f7871c9a-41ca-46a0-b28f-114e4cd8fd3f","ios":"levelo://app?vid=f7871c9a-41ca-46a0-b28f-114e4cd8fd3f"},"vehicle_type_id":"4","last_reported":1769303152,"current_range_meters":9200,"station_id":"","pricing_plan_id":"cebpf4jnsgd1na2vs0mg"},{"bike_id":"de6516f2-4721-4f5c-a175-d199fc08e695","system_id":"levelo_inurba_marseille","lat":43.23202,"lon":5.39979,"is_reserved":false,"is_disabled":false,"rental_uris":{"android":"levelo://app?vid=de6516f2-4721-4f5c-a175-d199fc08e695","ios":"levelo://app?vid=de6516f2-4721-4f5c-a175-d199fc08e695"},"vehicle_type_id":"4","last_reported":1769303152,"current_range_meters":9200,"station_id":"ce4bhn12rcd13ifvqgqg","pricing_plan_id":"cebpf4jnsgd1na2vs0mg"},{"bike_id":"a8c7adad-ae27-467b-936e-e5e482408cf3","system_id":"levelo_inurba_marseille","lat":43.31058,"lon":5.39329,"is_reserved":false,"is_disabled":false,"rental_uris":{"android":"levelo://app?vid=a8c7adad-ae27-467b-936e-e5e482408cf3","ios":"levelo://app?vid=a8c7adad-ae27-467b-936e-e5e482408cf3"},"vehicle_type_id":"4","last_reported":1769303152,"current_range_meters":9200,"station_id":"","pricing_plan_id":"cebpf4jnsgd1na2vs0mg"},{"bike_id":"319f4b05-a9ea-4127-8848-97f8af2b1b34","system_id":"levelo_inurba_marseille","lat":43.310782,"lon":5.3835,"is_reserved":false,"is_disabled":false,"rental_uris":{"android":"levelo://app?vid=319f4b05-a9ea-4127-8848-97f8af2b1b34","ios":"levelo://app?vid=319f4b05-a9ea-4127-8848-97f8af2b1b34"},"vehicle_type_id":"4","last_reported":1769303152,"current_range_meters":9200,"station_id":"ce4bgv92rcd13ifvqcr0","pricing_plan_id":"cebpf4jnsgd1na2vs0mg"},{"bike_id":"fbad661d-ea17-4b8d-9aaa-daae6a5ccfbb","system_id":"levelo_inurba_marseille","lat":43.3042,"lon":5.41277,"is_reserved":false,"is_disabled":false,"rental_uris":{"android":"levelo://app?vid=fbad661d-ea17-4b8d-9aaa-daae6a5ccfbb","ios":"levelo://app?vid=fbad661d-ea17-4b8d-9aaa-daae6a5ccfbb"},"vehicle_type_id":"4","last_reported":1769303152,"current_range_meters":9200,"station_id":"ce4bhop2rcd13ifvqh8g","pricing_plan_id":"cebpf4jnsgd1na2vs0mg"},{"bike_id":"0c16fd9f-27e4-4df5-a3f5-66328c64053c","system_id":"levelo_inurba_marseille","lat":43.29942,"lon":5.3742,"is_reserved":false,"is_disabled":false,"rental_uris":{"android":"levelo://app?vid=0c16fd9f-27e4-4df5-a3f5-66328c64053c","ios":"levelo://app?vid=0c16fd9f-27e4-4df5-a3f5-66328c64053c"},"vehicle_type_id":"4","last_reported":1769303152,"current_range_meters":9200,"station_id":"ce4bgjh2rcd13ifvqbg0","pricing_plan_id":"cebpf4jnsgd1na2vs0mg"},{"bike_id":"9536a92a-01ab-4017-8488-26a8fa6880af","system_id":"levelo_inurba_marseille","lat":43.2589,"lon":5.4081,"is_reserved":false,"is_disabled":false,"rental_uris":{"android":"levelo://app?vid=9536a92a-01ab-4017-8488-26a8fa6880af","ios":"levelo://app?vid=9536a92a-01ab-4017-8488-26a8fa6880af"},"vehicle_type_id":"4","last_reported":1769303152,"current_range_meters":9200,"station_id":"","pricing_plan_id":"cebpf4jnsgd1na2vs0mg"},{"bike_id":"0c11bc30-1254-4e35-b530-31f7fd6a4b39","system_id":"levelo_inurba_marseille","lat":43.30001,"lon":5.37364,"is_reserved":false,"is_disabled":false,"rental_uris":{"android":"levelo://app?vid=0c11bc30-1254-4e35-b530-31f7fd6a4b39","ios":"levelo://app?vid=0c11bc30-1254-4e35-b530-31f7fd6a4b39"},"vehicle_type_id":"4","last_reported":1769303152,"current_range_meters":9200,"station_id":"","pricing_plan_id":"cebpf4jnsgd1na2vs0mg"},{"bike_id":"ba275051-9e15-4ea0-a6e1-ba5eb68c57b0","system_id":"levelo_inurba_marseille","lat":43.29608,"lon":5.36732,"is_reserved":false,"is_disabled":false,"rental_uris":{"android":"levelo://app?vid=ba275051-9e15-4ea0-a6e1-ba5eb68c57b0","ios":"levelo://app?vid=ba275051-9e15-4ea0-a6e1-ba5eb68c57b0"},"vehicle_type_id":"4","last_reported":1769303152,"current_range_meters":9200,"station_id":"ce4bgph2rcd13ifvqc2g","pricing_plan_id":"cebpf4jnsgd1na2vs0mg"},{"bike_id":"202f1104-5acd-4ad3-972a-1bdbd896c535","system_id":"levelo_inurba_marseille","lat":43.323504,"lon":5.367523,"is_reserved":false,"is_disabled":false,"rental_uris":{"android":"levelo://app?vid=202f1104-5acd-4ad3-972a-1bdbd896c535","ios":"levelo://app?vid=202f1104-5acd-4ad3-972a-1bdbd896c535"},"vehicle_type_id":"4","last_reported":1769303152,"current_range_meters":9200,"station_id":"ce4bhsh2rcd13ifvqi2g","pricing_plan_id":"cebpf4jnsgd1na2vs0mg"},{"bike_id":"d5ea324e-bace-4c01-9812-40ca3a979c75","system_id":"levelo_inurba_marseille","lat":43.29543,"lon":5.38548,"is_reserved":false,"is_disabled":false,"rental_uris":{"android":"levelo://app?vid=d5ea324e-bace-4c01-9812-40ca3a979c75","ios":"levelo://app?vid=d5ea324e-bace-4c01-9812-40ca3a979c75"},"vehicle_type_id":"4","last_reported":1769303152,"current_range_meters":9200,"station_id":"ce4bgih2rcd13ifvqba0","pricing_plan_id":"cebpf4jnsgd1na2vs0mg"},{"bike_id":"95417798-5f36-438a-b9a6-6ef0e27ffba5","system_id":"levelo_inurba_marseille","lat":43.2508,"lon":5.39529,"is_reserved":false,"is_disabled":false,"rental_uris":{"android":"levelo://app?vid=95417798-5f36-438a-b9a6-6ef0e27ffba5","ios":"levelo://app?vid=95417798-5f36-438a-b9a6-6ef0e27ffba5"},"vehicle_type_id":"4","last_reported":1769303152,"current_range_meters":9200,"station_id":"ce4bhm12rcd13ifvqgkg","pricing_plan_id":"cebpf4jnsgd1na2vs0mg"},{"bike_id":"51a4bb8e-cf21-4761-82a6-0f1d623fe2ae","system_id":"levelo_inurba_marseille","lat":43.279957,"lon":5.400111,"is_reserved":false,"is_disabled":false,"rental_uris":{"android":"levelo://app?vid=51a4bb8e-cf21-4761-82a6-0f1d623fe2ae","ios":"levelo://app?vid=51a4bb8e-cf21-4761-82a6-0f1d623fe2ae"},"vehicle_type_id":"4","last_reported":1769303152,"current_range_meters":9200,"station_id":"ce4bho92rcd13ifvqh4g","pricing_plan_id":"cebpf4jnsgd1na2vs0mg"},{"bike_id":"9bbac3b6-c0d2-4b53-8c35-0cd5ce33f3a6","system_id":"levelo_inurba_marseille","lat":43.295878,"lon":5.375249,"is_reserved":false,"is_disabled":false,"rental_uris":{"android":"levelo://app?vid=9bbac3b6-c0d2-4b53-8c35-0cd5ce33f3a6","ios":"levelo://app?vid=9bbac3b6-c0d2-4b53-8c35-0cd5ce33f3a6"},"vehicle_type_id":"4","last_reported":1769303152,"current_range_meters":9200,"station_id":"","pricing_plan_id":"cebpf4jnsgd1na2vs0mg"},{"bike_id":"7e036456-a386-4efb-94df-0183fba99584","system_id":"levelo_inurba_marseille","lat":43.24674,"lon":5.38135,"is_reserved":false,"is_disabled":false,"rental_uris":{"android":"levelo://app?vid=7e036456-a386-4efb-94df-0183fba99584","ios":"levelo://app?vid=7e036456-a386-4efb-94df-0183fba99584"},"vehicle_type_id":"4","last_reported":1769303152,"current_range_meters":9200,"station_id":"ce4bhih2rcd13ifvqfr0","pricing_plan_id":"cebpf4jnsgd1na2vs0mg"},{"bike_id":"cc77ab8d-f6fe-4e5f-b2b5-a4170aed5189","system_id":"levelo_inurba_marseille","lat":43.2495,"lon":5.40498,"is_reserved":false,"is_disabled":false,"rental_uris":{"android":"levelo://app?vid=cc77ab8d-f6fe-4e5f-b2b5-a4170aed5189","ios":"levelo://app?vid=cc77ab8d-f6fe-4e5f-b2b5-a4170aed5189"},"vehicle_type_id":"4","last_reported":1769303152,"current_range_meters":9200,"station_id":"st_d2ngiaodas8pm72gd1h0","pricing_plan_id":"cebpf4jnsgd1na2vs0mg"},{"bike_id":"f4d5846c-646c-4d8e-923f-075604db61e5","system_id":"levelo_inurba_marseille","lat":43.24669,"lon":5.3815,"is_reserved":false,"is_disabled":false,"rental_uris":{"android":"levelo://app?vid=f4d5846c-646c-4d8e-923f-075604db61e5","ios":"levelo://app?vid=f4d5846c-646c-4d8e-923f-075604db61e5"},"vehicle_type_id":"4","last_reported":1769303152,"current_range_meters":9200,"station_id":"ce4bhih2rcd13ifvqfr0","pricing_plan_id":"cebpf4jnsgd1na2vs0mg"},{"bike_id":"0de5032e-148a-468e-969e-fb644458ceae","system_id":"levelo_inurba_marseille","lat":43.25094,"lon":5.40458,"is_reserved":false,"is_disabled":false,"rental_uris":{"android":"levelo://app?vid=0de5032e-148a-468e-969e-fb644458ceae","ios":"levelo://app?vid=0de5032e-148a-468e-969e-fb644458ceae"},"vehicle_type_id":"4","last_reported":1769303152,"current_range_meters":9600,"station_id":"","pricing_plan_id":"cebpf4jnsgd1na2vs0mg"},{"bike_id":"ad886c06-1efe-4dd0-8df1-7d6ff8c7e776","system_id":"levelo_inurba_marseille","lat":43.28264,"lon":5.35074,"is_reserved":false,"is_disabled":false,"rental_uris":{"android":"levelo://app?vid=ad886c06-1efe-4dd0-8df1-7d6ff8c7e776","ios":"levelo://app?vid=ad886c06-1efe-4dd0-8df1-7d6ff8c7e776"},"vehicle_type_id":"4","last_reported":1769303152,"current_range_meters":9600,"station_id":"ce4bhbp2rcd13ifvqerg","pricing_plan_id":"cebpf4jnsgd1na2vs0mg"},{"bike_id":"b075d711-d93d-4120-85f9-64fa0a4a9a99","system_id":"levelo_inurba_marseille","lat":43.22584,"lon":5.41633,"is_reserved":false,"is_disabled":false,"rental_uris":{"android":"levelo://app?vid=b075d711-d93d-4120-85f9-64fa0a4a9a99","ios":"levelo://app?vid=b075d711-d93d-4120-85f9-64fa0a4a9a99"},"vehicle_type_id":"4","last_reported":1769303152,"current_range_meters":9600,"station_id":"st_d2o4gvlbi1j2169b742g","pricing_plan_id":"cebpf4jnsgd1na2vs0mg"},{"bike_id":"f83be713-7e4a-4bd8-8890-2ceca824b015","system_id":"levelo_inurba_marseille","lat":43.29146,"lon":5.35614,"is_reserved":false,"is_disabled":false,"rental_uris":{"android":"levelo://app?vid=f83be713-7e4a-4bd8-8890-2ceca824b015","ios":"levelo://app?vid=f83be713-7e4a-4bd8-8890-2ceca824b015"},"vehicle_type_id":"4","last_reported":1769303152,"current_range_meters":9600,"station_id":"","pricing_plan_id":"cebpf4jnsgd1na2vs0mg"},{"bike_id":"c1aeaa10-dc7f-4501-b461-bb241314d426","system_id":"levelo_inurba_marseille","lat":43.23197,"lon":5.35514,"is_reserved":false,"is_disabled":false,"rental_uris":{"android":"levelo://app?vid=c1aeaa10-dc7f-4501-b461-bb241314d426","ios":"levelo://app?vid=c1aeaa10-dc7f-4501-b461-bb241314d426"},"vehicle_type_id":"4","last_reported":1769303152,"current_range_meters":9600,"station_id":"ce4bhu92rcd13ifvqi70","pricing_plan_id":"cebpf4jnsgd1na2vs0mg"},{"bike_id":"d512fef5-ce43-46a9-86ce-62a27a53deec","system_id":"levelo_inurba_marseille","lat":43.23779,"lon":5.36633,"is_reserved":false,"is_disabled":false,"rental_uris":{"android":"levelo://app?vid=d512fef5-ce43-46a9-86ce-62a27a53deec","ios":"levelo://app?vid=d512fef5-ce43-46a9-86ce-62a27a53deec"},"vehicle_type_id":"4","last_reported":1769303152,"current_range_meters":9600,"station_id":"st_d3nk18o9ro0c73en2l3g","pricing_plan_id":"cebpf4jnsgd1na2vs0mg"},{"bike_id":"92cf4bef-8a00-481a-8a77-1af60c9ead2f","system_id":"levelo_inurba_marseille","lat":43.31492,"lon":5.37304,"is_reserved":false,"is_disabled":false,"rental_uris":{"android":"levelo://app?vid=92cf4bef-8a00-481a-8a77-1af60c9ead2f","ios":"levelo://app?vid=92cf4bef-8a00-481a-8a77-1af60c9ead2f"},"vehicle_type_id":"4","last_reported":1769303152,"current_range_meters":9600,"station_id":"ce4bgt12rcd13ifvqcd0","pricing_plan_id":"cebpf4jnsgd1na2vs0mg"},{"bike_id":"ea53cb96-b018-4a32-8207-3b5118a7a50d","system_id":"levelo_inurba_marseille","lat":43.321082,"lon":5.367676,"is_reserved":false,"is_disabled":false,"rental_uris":{"android":"levelo://app?vid=ea53cb96-b018-4a32-8207-3b5118a7a50d","ios":"levelo://app?vid=ea53cb96-b018-4a32-8207-3b5118a7a50d"},"vehicle_type_id":"4","last_reported":1769303152,"current_range_meters":9600,"station_id":"ce4bhrh2rcd13ifvqhug","pricing_plan_id":"cebpf4jnsgd1na2vs0mg"},{"bike_id":"e53c4315-ec1a-4bf3-9632-09d236bb842c","system_id":"levelo_inurba_marseille","lat":43.23778,"lon":5.36637,"is_reserved":false,"is_disabled":false,"rental_uris":{"android":"levelo://app?vid=e53c4315-ec1a-4bf3-9632-09d236bb842c","ios":"levelo://app?vid=e53c4315-ec1a-4bf3-9632-09d236bb842c"},"vehicle_type_id":"4","last_reported":1769303152,"current_range_meters":9600,"station_id":"st_d3nk18o9ro0c73en2l3g","pricing_plan_id":"cebpf4jnsgd1na2vs0mg"},{"bike_id":"afa37d5c-0ffd-40b5-8069-9610a9f9bab4","system_id":"levelo_inurba_marseille","lat":43.29527,"lon":5.38538,"is_reserved":false,"is_disabled":false,"rental_uris":{"android":"levelo://app?vid=afa37d5c-0ffd-40b5-8069-9610a9f9bab4","ios":"levelo://app?vid=afa37d5c-0ffd-40b5-8069-9610a9f9bab4"},"vehicle_type_id":"4","last_reported":1769303152,"current_range_meters":9600,"station_id":"ce4bgih2rcd13ifvqba0","pricing_plan_id":"cebpf4jnsgd1na2vs0mg"},{"bike_id":"876ac817-c1de-4d59-a160-e12114ae46c0","system_id":"levelo_inurba_marseille","lat":43.31321,"lon":5.3671,"is_reserved":false,"is_disabled":false,"rental_uris":{"android":"levelo://app?vid=876ac817-c1de-4d59-a160-e12114ae46c0","ios":"levelo://app?vid=876ac817-c1de-4d59-a160-e12114ae46c0"},"vehicle_type_id":"4","last_reported":1769303152,"current_range_meters":9600,"station_id":"ce4bgr92rcd13ifvqc6g","pricing_plan_id":"cebpf4jnsgd1na2vs0mg"},{"bike_id":"23e8e2b5-e425-472a-bc08-b0b79ef75ac3","system_id":"levelo_inurba_marseille","lat":43.285351,"lon":5.440954,"is_reserved":false,"is_disabled":false,"rental_uris":{"android":"levelo://app?vid=23e8e2b5-e425-472a-bc08-b0b79ef75ac3","ios":"levelo://app?vid=23e8e2b5-e425-472a-bc08-b0b79ef75ac3"},"vehicle_type_id":"4","last_reported":1769303152,"current_range_meters":9600,"station_id":"st_d3j3df2ikq2c7380ej80","pricing_plan_id":"cebpf4jnsgd1na2vs0mg"},{"bike_id":"04b2f2d2-cd5f-466b-8ba4-bb211b478980","system_id":"levelo_inurba_marseille","lat":43.27514,"lon":5.42443,"is_reserved":false,"is_disabled":false,"rental_uris":{"android":"levelo://app?vid=04b2f2d2-cd5f-466b-8ba4-bb211b478980","ios":"levelo://app?vid=04b2f2d2-cd5f-466b-8ba4-bb211b478980"},"vehicle_type_id":"4","last_reported":1769303152,"current_range_meters":9600,"station_id":"ce4bhn92rcd13ifvqgrg","pricing_plan_id":"cebpf4jnsgd1na2vs0mg"},{"bike_id":"e19418ad-aa76-4b1d-a53d-977a549e82e9","system_id":"levelo_inurba_marseille","lat":43.23194,"lon":5.35559,"is_reserved":false,"is_disabled":false,"rental_uris":{"android":"levelo://app?vid=e19418ad-aa76-4b1d-a53d-977a549e82e9","ios":"levelo://app?vid=e19418ad-aa76-4b1d-a53d-977a549e82e9"},"vehicle_type_id":"4","last_reported":1769303152,"current_range_meters":9600,"station_id":"ce4bhu92rcd13ifvqi70","pricing_plan_id":"cebpf4jnsgd1na2vs0mg"},{"bike_id":"8b84e371-84b5-4e40-a882-2f55c907b812","system_id":"levelo_inurba_marseille","lat":43.23968,"lon":5.36599,"is_reserved":false,"is_disabled":false,"rental_uris":{"android":"levelo://app?vid=8b84e371-84b5-4e40-a882-2f55c907b812","ios":"levelo://app?vid=8b84e371-84b5-4e40-a882-2f55c907b812"},"vehicle_type_id":"4","last_reported":1769303152,"current_range_meters":9600,"station_id":"ce4bhi12rcd13ifvqfp0","pricing_plan_id":"cebpf4jnsgd1na2vs0mg"},{"bike_id":"f1f1af57-7ec6-4801-8bee-0f5367d55cb5","system_id":"levelo_inurba_marseille","lat":43.32335,"lon":5.3673,"is_reserved":false,"is_disabled":false,"rental_uris":{"android":"levelo://app?vid=f1f1af57-7ec6-4801-8bee-0f5367d55cb5","ios":"levelo://app?vid=f1f1af57-7ec6-4801-8bee-0f5367d55cb5"},"vehicle_type_id":"4","last_reported":1769303152,"current_range_meters":9600,"station_id":"ce4bhsh2rcd13ifvqi2g","pricing_plan_id":"cebpf4jnsgd1na2vs0mg"},{"bike_id":"063be55f-ee8b-4181-957b-bc66dd6cdafe","system_id":"levelo_inurba_marseille","lat":43.294912,"lon":5.433101,"is_reserved":false,"is_disabled":false,"rental_uris":{"android":"levelo://app?vid=063be55f-ee8b-4181-957b-bc66dd6cdafe","ios":"levelo://app?vid=063be55f-ee8b-4181-957b-bc66dd6cdafe"},"vehicle_type_id":"4","last_reported":1769303152,"current_range_meters":9600,"station_id":"st_d3j5ugp08ojc73fj9d10","pricing_plan_id":"cebpf4jnsgd1na2vs0mg"},{"bike_id":"10146837-d61a-4c8b-ab61-c6ec324480c5","system_id":"levelo_inurba_marseille","lat":43.2655,"lon":5.37289,"is_reserved":false,"is_disabled":false,"rental_uris":{"android":"levelo://app?vid=10146837-d61a-4c8b-ab61-c6ec324480c5","ios":"levelo://app?vid=10146837-d61a-4c8b-ab61-c6ec324480c5"},"vehicle_type_id":"4","last_reported":1769303152,"current_range_meters":9600,"station_id":"ce4bhg12rcd13ifvqf70","pricing_plan_id":"cebpf4jnsgd1na2vs0mg"},{"bike_id":"c23ade3a-cced-4cc0-b81a-14f1ce4564ee","system_id":"levelo_inurba_marseille","lat":43.28675,"lon":5.36349,"is_reserved":false,"is_disabled":false,"rental_uris":{"android":"levelo://app?vid=c23ade3a-cced-4cc0-b81a-14f1ce4564ee","ios":"levelo://app?vid=c23ade3a-cced-4cc0-b81a-14f1ce4564ee"},"vehicle_type_id":"4","last_reported":1769303152,"current_range_meters":10000,"station_id":"ce4bhah2rcd13ifvqej0","pricing_plan_id":"cebpf4jnsgd1na2vs0mg"},{"bike_id":"a31d4b1b-7a61-4655-ae18-d5254ed9b3a3","system_id":"levelo_inurba_marseille","lat":43.28533,"lon":5.44113,"is_reserved":false,"is_disabled":false,"rental_uris":{"android":"levelo://app?vid=a31d4b1b-7a61-4655-ae18-d5254ed9b3a3","ios":"levelo://app?vid=a31d4b1b-7a61-4655-ae18-d5254ed9b3a3"},"vehicle_type_id":"4","last_reported":1769303152,"current_range_meters":10000,"station_id":"st_d3j3df2ikq2c7380ej80","pricing_plan_id":"cebpf4jnsgd1na2vs0mg"},{"bike_id":"0a9315ef-49dd-4e1c-90ba-9ac1028ca5d9","system_id":"levelo_inurba_marseille","lat":43.32135,"lon":5.36785,"is_reserved":false,"is_disabled":false,"rental_uris":{"android":"levelo://app?vid=0a9315ef-49dd-4e1c-90ba-9ac1028ca5d9","ios":"levelo://app?vid=0a9315ef-49dd-4e1c-90ba-9ac1028ca5d9"},"vehicle_type_id":"4","last_reported":1769303152,"current_range_meters":10000,"station_id":"","pricing_plan_id":"cebpf4jnsgd1na2vs0mg"},