{"last_updated":1761927153,"ttl":60,"version":"2.2","data":{"bikes":[{"bike_id":"9576a2cd-3dd3-4505-b622-d3b6fcb66735","system_id":"levelo_inurba_marseille","lat":43.28968,"lon":5.37845,"is_reserved":false,"is_disabled":false,"rental_uris":{"android":"levelo://app?vid=9576a2cd-3dd3-4505-b622-d3b6fcb66735","ios":"levelo://app?vid=9576a2cd-3dd3-4505-b622-d3b6fcb66735"},"vehicle_type_id":"4","last_reported":1761927153,"current_range_meters":2800,"station_id":"ce4bh9p2rcd13ifvqed0","pricing_plan_id":"cebpf4jnsgd1na2vs0mg"},{"bike_id":"07674c93-705d-4d1f-be0f-b4cb63a4f0e7","system_id":"levelo_inurba_marseille","lat":43.295224,"lon":5.37505,"is_reserved":false,"is_disabled":false,"rental_uris":{"android":"levelo://app?vid=07674c93-705d-4d1f-be0f-b4cb63a4f0e7","ios":"levelo://app?vid=07674c93-705d-4d1f-be0f-b4cb63a4f0e7"},"vehicle_type_id":"4","last_reported":1761927153,"current_range_meters":2800,"station_id":"ce4bgkp2rcd13ifvqbmg","pricing_plan_id":"cebpf4jnsgd1na2vs0mg"},{"bike_id":"583af274-42e0-4304-ba2c-e3d7af33bd13","system_id":"levelo_inurba_marseille","lat":43.28356,"lon":5.38104,"is_reserved":false,"is_disabled":false,"rental_uris":{"android":"levelo://app?vid=583af274-42e0-4304-ba2c-e3d7af33bd13","ios":"levelo://app?vid=583af274-42e0-4304-ba2c-e3d7af33bd13"},"vehicle_type_id":"4","last_reported":1761927153,"current_range_meters":2800,"station_id":"ce4bh412rcd13ifvqdr0","pricing_plan_id":"cebpf4jnsgd1na2vs0mg"},{"bike_id":"8e8df1fe-1baf-41d9-923d-be1b19c1e150","system_id":"levelo_inurba_marseille","lat":43.2894,"lon":5.36389,"is_reserved":false,"is_disabled":false,"rental_uris":{"android":"levelo://app?vid=8e8df1fe-1baf-41d9-923d-be1b19c1e150","ios":"levelo://app?vid=8e8df1fe-1baf-41d9-923d-be1b19c1e150"},"vehicle_type_id":"4","last_reported":1761927153,"current_range_meters":3200,"station_id":"ce4bhc92rcd13ifvqetg","pricing_plan_id":"cebpf4jnsgd1na2vs0mg"},{"bike_id":"77608e2a-e6f8-44c1-a16a-02c8b5f13bdd","system_id":"levelo_inurba_marseille","lat":43.28679,"lon":5.39985,"is_reserved":false,"is_disabled":false,"rental_uris":{"android":"levelo://app?vid=77608e2a-e6f8-44c1-a16a-02c8b5f13bdd","ios":"levelo://app?vid=77608e2a-e6f8-44c1-a16a-02c8b5f13bdd"},"vehicle_type_id":"4","last_reported":1761927153,"current_range_meters":3200,"station_id":"ce4bho92rcd13ifvqh3g","pricing_plan_id":"cebpf4jnsgd1na2vs0mg"},{"bike_id":"465a950f-babe-4c10-9bda-1d99b3678051","system_id":"levelo_inurba_marseille","lat":43.29487,"lon":5.43325,"is_reserved":false,"is_disabled":false,"rental_uris":{"android":"levelo://app?vid=465a950f-babe-4c10-9bda-1d99b3678051","ios":"levelo://app?vid=465a950f-babe-4c10-9bda-1d99b3678051"},"vehicle_type_id":"4","last_reported":1761927153,"current_range_meters":3200,"station_id":"st_d3j5ugp08ojc73fj9d10","pricing_plan_id":"cebpf4jnsgd1na2vs0mg"},{"bike_id":"09155159-fd47-4e1b-9d5e-4d62a4b63bc5","system_id":"levelo_inurba_marseille","lat":43.25335,"lon":5.42178,"is_reserved":false,"is_disabled":false,"rental_uris":{"android":"levelo://app?vid=09155159-fd47-4e1b-9d5e-4d62a4b63bc5","ios":"levelo://app?vid=09155159-fd47-4e1b-9d5e-4d62a4b63bc5"},"vehicle_type_id":"4","last_reported":1761927153,"current_range_meters":3200,"station_id":"","pricing_plan_id":"cebpf4jnsgd1na2vs0mg"},{"bike_id":"028e6e83-ae09-4507-8159-7b030bbae4db","system_id":"levelo_inurba_marseille","lat":43.31218,"lon":5.36846,"is_reserved":false,"is_disabled":false,"rental_uris":{"android":"levelo://app?vid=028e6e83-ae09-4507-8159-7b030bbae4db","ios":"levelo://app?vid=028e6e83-ae09-4507-8159-7b030bbae4db"},"vehicle_type_id":"4","last_reported":1761927153,"current_range_meters":3600,"station_id":"ce4bgl92rcd13ifvqbq0","pricing_plan_id":"cebpf4jnsgd1na2vs0mg"},{"bike_id":"ea026366-bc0e-4c94-9d28-6400e68b55bf","system_id":"levelo_inurba_marseille","lat":43.31713,"lon":5.43716,"is_reserved":false,"is_disabled":false,"rental_uris":{"android":"levelo://app?vid=ea026366-bc0e-4c94-9d28-6400e68b55bf","ios":"levelo://app?vid=ea026366-bc0e-4c94-9d28-6400e68b55bf"},"vehicle_type_id":"4","last_reported":1761927153,"current_range_meters":3600,"station_id":"ce4bhp92rcd13ifvqhcg","pricing_plan_id":"cebpf4jnsgd1na2vs0mg"},{"bike_id":"137b5ebd-6460-4010-aeb9-d0fbe524a030","system_id":"levelo_inurba_marseille","lat":43.30912,"lon":5.37296,"is_reserved":false,"is_disabled":false,"rental_uris":{"android":"levelo://app?vid=137b5ebd-6460-4010-aeb9-d0fbe524a030","ios":"levelo://app?vid=137b5ebd-6460-4010-aeb9-d0fbe524a030"},"vehicle_type_id":"4","last_reported":1761927153,"current_range_meters":4000,"station_id":"","pricing_plan_id":"cebpf4jnsgd1na2vs0mg"},{"bike_id":"80cde17b-197a-4666-8e1e-92c981f7a2d9","system_id":"levelo_inurba_marseille","lat":43.295444,"lon":5.42294,"is_reserved":false,"is_disabled":false,"rental_uris":{"android":"levelo://app?vid=80cde17b-197a-4666-8e1e-92c981f7a2d9","ios":"levelo://app?vid=80cde17b-197a-4666-8e1e-92c981f7a2d9"},"vehicle_type_id":"4","last_reported":1761927153,"current_range_meters":4000,"station_id":"ce4bhph2rcd13ifvqhdg","pricing_plan_id":"cebpf4jnsgd1na2vs0mg"},{"bike_id":"68618520-cfb3-423f-80d3-84d02ed9fa76","system_id":"levelo_inurba_marseille","lat":43.25578,"lon":5.382432,"is_reserved":false,"is_disabled":false,"rental_uris":{"android":"levelo://app?vid=68618520-cfb3-423f-80d3-84d02ed9fa76","ios":"levelo://app?vid=68618520-cfb3-423f-80d3-84d02ed9fa76"},"vehicle_type_id":"4","last_reported":1761927153,"current_range_meters":4000,"station_id":"ce4bhih2rcd13ifvqfs0","pricing_plan_id":"cebpf4jnsgd1na2vs0mg"},{"bike_id":"3d7f8103-0fd3-4719-9f23-a471c57d303b","system_id":"levelo_inurba_marseille","lat":43.31074,"lon":5.38358,"is_reserved":false,"is_disabled":false,"rental_uris":{"android":"levelo://app?vid=3d7f8103-0fd3-4719-9f23-a471c57d303b","ios":"levelo://app?vid=3d7f8103-0fd3-4719-9f23-a471c57d303b"},"vehicle_type_id":"4","last_reported":1761927153,"current_range_meters":4000,"station_id":"ce4bgv92rcd13ifvqcr0","pricing_plan_id":"cebpf4jnsgd1na2vs0mg"},{"bike_id":"52357adb-a085-437a-8ebc-b4652b9e84ed","system_id":"levelo_inurba_marseille","lat":43.26216,"lon":5.37442,"is_reserved":false,"is_disabled":false,"rental_uris":{"android":"levelo://app?vid=52357adb-a085-437a-8ebc-b4652b9e84ed","ios":"levelo://app?vid=52357adb-a085-437a-8ebc-b4652b9e84ed"},"vehicle_type_id":"4","last_reported":1761927153,"current_range_meters":4000,"station_id":"ce4bhgp2rcd13ifvqfc0","pricing_plan_id":"cebpf4jnsgd1na2vs0mg"},{"bike_id":"6ee2f1fe-99e5-4076-b75f-c55a59a38301","system_id":"levelo_inurba_marseille","lat":43.25111,"lon":5.40333,"is_reserved":false,"is_disabled":false,"rental_uris":{"android":"levelo://app?vid=6ee2f1fe-99e5-4076-b75f-c55a59a38301","ios":"levelo://app?vid=6ee2f1fe-99e5-4076-b75f-c55a59a38301"},"vehicle_type_id":"4","last_reported":1761927153,"current_range_meters":4800,"station_id":"ce4bhlh2rcd13ifvqgig","pricing_plan_id":"cebpf4jnsgd1na2vs0mg"},{"bike_id":"fcc02a4d-ba7d-46d3-8617-529737cfcc90","system_id":"levelo_inurba_marseille","lat":43.29609,"lon":5.38109,"is_reserved":false,"is_disabled":false,"rental_uris":{"android":"levelo://app?vid=fcc02a4d-ba7d-46d3-8617-529737cfcc90","ios":"levelo://app?vid=fcc02a4d-ba7d-46d3-8617-529737cfcc90"},"vehicle_type_id":"4","last_reported":1761927153,"current_range_meters":4800,"station_id":"ce4bgl12rcd13ifvqbo0","pricing_plan_id":"cebpf4jnsgd1na2vs0mg"},{"bike_id":"839a751d-6484-4e5b-955a-e422ec10a2d5","system_id":"levelo_inurba_marseille","lat":43.31332,"lon":5.3969,"is_reserved":false,"is_disabled":false,"rental_uris":{"android":"levelo://app?vid=839a751d-6484-4e5b-955a-e422ec10a2d5","ios":"levelo://app?vid=839a751d-6484-4e5b-955a-e422ec10a2d5"},"vehicle_type_id":"4","last_reported":1761927153,"current_range_meters":4800,"station_id":"ce4bgvp2rcd13ifvqcu0","pricing_plan_id":"cebpf4jnsgd1na2vs0mg"},{"bike_id":"2c28eae7-ae69-4bbd-b543-da98b26b9927","system_id":"levelo_inurba_marseille","lat":43.30244,"lon":5.40112,"is_reserved":false,"is_disabled":false,"rental_uris":{"android":"levelo://app?vid=2c28eae7-ae69-4bbd-b543-da98b26b9927","ios":"levelo://app?vid=2c28eae7-ae69-4bbd-b543-da98b26b9927"},"vehicle_type_id":"4","last_reported":1761927153,"current_range_meters":5600,"station_id":"ce4bgvh2rcd13ifvqcs0","pricing_plan_id":"cebpf4jnsgd1na2vs0mg"},{"bike_id":"db1231fd-c8c9-4ba4-b58a-4305d37756ee","system_id":"levelo_inurba_marseille","lat":43.32539,"lon":5.41427,"is_reserved":false,"is_disabled":false,"rental_uris":{"android":"levelo://app?vid=db1231fd-c8c9-4ba4-b58a-4305d37756ee","ios":"levelo://app?vid=db1231fd-c8c9-4ba4-b58a-4305d37756ee"},"vehicle_type_id":"4","last_reported":1761927153,"current_range_meters":6000,"station_id":"ce4bhq12rcd13ifvqhhg","pricing_plan_id":"cebpf4jnsgd1na2vs0mg"},{"bike_id":"af7e63a3-f071-4be5-aa2a-93d9085c6cb1","system_id":"levelo_inurba_marseille","lat":43.2603,"lon":5.37554,"is_reserved":false,"is_disabled":false,"rental_uris":{"android":"levelo://app?vid=af7e63a3-f071-4be5-aa2a-93d9085c6cb1","ios":"levelo://app?vid=af7e63a3-f071-4be5-aa2a-93d9085c6cb1"},"vehicle_type_id":"4","last_reported":1761927153,"current_range_meters":6000,"station_id":"ce4bhgh2rcd13ifvqfa0","pricing_plan_id":"cebpf4jnsgd1na2vs0mg"},{"bike_id":"d20c4d30-7835-4848-ad1c-4a6356b1e6a5","system_id":"levelo_inurba_marseille","lat":43.31344,"lon":5.39702,"is_reserved":false,"is_disabled":false,"rental_uris":{"android":"levelo://app?vid=d20c4d30-7835-4848-ad1c-4a6356b1e6a5","ios":"levelo://app?vid=d20c4d30-7835-4848-ad1c-4a6356b1e6a5"},"vehicle_type_id":"4","last_reported":1761927153,"current_range_meters":6400,"station_id":"ce4bgvp2rcd13ifvqcu0","pricing_plan_id":"cebpf4jnsgd1na2vs0mg"},{"bike_id":"1bdb0524-fd2f-434a-9e83-4b7a1a09b5bb","system_id":"levelo_inurba_marseille","lat":43.33388,"lon":5.41127,"is_reserved":false,"is_disabled":false,"rental_uris":{"android":"levelo://app?vid=1bdb0524-fd2f-434a-9e83-4b7a1a09b5bb","ios":"levelo://app?vid=1bdb0524-fd2f-434a-9e83-4b7a1a09b5bb"},"vehicle_type_id":"4","last_reported":1761927153,"current_range_meters":6400,"station_id":"","pricing_plan_id":"cebpf4jnsgd1na2vs0mg"},{"bike_id":"3524451f-3b60-4050-bfbe-051dc7842f7d","system_id":"levelo_inurba_marseille","lat":43.30882,"lon":5.39658,"is_reserved":false,"is_disabled":false,"rental_uris":{"android":"levelo://app?vid=3524451f-3b60-4050-bfbe-051dc7842f7d","ios":"levelo://app?vid=3524451f-3b60-4050-bfbe-051dc7842f7d"},"vehicle_type_id":"4","last_reported":1761927153,"current_range_meters":6400,"station_id":"ce4bh012rcd13ifvqcv0","pricing_plan_id":"cebpf4jnsgd1na2vs0mg"},{"bike_id":"0181abcb-06db-4986-9ddd-609f8594ba25","system_id":"levelo_inurba_marseille","lat":43.29535,"lon":5.3902,"is_reserved":false,"is_disabled":false,"rental_uris":{"android":"levelo://app?vid=0181abcb-06db-4986-9ddd-609f8594ba25","ios":"levelo://app?vid=0181abcb-06db-4986-9ddd-609f8594ba25"},"vehicle_type_id":"4","last_reported":1761927153,"current_range_meters":6800,"station_id":"","pricing_plan_id":"cebpf4jnsgd1na2vs0mg"},{"bike_id":"d66f0a2c-6a20-4c9c-9c48-a0af1bd64efa","system_id":"levelo_inurba_marseille","lat":43.21763,"lon":5.34605,"is_reserved":false,"is_disabled":false,"rental_uris":{"android":"levelo://app?vid=d66f0a2c-6a20-4c9c-9c48-a0af1bd64efa","ios":"levelo://app?vid=d66f0a2c-6a20-4c9c-9c48-a0af1bd64efa"},"vehicle_type_id":"4","last_reported":1761927153,"current_range_meters":6800,"station_id":"st_cvj6r9ubvosntc0bgbag","pricing_plan_id":"cebpf4jnsgd1na2vs0mg"},{"bike_id":"9038c29f-6a34-4120-bb79-f434e4a87b1c","system_id":"levelo_inurba_marseille","lat":43.23156,"lon":5.43717,"is_reserved":false,"is_disabled":false,"rental_uris":{"android":"levelo://app?vid=9038c29f-6a34-4120-bb79-f434e4a87b1c","ios":"levelo://app?vid=9038c29f-6a34-4120-bb79-f434e4a87b1c"},"vehicle_type_id":"4","last_reported":1761927153,"current_range_meters":6800,"station_id":"ce4bhmp2rcd13ifvqgog","pricing_plan_id":"cebpf4jnsgd1na2vs0mg"},{"bike_id":"4ea5c8d3-596b-4c15-9f77-2d54d14bff42","system_id":"levelo_inurba_marseille","lat":43.29875,"lon":5.3844,"is_reserved":false,"is_disabled":false,"rental_uris":{"android":"levelo://app?vid=4ea5c8d3-596b-4c15-9f77-2d54d14bff42","ios":"levelo://app?vid=4ea5c8d3-596b-4c15-9f77-2d54d14bff42"},"vehicle_type_id":"4","last_reported":1761927153,"current_range_meters":7200,"station_id":"","pricing_plan_id":"cebpf4jnsgd1na2vs0mg"},{"bike_id":"6fff56e2-dc33-4322-9554-e738206d1bc0","system_id":"levelo_inurba_marseille","lat":43.21212,"lon":5.35066,"is_reserved":false,"is_disabled":false,"rental_uris":{"android":"levelo://app?vid=6fff56e2-dc33-4322-9554-e738206d1bc0","ios":"levelo://app?vid=6fff56e2-dc33-4322-9554-e738206d1bc0"},"vehicle_type_id":"4","last_reported":1761927153,"current_range_meters":7200,"station_id":"st_cvj6sg6p6f1abm77japg","pricing_plan_id":"cebpf4jnsgd1na2vs0mg"},{"bike_id":"d375d988-ba89-432f-8e23-cb6b7ae9613e","system_id":"levelo_inurba_marseille","lat":43.29622,"lon":5.37168,"is_reserved":false,"is_disabled":false,"rental_uris":{"android":"levelo://app?vid=d375d988-ba89-432f-8e23-cb6b7ae9613e","ios":"levelo://app?vid=d375d988-ba89-432f-8e23-cb6b7ae9613e"},"vehicle_type_id":"4","last_reported":1761927153,"current_range_meters":7200,"station_id":"ce4bgnh2rcd13ifvqc0g","pricing_plan_id":"cebpf4jnsgd1na2vs0mg"},{"bike_id":"0ef006e8-f684-47db-8049-ac5eb38733b9","system_id":"levelo_inurba_marseille","lat":43.31706,"lon":5.43719,"is_reserved":false,"is_disabled":false,"rental_uris":{"android":"levelo://app?vid=0ef006e8-f684-47db-8049-ac5eb38733b9","ios":"levelo://app?vid=0ef006e8-f684-47db-8049-ac5eb38733b9"},"vehicle_type_id":"4","last_reported":1761927153,"current_range_meters":7200,"station_id":"ce4bhp92rcd13ifvqhcg","pricing_plan_id":"cebpf4jnsgd1na2vs0mg"},{"bike_id":"5eec6890-1f59-4fba-bd87-b302744fea18","system_id":"levelo_inurba_marseille","lat":43.288553,"lon":5.425202,"is_reserved":false,"is_disabled":false,"rental_uris":{"android":"levelo://app?vid=5eec6890-1f59-4fba-bd87-b302744fea18","ios":"levelo://app?vid=5eec6890-1f59-4fba-bd87-b302744fea18"},"vehicle_type_id":"4","last_reported":1761927153,"current_range_meters":7200,"station_id":"st_d3b462108ojc7389ooeg","pricing_plan_id":"cebpf4jnsgd1na2vs0mg"},{"bike_id":"8f2eb767-8f55-4624-b267-ea3c5034fdcf","system_id":"levelo_inurba_marseille","lat":43.21195,"lon":5.35077,"is_reserved":false,"is_disabled":false,"rental_uris":{"android":"levelo://app?vid=8f2eb767-8f55-4624-b267-ea3c5034fdcf","ios":"levelo://app?vid=8f2eb767-8f55-4624-b267-ea3c5034fdcf"},"vehicle_type_id":"4","last_reported":1761927153,"current_range_meters":8000,"station_id":"st_cvj6sg6p6f1abm77japg","pricing_plan_id":"cebpf4jnsgd1na2vs0mg"},{"bike_id":"1c67b6ee-66cc-43c9-8b01-d5515ea5d154","system_id":"levelo_inurba_marseille","lat":43.26594,"lon":5.39021,"is_reserved":false,"is_disabled":false,"rental_uris":{"android":"levelo://app?vid=1c67b6ee-66cc-43c9-8b01-d5515ea5d154","ios":"levelo://app?vid=1c67b6ee-66cc-43c9-8b01-d5515ea5d154"},"vehicle_type_id":"4","last_reported":1761927153,"current_range_meters":8000,"station_id":"ce4bhe12rcd13ifvqf30","pricing_plan_id":"cebpf4jnsgd1na2vs0mg"},{"bike_id":"1f4e4ff4-c82c-4fd2-9ee2-dda274616ce8","system_id":"levelo_inurba_marseille","lat":43.29905,"lon":5.38147,"is_reserved":false,"is_disabled":false,"rental_uris":{"android":"levelo://app?vid=1f4e4ff4-c82c-4fd2-9ee2-dda274616ce8","ios":"levelo://app?vid=1f4e4ff4-c82c-4fd2-9ee2-dda274616ce8"},"vehicle_type_id":"4","last_reported":1761927153,"current_range_meters":8000,"station_id":"ce4bgj12rcd13ifvqbc0","pricing_plan_id":"cebpf4jnsgd1na2vs0mg"},{"bike_id":"78194578-5166-40e4-9dec-190be48c4a5d","system_id":"levelo_inurba_marseille","lat":43.288503,"lon":5.393141,"is_reserved":false,"is_disabled":false,"rental_uris":{"android":"levelo://app?vid=78194578-5166-40e4-9dec-190be48c4a5d","ios":"levelo://app?vid=78194578-5166-40e4-9dec-190be48c4a5d"},"vehicle_type_id":"4","last_reported":1761927153,"current_range_meters":8000,"station_id":"ce4bh2p2rcd13ifvqdi0","pricing_plan_id":"cebpf4jnsgd1na2vs0mg"},{"bike_id":"30c30e8c-ac97-4a8d-8f9f-c4edb1d279eb","system_id":"levelo_inurba_marseille","lat":43.315288,"lon":5.380385,"is_reserved":false,"is_disabled":false,"rental_uris":{"android":"levelo://app?vid=30c30e8c-ac97-4a8d-8f9f-c4edb1d279eb","ios":"levelo://app?vid=30c30e8c-ac97-4a8d-8f9f-c4edb1d279eb"},"vehicle_type_id":"4","last_reported":1761927153,"current_range_meters":8000,"station_id":"ce4bhsp2rcd13ifvqi50","pricing_plan_id":"cebpf4jnsgd1na2vs0mg"},{"bike_id":"688e0991-23bb-4f67-a97d-b9bb7704a66a","system_id":"levelo_inurba_marseille","lat":43.29255,"lon":5.39101,"is_reserved":false,"is_disabled":false,"rental_uris":{"android":"levelo://app?vid=688e0991-23bb-4f67-a97d-b9bb7704a66a","ios":"levelo://app?vid=688e0991-23bb-4f67-a97d-b9bb7704a66a"},"vehicle_type_id":"4","last_reported":1761927153,"current_range_meters":8400,"station_id":"","pricing_plan_id":"cebpf4jnsgd1na2vs0mg"},{"bike_id":"fcab4ddf-7c9a-4832-a957-af763c1f4abb","system_id":"levelo_inurba_marseille","lat":43.30378,"lon":5.42481,"is_reserved":false,"is_disabled":true,"rental_uris":{"android":"levelo://app?vid=fcab4ddf-7c9a-4832-a957-af763c1f4abb","ios":"levelo://app?vid=fcab4ddf-7c9a-4832-a957-af763c1f4abb"},"vehicle_type_id":"4","last_reported":1761927153,"current_range_meters":8400,"station_id":"ce4bhoh2rcd13ifvqh6g","pricing_plan_id":"cebpf4jnsgd1na2vs0mg"},{"bike_id":"d31284ef-3728-430a-bb3f-4f02163b70ba","system_id":"levelo_inurba_marseille","lat":43.310634,"lon":5.400796,"is_reserved":false,"is_disabled":false,"rental_uris":{"android":"levelo://app?vid=d31284ef-3728-430a-bb3f-4f02163b70ba","ios":"levelo://app?vid=d31284ef-3728-430a-bb3f-4f02163b70ba"},"vehicle_type_id":"4","last_reported":1761927153,"current_range_meters":8400,"station_id":"ce4bhpp2rcd13ifvqhgg","pricing_plan_id":"cebpf4jnsgd1na2vs0mg"},{"bike_id":"fa145406-2579-4366-ae1b-7fb7453d2dbc","system_id":"levelo_inurba_marseille","lat":43.308626,"lon":5.378415,"is_reserved":false,"is_disabled":false,"rental_uris":{"android":"levelo://app?vid=fa145406-2579-4366-ae1b-7fb7453d2dbc","ios":"levelo://app?vid=fa145406-2579-4366-ae1b-7fb7453d2dbc"},"vehicle_type_id":"4","last_reported":1761927153,"current_range_meters":8400,"station_id":"ce4bgup2rcd13ifvqcn0","pricing_plan_id":"cebpf4jnsgd1na2vs0mg"},{"bike_id":"838e1419-1861-4c91-a49c-00b892ba97b9","system_id":"levelo_inurba_marseille","lat":43.2817,"lon":5.42624,"is_reserved":false,"is_disabled":false,"rental_uris":{"android":"levelo://app?vid=838e1419-1861-4c91-a49c-00b892ba97b9","ios":"levelo://app?vid=838e1419-1861-4c91-a49c-00b892ba97b9"},"vehicle_type_id":"4","last_reported":1761927153,"current_range_meters":8400,"station_id":"ce4bhnh2rcd13ifvqgug","pricing_plan_id":"cebpf4jnsgd1na2vs0mg"},{"bike_id":"b41a26a2-4416-4670-92ef-4f9cf4633c3e","system_id":"levelo_inurba_marseille","lat":43.312377,"lon":5.368843,"is_reserved":false,"is_disabled":false,"rental_uris":{"android":"levelo://app?vid=b41a26a2-4416-4670-92ef-4f9cf4633c3e","ios":"levelo://app?vid=b41a26a2-4416-4670-92ef-4f9cf4633c3e"},"vehicle_type_id":"4","last_reported":1761927153,"current_range_meters":8800,"station_id":"ce4bgl92rcd13ifvqbq0","pricing_plan_id":"cebpf4jnsgd1na2vs0mg"},{"bike_id":"0370d89f-81f7-4bce-bab4-363fde223777","system_id":"levelo_inurba_marseille","lat":43.28946,"lon":5.39632,"is_reserved":false,"is_disabled":false,"rental_uris":{"android":"levelo://app?vid=0370d89f-81f7-4bce-bab4-363fde223777","ios":"levelo://app?vid=0370d89f-81f7-4bce-bab4-363fde223777"},"vehicle_type_id":"4","last_reported":1761927153,"current_range_meters":8800,"station_id":"ce4bh3h2rcd13ifvqdn0","pricing_plan_id":"cebpf4jnsgd1na2vs0mg"},{"bike_id":"87f249f1-d9d7-4f04-849a-57fd43ae720f","system_id":"levelo_inurba_marseille","lat":43.24805,"lon":5.37457,"is_reserved":false,"is_disabled":false,"rental_uris":{"android":"levelo://app?vid=87f249f1-d9d7-4f04-849a-57fd43ae720f","ios":"levelo://app?vid=87f249f1-d9d7-4f04-849a-57fd43ae720f"},"vehicle_type_id":"4","last_reported":1761927153,"current_range_meters":8800,"station_id":"ce4bhgh2rcd13ifvqfb0","pricing_plan_id":"cebpf4jnsgd1na2vs0mg"},{"bike_id":"4d93eaa9-e5ae-4b05-a4bd-b2e06770222f","system_id":"levelo_inurba_marseille","lat":43.231506,"lon":5.437224,"is_reserved":false,"is_disabled":false,"rental_uris":{"android":"levelo://app?vid=4d93eaa9-e5ae-4b05-a4bd-b2e06770222f","ios":"levelo://app?vid=4d93eaa9-e5ae-4b05-a4bd-b2e06770222f"},"vehicle_type_id":"4","last_reported":1761927153,"current_range_meters":8800,"station_id":"ce4bhmp2rcd13ifvqgog","pricing_plan_id":"cebpf4jnsgd1na2vs0mg"},{"bike_id":"dbbf01d5-146c-4703-b0d4-a6fb876476cb","system_id":"levelo_inurba_marseille","lat":43.21202,"lon":5.35099,"is_reserved":false,"is_disabled":false,"rental_uris":{"android":"levelo://app?vid=dbbf01d5-146c-4703-b0d4-a6fb876476cb","ios":"levelo://app?vid=dbbf01d5-146c-4703-b0d4-a6fb876476cb"},"vehicle_type_id":"4","last_reported":1761927153,"current_range_meters":8800,"station_id":"st_cvj6sg6p6f1abm77japg","pricing_plan_id":"cebpf4jnsgd1na2vs0mg"},{"bike_id":"b244d664-21b8-44c6-a734-ede89278988f","system_id":"levelo_inurba_marseille","lat":43.29035,"lon":5.37571,"is_reserved":false,"is_disabled":false,"rental_uris":{"android":"levelo://app?vid=b244d664-21b8-44c6-a734-ede89278988f","ios":"levelo://app?vid=b244d664-21b8-44c6-a734-ede89278988f"},"vehicle_type_id":"4","last_reported":1761927153,"current_range_meters":8800,"station_id":"ce4bh692rcd13ifvqe90","pricing_plan_id":"cebpf4jnsgd1na2vs0mg"},{"bike_id":"3882c147-463d-4fec-830f-b93fd7e1d044","system_id":"levelo_inurba_marseille","lat":43.27918,"lon":5.3959,"is_reserved":false,"is_disabled":false,"rental_uris":{"android":"levelo://app?vid=3882c147-463d-4fec-830f-b93fd7e1d044","ios":"levelo://app?vid=3882c147-463d-4fec-830f-b93fd7e1d044"},"vehicle_type_id":"4","last_reported":1761927153,"current_range_meters":9200,"station_id":"ce4bhf92rcd13ifvqf40","pricing_plan_id":"cebpf4jnsgd1na2vs0mg"},{"bike_id":"9b02e734-5b5d-42ed-bd93-542e8ae5d635","system_id":"levelo_inurba_marseille","lat":43.30533,"lon":5.36552,"is_reserved":false,"is_disabled":false,"rental_uris":{"android":"levelo://app?vid=9b02e734-5b5d-42ed-bd93-542e8ae5d635","ios":"levelo://app?vid=9b02e734-5b5d-42ed-bd93-542e8ae5d635"},"vehicle_type_id":"4","last_reported":1761927153,"current_range_meters":9200,"station_id":"","pricing_plan_id":"cebpf4jnsgd1na2vs0mg"},{"bike_id":"d99505fe-d7a7-4e44-b7f5-f0065cd01a03","system_id":"levelo_inurba_marseille","lat":43.33367,"lon":5.42915,"is_reserved":false,"is_disabled":false,"rental_uris":{"android":"levelo://app?vid=d99505fe-d7a7-4e44-b7f5-f0065cd01a03","ios":"levelo://app?vid=d99505fe-d7a7-4e44-b7f5-f0065cd01a03"},"vehicle_type_id":"4","last_reported":1761927153,"current_range_meters":9600,"station_id":"","pricing_plan_id":"cebpf4jnsgd1na2vs0mg"},{"bike_id":"b7bf08da-3155-4ebd-90f6-2c65138a1e9a","system_id":"levelo_inurba_marseille","lat":43.21195,"lon":5.35075,"is_reserved":false,"is_disabled":false,"rental_uris":{"android":"levelo://app?vid=b7bf08da-3155-4ebd-90f6-2c65138a1e9a","ios":"levelo://app?vid=b7bf08da-3155-4ebd-90f6-2c65138a1e9a"},"vehicle_type_id":"4","last_reported":1761927153,"current_range_meters":9600,"station_id":"st_cvj6sg6p6f1abm77japg","pricing_plan_id":"cebpf4jnsgd1na2vs0mg"},{"bike_id":"a18dbf48-2c4d-4fa4-a4c5-c9871d73c9a0","system_id":"levelo_inurba_marseille","lat":43.301994,"lon":5.383462,"is_reserved":false,"is_disabled":false,"rental_uris":{"android":"levelo://app?vid=a18dbf48-2c4d-4fa4-a4c5-c9871d73c9a0","ios":"levelo://app?vid=a18dbf48-2c4d-4fa4-a4c5-c9871d73c9a0"},"vehicle_type_id":"4","last_reported":1761927153,"current_range_meters":9600,"station_id":"ce4bgup2rcd13ifvqcn0","pricing_plan_id":"cebpf4jnsgd1na2vs0mg"},{"bike_id":"a198cb4c-2d8b-449c-8760-8e8d627c44f8","system_id":"levelo_inurba_marseille","lat":43.21751,"lon":5.34602,"is_reserved":false,"is_disabled":false,"rental_uris":{"android":"levelo://app?vid=a198cb4c-2d8b-449c-8760-8e8d627c44f8","ios":"levelo://app?vid=a198cb4c-2d8b-449c-8760-8e8d627c44f8"},"vehicle_type_id":"4","last_reported":1761927153,"current_range_meters":9600,"station_id":"st_cvj6r9ubvosntc0bgbag","pricing_plan_id":"cebpf4jnsgd1na2vs0mg"},{"bike_id":"9b93b5e1-c939-4745-bf85-2d21945442dc","system_id":"levelo_inurba_marseille","lat":43.29986,"lon":5.3641,"is_reserved":false,"is_disabled":false,"rental_uris":{"android":"levelo://app?vid=9b93b5e1-c939-4745-bf85-2d21945442dc","ios":"levelo://app?vid=9b93b5e1-c939-4745-bf85-2d21945442dc"},"vehicle_type_id":"4","last_reported":1761927153,"current_range_meters":10000,"station_id":"","pricing_plan_id":"cebpf4jnsgd1na2vs0mg"},{"bike_id":"a6a925b2-50c5-4270-8919-cfe944d845e1","system_id":"levelo_inurba_marseille","lat":43.29268,"lon":5.3843,"is_reserved":false,"is_disabled":false,"rental_uris":{"android":"levelo://app?vid=a6a925b2-50c5-4270-8919-cfe944d845e1","ios":"levelo://app?vid=a6a925b2-50c5-4270-8919-cfe944d845e1"},"vehicle_type_id":"4","last_reported":1761927153,"current_range_meters":10000,"station_id":"ce4bh692rcd13ifvqea0","pricing_plan_id":"cebpf4jnsgd1na2vs0mg"},{"bike_id":"12c24c1a-5f34-4e4f-b6c0-f07cd6755b8d","system_id":"levelo_inurba_marseille","lat":43.24945,"lon":5.405047,"is_reserved":false,"is_disabled":false,"rental_uris":{"android":"levelo://app?vid=12c24c1a-5f34-4e4f-b6c0-f07cd6755b8d","ios":"levelo://app?vid=12c24c1a-5f34-4e4f-b6c0-f07cd6755b8d"},"vehicle_type_id":"4","last_reported":1761927153,"current_range_meters":10000,"station_id":"st_d2ngiaodas8pm72gd1h0","pricing_plan_id":"cebpf4jnsgd1na2vs0mg"},{"bike_id":"b47b3aef-2196-41f4-9181-c15687e44fbb","system_id":"levelo_inurba_marseille","lat":43.28946,"lon":5.36641,"is_reserved":false,"is_disabled":false,"rental_uris":{"android":"levelo://app?vid=b47b3aef-2196-41f4-9181-c15687e44fbb","ios":"levelo://app?vid=b47b3aef-2196-41f4-9181-c15687e44fbb"},"vehicle_type_id":"4","last_reported":1761927153,"current_range_meters":10000,"station_id":"ce4bhap2rcd13ifvqek0","pricing_plan_id":"cebpf4jnsgd1na2vs0mg"},{"bike_id":"6d793f1a-bffd-4dca-8689-f30f1f050b48","system_id":"levelo_inurba_marseille","lat":43.28538,"lon":5.44106,"is_reserved":false,"is_disabled":false,"rental_uris":{"android":"levelo://app?vid=6d793f1a-bffd-4dca-8689-f30f1f050b48","ios":"levelo://app?vid=6d793f1a-bffd-4dca-8689-f30f1f050b48"},"vehicle_type_id":"4","last_reported":1761927153,"current_range_meters":10000,"station_id":"st_d3j3df2ikq2c7380ej80","pricing_plan_id":"cebpf4jnsgd1na2vs0mg"},{"bike_id":"b61e1e59-261f-4781-9885-10fc3dd1eaf7","system_id":"levelo_inurba_marseille","lat":43.30497,"lon":5.36909,"is_reserved":false,"is_disabled":false,"rental_uris":{"android":"levelo://app?vid=b61e1e59-261f-4781-9885-10fc3dd1eaf7","ios":"levelo://app?vid=b61e1e59-261f-4781-9885-10fc3dd1eaf7"},"vehicle_type_id":"4","last_reported":1761927153,"current_range_meters":10000,"station_id":"","pricing_plan_id":"cebpf4jnsgd1na2vs0mg"},{"bike_id":"eff1a7f4-9c07-430e-88d0-fae254cf0222","system_id":"levelo_inurba_marseille","lat":43.21747,"lon":5.3461,"is_reserved":false,"is_disabled":false,"rental_uris":{"android":"levelo://app?vid=eff1a7f4-9c07-430e-88d0-fae254cf0222","ios":"levelo://app?vid=eff1a7f4-9c07-430e-88d0-fae254cf0222"},"vehicle_type_id":"4","last_reported":1761927153,"current_range_meters":10000,"station_id":"st_cvj6r9ubvosntc0bgbag","pricing_plan_id":"cebpf4jnsgd1na2vs0mg"},{"bike_id":"ff80c186-bf89-4d44-b05c-527ca7a1211d","system_id":"levelo_inurba_marseille","lat":43.211795,"lon":5.351163,"is_reserved":false,"is_disabled":false,"rental_uris":{"android":"levelo://app?vid=ff80c186-bf89-4d44-b05c-527ca7a1211d","ios":"levelo://app?vid=ff80c186-bf89-4d44-b05c-527ca7a1211d"},"vehicle_type_id":"4","last_reported":1761927153,"current_range_meters":10000,"station_id":"ce4bhh12rcd13ifvqff0","pricing_plan_id":"cebpf4jnsgd1na2vs0mg"},{"bike_id":"ee1c06d2-87e9-45bc-812f-c4e0804d9bf2","system_id":"levelo_inurba_marseille","lat":43.28361,"lon":5.38643,"is_reserved":false,"is_disabled":false,"rental_uris":{"android":"levelo://app?vid=ee1c06d2-87e9-45bc-812f-c4e0804d9bf2","ios":"levelo://app?vid=ee1c06d2-87e9-45bc-812f-c4e0804d9bf2"},"vehicle_type_id":"4","last_reported":1761927153,"current_range_meters":10000,"station_id":"ce4bh492rcd13ifvqdvg","pricing_plan_id":"cebpf4jnsgd1na2vs0mg"},{"bike_id":"f7203077-dd7c-4aee-847d-fd4b2947a5c5","system_id":"levelo_inurba_marseille","lat":43.28543,"lon":5.44101,"is_reserved":false,"is_disabled":false,"rental_uris":{"android":"levelo://app?vid=f7203077-dd7c-4aee-847d-fd4b2947a5c5","ios":"levelo://app?vid=f7203077-dd7c-4aee-847d-fd4b2947a5c5"},"vehicle_type_id":"4","last_reported":1761927153,"current_range_meters":10800,"station_id":"st_d3j3df2ikq2c7380ej80","pricing_plan_id":"cebpf4jnsgd1na2vs0mg"},{"bike_id":"24ab7996-1981-4de4-a985-70143349479c","system_id":"levelo_inurba_marseille","lat":43.2903,"lon":5.38636,"is_reserved":false,"is_disabled":false,"rental_uris":{"android":"levelo://app?vid=24ab7996-1981-4de4-a985-70143349479c","ios":"levelo://app?vid=24ab7996-1981-4de4-a985-70143349479c"},"vehicle_type_id":"4","last_reported":1761927153,"current_range_meters":10800,"station_id":"ce4bh4p2rcd13ifvqe0g","pricing_plan_id":"cebpf4jnsgd1na2vs0mg"},{"bike_id":"acbe752e-349a-43de-be14-7865c3ef0730","system_id":"levelo_inurba_marseille","lat":43.27995,"lon":5.40016,"is_reserved":false,"is_disabled":false,"rental_uris":{"android":"levelo://app?vid=acbe752e-349a-43de-be14-7865c3ef0730","ios":"levelo://app?vid=acbe752e-349a-43de-be14-7865c3ef0730"},"vehicle_type_id":"4","last_reported":1761927153,"current_range_meters":10800,"station_id":"ce4bho92rcd13ifvqh4g","pricing_plan_id":"cebpf4jnsgd1na2vs0mg"},{"bike_id":"ca08d221-4a28-4417-bf31-efc2ea1bbcaa","system_id":"levelo_inurba_marseille","lat":43.29685,"lon":5.37305,"is_reserved":false,"is_disabled":false,"rental_uris":{"android":"levelo://app?vid=ca08d221-4a28-4417-bf31-efc2ea1bbcaa","ios":"levelo://app?vid=ca08d221-4a28-4417-bf31-efc2ea1bbcaa"},"vehicle_type_id":"4","last_reported":1761927153,"current_range_meters":10800,"station_id":"ce4bgk12rcd13ifvqbj0","pricing_plan_id":"cebpf4jnsgd1na2vs0mg"},{"bike_id":"357e04f9-7d25-4a8d-b724-a1e284c29a99","system_id":"levelo_inurba_marseille","lat":43.318862,"lon":5.407402,"is_reserved":false,"is_disabled":false,"rental_uris":{"android":"levelo://app?vid=357e04f9-7d25-4a8d-b724-a1e284c29a99","ios":"levelo://app?vid=357e04f9-7d25-4a8d-b724-a1e284c29a99"},"vehicle_type_id":"4","last_reported":1761927153,"current_range_meters":10800,"station_id":"ce4bhq12rcd13ifvqhig","pricing_plan_id":"cebpf4jnsgd1na2vs0mg"},{"bike_id":"dc0724a6-b246-43ba-ae32-7b752bd44b97","system_id":"levelo_inurba_marseille","lat":43.25121,"lon":5.40319,"is_reserved":false,"is_disabled":false,"rental_uris":{"android":"levelo://app?vid=dc0724a6-b246-43ba-ae32-7b752bd44b97","ios":"levelo://app?vid=dc0724a6-b246-43ba-ae32-7b752bd44b97"},"vehicle_type_id":"4","last_reported":1761927153,"current_range_meters":11200,"station_id":"ce4bhlh2rcd13ifvqgig","pricing_plan_id":"cebpf4jnsgd1na2vs0mg"},{"bike_id":"03f5d961-b563-4c89-ab00-a9c25e6d1c25","system_id":"levelo_inurba_marseille","lat":43.31328,"lon":5.39703,"is_reserved":false,"is_disabled":false,"rental_uris":{"android":"levelo://app?vid=03f5d961-b563-4c89-ab00-a9c25e6d1c25","ios":"levelo://app?vid=03f5d961-b563-4c89-ab00-a9c25e6d1c25"},"vehicle_type_id":"4","last_reported":1761927153,"current_range_meters":11200,"station_id":"ce4bgvp2rcd13ifvqcu0","pricing_plan_id":"cebpf4jnsgd1na2vs0mg"},{"bike_id":"a3773489-5548-4ec6-bfac-3cb888ef68b5","system_id":"levelo_inurba_marseille","lat":43.304608,"lon":5.37907,"is_reserved":false,"is_disabled":false,"rental_uris":{"android":"levelo://app?vid=a3773489-5548-4ec6-bfac-3cb888ef68b5","ios":"levelo://app?vid=a3773489-5548-4ec6-bfac-3cb888ef68b5"},"vehicle_type_id":"4","last_reported":1761927153,"current_range_meters":11200,"station_id":"ce4bgup2rcd13ifvqcn0","pricing_plan_id":"cebpf4jnsgd1na2vs0mg"},{"bike_id":"b8f404d3-62c4-4489-a471-d37212346558","system_id":"levelo_inurba_marseille","lat":43.31065,"lon":5.37886,"is_reserved":false,"is_disabled":false,"rental_uris":{"android":"levelo://app?vid=b8f404d3-62c4-4489-a471-d37212346558","ios":"levelo://app?vid=b8f404d3-62c4-4489-a471-d37212346558"},"vehicle_type_id":"4","last_reported":1761927153,"current_range_meters":11200,"station_id":"","pricing_plan_id":"cebpf4jnsgd1na2vs0mg"},{"bike_id":"b9c34fc6-af90-4fbf-bd84-611ce4875e47","system_id":"levelo_inurba_marseille","lat":43.26481,"lon":5.39553,"is_reserved":false,"is_disabled":false,"rental_uris":{"android":"levelo://app?vid=b9c34fc6-af90-4fbf-bd84-611ce4875e47","ios":"levelo://app?vid=b9c34fc6-af90-4fbf-bd84-611ce4875e47"},"vehicle_type_id":"4","last_reported":1761927153,"current_range_meters":11600,"station_id":"ce4bhi12rcd13ifvqfq0","pricing_plan_id":"cebpf4jnsgd1na2vs0mg"},{"bike_id":"0cce5814-a6c8-43a8-96e9-37f297aa621e","system_id":"levelo_inurba_marseille","lat":43.28486,"lon":5.48394,"is_reserved":false,"is_disabled":false,"rental_uris":{"android":"levelo://app?vid=0cce5814-a6c8-43a8-96e9-37f297aa621e","ios":"levelo://app?vid=0cce5814-a6c8-43a8-96e9-37f297aa621e"},"vehicle_type_id":"4","last_reported":1761927153,"current_range_meters":11600,"station_id":"st_d3svhcjqgbts73a3dn0g","pricing_plan_id":"cebpf4jnsgd1na2vs0mg"},{"bike_id":"beb1486a-19c1-4733-88e6-05abeba87db4","system_id":"levelo_inurba_marseille","lat":43.27178,"lon":5.40988,"is_reserved":false,"is_disabled":false,"rental_uris":{"android":"levelo://app?vid=beb1486a-19c1-4733-88e6-05abeba87db4","ios":"levelo://app?vid=beb1486a-19c1-4733-88e6-05abeba87db4"},"vehicle_type_id":"4","last_reported":1761927153,"current_range_meters":11600,"station_id":"ce4bhl12rcd13ifvqgf0","pricing_plan_id":"cebpf4jnsgd1na2vs0mg"},{"bike_id":"3be15a2c-1a7e-4615-ae10-d7b01a2ea105","system_id":"levelo_inurba_marseille","lat":43.2481,"lon":5.37465,"is_reserved":false,"is_disabled":false,"rental_uris":{"android":"levelo://app?vid=3be15a2c-1a7e-4615-ae10-d7b01a2ea105","ios":"levelo://app?vid=3be15a2c-1a7e-4615-ae10-d7b01a2ea105"},"vehicle_type_id":"4","last_reported":1761927153,"current_range_meters":12000,"station_id":"ce4bhgh2rcd13ifvqfb0","pricing_plan_id":"cebpf4jnsgd1na2vs0mg"},{"bike_id":"2f477f8f-972b-406c-841a-14096d9c76ee","system_id":"levelo_inurba_marseille","lat":43.297503,"lon":5.427873,"is_reserved":false,"is_disabled":false,"rental_uris":{"android":"levelo://app?vid=2f477f8f-972b-406c-841a-14096d9c76ee","ios":"levelo://app?vid=2f477f8f-972b-406c-841a-14096d9c76ee"},"vehicle_type_id":"4","last_reported":1761927153,"current_range_meters":12000,"station_id":"st_d3md5207bmas73dh9klg","pricing_plan_id":"cebpf4jnsgd1na2vs0mg"},{"bike_id":"80c53fab-d9fd-4b9a-94e7-e3f3183e35da","system_id":"levelo_inurba_marseille","lat":43.33008,"lon":5.39031,"is_reserved":false,"is_disabled":false,"rental_uris":{"android":"levelo://app?vid=80c53fab-d9fd-4b9a-94e7-e3f3183e35da","ios":"levelo://app?vid=80c53fab-d9fd-4b9a-94e7-e3f3183e35da"},"vehicle_type_id":"4","last_reported":1761927153,"current_range_meters":12000,"station_id":"ce4bhr92rcd13ifvqhrg","pricing_plan_id":"cebpf4jnsgd1na2vs0mg"},{"bike_id":"52c9906d-aae6-424f-acd9-5d23ab6ce71f","system_id":"levelo_inurba_marseille","lat":43.24694,"lon":5.38173,"is_reserved":false,"is_disabled":false,"rental_uris":{"android":"levelo://app?vid=52c9906d-aae6-424f-acd9-5d23ab6ce71f","ios":"levelo://app?vid=52c9906d-aae6-424f-acd9-5d23ab6ce71f"},"vehicle_type_id":"4","last_reported":1761927153,"current_range_meters":12000,"station_id":"ce4bhih2rcd13ifvqfr0","pricing_plan_id":"cebpf4jnsgd1na2vs0mg"},{"bike_id":"70b7527d-67eb-4818-84c6-51aae343ca97","system_id":"levelo_inurba_marseille","lat":43.28491,"lon":5.4842,"is_reserved":false,"is_disabled":false,"rental_uris":{"android":"levelo://app?vid=70b7527d-67eb-4818-84c6-51aae343ca97","ios":"levelo://app?vid=70b7527d-67eb-4818-84c6-51aae343ca97"},"vehicle_type_id":"4","last_reported":1761927153,"current_range_meters":12000,"station_id":"st_d3svhcjqgbts73a3dn0g","pricing_plan_id":"cebpf4jnsgd1na2vs0mg"},{"bike_id":"e093c618-c8bf-4a6a-b536-bb7cc5344fc1","system_id":"levelo_inurba_marseille","lat":43.31886,"lon":5.40744,"is_reserved":false,"is_disabled":false,"rental_uris":{"android":"levelo://app?vid=e093c618-c8bf-4a6a-b536-bb7cc5344fc1","ios":"levelo://app?vid=e093c618-c8bf-4a6a-b536-bb7cc5344fc1"},"vehicle_type_id":"4","last_reported":1761927153,"current_range_meters":12400,"station_id":"ce4bhq12rcd13ifvqhig","pricing_plan_id":"cebpf4jnsgd1na2vs0mg"},{"bike_id":"e1374d14-ca8c-4d30-bf7a-1e91101e2cee","system_id":"levelo_inurba_marseille","lat":43.28537,"lon":5.44128,"is_reserved":false,"is_disabled":false,"rental_uris":{"android":"levelo://app?vid=e1374d14-ca8c-4d30-bf7a-1e91101e2cee","ios":"levelo://app?vid=e1374d14-ca8c-4d30-bf7a-1e91101e2cee"},"vehicle_type_id":"4","last_reported":1761927153,"current_range_meters":12400,"station_id":"st_d3j3df2ikq2c7380ej80","pricing_plan_id":"cebpf4jnsgd1na2vs0mg"},{"bike_id":"ee261a32-9de1-4b9e-a923-6c91e1e26176","system_id":"levelo_inurba_marseille","lat":43.28478,"lon":5.48386,"is_reserved":false,"is_disabled":false,"rental_uris":{"android":"levelo://app?vid=ee261a32-9de1-4b9e-a923-6c91e1e26176","ios":"levelo://app?vid=ee261a32-9de1-4b9e-a923-6c91e1e26176"},"vehicle_type_id":"4","last_reported":1761927153,"current_range_meters":12400,"station_id":"st_d3svhcjqgbts73a3dn0g","pricing_plan_id":"cebpf4jnsgd1na2vs0mg"},{"bike_id":"e3733436-b173-450a-a5c7-ace99ba58b7b","system_id":"levelo_inurba_marseille","lat":43.295317,"lon":5.424669,"is_reserved":false,"is_disabled":false,"rental_uris":{"android":"levelo://app?vid=e3733436-b173-450a-a5c7-ace99ba58b7b","ios":"levelo://app?vid=e3733436-b173-450a-a5c7-ace99ba58b7b"},"vehicle_type_id":"4","last_reported":1761927153,"current_range_meters":12400,"station_id":"ce4bhph2rcd13ifvqhdg","pricing_plan_id":"cebpf4jnsgd1na2vs0mg"},{"bike_id":"1213ff01-604d-4b83-b3a2-60440c4b245e","system_id":"levelo_inurba_marseille","lat":43.23784,"lon":5.3661,"is_reserved":false,"is_disabled":false,"rental_uris":{"android":"levelo://app?vid=1213ff01-604d-4b83-b3a2-60440c4b245e","ios":"levelo://app?vid=1213ff01-604d-4b83-b3a2-60440c4b245e"},"vehicle_type_id":"4","last_reported":1761927153,"current_range_meters":12400,"station_id":"st_d3nk18o9ro0c73en2l3g","pricing_plan_id":"cebpf4jnsgd1na2vs0mg"},{"bike_id":"96ad2f8e-1ff0-415a-a84a-9186f2a5baf6","system_id":"levelo_inurba_marseille","lat":43.29606,"lon":5.37672,"is_reserved":false,"is_disabled":false,"rental_uris":{"android":"levelo://app?vid=96ad2f8e-1ff0-415a-a84a-9186f2a5baf6","ios":"levelo://app?vid=96ad2f8e-1ff0-415a-a84a-9186f2a5baf6"},"vehicle_type_id":"4","last_reported":1761927153,"current_range_meters":12400,"station_id":"ce4bgi12rcd13ifvqb80","pricing_plan_id":"cebpf4jnsgd1na2vs0mg"},{"bike_id":"46835159-5dd5-4fc9-a732-591f6a5307e4","system_id":"levelo_inurba_marseille","lat":43.31351,"lon":5.37912,"is_reserved":false,"is_disabled":false,"rental_uris":{"android":"levelo://app?vid=46835159-5dd5-4fc9-a732-591f6a5307e4","ios":"levelo://app?vid=46835159-5dd5-4fc9-a732-591f6a5307e4"},"vehicle_type_id":"4","last_reported":1761927153,"current_range_meters":12400,"station_id":"","pricing_plan_id":"cebpf4jnsgd1na2vs0mg"},{"bike_id":"0f8dff05-fa5c-4e47-b766-ef35e312f8cb","system_id":"levelo_inurba_marseille","lat":43.31883,"lon":5.40737,"is_reserved":false,"is_disabled":false,"rental_uris":{"android":"levelo://app?vid=0f8dff05-fa5c-4e47-b766-ef35e312f8cb","ios":"levelo://app?vid=0f8dff05-fa5c-4e47-b766-ef35e312f8cb"},"vehicle_type_id":"4","last_reported":1761927153,"current_range_meters":12400,"station_id":"ce4bhq12rcd13ifvqhig","pricing_plan_id":"cebpf4jnsgd1na2vs0mg"},{"bike_id":"96923b44-d0a9-455e-a759-3513588c1d16","system_id":"levelo_inurba_marseille","lat":43.290558,"lon":5.371444,"is_reserved":false,"is_disabled":false,"rental_uris":{"android":"levelo://app?vid=96923b44-d0a9-455e-a759-3513588c1d16","ios":"levelo://app?vid=96923b44-d0a9-455e-a759-3513588c1d16"},"vehicle_type_id":"4","last_reported":1761927153,"current_range_meters":12400,"station_id":"ce4bh5p2rcd13ifvqe4g","pricing_plan_id":"cebpf4jnsgd1na2vs0mg"},{"bike_id":"62dc0db6-cec0-43be-a5d5-16a2e33f294f","system_id":"levelo_inurba_marseille","lat":43.29033,"lon":5.38634,"is_reserved":false,"is_disabled":false,"rental_uris":{"android":"levelo://app?vid=62dc0db6-cec0-43be-a5d5-16a2e33f294f","ios":"levelo://app?vid=62dc0db6-cec0-43be-a5d5-16a2e33f294f"},"vehicle_type_id":"4","last_reported":1761927153,"current_range_meters":12400,"station_id":"ce4bh4p2rcd13ifvqe0g","pricing_plan_id":"cebpf4jnsgd1na2vs0mg"},{"bike_id":"7af2ea98-ce20-4954-bebb-ba5a49308a55","system_id":"levelo_inurba_marseille","lat":43.23788,"lon":5.36636,"is_reserved":false,"is_disabled":false,"rental_uris":{"android":"levelo://app?vid=7af2ea98-ce20-4954-bebb-ba5a49308a55","ios":"levelo://app?vid=7af2ea98-ce20-4954-bebb-ba5a49308a55"},"vehicle_type_id":"4","last_reported":1761927153,"current_range_meters":12400,"station_id":"st_d3nk18o9ro0c73en2l3g","pricing_plan_id":"cebpf4jnsgd1na2vs0mg"},{"bike_id":"2a2feabc-1101-4140-aee3-30dcd7c2588d","system_id":"levelo_inurba_marseille","lat":43.31901,"lon":5.39979,"is_reserved":false,"is_disabled":false,"rental_uris":{"android":"levelo://app?vid=2a2feabc-1101-4140-aee3-30dcd7c2588d","ios":"levelo://app?vid=2a2feabc-1101-4140-aee3-30dcd7c2588d"},"vehicle_type_id":"4","last_reported":1761927153,"current_range_meters":12800,"station_id":"","pricing_plan_id":"cebpf4jnsgd1na2vs0mg"},{"bike_id":"4cfbd1fb-f0c4-486f-aaf4-27e3fa552df9","system_id":"levelo_inurba_marseille","lat":43.301252,"lon":5.43126,"is_reserved":false,"is_disabled":false,"rental_uris":{"android":"levelo://app?vid=4cfbd1fb-f0c4-486f-aaf4-27e3fa552df9","ios":"levelo://app?vid=4cfbd1fb-f0c4-486f-aaf4-27e3fa552df9"},"vehicle_type_id":"4","last_reported":1761927153,"current_range_meters":12800,"station_id":"st_d3js3co5814s73ftftug","pricing_plan_id":"cebpf4jnsgd1na2vs0mg"},{"bike_id":"a4dac4fa-66e6-48be-a654-6e17cdc7ca0b","system_id":"levelo_inurba_marseille","lat":43.337571,"lon":5.374323,"is_reserved":false,"is_disabled":false,"rental_uris":{"android":"levelo://app?vid=a4dac4fa-66e6-48be-a654-6e17cdc7ca0b","ios":"levelo://app?vid=a4dac4fa-66e6-48be-a654-6e17cdc7ca0b"},"vehicle_type_id":"4","last_reported":1761927153,"current_range_meters":12800,"station_id":"","pricing_plan_id":"cebpf4jnsgd1na2vs0mg"},{"bike_id":"ae310ce2-fc43-431e-97cd-c13df431ced9","system_id":"levelo_inurba_marseille","lat":43.29801,"lon":5.38098,"is_reserved":false,"is_disabled":false,"rental_uris":{"android":"levelo://app?vid=ae310ce2-fc43-431e-97cd-c13df431ced9","ios":"levelo://app?vid=ae310ce2-fc43-431e-97cd-c13df431ced9"},"vehicle_type_id":"4","last_reported":1761927153,"current_range_meters":12800,"station_id":"ce4bgip2rcd13ifvqbb0","pricing_plan_id":"cebpf4jnsgd1na2vs0mg"},{"bike_id":"7c33a778-4ea3-4b88-be12-617478392c35","system_id":"levelo_inurba_marseille","lat":43.28925,"lon":5.38408,"is_reserved":false,"is_disabled":false,"rental_uris":{"android":"levelo://app?vid=7c33a778-4ea3-4b88-be12-617478392c35","ios":"levelo://app?vid=7c33a778-4ea3-4b88-be12-617478392c35"},"vehicle_type_id":"4","last_reported":1761927153,"current_range_meters":12800,"station_id":"ce4bh612rcd13ifvqe6g","pricing_plan_id":"cebpf4jnsgd1na2vs0mg"},{"bike_id":"b34cd5ff-8c48-4784-9394-12e2e3dcde9d","system_id":"levelo_inurba_marseille","lat":43.248,"lon":5.3746,"is_reserved":false,"is_disabled":false,"rental_uris":{"android":"levelo://app?vid=b34cd5ff-8c48-4784-9394-12e2e3dcde9d","ios":"levelo://app?vid=b34cd5ff-8c48-4784-9394-12e2e3dcde9d"},"vehicle_type_id":"4","last_reported":1761927153,"current_range_meters":12800,"station_id":"ce4bhgh2rcd13ifvqfb0","pricing_plan_id":"cebpf4jnsgd1na2vs0mg"},{"bike_id":"040bb8e7-fa9b-4593-89be-dcc92bf6660b","system_id":"levelo_inurba_marseille","lat":43.25581,"lon":5.38245,"is_reserved":false,"is_disabled":false,"rental_uris":{"android":"levelo://app?vid=040bb8e7-fa9b-4593-89be-dcc92bf6660b","ios":"levelo://app?vid=040bb8e7-fa9b-4593-89be-dcc92bf6660b"},"vehicle_type_id":"4","last_reported":1761927153,"current_range_meters":13600,"station_id":"ce4bhih2rcd13ifvqfs0","pricing_plan_id":"cebpf4jnsgd1na2vs0mg"},{"bike_id":"beb5aeba-4e4d-4667-9243-ae63f411ac6a","system_id":"levelo_inurba_marseille","lat":43.30548,"lon":5.36551,"is_reserved":false,"is_disabled":false,"rental_uris":{"android":"levelo://app?vid=beb5aeba-4e4d-4667-9243-ae63f411ac6a","ios":"levelo://app?vid=beb5aeba-4e4d-4667-9243-ae63f411ac6a"},"vehicle_type_id":"4","last_reported":1761927153,"current_range_meters":13600,"station_id":"ce4bgs12rcd13ifvqcag","pricing_plan_id":"cebpf4jnsgd1na2vs0mg"},{"bike_id":"8a632559-d61b-4289-915b-e6215ea4bf27","system_id":"levelo_inurba_marseille","lat":43.32363,"lon":5.36767,"is_reserved":false,"is_disabled":false,"rental_uris":{"android":"levelo://app?vid=8a632559-d61b-4289-915b-e6215ea4bf27","ios":"levelo://app?vid=8a632559-d61b-4289-915b-e6215ea4bf27"},"vehicle_type_id":"4","last_reported":1761927153,"current_range_meters":13600,"station_id":"ce4bhsh2rcd13ifvqi2g","pricing_plan_id":"cebpf4jnsgd1na2vs0mg"},{"bike_id":"b78f33d0-c41d-4503-971b-811db3791839","system_id":"levelo_inurba_marseille","lat":43.27211,"lon":5.39163,"is_reserved":false,"is_disabled":false,"rental_uris":{"android":"levelo://app?vid=b78f33d0-c41d-4503-971b-811db3791839","ios":"levelo://app?vid=b78f33d0-c41d-4503-971b-811db3791839"},"vehicle_type_id":"4","last_reported":1761927153,"current_range_meters":13600,"station_id":"ce4bhhp2rcd13ifvqfm0","pricing_plan_id":"cebpf4jnsgd1na2vs0mg"},{"bike_id":"a4411a31-dc75-48de-8b4a-eee0e7dbe4d1","system_id":"levelo_inurba_marseille","lat":43.28157,"lon":5.42617,"is_reserved":false,"is_disabled":false,"rental_uris":{"android":"levelo://app?vid=a4411a31-dc75-48de-8b4a-eee0e7dbe4d1","ios":"levelo://app?vid=a4411a31-dc75-48de-8b4a-eee0e7dbe4d1"},"vehicle_type_id":"4","last_reported":1761927153,"current_range_meters":14000,"station_id":"ce4bhnh2rcd13ifvqgug","pricing_plan_id":"cebpf4jnsgd1na2vs0mg"},{"bike_id":"9c00f54f-39c1-41f3-b7cc-359b3e8ef66d","system_id":"levelo_inurba_marseille","lat":43.30257,"lon":5.40067,"is_reserved":false,"is_disabled":false,"rental_uris":{"android":"levelo://app?vid=9c00f54f-39c1-41f3-b7cc-359b3e8ef66d","ios":"levelo://app?vid=9c00f54f-39c1-41f3-b7cc-359b3e8ef66d"},"vehicle_type_id":"4","last_reported":1761927153,"current_range_meters":14000,"station_id":"ce4bgvh2rcd13ifvqcs0","pricing_plan_id":"cebpf4jnsgd1na2vs0mg"},{"bike_id":"c6cc2ad5-87f3-46b4-954a-6b3fc4efe701","system_id":"levelo_inurba_marseille","lat":43.29857,"lon":5.363,"is_reserved":false,"is_disabled":false,"rental_uris":{"android":"levelo://app?vid=c6cc2ad5-87f3-46b4-954a-6b3fc4efe701","ios":"levelo://app?vid=c6cc2ad5-87f3-46b4-954a-6b3fc4efe701"},"vehicle_type_id":"4","last_reported":1761927153,"current_range_meters":14000,"station_id":"ce4bgpp2rcd13ifvqc3g","pricing_plan_id":"cebpf4jnsgd1na2vs0mg"},{"bike_id":"aad6a064-c048-4ba9-a156-1745b89548aa","system_id":"levelo_inurba_marseille","lat":43.2831,"lon":5.41115,"is_reserved":false,"is_disabled":false,"rental_uris":{"android":"levelo://app?vid=aad6a064-c048-4ba9-a156-1745b89548aa","ios":"levelo://app?vid=aad6a064-c048-4ba9-a156-1745b89548aa"},"vehicle_type_id":"4","last_reported":1761927153,"current_range_meters":14000,"station_id":"","pricing_plan_id":"cebpf4jnsgd1na2vs0mg"},{"bike_id":"3b8d8128-20c3-4189-8013-ffc8bbfec252","system_id":"levelo_inurba_marseille","lat":43.28619,"lon":5.35094,"is_reserved":false,"is_disabled":false,"rental_uris":{"android":"levelo://app?vid=3b8d8128-20c3-4189-8013-ffc8bbfec252","ios":"levelo://app?vid=3b8d8128-20c3-4189-8013-ffc8bbfec252"},"vehicle_type_id":"4","last_reported":1761927153,"current_range_meters":14000,"station_id":"ce4bhch2rcd13ifvqeug","pricing_plan_id":"cebpf4jnsgd1na2vs0mg"},{"bike_id":"65b74a09-ca21-47cd-a089-1f1f9daa9aea","system_id":"levelo_inurba_marseille","lat":43.29938,"lon":5.36546,"is_reserved":false,"is_disabled":false,"rental_uris":{"android":"levelo://app?vid=65b74a09-ca21-47cd-a089-1f1f9daa9aea","ios":"levelo://app?vid=65b74a09-ca21-47cd-a089-1f1f9daa9aea"},"vehicle_type_id":"4","last_reported":1761927153,"current_range_meters":14400,"station_id":"ce4bgm92rcd13ifvqbr0","pricing_plan_id":"cebpf4jnsgd1na2vs0mg"},{"bike_id":"90cc4e35-1e9a-4d48-878d-a3997094c0ce","system_id":"levelo_inurba_marseille","lat":43.24621,"lon":5.43158,"is_reserved":false,"is_disabled":false,"rental_uris":{"android":"levelo://app?vid=90cc4e35-1e9a-4d48-878d-a3997094c0ce","ios":"levelo://app?vid=90cc4e35-1e9a-4d48-878d-a3997094c0ce"},"vehicle_type_id":"4","last_reported":1761927153,"current_range_meters":14400,"station_id":"st_d2m6c4gdas8pm72e190g","pricing_plan_id":"cebpf4jnsgd1na2vs0mg"},{"bike_id":"7f71708b-0ea1-4389-ad9e-9eb55c6a6cb9","system_id":"levelo_inurba_marseille","lat":43.28861,"lon":5.42528,"is_reserved":false,"is_disabled":false,"rental_uris":{"android":"levelo://app?vid=7f71708b-0ea1-4389-ad9e-9eb55c6a6cb9","ios":"levelo://app?vid=7f71708b-0ea1-4389-ad9e-9eb55c6a6cb9"},"vehicle_type_id":"4","last_reported":1761927153,"current_range_meters":14400,"station_id":"st_d3b462108ojc7389ooeg","pricing_plan_id":"cebpf4jnsgd1na2vs0mg"},{"bike_id":"319b8584-93f2-449c-b056-ea3f20ebc971","system_id":"levelo_inurba_marseille","lat":43.28528,"lon":5.43031,"is_reserved":false,"is_disabled":false,"rental_uris":{"android":"levelo://app?vid=319b8584-93f2-449c-b056-ea3f20ebc971","ios":"levelo://app?vid=319b8584-93f2-449c-b056-ea3f20ebc971"},"vehicle_type_id":"4","last_reported":1761927153,"current_range_meters":14400,"station_id":"","pricing_plan_id":"cebpf4jnsgd1na2vs0mg"},{"bike_id":"58a5d9bd-5712-4626-8452-1832fa27c460","system_id":"levelo_inurba_marseille","lat":43.265719,"lon":5.3903,"is_reserved":false,"is_disabled":false,"rental_uris":{"android":"levelo://app?vid=58a5d9bd-5712-4626-8452-1832fa27c460","ios":"levelo://app?vid=58a5d9bd-5712-4626-8452-1832fa27c460"},"vehicle_type_id":"4","last_reported":1761927153,"current_range_meters":14800,"station_id":"","pricing_plan_id":"cebpf4jnsgd1na2vs0mg"},{"bike_id":"6cd59db7-cb12-4301-8385-22b87d7a5cfd","system_id":"levelo_inurba_marseille","lat":43.28574,"lon":5.44112,"is_reserved":false,"is_disabled":false,"rental_uris":{"android":"levelo://app?vid=6cd59db7-cb12-4301-8385-22b87d7a5cfd","ios":"levelo://app?vid=6cd59db7-cb12-4301-8385-22b87d7a5cfd"},"vehicle_type_id":"4","last_reported":1761927153,"current_range_meters":14800,"station_id":"st_d3j3df2ikq2c7380ej80","pricing_plan_id":"cebpf4jnsgd1na2vs0mg"},{"bike_id":"a74ca4e6-9019-4ce4-a364-7a22bd8e206a","system_id":"levelo_inurba_marseille","lat":43.26511,"lon":5.38527,"is_reserved":false,"is_disabled":false,"rental_uris":{"android":"levelo://app?vid=a74ca4e6-9019-4ce4-a364-7a22bd8e206a","ios":"levelo://app?vid=a74ca4e6-9019-4ce4-a364-7a22bd8e206a"},"vehicle_type_id":"4","last_reported":1761927153,"current_range_meters":14800,"station_id":"","pricing_plan_id":"cebpf4jnsgd1na2vs0mg"},{"bike_id":"0dc930ae-88e6-493c-ab95-8df0b3ac1f8b","system_id":"levelo_inurba_marseille","lat":43.29879,"lon":5.43673,"is_reserved":false,"is_disabled":false,"rental_uris":{"android":"levelo://app?vid=0dc930ae-88e6-493c-ab95-8df0b3ac1f8b","ios":"levelo://app?vid=0dc930ae-88e6-493c-ab95-8df0b3ac1f8b"},"vehicle_type_id":"4","last_reported":1761927153,"current_range_meters":15200,"station_id":"ce4bhpp2rcd13ifvqhfg","pricing_plan_id":"cebpf4jnsgd1na2vs0mg"},{"bike_id":"0ba9da42-64a1-4209-af52-e19dfbdee845","system_id":"levelo_inurba_marseille","lat":43.26777,"lon":5.3942,"is_reserved":false,"is_disabled":false,"rental_uris":{"android":"levelo://app?vid=0ba9da42-64a1-4209-af52-e19dfbdee845","ios":"levelo://app?vid=0ba9da42-64a1-4209-af52-e19dfbdee845"},"vehicle_type_id":"4","last_reported":1761927153,"current_range_meters":15200,"station_id":"ce4bhh12rcd13ifvqfg0","pricing_plan_id":"cebpf4jnsgd1na2vs0mg"},{"bike_id":"b2ce8e73-e59b-4d30-b8e2-e59e2e1e3b22","system_id":"levelo_inurba_marseille","lat":43.33775,"lon":5.37482,"is_reserved":false,"is_disabled":false,"rental_uris":{"android":"levelo://app?vid=b2ce8e73-e59b-4d30-b8e2-e59e2e1e3b22","ios":"levelo://app?vid=b2ce8e73-e59b-4d30-b8e2-e59e2e1e3b22"},"vehicle_type_id":"4","last_reported":1761927153,"current_range_meters":15200,"station_id":"","pricing_plan_id":"cebpf4jnsgd1na2vs0mg"},{"bike_id":"aad731fe-f402-47a2-a9e2-d1ab53621c21","system_id":"levelo_inurba_marseille","lat":43.23788,"lon":5.36631,"is_reserved":false,"is_disabled":false,"rental_uris":{"android":"levelo://app?vid=aad731fe-f402-47a2-a9e2-d1ab53621c21","ios":"levelo://app?vid=aad731fe-f402-47a2-a9e2-d1ab53621c21"},"vehicle_type_id":"4","last_reported":1761927153,"current_range_meters":15200,"station_id":"st_d3nk18o9ro0c73en2l3g","pricing_plan_id":"cebpf4jnsgd1na2vs0mg"},{"bike_id":"becbc939-b35d-42dc-9c44-eff774fe6eaf","system_id":"levelo_inurba_marseille","lat":43.30378,"lon":5.42492,"is_reserved":false,"is_disabled":false,"rental_uris":{"android":"levelo://app?vid=becbc939-b35d-42dc-9c44-eff774fe6eaf","ios":"levelo://app?vid=becbc939-b35d-42dc-9c44-eff774fe6eaf"},"vehicle_type_id":"4","last_reported":1761927153,"current_range_meters":15200,"station_id":"ce4bhoh2rcd13ifvqh6g","pricing_plan_id":"cebpf4jnsgd1na2vs0mg"},{"bike_id":"2fdc6bd2-3c6b-4dba-8adf-2b8ec22951eb","system_id":"levelo_inurba_marseille","lat":43.28006,"lon":5.40008,"is_reserved":false,"is_disabled":false,"rental_uris":{"android":"levelo://app?vid=2fdc6bd2-3c6b-4dba-8adf-2b8ec22951eb","ios":"levelo://app?vid=2fdc6bd2-3c6b-4dba-8adf-2b8ec22951eb"},"vehicle_type_id":"4","last_reported":1761927153,"current_range_meters":15200,"station_id":"ce4bho92rcd13ifvqh4g","pricing_plan_id":"cebpf4jnsgd1na2vs0mg"},{"bike_id":"a9cdbb07-222c-4ae2-b8a0-add1896b5ebf","system_id":"levelo_inurba_marseille","lat":43.2605,"lon":5.39398,"is_reserved":false,"is_disabled":false,"rental_uris":{"android":"levelo://app?vid=a9cdbb07-222c-4ae2-b8a0-add1896b5ebf","ios":"levelo://app?vid=a9cdbb07-222c-4ae2-b8a0-add1896b5ebf"},"vehicle_type_id":"4","last_reported":1761927153,"current_range_meters":16000,"station_id":"ce4bhh92rcd13ifvqfj0","pricing_plan_id":"cebpf4jnsgd1na2vs0mg"},{"bike_id":"ed4b05c6-104b-40cb-99df-7188e8279444","system_id":"levelo_inurba_marseille","lat":43.27917,"lon":5.39577,"is_reserved":false,"is_disabled":false,"rental_uris":{"android":"levelo://app?vid=ed4b05c6-104b-40cb-99df-7188e8279444","ios":"levelo://app?vid=ed4b05c6-104b-40cb-99df-7188e8279444"},"vehicle_type_id":"4","last_reported":1761927153,"current_range_meters":16000,"station_id":"ce4bhf92rcd13ifvqf40","pricing_plan_id":"cebpf4jnsgd1na2vs0mg"},{"bike_id":"e7ead618-cc2b-4c53-bc61-330caff21889","system_id":"levelo_inurba_marseille","lat":43.2534,"lon":5.42173,"is_reserved":false,"is_disabled":false,"rental_uris":{"android":"levelo://app?vid=e7ead618-cc2b-4c53-bc61-330caff21889","ios":"levelo://app?vid=e7ead618-cc2b-4c53-bc61-330caff21889"},"vehicle_type_id":"4","last_reported":1761927153,"current_range_meters":16000,"station_id":"st_d2m65c5bi1j21697t3ng","pricing_plan_id":"cebpf4jnsgd1na2vs0mg"},{"bike_id":"b0852786-bfa9-4864-916a-b4fd4b2d1be0","system_id":"levelo_inurba_marseille","lat":43.25538,"lon":5.37648,"is_reserved":false,"is_disabled":false,"rental_uris":{"android":"levelo://app?vid=b0852786-bfa9-4864-916a-b4fd4b2d1be0","ios":"levelo://app?vid=b0852786-bfa9-4864-916a-b4fd4b2d1be0"},"vehicle_type_id":"4","last_reported":1761927153,"current_range_meters":16400,"station_id":"ce4bhh12rcd13ifvqff0","pricing_plan_id":"cebpf4jnsgd1na2vs0mg"},{"bike_id":"b1e81361-2b17-4ef1-8a58-6def5753471b","system_id":"levelo_inurba_marseille","lat":43.33753,"lon":5.37484,"is_reserved":false,"is_disabled":false,"rental_uris":{"android":"levelo://app?vid=b1e81361-2b17-4ef1-8a58-6def5753471b","ios":"levelo://app?vid=b1e81361-2b17-4ef1-8a58-6def5753471b"},"vehicle_type_id":"4","last_reported":1761927153,"current_range_meters":16400,"station_id":"","pricing_plan_id":"cebpf4jnsgd1na2vs0mg"},{"bike_id":"52b117f2-4c01-4f66-887d-006722496528","system_id":"levelo_inurba_marseille","lat":43.30866,"lon":5.3716,"is_reserved":false,"is_disabled":false,"rental_uris":{"android":"levelo://app?vid=52b117f2-4c01-4f66-887d-006722496528","ios":"levelo://app?vid=52b117f2-4c01-4f66-887d-006722496528"},"vehicle_type_id":"4","last_reported":1761927153,"current_range_meters":16400,"station_id":"ce4bguh2rcd13ifvqckg","pricing_plan_id":"cebpf4jnsgd1na2vs0mg"},{"bike_id":"7706a1eb-2457-4a86-a54c-de9a5adc11d8","system_id":"levelo_inurba_marseille","lat":43.337444,"lon":5.374475,"is_reserved":false,"is_disabled":false,"rental_uris":{"android":"levelo://app?vid=7706a1eb-2457-4a86-a54c-de9a5adc11d8","ios":"levelo://app?vid=7706a1eb-2457-4a86-a54c-de9a5adc11d8"},"vehicle_type_id":"4","last_reported":1761927153,"current_range_meters":16800,"station_id":"ce4bhnh2rcd13ifvqgug","pricing_plan_id":"cebpf4jnsgd1na2vs0mg"},{"bike_id":"719cab00-fc05-4a10-b7e7-f67576adad60","system_id":"levelo_inurba_marseille","lat":43.23153,"lon":5.43707,"is_reserved":false,"is_disabled":false,"rental_uris":{"android":"levelo://app?vid=719cab00-fc05-4a10-b7e7-f67576adad60","ios":"levelo://app?vid=719cab00-fc05-4a10-b7e7-f67576adad60"},"vehicle_type_id":"4","last_reported":1761927153,"current_range_meters":16800,"station_id":"ce4bhmp2rcd13ifvqgog","pricing_plan_id":"cebpf4jnsgd1na2vs0mg"},{"bike_id":"e30f8789-0704-49f8-81a2-754d3880d83f","system_id":"levelo_inurba_marseille","lat":43.30098,"lon":5.39103,"is_reserved":false,"is_disabled":false,"rental_uris":{"android":"levelo://app?vid=e30f8789-0704-49f8-81a2-754d3880d83f","ios":"levelo://app?vid=e30f8789-0704-49f8-81a2-754d3880d83f"},"vehicle_type_id":"4","last_reported":1761927153,"current_range_meters":17200,"station_id":"ce4bh192rcd13ifvqdb0","pricing_plan_id":"cebpf4jnsgd1na2vs0mg"},{"bike_id":"8b032cc8-c06d-4881-a24b-2ba32be757e9","system_id":"levelo_inurba_marseille","lat":43.2466,"lon":5.38164,"is_reserved":false,"is_disabled":false,"rental_uris":{"android":"levelo://app?vid=8b032cc8-c06d-4881-a24b-2ba32be757e9","ios":"levelo://app?vid=8b032cc8-c06d-4881-a24b-2ba32be757e9"},"vehicle_type_id":"4","last_reported":1761927153,"current_range_meters":17200,"station_id":"ce4bhih2rcd13ifvqfr0","pricing_plan_id":"cebpf4jnsgd1na2vs0mg"},{"bike_id":"472a1028-9e29-4e6f-b089-eae1dc72cf56","system_id":"levelo_inurba_marseille","lat":43.23062,"lon":5.35482,"is_reserved":false,"is_disabled":false,"rental_uris":{"android":"levelo://app?vid=472a1028-9e29-4e6f-b089-eae1dc72cf56","ios":"levelo://app?vid=472a1028-9e29-4e6f-b089-eae1dc72cf56"},"vehicle_type_id":"4","last_reported":1761927153,"current_range_meters":17200,"station_id":"cpo3342slgdg3j2ifvpg","pricing_plan_id":"cebpf4jnsgd1na2vs0mg"},{"bike_id":"c514a2ad-ebc8-4f57-a7f6-375f8555a7e2","system_id":"levelo_inurba_marseille","lat":43.305599,"lon":5.36555,"is_reserved":false,"is_disabled":false,"rental_uris":{"android":"levelo://app?vid=c514a2ad-ebc8-4f57-a7f6-375f8555a7e2","ios":"levelo://app?vid=c514a2ad-ebc8-4f57-a7f6-375f8555a7e2"},"vehicle_type_id":"4","last_reported":1761927153,"current_range_meters":17200,"station_id":"ce4bgs12rcd13ifvqcag","pricing_plan_id":"cebpf4jnsgd1na2vs0mg"},{"bike_id":"e04ac67b-9166-4fd6-8673-11fcd5513578","system_id":"levelo_inurba_marseille","lat":43.29517,"lon":5.39025,"is_reserved":false,"is_disabled":false,"rental_uris":{"android":"levelo://app?vid=e04ac67b-9166-4fd6-8673-11fcd5513578","ios":"levelo://app?vid=e04ac67b-9166-4fd6-8673-11fcd5513578"},"vehicle_type_id":"4","last_reported":1761927153,"current_range_meters":17200,"station_id":"ce4bh3p2rcd13ifvqdp0","pricing_plan_id":"cebpf4jnsgd1na2vs0mg"},{"bike_id":"a8e7298d-cf4d-43d4-b2c6-651fecc057ec","system_id":"levelo_inurba_marseille","lat":43.26596,"lon":5.39025,"is_reserved":false,"is_disabled":false,"rental_uris":{"android":"levelo://app?vid=a8e7298d-cf4d-43d4-b2c6-651fecc057ec","ios":"levelo://app?vid=a8e7298d-cf4d-43d4-b2c6-651fecc057ec"},"vehicle_type_id":"4","last_reported":1761927153,"current_range_meters":17200,"station_id":"ce4bhe12rcd13ifvqf30","pricing_plan_id":"cebpf4jnsgd1na2vs0mg"},{"bike_id":"fd783ad9-fbb5-494b-96e7-c16b20c590cd","system_id":"levelo_inurba_marseille","lat":43.2886,"lon":5.39319,"is_reserved":false,"is_disabled":false,"rental_uris":{"android":"levelo://app?vid=fd783ad9-fbb5-494b-96e7-c16b20c590cd","ios":"levelo://app?vid=fd783ad9-fbb5-494b-96e7-c16b20c590cd"},"vehicle_type_id":"4","last_reported":1761927153,"current_range_meters":17200,"station_id":"ce4bh2p2rcd13ifvqdi0","pricing_plan_id":"cebpf4jnsgd1na2vs0mg"},{"bike_id":"5329277d-b696-4f32-9412-95d13ccb7cbb","system_id":"levelo_inurba_marseille","lat":43.29813,"lon":5.44062,"is_reserved":false,"is_disabled":false,"rental_uris":{"android":"levelo://app?vid=5329277d-b696-4f32-9412-95d13ccb7cbb","ios":"levelo://app?vid=5329277d-b696-4f32-9412-95d13ccb7cbb"},"vehicle_type_id":"4","last_reported":1761927153,"current_range_meters":17200,"station_id":"st_d3jp68qikq2c7381ktn0","pricing_plan_id":"cebpf4jnsgd1na2vs0mg"},{"bike_id":"c2807477-fd8d-44ed-9bdc-b3f90f0cbde0","system_id":"levelo_inurba_marseille","lat":43.31871,"lon":5.40002,"is_reserved":false,"is_disabled":false,"rental_uris":{"android":"levelo://app?vid=c2807477-fd8d-44ed-9bdc-b3f90f0cbde0","ios":"levelo://app?vid=c2807477-fd8d-44ed-9bdc-b3f90f0cbde0"},"vehicle_type_id":"4","last_reported":1761927153,"current_range_meters":17200,"station_id":"","pricing_plan_id":"cebpf4jnsgd1na2vs0mg"},{"bike_id":"39794019-4595-4e40-8cc7-86320375c545","system_id":"levelo_inurba_marseille","lat":43.30788,"lon":5.3765,"is_reserved":false,"is_disabled":false,"rental_uris":{"android":"levelo://app?vid=39794019-4595-4e40-8cc7-86320375c545","ios":"levelo://app?vid=39794019-4595-4e40-8cc7-86320375c545"},"vehicle_type_id":"4","last_reported":1761927153,"current_range_meters":17200,"station_id":"ce4bgv92rcd13ifvqcq0","pricing_plan_id":"cebpf4jnsgd1na2vs0mg"},{"bike_id":"a5e0a9e7-2930-4ebf-aa40-5e9ef3fa0368","system_id":"levelo_inurba_marseille","lat":43.2315,"lon":5.43722,"is_reserved":false,"is_disabled":false,"rental_uris":{"android":"levelo://app?vid=a5e0a9e7-2930-4ebf-aa40-5e9ef3fa0368","ios":"levelo://app?vid=a5e0a9e7-2930-4ebf-aa40-5e9ef3fa0368"},"vehicle_type_id":"4","last_reported":1761927153,"current_range_meters":17200,"station_id":"ce4bhmp2rcd13ifvqgog","pricing_plan_id":"cebpf4jnsgd1na2vs0mg"},{"bike_id":"436c5184-4206-42f3-89dc-e8288cae5c96","system_id":"levelo_inurba_marseille","lat":43.25337,"lon":5.42175,"is_reserved":false,"is_disabled":false,"rental_uris":{"android":"levelo://app?vid=436c5184-4206-42f3-89dc-e8288cae5c96","ios":"levelo://app?vid=436c5184-4206-42f3-89dc-e8288cae5c96"},"vehicle_type_id":"4","last_reported":1761927153,"current_range_meters":17600,"station_id":"st_d2m65c5bi1j21697t3ng","pricing_plan_id":"cebpf4jnsgd1na2vs0mg"},{"bike_id":"7ba144d0-489c-428c-a3dc-a5232807c9b5","system_id":"levelo_inurba_marseille","lat":43.28568,"lon":5.39495,"is_reserved":false,"is_disabled":false,"rental_uris":{"android":"levelo://app?vid=7ba144d0-489c-428c-a3dc-a5232807c9b5","ios":"levelo://app?vid=7ba144d0-489c-428c-a3dc-a5232807c9b5"},"vehicle_type_id":"4","last_reported":1761927153,"current_range_meters":17600,"station_id":"ce4bh292rcd13ifvqdg0","pricing_plan_id":"cebpf4jnsgd1na2vs0mg"},{"bike_id":"8f285f42-1e04-4dc8-8d03-a2fa8fa8bc0f","system_id":"levelo_inurba_marseille","lat":43.2408,"lon":5.37758,"is_reserved":false,"is_disabled":false,"rental_uris":{"android":"levelo://app?vid=8f285f42-1e04-4dc8-8d03-a2fa8fa8bc0f","ios":"levelo://app?vid=8f285f42-1e04-4dc8-8d03-a2fa8fa8bc0f"},"vehicle_type_id":"4","last_reported":1761927153,"current_range_meters":17600,"station_id":"ce4bhnp2rcd13ifvqgvg","pricing_plan_id":"cebpf4jnsgd1na2vs0mg"},{"bike_id":"e04f332d-b41c-47fd-b12f-6fdc7d63f429","system_id":"levelo_inurba_marseille","lat":43.30836,"lon":5.38307,"is_reserved":false,"is_disabled":false,"rental_uris":{"android":"levelo://app?vid=e04f332d-b41c-47fd-b12f-6fdc7d63f429","ios":"levelo://app?vid=e04f332d-b41c-47fd-b12f-6fdc7d63f429"},"vehicle_type_id":"4","last_reported":1761927153,"current_range_meters":17600,"station_id":"","pricing_plan_id":"cebpf4jnsgd1na2vs0mg"},{"bike_id":"ced8b747-e5ab-4e7a-b1f4-22a1ebc20f6f","system_id":"levelo_inurba_marseille","lat":43.30789,"lon":5.37663,"is_reserved":false,"is_disabled":true,"rental_uris":{"android":"levelo://app?vid=ced8b747-e5ab-4e7a-b1f4-22a1ebc20f6f","ios":"levelo://app?vid=ced8b747-e5ab-4e7a-b1f4-22a1ebc20f6f"},"vehicle_type_id":"4","last_reported":1761927153,"current_range_meters":17600,"station_id":"ce4bgv92rcd13ifvqcq0","pricing_plan_id":"cebpf4jnsgd1na2vs0mg"},{"bike_id":"559d8f20-5972-44ea-831a-c3af6a64880a","system_id":"levelo_inurba_marseille","lat":43.24083,"lon":5.37755,"is_reserved":false,"is_disabled":false,"rental_uris":{"android":"levelo://app?vid=559d8f20-5972-44ea-831a-c3af6a64880a","ios":"levelo://app?vid=559d8f20-5972-44ea-831a-c3af6a64880a"},"vehicle_type_id":"4","last_reported":1761927153,"current_range_meters":17600,"station_id":"ce4bhnp2rcd13ifvqgvg","pricing_plan_id":"cebpf4jnsgd1na2vs0mg"},{"bike_id":"4fd9f5aa-a2d3-48e0-aee2-704d6db584ac","system_id":"levelo_inurba_marseille","lat":43.254997,"lon":5.376498,"is_reserved":false,"is_disabled":false,"rental_uris":{"android":"levelo://app?vid=4fd9f5aa-a2d3-48e0-aee2-704d6db584ac","ios":"levelo://app?vid=4fd9f5aa-a2d3-48e0-aee2-704d6db584ac"},"vehicle_type_id":"4","last_reported":1761927153,"current_range_meters":17600,"station_id":"ce4bhh12rcd13ifvqff0","pricing_plan_id":"cebpf4jnsgd1na2vs0mg"},{"bike_id":"1cfe847e-9914-43bf-a214-9b83ce537b5e","system_id":"levelo_inurba_marseille","lat":43.271738,"lon":5.409913,"is_reserved":false,"is_disabled":false,"rental_uris":{"android":"levelo://app?vid=1cfe847e-9914-43bf-a214-9b83ce537b5e","ios":"levelo://app?vid=1cfe847e-9914-43bf-a214-9b83ce537b5e"},"vehicle_type_id":"4","last_reported":1761927153,"current_range_meters":18000,"station_id":"ce4bhl12rcd13ifvqgf0","pricing_plan_id":"cebpf4jnsgd1na2vs0mg"},{"bike_id":"20fe1a9e-b863-4420-9106-db12a4cb7698","system_id":"levelo_inurba_marseille","lat":43.30414,"lon":5.41293,"is_reserved":false,"is_disabled":false,"rental_uris":{"android":"levelo://app?vid=20fe1a9e-b863-4420-9106-db12a4cb7698","ios":"levelo://app?vid=20fe1a9e-b863-4420-9106-db12a4cb7698"},"vehicle_type_id":"4","last_reported":1761927153,"current_range_meters":18000,"station_id":"ce4bhop2rcd13ifvqh8g","pricing_plan_id":"cebpf4jnsgd1na2vs0mg"},{"bike_id":"c04ea6ec-c85d-4b9a-aa74-f0de2415a6d2","system_id":"levelo_inurba_marseille","lat":43.31568,"lon":5.38259,"is_reserved":false,"is_disabled":false,"rental_uris":{"android":"levelo://app?vid=c04ea6ec-c85d-4b9a-aa74-f0de2415a6d2","ios":"levelo://app?vid=c04ea6ec-c85d-4b9a-aa74-f0de2415a6d2"},"vehicle_type_id":"4","last_reported":1761927153,"current_range_meters":18000,"station_id":"","pricing_plan_id":"cebpf4jnsgd1na2vs0mg"},{"bike_id":"fbcc5886-69e3-488f-96fd-e45314a075e6","system_id":"levelo_inurba_marseille","lat":43.28877,"lon":5.42522,"is_reserved":false,"is_disabled":false,"rental_uris":{"android":"levelo://app?vid=fbcc5886-69e3-488f-96fd-e45314a075e6","ios":"levelo://app?vid=fbcc5886-69e3-488f-96fd-e45314a075e6"},"vehicle_type_id":"4","last_reported":1761927153,"current_range_meters":18000,"station_id":"st_d3b462108ojc7389ooeg","pricing_plan_id":"cebpf4jnsgd1na2vs0mg"},{"bike_id":"4a3f360b-01b8-441e-bde8-8698471b14ee","system_id":"levelo_inurba_marseille","lat":43.30175,"lon":5.36622,"is_reserved":false,"is_disabled":false,"rental_uris":{"android":"levelo://app?vid=4a3f360b-01b8-441e-bde8-8698471b14ee","ios":"levelo://app?vid=4a3f360b-01b8-441e-bde8-8698471b14ee"},"vehicle_type_id":"4","last_reported":1761927153,"current_range_meters":18000,"station_id":"ce4bgrh2rcd13ifvqc8g","pricing_plan_id":"cebpf4jnsgd1na2vs0mg"},{"bike_id":"c20da1f3-7815-4aaa-b2a8-e9e713bdb923","system_id":"levelo_inurba_marseille","lat":43.297313,"lon":5.37164,"is_reserved":false,"is_disabled":false,"rental_uris":{"android":"levelo://app?vid=c20da1f3-7815-4aaa-b2a8-e9e713bdb923","ios":"levelo://app?vid=c20da1f3-7815-4aaa-b2a8-e9e713bdb923"},"vehicle_type_id":"4","last_reported":1761927153,"current_range_meters":18000,"station_id":"ce4bgop2rcd13ifvqc1g","pricing_plan_id":"cebpf4jnsgd1na2vs0mg"},{"bike_id":"ab317b96-30d0-46ca-bbf5-30dabb1d91eb","system_id":"levelo_inurba_marseille","lat":43.30546,"lon":5.36548,"is_reserved":false,"is_disabled":false,"rental_uris":{"android":"levelo://app?vid=ab317b96-30d0-46ca-bbf5-30dabb1d91eb","ios":"levelo://app?vid=ab317b96-30d0-46ca-bbf5-30dabb1d91eb"},"vehicle_type_id":"4","last_reported":1761927153,"current_range_meters":18800,"station_id":"ce4bgs12rcd13ifvqcag","pricing_plan_id":"cebpf4jnsgd1na2vs0mg"},{"bike_id":"c785ffc6-1d2a-414f-b271-f1b0b3e4043d","system_id":"levelo_inurba_marseille","lat":43.28261,"lon":5.350791,"is_reserved":false,"is_disabled":false,"rental_uris":{"android":"levelo://app?vid=c785ffc6-1d2a-414f-b271-f1b0b3e4043d","ios":"levelo://app?vid=c785ffc6-1d2a-414f-b271-f1b0b3e4043d"},"vehicle_type_id":"4","last_reported":1761927153,"current_range_meters":18800,"station_id":"ce4bhbp2rcd13ifvqerg","pricing_plan_id":"cebpf4jnsgd1na2vs0mg"},{"bike_id":"d40fd710-0e38-4566-bda0-a1e2d6d72ec0","system_id":"levelo_inurba_marseille","lat":43.298827,"lon":5.364974,"is_reserved":false,"is_disabled":false,"rental_uris":{"android":"levelo://app?vid=d40fd710-0e38-4566-bda0-a1e2d6d72ec0","ios":"levelo://app?vid=d40fd710-0e38-4566-bda0-a1e2d6d72ec0"},"vehicle_type_id":"4","last_reported":1761927153,"current_range_meters":18800,"station_id":"ce4bgrh2rcd13ifvqc8g","pricing_plan_id":"cebpf4jnsgd1na2vs0mg"},{"bike_id":"220a9f85-901e-4c66-ac43-63295bd17e9d","system_id":"levelo_inurba_marseille","lat":43.30476,"lon":5.37901,"is_reserved":false,"is_disabled":false,"rental_uris":{"android":"levelo://app?vid=220a9f85-901e-4c66-ac43-63295bd17e9d","ios":"levelo://app?vid=220a9f85-901e-4c66-ac43-63295bd17e9d"},"vehicle_type_id":"4","last_reported":1761927153,"current_range_meters":18800,"station_id":"ce4bgup2rcd13ifvqcn0","pricing_plan_id":"cebpf4jnsgd1na2vs0mg"},{"bike_id":"cef395ba-f2f0-4de8-9ae2-ed67d727f46b","system_id":"levelo_inurba_marseille","lat":43.29132,"lon":5.36077,"is_reserved":false,"is_disabled":false,"rental_uris":{"android":"levelo://app?vid=cef395ba-f2f0-4de8-9ae2-ed67d727f46b","ios":"levelo://app?vid=cef395ba-f2f0-4de8-9ae2-ed67d727f46b"},"vehicle_type_id":"4","last_reported":1761927153,"current_range_meters":18800,"station_id":"","pricing_plan_id":"cebpf4jnsgd1na2vs0mg"},{"bike_id":"ebfb452f-d953-4d55-89f1-158485ccc478","system_id":"levelo_inurba_marseille","lat":43.292521,"lon":5.368629,"is_reserved":false,"is_disabled":false,"rental_uris":{"android":"levelo://app?vid=ebfb452f-d953-4d55-89f1-158485ccc478","ios":"levelo://app?vid=ebfb452f-d953-4d55-89f1-158485ccc478"},"vehicle_type_id":"4","last_reported":1761927153,"current_range_meters":18800,"station_id":"ce4bhbp2rcd13ifvqesg","pricing_plan_id":"cebpf4jnsgd1na2vs0mg"},{"bike_id":"634b084e-98e6-4a3c-9242-c370f3e22077","system_id":"levelo_inurba_marseille","lat":43.28345,"lon":5.38108,"is_reserved":false,"is_disabled":false,"rental_uris":{"android":"levelo://app?vid=634b084e-98e6-4a3c-9242-c370f3e22077","ios":"levelo://app?vid=634b084e-98e6-4a3c-9242-c370f3e22077"},"vehicle_type_id":"4","last_reported":1761927153,"current_range_meters":18800,"station_id":"ce4bh412rcd13ifvqdr0","pricing_plan_id":"cebpf4jnsgd1na2vs0mg"},{"bike_id":"252ff558-e70b-4ae0-9044-acc668b445bb","system_id":"levelo_inurba_marseille","lat":43.21193,"lon":5.35077,"is_reserved":false,"is_disabled":false,"rental_uris":{"android":"levelo://app?vid=252ff558-e70b-4ae0-9044-acc668b445bb","ios":"levelo://app?vid=252ff558-e70b-4ae0-9044-acc668b445bb"},"vehicle_type_id":"4","last_reported":1761927153,"current_range_meters":18800,"station_id":"st_cvj6sg6p6f1abm77japg","pricing_plan_id":"cebpf4jnsgd1na2vs0mg"},{"bike_id":"3965660d-d019-448d-9ea6-ad76591ec156","system_id":"levelo_inurba_marseille","lat":43.32099,"lon":5.3678,"is_reserved":false,"is_disabled":false,"rental_uris":{"android":"levelo://app?vid=3965660d-d019-448d-9ea6-ad76591ec156","ios":"levelo://app?vid=3965660d-d019-448d-9ea6-ad76591ec156"},"vehicle_type_id":"4","last_reported":1761927153,"current_range_meters":18800,"station_id":"ce4bhrh2rcd13ifvqhug","pricing_plan_id":"cebpf4jnsgd1na2vs0mg"},{"bike_id":"b76e826a-7ed3-4ecf-9ea6-69abe34357f5","system_id":"levelo_inurba_marseille","lat":43.28411,"lon":5.37516,"is_reserved":false,"is_disabled":false,"rental_uris":{"android":"levelo://app?vid=b76e826a-7ed3-4ecf-9ea6-69abe34357f5","ios":"levelo://app?vid=b76e826a-7ed3-4ecf-9ea6-69abe34357f5"},"vehicle_type_id":"4","last_reported":1761927153,"current_range_meters":19200,"station_id":"ce4bh412rcd13ifvqds0","pricing_plan_id":"cebpf4jnsgd1na2vs0mg"},{"bike_id":"0089665c-d050-4f0d-8d27-e9a6af9208fc","system_id":"levelo_inurba_marseille","lat":43.30162,"lon":5.38012,"is_reserved":false,"is_disabled":false,"rental_uris":{"android":"levelo://app?vid=0089665c-d050-4f0d-8d27-e9a6af9208fc","ios":"levelo://app?vid=0089665c-d050-4f0d-8d27-e9a6af9208fc"},"vehicle_type_id":"4","last_reported":1761927153,"current_range_meters":19200,"station_id":"","pricing_plan_id":"cebpf4jnsgd1na2vs0mg"},{"bike_id":"082fbba0-5780-4b2d-9cb2-6a713082dbd3","system_id":"levelo_inurba_marseille","lat":43.26559,"lon":5.37289,"is_reserved":false,"is_disabled":false,"rental_uris":{"android":"levelo://app?vid=082fbba0-5780-4b2d-9cb2-6a713082dbd3","ios":"levelo://app?vid=082fbba0-5780-4b2d-9cb2-6a713082dbd3"},"vehicle_type_id":"4","last_reported":1761927153,"current_range_meters":19200,"station_id":"ce4bhg12rcd13ifvqf70","pricing_plan_id":"cebpf4jnsgd1na2vs0mg"},{"bike_id":"9d6c8b34-fa0a-4869-9c13-a6f3237d5ff6","system_id":"levelo_inurba_marseille","lat":43.30472,"lon":5.37912,"is_reserved":false,"is_disabled":false,"rental_uris":{"android":"levelo://app?vid=9d6c8b34-fa0a-4869-9c13-a6f3237d5ff6","ios":"levelo://app?vid=9d6c8b34-fa0a-4869-9c13-a6f3237d5ff6"},"vehicle_type_id":"4","last_reported":1761927153,"current_range_meters":19200,"station_id":"ce4bgup2rcd13ifvqcn0","pricing_plan_id":"cebpf4jnsgd1na2vs0mg"},{"bike_id":"f4138efc-7778-4d94-abf8-053b4cd27475","system_id":"levelo_inurba_marseille","lat":43.23207,"lon":5.35551,"is_reserved":false,"is_disabled":false,"rental_uris":{"android":"levelo://app?vid=f4138efc-7778-4d94-abf8-053b4cd27475","ios":"levelo://app?vid=f4138efc-7778-4d94-abf8-053b4cd27475"},"vehicle_type_id":"4","last_reported":1761927153,"current_range_meters":19600,"station_id":"ce4bhu92rcd13ifvqi70","pricing_plan_id":"cebpf4jnsgd1na2vs0mg"},{"bike_id":"a5ccacd4-838b-4d08-bf74-6e28ddca1a8d","system_id":"levelo_inurba_marseille","lat":43.25827,"lon":5.3944,"is_reserved":false,"is_disabled":false,"rental_uris":{"android":"levelo://app?vid=a5ccacd4-838b-4d08-bf74-6e28ddca1a8d","ios":"levelo://app?vid=a5ccacd4-838b-4d08-bf74-6e28ddca1a8d"},"vehicle_type_id":"4","last_reported":1761927153,"current_range_meters":19600,"station_id":"ce4bhip2rcd13ifvqft0","pricing_plan_id":"cebpf4jnsgd1na2vs0mg"},{"bike_id":"2819da96-e74b-4499-817d-c62867e34f4e","system_id":"levelo_inurba_marseille","lat":43.29868,"lon":5.36284,"is_reserved":false,"is_disabled":false,"rental_uris":{"android":"levelo://app?vid=2819da96-e74b-4499-817d-c62867e34f4e","ios":"levelo://app?vid=2819da96-e74b-4499-817d-c62867e34f4e"},"vehicle_type_id":"4","last_reported":1761927153,"current_range_meters":19600,"station_id":"ce4bgpp2rcd13ifvqc3g","pricing_plan_id":"cebpf4jnsgd1na2vs0mg"},{"bike_id":"06bde4a7-497c-469a-9516-37b9f9755e65","system_id":"levelo_inurba_marseille","lat":43.337444,"lon":5.374475,"is_reserved":false,"is_disabled":false,"rental_uris":{"android":"levelo://app?vid=06bde4a7-497c-469a-9516-37b9f9755e65","ios":"levelo://app?vid=06bde4a7-497c-469a-9516-37b9f9755e65"},"vehicle_type_id":"4","last_reported":1761927153,"current_range_meters":19600,"station_id":"ce4bhnh2rcd13ifvqgug","pricing_plan_id":"cebpf4jnsgd1na2vs0mg"},{"bike_id":"3150b169-6d8b-4786-81cd-4b890da98702","system_id":"levelo_inurba_marseille","lat":43.237896,"lon":5.366265,"is_reserved":false,"is_disabled":false,"rental_uris":{"android":"levelo://app?vid=3150b169-6d8b-4786-81cd-4b890da98702","ios":"levelo://app?vid=3150b169-6d8b-4786-81cd-4b890da98702"},"vehicle_type_id":"4","last_reported":1761927153,"current_range_meters":19600,"station_id":"st_d3nk18o9ro0c73en2l3g","pricing_plan_id":"cebpf4jnsgd1na2vs0mg"},{"bike_id":"a5f9d115-2eb0-463d-bf65-9070eaddf3fb","system_id":"levelo_inurba_marseille","lat":43.2396,"lon":5.36646,"is_reserved":false,"is_disabled":false,"rental_uris":{"android":"levelo://app?vid=a5f9d115-2eb0-463d-bf65-9070eaddf3fb","ios":"levelo://app?vid=a5f9d115-2eb0-463d-bf65-9070eaddf3fb"},"vehicle_type_id":"4","last_reported":1761927153,"current_range_meters":19600,"station_id":"ce4bhi12rcd13ifvqfp0","pricing_plan_id":"cebpf4jnsgd1na2vs0mg"},{"bike_id":"b944cab9-0f4b-415a-adfb-d925620f3b5d","system_id":"levelo_inurba_marseille","lat":43.25827,"lon":5.39432,"is_reserved":false,"is_disabled":false,"rental_uris":{"android":"levelo://app?vid=b944cab9-0f4b-415a-adfb-d925620f3b5d","ios":"levelo://app?vid=b944cab9-0f4b-415a-adfb-d925620f3b5d"},"vehicle_type_id":"4","last_reported":1761927153,"current_range_meters":19600,"station_id":"ce4bhip2rcd13ifvqft0","pricing_plan_id":"cebpf4jnsgd1na2vs0mg"},{"bike_id":"b58e4038-096a-4039-8e93-8a075da0e8a6","system_id":"levelo_inurba_marseille","lat":43.30941,"lon":5.37188,"is_reserved":false,"is_disabled":false,"rental_uris":{"android":"levelo://app?vid=b58e4038-096a-4039-8e93-8a075da0e8a6","ios":"levelo://app?vid=b58e4038-096a-4039-8e93-8a075da0e8a6"},"vehicle_type_id":"4","last_reported":1761927153,"current_range_meters":19600,"station_id":"ce4bguh2rcd13ifvqckg","pricing_plan_id":"cebpf4jnsgd1na2vs0mg"},{"bike_id":"cc3a86e9-b1c3-4b10-9dd4-1db947312bad","system_id":"levelo_inurba_marseille","lat":43.30583,"lon":5.3935,"is_reserved":false,"is_disabled":false,"rental_uris":{"android":"levelo://app?vid=cc3a86e9-b1c3-4b10-9dd4-1db947312bad","ios":"levelo://app?vid=cc3a86e9-b1c3-4b10-9dd4-1db947312bad"},"vehicle_type_id":"4","last_reported":1761927153,"current_range_meters":19600,"station_id":"ce4bh0p2rcd13ifvqd80","pricing_plan_id":"cebpf4jnsgd1na2vs0mg"},{"bike_id":"40216ceb-30c3-4f77-a0ae-d0a1648c717e","system_id":"levelo_inurba_marseille","lat":43.29803,"lon":5.3809,"is_reserved":false,"is_disabled":false,"rental_uris":{"android":"levelo://app?vid=40216ceb-30c3-4f77-a0ae-d0a1648c717e","ios":"levelo://app?vid=40216ceb-30c3-4f77-a0ae-d0a1648c717e"},"vehicle_type_id":"4","last_reported":1761927153,"current_range_meters":20000,"station_id":"ce4bgip2rcd13ifvqbb0","pricing_plan_id":"cebpf4jnsgd1na2vs0mg"},{"bike_id":"e2595113-d11a-4c4d-a23c-f0dbd0034971","system_id":"levelo_inurba_marseille","lat":43.29225,"lon":5.36066,"is_reserved":false,"is_disabled":false,"rental_uris":{"android":"levelo://app?vid=e2595113-d11a-4c4d-a23c-f0dbd0034971","ios":"levelo://app?vid=e2595113-d11a-4c4d-a23c-f0dbd0034971"},"vehicle_type_id":"4","last_reported":1761927153,"current_range_meters":20000,"station_id":"ce4bhbh2rcd13ifvqeqg","pricing_plan_id":"cebpf4jnsgd1na2vs0mg"},{"bike_id":"94084d75-b1ec-4cf5-8736-b1d0c7eed7ce","system_id":"levelo_inurba_marseille","lat":43.33057,"lon":5.39059,"is_reserved":false,"is_disabled":false,"rental_uris":{"android":"levelo://app?vid=94084d75-b1ec-4cf5-8736-b1d0c7eed7ce","ios":"levelo://app?vid=94084d75-b1ec-4cf5-8736-b1d0c7eed7ce"},"vehicle_type_id":"4","last_reported":1761927153,"current_range_meters":20000,"station_id":"ce4bhr92rcd13ifvqhrg","pricing_plan_id":"cebpf4jnsgd1na2vs0mg"},{"bike_id":"2b7a5f51-24a6-4f89-b8fe-d69485cca227","system_id":"levelo_inurba_marseille","lat":43.29871,"lon":5.38914,"is_reserved":false,"is_disabled":false,"rental_uris":{"android":"levelo://app?vid=2b7a5f51-24a6-4f89-b8fe-d69485cca227","ios":"levelo://app?vid=2b7a5f51-24a6-4f89-b8fe-d69485cca227"},"vehicle_type_id":"4","last_reported":1761927153,"current_range_meters":20000,"station_id":"ce4bh392rcd13ifvqdl0","pricing_plan_id":"cebpf4jnsgd1na2vs0mg"},{"bike_id":"32632625-b281-4348-990f-071d78c42b84","system_id":"levelo_inurba_marseille","lat":43.26569,"lon":5.39014,"is_reserved":false,"is_disabled":false,"rental_uris":{"android":"levelo://app?vid=32632625-b281-4348-990f-071d78c42b84","ios":"levelo://app?vid=32632625-b281-4348-990f-071d78c42b84"},"vehicle_type_id":"4","last_reported":1761927153,"current_range_meters":20000,"station_id":"","pricing_plan_id":"cebpf4jnsgd1na2vs0mg"},{"bike_id":"47217d49-873e-4572-9945-e5c72c2ce854","system_id":"levelo_inurba_marseille","lat":43.29276,"lon":5.36844,"is_reserved":false,"is_disabled":false,"rental_uris":{"android":"levelo://app?vid=47217d49-873e-4572-9945-e5c72c2ce854","ios":"levelo://app?vid=47217d49-873e-4572-9945-e5c72c2ce854"},"vehicle_type_id":"4","last_reported":1761927153,"current_range_meters":20000,"station_id":"ce4bhbp2rcd13ifvqesg","pricing_plan_id":"cebpf4jnsgd1na2vs0mg"},{"bike_id":"41598790-345d-414f-9e87-720cb432f278","system_id":"levelo_inurba_marseille","lat":43.29477,"lon":5.36227,"is_reserved":false,"is_disabled":false,"rental_uris":{"android":"levelo://app?vid=41598790-345d-414f-9e87-720cb432f278","ios":"levelo://app?vid=41598790-345d-414f-9e87-720cb432f278"},"vehicle_type_id":"4","last_reported":1761927153,"current_range_meters":20000,"station_id":"","pricing_plan_id":"cebpf4jnsgd1na2vs0mg"},{"bike_id":"3ffbae57-8ecd-4e3d-96ad-932247e3fe54","system_id":"levelo_inurba_marseille","lat":43.32358,"lon":5.36761,"is_reserved":false,"is_disabled":false,"rental_uris":{"android":"levelo://app?vid=3ffbae57-8ecd-4e3d-96ad-932247e3fe54","ios":"levelo://app?vid=3ffbae57-8ecd-4e3d-96ad-932247e3fe54"},"vehicle_type_id":"4","last_reported":1761927153,"current_range_meters":20000,"station_id":"ce4bhsh2rcd13ifvqi2g","pricing_plan_id":"cebpf4jnsgd1na2vs0mg"},{"bike_id":"69deb502-2358-4a1b-b94f-9dde334c53ca","system_id":"levelo_inurba_marseille","lat":43.28943,"lon":5.36407,"is_reserved":false,"is_disabled":false,"rental_uris":{"android":"levelo://app?vid=69deb502-2358-4a1b-b94f-9dde334c53ca","ios":"levelo://app?vid=69deb502-2358-4a1b-b94f-9dde334c53ca"},"vehicle_type_id":"4","last_reported":1761927153,"current_range_meters":20000,"station_id":"ce4bhc92rcd13ifvqetg","pricing_plan_id":"cebpf4jnsgd1na2vs0mg"},{"bike_id":"50c2c89c-4a9b-41f6-af05-b4e430e07029","system_id":"levelo_inurba_marseille","lat":43.24637,"lon":5.43148,"is_reserved":false,"is_disabled":false,"rental_uris":{"android":"levelo://app?vid=50c2c89c-4a9b-41f6-af05-b4e430e07029","ios":"levelo://app?vid=50c2c89c-4a9b-41f6-af05-b4e430e07029"},"vehicle_type_id":"4","last_reported":1761927153,"current_range_meters":20000,"station_id":"st_d2m6c4gdas8pm72e190g","pricing_plan_id":"cebpf4jnsgd1na2vs0mg"},{"bike_id":"7c19b7e9-393b-4fa2-b057-4dd7dff08f6d","system_id":"levelo_inurba_marseille","lat":43.211937,"lon":5.350913,"is_reserved":false,"is_disabled":false,"rental_uris":{"android":"levelo://app?vid=7c19b7e9-393b-4fa2-b057-4dd7dff08f6d","ios":"levelo://app?vid=7c19b7e9-393b-4fa2-b057-4dd7dff08f6d"},"vehicle_type_id":"4","last_reported":1761927153,"current_range_meters":20000,"station_id":"st_cvj6sg6p6f1abm77japg","pricing_plan_id":"cebpf4jnsgd1na2vs0mg"},{"bike_id":"cc0d6697-bf7c-4001-828f-c5cf42c80c59","system_id":"levelo_inurba_marseille","lat":43.21194,"lon":5.35081,"is_reserved":false,"is_disabled":false,"rental_uris":{"android":"levelo://app?vid=cc0d6697-bf7c-4001-828f-c5cf42c80c59","ios":"levelo://app?vid=cc0d6697-bf7c-4001-828f-c5cf42c80c59"},"vehicle_type_id":"4","last_reported":1761927153,"current_range_meters":20000,"station_id":"","pricing_plan_id":"cebpf4jnsgd1na2vs0mg"},{"bike_id":"fa149a46-dafc-40cf-8c9a-33f5a4d4b9b6","system_id":"levelo_inurba_marseille","lat":43.31358,"lon":5.38498,"is_reserved":false,"is_disabled":false,"rental_uris":{"android":"levelo://app?vid=fa149a46-dafc-40cf-8c9a-33f5a4d4b9b6","ios":"levelo://app?vid=fa149a46-dafc-40cf-8c9a-33f5a4d4b9b6"},"vehicle_type_id":"4","last_reported":1761927153,"current_range_meters":20000,"station_id":"ce4bgt92rcd13ifvqcf0","pricing_plan_id":"cebpf4jnsgd1na2vs0mg"},{"bike_id":"1d29646a-da1f-4f66-b008-0838ffb2fa84","system_id":"levelo_inurba_marseille","lat":43.29996,"lon":5.3723,"is_reserved":false,"is_disabled":false,"rental_uris":{"android":"levelo://app?vid=1d29646a-da1f-4f66-b008-0838ffb2fa84","ios":"levelo://app?vid=1d29646a-da1f-4f66-b008-0838ffb2fa84"},"vehicle_type_id":"4","last_reported":1761927153,"current_range_meters":20000,"station_id":"ce4bgr92rcd13ifvqc7g","pricing_plan_id":"cebpf4jnsgd1na2vs0mg"},{"bike_id":"ded40096-29d4-4fab-86c1-507e302c0ee7","system_id":"levelo_inurba_marseille","lat":43.25338,"lon":5.42174,"is_reserved":false,"is_disabled":false,"rental_uris":{"android":"levelo://app?vid=ded40096-29d4-4fab-86c1-507e302c0ee7","ios":"levelo://app?vid=ded40096-29d4-4fab-86c1-507e302c0ee7"},"vehicle_type_id":"4","last_reported":1761927153,"current_range_meters":20400,"station_id":"st_d2m65c5bi1j21697t3ng","pricing_plan_id":"cebpf4jnsgd1na2vs0mg"},{"bike_id":"e931acf7-06b2-4617-be79-71126f710e27","system_id":"levelo_inurba_marseille","lat":43.30542,"lon":5.36551,"is_reserved":false,"is_disabled":false,"rental_uris":{"android":"levelo://app?vid=e931acf7-06b2-4617-be79-71126f710e27","ios":"levelo://app?vid=e931acf7-06b2-4617-be79-71126f710e27"},"vehicle_type_id":"4","last_reported":1761927153,"current_range_meters":20400,"station_id":"ce4bgs12rcd13ifvqcag","pricing_plan_id":"cebpf4jnsgd1na2vs0mg"},{"bike_id":"f4c38a56-4a35-49a9-bdea-5d14ae1ba768","system_id":"levelo_inurba_marseille","lat":43.297554,"lon":5.427879,"is_reserved":false,"is_disabled":false,"rental_uris":{"android":"levelo://app?vid=f4c38a56-4a35-49a9-bdea-5d14ae1ba768","ios":"levelo://app?vid=f4c38a56-4a35-49a9-bdea-5d14ae1ba768"},"vehicle_type_id":"4","last_reported":1761927153,"current_range_meters":20400,"station_id":"st_d3md5207bmas73dh9klg","pricing_plan_id":"cebpf4jnsgd1na2vs0mg"},{"bike_id":"a4959912-8b29-4734-b725-c2ad69814c10","system_id":"levelo_inurba_marseille","lat":43.29621,"lon":5.37168,"is_reserved":false,"is_disabled":false,"rental_uris":{"android":"levelo://app?vid=a4959912-8b29-4734-b725-c2ad69814c10","ios":"levelo://app?vid=a4959912-8b29-4734-b725-c2ad69814c10"},"vehicle_type_id":"4","last_reported":1761927153,"current_range_meters":20400,"station_id":"ce4bgnh2rcd13ifvqc0g","pricing_plan_id":"cebpf4jnsgd1na2vs0mg"},{"bike_id":"0d4fa29f-4e3d-49de-b9d5-ef3899a204c1","system_id":"levelo_inurba_marseille","lat":43.2315,"lon":5.43721,"is_reserved":false,"is_disabled":false,"rental_uris":{"android":"levelo://app?vid=0d4fa29f-4e3d-49de-b9d5-ef3899a204c1","ios":"levelo://app?vid=0d4fa29f-4e3d-49de-b9d5-ef3899a204c1"},"vehicle_type_id":"4","last_reported":1761927153,"current_range_meters":20400,"station_id":"ce4bhmp2rcd13ifvqgog","pricing_plan_id":"cebpf4jnsgd1na2vs0mg"},{"bike_id":"a73a24c3-2218-4652-a302-2ad81b7034ad","system_id":"levelo_inurba_marseille","lat":43.318131,"lon":5.387629,"is_reserved":false,"is_disabled":false,"rental_uris":{"android":"levelo://app?vid=a73a24c3-2218-4652-a302-2ad81b7034ad","ios":"levelo://app?vid=a73a24c3-2218-4652-a302-2ad81b7034ad"},"vehicle_type_id":"4","last_reported":1761927153,"current_range_meters":20400,"station_id":"","pricing_plan_id":"cebpf4jnsgd1na2vs0mg"},{"bike_id":"30f28e4a-81f5-4f1c-af92-04beefe93aed","system_id":"levelo_inurba_marseille","lat":43.29171,"lon":5.37152,"is_reserved":false,"is_disabled":false,"rental_uris":{"android":"levelo://app?vid=30f28e4a-81f5-4f1c-af92-04beefe93aed","ios":"levelo://app?vid=30f28e4a-81f5-4f1c-af92-04beefe93aed"},"vehicle_type_id":"4","last_reported":1761927153,"current_range_meters":20400,"station_id":"ce4bha92rcd13ifvqeh0","pricing_plan_id":"cebpf4jnsgd1na2vs0mg"},{"bike_id":"1510912d-5500-4029-8c52-09b2dbc632be","system_id":"levelo_inurba_marseille","lat":43.29444,"lon":5.40129,"is_reserved":false,"is_disabled":true,"rental_uris":{"android":"levelo://app?vid=1510912d-5500-4029-8c52-09b2dbc632be","ios":"levelo://app?vid=1510912d-5500-4029-8c52-09b2dbc632be"},"vehicle_type_id":"4","last_reported":1761927153,"current_range_meters":20800,"station_id":"","pricing_plan_id":"cebpf4jnsgd1na2vs0mg"},{"bike_id":"52b04612-cd38-411f-a68e-6bb9cb24a90a","system_id":"levelo_inurba_marseille","lat":43.24174,"lon":5.36398,"is_reserved":false,"is_disabled":false,"rental_uris":{"android":"levelo://app?vid=52b04612-cd38-411f-a68e-6bb9cb24a90a","ios":"levelo://app?vid=52b04612-cd38-411f-a68e-6bb9cb24a90a"},"vehicle_type_id":"4","last_reported":1761927153,"current_range_meters":20800,"station_id":"cpo36qri1sfpv3e86is0","pricing_plan_id":"cebpf4jnsgd1na2vs0mg"},{"bike_id":"cf7a8ce5-6096-4f39-86c5-cb2e7875b3f2","system_id":"levelo_inurba_marseille","lat":43.24546,"lon":5.3952,"is_reserved":false,"is_disabled":false,"rental_uris":{"android":"levelo://app?vid=cf7a8ce5-6096-4f39-86c5-cb2e7875b3f2","ios":"levelo://app?vid=cf7a8ce5-6096-4f39-86c5-cb2e7875b3f2"},"vehicle_type_id":"4","last_reported":1761927153,"current_range_meters":20800,"station_id":"ce4bhlp2rcd13ifvqgjg","pricing_plan_id":"cebpf4jnsgd1na2vs0mg"},{"bike_id":"7776d34e-6db1-4a95-b64a-dfa1faf6c280","system_id":"levelo_inurba_marseille","lat":43.30175,"lon":5.369679,"is_reserved":false,"is_disabled":false,"rental_uris":{"android":"levelo://app?vid=7776d34e-6db1-4a95-b64a-dfa1faf6c280","ios":"levelo://app?vid=7776d34e-6db1-4a95-b64a-dfa1faf6c280"},"vehicle_type_id":"4","last_reported":1761927153,"current_range_meters":20800,"station_id":"","pricing_plan_id":"cebpf4jnsgd1na2vs0mg"},{"bike_id":"bc3107ab-077a-4c01-a0e8-941e3b23582a","system_id":"levelo_inurba_marseille","lat":43.30924,"lon":5.40144,"is_reserved":false,"is_disabled":false,"rental_uris":{"android":"levelo://app?vid=bc3107ab-077a-4c01-a0e8-941e3b23582a","ios":"levelo://app?vid=bc3107ab-077a-4c01-a0e8-941e3b23582a"},"vehicle_type_id":"4","last_reported":1761927153,"current_range_meters":20800,"station_id":"ce4bgvp2rcd13ifvqct0","pricing_plan_id":"cebpf4jnsgd1na2vs0mg"},{"bike_id":"e35e0abe-4c2a-4cc0-a145-913ed5b94495","system_id":"levelo_inurba_marseille","lat":43.2417,"lon":5.36415,"is_reserved":false,"is_disabled":false,"rental_uris":{"android":"levelo://app?vid=e35e0abe-4c2a-4cc0-a145-913ed5b94495","ios":"levelo://app?vid=e35e0abe-4c2a-4cc0-a145-913ed5b94495"},"vehicle_type_id":"4","last_reported":1761927153,"current_range_meters":20800,"station_id":"cpo36qri1sfpv3e86is0","pricing_plan_id":"cebpf4jnsgd1na2vs0mg"},{"bike_id":"fb6d02df-7a1f-4e35-9685-11812f0043a6","system_id":"levelo_inurba_marseille","lat":43.29032,"lon":5.38646,"is_reserved":false,"is_disabled":false,"rental_uris":{"android":"levelo://app?vid=fb6d02df-7a1f-4e35-9685-11812f0043a6","ios":"levelo://app?vid=fb6d02df-7a1f-4e35-9685-11812f0043a6"},"vehicle_type_id":"4","last_reported":1761927153,"current_range_meters":20800,"station_id":"ce4bh4p2rcd13ifvqe0g","pricing_plan_id":"cebpf4jnsgd1na2vs0mg"},{"bike_id":"aea69efe-0503-4b60-bce9-564bde7f7791","system_id":"levelo_inurba_marseille","lat":43.321039,"lon":5.367915,"is_reserved":false,"is_disabled":false,"rental_uris":{"android":"levelo://app?vid=aea69efe-0503-4b60-bce9-564bde7f7791","ios":"levelo://app?vid=aea69efe-0503-4b60-bce9-564bde7f7791"},"vehicle_type_id":"4","last_reported":1761927153,"current_range_meters":20800,"station_id":"ce4bhrh2rcd13ifvqhug","pricing_plan_id":"cebpf4jnsgd1na2vs0mg"},{"bike_id":"5894e742-626c-4083-aea3-86144af6358a","system_id":"levelo_inurba_marseille","lat":43.29716,"lon":5.36605,"is_reserved":false,"is_disabled":false,"rental_uris":{"android":"levelo://app?vid=5894e742-626c-4083-aea3-86144af6358a","ios":"levelo://app?vid=5894e742-626c-4083-aea3-86144af6358a"},"vehicle_type_id":"4","last_reported":1761927153,"current_range_meters":20800,"station_id":"ce4bgn12rcd13ifvqbt0","pricing_plan_id":"cebpf4jnsgd1na2vs0mg"},{"bike_id":"e234df06-1f05-4887-b706-85c5b9955892","system_id":"levelo_inurba_marseille","lat":43.2986,"lon":5.36306,"is_reserved":false,"is_disabled":false,"rental_uris":{"android":"levelo://app?vid=e234df06-1f05-4887-b706-85c5b9955892","ios":"levelo://app?vid=e234df06-1f05-4887-b706-85c5b9955892"},"vehicle_type_id":"4","last_reported":1761927153,"current_range_meters":20800,"station_id":"ce4bgpp2rcd13ifvqc3g","pricing_plan_id":"cebpf4jnsgd1na2vs0mg"},{"bike_id":"1eab1927-5d98-47d5-b135-263e83bc931e","system_id":"levelo_inurba_marseille","lat":43.29532,"lon":5.39414,"is_reserved":false,"is_disabled":false,"rental_uris":{"android":"levelo://app?vid=1eab1927-5d98-47d5-b135-263e83bc931e","ios":"levelo://app?vid=1eab1927-5d98-47d5-b135-263e83bc931e"},"vehicle_type_id":"4","last_reported":1761927153,"current_range_meters":20800,"station_id":"ce4bh292rcd13ifvqdf0","pricing_plan_id":"cebpf4jnsgd1na2vs0mg"},{"bike_id":"5bc39a56-1d9f-42d0-8f29-22c2cd2d4c1d","system_id":"levelo_inurba_marseille","lat":43.29872,"lon":5.38903,"is_reserved":false,"is_disabled":false,"rental_uris":{"android":"levelo://app?vid=5bc39a56-1d9f-42d0-8f29-22c2cd2d4c1d","ios":"levelo://app?vid=5bc39a56-1d9f-42d0-8f29-22c2cd2d4c1d"},"vehicle_type_id":"4","last_reported":1761927153,"current_range_meters":21600,"station_id":"ce4bh392rcd13ifvqdl0","pricing_plan_id":"cebpf4jnsgd1na2vs0mg"},{"bike_id":"8ac4fbc9-ac0d-4af5-9421-6ac71f656b7f","system_id":"levelo_inurba_marseille","lat":43.29937,"lon":5.36515,"is_reserved":false,"is_disabled":false,"rental_uris":{"android":"levelo://app?vid=8ac4fbc9-ac0d-4af5-9421-6ac71f656b7f","ios":"levelo://app?vid=8ac4fbc9-ac0d-4af5-9421-6ac71f656b7f"},"vehicle_type_id":"4","last_reported":1761927153,"current_range_meters":21600,"station_id":"ce4bgm92rcd13ifvqbr0","pricing_plan_id":"cebpf4jnsgd1na2vs0mg"},{"bike_id":"ad3c032a-9aa8-4060-bdc5-2b0300446c95","system_id":"levelo_inurba_marseille","lat":43.30137,"lon":5.374201,"is_reserved":false,"is_disabled":false,"rental_uris":{"android":"levelo://app?vid=ad3c032a-9aa8-4060-bdc5-2b0300446c95","ios":"levelo://app?vid=ad3c032a-9aa8-4060-bdc5-2b0300446c95"},"vehicle_type_id":"4","last_reported":1761927153,"current_range_meters":21600,"station_id":"ce4bgs92rcd13ifvqcc0","pricing_plan_id":"cebpf4jnsgd1na2vs0mg"},{"bike_id":"578a57cc-dd8f-4b86-9eea-c52481c8e90f","system_id":"levelo_inurba_marseille","lat":43.21194,"lon":5.35079,"is_reserved":false,"is_disabled":false,"rental_uris":{"android":"levelo://app?vid=578a57cc-dd8f-4b86-9eea-c52481c8e90f","ios":"levelo://app?vid=578a57cc-dd8f-4b86-9eea-c52481c8e90f"},"vehicle_type_id":"4","last_reported":1761927153,"current_range_meters":21600,"station_id":"st_cvj6sg6p6f1abm77japg","pricing_plan_id":"cebpf4jnsgd1na2vs0mg"},{"bike_id":"19e6c29a-d6a3-42f8-9ccf-cad23244f771","system_id":"levelo_inurba_marseille","lat":43.29378,"lon":5.37863,"is_reserved":false,"is_disabled":false,"rental_uris":{"android":"levelo://app?vid=19e6c29a-d6a3-42f8-9ccf-cad23244f771","ios":"levelo://app?vid=19e6c29a-d6a3-42f8-9ccf-cad23244f771"},"vehicle_type_id":"4","last_reported":1761927153,"current_range_meters":21600,"station_id":"ce4bgjh2rcd13ifvqbf0","pricing_plan_id":"cebpf4jnsgd1na2vs0mg"},{"bike_id":"d460c232-b08c-4c9f-acc7-9c7f05f2ad1d","system_id":"levelo_inurba_marseille","lat":43.30191,"lon":5.36633,"is_reserved":false,"is_disabled":false,"rental_uris":{"android":"levelo://app?vid=d460c232-b08c-4c9f-acc7-9c7f05f2ad1d","ios":"levelo://app?vid=d460c232-b08c-4c9f-acc7-9c7f05f2ad1d"},"vehicle_type_id":"4","last_reported":1761927153,"current_range_meters":21600,"station_id":"ce4bgrh2rcd13ifvqc8g","pricing_plan_id":"cebpf4jnsgd1na2vs0mg"},{"bike_id":"ba541a52-7e4e-4241-9791-ae6f1fb03dcd","system_id":"levelo_inurba_marseille","lat":43.319968,"lon":5.415991,"is_reserved":false,"is_disabled":false,"rental_uris":{"android":"levelo://app?vid=ba541a52-7e4e-4241-9791-ae6f1fb03dcd","ios":"levelo://app?vid=ba541a52-7e4e-4241-9791-ae6f1fb03dcd"},"vehicle_type_id":"4","last_reported":1761927153,"current_range_meters":21600,"station_id":"","pricing_plan_id":"cebpf4jnsgd1na2vs0mg"},{"bike_id":"04e81821-3f80-413f-872c-8c7f7514d382","system_id":"levelo_inurba_marseille","lat":43.29576,"lon":5.39976,"is_reserved":false,"is_disabled":false,"rental_uris":{"android":"levelo://app?vid=04e81821-3f80-413f-872c-8c7f7514d382","ios":"levelo://app?vid=04e81821-3f80-413f-872c-8c7f7514d382"},"vehicle_type_id":"4","last_reported":1761927153,"current_range_meters":21600,"station_id":"ce4bh312rcd13ifvqdj0","pricing_plan_id":"cebpf4jnsgd1na2vs0mg"},{"bike_id":"62de671e-7a32-4ba9-9083-1401010c4da7","system_id":"levelo_inurba_marseille","lat":43.23148,"lon":5.43723,"is_reserved":false,"is_disabled":false,"rental_uris":{"android":"levelo://app?vid=62de671e-7a32-4ba9-9083-1401010c4da7","ios":"levelo://app?vid=62de671e-7a32-4ba9-9083-1401010c4da7"},"vehicle_type_id":"4","last_reported":1761927153,"current_range_meters":22000,"station_id":"ce4bhmp2rcd13ifvqgog","pricing_plan_id":"cebpf4jnsgd1na2vs0mg"},{"bike_id":"79c3e17b-6b52-40f3-829f-6b443681b1d3","system_id":"levelo_inurba_marseille","lat":43.28096,"lon":5.39661,"is_reserved":false,"is_disabled":false,"rental_uris":{"android":"levelo://app?vid=79c3e17b-6b52-40f3-829f-6b443681b1d3","ios":"levelo://app?vid=79c3e17b-6b52-40f3-829f-6b443681b1d3"},"vehicle_type_id":"4","last_reported":1761927153,"current_range_meters":22000,"station_id":"ce4bho12rcd13ifvqh2g","pricing_plan_id":"cebpf4jnsgd1na2vs0mg"},{"bike_id":"9f516199-2789-4cf4-a814-b56eaf82f492","system_id":"levelo_inurba_marseille","lat":43.298845,"lon":5.400701,"is_reserved":false,"is_disabled":false,"rental_uris":{"android":"levelo://app?vid=9f516199-2789-4cf4-a814-b56eaf82f492","ios":"levelo://app?vid=9f516199-2789-4cf4-a814-b56eaf82f492"},"vehicle_type_id":"4","last_reported":1761927153,"current_range_meters":22000,"station_id":"","pricing_plan_id":"cebpf4jnsgd1na2vs0mg"},{"bike_id":"d9506240-1369-4e58-b119-0556acf52330","system_id":"levelo_inurba_marseille","lat":43.2996,"lon":5.41338,"is_reserved":false,"is_disabled":false,"rental_uris":{"android":"levelo://app?vid=d9506240-1369-4e58-b119-0556acf52330","ios":"levelo://app?vid=d9506240-1369-4e58-b119-0556acf52330"},"vehicle_type_id":"4","last_reported":1761927153,"current_range_meters":22000,"station_id":"ce4bhp12rcd13ifvqh9g","pricing_plan_id":"cebpf4jnsgd1na2vs0mg"},{"bike_id":"192e66ef-089a-40ca-8236-0b363ccf47c4","system_id":"levelo_inurba_marseille","lat":43.28167,"lon":5.42645,"is_reserved":false,"is_disabled":false,"rental_uris":{"android":"levelo://app?vid=192e66ef-089a-40ca-8236-0b363ccf47c4","ios":"levelo://app?vid=192e66ef-089a-40ca-8236-0b363ccf47c4"},"vehicle_type_id":"4","last_reported":1761927153,"current_range_meters":22000,"station_id":"ce4bhnh2rcd13ifvqgug","pricing_plan_id":"cebpf4jnsgd1na2vs0mg"},{"bike_id":"f0716a9b-8cf3-4921-9c70-3be110adb972","system_id":"levelo_inurba_marseille","lat":43.294098,"lon":5.393649,"is_reserved":false,"is_disabled":false,"rental_uris":{"android":"levelo://app?vid=f0716a9b-8cf3-4921-9c70-3be110adb972","ios":"levelo://app?vid=f0716a9b-8cf3-4921-9c70-3be110adb972"},"vehicle_type_id":"4","last_reported":1761927153,"current_range_meters":22000,"station_id":"ce4bh292rcd13ifvqdf0","pricing_plan_id":"cebpf4jnsgd1na2vs0mg"},{"bike_id":"1bf69052-b1ff-40aa-9911-1283ba5bf3af","system_id":"levelo_inurba_marseille","lat":43.29532,"lon":5.394,"is_reserved":false,"is_disabled":false,"rental_uris":{"android":"levelo://app?vid=1bf69052-b1ff-40aa-9911-1283ba5bf3af","ios":"levelo://app?vid=1bf69052-b1ff-40aa-9911-1283ba5bf3af"},"vehicle_type_id":"4","last_reported":1761927153,"current_range_meters":22000,"station_id":"ce4bh292rcd13ifvqdf0","pricing_plan_id":"cebpf4jnsgd1na2vs0mg"},{"bike_id":"c943b5a5-8751-4602-8787-6d8e96a07241","system_id":"levelo_inurba_marseille","lat":43.255142,"lon":5.376524,"is_reserved":false,"is_disabled":false,"rental_uris":{"android":"levelo://app?vid=c943b5a5-8751-4602-8787-6d8e96a07241","ios":"levelo://app?vid=c943b5a5-8751-4602-8787-6d8e96a07241"},