{"last_updated":1745568866,"ttl":60,"version":"2.2","data":{"bikes":[{"bike_id":"d373d43c-1ec8-4c15-97b7-3808631cf0d5","system_id":"levelo_inurba_marseille","lat":43.30632,"lon":5.38032,"is_reserved":false,"is_disabled":false,"rental_uris":{"android":"levelo://app?vid=d373d43c-1ec8-4c15-97b7-3808631cf0d5","ios":"levelo://app?vid=d373d43c-1ec8-4c15-97b7-3808631cf0d5"},"vehicle_type_id":"4","last_reported":1745568867,"current_range_meters":2800,"station_id":"","pricing_plan_id":"cebpf4jnsgd1na2vs0mg"},{"bike_id":"92f3a277-dac5-437f-931c-bf9d49d61266","system_id":"levelo_inurba_marseille","lat":43.30386,"lon":5.42488,"is_reserved":false,"is_disabled":false,"rental_uris":{"android":"levelo://app?vid=92f3a277-dac5-437f-931c-bf9d49d61266","ios":"levelo://app?vid=92f3a277-dac5-437f-931c-bf9d49d61266"},"vehicle_type_id":"4","last_reported":1745568867,"current_range_meters":2800,"station_id":"ce4bhoh2rcd13ifvqh6g","pricing_plan_id":"cebpf4jnsgd1na2vs0mg"},{"bike_id":"e62aa51c-ff9c-4cf4-8b1d-bd62ba6c60c5","system_id":"levelo_inurba_marseille","lat":43.28714,"lon":5.37936,"is_reserved":false,"is_disabled":false,"rental_uris":{"android":"levelo://app?vid=e62aa51c-ff9c-4cf4-8b1d-bd62ba6c60c5","ios":"levelo://app?vid=e62aa51c-ff9c-4cf4-8b1d-bd62ba6c60c5"},"vehicle_type_id":"4","last_reported":1745568867,"current_range_meters":2800,"station_id":"ce4bh9p2rcd13ifvqec0","pricing_plan_id":"cebpf4jnsgd1na2vs0mg"},{"bike_id":"c80b4906-338a-43d0-8b2c-1767d2950c18","system_id":"levelo_inurba_marseille","lat":43.2417,"lon":5.39732,"is_reserved":false,"is_disabled":false,"rental_uris":{"android":"levelo://app?vid=c80b4906-338a-43d0-8b2c-1767d2950c18","ios":"levelo://app?vid=c80b4906-338a-43d0-8b2c-1767d2950c18"},"vehicle_type_id":"4","last_reported":1745568867,"current_range_meters":2800,"station_id":"ce4bhn12rcd13ifvqgpg","pricing_plan_id":"cebpf4jnsgd1na2vs0mg"},{"bike_id":"ba98092f-1f95-4d1b-8c2e-943fbb808d72","system_id":"levelo_inurba_marseille","lat":43.24186,"lon":5.39717,"is_reserved":false,"is_disabled":false,"rental_uris":{"android":"levelo://app?vid=ba98092f-1f95-4d1b-8c2e-943fbb808d72","ios":"levelo://app?vid=ba98092f-1f95-4d1b-8c2e-943fbb808d72"},"vehicle_type_id":"4","last_reported":1745568867,"current_range_meters":2800,"station_id":"ce4bhn12rcd13ifvqgpg","pricing_plan_id":"cebpf4jnsgd1na2vs0mg"},{"bike_id":"b57b1659-085c-4328-8019-71240ed889b7","system_id":"levelo_inurba_marseille","lat":43.2319,"lon":5.39988,"is_reserved":false,"is_disabled":false,"rental_uris":{"android":"levelo://app?vid=b57b1659-085c-4328-8019-71240ed889b7","ios":"levelo://app?vid=b57b1659-085c-4328-8019-71240ed889b7"},"vehicle_type_id":"4","last_reported":1745568867,"current_range_meters":2800,"station_id":"ce4bhn12rcd13ifvqgqg","pricing_plan_id":"cebpf4jnsgd1na2vs0mg"},{"bike_id":"ac7e9454-ac51-4cb1-ac14-dc38f2ed9c5d","system_id":"levelo_inurba_marseille","lat":43.26783,"lon":5.39416,"is_reserved":false,"is_disabled":false,"rental_uris":{"android":"levelo://app?vid=ac7e9454-ac51-4cb1-ac14-dc38f2ed9c5d","ios":"levelo://app?vid=ac7e9454-ac51-4cb1-ac14-dc38f2ed9c5d"},"vehicle_type_id":"4","last_reported":1745568867,"current_range_meters":3200,"station_id":"ce4bhh12rcd13ifvqfg0","pricing_plan_id":"cebpf4jnsgd1na2vs0mg"},{"bike_id":"fed3087f-a5cb-449e-a43e-200233532ee8","system_id":"levelo_inurba_marseille","lat":43.28034,"lon":5.36946,"is_reserved":false,"is_disabled":true,"rental_uris":{"android":"levelo://app?vid=fed3087f-a5cb-449e-a43e-200233532ee8","ios":"levelo://app?vid=fed3087f-a5cb-449e-a43e-200233532ee8"},"vehicle_type_id":"4","last_reported":1745568867,"current_range_meters":3200,"station_id":"ce4bha12rcd13ifvqef0","pricing_plan_id":"cebpf4jnsgd1na2vs0mg"},{"bike_id":"30704823-7a9c-4b12-af5d-93db18bfd3b9","system_id":"levelo_inurba_marseille","lat":43.28847,"lon":5.39939,"is_reserved":false,"is_disabled":false,"rental_uris":{"android":"levelo://app?vid=30704823-7a9c-4b12-af5d-93db18bfd3b9","ios":"levelo://app?vid=30704823-7a9c-4b12-af5d-93db18bfd3b9"},"vehicle_type_id":"4","last_reported":1745568867,"current_range_meters":3200,"station_id":"","pricing_plan_id":"cebpf4jnsgd1na2vs0mg"},{"bike_id":"92c3b340-d069-4f1c-b55b-44c52f19597b","system_id":"levelo_inurba_marseille","lat":43.282456,"lon":5.377902,"is_reserved":false,"is_disabled":false,"rental_uris":{"android":"levelo://app?vid=92c3b340-d069-4f1c-b55b-44c52f19597b","ios":"levelo://app?vid=92c3b340-d069-4f1c-b55b-44c52f19597b"},"vehicle_type_id":"4","last_reported":1745568867,"current_range_meters":4000,"station_id":"","pricing_plan_id":"cebpf4jnsgd1na2vs0mg"},{"bike_id":"5b16eb17-ed57-4a23-aac2-2c155ee976fc","system_id":"levelo_inurba_marseille","lat":43.22966,"lon":5.35413,"is_reserved":false,"is_disabled":false,"rental_uris":{"android":"levelo://app?vid=5b16eb17-ed57-4a23-aac2-2c155ee976fc","ios":"levelo://app?vid=5b16eb17-ed57-4a23-aac2-2c155ee976fc"},"vehicle_type_id":"4","last_reported":1745568867,"current_range_meters":4000,"station_id":"","pricing_plan_id":"cebpf4jnsgd1na2vs0mg"},{"bike_id":"e52b8da7-98f9-4e55-a025-10dea4c1f453","system_id":"levelo_inurba_marseille","lat":43.2591,"lon":5.4088,"is_reserved":false,"is_disabled":false,"rental_uris":{"android":"levelo://app?vid=e52b8da7-98f9-4e55-a025-10dea4c1f453","ios":"levelo://app?vid=e52b8da7-98f9-4e55-a025-10dea4c1f453"},"vehicle_type_id":"4","last_reported":1745568867,"current_range_meters":4000,"station_id":"ce4bhm92rcd13ifvqglg","pricing_plan_id":"cebpf4jnsgd1na2vs0mg"},{"bike_id":"5db3c80d-6d2a-44ba-8090-ab498186ef2b","system_id":"levelo_inurba_marseille","lat":43.27201,"lon":5.39175,"is_reserved":false,"is_disabled":false,"rental_uris":{"android":"levelo://app?vid=5db3c80d-6d2a-44ba-8090-ab498186ef2b","ios":"levelo://app?vid=5db3c80d-6d2a-44ba-8090-ab498186ef2b"},"vehicle_type_id":"4","last_reported":1745568867,"current_range_meters":4400,"station_id":"ce4bhhp2rcd13ifvqfm0","pricing_plan_id":"cebpf4jnsgd1na2vs0mg"},{"bike_id":"89db47c2-96b1-4412-aa42-1c1cd6bc5e0b","system_id":"levelo_inurba_marseille","lat":43.30428,"lon":5.38872,"is_reserved":false,"is_disabled":false,"rental_uris":{"android":"levelo://app?vid=89db47c2-96b1-4412-aa42-1c1cd6bc5e0b","ios":"levelo://app?vid=89db47c2-96b1-4412-aa42-1c1cd6bc5e0b"},"vehicle_type_id":"4","last_reported":1745568867,"current_range_meters":4400,"station_id":"ce4bgk12rcd13ifvqbi0","pricing_plan_id":"cebpf4jnsgd1na2vs0mg"},{"bike_id":"2ec84b55-73b7-4fd5-9e39-b1cef0177055","system_id":"levelo_inurba_marseille","lat":43.30153,"lon":5.38075,"is_reserved":false,"is_disabled":false,"rental_uris":{"android":"levelo://app?vid=2ec84b55-73b7-4fd5-9e39-b1cef0177055","ios":"levelo://app?vid=2ec84b55-73b7-4fd5-9e39-b1cef0177055"},"vehicle_type_id":"4","last_reported":1745568867,"current_range_meters":4400,"station_id":"ce4bgjp2rcd13ifvqbh0","pricing_plan_id":"cebpf4jnsgd1na2vs0mg"},{"bike_id":"36175784-0f66-4210-82c1-81e9b764563d","system_id":"levelo_inurba_marseille","lat":43.28609,"lon":5.37055,"is_reserved":false,"is_disabled":false,"rental_uris":{"android":"levelo://app?vid=36175784-0f66-4210-82c1-81e9b764563d","ios":"levelo://app?vid=36175784-0f66-4210-82c1-81e9b764563d"},"vehicle_type_id":"4","last_reported":1745568867,"current_range_meters":4800,"station_id":"ce4bht12rcd13ifvqi60","pricing_plan_id":"cebpf4jnsgd1na2vs0mg"},{"bike_id":"31e0164a-0a6a-49f7-b339-9a54d578a014","system_id":"levelo_inurba_marseille","lat":43.28466,"lon":5.35882,"is_reserved":false,"is_disabled":false,"rental_uris":{"android":"levelo://app?vid=31e0164a-0a6a-49f7-b339-9a54d578a014","ios":"levelo://app?vid=31e0164a-0a6a-49f7-b339-9a54d578a014"},"vehicle_type_id":"4","last_reported":1745568867,"current_range_meters":4800,"station_id":"ce4bhah2rcd13ifvqei0","pricing_plan_id":"cebpf4jnsgd1na2vs0mg"},{"bike_id":"31b41d28-62b8-4185-9368-551fedda8c8c","system_id":"levelo_inurba_marseille","lat":43.2984,"lon":5.36283,"is_reserved":false,"is_disabled":false,"rental_uris":{"android":"levelo://app?vid=31b41d28-62b8-4185-9368-551fedda8c8c","ios":"levelo://app?vid=31b41d28-62b8-4185-9368-551fedda8c8c"},"vehicle_type_id":"4","last_reported":1745568867,"current_range_meters":4800,"station_id":"ce4bgpp2rcd13ifvqc3g","pricing_plan_id":"cebpf4jnsgd1na2vs0mg"},{"bike_id":"60ee52f6-3432-4a14-b3b4-c3acf981d864","system_id":"levelo_inurba_marseille","lat":43.21766,"lon":5.34644,"is_reserved":false,"is_disabled":false,"rental_uris":{"android":"levelo://app?vid=60ee52f6-3432-4a14-b3b4-c3acf981d864","ios":"levelo://app?vid=60ee52f6-3432-4a14-b3b4-c3acf981d864"},"vehicle_type_id":"4","last_reported":1745568867,"current_range_meters":5600,"station_id":"st_cvj6r9ubvosntc0bgbag","pricing_plan_id":"cebpf4jnsgd1na2vs0mg"},{"bike_id":"04de76c4-a1ad-45bf-9e28-7c78bfcbb5c0","system_id":"levelo_inurba_marseille","lat":43.25196,"lon":5.37433,"is_reserved":false,"is_disabled":false,"rental_uris":{"android":"levelo://app?vid=04de76c4-a1ad-45bf-9e28-7c78bfcbb5c0","ios":"levelo://app?vid=04de76c4-a1ad-45bf-9e28-7c78bfcbb5c0"},"vehicle_type_id":"4","last_reported":1745568867,"current_range_meters":5600,"station_id":"","pricing_plan_id":"cebpf4jnsgd1na2vs0mg"},{"bike_id":"6372ae0a-e98d-40ff-b372-a085cb5b6f8f","system_id":"levelo_inurba_marseille","lat":43.28275,"lon":5.35066,"is_reserved":false,"is_disabled":false,"rental_uris":{"android":"levelo://app?vid=6372ae0a-e98d-40ff-b372-a085cb5b6f8f","ios":"levelo://app?vid=6372ae0a-e98d-40ff-b372-a085cb5b6f8f"},"vehicle_type_id":"4","last_reported":1745568867,"current_range_meters":5600,"station_id":"ce4bhbp2rcd13ifvqerg","pricing_plan_id":"cebpf4jnsgd1na2vs0mg"},{"bike_id":"f95fa7cd-a826-4571-af94-91b1215164fb","system_id":"levelo_inurba_marseille","lat":43.30155,"lon":5.3809,"is_reserved":false,"is_disabled":false,"rental_uris":{"android":"levelo://app?vid=f95fa7cd-a826-4571-af94-91b1215164fb","ios":"levelo://app?vid=f95fa7cd-a826-4571-af94-91b1215164fb"},"vehicle_type_id":"4","last_reported":1745568867,"current_range_meters":5600,"station_id":"ce4bgjp2rcd13ifvqbh0","pricing_plan_id":"cebpf4jnsgd1na2vs0mg"},{"bike_id":"a0ab43a8-9a02-43de-8ac8-454805e35412","system_id":"levelo_inurba_marseille","lat":43.28615,"lon":5.35102,"is_reserved":false,"is_disabled":false,"rental_uris":{"android":"levelo://app?vid=a0ab43a8-9a02-43de-8ac8-454805e35412","ios":"levelo://app?vid=a0ab43a8-9a02-43de-8ac8-454805e35412"},"vehicle_type_id":"4","last_reported":1745568867,"current_range_meters":6000,"station_id":"ce4bhch2rcd13ifvqeug","pricing_plan_id":"cebpf4jnsgd1na2vs0mg"},{"bike_id":"5ab51bf2-4f0b-4997-9ebf-a35b6bfd4bc5","system_id":"levelo_inurba_marseille","lat":43.27314,"lon":5.39074,"is_reserved":false,"is_disabled":false,"rental_uris":{"android":"levelo://app?vid=5ab51bf2-4f0b-4997-9ebf-a35b6bfd4bc5","ios":"levelo://app?vid=5ab51bf2-4f0b-4997-9ebf-a35b6bfd4bc5"},"vehicle_type_id":"4","last_reported":1745568867,"current_range_meters":6000,"station_id":"ce4bhgp2rcd13ifvqfe0","pricing_plan_id":"cebpf4jnsgd1na2vs0mg"},{"bike_id":"c8f44239-2c7a-463d-a9b8-0cda64f25076","system_id":"levelo_inurba_marseille","lat":43.30309,"lon":5.39203,"is_reserved":false,"is_disabled":false,"rental_uris":{"android":"levelo://app?vid=c8f44239-2c7a-463d-a9b8-0cda64f25076","ios":"levelo://app?vid=c8f44239-2c7a-463d-a9b8-0cda64f25076"},"vehicle_type_id":"4","last_reported":1745568867,"current_range_meters":6000,"station_id":"ce4bgkh2rcd13ifvqbk0","pricing_plan_id":"cebpf4jnsgd1na2vs0mg"},{"bike_id":"7ee9033d-55b5-4e14-b1b1-f7d8a8cb6276","system_id":"levelo_inurba_marseille","lat":43.28669,"lon":5.38672,"is_reserved":false,"is_disabled":false,"rental_uris":{"android":"levelo://app?vid=7ee9033d-55b5-4e14-b1b1-f7d8a8cb6276","ios":"levelo://app?vid=7ee9033d-55b5-4e14-b1b1-f7d8a8cb6276"},"vehicle_type_id":"4","last_reported":1745568867,"current_range_meters":6000,"station_id":"ce4bh492rcd13ifvqdug","pricing_plan_id":"cebpf4jnsgd1na2vs0mg"},{"bike_id":"85e57ba5-6f5b-4fd7-a5d4-a4ac7e63e789","system_id":"levelo_inurba_marseille","lat":43.29539,"lon":5.38538,"is_reserved":false,"is_disabled":true,"rental_uris":{"android":"levelo://app?vid=85e57ba5-6f5b-4fd7-a5d4-a4ac7e63e789","ios":"levelo://app?vid=85e57ba5-6f5b-4fd7-a5d4-a4ac7e63e789"},"vehicle_type_id":"4","last_reported":1745568867,"current_range_meters":6000,"station_id":"ce4bgih2rcd13ifvqba0","pricing_plan_id":"cebpf4jnsgd1na2vs0mg"},{"bike_id":"b3094e88-ac74-4f57-b096-b0357aadc63b","system_id":"levelo_inurba_marseille","lat":43.231494,"lon":5.43716,"is_reserved":false,"is_disabled":false,"rental_uris":{"android":"levelo://app?vid=b3094e88-ac74-4f57-b096-b0357aadc63b","ios":"levelo://app?vid=b3094e88-ac74-4f57-b096-b0357aadc63b"},"vehicle_type_id":"4","last_reported":1745568867,"current_range_meters":6000,"station_id":"ce4bhmp2rcd13ifvqgog","pricing_plan_id":"cebpf4jnsgd1na2vs0mg"},{"bike_id":"6faf6b99-9d84-43d4-b3a2-e2bcc6898d3b","system_id":"levelo_inurba_marseille","lat":43.24384,"lon":5.37058,"is_reserved":false,"is_disabled":false,"rental_uris":{"android":"levelo://app?vid=6faf6b99-9d84-43d4-b3a2-e2bcc6898d3b","ios":"levelo://app?vid=6faf6b99-9d84-43d4-b3a2-e2bcc6898d3b"},"vehicle_type_id":"4","last_reported":1745568867,"current_range_meters":6000,"station_id":"ce4bhhh2rcd13ifvqfk0","pricing_plan_id":"cebpf4jnsgd1na2vs0mg"},{"bike_id":"1b434e75-1869-42d2-bec4-0b9eeb715454","system_id":"levelo_inurba_marseille","lat":43.28417,"lon":5.34971,"is_reserved":false,"is_disabled":false,"rental_uris":{"android":"levelo://app?vid=1b434e75-1869-42d2-bec4-0b9eeb715454","ios":"levelo://app?vid=1b434e75-1869-42d2-bec4-0b9eeb715454"},"vehicle_type_id":"4","last_reported":1745568867,"current_range_meters":6400,"station_id":"ce4bhbh2rcd13ifvqepg","pricing_plan_id":"cebpf4jnsgd1na2vs0mg"},{"bike_id":"9f9b6b01-2abf-400e-b80c-9b8337b89ff5","system_id":"levelo_inurba_marseille","lat":43.27968,"lon":5.38742,"is_reserved":false,"is_disabled":false,"rental_uris":{"android":"levelo://app?vid=9f9b6b01-2abf-400e-b80c-9b8337b89ff5","ios":"levelo://app?vid=9f9b6b01-2abf-400e-b80c-9b8337b89ff5"},"vehicle_type_id":"4","last_reported":1745568867,"current_range_meters":6400,"station_id":"ce4bhg12rcd13ifvqf80","pricing_plan_id":"cebpf4jnsgd1na2vs0mg"},{"bike_id":"11c38a4d-4e7a-4017-b7a8-718c9ea87f32","system_id":"levelo_inurba_marseille","lat":43.29311,"lon":5.37446,"is_reserved":false,"is_disabled":false,"rental_uris":{"android":"levelo://app?vid=11c38a4d-4e7a-4017-b7a8-718c9ea87f32","ios":"levelo://app?vid=11c38a4d-4e7a-4017-b7a8-718c9ea87f32"},"vehicle_type_id":"4","last_reported":1745568867,"current_range_meters":6400,"station_id":"ce4bgi12rcd13ifvqb70","pricing_plan_id":"cebpf4jnsgd1na2vs0mg"},{"bike_id":"c53d6757-69a8-4e71-b1fc-4064e0b8defa","system_id":"levelo_inurba_marseille","lat":43.25931,"lon":5.40875,"is_reserved":false,"is_disabled":false,"rental_uris":{"android":"levelo://app?vid=c53d6757-69a8-4e71-b1fc-4064e0b8defa","ios":"levelo://app?vid=c53d6757-69a8-4e71-b1fc-4064e0b8defa"},"vehicle_type_id":"4","last_reported":1745568867,"current_range_meters":6400,"station_id":"ce4bhm92rcd13ifvqglg","pricing_plan_id":"cebpf4jnsgd1na2vs0mg"},{"bike_id":"3c96ccc1-8bf1-44f5-8a44-5fe440033baf","system_id":"levelo_inurba_marseille","lat":43.29612,"lon":5.37729,"is_reserved":false,"is_disabled":false,"rental_uris":{"android":"levelo://app?vid=3c96ccc1-8bf1-44f5-8a44-5fe440033baf","ios":"levelo://app?vid=3c96ccc1-8bf1-44f5-8a44-5fe440033baf"},"vehicle_type_id":"4","last_reported":1745568867,"current_range_meters":6400,"station_id":"ce4bgi92rcd13ifvqb90","pricing_plan_id":"cebpf4jnsgd1na2vs0mg"},{"bike_id":"35ba198c-d030-4b10-b4ce-0e920c083b8c","system_id":"levelo_inurba_marseille","lat":43.25937,"lon":5.4089,"is_reserved":false,"is_disabled":false,"rental_uris":{"android":"levelo://app?vid=35ba198c-d030-4b10-b4ce-0e920c083b8c","ios":"levelo://app?vid=35ba198c-d030-4b10-b4ce-0e920c083b8c"},"vehicle_type_id":"4","last_reported":1745568867,"current_range_meters":6400,"station_id":"ce4bhm92rcd13ifvqglg","pricing_plan_id":"cebpf4jnsgd1na2vs0mg"},{"bike_id":"124c2197-bcaf-482a-85a5-3bed9376d976","system_id":"levelo_inurba_marseille","lat":43.25116,"lon":5.40329,"is_reserved":false,"is_disabled":false,"rental_uris":{"android":"levelo://app?vid=124c2197-bcaf-482a-85a5-3bed9376d976","ios":"levelo://app?vid=124c2197-bcaf-482a-85a5-3bed9376d976"},"vehicle_type_id":"4","last_reported":1745568867,"current_range_meters":6800,"station_id":"ce4bhlh2rcd13ifvqgig","pricing_plan_id":"cebpf4jnsgd1na2vs0mg"},{"bike_id":"7258c5f1-beb2-4c9f-8f52-f09c6b8e693d","system_id":"levelo_inurba_marseille","lat":43.3037,"lon":5.42529,"is_reserved":false,"is_disabled":false,"rental_uris":{"android":"levelo://app?vid=7258c5f1-beb2-4c9f-8f52-f09c6b8e693d","ios":"levelo://app?vid=7258c5f1-beb2-4c9f-8f52-f09c6b8e693d"},"vehicle_type_id":"4","last_reported":1745568867,"current_range_meters":6800,"station_id":"ce4bhoh2rcd13ifvqh6g","pricing_plan_id":"cebpf4jnsgd1na2vs0mg"},{"bike_id":"487c25b5-8df2-465e-9485-12f2b08ea7bb","system_id":"levelo_inurba_marseille","lat":43.29258,"lon":5.37634,"is_reserved":false,"is_disabled":false,"rental_uris":{"android":"levelo://app?vid=487c25b5-8df2-465e-9485-12f2b08ea7bb","ios":"levelo://app?vid=487c25b5-8df2-465e-9485-12f2b08ea7bb"},"vehicle_type_id":"4","last_reported":1745568867,"current_range_meters":6800,"station_id":"ce4bgi12rcd13ifvqb80","pricing_plan_id":"cebpf4jnsgd1na2vs0mg"},{"bike_id":"afa10ca1-b787-4891-8a18-f9d395e25601","system_id":"levelo_inurba_marseille","lat":43.25921,"lon":5.40886,"is_reserved":false,"is_disabled":false,"rental_uris":{"android":"levelo://app?vid=afa10ca1-b787-4891-8a18-f9d395e25601","ios":"levelo://app?vid=afa10ca1-b787-4891-8a18-f9d395e25601"},"vehicle_type_id":"4","last_reported":1745568867,"current_range_meters":6800,"station_id":"ce4bhm92rcd13ifvqglg","pricing_plan_id":"cebpf4jnsgd1na2vs0mg"},{"bike_id":"141535cf-fb3b-46b7-aef5-8d6d20a2c722","system_id":"levelo_inurba_marseille","lat":43.28139,"lon":5.37847,"is_reserved":false,"is_disabled":false,"rental_uris":{"android":"levelo://app?vid=141535cf-fb3b-46b7-aef5-8d6d20a2c722","ios":"levelo://app?vid=141535cf-fb3b-46b7-aef5-8d6d20a2c722"},"vehicle_type_id":"4","last_reported":1745568867,"current_range_meters":6800,"station_id":"ce4bha12rcd13ifvqee0","pricing_plan_id":"cebpf4jnsgd1na2vs0mg"},{"bike_id":"9b9cd48f-6c83-4f6a-93a0-56b7be25fcd9","system_id":"levelo_inurba_marseille","lat":43.3079,"lon":5.43524,"is_reserved":false,"is_disabled":false,"rental_uris":{"android":"levelo://app?vid=9b9cd48f-6c83-4f6a-93a0-56b7be25fcd9","ios":"levelo://app?vid=9b9cd48f-6c83-4f6a-93a0-56b7be25fcd9"},"vehicle_type_id":"4","last_reported":1745568867,"current_range_meters":6800,"station_id":"ce4bhph2rcd13ifvqheg","pricing_plan_id":"cebpf4jnsgd1na2vs0mg"},{"bike_id":"43ac9852-1254-412f-ba89-2e9468c4530f","system_id":"levelo_inurba_marseille","lat":43.240268,"lon":5.37716,"is_reserved":false,"is_disabled":false,"rental_uris":{"android":"levelo://app?vid=43ac9852-1254-412f-ba89-2e9468c4530f","ios":"levelo://app?vid=43ac9852-1254-412f-ba89-2e9468c4530f"},"vehicle_type_id":"4","last_reported":1745568867,"current_range_meters":6800,"station_id":"ce4bhnp2rcd13ifvqgvg","pricing_plan_id":"cebpf4jnsgd1na2vs0mg"},{"bike_id":"5aeafcb5-ee49-4831-8346-ce9d5f2cd2b1","system_id":"levelo_inurba_marseille","lat":43.29506,"lon":5.37498,"is_reserved":false,"is_disabled":false,"rental_uris":{"android":"levelo://app?vid=5aeafcb5-ee49-4831-8346-ce9d5f2cd2b1","ios":"levelo://app?vid=5aeafcb5-ee49-4831-8346-ce9d5f2cd2b1"},"vehicle_type_id":"4","last_reported":1745568867,"current_range_meters":7200,"station_id":"ce4bgkp2rcd13ifvqbmg","pricing_plan_id":"cebpf4jnsgd1na2vs0mg"},{"bike_id":"5c15a288-18d7-4483-9a44-9a640b026da8","system_id":"levelo_inurba_marseille","lat":43.29567,"lon":5.39975,"is_reserved":false,"is_disabled":false,"rental_uris":{"android":"levelo://app?vid=5c15a288-18d7-4483-9a44-9a640b026da8","ios":"levelo://app?vid=5c15a288-18d7-4483-9a44-9a640b026da8"},"vehicle_type_id":"4","last_reported":1745568867,"current_range_meters":7200,"station_id":"ce4bh312rcd13ifvqdj0","pricing_plan_id":"cebpf4jnsgd1na2vs0mg"},{"bike_id":"387a7519-6aa0-4f5e-8691-2160de592492","system_id":"levelo_inurba_marseille","lat":43.2769,"lon":5.38873,"is_reserved":false,"is_disabled":false,"rental_uris":{"android":"levelo://app?vid=387a7519-6aa0-4f5e-8691-2160de592492","ios":"levelo://app?vid=387a7519-6aa0-4f5e-8691-2160de592492"},"vehicle_type_id":"4","last_reported":1745568867,"current_range_meters":7200,"station_id":"ce4bhi12rcd13ifvqfo0","pricing_plan_id":"cebpf4jnsgd1na2vs0mg"},{"bike_id":"e5e6387e-799d-49f8-9caa-4061ff31ee68","system_id":"levelo_inurba_marseille","lat":43.22506,"lon":5.34783,"is_reserved":false,"is_disabled":false,"rental_uris":{"android":"levelo://app?vid=e5e6387e-799d-49f8-9caa-4061ff31ee68","ios":"levelo://app?vid=e5e6387e-799d-49f8-9caa-4061ff31ee68"},"vehicle_type_id":"4","last_reported":1745568867,"current_range_meters":7200,"station_id":"st_cvj5dfep6f1abm77gieg","pricing_plan_id":"cebpf4jnsgd1na2vs0mg"},{"bike_id":"0580289b-df7d-4309-84bb-00e3fccf2c96","system_id":"levelo_inurba_marseille","lat":43.30476,"lon":5.37911,"is_reserved":false,"is_disabled":false,"rental_uris":{"android":"levelo://app?vid=0580289b-df7d-4309-84bb-00e3fccf2c96","ios":"levelo://app?vid=0580289b-df7d-4309-84bb-00e3fccf2c96"},"vehicle_type_id":"4","last_reported":1745568867,"current_range_meters":7200,"station_id":"ce4bgup2rcd13ifvqcn0","pricing_plan_id":"cebpf4jnsgd1na2vs0mg"},{"bike_id":"54b931f7-e0c6-4521-8177-436a85f0a561","system_id":"levelo_inurba_marseille","lat":43.30543,"lon":5.36564,"is_reserved":false,"is_disabled":false,"rental_uris":{"android":"levelo://app?vid=54b931f7-e0c6-4521-8177-436a85f0a561","ios":"levelo://app?vid=54b931f7-e0c6-4521-8177-436a85f0a561"},"vehicle_type_id":"4","last_reported":1745568867,"current_range_meters":7200,"station_id":"ce4bgs12rcd13ifvqcag","pricing_plan_id":"cebpf4jnsgd1na2vs0mg"},{"bike_id":"4ab6bc02-32cf-4c5b-8e00-93978cd7dbda","system_id":"levelo_inurba_marseille","lat":43.34143,"lon":5.40903,"is_reserved":false,"is_disabled":false,"rental_uris":{"android":"levelo://app?vid=4ab6bc02-32cf-4c5b-8e00-93978cd7dbda","ios":"levelo://app?vid=4ab6bc02-32cf-4c5b-8e00-93978cd7dbda"},"vehicle_type_id":"4","last_reported":1745568867,"current_range_meters":7200,"station_id":"ce4bhqh2rcd13ifvqhlg","pricing_plan_id":"cebpf4jnsgd1na2vs0mg"},{"bike_id":"afb9e540-8ba0-4a3c-920f-82a4f729e769","system_id":"levelo_inurba_marseille","lat":43.3055,"lon":5.36695,"is_reserved":false,"is_disabled":false,"rental_uris":{"android":"levelo://app?vid=afb9e540-8ba0-4a3c-920f-82a4f729e769","ios":"levelo://app?vid=afb9e540-8ba0-4a3c-920f-82a4f729e769"},"vehicle_type_id":"4","last_reported":1745568867,"current_range_meters":7200,"station_id":"ce4bgrp2rcd13ifvqc9g","pricing_plan_id":"cebpf4jnsgd1na2vs0mg"},{"bike_id":"9d16ad86-9ee6-430b-bde1-d7870d768403","system_id":"levelo_inurba_marseille","lat":43.25946,"lon":5.40909,"is_reserved":false,"is_disabled":false,"rental_uris":{"android":"levelo://app?vid=9d16ad86-9ee6-430b-bde1-d7870d768403","ios":"levelo://app?vid=9d16ad86-9ee6-430b-bde1-d7870d768403"},"vehicle_type_id":"4","last_reported":1745568867,"current_range_meters":7200,"station_id":"ce4bhm92rcd13ifvqglg","pricing_plan_id":"cebpf4jnsgd1na2vs0mg"},{"bike_id":"0d548c9d-27cf-4920-a66e-79700c8f60d7","system_id":"levelo_inurba_marseille","lat":43.29568,"lon":5.39975,"is_reserved":false,"is_disabled":false,"rental_uris":{"android":"levelo://app?vid=0d548c9d-27cf-4920-a66e-79700c8f60d7","ios":"levelo://app?vid=0d548c9d-27cf-4920-a66e-79700c8f60d7"},"vehicle_type_id":"4","last_reported":1745568867,"current_range_meters":7200,"station_id":"ce4bh312rcd13ifvqdj0","pricing_plan_id":"cebpf4jnsgd1na2vs0mg"},{"bike_id":"99862305-32a2-444d-8334-228f5792e221","system_id":"levelo_inurba_marseille","lat":43.29273,"lon":5.36846,"is_reserved":false,"is_disabled":true,"rental_uris":{"android":"levelo://app?vid=99862305-32a2-444d-8334-228f5792e221","ios":"levelo://app?vid=99862305-32a2-444d-8334-228f5792e221"},"vehicle_type_id":"4","last_reported":1745568867,"current_range_meters":7200,"station_id":"ce4bhbp2rcd13ifvqesg","pricing_plan_id":"cebpf4jnsgd1na2vs0mg"},{"bike_id":"e9e0d289-d588-468c-85c9-ca85d92d76e4","system_id":"levelo_inurba_marseille","lat":43.28033,"lon":5.36944,"is_reserved":false,"is_disabled":false,"rental_uris":{"android":"levelo://app?vid=e9e0d289-d588-468c-85c9-ca85d92d76e4","ios":"levelo://app?vid=e9e0d289-d588-468c-85c9-ca85d92d76e4"},"vehicle_type_id":"4","last_reported":1745568867,"current_range_meters":8000,"station_id":"ce4bha12rcd13ifvqef0","pricing_plan_id":"cebpf4jnsgd1na2vs0mg"},{"bike_id":"052c14d9-d0dc-4760-a693-9f3b7c19c8be","system_id":"levelo_inurba_marseille","lat":43.28348,"lon":5.3809,"is_reserved":false,"is_disabled":false,"rental_uris":{"android":"levelo://app?vid=052c14d9-d0dc-4760-a693-9f3b7c19c8be","ios":"levelo://app?vid=052c14d9-d0dc-4760-a693-9f3b7c19c8be"},"vehicle_type_id":"4","last_reported":1745568867,"current_range_meters":8000,"station_id":"ce4bh412rcd13ifvqdr0","pricing_plan_id":"cebpf4jnsgd1na2vs0mg"},{"bike_id":"75e85797-51fc-47fe-afa3-b28474dd5e72","system_id":"levelo_inurba_marseille","lat":43.24071,"lon":5.37758,"is_reserved":false,"is_disabled":false,"rental_uris":{"android":"levelo://app?vid=75e85797-51fc-47fe-afa3-b28474dd5e72","ios":"levelo://app?vid=75e85797-51fc-47fe-afa3-b28474dd5e72"},"vehicle_type_id":"4","last_reported":1745568867,"current_range_meters":8000,"station_id":"ce4bhnp2rcd13ifvqgvg","pricing_plan_id":"cebpf4jnsgd1na2vs0mg"},{"bike_id":"5b495f0f-5695-4d43-91f2-b2c58ecaa3b2","system_id":"levelo_inurba_marseille","lat":43.30544,"lon":5.38424,"is_reserved":false,"is_disabled":false,"rental_uris":{"android":"levelo://app?vid=5b495f0f-5695-4d43-91f2-b2c58ecaa3b2","ios":"levelo://app?vid=5b495f0f-5695-4d43-91f2-b2c58ecaa3b2"},"vehicle_type_id":"4","last_reported":1745568867,"current_range_meters":8000,"station_id":"ce4bhlh2rcd13ifvqgig","pricing_plan_id":"cebpf4jnsgd1na2vs0mg"},{"bike_id":"44c0201e-c9f3-4ec8-9f19-45cfbbe2ef08","system_id":"levelo_inurba_marseille","lat":43.25487,"lon":5.37655,"is_reserved":false,"is_disabled":false,"rental_uris":{"android":"levelo://app?vid=44c0201e-c9f3-4ec8-9f19-45cfbbe2ef08","ios":"levelo://app?vid=44c0201e-c9f3-4ec8-9f19-45cfbbe2ef08"},"vehicle_type_id":"4","last_reported":1745568867,"current_range_meters":8000,"station_id":"ce4bhh12rcd13ifvqff0","pricing_plan_id":"cebpf4jnsgd1na2vs0mg"},{"bike_id":"2686948c-9820-4401-8134-ee2a9d1934f7","system_id":"levelo_inurba_marseille","lat":43.24647,"lon":5.38609,"is_reserved":false,"is_disabled":false,"rental_uris":{"android":"levelo://app?vid=2686948c-9820-4401-8134-ee2a9d1934f7","ios":"levelo://app?vid=2686948c-9820-4401-8134-ee2a9d1934f7"},"vehicle_type_id":"4","last_reported":1745568867,"current_range_meters":8000,"station_id":"","pricing_plan_id":"cebpf4jnsgd1na2vs0mg"},{"bike_id":"46374c49-3adc-4c5a-8966-e00f056c0d57","system_id":"levelo_inurba_marseille","lat":43.27846,"lon":5.35442,"is_reserved":false,"is_disabled":false,"rental_uris":{"android":"levelo://app?vid=46374c49-3adc-4c5a-8966-e00f056c0d57","ios":"levelo://app?vid=46374c49-3adc-4c5a-8966-e00f056c0d57"},"vehicle_type_id":"4","last_reported":1745568867,"current_range_meters":8400,"station_id":"","pricing_plan_id":"cebpf4jnsgd1na2vs0mg"},{"bike_id":"8bf7bae2-66cf-41b0-94df-d1c78d2e8a1a","system_id":"levelo_inurba_marseille","lat":43.24075,"lon":5.37763,"is_reserved":false,"is_disabled":false,"rental_uris":{"android":"levelo://app?vid=8bf7bae2-66cf-41b0-94df-d1c78d2e8a1a","ios":"levelo://app?vid=8bf7bae2-66cf-41b0-94df-d1c78d2e8a1a"},"vehicle_type_id":"4","last_reported":1745568867,"current_range_meters":8400,"station_id":"ce4bhnp2rcd13ifvqgvg","pricing_plan_id":"cebpf4jnsgd1na2vs0mg"},{"bike_id":"f61f9b03-e055-47b7-9cda-da22b923ec7e","system_id":"levelo_inurba_marseille","lat":43.25922,"lon":5.40848,"is_reserved":false,"is_disabled":false,"rental_uris":{"android":"levelo://app?vid=f61f9b03-e055-47b7-9cda-da22b923ec7e","ios":"levelo://app?vid=f61f9b03-e055-47b7-9cda-da22b923ec7e"},"vehicle_type_id":"4","last_reported":1745568867,"current_range_meters":8800,"station_id":"ce4bhm92rcd13ifvqglg","pricing_plan_id":"cebpf4jnsgd1na2vs0mg"},{"bike_id":"c537ecaf-8650-4a60-80fc-62b73349b4d8","system_id":"levelo_inurba_marseille","lat":43.25712,"lon":5.41096,"is_reserved":false,"is_disabled":true,"rental_uris":{"android":"levelo://app?vid=c537ecaf-8650-4a60-80fc-62b73349b4d8","ios":"levelo://app?vid=c537ecaf-8650-4a60-80fc-62b73349b4d8"},"vehicle_type_id":"4","last_reported":1745568867,"current_range_meters":8800,"station_id":"ce4bhkp2rcd13ifvqgd0","pricing_plan_id":"cebpf4jnsgd1na2vs0mg"},{"bike_id":"9ad61fe9-7322-4913-9622-e59ef186890e","system_id":"levelo_inurba_marseille","lat":43.27198,"lon":5.39186,"is_reserved":false,"is_disabled":false,"rental_uris":{"android":"levelo://app?vid=9ad61fe9-7322-4913-9622-e59ef186890e","ios":"levelo://app?vid=9ad61fe9-7322-4913-9622-e59ef186890e"},"vehicle_type_id":"4","last_reported":1745568867,"current_range_meters":8800,"station_id":"ce4bhhp2rcd13ifvqfm0","pricing_plan_id":"cebpf4jnsgd1na2vs0mg"},{"bike_id":"086b765c-e1bf-46e2-b65e-cfb75104110a","system_id":"levelo_inurba_marseille","lat":43.30242,"lon":5.40038,"is_reserved":false,"is_disabled":false,"rental_uris":{"android":"levelo://app?vid=086b765c-e1bf-46e2-b65e-cfb75104110a","ios":"levelo://app?vid=086b765c-e1bf-46e2-b65e-cfb75104110a"},"vehicle_type_id":"4","last_reported":1745568867,"current_range_meters":8800,"station_id":"ce4bgvh2rcd13ifvqcs0","pricing_plan_id":"cebpf4jnsgd1na2vs0mg"},{"bike_id":"87041a44-aacd-410a-9817-1b21d8c54849","system_id":"levelo_inurba_marseille","lat":43.21746,"lon":5.34594,"is_reserved":false,"is_disabled":false,"rental_uris":{"android":"levelo://app?vid=87041a44-aacd-410a-9817-1b21d8c54849","ios":"levelo://app?vid=87041a44-aacd-410a-9817-1b21d8c54849"},"vehicle_type_id":"4","last_reported":1745568867,"current_range_meters":8800,"station_id":"st_cvj6r9ubvosntc0bgbag","pricing_plan_id":"cebpf4jnsgd1na2vs0mg"},{"bike_id":"f587b1ad-8767-42fd-bb98-bdf1bb330f9a","system_id":"levelo_inurba_marseille","lat":43.32035,"lon":5.41553,"is_reserved":false,"is_disabled":false,"rental_uris":{"android":"levelo://app?vid=f587b1ad-8767-42fd-bb98-bdf1bb330f9a","ios":"levelo://app?vid=f587b1ad-8767-42fd-bb98-bdf1bb330f9a"},"vehicle_type_id":"4","last_reported":1745568867,"current_range_meters":9200,"station_id":"ce4bhq92rcd13ifvqhkg","pricing_plan_id":"cebpf4jnsgd1na2vs0mg"},{"bike_id":"908f42eb-8230-402e-921d-2ddb58bc5421","system_id":"levelo_inurba_marseille","lat":43.25099,"lon":5.40313,"is_reserved":false,"is_disabled":false,"rental_uris":{"android":"levelo://app?vid=908f42eb-8230-402e-921d-2ddb58bc5421","ios":"levelo://app?vid=908f42eb-8230-402e-921d-2ddb58bc5421"},"vehicle_type_id":"4","last_reported":1745568867,"current_range_meters":8800,"station_id":"ce4bhlh2rcd13ifvqgig","pricing_plan_id":"cebpf4jnsgd1na2vs0mg"},{"bike_id":"70a7ed10-8950-40cc-aae6-c0cab6f96f24","system_id":"levelo_inurba_marseille","lat":43.29508,"lon":5.37502,"is_reserved":false,"is_disabled":false,"rental_uris":{"android":"levelo://app?vid=70a7ed10-8950-40cc-aae6-c0cab6f96f24","ios":"levelo://app?vid=70a7ed10-8950-40cc-aae6-c0cab6f96f24"},"vehicle_type_id":"4","last_reported":1745568867,"current_range_meters":8800,"station_id":"ce4bgkp2rcd13ifvqbmg","pricing_plan_id":"cebpf4jnsgd1na2vs0mg"},{"bike_id":"d1ef99b6-33ba-47e8-9ef6-772a94bd4577","system_id":"levelo_inurba_marseille","lat":43.290419,"lon":5.359214,"is_reserved":false,"is_disabled":false,"rental_uris":{"android":"levelo://app?vid=d1ef99b6-33ba-47e8-9ef6-772a94bd4577","ios":"levelo://app?vid=d1ef99b6-33ba-47e8-9ef6-772a94bd4577"},"vehicle_type_id":"4","last_reported":1745568867,"current_range_meters":9200,"station_id":"ce4bgkh2rcd13ifvqbl0","pricing_plan_id":"cebpf4jnsgd1na2vs0mg"},{"bike_id":"e3184f7c-4dbb-4c21-92dc-4a63d42a75a3","system_id":"levelo_inurba_marseille","lat":43.27499,"lon":5.42465,"is_reserved":false,"is_disabled":false,"rental_uris":{"android":"levelo://app?vid=e3184f7c-4dbb-4c21-92dc-4a63d42a75a3","ios":"levelo://app?vid=e3184f7c-4dbb-4c21-92dc-4a63d42a75a3"},"vehicle_type_id":"4","last_reported":1745568867,"current_range_meters":9200,"station_id":"ce4bhn92rcd13ifvqgrg","pricing_plan_id":"cebpf4jnsgd1na2vs0mg"},{"bike_id":"466274b7-bf82-4010-9214-220ecb1658fd","system_id":"levelo_inurba_marseille","lat":43.21744,"lon":5.346,"is_reserved":false,"is_disabled":false,"rental_uris":{"android":"levelo://app?vid=466274b7-bf82-4010-9214-220ecb1658fd","ios":"levelo://app?vid=466274b7-bf82-4010-9214-220ecb1658fd"},"vehicle_type_id":"4","last_reported":1745568867,"current_range_meters":9200,"station_id":"st_cvj6r9ubvosntc0bgbag","pricing_plan_id":"cebpf4jnsgd1na2vs0mg"},{"bike_id":"3f4fffef-9d06-4513-a8be-a4167b14ccb8","system_id":"levelo_inurba_marseille","lat":43.30965,"lon":5.37156,"is_reserved":false,"is_disabled":false,"rental_uris":{"android":"levelo://app?vid=3f4fffef-9d06-4513-a8be-a4167b14ccb8","ios":"levelo://app?vid=3f4fffef-9d06-4513-a8be-a4167b14ccb8"},"vehicle_type_id":"4","last_reported":1745568867,"current_range_meters":9200,"station_id":"","pricing_plan_id":"cebpf4jnsgd1na2vs0mg"},{"bike_id":"b34ea466-8068-42ce-bae7-fd278ae6a186","system_id":"levelo_inurba_marseille","lat":43.2679,"lon":5.39415,"is_reserved":false,"is_disabled":false,"rental_uris":{"android":"levelo://app?vid=b34ea466-8068-42ce-bae7-fd278ae6a186","ios":"levelo://app?vid=b34ea466-8068-42ce-bae7-fd278ae6a186"},"vehicle_type_id":"4","last_reported":1745568867,"current_range_meters":9200,"station_id":"ce4bhh12rcd13ifvqfg0","pricing_plan_id":"cebpf4jnsgd1na2vs0mg"},{"bike_id":"d4a8fafa-88a7-48bf-b5a7-839e5bc03db8","system_id":"levelo_inurba_marseille","lat":43.25025,"lon":5.38904,"is_reserved":false,"is_disabled":false,"rental_uris":{"android":"levelo://app?vid=d4a8fafa-88a7-48bf-b5a7-839e5bc03db8","ios":"levelo://app?vid=d4a8fafa-88a7-48bf-b5a7-839e5bc03db8"},"vehicle_type_id":"4","last_reported":1745568867,"current_range_meters":9200,"station_id":"ce4bhgp2rcd13ifvqfd0","pricing_plan_id":"cebpf4jnsgd1na2vs0mg"},{"bike_id":"ac5c5de7-7ad6-478d-a966-7f4240d265db","system_id":"levelo_inurba_marseille","lat":43.31255,"lon":5.37167,"is_reserved":false,"is_disabled":false,"rental_uris":{"android":"levelo://app?vid=ac5c5de7-7ad6-478d-a966-7f4240d265db","ios":"levelo://app?vid=ac5c5de7-7ad6-478d-a966-7f4240d265db"},"vehicle_type_id":"4","last_reported":1745568867,"current_range_meters":9600,"station_id":"","pricing_plan_id":"cebpf4jnsgd1na2vs0mg"},{"bike_id":"3a41a14b-b60d-411c-aa4a-3b7d3df773ad","system_id":"levelo_inurba_marseille","lat":43.301893,"lon":5.366308,"is_reserved":false,"is_disabled":false,"rental_uris":{"android":"levelo://app?vid=3a41a14b-b60d-411c-aa4a-3b7d3df773ad","ios":"levelo://app?vid=3a41a14b-b60d-411c-aa4a-3b7d3df773ad"},"vehicle_type_id":"4","last_reported":1745568867,"current_range_meters":9600,"station_id":"ce4bgrh2rcd13ifvqc8g","pricing_plan_id":"cebpf4jnsgd1na2vs0mg"},{"bike_id":"6b0d1ec6-0d77-4bd1-9dce-9054c2481ed1","system_id":"levelo_inurba_marseille","lat":43.243904,"lon":5.370536,"is_reserved":false,"is_disabled":false,"rental_uris":{"android":"levelo://app?vid=6b0d1ec6-0d77-4bd1-9dce-9054c2481ed1","ios":"levelo://app?vid=6b0d1ec6-0d77-4bd1-9dce-9054c2481ed1"},"vehicle_type_id":"4","last_reported":1745568867,"current_range_meters":9600,"station_id":"ce4bhhh2rcd13ifvqfk0","pricing_plan_id":"cebpf4jnsgd1na2vs0mg"},{"bike_id":"035aa4c0-45fd-4491-9889-5e0f57c57d78","system_id":"levelo_inurba_marseille","lat":43.3031,"lon":5.392108,"is_reserved":false,"is_disabled":false,"rental_uris":{"android":"levelo://app?vid=035aa4c0-45fd-4491-9889-5e0f57c57d78","ios":"levelo://app?vid=035aa4c0-45fd-4491-9889-5e0f57c57d78"},"vehicle_type_id":"4","last_reported":1745568867,"current_range_meters":9600,"station_id":"ce4bgh92rcd13ifvqb40","pricing_plan_id":"cebpf4jnsgd1na2vs0mg"},{"bike_id":"92cd2fc7-d6d3-4740-b33e-69a2f4b2a440","system_id":"levelo_inurba_marseille","lat":43.27201,"lon":5.39179,"is_reserved":false,"is_disabled":false,"rental_uris":{"android":"levelo://app?vid=92cd2fc7-d6d3-4740-b33e-69a2f4b2a440","ios":"levelo://app?vid=92cd2fc7-d6d3-4740-b33e-69a2f4b2a440"},"vehicle_type_id":"4","last_reported":1745568867,"current_range_meters":9600,"station_id":"ce4bhhp2rcd13ifvqfm0","pricing_plan_id":"cebpf4jnsgd1na2vs0mg"},{"bike_id":"df4bf57e-1775-40b2-994e-c9e7063ca69e","system_id":"levelo_inurba_marseille","lat":43.26795,"lon":5.40262,"is_reserved":false,"is_disabled":false,"rental_uris":{"android":"levelo://app?vid=df4bf57e-1775-40b2-994e-c9e7063ca69e","ios":"levelo://app?vid=df4bf57e-1775-40b2-994e-c9e7063ca69e"},"vehicle_type_id":"4","last_reported":1745568867,"current_range_meters":10000,"station_id":"ce501612rcd8frsf0b60","pricing_plan_id":"cebpf4jnsgd1na2vs0mg"},{"bike_id":"7c2c4ee1-c89b-4648-b758-7633dd7cc733","system_id":"levelo_inurba_marseille","lat":43.29847,"lon":5.36268,"is_reserved":false,"is_disabled":false,"rental_uris":{"android":"levelo://app?vid=7c2c4ee1-c89b-4648-b758-7633dd7cc733","ios":"levelo://app?vid=7c2c4ee1-c89b-4648-b758-7633dd7cc733"},"vehicle_type_id":"4","last_reported":1745568867,"current_range_meters":10000,"station_id":"ce4bgpp2rcd13ifvqc3g","pricing_plan_id":"cebpf4jnsgd1na2vs0mg"},{"bike_id":"b1288da2-6a65-44a2-b3cb-535de8427b1c","system_id":"levelo_inurba_marseille","lat":43.31358,"lon":5.36689,"is_reserved":false,"is_disabled":true,"rental_uris":{"android":"levelo://app?vid=b1288da2-6a65-44a2-b3cb-535de8427b1c","ios":"levelo://app?vid=b1288da2-6a65-44a2-b3cb-535de8427b1c"},"vehicle_type_id":"4","last_reported":1745568867,"current_range_meters":10000,"station_id":"ce4bgr92rcd13ifvqc6g","pricing_plan_id":"cebpf4jnsgd1na2vs0mg"},{"bike_id":"d2aa4f08-82ea-428b-8a43-20481eff7a37","system_id":"levelo_inurba_marseille","lat":43.3229,"lon":5.38291,"is_reserved":false,"is_disabled":false,"rental_uris":{"android":"levelo://app?vid=d2aa4f08-82ea-428b-8a43-20481eff7a37","ios":"levelo://app?vid=d2aa4f08-82ea-428b-8a43-20481eff7a37"},"vehicle_type_id":"4","last_reported":1745568867,"current_range_meters":10000,"station_id":"ce4bhr12rcd13ifvqhqg","pricing_plan_id":"cebpf4jnsgd1na2vs0mg"},{"bike_id":"aa9c47d0-8da4-42cf-8c99-92560bfdfb01","system_id":"levelo_inurba_marseille","lat":43.28262,"lon":5.35079,"is_reserved":false,"is_disabled":false,"rental_uris":{"android":"levelo://app?vid=aa9c47d0-8da4-42cf-8c99-92560bfdfb01","ios":"levelo://app?vid=aa9c47d0-8da4-42cf-8c99-92560bfdfb01"},"vehicle_type_id":"4","last_reported":1745568867,"current_range_meters":10000,"station_id":"ce4bhbp2rcd13ifvqerg","pricing_plan_id":"cebpf4jnsgd1na2vs0mg"},{"bike_id":"53d0a9a9-20a9-487e-893c-b675a9c66550","system_id":"levelo_inurba_marseille","lat":43.24168,"lon":5.36398,"is_reserved":false,"is_disabled":false,"rental_uris":{"android":"levelo://app?vid=53d0a9a9-20a9-487e-893c-b675a9c66550","ios":"levelo://app?vid=53d0a9a9-20a9-487e-893c-b675a9c66550"},"vehicle_type_id":"4","last_reported":1745568867,"current_range_meters":10000,"station_id":"cpo36qri1sfpv3e86is0","pricing_plan_id":"cebpf4jnsgd1na2vs0mg"},{"bike_id":"9a26c0ff-1f84-43d6-a87e-a9f161e7242c","system_id":"levelo_inurba_marseille","lat":43.25935,"lon":5.40907,"is_reserved":false,"is_disabled":false,"rental_uris":{"android":"levelo://app?vid=9a26c0ff-1f84-43d6-a87e-a9f161e7242c","ios":"levelo://app?vid=9a26c0ff-1f84-43d6-a87e-a9f161e7242c"},"vehicle_type_id":"4","last_reported":1745568867,"current_range_meters":10000,"station_id":"ce4bhm92rcd13ifvqglg","pricing_plan_id":"cebpf4jnsgd1na2vs0mg"},{"bike_id":"0013966c-ef97-46fc-a9b6-b1eb056f8ad3","system_id":"levelo_inurba_marseille","lat":43.24072,"lon":5.37728,"is_reserved":false,"is_disabled":false,"rental_uris":{"android":"levelo://app?vid=0013966c-ef97-46fc-a9b6-b1eb056f8ad3","ios":"levelo://app?vid=0013966c-ef97-46fc-a9b6-b1eb056f8ad3"},"vehicle_type_id":"4","last_reported":1745568867,"current_range_meters":10800,"station_id":"ce4bhnp2rcd13ifvqgvg","pricing_plan_id":"cebpf4jnsgd1na2vs0mg"},{"bike_id":"4da82ac5-83fe-462e-b2ef-028dfdeb2bbc","system_id":"levelo_inurba_marseille","lat":43.2174,"lon":5.34599,"is_reserved":false,"is_disabled":true,"rental_uris":{"android":"levelo://app?vid=4da82ac5-83fe-462e-b2ef-028dfdeb2bbc","ios":"levelo://app?vid=4da82ac5-83fe-462e-b2ef-028dfdeb2bbc"},"vehicle_type_id":"4","last_reported":1745568867,"current_range_meters":10800,"station_id":"st_cvj6r9ubvosntc0bgbag","pricing_plan_id":"cebpf4jnsgd1na2vs0mg"},{"bike_id":"1363e770-344e-44eb-8fc8-a6d68d0a8df0","system_id":"levelo_inurba_marseille","lat":43.29026,"lon":5.37832,"is_reserved":false,"is_disabled":false,"rental_uris":{"android":"levelo://app?vid=1363e770-344e-44eb-8fc8-a6d68d0a8df0","ios":"levelo://app?vid=1363e770-344e-44eb-8fc8-a6d68d0a8df0"},"vehicle_type_id":"4","last_reported":1745568867,"current_range_meters":10800,"station_id":"ce4bh9p2rcd13ifvqed0","pricing_plan_id":"cebpf4jnsgd1na2vs0mg"},{"bike_id":"25b5fd2c-1a70-42ae-868a-a34d8b4c4cfd","system_id":"levelo_inurba_marseille","lat":43.27199,"lon":5.39174,"is_reserved":false,"is_disabled":false,"rental_uris":{"android":"levelo://app?vid=25b5fd2c-1a70-42ae-868a-a34d8b4c4cfd","ios":"levelo://app?vid=25b5fd2c-1a70-42ae-868a-a34d8b4c4cfd"},"vehicle_type_id":"4","last_reported":1745568867,"current_range_meters":10800,"station_id":"ce4bhhp2rcd13ifvqfm0","pricing_plan_id":"cebpf4jnsgd1na2vs0mg"},{"bike_id":"929c0f1f-226b-4dbe-a1fd-566458855a75","system_id":"levelo_inurba_marseille","lat":43.305298,"lon":5.365776,"is_reserved":false,"is_disabled":false,"rental_uris":{"android":"levelo://app?vid=929c0f1f-226b-4dbe-a1fd-566458855a75","ios":"levelo://app?vid=929c0f1f-226b-4dbe-a1fd-566458855a75"},"vehicle_type_id":"4","last_reported":1745568867,"current_range_meters":11200,"station_id":"ce4bgs12rcd13ifvqcag","pricing_plan_id":"cebpf4jnsgd1na2vs0mg"},{"bike_id":"8367ddb0-0867-4100-9cec-223160e9b29b","system_id":"levelo_inurba_marseille","lat":43.23145,"lon":5.43719,"is_reserved":false,"is_disabled":false,"rental_uris":{"android":"levelo://app?vid=8367ddb0-0867-4100-9cec-223160e9b29b","ios":"levelo://app?vid=8367ddb0-0867-4100-9cec-223160e9b29b"},"vehicle_type_id":"4","last_reported":1745568867,"current_range_meters":11200,"station_id":"ce4bhmp2rcd13ifvqgog","pricing_plan_id":"cebpf4jnsgd1na2vs0mg"},{"bike_id":"750962df-34d9-4a08-897c-157c29cad3aa","system_id":"levelo_inurba_marseille","lat":43.30246,"lon":5.40061,"is_reserved":false,"is_disabled":false,"rental_uris":{"android":"levelo://app?vid=750962df-34d9-4a08-897c-157c29cad3aa","ios":"levelo://app?vid=750962df-34d9-4a08-897c-157c29cad3aa"},"vehicle_type_id":"4","last_reported":1745568867,"current_range_meters":11200,"station_id":"ce4bgvh2rcd13ifvqcs0","pricing_plan_id":"cebpf4jnsgd1na2vs0mg"},{"bike_id":"72a0ba78-2817-4740-a9cc-1df0e9fcfa91","system_id":"levelo_inurba_marseille","lat":43.28625,"lon":5.37063,"is_reserved":false,"is_disabled":false,"rental_uris":{"android":"levelo://app?vid=72a0ba78-2817-4740-a9cc-1df0e9fcfa91","ios":"levelo://app?vid=72a0ba78-2817-4740-a9cc-1df0e9fcfa91"},"vehicle_type_id":"4","last_reported":1745568867,"current_range_meters":11200,"station_id":"ce4bht12rcd13ifvqi60","pricing_plan_id":"cebpf4jnsgd1na2vs0mg"},{"bike_id":"61d21c0b-69d2-40de-a9f0-28a981c8a97d","system_id":"levelo_inurba_marseille","lat":43.30916,"lon":5.36854,"is_reserved":false,"is_disabled":false,"rental_uris":{"android":"levelo://app?vid=61d21c0b-69d2-40de-a9f0-28a981c8a97d","ios":"levelo://app?vid=61d21c0b-69d2-40de-a9f0-28a981c8a97d"},"vehicle_type_id":"4","last_reported":1745568867,"current_range_meters":11200,"station_id":"ce4bgn92rcd13ifvqbvg","pricing_plan_id":"cebpf4jnsgd1na2vs0mg"},{"bike_id":"45ec24a8-043f-4b7a-880b-90fa06d4f077","system_id":"levelo_inurba_marseille","lat":43.30875,"lon":5.37198,"is_reserved":false,"is_disabled":false,"rental_uris":{"android":"levelo://app?vid=45ec24a8-043f-4b7a-880b-90fa06d4f077","ios":"levelo://app?vid=45ec24a8-043f-4b7a-880b-90fa06d4f077"},"vehicle_type_id":"4","last_reported":1745568867,"current_range_meters":11600,"station_id":"ce4bguh2rcd13ifvqckg","pricing_plan_id":"cebpf4jnsgd1na2vs0mg"},{"bike_id":"90b86353-f0e9-41b7-9d54-6cbf8c2fb22f","system_id":"levelo_inurba_marseille","lat":43.27968,"lon":5.38733,"is_reserved":false,"is_disabled":false,"rental_uris":{"android":"levelo://app?vid=90b86353-f0e9-41b7-9d54-6cbf8c2fb22f","ios":"levelo://app?vid=90b86353-f0e9-41b7-9d54-6cbf8c2fb22f"},"vehicle_type_id":"4","last_reported":1745568867,"current_range_meters":11600,"station_id":"ce4bhg12rcd13ifvqf80","pricing_plan_id":"cebpf4jnsgd1na2vs0mg"},{"bike_id":"32ebd854-6bac-4169-98b6-4b4662994702","system_id":"levelo_inurba_marseille","lat":43.2669,"lon":5.38263,"is_reserved":false,"is_disabled":false,"rental_uris":{"android":"levelo://app?vid=32ebd854-6bac-4169-98b6-4b4662994702","ios":"levelo://app?vid=32ebd854-6bac-4169-98b6-4b4662994702"},"vehicle_type_id":"4","last_reported":1745568867,"current_range_meters":11600,"station_id":"ce4bhg92rcd13ifvqf90","pricing_plan_id":"cebpf4jnsgd1na2vs0mg"},{"bike_id":"ec233356-9498-4c66-bedf-01f7e2bd86ee","system_id":"levelo_inurba_marseille","lat":43.24165,"lon":5.39733,"is_reserved":false,"is_disabled":false,"rental_uris":{"android":"levelo://app?vid=ec233356-9498-4c66-bedf-01f7e2bd86ee","ios":"levelo://app?vid=ec233356-9498-4c66-bedf-01f7e2bd86ee"},"vehicle_type_id":"4","last_reported":1745568867,"current_range_meters":11600,"station_id":"ce4bhn12rcd13ifvqgpg","pricing_plan_id":"cebpf4jnsgd1na2vs0mg"},{"bike_id":"bd95f0bb-c5b1-4d5c-837c-b505e5069d47","system_id":"levelo_inurba_marseille","lat":43.33227,"lon":5.39774,"is_reserved":false,"is_disabled":false,"rental_uris":{"android":"levelo://app?vid=bd95f0bb-c5b1-4d5c-837c-b505e5069d47","ios":"levelo://app?vid=bd95f0bb-c5b1-4d5c-837c-b505e5069d47"},"vehicle_type_id":"4","last_reported":1745568867,"current_range_meters":11600,"station_id":"","pricing_plan_id":"cebpf4jnsgd1na2vs0mg"},{"bike_id":"1a9b9ba2-6e5a-4697-beb7-5c65923a8b43","system_id":"levelo_inurba_marseille","lat":43.26796,"lon":5.39452,"is_reserved":false,"is_disabled":true,"rental_uris":{"android":"levelo://app?vid=1a9b9ba2-6e5a-4697-beb7-5c65923a8b43","ios":"levelo://app?vid=1a9b9ba2-6e5a-4697-beb7-5c65923a8b43"},"vehicle_type_id":"4","last_reported":1745568867,"current_range_meters":12000,"station_id":"ce4bhh12rcd13ifvqfg0","pricing_plan_id":"cebpf4jnsgd1na2vs0mg"},{"bike_id":"55c8d26c-3501-4da5-bf3f-06ad5305341b","system_id":"levelo_inurba_marseille","lat":43.28102,"lon":5.37847,"is_reserved":false,"is_disabled":true,"rental_uris":{"android":"levelo://app?vid=55c8d26c-3501-4da5-bf3f-06ad5305341b","ios":"levelo://app?vid=55c8d26c-3501-4da5-bf3f-06ad5305341b"},"vehicle_type_id":"4","last_reported":1745568867,"current_range_meters":12000,"station_id":"ce4bha12rcd13ifvqee0","pricing_plan_id":"cebpf4jnsgd1na2vs0mg"},{"bike_id":"2f9bcd40-e058-46a9-a414-1794700964e9","system_id":"levelo_inurba_marseille","lat":43.24061,"lon":5.37728,"is_reserved":false,"is_disabled":false,"rental_uris":{"android":"levelo://app?vid=2f9bcd40-e058-46a9-a414-1794700964e9","ios":"levelo://app?vid=2f9bcd40-e058-46a9-a414-1794700964e9"},"vehicle_type_id":"4","last_reported":1745568867,"current_range_meters":12000,"station_id":"ce4bhnp2rcd13ifvqgvg","pricing_plan_id":"cebpf4jnsgd1na2vs0mg"},{"bike_id":"bb173ad7-1f9d-4286-b1ef-c33410cbaa3f","system_id":"levelo_inurba_marseille","lat":43.27615,"lon":5.36109,"is_reserved":false,"is_disabled":false,"rental_uris":{"android":"levelo://app?vid=bb173ad7-1f9d-4286-b1ef-c33410cbaa3f","ios":"levelo://app?vid=bb173ad7-1f9d-4286-b1ef-c33410cbaa3f"},"vehicle_type_id":"4","last_reported":1745568867,"current_range_meters":12000,"station_id":"ce4bgj92rcd13ifvqbe0","pricing_plan_id":"cebpf4jnsgd1na2vs0mg"},{"bike_id":"fbcbafb3-bd9e-4787-b986-5f3d88a01f9d","system_id":"levelo_inurba_marseille","lat":43.30929,"lon":5.36845,"is_reserved":false,"is_disabled":false,"rental_uris":{"android":"levelo://app?vid=fbcbafb3-bd9e-4787-b986-5f3d88a01f9d","ios":"levelo://app?vid=fbcbafb3-bd9e-4787-b986-5f3d88a01f9d"},"vehicle_type_id":"4","last_reported":1745568867,"current_range_meters":12000,"station_id":"ce4bgn92rcd13ifvqbvg","pricing_plan_id":"cebpf4jnsgd1na2vs0mg"},{"bike_id":"5c8dde23-03af-4ec7-8c64-b6a7b95cfa5a","system_id":"levelo_inurba_marseille","lat":43.33736,"lon":5.39181,"is_reserved":false,"is_disabled":false,"rental_uris":{"android":"levelo://app?vid=5c8dde23-03af-4ec7-8c64-b6a7b95cfa5a","ios":"levelo://app?vid=5c8dde23-03af-4ec7-8c64-b6a7b95cfa5a"},"vehicle_type_id":"4","last_reported":1745568867,"current_range_meters":12000,"station_id":"ce4bhr92rcd13ifvqhsg","pricing_plan_id":"cebpf4jnsgd1na2vs0mg"},{"bike_id":"5e5e79cb-a505-4466-9551-32a12181b171","system_id":"levelo_inurba_marseille","lat":43.28985,"lon":5.378331,"is_reserved":false,"is_disabled":false,"rental_uris":{"android":"levelo://app?vid=5e5e79cb-a505-4466-9551-32a12181b171","ios":"levelo://app?vid=5e5e79cb-a505-4466-9551-32a12181b171"},"vehicle_type_id":"4","last_reported":1745568867,"current_range_meters":12000,"station_id":"ce4bhh92rcd13ifvqfi0","pricing_plan_id":"cebpf4jnsgd1na2vs0mg"},{"bike_id":"b7fa553d-7757-490d-adcb-0bafe1169148","system_id":"levelo_inurba_marseille","lat":43.27491,"lon":5.42449,"is_reserved":false,"is_disabled":false,"rental_uris":{"android":"levelo://app?vid=b7fa553d-7757-490d-adcb-0bafe1169148","ios":"levelo://app?vid=b7fa553d-7757-490d-adcb-0bafe1169148"},"vehicle_type_id":"4","last_reported":1745568867,"current_range_meters":12400,"station_id":"ce4bhn92rcd13ifvqgrg","pricing_plan_id":"cebpf4jnsgd1na2vs0mg"},{"bike_id":"1f963738-62de-452a-a2b0-17615a33851b","system_id":"levelo_inurba_marseille","lat":43.27313,"lon":5.39073,"is_reserved":false,"is_disabled":false,"rental_uris":{"android":"levelo://app?vid=1f963738-62de-452a-a2b0-17615a33851b","ios":"levelo://app?vid=1f963738-62de-452a-a2b0-17615a33851b"},"vehicle_type_id":"4","last_reported":1745568867,"current_range_meters":12800,"station_id":"ce4bhgp2rcd13ifvqfe0","pricing_plan_id":"cebpf4jnsgd1na2vs0mg"},{"bike_id":"176e1968-0545-432c-8c9e-cc938a7c0f88","system_id":"levelo_inurba_marseille","lat":43.30802,"lon":5.38141,"is_reserved":false,"is_disabled":true,"rental_uris":{"android":"levelo://app?vid=176e1968-0545-432c-8c9e-cc938a7c0f88","ios":"levelo://app?vid=176e1968-0545-432c-8c9e-cc938a7c0f88"},"vehicle_type_id":"4","last_reported":1745568867,"current_range_meters":13600,"station_id":"ce4bgt12rcd13ifvqce0","pricing_plan_id":"cebpf4jnsgd1na2vs0mg"},{"bike_id":"9665f832-d7b4-4a28-991d-8bdecd5259e9","system_id":"levelo_inurba_marseille","lat":43.30167,"lon":5.37408,"is_reserved":false,"is_disabled":false,"rental_uris":{"android":"levelo://app?vid=9665f832-d7b4-4a28-991d-8bdecd5259e9","ios":"levelo://app?vid=9665f832-d7b4-4a28-991d-8bdecd5259e9"},"vehicle_type_id":"4","last_reported":1745568867,"current_range_meters":13600,"station_id":"ce4bgs92rcd13ifvqcc0","pricing_plan_id":"cebpf4jnsgd1na2vs0mg"},{"bike_id":"03ec5728-5a8d-475c-be69-d63e54c8d683","system_id":"levelo_inurba_marseille","lat":43.3245,"lon":5.36726,"is_reserved":false,"is_disabled":false,"rental_uris":{"android":"levelo://app?vid=03ec5728-5a8d-475c-be69-d63e54c8d683","ios":"levelo://app?vid=03ec5728-5a8d-475c-be69-d63e54c8d683"},"vehicle_type_id":"4","last_reported":1745568867,"current_range_meters":14000,"station_id":"","pricing_plan_id":"cebpf4jnsgd1na2vs0mg"},{"bike_id":"a34cac34-324e-4070-b1d4-0ed2738f7343","system_id":"levelo_inurba_marseille","lat":43.30279,"lon":5.37682,"is_reserved":false,"is_disabled":false,"rental_uris":{"android":"levelo://app?vid=a34cac34-324e-4070-b1d4-0ed2738f7343","ios":"levelo://app?vid=a34cac34-324e-4070-b1d4-0ed2738f7343"},"vehicle_type_id":"4","last_reported":1745568867,"current_range_meters":14000,"station_id":"ce4bguh2rcd13ifvqcj0","pricing_plan_id":"cebpf4jnsgd1na2vs0mg"},{"bike_id":"67d89213-bd8a-439e-93c1-8b1523c64d32","system_id":"levelo_inurba_marseille","lat":43.2503,"lon":5.38936,"is_reserved":false,"is_disabled":false,"rental_uris":{"android":"levelo://app?vid=67d89213-bd8a-439e-93c1-8b1523c64d32","ios":"levelo://app?vid=67d89213-bd8a-439e-93c1-8b1523c64d32"},"vehicle_type_id":"4","last_reported":1745568867,"current_range_meters":14000,"station_id":"ce4bhgp2rcd13ifvqfd0","pricing_plan_id":"cebpf4jnsgd1na2vs0mg"},{"bike_id":"7fc5ed43-b2c3-4cf7-b081-488a7cbcc12f","system_id":"levelo_inurba_marseille","lat":43.33069,"lon":5.39041,"is_reserved":false,"is_disabled":false,"rental_uris":{"android":"levelo://app?vid=7fc5ed43-b2c3-4cf7-b081-488a7cbcc12f","ios":"levelo://app?vid=7fc5ed43-b2c3-4cf7-b081-488a7cbcc12f"},"vehicle_type_id":"4","last_reported":1745568867,"current_range_meters":14000,"station_id":"","pricing_plan_id":"cebpf4jnsgd1na2vs0mg"},{"bike_id":"f12a9a5e-89bc-4406-8d33-ee6c190982eb","system_id":"levelo_inurba_marseille","lat":43.30339,"lon":5.36918,"is_reserved":false,"is_disabled":false,"rental_uris":{"android":"levelo://app?vid=f12a9a5e-89bc-4406-8d33-ee6c190982eb","ios":"levelo://app?vid=f12a9a5e-89bc-4406-8d33-ee6c190982eb"},"vehicle_type_id":"4","last_reported":1745568867,"current_range_meters":14000,"station_id":"ce4bgqh2rcd13ifvqc5g","pricing_plan_id":"cebpf4jnsgd1na2vs0mg"},{"bike_id":"e2e20bd5-bb02-4ee5-8bdb-c30abd189d68","system_id":"levelo_inurba_marseille","lat":43.25912,"lon":5.40884,"is_reserved":false,"is_disabled":false,"rental_uris":{"android":"levelo://app?vid=e2e20bd5-bb02-4ee5-8bdb-c30abd189d68","ios":"levelo://app?vid=e2e20bd5-bb02-4ee5-8bdb-c30abd189d68"},"vehicle_type_id":"4","last_reported":1745568867,"current_range_meters":14400,"station_id":"ce4bhm92rcd13ifvqglg","pricing_plan_id":"cebpf4jnsgd1na2vs0mg"},{"bike_id":"7597f9f7-581e-4aa1-9ea0-a72928416a0e","system_id":"levelo_inurba_marseille","lat":43.30306,"lon":5.39201,"is_reserved":false,"is_disabled":true,"rental_uris":{"android":"levelo://app?vid=7597f9f7-581e-4aa1-9ea0-a72928416a0e","ios":"levelo://app?vid=7597f9f7-581e-4aa1-9ea0-a72928416a0e"},"vehicle_type_id":"4","last_reported":1745568867,"current_range_meters":14400,"station_id":"ce4bgkh2rcd13ifvqbk0","pricing_plan_id":"cebpf4jnsgd1na2vs0mg"},{"bike_id":"382157cc-f260-4c49-ac0a-688acaaf408b","system_id":"levelo_inurba_marseille","lat":43.31502,"lon":5.37281,"is_reserved":false,"is_disabled":false,"rental_uris":{"android":"levelo://app?vid=382157cc-f260-4c49-ac0a-688acaaf408b","ios":"levelo://app?vid=382157cc-f260-4c49-ac0a-688acaaf408b"},"vehicle_type_id":"4","last_reported":1745568867,"current_range_meters":14400,"station_id":"ce4bgt12rcd13ifvqcd0","pricing_plan_id":"cebpf4jnsgd1na2vs0mg"},{"bike_id":"bff532e1-58f7-4601-87b6-d6ae8925747c","system_id":"levelo_inurba_marseille","lat":43.25939,"lon":5.40888,"is_reserved":false,"is_disabled":false,"rental_uris":{"android":"levelo://app?vid=bff532e1-58f7-4601-87b6-d6ae8925747c","ios":"levelo://app?vid=bff532e1-58f7-4601-87b6-d6ae8925747c"},"vehicle_type_id":"4","last_reported":1745568867,"current_range_meters":14800,"station_id":"ce4bhm92rcd13ifvqglg","pricing_plan_id":"cebpf4jnsgd1na2vs0mg"},{"bike_id":"dc7e93aa-6a0d-4245-8724-ff18750ddafe","system_id":"levelo_inurba_marseille","lat":43.24082,"lon":5.37757,"is_reserved":false,"is_disabled":false,"rental_uris":{"android":"levelo://app?vid=dc7e93aa-6a0d-4245-8724-ff18750ddafe","ios":"levelo://app?vid=dc7e93aa-6a0d-4245-8724-ff18750ddafe"},"vehicle_type_id":"4","last_reported":1745568867,"current_range_meters":14800,"station_id":"ce4bhnp2rcd13ifvqgvg","pricing_plan_id":"cebpf4jnsgd1na2vs0mg"},{"bike_id":"e9b40b8c-aa8b-493b-9704-ac204b4fdb74","system_id":"levelo_inurba_marseille","lat":43.22509,"lon":5.34782,"is_reserved":false,"is_disabled":false,"rental_uris":{"android":"levelo://app?vid=e9b40b8c-aa8b-493b-9704-ac204b4fdb74","ios":"levelo://app?vid=e9b40b8c-aa8b-493b-9704-ac204b4fdb74"},"vehicle_type_id":"4","last_reported":1745568867,"current_range_meters":14800,"station_id":"st_cvj5dfep6f1abm77gieg","pricing_plan_id":"cebpf4jnsgd1na2vs0mg"},{"bike_id":"e2dcabcf-64d8-4394-bb9a-ff877bee611a","system_id":"levelo_inurba_marseille","lat":43.32059,"lon":5.41528,"is_reserved":false,"is_disabled":false,"rental_uris":{"android":"levelo://app?vid=e2dcabcf-64d8-4394-bb9a-ff877bee611a","ios":"levelo://app?vid=e2dcabcf-64d8-4394-bb9a-ff877bee611a"},"vehicle_type_id":"4","last_reported":1745568867,"current_range_meters":14800,"station_id":"ce4bhq92rcd13ifvqhkg","pricing_plan_id":"cebpf4jnsgd1na2vs0mg"},{"bike_id":"5d9c4043-4860-4248-b70b-21cea142bfdb","system_id":"levelo_inurba_marseille","lat":43.33605,"lon":5.40985,"is_reserved":false,"is_disabled":false,"rental_uris":{"android":"levelo://app?vid=5d9c4043-4860-4248-b70b-21cea142bfdb","ios":"levelo://app?vid=5d9c4043-4860-4248-b70b-21cea142bfdb"},"vehicle_type_id":"4","last_reported":1745568867,"current_range_meters":14800,"station_id":"ce4bhqh2rcd13ifvqhmg","pricing_plan_id":"cebpf4jnsgd1na2vs0mg"},{"bike_id":"665610cb-643a-4d66-a3b2-968cfa13ef6e","system_id":"levelo_inurba_marseille","lat":43.26942,"lon":5.40268,"is_reserved":false,"is_disabled":false,"rental_uris":{"android":"levelo://app?vid=665610cb-643a-4d66-a3b2-968cfa13ef6e","ios":"levelo://app?vid=665610cb-643a-4d66-a3b2-968cfa13ef6e"},"vehicle_type_id":"4","last_reported":1745568867,"current_range_meters":14400,"station_id":"cjm6bp8fraef2m0cb0m0","pricing_plan_id":"cebpf4jnsgd1na2vs0mg"},{"bike_id":"72370ac8-1fe9-4207-a1ad-497e1e9e30cf","system_id":"levelo_inurba_marseille","lat":43.30555,"lon":5.367,"is_reserved":false,"is_disabled":false,"rental_uris":{"android":"levelo://app?vid=72370ac8-1fe9-4207-a1ad-497e1e9e30cf","ios":"levelo://app?vid=72370ac8-1fe9-4207-a1ad-497e1e9e30cf"},"vehicle_type_id":"4","last_reported":1745568867,"current_range_meters":15200,"station_id":"ce4bgrp2rcd13ifvqc9g","pricing_plan_id":"cebpf4jnsgd1na2vs0mg"},{"bike_id":"b93c41d9-990f-4fda-89e3-f56b9731c2a7","system_id":"levelo_inurba_marseille","lat":43.29512,"lon":5.37501,"is_reserved":false,"is_disabled":false,"rental_uris":{"android":"levelo://app?vid=b93c41d9-990f-4fda-89e3-f56b9731c2a7","ios":"levelo://app?vid=b93c41d9-990f-4fda-89e3-f56b9731c2a7"},"vehicle_type_id":"4","last_reported":1745568867,"current_range_meters":15200,"station_id":"ce4bgkp2rcd13ifvqbmg","pricing_plan_id":"cebpf4jnsgd1na2vs0mg"},{"bike_id":"539db59b-aaf8-4b5f-a8e8-fa898c4ec0c5","system_id":"levelo_inurba_marseille","lat":43.24169,"lon":5.39724,"is_reserved":false,"is_disabled":false,"rental_uris":{"android":"levelo://app?vid=539db59b-aaf8-4b5f-a8e8-fa898c4ec0c5","ios":"levelo://app?vid=539db59b-aaf8-4b5f-a8e8-fa898c4ec0c5"},"vehicle_type_id":"4","last_reported":1745568867,"current_range_meters":15200,"station_id":"ce4bhn12rcd13ifvqgpg","pricing_plan_id":"cebpf4jnsgd1na2vs0mg"},{"bike_id":"f437bbcd-3bc3-4220-9dfe-08d3eac84ba1","system_id":"levelo_inurba_marseille","lat":43.28623,"lon":5.35071,"is_reserved":false,"is_disabled":true,"rental_uris":{"android":"levelo://app?vid=f437bbcd-3bc3-4220-9dfe-08d3eac84ba1","ios":"levelo://app?vid=f437bbcd-3bc3-4220-9dfe-08d3eac84ba1"},"vehicle_type_id":"4","last_reported":1745568867,"current_range_meters":15200,"station_id":"ce4bhch2rcd13ifvqeug","pricing_plan_id":"cebpf4jnsgd1na2vs0mg"},{"bike_id":"3e5a5bec-d3d4-45ee-9c95-7c9b8e7a4c49","system_id":"levelo_inurba_marseille","lat":43.32361,"lon":5.36753,"is_reserved":false,"is_disabled":false,"rental_uris":{"android":"levelo://app?vid=3e5a5bec-d3d4-45ee-9c95-7c9b8e7a4c49","ios":"levelo://app?vid=3e5a5bec-d3d4-45ee-9c95-7c9b8e7a4c49"},"vehicle_type_id":"4","last_reported":1745568867,"current_range_meters":15200,"station_id":"ce4bhsh2rcd13ifvqi2g","pricing_plan_id":"cebpf4jnsgd1na2vs0mg"},{"bike_id":"d7844114-526e-4b53-a030-69252f001196","system_id":"levelo_inurba_marseille","lat":43.3051,"lon":5.36505,"is_reserved":false,"is_disabled":false,"rental_uris":{"android":"levelo://app?vid=d7844114-526e-4b53-a030-69252f001196","ios":"levelo://app?vid=d7844114-526e-4b53-a030-69252f001196"},"vehicle_type_id":"4","last_reported":1745568867,"current_range_meters":15200,"station_id":"ce4bgs12rcd13ifvqcag","pricing_plan_id":"cebpf4jnsgd1na2vs0mg"},{"bike_id":"0bfff189-ec6a-4439-b345-e9dd168ab867","system_id":"levelo_inurba_marseille","lat":43.33734,"lon":5.39161,"is_reserved":false,"is_disabled":false,"rental_uris":{"android":"levelo://app?vid=0bfff189-ec6a-4439-b345-e9dd168ab867","ios":"levelo://app?vid=0bfff189-ec6a-4439-b345-e9dd168ab867"},"vehicle_type_id":"4","last_reported":1745568867,"current_range_meters":15200,"station_id":"ce4bhr92rcd13ifvqhsg","pricing_plan_id":"cebpf4jnsgd1na2vs0mg"},{"bike_id":"f5c69073-50c0-490a-a2e7-837f52ac87fa","system_id":"levelo_inurba_marseille","lat":43.24075,"lon":5.37755,"is_reserved":false,"is_disabled":false,"rental_uris":{"android":"levelo://app?vid=f5c69073-50c0-490a-a2e7-837f52ac87fa","ios":"levelo://app?vid=f5c69073-50c0-490a-a2e7-837f52ac87fa"},"vehicle_type_id":"4","last_reported":1745568867,"current_range_meters":16000,"station_id":"ce4bhnp2rcd13ifvqgvg","pricing_plan_id":"cebpf4jnsgd1na2vs0mg"},{"bike_id":"9a1c0be7-bd1a-4081-ab84-3ef05258b407","system_id":"levelo_inurba_marseille","lat":43.229214,"lon":5.354127,"is_reserved":false,"is_disabled":false,"rental_uris":{"android":"levelo://app?vid=9a1c0be7-bd1a-4081-ab84-3ef05258b407","ios":"levelo://app?vid=9a1c0be7-bd1a-4081-ab84-3ef05258b407"},"vehicle_type_id":"4","last_reported":1745568867,"current_range_meters":16000,"station_id":"cpo3532slgdg3j2ikp40","pricing_plan_id":"cebpf4jnsgd1na2vs0mg"},{"bike_id":"88bcb9d0-fc6d-447c-b2f5-0a8d159b686d","system_id":"levelo_inurba_marseille","lat":43.29577,"lon":5.36749,"is_reserved":false,"is_disabled":false,"rental_uris":{"android":"levelo://app?vid=88bcb9d0-fc6d-447c-b2f5-0a8d159b686d","ios":"levelo://app?vid=88bcb9d0-fc6d-447c-b2f5-0a8d159b686d"},"vehicle_type_id":"4","last_reported":1745568867,"current_range_meters":16000,"station_id":"ce4bgph2rcd13ifvqc2g","pricing_plan_id":"cebpf4jnsgd1na2vs0mg"},{"bike_id":"c4cbcabc-8fe7-430e-b472-3c415ab20e28","system_id":"levelo_inurba_marseille","lat":43.30135,"lon":5.38777,"is_reserved":false,"is_disabled":false,"rental_uris":{"android":"levelo://app?vid=c4cbcabc-8fe7-430e-b472-3c415ab20e28","ios":"levelo://app?vid=c4cbcabc-8fe7-430e-b472-3c415ab20e28"},"vehicle_type_id":"4","last_reported":1745568867,"current_range_meters":16000,"station_id":"ce4bghh2rcd13ifvqb60","pricing_plan_id":"cebpf4jnsgd1na2vs0mg"},{"bike_id":"b69ca577-3942-4321-b56b-68ee80a2ddac","system_id":"levelo_inurba_marseille","lat":43.24218,"lon":5.3972,"is_reserved":false,"is_disabled":false,"rental_uris":{"android":"levelo://app?vid=b69ca577-3942-4321-b56b-68ee80a2ddac","ios":"levelo://app?vid=b69ca577-3942-4321-b56b-68ee80a2ddac"},"vehicle_type_id":"4","last_reported":1745568867,"current_range_meters":16000,"station_id":"ce4bhn12rcd13ifvqgpg","pricing_plan_id":"cebpf4jnsgd1na2vs0mg"},{"bike_id":"679bc95d-f1a1-431b-9dba-09687aa6f052","system_id":"levelo_inurba_marseille","lat":43.28502,"lon":5.38417,"is_reserved":false,"is_disabled":false,"rental_uris":{"android":"levelo://app?vid=679bc95d-f1a1-431b-9dba-09687aa6f052","ios":"levelo://app?vid=679bc95d-f1a1-431b-9dba-09687aa6f052"},"vehicle_type_id":"4","last_reported":1745568867,"current_range_meters":16000,"station_id":"ce4bh512rcd13ifvqe3g","pricing_plan_id":"cebpf4jnsgd1na2vs0mg"},{"bike_id":"5751d606-a11e-4c20-8d56-3a63e65e1be0","system_id":"levelo_inurba_marseille","lat":43.23154,"lon":5.43721,"is_reserved":false,"is_disabled":false,"rental_uris":{"android":"levelo://app?vid=5751d606-a11e-4c20-8d56-3a63e65e1be0","ios":"levelo://app?vid=5751d606-a11e-4c20-8d56-3a63e65e1be0"},"vehicle_type_id":"4","last_reported":1745568867,"current_range_meters":16000,"station_id":"ce4bhmp2rcd13ifvqgog","pricing_plan_id":"cebpf4jnsgd1na2vs0mg"},{"bike_id":"0dd2efff-ce8b-47fc-a148-afba5d4713cd","system_id":"levelo_inurba_marseille","lat":43.24657,"lon":5.38905,"is_reserved":false,"is_disabled":false,"rental_uris":{"android":"levelo://app?vid=0dd2efff-ce8b-47fc-a148-afba5d4713cd","ios":"levelo://app?vid=0dd2efff-ce8b-47fc-a148-afba5d4713cd"},"vehicle_type_id":"4","last_reported":1745568867,"current_range_meters":16000,"station_id":"ce4bhg12rcd13ifvqf60","pricing_plan_id":"cebpf4jnsgd1na2vs0mg"},{"bike_id":"c792bfbc-e60c-4377-bb6d-fd26efa09470","system_id":"levelo_inurba_marseille","lat":43.28727,"lon":5.36106,"is_reserved":false,"is_disabled":false,"rental_uris":{"android":"levelo://app?vid=c792bfbc-e60c-4377-bb6d-fd26efa09470","ios":"levelo://app?vid=c792bfbc-e60c-4377-bb6d-fd26efa09470"},"vehicle_type_id":"4","last_reported":1745568867,"current_range_meters":16400,"station_id":"cki0cbj6b192h4jlfktg","pricing_plan_id":"cebpf4jnsgd1na2vs0mg"},{"bike_id":"72c416e0-f89a-4b40-a1c6-7e3ea6bf5db3","system_id":"levelo_inurba_marseille","lat":43.23148,"lon":5.43721,"is_reserved":false,"is_disabled":false,"rental_uris":{"android":"levelo://app?vid=72c416e0-f89a-4b40-a1c6-7e3ea6bf5db3","ios":"levelo://app?vid=72c416e0-f89a-4b40-a1c6-7e3ea6bf5db3"},"vehicle_type_id":"4","last_reported":1745568867,"current_range_meters":16400,"station_id":"ce4bhmp2rcd13ifvqgog","pricing_plan_id":"cebpf4jnsgd1na2vs0mg"},{"bike_id":"c6917818-13ff-425c-9882-d53be6fd4dde","system_id":"levelo_inurba_marseille","lat":43.31192,"lon":5.38711,"is_reserved":false,"is_disabled":false,"rental_uris":{"android":"levelo://app?vid=c6917818-13ff-425c-9882-d53be6fd4dde","ios":"levelo://app?vid=c6917818-13ff-425c-9882-d53be6fd4dde"},"vehicle_type_id":"4","last_reported":1745568867,"current_range_meters":16400,"station_id":"ce4bgv12rcd13ifvqcp0","pricing_plan_id":"cebpf4jnsgd1na2vs0mg"},{"bike_id":"8d8d9c67-6c0b-4447-b08c-48152b2ea76c","system_id":"levelo_inurba_marseille","lat":43.28344,"lon":5.381046,"is_reserved":false,"is_disabled":false,"rental_uris":{"android":"levelo://app?vid=8d8d9c67-6c0b-4447-b08c-48152b2ea76c","ios":"levelo://app?vid=8d8d9c67-6c0b-4447-b08c-48152b2ea76c"},"vehicle_type_id":"4","last_reported":1745568867,"current_range_meters":16400,"station_id":"ce4bhg92rcd13ifvqf90","pricing_plan_id":"cebpf4jnsgd1na2vs0mg"},{"bike_id":"a9784e4d-72f3-45a0-bc5c-6a48517d28d6","system_id":"levelo_inurba_marseille","lat":43.33022,"lon":5.39053,"is_reserved":false,"is_disabled":false,"rental_uris":{"android":"levelo://app?vid=a9784e4d-72f3-45a0-bc5c-6a48517d28d6","ios":"levelo://app?vid=a9784e4d-72f3-45a0-bc5c-6a48517d28d6"},"vehicle_type_id":"4","last_reported":1745568867,"current_range_meters":16400,"station_id":"ce4bhr92rcd13ifvqhrg","pricing_plan_id":"cebpf4jnsgd1na2vs0mg"},{"bike_id":"cd087707-fd41-43c5-9b15-a64d709b0196","system_id":"levelo_inurba_marseille","lat":43.30543,"lon":5.36535,"is_reserved":false,"is_disabled":false,"rental_uris":{"android":"levelo://app?vid=cd087707-fd41-43c5-9b15-a64d709b0196","ios":"levelo://app?vid=cd087707-fd41-43c5-9b15-a64d709b0196"},"vehicle_type_id":"4","last_reported":1745568867,"current_range_meters":16400,"station_id":"ce4bgs12rcd13ifvqcag","pricing_plan_id":"cebpf4jnsgd1na2vs0mg"},{"bike_id":"1a9dd115-8b54-42f2-af40-d1e2defa62f7","system_id":"levelo_inurba_marseille","lat":43.30898,"lon":5.36849,"is_reserved":false,"is_disabled":false,"rental_uris":{"android":"levelo://app?vid=1a9dd115-8b54-42f2-af40-d1e2defa62f7","ios":"levelo://app?vid=1a9dd115-8b54-42f2-af40-d1e2defa62f7"},"vehicle_type_id":"4","last_reported":1745568867,"current_range_meters":16400,"station_id":"ce4bgn92rcd13ifvqbvg","pricing_plan_id":"cebpf4jnsgd1na2vs0mg"},{"bike_id":"3fb9545b-3a5a-422c-ad5d-be4b40e1b40d","system_id":"levelo_inurba_marseille","lat":43.30923,"lon":5.3687,"is_reserved":false,"is_disabled":false,"rental_uris":{"android":"levelo://app?vid=3fb9545b-3a5a-422c-ad5d-be4b40e1b40d","ios":"levelo://app?vid=3fb9545b-3a5a-422c-ad5d-be4b40e1b40d"},"vehicle_type_id":"4","last_reported":1745568867,"current_range_meters":16800,"station_id":"ce4bgn92rcd13ifvqbvg","pricing_plan_id":"cebpf4jnsgd1na2vs0mg"},{"bike_id":"b04b2867-fbf0-4049-a1be-5593b1ff340a","system_id":"levelo_inurba_marseille","lat":43.241302,"lon":5.376976,"is_reserved":false,"is_disabled":false,"rental_uris":{"android":"levelo://app?vid=b04b2867-fbf0-4049-a1be-5593b1ff340a","ios":"levelo://app?vid=b04b2867-fbf0-4049-a1be-5593b1ff340a"},"vehicle_type_id":"4","last_reported":1745568867,"current_range_meters":16800,"station_id":"ce4bhah2rcd13ifvqei0","pricing_plan_id":"cebpf4jnsgd1na2vs0mg"},{"bike_id":"c86493f0-b1d4-49eb-9cd0-75ea9e581a89","system_id":"levelo_inurba_marseille","lat":43.27501,"lon":5.42463,"is_reserved":false,"is_disabled":false,"rental_uris":{"android":"levelo://app?vid=c86493f0-b1d4-49eb-9cd0-75ea9e581a89","ios":"levelo://app?vid=c86493f0-b1d4-49eb-9cd0-75ea9e581a89"},"vehicle_type_id":"4","last_reported":1745568867,"current_range_meters":16800,"station_id":"ce4bhn92rcd13ifvqgrg","pricing_plan_id":"cebpf4jnsgd1na2vs0mg"},{"bike_id":"df7ea5fb-897e-47f2-813d-8d83df6d388b","system_id":"levelo_inurba_marseille","lat":43.27973,"lon":5.3874,"is_reserved":false,"is_disabled":false,"rental_uris":{"android":"levelo://app?vid=df7ea5fb-897e-47f2-813d-8d83df6d388b","ios":"levelo://app?vid=df7ea5fb-897e-47f2-813d-8d83df6d388b"},"vehicle_type_id":"4","last_reported":1745568867,"current_range_meters":16800,"station_id":"ce4bhg12rcd13ifvqf80","pricing_plan_id":"cebpf4jnsgd1na2vs0mg"},{"bike_id":"af6af1ea-83a0-4448-a6b9-d143557f7290","system_id":"levelo_inurba_marseille","lat":43.26934,"lon":5.40256,"is_reserved":false,"is_disabled":true,"rental_uris":{"android":"levelo://app?vid=af6af1ea-83a0-4448-a6b9-d143557f7290","ios":"levelo://app?vid=af6af1ea-83a0-4448-a6b9-d143557f7290"},"vehicle_type_id":"4","last_reported":1745568867,"current_range_meters":16800,"station_id":"cjm6bp8fraef2m0cb0m0","pricing_plan_id":"cebpf4jnsgd1na2vs0mg"},{"bike_id":"b370ec72-25aa-4e18-90be-0a23445d821b","system_id":"levelo_inurba_marseille","lat":43.21748,"lon":5.346,"is_reserved":false,"is_disabled":false,"rental_uris":{"android":"levelo://app?vid=b370ec72-25aa-4e18-90be-0a23445d821b","ios":"levelo://app?vid=b370ec72-25aa-4e18-90be-0a23445d821b"},"vehicle_type_id":"4","last_reported":1745568867,"current_range_meters":16800,"station_id":"st_cvj6r9ubvosntc0bgbag","pricing_plan_id":"cebpf4jnsgd1na2vs0mg"},{"bike_id":"cdf6ab02-5bc4-45ab-af20-44aeb61ec560","system_id":"levelo_inurba_marseille","lat":43.25918,"lon":5.40874,"is_reserved":false,"is_disabled":false,"rental_uris":{"android":"levelo://app?vid=cdf6ab02-5bc4-45ab-af20-44aeb61ec560","ios":"levelo://app?vid=cdf6ab02-5bc4-45ab-af20-44aeb61ec560"},"vehicle_type_id":"4","last_reported":1745568867,"current_range_meters":16800,"station_id":"ce4bhm92rcd13ifvqglg","pricing_plan_id":"cebpf4jnsgd1na2vs0mg"},{"bike_id":"625a526f-918d-454c-b828-c6fced981b4c","system_id":"levelo_inurba_marseille","lat":43.30579,"lon":5.36547,"is_reserved":false,"is_disabled":false,"rental_uris":{"android":"levelo://app?vid=625a526f-918d-454c-b828-c6fced981b4c","ios":"levelo://app?vid=625a526f-918d-454c-b828-c6fced981b4c"},"vehicle_type_id":"4","last_reported":1745568867,"current_range_meters":16800,"station_id":"ce4bgs12rcd13ifvqcag","pricing_plan_id":"cebpf4jnsgd1na2vs0mg"},{"bike_id":"a74f7875-e8bd-4cc9-9f56-11c66ee4baac","system_id":"levelo_inurba_marseille","lat":43.275,"lon":5.42475,"is_reserved":false,"is_disabled":false,"rental_uris":{"android":"levelo://app?vid=a74f7875-e8bd-4cc9-9f56-11c66ee4baac","ios":"levelo://app?vid=a74f7875-e8bd-4cc9-9f56-11c66ee4baac"},"vehicle_type_id":"4","last_reported":1745568867,"current_range_meters":16800,"station_id":"ce4bhn92rcd13ifvqgrg","pricing_plan_id":"cebpf4jnsgd1na2vs0mg"},{"bike_id":"697d73d5-c352-43cc-8002-9a0decd1c6b0","system_id":"levelo_inurba_marseille","lat":43.33606,"lon":5.41027,"is_reserved":false,"is_disabled":false,"rental_uris":{"android":"levelo://app?vid=697d73d5-c352-43cc-8002-9a0decd1c6b0","ios":"levelo://app?vid=697d73d5-c352-43cc-8002-9a0decd1c6b0"},"vehicle_type_id":"4","last_reported":1745568867,"current_range_meters":16800,"station_id":"ce4bhqh2rcd13ifvqhmg","pricing_plan_id":"cebpf4jnsgd1na2vs0mg"},{"bike_id":"85017d98-cc50-4398-8fa8-e0c6b016b17b","system_id":"levelo_inurba_marseille","lat":43.26944,"lon":5.38911,"is_reserved":false,"is_disabled":false,"rental_uris":{"android":"levelo://app?vid=85017d98-cc50-4398-8fa8-e0c6b016b17b","ios":"levelo://app?vid=85017d98-cc50-4398-8fa8-e0c6b016b17b"},"vehicle_type_id":"4","last_reported":1745568867,"current_range_meters":17200,"station_id":"ce4bhhh2rcd13ifvqfl0","pricing_plan_id":"cebpf4jnsgd1na2vs0mg"},{"bike_id":"1f1e304b-c90b-4372-a520-4efb8d851e99","system_id":"levelo_inurba_marseille","lat":43.24799,"lon":5.37453,"is_reserved":false,"is_disabled":false,"rental_uris":{"android":"levelo://app?vid=1f1e304b-c90b-4372-a520-4efb8d851e99","ios":"levelo://app?vid=1f1e304b-c90b-4372-a520-4efb8d851e99"},"vehicle_type_id":"4","last_reported":1745568867,"current_range_meters":17200,"station_id":"ce4bhgh2rcd13ifvqfb0","pricing_plan_id":"cebpf4jnsgd1na2vs0mg"},{"bike_id":"ec0586bc-ae59-4b1a-8a36-7af4ea7f2ab0","system_id":"levelo_inurba_marseille","lat":43.279678,"lon":5.387117,"is_reserved":false,"is_disabled":false,"rental_uris":{"android":"levelo://app?vid=ec0586bc-ae59-4b1a-8a36-7af4ea7f2ab0","ios":"levelo://app?vid=ec0586bc-ae59-4b1a-8a36-7af4ea7f2ab0"},"vehicle_type_id":"4","last_reported":1745568867,"current_range_meters":17200,"station_id":"ce4bhg12rcd13ifvqf80","pricing_plan_id":"cebpf4jnsgd1na2vs0mg"},{"bike_id":"987d7900-bb2a-45cb-bed7-6d69f6fd4fa3","system_id":"levelo_inurba_marseille","lat":43.2852,"lon":5.38473,"is_reserved":false,"is_disabled":false,"rental_uris":{"android":"levelo://app?vid=987d7900-bb2a-45cb-bed7-6d69f6fd4fa3","ios":"levelo://app?vid=987d7900-bb2a-45cb-bed7-6d69f6fd4fa3"},"vehicle_type_id":"4","last_reported":1745568867,"current_range_meters":17200,"station_id":"","pricing_plan_id":"cebpf4jnsgd1na2vs0mg"},{"bike_id":"5d90e8c4-88f9-42f1-bfd8-e31a43c95b58","system_id":"levelo_inurba_marseille","lat":43.32472,"lon":5.36545,"is_reserved":false,"is_disabled":false,"rental_uris":{"android":"levelo://app?vid=5d90e8c4-88f9-42f1-bfd8-e31a43c95b58","ios":"levelo://app?vid=5d90e8c4-88f9-42f1-bfd8-e31a43c95b58"},"vehicle_type_id":"4","last_reported":1745568867,"current_range_meters":17200,"station_id":"ce4bhs12rcd13ifvqhvg","pricing_plan_id":"cebpf4jnsgd1na2vs0mg"},{"bike_id":"8f1a38c1-df91-4bdf-9e4e-92ef410aba4f","system_id":"levelo_inurba_marseille","lat":43.21211,"lon":5.35069,"is_reserved":false,"is_disabled":false,"rental_uris":{"android":"levelo://app?vid=8f1a38c1-df91-4bdf-9e4e-92ef410aba4f","ios":"levelo://app?vid=8f1a38c1-df91-4bdf-9e4e-92ef410aba4f"},"vehicle_type_id":"4","last_reported":1745568867,"current_range_meters":17600,"station_id":"st_cvj6sg6p6f1abm77japg","pricing_plan_id":"cebpf4jnsgd1na2vs0mg"},{"bike_id":"627c9ae6-83fc-487a-b11d-7acdc5df84a4","system_id":"levelo_inurba_marseille","lat":43.3015,"lon":5.38084,"is_reserved":false,"is_disabled":false,"rental_uris":{"android":"levelo://app?vid=627c9ae6-83fc-487a-b11d-7acdc5df84a4","ios":"levelo://app?vid=627c9ae6-83fc-487a-b11d-7acdc5df84a4"},"vehicle_type_id":"4","last_reported":1745568867,"current_range_meters":17600,"station_id":"ce4bgjp2rcd13ifvqbh0","pricing_plan_id":"cebpf4jnsgd1na2vs0mg"},{"bike_id":"f5d41aa3-2886-4704-95b8-34f53da8b1e5","system_id":"levelo_inurba_marseille","lat":43.30912,"lon":5.36858,"is_reserved":false,"is_disabled":false,"rental_uris":{"android":"levelo://app?vid=f5d41aa3-2886-4704-95b8-34f53da8b1e5","ios":"levelo://app?vid=f5d41aa3-2886-4704-95b8-34f53da8b1e5"},"vehicle_type_id":"4","last_reported":1745568867,"current_range_meters":17600,"station_id":"ce4bgn92rcd13ifvqbvg","pricing_plan_id":"cebpf4jnsgd1na2vs0mg"},{"bike_id":"78e440e7-8bbc-44b4-9c74-197f80a59205","system_id":"levelo_inurba_marseille","lat":43.24175,"lon":5.36383,"is_reserved":false,"is_disabled":false,"rental_uris":{"android":"levelo://app?vid=78e440e7-8bbc-44b4-9c74-197f80a59205","ios":"levelo://app?vid=78e440e7-8bbc-44b4-9c74-197f80a59205"},"vehicle_type_id":"4","last_reported":1745568867,"current_range_meters":18000,"station_id":"cpo36qri1sfpv3e86is0","pricing_plan_id":"cebpf4jnsgd1na2vs0mg"},{"bike_id":"ba6edeb7-d8a9-4a67-8148-a523e91796d8","system_id":"levelo_inurba_marseille","lat":43.25933,"lon":5.409,"is_reserved":false,"is_disabled":false,"rental_uris":{"android":"levelo://app?vid=ba6edeb7-d8a9-4a67-8148-a523e91796d8","ios":"levelo://app?vid=ba6edeb7-d8a9-4a67-8148-a523e91796d8"},"vehicle_type_id":"4","last_reported":1745568867,"current_range_meters":18000,"station_id":"ce4bhm92rcd13ifvqglg","pricing_plan_id":"cebpf4jnsgd1na2vs0mg"},{"bike_id":"f8508ab8-79c1-40ba-87fb-00ec869a146d","system_id":"levelo_inurba_marseille","lat":43.27616,"lon":5.3609,"is_reserved":false,"is_disabled":false,"rental_uris":{"android":"levelo://app?vid=f8508ab8-79c1-40ba-87fb-00ec869a146d","ios":"levelo://app?vid=f8508ab8-79c1-40ba-87fb-00ec869a146d"},"vehicle_type_id":"4","last_reported":1745568867,"current_range_meters":18000,"station_id":"ce4bgj92rcd13ifvqbe0","pricing_plan_id":"cebpf4jnsgd1na2vs0mg"},{"bike_id":"fcd4d27d-7975-4d28-bd12-15185947a8d6","system_id":"levelo_inurba_marseille","lat":43.24074,"lon":5.37754,"is_reserved":false,"is_disabled":false,"rental_uris":{"android":"levelo://app?vid=fcd4d27d-7975-4d28-bd12-15185947a8d6","ios":"levelo://app?vid=fcd4d27d-7975-4d28-bd12-15185947a8d6"},"vehicle_type_id":"4","last_reported":1745568867,"current_range_meters":18000,"station_id":"ce4bhnp2rcd13ifvqgvg","pricing_plan_id":"cebpf4jnsgd1na2vs0mg"},{"bike_id":"57ae730b-34ea-44aa-b608-f633123a3caf","system_id":"levelo_inurba_marseille","lat":43.29511,"lon":5.375,"is_reserved":false,"is_disabled":false,"rental_uris":{"android":"levelo://app?vid=57ae730b-34ea-44aa-b608-f633123a3caf","ios":"levelo://app?vid=57ae730b-34ea-44aa-b608-f633123a3caf"},"vehicle_type_id":"4","last_reported":1745568867,"current_range_meters":18800,"station_id":"ce4bgkp2rcd13ifvqbmg","pricing_plan_id":"cebpf4jnsgd1na2vs0mg"},{"bike_id":"fe7f61f7-ae58-4ed7-892a-398ec03c92ac","system_id":"levelo_inurba_marseille","lat":43.21744,"lon":5.34603,"is_reserved":false,"is_disabled":false,"rental_uris":{"android":"levelo://app?vid=fe7f61f7-ae58-4ed7-892a-398ec03c92ac","ios":"levelo://app?vid=fe7f61f7-ae58-4ed7-892a-398ec03c92ac"},"vehicle_type_id":"4","last_reported":1745568867,"current_range_meters":18800,"station_id":"st_cvj6r9ubvosntc0bgbag","pricing_plan_id":"cebpf4jnsgd1na2vs0mg"},{"bike_id":"ecbc92b5-a8e1-4ba3-98de-bd8784bc0c64","system_id":"levelo_inurba_marseille","lat":43.26556,"lon":5.39016,"is_reserved":false,"is_disabled":true,"rental_uris":{"android":"levelo://app?vid=ecbc92b5-a8e1-4ba3-98de-bd8784bc0c64","ios":"levelo://app?vid=ecbc92b5-a8e1-4ba3-98de-bd8784bc0c64"},"vehicle_type_id":"4","last_reported":1745568867,"current_range_meters":18800,"station_id":"ce4bhe12rcd13ifvqf30","pricing_plan_id":"cebpf4jnsgd1na2vs0mg"},{"bike_id":"2cb915c3-efce-4420-ba97-f7de67fde7a5","system_id":"levelo_inurba_marseille","lat":43.29296,"lon":5.37436,"is_reserved":false,"is_disabled":false,"rental_uris":{"android":"levelo://app?vid=2cb915c3-efce-4420-ba97-f7de67fde7a5","ios":"levelo://app?vid=2cb915c3-efce-4420-ba97-f7de67fde7a5"},"vehicle_type_id":"4","last_reported":1745568867,"current_range_meters":18800,"station_id":"ce4bgi12rcd13ifvqb70","pricing_plan_id":"cebpf4jnsgd1na2vs0mg"},{"bike_id":"5e0bc6c0-b03e-46db-ac3c-2f75569e416b","system_id":"levelo_inurba_marseille","lat":43.28844,"lon":5.35866,"is_reserved":false,"is_disabled":false,"rental_uris":{"android":"levelo://app?vid=5e0bc6c0-b03e-46db-ac3c-2f75569e416b","ios":"levelo://app?vid=5e0bc6c0-b03e-46db-ac3c-2f75569e416b"},"vehicle_type_id":"4","last_reported":1745568867,"current_range_meters":18800,"station_id":"ce4bhb12rcd13ifvqem0","pricing_plan_id":"cebpf4jnsgd1na2vs0mg"},{"bike_id":"bb9d861d-8274-4ae7-9cab-738ceecfdaed","system_id":"levelo_inurba_marseille","lat":43.24646,"lon":5.38888,"is_reserved":false,"is_disabled":false,"rental_uris":{"android":"levelo://app?vid=bb9d861d-8274-4ae7-9cab-738ceecfdaed","ios":"levelo://app?vid=bb9d861d-8274-4ae7-9cab-738ceecfdaed"},"vehicle_type_id":"4","last_reported":1745568867,"current_range_meters":18800,"station_id":"ce4bhg12rcd13ifvqf60","pricing_plan_id":"cebpf4jnsgd1na2vs0mg"},{"bike_id":"51e980bd-b039-4c55-b8e7-5cfec9987cdd","system_id":"levelo_inurba_marseille","lat":43.29373,"lon":5.37862,"is_reserved":false,"is_disabled":false,"rental_uris":{"android":"levelo://app?vid=51e980bd-b039-4c55-b8e7-5cfec9987cdd","ios":"levelo://app?vid=51e980bd-b039-4c55-b8e7-5cfec9987cdd"},"vehicle_type_id":"4","last_reported":1745568867,"current_range_meters":18800,"station_id":"ce4bgjh2rcd13ifvqbf0","pricing_plan_id":"cebpf4jnsgd1na2vs0mg"},{"bike_id":"dc02c628-4de2-4d20-9b92-e4d267b3556e","system_id":"levelo_inurba_marseille","lat":43.24074,"lon":5.37755,"is_reserved":false,"is_disabled":false,"rental_uris":{"android":"levelo://app?vid=dc02c628-4de2-4d20-9b92-e4d267b3556e","ios":"levelo://app?vid=dc02c628-4de2-4d20-9b92-e4d267b3556e"},"vehicle_type_id":"4","last_reported":1745568867,"current_range_meters":20800,"station_id":"ce4bhnp2rcd13ifvqgvg","pricing_plan_id":"cebpf4jnsgd1na2vs0mg"},{"bike_id":"6c06943a-b9b6-49a5-aea0-b06789670c29","system_id":"levelo_inurba_marseille","lat":43.27686,"lon":5.38903,"is_reserved":false,"is_disabled":false,"rental_uris":{"android":"levelo://app?vid=6c06943a-b9b6-49a5-aea0-b06789670c29","ios":"levelo://app?vid=6c06943a-b9b6-49a5-aea0-b06789670c29"},"vehicle_type_id":"4","last_reported":1745568867,"current_range_meters":18800,"station_id":"ce4bhi12rcd13ifvqfo0","pricing_plan_id":"cebpf4jnsgd1na2vs0mg"},{"bike_id":"8c26355a-df8a-43a7-b3f3-9910f45b19a0","system_id":"levelo_inurba_marseille","lat":43.305067,"lon":5.36508,"is_reserved":false,"is_disabled":false,"rental_uris":{"android":"levelo://app?vid=8c26355a-df8a-43a7-b3f3-9910f45b19a0","ios":"levelo://app?vid=8c26355a-df8a-43a7-b3f3-9910f45b19a0"},"vehicle_type_id":"4","last_reported":1745568867,"current_range_meters":18800,"station_id":"ce4bgs12rcd13ifvqcag","pricing_plan_id":"cebpf4jnsgd1na2vs0mg"},{"bike_id":"ee08943a-ea78-49bb-a397-b42b8fb7e862","system_id":"levelo_inurba_marseille","lat":43.28603,"lon":5.37064,"is_reserved":false,"is_disabled":false,"rental_uris":{"android":"levelo://app?vid=ee08943a-ea78-49bb-a397-b42b8fb7e862","ios":"levelo://app?vid=ee08943a-ea78-49bb-a397-b42b8fb7e862"},"vehicle_type_id":"4","last_reported":1745568867,"current_range_meters":18800,"station_id":"ce4bht12rcd13ifvqi60","pricing_plan_id":"cebpf4jnsgd1na2vs0mg"},{"bike_id":"c75b0ecf-2815-46e8-a970-e0609ff997a4","system_id":"levelo_inurba_marseille","lat":43.26492,"lon":5.39588,"is_reserved":false,"is_disabled":true,"rental_uris":{"android":"levelo://app?vid=c75b0ecf-2815-46e8-a970-e0609ff997a4","ios":"levelo://app?vid=c75b0ecf-2815-46e8-a970-e0609ff997a4"},"vehicle_type_id":"4","last_reported":1745568867,"current_range_meters":19200,"station_id":"ce4bhi12rcd13ifvqfq0","pricing_plan_id":"cebpf4jnsgd1na2vs0mg"},{"bike_id":"9ae97fd5-0fcb-4d8a-871b-76425dcb8d6b","system_id":"levelo_inurba_marseille","lat":43.28074,"lon":5.39653,"is_reserved":false,"is_disabled":false,"rental_uris":{"android":"levelo://app?vid=9ae97fd5-0fcb-4d8a-871b-76425dcb8d6b","ios":"levelo://app?vid=9ae97fd5-0fcb-4d8a-871b-76425dcb8d6b"},"vehicle_type_id":"4","last_reported":1745568867,"current_range_meters":18800,"station_id":"ce4bho12rcd13ifvqh2g","pricing_plan_id":"cebpf4jnsgd1na2vs0mg"},{"bike_id":"b6cce916-00ab-4b48-90ec-261226219ca7","system_id":"levelo_inurba_marseille","lat":43.29886,"lon":5.38148,"is_reserved":false,"is_disabled":true,"rental_uris":{"android":"levelo://app?vid=b6cce916-00ab-4b48-90ec-261226219ca7","ios":"levelo://app?vid=b6cce916-00ab-4b48-90ec-261226219ca7"},"vehicle_type_id":"4","last_reported":1745568867,"current_range_meters":19200,"station_id":"ce4bgj12rcd13ifvqbc0","pricing_plan_id":"cebpf4jnsgd1na2vs0mg"},{"bike_id":"7c379aec-53b6-4cd7-a0f2-e73a75034457","system_id":"levelo_inurba_marseille","lat":43.24095,"lon":5.3775,"is_reserved":false,"is_disabled":false,"rental_uris":{"android":"levelo://app?vid=7c379aec-53b6-4cd7-a0f2-e73a75034457","ios":"levelo://app?vid=7c379aec-53b6-4cd7-a0f2-e73a75034457"},"vehicle_type_id":"4","last_reported":1745568867,"current_range_meters":19200,"station_id":"ce4bhnp2rcd13ifvqgvg","pricing_plan_id":"cebpf4jnsgd1na2vs0mg"},{"bike_id":"ccdde928-c416-4dd5-8cd1-83350c83f5c0","system_id":"levelo_inurba_marseille","lat":43.29752,"lon":5.37276,"is_reserved":false,"is_disabled":true,"rental_uris":{"android":"levelo://app?vid=ccdde928-c416-4dd5-8cd1-83350c83f5c0","ios":"levelo://app?vid=ccdde928-c416-4dd5-8cd1-83350c83f5c0"},"vehicle_type_id":"4","last_reported":1745568867,"current_range_meters":19200,"station_id":"","pricing_plan_id":"cebpf4jnsgd1na2vs0mg"},{"bike_id":"244bbfbf-97ed-4a83-b6ae-33a828dedf46","system_id":"levelo_inurba_marseille","lat":43.22936,"lon":5.35353,"is_reserved":false,"is_disabled":false,"rental_uris":{"android":"levelo://app?vid=244bbfbf-97ed-4a83-b6ae-33a828dedf46","ios":"levelo://app?vid=244bbfbf-97ed-4a83-b6ae-33a828dedf46"},"vehicle_type_id":"4","last_reported":1745568867,"current_range_meters":19200,"station_id":"cpo3532slgdg3j2ikp40","pricing_plan_id":"cebpf4jnsgd1na2vs0mg"},{"bike_id":"4046a82f-66e8-4b55-bd0a-356edea772d8","system_id":"levelo_inurba_marseille","lat":43.3082,"lon":5.373,"is_reserved":false,"is_disabled":false,"rental_uris":{"android":"levelo://app?vid=4046a82f-66e8-4b55-bd0a-356edea772d8","ios":"levelo://app?vid=4046a82f-66e8-4b55-bd0a-356edea772d8"},"vehicle_type_id":"4","last_reported":1745568867,"current_range_meters":19600,"station_id":"","pricing_plan_id":"cebpf4jnsgd1na2vs0mg"},{"bike_id":"66f4a16c-5526-4170-b0c8-0b023a7e2dde","system_id":"levelo_inurba_marseille","lat":43.31508,"lon":5.3728,"is_reserved":false,"is_disabled":false,"rental_uris":{"android":"levelo://app?vid=66f4a16c-5526-4170-b0c8-0b023a7e2dde","ios":"levelo://app?vid=66f4a16c-5526-4170-b0c8-0b023a7e2dde"},"vehicle_type_id":"4","last_reported":1745568867,"current_range_meters":19600,"station_id":"ce4bgt12rcd13ifvqcd0","pricing_plan_id":"cebpf4jnsgd1na2vs0mg"},{"bike_id":"4d1aee25-8059-4bc3-8150-e56a09e220d8","system_id":"levelo_inurba_marseille","lat":43.290349,"lon":5.375614,"is_reserved":false,"is_disabled":false,"rental_uris":{"android":"levelo://app?vid=4d1aee25-8059-4bc3-8150-e56a09e220d8","ios":"levelo://app?vid=4d1aee25-8059-4bc3-8150-e56a09e220d8"},"vehicle_type_id":"4","last_reported":1745568867,"current_range_meters":19600,"station_id":"ce4bh692rcd13ifvqe90","pricing_plan_id":"cebpf4jnsgd1na2vs0mg"},{"bike_id":"87d230e1-3701-4811-bc52-b6bcde5161e4","system_id":"levelo_inurba_marseille","lat":43.25941,"lon":5.40899,"is_reserved":false,"is_disabled":false,"rental_uris":{"android":"levelo://app?vid=87d230e1-3701-4811-bc52-b6bcde5161e4","ios":"levelo://app?vid=87d230e1-3701-4811-bc52-b6bcde5161e4"},"vehicle_type_id":"4","last_reported":1745568867,"current_range_meters":19600,"station_id":"ce4bhm92rcd13ifvqglg","pricing_plan_id":"cebpf4jnsgd1na2vs0mg"},{"bike_id":"6722f89b-3919-4bf3-9c68-82ece256a835","system_id":"levelo_inurba_marseille","lat":43.25594,"lon":5.38232,"is_reserved":false,"is_disabled":false,"rental_uris":{"android":"levelo://app?vid=6722f89b-3919-4bf3-9c68-82ece256a835","ios":"levelo://app?vid=6722f89b-3919-4bf3-9c68-82ece256a835"},"vehicle_type_id":"4","last_reported":1745568867,"current_range_meters":19600,"station_id":"ce4bhih2rcd13ifvqfs0","pricing_plan_id":"cebpf4jnsgd1na2vs0mg"},{"bike_id":"65b5ec7d-f670-4827-82ae-2ac8decd52bb","system_id":"levelo_inurba_marseille","lat":43.3055,"lon":5.3652,"is_reserved":false,"is_disabled":false,"rental_uris":{"android":"levelo://app?vid=65b5ec7d-f670-4827-82ae-2ac8decd52bb","ios":"levelo://app?vid=65b5ec7d-f670-4827-82ae-2ac8decd52bb"},"vehicle_type_id":"4","last_reported":1745568867,"current_range_meters":19600,"station_id":"ce4bgs12rcd13ifvqcag","pricing_plan_id":"cebpf4jnsgd1na2vs0mg"},{"bike_id":"f1ac634c-7a0d-4ce2-b92f-26a2bd593acc","system_id":"levelo_inurba_marseille","lat":43.30936,"lon":5.36861,"is_reserved":false,"is_disabled":true,"rental_uris":{"android":"levelo://app?vid=f1ac634c-7a0d-4ce2-b92f-26a2bd593acc","ios":"levelo://app?vid=f1ac634c-7a0d-4ce2-b92f-26a2bd593acc"},"vehicle_type_id":"4","last_reported":1745568867,"current_range_meters":20000,"station_id":"ce4bgn92rcd13ifvqbvg","pricing_plan_id":"cebpf4jnsgd1na2vs0mg"},{"bike_id":"d6984a43-8e53-40cf-83e0-ee5aafaf8f9e","system_id":"levelo_inurba_marseille","lat":43.292669,"lon":5.384214,"is_reserved":false,"is_disabled":false,"rental_uris":{"android":"levelo://app?vid=d6984a43-8e53-40cf-83e0-ee5aafaf8f9e","ios":"levelo://app?vid=d6984a43-8e53-40cf-83e0-ee5aafaf8f9e"},"vehicle_type_id":"4","last_reported":1745568867,"current_range_meters":20000,"station_id":"ce4bhr12rcd13ifvqhqg","pricing_plan_id":"cebpf4jnsgd1na2vs0mg"},{"bike_id":"9c9c110e-8bcb-46ac-980c-f056c1666c27","system_id":"levelo_inurba_marseille","lat":43.26211,"lon":5.37924,"is_reserved":false,"is_disabled":true,"rental_uris":{"android":"levelo://app?vid=9c9c110e-8bcb-46ac-980c-f056c1666c27","ios":"levelo://app?vid=9c9c110e-8bcb-46ac-980c-f056c1666c27"},"vehicle_type_id":"4","last_reported":1745568867,"current_range_meters":20000,"station_id":"ce4bhjp2rcd13ifvqg90","pricing_plan_id":"cebpf4jnsgd1na2vs0mg"},{"bike_id":"06f520f3-d418-4a90-a344-16c2a2ea8439","system_id":"levelo_inurba_marseille","lat":43.26575,"lon":5.39009,"is_reserved":false,"is_disabled":false,"rental_uris":{"android":"levelo://app?vid=06f520f3-d418-4a90-a344-16c2a2ea8439","ios":"levelo://app?vid=06f520f3-d418-4a90-a344-16c2a2ea8439"},"vehicle_type_id":"4","last_reported":1745568867,"current_range_meters":20400,"station_id":"ce4bhe12rcd13ifvqf30","pricing_plan_id":"cebpf4jnsgd1na2vs0mg"},{"bike_id":"4b396e98-17eb-4334-b1bb-ed304edfd695","system_id":"levelo_inurba_marseille","lat":43.29026,"lon":5.37565,"is_reserved":false,"is_disabled":false,"rental_uris":{"android":"levelo://app?vid=4b396e98-17eb-4334-b1bb-ed304edfd695","ios":"levelo://app?vid=4b396e98-17eb-4334-b1bb-ed304edfd695"},"vehicle_type_id":"4","last_reported":1745568867,"current_range_meters":20400,"station_id":"ce4bh692rcd13ifvqe90","pricing_plan_id":"cebpf4jnsgd1na2vs0mg"},{"bike_id":"55d398a3-721f-467f-9cb1-b4d8b9bc7f64","system_id":"levelo_inurba_marseille","lat":43.24072,"lon":5.37739,"is_reserved":false,"is_disabled":false,"rental_uris":{"android":"levelo://app?vid=55d398a3-721f-467f-9cb1-b4d8b9bc7f64","ios":"levelo://app?vid=55d398a3-721f-467f-9cb1-b4d8b9bc7f64"},"vehicle_type_id":"4","last_reported":1745568867,"current_range_meters":20400,"station_id":"ce4bhnp2rcd13ifvqgvg","pricing_plan_id":"cebpf4jnsgd1na2vs0mg"},{"bike_id":"fb81db3c-12e2-44b7-8142-2689708da6f1","system_id":"levelo_inurba_marseille","lat":43.30921,"lon":5.37185,"is_reserved":false,"is_disabled":false,"rental_uris":{"android":"levelo://app?vid=fb81db3c-12e2-44b7-8142-2689708da6f1","ios":"levelo://app?vid=fb81db3c-12e2-44b7-8142-2689708da6f1"},"vehicle_type_id":"4","last_reported":1745568867,"current_range_meters":20400,"station_id":"ce4bguh2rcd13ifvqckg","pricing_plan_id":"cebpf4jnsgd1na2vs0mg"},{"bike_id":"652c7b44-220c-4b32-8b64-ae95d0ad1640","system_id":"levelo_inurba_marseille","lat":43.23196,"lon":5.35549,"is_reserved":false,"is_disabled":true,"rental_uris":{"android":"levelo://app?vid=652c7b44-220c-4b32-8b64-ae95d0ad1640","ios":"levelo://app?vid=652c7b44-220c-4b32-8b64-ae95d0ad1640"},"vehicle_type_id":"4","last_reported":1745568867,"current_range_meters":20400,"station_id":"ce4bhu92rcd13ifvqi70","pricing_plan_id":"cebpf4jnsgd1na2vs0mg"},{"bike_id":"0390d0f3-6da8-4b4c-b55e-9bb2cefe45c4","system_id":"levelo_inurba_marseille","lat":43.28568,"lon":5.40073,"is_reserved":false,"is_disabled":false,"rental_uris":{"android":"levelo://app?vid=0390d0f3-6da8-4b4c-b55e-9bb2cefe45c4","ios":"levelo://app?vid=0390d0f3-6da8-4b4c-b55e-9bb2cefe45c4"},"vehicle_type_id":"4","last_reported":1745568867,"current_range_meters":20400,"station_id":"","pricing_plan_id":"cebpf4jnsgd1na2vs0mg"},{"bike_id":"e92565b1-0dda-4426-8c0d-cf38ecdda8a2","system_id":"levelo_inurba_marseille","lat":43.2177,"lon":5.3461,"is_reserved":false,"is_disabled":false,"rental_uris":{"android":"levelo://app?vid=e92565b1-0dda-4426-8c0d-cf38ecdda8a2","ios":"levelo://app?vid=e92565b1-0dda-4426-8c0d-cf38ecdda8a2"},"vehicle_type_id":"4","last_reported":1745568867,"current_range_meters":20400,"station_id":"st_cvj6r9ubvosntc0bgbag","pricing_plan_id":"cebpf4jnsgd1na2vs0mg"},{"bike_id":"fbf3750d-6248-438c-bdc8-e7db0beafbd0","system_id":"levelo_inurba_marseille","lat":43.31361,"lon":5.36723,"is_reserved":false,"is_disabled":false,"rental_uris":{"android":"levelo://app?vid=fbf3750d-6248-438c-bdc8-e7db0beafbd0","ios":"levelo://app?vid=fbf3750d-6248-438c-bdc8-e7db0beafbd0"},"vehicle_type_id":"4","last_reported":1745568867,"current_range_meters":20400,"station_id":"ce4bgr92rcd13ifvqc6g","pricing_plan_id":"cebpf4jnsgd1na2vs0mg"},{"bike_id":"4f8b5203-5043-4c31-bf48-4803da59ec66","system_id":"levelo_inurba_marseille","lat":43.25928,"lon":5.40906,"is_reserved":false,"is_disabled":false,"rental_uris":{"android":"levelo://app?vid=4f8b5203-5043-4c31-bf48-4803da59ec66","ios":"levelo://app?vid=4f8b5203-5043-4c31-bf48-4803da59ec66"},"vehicle_type_id":"4","last_reported":1745568867,"current_range_meters":20400,"station_id":"ce4bhm92rcd13ifvqglg","pricing_plan_id":"cebpf4jnsgd1na2vs0mg"},{"bike_id":"d9f26a3a-6ecb-49b8-b29e-ece4a2fb518e","system_id":"levelo_inurba_marseille","lat":43.30301,"lon":5.36906,"is_reserved":false,"is_disabled":false,"rental_uris":{"android":"levelo://app?vid=d9f26a3a-6ecb-49b8-b29e-ece4a2fb518e","ios":"levelo://app?vid=d9f26a3a-6ecb-49b8-b29e-ece4a2fb518e"},"vehicle_type_id":"4","last_reported":1745568867,"current_range_meters":20800,"station_id":"ce4bgqh2rcd13ifvqc5g","pricing_plan_id":"cebpf4jnsgd1na2vs0mg"},{"bike_id":"82fc0d6e-6ff9-4435-939d-4e38481aaeb3","system_id":"levelo_inurba_marseille","lat":43.31304,"lon":5.36725,"is_reserved":false,"is_disabled":false,"rental_uris":{"android":"levelo://app?vid=82fc0d6e-6ff9-4435-939d-4e38481aaeb3","ios":"levelo://app?vid=82fc0d6e-6ff9-4435-939d-4e38481aaeb3"},"vehicle_type_id":"4","last_reported":1745568867,"current_range_meters":20800,"station_id":"ce4bgr92rcd13ifvqc6g","pricing_plan_id":"cebpf4jnsgd1na2vs0mg"},{"bike_id":"10d5af3e-2e07-44a9-a364-a82fb87e7796","system_id":"levelo_inurba_marseille","lat":43.25926,"lon":5.40905,"is_reserved":false,"is_disabled":false,"rental_uris":{"android":"levelo://app?vid=10d5af3e-2e07-44a9-a364-a82fb87e7796","ios":"levelo://app?vid=10d5af3e-2e07-44a9-a364-a82fb87e7796"},"vehicle_type_id":"4","last_reported":1745568867,"current_range_meters":20800,"station_id":"ce4bhm92rcd13ifvqglg","pricing_plan_id":"cebpf4jnsgd1na2vs0mg"},{"bike_id":"8d591507-5fba-42c1-afce-edb828d3dd11","system_id":"levelo_inurba_marseille","lat":43.2593,"lon":5.40913,"is_reserved":false,"is_disabled":false,"rental_uris":{"android":"levelo://app?vid=8d591507-5fba-42c1-afce-edb828d3dd11","ios":"levelo://app?vid=8d591507-5fba-42c1-afce-edb828d3dd11"},"vehicle_type_id":"4","last_reported":1745568867,"current_range_meters":20800,"station_id":"ce4bhm92rcd13ifvqglg","pricing_plan_id":"cebpf4jnsgd1na2vs0mg"},{"bike_id":"ac4a2b87-6150-42f0-8128-d8b317342441","system_id":"levelo_inurba_marseille","lat":43.27682,"lon":5.38901,"is_reserved":false,"is_disabled":false,"rental_uris":{"android":"levelo://app?vid=ac4a2b87-6150-42f0-8128-d8b317342441","ios":"levelo://app?vid=ac4a2b87-6150-42f0-8128-d8b317342441"},"vehicle_type_id":"4","last_reported":1745568867,"current_range_meters":20800,"station_id":"ce4bhi12rcd13ifvqfo0","pricing_plan_id":"cebpf4jnsgd1na2vs0mg"},{"bike_id":"8bee930d-a21d-415c-b1bd-854765a70995","system_id":"levelo_inurba_marseille","lat":43.30277,"lon":5.40081,"is_reserved":false,"is_disabled":false,"rental_uris":{"android":"levelo://app?vid=8bee930d-a21d-415c-b1bd-854765a70995","ios":"levelo://app?vid=8bee930d-a21d-415c-b1bd-854765a70995"},"vehicle_type_id":"4","last_reported":1745568867,"current_range_meters":20800,"station_id":"ce4bgvh2rcd13ifvqcs0","pricing_plan_id":"cebpf4jnsgd1na2vs0mg"},{"bike_id":"b0c707d0-3db8-4d92-9fb4-e63c5f99eb7f","system_id":"levelo_inurba_marseille","lat":43.31484,"lon":5.37303,"is_reserved":false,"is_disabled":false,"rental_uris":{"android":"levelo://app?vid=b0c707d0-3db8-4d92-9fb4-e63c5f99eb7f","ios":"levelo://app?vid=b0c707d0-3db8-4d92-9fb4-e63c5f99eb7f"},"vehicle_type_id":"4","last_reported":1745568867,"current_range_meters":21600,"station_id":"ce4bgt12rcd13ifvqcd0","pricing_plan_id":"cebpf4jnsgd1na2vs0mg"},{"bike_id":"8f7ee3a3-f5a3-4986-b02d-2b4b7831b364","system_id":"levelo_inurba_marseille","lat":43.30604,"lon":5.39361,"is_reserved":false,"is_disabled":false,"rental_uris":{"android":"levelo://app?vid=8f7ee3a3-f5a3-4986-b02d-2b4b7831b364","ios":"levelo://app?vid=8f7ee3a3-f5a3-4986-b02d-2b4b7831b364"},"vehicle_type_id":"4","last_reported":1745568867,"current_range_meters":21600,"station_id":"ce4bh0p2rcd13ifvqd80","pricing_plan_id":"cebpf4jnsgd1na2vs0mg"},{"bike_id":"4554acac-2823-47ac-833d-98402add9318","system_id":"levelo_inurba_marseille","lat":43.31369,"lon":5.384938,"is_reserved":false,"is_disabled":false,"rental_uris":{"android":"levelo://app?vid=4554acac-2823-47ac-833d-98402add9318","ios":"levelo://app?vid=4554acac-2823-47ac-833d-98402add9318"},"vehicle_type_id":"4","last_reported":1745568867,"current_range_meters":21600,"station_id":"ce4bgt92rcd13ifvqcf0","pricing_plan_id":"cebpf4jnsgd1na2vs0mg"},{"bike_id":"0ba6b97f-7600-4f0a-9781-84cdb028c126","system_id":"levelo_inurba_marseille","lat":43.27505,"lon":5.42474,"is_reserved":false,"is_disabled":false,"rental_uris":{"android":"levelo://app?vid=0ba6b97f-7600-4f0a-9781-84cdb028c126","ios":"levelo://app?vid=0ba6b97f-7600-4f0a-9781-84cdb028c126"},"vehicle_type_id":"4","last_reported":1745568867,"current_range_meters":21600,"station_id":"ce4bhn92rcd13ifvqgrg","pricing_plan_id":"cebpf4jnsgd1na2vs0mg"},{"bike_id":"57836368-6377-4cf5-b7f5-1d56f40a53fe","system_id":"levelo_inurba_marseille","lat":43.26926,"lon":5.38911,"is_reserved":false,"is_disabled":false,"rental_uris":{"android":"levelo://app?vid=57836368-6377-4cf5-b7f5-1d56f40a53fe","ios":"levelo://app?vid=57836368-6377-4cf5-b7f5-1d56f40a53fe"},"vehicle_type_id":"4","last_reported":1745568867,"current_range_meters":21600,"station_id":"ce4bhhh2rcd13ifvqfl0","pricing_plan_id":"cebpf4jnsgd1na2vs0mg"},{"bike_id":"c43ab4af-b5ca-4d94-81a0-f662fa643c1b","system_id":"levelo_inurba_marseille","lat":43.292674,"lon":5.384313,"is_reserved":false,"is_disabled":false,"rental_uris":{"android":"levelo://app?vid=c43ab4af-b5ca-4d94-81a0-f662fa643c1b","ios":"levelo://app?vid=c43ab4af-b5ca-4d94-81a0-f662fa643c1b"},"vehicle_type_id":"4","last_reported":1745568867,"current_range_meters":22000,"station_id":"ce4bgup2rcd13ifvqco0","pricing_plan_id":"cebpf4jnsgd1na2vs0mg"},{"bike_id":"3a2924ee-1c38-472f-92a9-beb595f78e9b","system_id":"levelo_inurba_marseille","lat":43.33592,"lon":5.40989,"is_reserved":false,"is_disabled":false,"rental_uris":{"android":"levelo://app?vid=3a2924ee-1c38-472f-92a9-beb595f78e9b","ios":"levelo://app?vid=3a2924ee-1c38-472f-92a9-beb595f78e9b"},"vehicle_type_id":"4","last_reported":1745568867,"current_range_meters":22000,"station_id":"ce4bhqh2rcd13ifvqhmg","pricing_plan_id":"cebpf4jnsgd1na2vs0mg"},{"bike_id":"1e587bf5-5819-4582-9d83-edc822ba3e2b","system_id":"levelo_inurba_marseille","lat":43.26927,"lon":5.38926,"is_reserved":false,"is_disabled":false,"rental_uris":{"android":"levelo://app?vid=1e587bf5-5819-4582-9d83-edc822ba3e2b","ios":"levelo://app?vid=1e587bf5-5819-4582-9d83-edc822ba3e2b"},"vehicle_type_id":"4","last_reported":1745568867,"current_range_meters":22000,"station_id":"ce4bhhh2rcd13ifvqfl0","pricing_plan_id":"cebpf4jnsgd1na2vs0mg"},