{"last_updated":1762369705,"ttl":60,"version":"2.2","data":{"bikes":[{"bike_id":"b7c5e96f-2666-418c-b8cc-36dfc613348c","system_id":"levelo_inurba_marseille","lat":43.337444,"lon":5.374475,"is_reserved":false,"is_disabled":false,"rental_uris":{"android":"levelo://app?vid=b7c5e96f-2666-418c-b8cc-36dfc613348c","ios":"levelo://app?vid=b7c5e96f-2666-418c-b8cc-36dfc613348c"},"vehicle_type_id":"4","last_reported":1762369705,"current_range_meters":0,"station_id":"","pricing_plan_id":"cebpf4jnsgd1na2vs0mg"},{"bike_id":"9c46a9f5-39cb-461a-ac28-286dc216524b","system_id":"levelo_inurba_marseille","lat":43.337444,"lon":5.374475,"is_reserved":false,"is_disabled":false,"rental_uris":{"android":"levelo://app?vid=9c46a9f5-39cb-461a-ac28-286dc216524b","ios":"levelo://app?vid=9c46a9f5-39cb-461a-ac28-286dc216524b"},"vehicle_type_id":"4","last_reported":1762369705,"current_range_meters":0,"station_id":"","pricing_plan_id":"cebpf4jnsgd1na2vs0mg"},{"bike_id":"2aa95e42-5a8c-4825-81d0-40d356e0168e","system_id":"levelo_inurba_marseille","lat":43.337444,"lon":5.374475,"is_reserved":false,"is_disabled":false,"rental_uris":{"android":"levelo://app?vid=2aa95e42-5a8c-4825-81d0-40d356e0168e","ios":"levelo://app?vid=2aa95e42-5a8c-4825-81d0-40d356e0168e"},"vehicle_type_id":"4","last_reported":1762369705,"current_range_meters":0,"station_id":"","pricing_plan_id":"cebpf4jnsgd1na2vs0mg"},{"bike_id":"23f7c00c-abd3-4b9e-b454-b625ef68ddce","system_id":"levelo_inurba_marseille","lat":43.337444,"lon":5.374475,"is_reserved":false,"is_disabled":false,"rental_uris":{"android":"levelo://app?vid=23f7c00c-abd3-4b9e-b454-b625ef68ddce","ios":"levelo://app?vid=23f7c00c-abd3-4b9e-b454-b625ef68ddce"},"vehicle_type_id":"4","last_reported":1762369705,"current_range_meters":0,"station_id":"","pricing_plan_id":"cebpf4jnsgd1na2vs0mg"},{"bike_id":"a3451d83-9c80-4ffa-96f9-a14c25634465","system_id":"levelo_inurba_marseille","lat":43.337444,"lon":5.374475,"is_reserved":false,"is_disabled":false,"rental_uris":{"android":"levelo://app?vid=a3451d83-9c80-4ffa-96f9-a14c25634465","ios":"levelo://app?vid=a3451d83-9c80-4ffa-96f9-a14c25634465"},"vehicle_type_id":"4","last_reported":1762369705,"current_range_meters":0,"station_id":"","pricing_plan_id":"cebpf4jnsgd1na2vs0mg"},{"bike_id":"19649598-fd0f-4237-a302-8b748132eb30","system_id":"levelo_inurba_marseille","lat":43.337444,"lon":5.374475,"is_reserved":false,"is_disabled":false,"rental_uris":{"android":"levelo://app?vid=19649598-fd0f-4237-a302-8b748132eb30","ios":"levelo://app?vid=19649598-fd0f-4237-a302-8b748132eb30"},"vehicle_type_id":"4","last_reported":1762369705,"current_range_meters":0,"station_id":"","pricing_plan_id":"cebpf4jnsgd1na2vs0mg"},{"bike_id":"79f0199f-1fbb-40b2-9337-191d82b520a7","system_id":"levelo_inurba_marseille","lat":43.337444,"lon":5.374475,"is_reserved":false,"is_disabled":false,"rental_uris":{"android":"levelo://app?vid=79f0199f-1fbb-40b2-9337-191d82b520a7","ios":"levelo://app?vid=79f0199f-1fbb-40b2-9337-191d82b520a7"},"vehicle_type_id":"4","last_reported":1762369705,"current_range_meters":0,"station_id":"","pricing_plan_id":"cebpf4jnsgd1na2vs0mg"},{"bike_id":"34a0d96e-bbf5-4ab6-8de8-a56cc767fd57","system_id":"levelo_inurba_marseille","lat":43.337444,"lon":5.374475,"is_reserved":false,"is_disabled":false,"rental_uris":{"android":"levelo://app?vid=34a0d96e-bbf5-4ab6-8de8-a56cc767fd57","ios":"levelo://app?vid=34a0d96e-bbf5-4ab6-8de8-a56cc767fd57"},"vehicle_type_id":"4","last_reported":1762369705,"current_range_meters":0,"station_id":"","pricing_plan_id":"cebpf4jnsgd1na2vs0mg"},{"bike_id":"30c4756b-2e3a-4ac9-b1fb-aa08283eecaa","system_id":"levelo_inurba_marseille","lat":43.337444,"lon":5.374475,"is_reserved":false,"is_disabled":false,"rental_uris":{"android":"levelo://app?vid=30c4756b-2e3a-4ac9-b1fb-aa08283eecaa","ios":"levelo://app?vid=30c4756b-2e3a-4ac9-b1fb-aa08283eecaa"},"vehicle_type_id":"4","last_reported":1762369705,"current_range_meters":0,"station_id":"","pricing_plan_id":"cebpf4jnsgd1na2vs0mg"},{"bike_id":"cb5b6ee7-3ef8-4299-a38d-cc32f035098b","system_id":"levelo_inurba_marseille","lat":43.337444,"lon":5.374475,"is_reserved":false,"is_disabled":false,"rental_uris":{"android":"levelo://app?vid=cb5b6ee7-3ef8-4299-a38d-cc32f035098b","ios":"levelo://app?vid=cb5b6ee7-3ef8-4299-a38d-cc32f035098b"},"vehicle_type_id":"4","last_reported":1762369705,"current_range_meters":0,"station_id":"","pricing_plan_id":"cebpf4jnsgd1na2vs0mg"},{"bike_id":"0dbf8834-1963-4427-879a-60d5139a1252","system_id":"levelo_inurba_marseille","lat":43.337444,"lon":5.374475,"is_reserved":false,"is_disabled":false,"rental_uris":{"android":"levelo://app?vid=0dbf8834-1963-4427-879a-60d5139a1252","ios":"levelo://app?vid=0dbf8834-1963-4427-879a-60d5139a1252"},"vehicle_type_id":"4","last_reported":1762369705,"current_range_meters":0,"station_id":"","pricing_plan_id":"cebpf4jnsgd1na2vs0mg"},{"bike_id":"c3d3ce5c-8075-4b42-9455-beadd1468f17","system_id":"levelo_inurba_marseille","lat":43.337444,"lon":5.374475,"is_reserved":false,"is_disabled":false,"rental_uris":{"android":"levelo://app?vid=c3d3ce5c-8075-4b42-9455-beadd1468f17","ios":"levelo://app?vid=c3d3ce5c-8075-4b42-9455-beadd1468f17"},"vehicle_type_id":"4","last_reported":1762369705,"current_range_meters":0,"station_id":"","pricing_plan_id":"cebpf4jnsgd1na2vs0mg"},{"bike_id":"2177a091-7ad7-4fcd-ad08-e78406d1a8ef","system_id":"levelo_inurba_marseille","lat":43.337444,"lon":5.374475,"is_reserved":false,"is_disabled":false,"rental_uris":{"android":"levelo://app?vid=2177a091-7ad7-4fcd-ad08-e78406d1a8ef","ios":"levelo://app?vid=2177a091-7ad7-4fcd-ad08-e78406d1a8ef"},"vehicle_type_id":"4","last_reported":1762369705,"current_range_meters":0,"station_id":"","pricing_plan_id":"cebpf4jnsgd1na2vs0mg"},{"bike_id":"ed2dc6ad-7a96-47d2-b4d0-3deee38fd62c","system_id":"levelo_inurba_marseille","lat":43.337444,"lon":5.374475,"is_reserved":false,"is_disabled":false,"rental_uris":{"android":"levelo://app?vid=ed2dc6ad-7a96-47d2-b4d0-3deee38fd62c","ios":"levelo://app?vid=ed2dc6ad-7a96-47d2-b4d0-3deee38fd62c"},"vehicle_type_id":"4","last_reported":1762369705,"current_range_meters":0,"station_id":"","pricing_plan_id":"cebpf4jnsgd1na2vs0mg"},{"bike_id":"42735ee1-244b-4d96-8480-f9806199924f","system_id":"levelo_inurba_marseille","lat":43.337444,"lon":5.374475,"is_reserved":false,"is_disabled":false,"rental_uris":{"android":"levelo://app?vid=42735ee1-244b-4d96-8480-f9806199924f","ios":"levelo://app?vid=42735ee1-244b-4d96-8480-f9806199924f"},"vehicle_type_id":"4","last_reported":1762369705,"current_range_meters":0,"station_id":"","pricing_plan_id":"cebpf4jnsgd1na2vs0mg"},{"bike_id":"0d7ab61a-02ec-456f-ab23-ba92f34594d5","system_id":"levelo_inurba_marseille","lat":43.337444,"lon":5.374475,"is_reserved":false,"is_disabled":false,"rental_uris":{"android":"levelo://app?vid=0d7ab61a-02ec-456f-ab23-ba92f34594d5","ios":"levelo://app?vid=0d7ab61a-02ec-456f-ab23-ba92f34594d5"},"vehicle_type_id":"4","last_reported":1762369705,"current_range_meters":0,"station_id":"","pricing_plan_id":"cebpf4jnsgd1na2vs0mg"},{"bike_id":"f68022fa-eb0a-4aac-8aea-6f2e14d0afb9","system_id":"levelo_inurba_marseille","lat":43.337444,"lon":5.374475,"is_reserved":false,"is_disabled":false,"rental_uris":{"android":"levelo://app?vid=f68022fa-eb0a-4aac-8aea-6f2e14d0afb9","ios":"levelo://app?vid=f68022fa-eb0a-4aac-8aea-6f2e14d0afb9"},"vehicle_type_id":"4","last_reported":1762369705,"current_range_meters":0,"station_id":"","pricing_plan_id":"cebpf4jnsgd1na2vs0mg"},{"bike_id":"386a9781-f1f4-4d33-8679-4d1163c3b9de","system_id":"levelo_inurba_marseille","lat":43.337444,"lon":5.374475,"is_reserved":false,"is_disabled":false,"rental_uris":{"android":"levelo://app?vid=386a9781-f1f4-4d33-8679-4d1163c3b9de","ios":"levelo://app?vid=386a9781-f1f4-4d33-8679-4d1163c3b9de"},"vehicle_type_id":"4","last_reported":1762369705,"current_range_meters":0,"station_id":"","pricing_plan_id":"cebpf4jnsgd1na2vs0mg"},{"bike_id":"4692d694-8a80-47c7-a7c6-1264ca94c6df","system_id":"levelo_inurba_marseille","lat":43.337444,"lon":5.374475,"is_reserved":false,"is_disabled":false,"rental_uris":{"android":"levelo://app?vid=4692d694-8a80-47c7-a7c6-1264ca94c6df","ios":"levelo://app?vid=4692d694-8a80-47c7-a7c6-1264ca94c6df"},"vehicle_type_id":"4","last_reported":1762369705,"current_range_meters":0,"station_id":"","pricing_plan_id":"cebpf4jnsgd1na2vs0mg"},{"bike_id":"4706d18d-408c-4dc1-a44f-b0f99f27bdf0","system_id":"levelo_inurba_marseille","lat":43.337444,"lon":5.374475,"is_reserved":false,"is_disabled":false,"rental_uris":{"android":"levelo://app?vid=4706d18d-408c-4dc1-a44f-b0f99f27bdf0","ios":"levelo://app?vid=4706d18d-408c-4dc1-a44f-b0f99f27bdf0"},"vehicle_type_id":"4","last_reported":1762369705,"current_range_meters":0,"station_id":"","pricing_plan_id":"cebpf4jnsgd1na2vs0mg"},{"bike_id":"abb77335-fe7b-4b75-9b2f-be4bb45cbb0d","system_id":"levelo_inurba_marseille","lat":43.337444,"lon":5.374475,"is_reserved":false,"is_disabled":false,"rental_uris":{"android":"levelo://app?vid=abb77335-fe7b-4b75-9b2f-be4bb45cbb0d","ios":"levelo://app?vid=abb77335-fe7b-4b75-9b2f-be4bb45cbb0d"},"vehicle_type_id":"4","last_reported":1762369705,"current_range_meters":0,"station_id":"","pricing_plan_id":"cebpf4jnsgd1na2vs0mg"},{"bike_id":"4bde9393-6919-41f3-8fef-f4b40f375cc0","system_id":"levelo_inurba_marseille","lat":43.337444,"lon":5.374475,"is_reserved":false,"is_disabled":false,"rental_uris":{"android":"levelo://app?vid=4bde9393-6919-41f3-8fef-f4b40f375cc0","ios":"levelo://app?vid=4bde9393-6919-41f3-8fef-f4b40f375cc0"},"vehicle_type_id":"4","last_reported":1762369705,"current_range_meters":0,"station_id":"","pricing_plan_id":"cebpf4jnsgd1na2vs0mg"},{"bike_id":"51f4e824-5009-4c5b-9283-cfda2d34404c","system_id":"levelo_inurba_marseille","lat":43.337444,"lon":5.374475,"is_reserved":false,"is_disabled":false,"rental_uris":{"android":"levelo://app?vid=51f4e824-5009-4c5b-9283-cfda2d34404c","ios":"levelo://app?vid=51f4e824-5009-4c5b-9283-cfda2d34404c"},"vehicle_type_id":"4","last_reported":1762369705,"current_range_meters":0,"station_id":"","pricing_plan_id":"cebpf4jnsgd1na2vs0mg"},{"bike_id":"d155d58c-f50a-4469-b126-b5af1b8d3f8a","system_id":"levelo_inurba_marseille","lat":43.337444,"lon":5.374475,"is_reserved":false,"is_disabled":false,"rental_uris":{"android":"levelo://app?vid=d155d58c-f50a-4469-b126-b5af1b8d3f8a","ios":"levelo://app?vid=d155d58c-f50a-4469-b126-b5af1b8d3f8a"},"vehicle_type_id":"4","last_reported":1762369705,"current_range_meters":0,"station_id":"","pricing_plan_id":"cebpf4jnsgd1na2vs0mg"},{"bike_id":"16f471c2-a8ed-4e61-ba2a-d83085a9c284","system_id":"levelo_inurba_marseille","lat":43.337444,"lon":5.374475,"is_reserved":false,"is_disabled":false,"rental_uris":{"android":"levelo://app?vid=16f471c2-a8ed-4e61-ba2a-d83085a9c284","ios":"levelo://app?vid=16f471c2-a8ed-4e61-ba2a-d83085a9c284"},"vehicle_type_id":"4","last_reported":1762369705,"current_range_meters":0,"station_id":"","pricing_plan_id":"cebpf4jnsgd1na2vs0mg"},{"bike_id":"b8bd4cc4-f519-43de-b194-2cc2cf75483c","system_id":"levelo_inurba_marseille","lat":43.337444,"lon":5.374475,"is_reserved":false,"is_disabled":false,"rental_uris":{"android":"levelo://app?vid=b8bd4cc4-f519-43de-b194-2cc2cf75483c","ios":"levelo://app?vid=b8bd4cc4-f519-43de-b194-2cc2cf75483c"},"vehicle_type_id":"4","last_reported":1762369705,"current_range_meters":0,"station_id":"","pricing_plan_id":"cebpf4jnsgd1na2vs0mg"},{"bike_id":"591b062c-0423-40a0-9120-f7c30f97e98f","system_id":"levelo_inurba_marseille","lat":43.337444,"lon":5.374475,"is_reserved":false,"is_disabled":false,"rental_uris":{"android":"levelo://app?vid=591b062c-0423-40a0-9120-f7c30f97e98f","ios":"levelo://app?vid=591b062c-0423-40a0-9120-f7c30f97e98f"},"vehicle_type_id":"4","last_reported":1762369705,"current_range_meters":0,"station_id":"","pricing_plan_id":"cebpf4jnsgd1na2vs0mg"},{"bike_id":"8fbb8d57-565e-4232-a867-846a316b3375","system_id":"levelo_inurba_marseille","lat":43.337444,"lon":5.374475,"is_reserved":false,"is_disabled":false,"rental_uris":{"android":"levelo://app?vid=8fbb8d57-565e-4232-a867-846a316b3375","ios":"levelo://app?vid=8fbb8d57-565e-4232-a867-846a316b3375"},"vehicle_type_id":"4","last_reported":1762369705,"current_range_meters":0,"station_id":"","pricing_plan_id":"cebpf4jnsgd1na2vs0mg"},{"bike_id":"e6134458-396f-46c5-87ab-a79cf2b6424c","system_id":"levelo_inurba_marseille","lat":43.337444,"lon":5.374475,"is_reserved":false,"is_disabled":false,"rental_uris":{"android":"levelo://app?vid=e6134458-396f-46c5-87ab-a79cf2b6424c","ios":"levelo://app?vid=e6134458-396f-46c5-87ab-a79cf2b6424c"},"vehicle_type_id":"4","last_reported":1762369705,"current_range_meters":0,"station_id":"","pricing_plan_id":"cebpf4jnsgd1na2vs0mg"},{"bike_id":"0a0d4295-fe5b-4614-b2ca-f5579d5190b0","system_id":"levelo_inurba_marseille","lat":43.337444,"lon":5.374475,"is_reserved":false,"is_disabled":false,"rental_uris":{"android":"levelo://app?vid=0a0d4295-fe5b-4614-b2ca-f5579d5190b0","ios":"levelo://app?vid=0a0d4295-fe5b-4614-b2ca-f5579d5190b0"},"vehicle_type_id":"4","last_reported":1762369705,"current_range_meters":0,"station_id":"","pricing_plan_id":"cebpf4jnsgd1na2vs0mg"},{"bike_id":"df901744-052b-4596-be21-45d27cbc1916","system_id":"levelo_inurba_marseille","lat":43.285106,"lon":5.440351,"is_reserved":false,"is_disabled":false,"rental_uris":{"android":"levelo://app?vid=df901744-052b-4596-be21-45d27cbc1916","ios":"levelo://app?vid=df901744-052b-4596-be21-45d27cbc1916"},"vehicle_type_id":"4","last_reported":1762369705,"current_range_meters":2800,"station_id":"ce4bgkh2rcd13ifvqbk0","pricing_plan_id":"cebpf4jnsgd1na2vs0mg"},{"bike_id":"84b341c3-76b9-44cb-9d40-b5ae06e5bf9e","system_id":"levelo_inurba_marseille","lat":43.295333,"lon":5.385557,"is_reserved":false,"is_disabled":false,"rental_uris":{"android":"levelo://app?vid=84b341c3-76b9-44cb-9d40-b5ae06e5bf9e","ios":"levelo://app?vid=84b341c3-76b9-44cb-9d40-b5ae06e5bf9e"},"vehicle_type_id":"4","last_reported":1762369705,"current_range_meters":2800,"station_id":"ce4bgih2rcd13ifvqba0","pricing_plan_id":"cebpf4jnsgd1na2vs0mg"},{"bike_id":"eade12e0-ab03-4acb-8389-8451ad9859ac","system_id":"levelo_inurba_marseille","lat":43.27328,"lon":5.39106,"is_reserved":false,"is_disabled":false,"rental_uris":{"android":"levelo://app?vid=eade12e0-ab03-4acb-8389-8451ad9859ac","ios":"levelo://app?vid=eade12e0-ab03-4acb-8389-8451ad9859ac"},"vehicle_type_id":"4","last_reported":1762369705,"current_range_meters":2800,"station_id":"ce4bhgp2rcd13ifvqfe0","pricing_plan_id":"cebpf4jnsgd1na2vs0mg"},{"bike_id":"4206fd1c-fca5-4468-81b6-1c50d2a4a589","system_id":"levelo_inurba_marseille","lat":43.29783,"lon":5.43811,"is_reserved":false,"is_disabled":false,"rental_uris":{"android":"levelo://app?vid=4206fd1c-fca5-4468-81b6-1c50d2a4a589","ios":"levelo://app?vid=4206fd1c-fca5-4468-81b6-1c50d2a4a589"},"vehicle_type_id":"4","last_reported":1762369705,"current_range_meters":2800,"station_id":"","pricing_plan_id":"cebpf4jnsgd1na2vs0mg"},{"bike_id":"b7274164-d104-4569-8e8d-d56b2a397565","system_id":"levelo_inurba_marseille","lat":43.284821,"lon":5.483828,"is_reserved":false,"is_disabled":false,"rental_uris":{"android":"levelo://app?vid=b7274164-d104-4569-8e8d-d56b2a397565","ios":"levelo://app?vid=b7274164-d104-4569-8e8d-d56b2a397565"},"vehicle_type_id":"4","last_reported":1762369705,"current_range_meters":2800,"station_id":"st_d3svhcjqgbts73a3dn0g","pricing_plan_id":"cebpf4jnsgd1na2vs0mg"},{"bike_id":"eaf4e7e9-a7dd-4ea9-acef-673351cc8e03","system_id":"levelo_inurba_marseille","lat":43.29798,"lon":5.40406,"is_reserved":false,"is_disabled":false,"rental_uris":{"android":"levelo://app?vid=eaf4e7e9-a7dd-4ea9-acef-673351cc8e03","ios":"levelo://app?vid=eaf4e7e9-a7dd-4ea9-acef-673351cc8e03"},"vehicle_type_id":"4","last_reported":1762369705,"current_range_meters":2800,"station_id":"ce4bh112rcd13ifvqd90","pricing_plan_id":"cebpf4jnsgd1na2vs0mg"},{"bike_id":"7ff17b92-60d4-45f2-8ad6-c4cb8e6e4b93","system_id":"levelo_inurba_marseille","lat":43.27325,"lon":5.39071,"is_reserved":false,"is_disabled":false,"rental_uris":{"android":"levelo://app?vid=7ff17b92-60d4-45f2-8ad6-c4cb8e6e4b93","ios":"levelo://app?vid=7ff17b92-60d4-45f2-8ad6-c4cb8e6e4b93"},"vehicle_type_id":"4","last_reported":1762369705,"current_range_meters":3200,"station_id":"ce4bhgp2rcd13ifvqfe0","pricing_plan_id":"cebpf4jnsgd1na2vs0mg"},{"bike_id":"0acdce5f-d418-42b9-ba16-830bca4e085c","system_id":"levelo_inurba_marseille","lat":43.30633,"lon":5.40086,"is_reserved":false,"is_disabled":false,"rental_uris":{"android":"levelo://app?vid=0acdce5f-d418-42b9-ba16-830bca4e085c","ios":"levelo://app?vid=0acdce5f-d418-42b9-ba16-830bca4e085c"},"vehicle_type_id":"4","last_reported":1762369705,"current_range_meters":3200,"station_id":"","pricing_plan_id":"cebpf4jnsgd1na2vs0mg"},{"bike_id":"d1851272-bfd0-4f40-ba1f-1a0067f75b40","system_id":"levelo_inurba_marseille","lat":43.269836,"lon":5.401849,"is_reserved":false,"is_disabled":false,"rental_uris":{"android":"levelo://app?vid=d1851272-bfd0-4f40-ba1f-1a0067f75b40","ios":"levelo://app?vid=d1851272-bfd0-4f40-ba1f-1a0067f75b40"},"vehicle_type_id":"4","last_reported":1762369705,"current_range_meters":3600,"station_id":"cjm6bp8fraef2m0cb0m0","pricing_plan_id":"cebpf4jnsgd1na2vs0mg"},{"bike_id":"9ea6b4cc-c390-4db3-adc6-aa50ea3f98bb","system_id":"levelo_inurba_marseille","lat":43.27052,"lon":5.40258,"is_reserved":false,"is_disabled":false,"rental_uris":{"android":"levelo://app?vid=9ea6b4cc-c390-4db3-adc6-aa50ea3f98bb","ios":"levelo://app?vid=9ea6b4cc-c390-4db3-adc6-aa50ea3f98bb"},"vehicle_type_id":"4","last_reported":1762369705,"current_range_meters":3600,"station_id":"ce4bhk92rcd13ifvqgc0","pricing_plan_id":"cebpf4jnsgd1na2vs0mg"},{"bike_id":"f284d59a-8441-4928-b181-d60e76ec6e6b","system_id":"levelo_inurba_marseille","lat":43.27946,"lon":5.41044,"is_reserved":false,"is_disabled":false,"rental_uris":{"android":"levelo://app?vid=f284d59a-8441-4928-b181-d60e76ec6e6b","ios":"levelo://app?vid=f284d59a-8441-4928-b181-d60e76ec6e6b"},"vehicle_type_id":"4","last_reported":1762369705,"current_range_meters":3600,"station_id":"ce4bhnp2rcd13ifvqh0g","pricing_plan_id":"cebpf4jnsgd1na2vs0mg"},{"bike_id":"e2a8f5f5-21f2-4bc3-90f1-fc0a1ca9e956","system_id":"levelo_inurba_marseille","lat":43.29509,"lon":5.39031,"is_reserved":false,"is_disabled":false,"rental_uris":{"android":"levelo://app?vid=e2a8f5f5-21f2-4bc3-90f1-fc0a1ca9e956","ios":"levelo://app?vid=e2a8f5f5-21f2-4bc3-90f1-fc0a1ca9e956"},"vehicle_type_id":"4","last_reported":1762369705,"current_range_meters":3600,"station_id":"ce4bh3p2rcd13ifvqdp0","pricing_plan_id":"cebpf4jnsgd1na2vs0mg"},{"bike_id":"e59f7271-f758-41c0-a0d8-3dc2ab8efa98","system_id":"levelo_inurba_marseille","lat":43.299572,"lon":5.365534,"is_reserved":false,"is_disabled":false,"rental_uris":{"android":"levelo://app?vid=e59f7271-f758-41c0-a0d8-3dc2ab8efa98","ios":"levelo://app?vid=e59f7271-f758-41c0-a0d8-3dc2ab8efa98"},"vehicle_type_id":"4","last_reported":1762369705,"current_range_meters":3600,"station_id":"","pricing_plan_id":"cebpf4jnsgd1na2vs0mg"},{"bike_id":"28b85111-1e3c-4e94-9d4a-5a837507bfee","system_id":"levelo_inurba_marseille","lat":43.297134,"lon":5.426296,"is_reserved":false,"is_disabled":false,"rental_uris":{"android":"levelo://app?vid=28b85111-1e3c-4e94-9d4a-5a837507bfee","ios":"levelo://app?vid=28b85111-1e3c-4e94-9d4a-5a837507bfee"},"vehicle_type_id":"4","last_reported":1762369705,"current_range_meters":4000,"station_id":"","pricing_plan_id":"cebpf4jnsgd1na2vs0mg"},{"bike_id":"b2d3eb85-5d91-4041-92d6-4238e3275cc1","system_id":"levelo_inurba_marseille","lat":43.30595,"lon":5.37229,"is_reserved":false,"is_disabled":false,"rental_uris":{"android":"levelo://app?vid=b2d3eb85-5d91-4041-92d6-4238e3275cc1","ios":"levelo://app?vid=b2d3eb85-5d91-4041-92d6-4238e3275cc1"},"vehicle_type_id":"4","last_reported":1762369705,"current_range_meters":4000,"station_id":"ce4bgqh2rcd13ifvqc4g","pricing_plan_id":"cebpf4jnsgd1na2vs0mg"},{"bike_id":"29ea1ffb-ae1f-4b2e-83e9-d8861779da79","system_id":"levelo_inurba_marseille","lat":43.26556,"lon":5.37277,"is_reserved":false,"is_disabled":false,"rental_uris":{"android":"levelo://app?vid=29ea1ffb-ae1f-4b2e-83e9-d8861779da79","ios":"levelo://app?vid=29ea1ffb-ae1f-4b2e-83e9-d8861779da79"},"vehicle_type_id":"4","last_reported":1762369705,"current_range_meters":4000,"station_id":"ce4bhg12rcd13ifvqf70","pricing_plan_id":"cebpf4jnsgd1na2vs0mg"},{"bike_id":"cb1f0d8b-aa5d-48df-83c0-f7d2896136b4","system_id":"levelo_inurba_marseille","lat":43.30642,"lon":5.40102,"is_reserved":false,"is_disabled":false,"rental_uris":{"android":"levelo://app?vid=cb1f0d8b-aa5d-48df-83c0-f7d2896136b4","ios":"levelo://app?vid=cb1f0d8b-aa5d-48df-83c0-f7d2896136b4"},"vehicle_type_id":"4","last_reported":1762369705,"current_range_meters":4000,"station_id":"ce4bh112rcd13ifvqda0","pricing_plan_id":"cebpf4jnsgd1na2vs0mg"},{"bike_id":"6f8482e0-9094-4186-a8ef-871dd95cef70","system_id":"levelo_inurba_marseille","lat":43.301771,"lon":5.393572,"is_reserved":false,"is_disabled":false,"rental_uris":{"android":"levelo://app?vid=6f8482e0-9094-4186-a8ef-871dd95cef70","ios":"levelo://app?vid=6f8482e0-9094-4186-a8ef-871dd95cef70"},"vehicle_type_id":"4","last_reported":1762369705,"current_range_meters":4000,"station_id":"ce4bh0p2rcd13ifvqd70","pricing_plan_id":"cebpf4jnsgd1na2vs0mg"},{"bike_id":"fd1152c9-6030-4cab-ab29-14e32d694f4e","system_id":"levelo_inurba_marseille","lat":43.28721,"lon":5.3998,"is_reserved":false,"is_disabled":false,"rental_uris":{"android":"levelo://app?vid=fd1152c9-6030-4cab-ab29-14e32d694f4e","ios":"levelo://app?vid=fd1152c9-6030-4cab-ab29-14e32d694f4e"},"vehicle_type_id":"4","last_reported":1762369705,"current_range_meters":4000,"station_id":"","pricing_plan_id":"cebpf4jnsgd1na2vs0mg"},{"bike_id":"c76b2c5b-16e9-4c55-870e-400171fa768d","system_id":"levelo_inurba_marseille","lat":43.29573,"lon":5.42271,"is_reserved":false,"is_disabled":false,"rental_uris":{"android":"levelo://app?vid=c76b2c5b-16e9-4c55-870e-400171fa768d","ios":"levelo://app?vid=c76b2c5b-16e9-4c55-870e-400171fa768d"},"vehicle_type_id":"4","last_reported":1762369705,"current_range_meters":4400,"station_id":"ce4bhph2rcd13ifvqhdg","pricing_plan_id":"cebpf4jnsgd1na2vs0mg"},{"bike_id":"ebddb370-d644-4dfb-a2c2-26834be21211","system_id":"levelo_inurba_marseille","lat":43.26936,"lon":5.39247,"is_reserved":false,"is_disabled":false,"rental_uris":{"android":"levelo://app?vid=ebddb370-d644-4dfb-a2c2-26834be21211","ios":"levelo://app?vid=ebddb370-d644-4dfb-a2c2-26834be21211"},"vehicle_type_id":"4","last_reported":1762369705,"current_range_meters":4400,"station_id":"","pricing_plan_id":"cebpf4jnsgd1na2vs0mg"},{"bike_id":"72b85fa6-b705-4189-aee8-cc12bbaf2cc2","system_id":"levelo_inurba_marseille","lat":43.30301,"lon":5.39197,"is_reserved":false,"is_disabled":false,"rental_uris":{"android":"levelo://app?vid=72b85fa6-b705-4189-aee8-cc12bbaf2cc2","ios":"levelo://app?vid=72b85fa6-b705-4189-aee8-cc12bbaf2cc2"},"vehicle_type_id":"4","last_reported":1762369705,"current_range_meters":4400,"station_id":"ce4bgkh2rcd13ifvqbk0","pricing_plan_id":"cebpf4jnsgd1na2vs0mg"},{"bike_id":"66ce82ad-0c74-48cb-8d84-0d85676fdd27","system_id":"levelo_inurba_marseille","lat":43.27991,"lon":5.41679,"is_reserved":false,"is_disabled":false,"rental_uris":{"android":"levelo://app?vid=66ce82ad-0c74-48cb-8d84-0d85676fdd27","ios":"levelo://app?vid=66ce82ad-0c74-48cb-8d84-0d85676fdd27"},"vehicle_type_id":"4","last_reported":1762369705,"current_range_meters":4800,"station_id":"ce4bho12rcd13ifvqh1g","pricing_plan_id":"cebpf4jnsgd1na2vs0mg"},{"bike_id":"8f25a143-418a-41a1-891f-7a031ecff0cc","system_id":"levelo_inurba_marseille","lat":43.27909,"lon":5.38002,"is_reserved":false,"is_disabled":false,"rental_uris":{"android":"levelo://app?vid=8f25a143-418a-41a1-891f-7a031ecff0cc","ios":"levelo://app?vid=8f25a143-418a-41a1-891f-7a031ecff0cc"},"vehicle_type_id":"4","last_reported":1762369705,"current_range_meters":4800,"station_id":"ce4bhf92rcd13ifvqf50","pricing_plan_id":"cebpf4jnsgd1na2vs0mg"},{"bike_id":"e651ef9b-73ae-4036-95e8-7d9543916035","system_id":"levelo_inurba_marseille","lat":43.29558,"lon":5.42284,"is_reserved":false,"is_disabled":false,"rental_uris":{"android":"levelo://app?vid=e651ef9b-73ae-4036-95e8-7d9543916035","ios":"levelo://app?vid=e651ef9b-73ae-4036-95e8-7d9543916035"},"vehicle_type_id":"4","last_reported":1762369705,"current_range_meters":4800,"station_id":"ce4bhph2rcd13ifvqhdg","pricing_plan_id":"cebpf4jnsgd1na2vs0mg"},{"bike_id":"206cbdc0-ab5b-4310-a7eb-4bfe62c988ef","system_id":"levelo_inurba_marseille","lat":43.27977,"lon":5.38733,"is_reserved":false,"is_disabled":false,"rental_uris":{"android":"levelo://app?vid=206cbdc0-ab5b-4310-a7eb-4bfe62c988ef","ios":"levelo://app?vid=206cbdc0-ab5b-4310-a7eb-4bfe62c988ef"},"vehicle_type_id":"4","last_reported":1762369705,"current_range_meters":4800,"station_id":"ce4bhg12rcd13ifvqf80","pricing_plan_id":"cebpf4jnsgd1na2vs0mg"},{"bike_id":"dc94cbf0-a7dc-49d0-af22-8056548a33b8","system_id":"levelo_inurba_marseille","lat":43.28533,"lon":5.44092,"is_reserved":false,"is_disabled":false,"rental_uris":{"android":"levelo://app?vid=dc94cbf0-a7dc-49d0-af22-8056548a33b8","ios":"levelo://app?vid=dc94cbf0-a7dc-49d0-af22-8056548a33b8"},"vehicle_type_id":"4","last_reported":1762369705,"current_range_meters":5600,"station_id":"st_d3j3df2ikq2c7380ej80","pricing_plan_id":"cebpf4jnsgd1na2vs0mg"},{"bike_id":"b9fe03d7-ff05-4e4c-a4f1-5c505a6b9a21","system_id":"levelo_inurba_marseille","lat":43.269348,"lon":5.40277,"is_reserved":false,"is_disabled":false,"rental_uris":{"android":"levelo://app?vid=b9fe03d7-ff05-4e4c-a4f1-5c505a6b9a21","ios":"levelo://app?vid=b9fe03d7-ff05-4e4c-a4f1-5c505a6b9a21"},"vehicle_type_id":"4","last_reported":1762369705,"current_range_meters":5600,"station_id":"cjm6bp8fraef2m0cb0m0","pricing_plan_id":"cebpf4jnsgd1na2vs0mg"},{"bike_id":"a3b0da29-f3b8-414e-acbe-55b81fced474","system_id":"levelo_inurba_marseille","lat":43.302545,"lon":5.400813,"is_reserved":false,"is_disabled":false,"rental_uris":{"android":"levelo://app?vid=a3b0da29-f3b8-414e-acbe-55b81fced474","ios":"levelo://app?vid=a3b0da29-f3b8-414e-acbe-55b81fced474"},"vehicle_type_id":"4","last_reported":1762369705,"current_range_meters":5600,"station_id":"ce4bgvh2rcd13ifvqcs0","pricing_plan_id":"cebpf4jnsgd1na2vs0mg"},{"bike_id":"3ac41fca-6f80-4e3f-8c88-8657f5fdaf09","system_id":"levelo_inurba_marseille","lat":43.28414,"lon":5.37498,"is_reserved":false,"is_disabled":false,"rental_uris":{"android":"levelo://app?vid=3ac41fca-6f80-4e3f-8c88-8657f5fdaf09","ios":"levelo://app?vid=3ac41fca-6f80-4e3f-8c88-8657f5fdaf09"},"vehicle_type_id":"4","last_reported":1762369705,"current_range_meters":5600,"station_id":"ce4bh412rcd13ifvqds0","pricing_plan_id":"cebpf4jnsgd1na2vs0mg"},{"bike_id":"b37f884f-0f9f-495c-9d36-dfd4a5e58ece","system_id":"levelo_inurba_marseille","lat":43.31711,"lon":5.4371,"is_reserved":false,"is_disabled":false,"rental_uris":{"android":"levelo://app?vid=b37f884f-0f9f-495c-9d36-dfd4a5e58ece","ios":"levelo://app?vid=b37f884f-0f9f-495c-9d36-dfd4a5e58ece"},"vehicle_type_id":"4","last_reported":1762369705,"current_range_meters":5600,"station_id":"ce4bhp92rcd13ifvqhcg","pricing_plan_id":"cebpf4jnsgd1na2vs0mg"},{"bike_id":"16b901c4-5860-4987-aa93-a6e25369f2d6","system_id":"levelo_inurba_marseille","lat":43.31324,"lon":5.3968,"is_reserved":false,"is_disabled":false,"rental_uris":{"android":"levelo://app?vid=16b901c4-5860-4987-aa93-a6e25369f2d6","ios":"levelo://app?vid=16b901c4-5860-4987-aa93-a6e25369f2d6"},"vehicle_type_id":"4","last_reported":1762369705,"current_range_meters":6000,"station_id":"ce4bgvp2rcd13ifvqcu0","pricing_plan_id":"cebpf4jnsgd1na2vs0mg"},{"bike_id":"0236c9c8-ffd8-4894-b490-647a0371dc7f","system_id":"levelo_inurba_marseille","lat":43.30303,"lon":5.36893,"is_reserved":false,"is_disabled":false,"rental_uris":{"android":"levelo://app?vid=0236c9c8-ffd8-4894-b490-647a0371dc7f","ios":"levelo://app?vid=0236c9c8-ffd8-4894-b490-647a0371dc7f"},"vehicle_type_id":"4","last_reported":1762369705,"current_range_meters":6000,"station_id":"ce4bgqh2rcd13ifvqc5g","pricing_plan_id":"cebpf4jnsgd1na2vs0mg"},{"bike_id":"54e6d0ac-008f-420a-b6cf-362861943a79","system_id":"levelo_inurba_marseille","lat":43.30373,"lon":5.42488,"is_reserved":false,"is_disabled":false,"rental_uris":{"android":"levelo://app?vid=54e6d0ac-008f-420a-b6cf-362861943a79","ios":"levelo://app?vid=54e6d0ac-008f-420a-b6cf-362861943a79"},"vehicle_type_id":"4","last_reported":1762369705,"current_range_meters":6000,"station_id":"ce4bhoh2rcd13ifvqh6g","pricing_plan_id":"cebpf4jnsgd1na2vs0mg"},{"bike_id":"3800314d-6410-4feb-bd76-28cb0729c673","system_id":"levelo_inurba_marseille","lat":43.30328,"lon":5.40054,"is_reserved":false,"is_disabled":false,"rental_uris":{"android":"levelo://app?vid=3800314d-6410-4feb-bd76-28cb0729c673","ios":"levelo://app?vid=3800314d-6410-4feb-bd76-28cb0729c673"},"vehicle_type_id":"4","last_reported":1762369705,"current_range_meters":6000,"station_id":"","pricing_plan_id":"cebpf4jnsgd1na2vs0mg"},{"bike_id":"d1bc1147-656a-46da-a7e7-43a9a275eba7","system_id":"levelo_inurba_marseille","lat":43.24803,"lon":5.37457,"is_reserved":false,"is_disabled":false,"rental_uris":{"android":"levelo://app?vid=d1bc1147-656a-46da-a7e7-43a9a275eba7","ios":"levelo://app?vid=d1bc1147-656a-46da-a7e7-43a9a275eba7"},"vehicle_type_id":"4","last_reported":1762369705,"current_range_meters":6000,"station_id":"ce4bhgh2rcd13ifvqfb0","pricing_plan_id":"cebpf4jnsgd1na2vs0mg"},{"bike_id":"73d2a7df-87cc-4f11-9983-38c96ade9e8c","system_id":"levelo_inurba_marseille","lat":43.298005,"lon":5.381104,"is_reserved":false,"is_disabled":false,"rental_uris":{"android":"levelo://app?vid=73d2a7df-87cc-4f11-9983-38c96ade9e8c","ios":"levelo://app?vid=73d2a7df-87cc-4f11-9983-38c96ade9e8c"},"vehicle_type_id":"4","last_reported":1762369705,"current_range_meters":6400,"station_id":"ce4bgip2rcd13ifvqbb0","pricing_plan_id":"cebpf4jnsgd1na2vs0mg"},{"bike_id":"3c85fbaa-6eaf-406f-b987-5b5727343db8","system_id":"levelo_inurba_marseille","lat":43.31884,"lon":5.40735,"is_reserved":false,"is_disabled":false,"rental_uris":{"android":"levelo://app?vid=3c85fbaa-6eaf-406f-b987-5b5727343db8","ios":"levelo://app?vid=3c85fbaa-6eaf-406f-b987-5b5727343db8"},"vehicle_type_id":"4","last_reported":1762369705,"current_range_meters":6400,"station_id":"ce4bhq12rcd13ifvqhig","pricing_plan_id":"cebpf4jnsgd1na2vs0mg"},{"bike_id":"8ecb8818-e46c-4b9f-a332-cf081bcde169","system_id":"levelo_inurba_marseille","lat":43.27062,"lon":5.40254,"is_reserved":false,"is_disabled":false,"rental_uris":{"android":"levelo://app?vid=8ecb8818-e46c-4b9f-a332-cf081bcde169","ios":"levelo://app?vid=8ecb8818-e46c-4b9f-a332-cf081bcde169"},"vehicle_type_id":"4","last_reported":1762369705,"current_range_meters":6400,"station_id":"ce4bhk92rcd13ifvqgc0","pricing_plan_id":"cebpf4jnsgd1na2vs0mg"},{"bike_id":"887d271e-59e5-46b4-bfad-8bd1fefa80b6","system_id":"levelo_inurba_marseille","lat":43.30545,"lon":5.36692,"is_reserved":false,"is_disabled":false,"rental_uris":{"android":"levelo://app?vid=887d271e-59e5-46b4-bfad-8bd1fefa80b6","ios":"levelo://app?vid=887d271e-59e5-46b4-bfad-8bd1fefa80b6"},"vehicle_type_id":"4","last_reported":1762369705,"current_range_meters":6400,"station_id":"ce4bgrp2rcd13ifvqc9g","pricing_plan_id":"cebpf4jnsgd1na2vs0mg"},{"bike_id":"ca4c4f26-c324-464e-8134-7aba405c39af","system_id":"levelo_inurba_marseille","lat":43.29256,"lon":5.38439,"is_reserved":false,"is_disabled":false,"rental_uris":{"android":"levelo://app?vid=ca4c4f26-c324-464e-8134-7aba405c39af","ios":"levelo://app?vid=ca4c4f26-c324-464e-8134-7aba405c39af"},"vehicle_type_id":"4","last_reported":1762369705,"current_range_meters":6400,"station_id":"ce4bh692rcd13ifvqea0","pricing_plan_id":"cebpf4jnsgd1na2vs0mg"},{"bike_id":"c4176777-19c7-4057-b0d7-befd2a970cc5","system_id":"levelo_inurba_marseille","lat":43.26213,"lon":5.37441,"is_reserved":false,"is_disabled":false,"rental_uris":{"android":"levelo://app?vid=c4176777-19c7-4057-b0d7-befd2a970cc5","ios":"levelo://app?vid=c4176777-19c7-4057-b0d7-befd2a970cc5"},"vehicle_type_id":"4","last_reported":1762369705,"current_range_meters":6400,"station_id":"ce4bhgp2rcd13ifvqfc0","pricing_plan_id":"cebpf4jnsgd1na2vs0mg"},{"bike_id":"6a641114-4daa-4745-88dd-c5b6f89caa9a","system_id":"levelo_inurba_marseille","lat":43.29797,"lon":5.38087,"is_reserved":false,"is_disabled":false,"rental_uris":{"android":"levelo://app?vid=6a641114-4daa-4745-88dd-c5b6f89caa9a","ios":"levelo://app?vid=6a641114-4daa-4745-88dd-c5b6f89caa9a"},"vehicle_type_id":"4","last_reported":1762369705,"current_range_meters":6400,"station_id":"ce4bgip2rcd13ifvqbb0","pricing_plan_id":"cebpf4jnsgd1na2vs0mg"},{"bike_id":"ff420896-190c-4469-a623-7541d4f33707","system_id":"levelo_inurba_marseille","lat":43.27839,"lon":5.39192,"is_reserved":false,"is_disabled":false,"rental_uris":{"android":"levelo://app?vid=ff420896-190c-4469-a623-7541d4f33707","ios":"levelo://app?vid=ff420896-190c-4469-a623-7541d4f33707"},"vehicle_type_id":"4","last_reported":1762369705,"current_range_meters":6800,"station_id":"ce4bhjp2rcd13ifvqga0","pricing_plan_id":"cebpf4jnsgd1na2vs0mg"},{"bike_id":"2ff4e5c1-72e3-46ac-b47f-7d507bf191b8","system_id":"levelo_inurba_marseille","lat":43.26554,"lon":5.37282,"is_reserved":false,"is_disabled":false,"rental_uris":{"android":"levelo://app?vid=2ff4e5c1-72e3-46ac-b47f-7d507bf191b8","ios":"levelo://app?vid=2ff4e5c1-72e3-46ac-b47f-7d507bf191b8"},"vehicle_type_id":"4","last_reported":1762369705,"current_range_meters":6800,"station_id":"ce4bhg12rcd13ifvqf70","pricing_plan_id":"cebpf4jnsgd1na2vs0mg"},{"bike_id":"ca027186-72c6-4358-8d7a-70b219e6273a","system_id":"levelo_inurba_marseille","lat":43.35085,"lon":5.38006,"is_reserved":false,"is_disabled":false,"rental_uris":{"android":"levelo://app?vid=ca027186-72c6-4358-8d7a-70b219e6273a","ios":"levelo://app?vid=ca027186-72c6-4358-8d7a-70b219e6273a"},"vehicle_type_id":"4","last_reported":1762369705,"current_range_meters":6800,"station_id":"","pricing_plan_id":"cebpf4jnsgd1na2vs0mg"},{"bike_id":"654dc482-8458-4686-a09b-a5e21a822232","system_id":"levelo_inurba_marseille","lat":43.23195,"lon":5.35563,"is_reserved":false,"is_disabled":true,"rental_uris":{"android":"levelo://app?vid=654dc482-8458-4686-a09b-a5e21a822232","ios":"levelo://app?vid=654dc482-8458-4686-a09b-a5e21a822232"},"vehicle_type_id":"4","last_reported":1762369705,"current_range_meters":6800,"station_id":"ce4bhu92rcd13ifvqi70","pricing_plan_id":"cebpf4jnsgd1na2vs0mg"},{"bike_id":"ea1973ca-53c8-49fc-962a-e8aa37d49363","system_id":"levelo_inurba_marseille","lat":43.269572,"lon":5.386262,"is_reserved":false,"is_disabled":false,"rental_uris":{"android":"levelo://app?vid=ea1973ca-53c8-49fc-962a-e8aa37d49363","ios":"levelo://app?vid=ea1973ca-53c8-49fc-962a-e8aa37d49363"},"vehicle_type_id":"4","last_reported":1762369705,"current_range_meters":6800,"station_id":"ce4bhh92rcd13ifvqfh0","pricing_plan_id":"cebpf4jnsgd1na2vs0mg"},{"bike_id":"0ed2aa63-8997-4f7e-82ab-4d7b5bd3ee4d","system_id":"levelo_inurba_marseille","lat":43.25823,"lon":5.39434,"is_reserved":false,"is_disabled":false,"rental_uris":{"android":"levelo://app?vid=0ed2aa63-8997-4f7e-82ab-4d7b5bd3ee4d","ios":"levelo://app?vid=0ed2aa63-8997-4f7e-82ab-4d7b5bd3ee4d"},"vehicle_type_id":"4","last_reported":1762369705,"current_range_meters":6800,"station_id":"ce4bhip2rcd13ifvqft0","pricing_plan_id":"cebpf4jnsgd1na2vs0mg"},{"bike_id":"5d961c41-8d14-4471-96ae-4d99a594112a","system_id":"levelo_inurba_marseille","lat":43.29252,"lon":5.40901,"is_reserved":false,"is_disabled":false,"rental_uris":{"android":"levelo://app?vid=5d961c41-8d14-4471-96ae-4d99a594112a","ios":"levelo://app?vid=5d961c41-8d14-4471-96ae-4d99a594112a"},"vehicle_type_id":"4","last_reported":1762369705,"current_range_meters":6800,"station_id":"ce4bh192rcd13ifvqdc0","pricing_plan_id":"cebpf4jnsgd1na2vs0mg"},{"bike_id":"1bede403-951f-4fc7-9913-52e220cf0c6a","system_id":"levelo_inurba_marseille","lat":43.284125,"lon":5.374997,"is_reserved":false,"is_disabled":false,"rental_uris":{"android":"levelo://app?vid=1bede403-951f-4fc7-9913-52e220cf0c6a","ios":"levelo://app?vid=1bede403-951f-4fc7-9913-52e220cf0c6a"},"vehicle_type_id":"4","last_reported":1762369705,"current_range_meters":6800,"station_id":"ce4bh412rcd13ifvqds0","pricing_plan_id":"cebpf4jnsgd1na2vs0mg"},{"bike_id":"93c2789a-1031-43b5-93ce-5c5629c565d0","system_id":"levelo_inurba_marseille","lat":43.30586,"lon":5.39353,"is_reserved":false,"is_disabled":false,"rental_uris":{"android":"levelo://app?vid=93c2789a-1031-43b5-93ce-5c5629c565d0","ios":"levelo://app?vid=93c2789a-1031-43b5-93ce-5c5629c565d0"},"vehicle_type_id":"4","last_reported":1762369705,"current_range_meters":6800,"station_id":"ce4bh0p2rcd13ifvqd80","pricing_plan_id":"cebpf4jnsgd1na2vs0mg"},{"bike_id":"f6439a32-ae2d-4c33-bb19-5ee985bd17e1","system_id":"levelo_inurba_marseille","lat":43.29539,"lon":5.38551,"is_reserved":false,"is_disabled":false,"rental_uris":{"android":"levelo://app?vid=f6439a32-ae2d-4c33-bb19-5ee985bd17e1","ios":"levelo://app?vid=f6439a32-ae2d-4c33-bb19-5ee985bd17e1"},"vehicle_type_id":"4","last_reported":1762369705,"current_range_meters":6800,"station_id":"ce4bgih2rcd13ifvqba0","pricing_plan_id":"cebpf4jnsgd1na2vs0mg"},{"bike_id":"eb6f0192-4318-4ec8-9d3e-cf5960c06819","system_id":"levelo_inurba_marseille","lat":43.30644,"lon":5.40093,"is_reserved":false,"is_disabled":false,"rental_uris":{"android":"levelo://app?vid=eb6f0192-4318-4ec8-9d3e-cf5960c06819","ios":"levelo://app?vid=eb6f0192-4318-4ec8-9d3e-cf5960c06819"},"vehicle_type_id":"4","last_reported":1762369705,"current_range_meters":7200,"station_id":"ce4bh112rcd13ifvqda0","pricing_plan_id":"cebpf4jnsgd1na2vs0mg"},{"bike_id":"7c572724-d246-444c-a818-2550f93cae1a","system_id":"levelo_inurba_marseille","lat":43.28823,"lon":5.38619,"is_reserved":false,"is_disabled":false,"rental_uris":{"android":"levelo://app?vid=7c572724-d246-444c-a818-2550f93cae1a","ios":"levelo://app?vid=7c572724-d246-444c-a818-2550f93cae1a"},"vehicle_type_id":"4","last_reported":1762369705,"current_range_meters":7200,"station_id":"","pricing_plan_id":"cebpf4jnsgd1na2vs0mg"},{"bike_id":"dbe83fc1-5783-48c3-91aa-350328eabbc6","system_id":"levelo_inurba_marseille","lat":43.279944,"lon":5.400108,"is_reserved":false,"is_disabled":false,"rental_uris":{"android":"levelo://app?vid=dbe83fc1-5783-48c3-91aa-350328eabbc6","ios":"levelo://app?vid=dbe83fc1-5783-48c3-91aa-350328eabbc6"},"vehicle_type_id":"4","last_reported":1762369705,"current_range_meters":7200,"station_id":"ce4bhdp2rcd13ifvqf20","pricing_plan_id":"cebpf4jnsgd1na2vs0mg"},{"bike_id":"5e6b5e6b-9f8a-43ab-9eb8-b69e41a6c1e6","system_id":"levelo_inurba_marseille","lat":43.225298,"lon":5.348365,"is_reserved":false,"is_disabled":false,"rental_uris":{"android":"levelo://app?vid=5e6b5e6b-9f8a-43ab-9eb8-b69e41a6c1e6","ios":"levelo://app?vid=5e6b5e6b-9f8a-43ab-9eb8-b69e41a6c1e6"},"vehicle_type_id":"4","last_reported":1762369705,"current_range_meters":8000,"station_id":"","pricing_plan_id":"cebpf4jnsgd1na2vs0mg"},{"bike_id":"7dcf2138-9ba2-425b-be2d-492141aecd69","system_id":"levelo_inurba_marseille","lat":43.292633,"lon":5.384439,"is_reserved":false,"is_disabled":false,"rental_uris":{"android":"levelo://app?vid=7dcf2138-9ba2-425b-be2d-492141aecd69","ios":"levelo://app?vid=7dcf2138-9ba2-425b-be2d-492141aecd69"},"vehicle_type_id":"4","last_reported":1762369705,"current_range_meters":8000,"station_id":"ce4bh692rcd13ifvqea0","pricing_plan_id":"cebpf4jnsgd1na2vs0mg"},{"bike_id":"a38aa4dc-c52e-46ff-bdd5-7dc67ef355ce","system_id":"levelo_inurba_marseille","lat":43.24075,"lon":5.37758,"is_reserved":false,"is_disabled":false,"rental_uris":{"android":"levelo://app?vid=a38aa4dc-c52e-46ff-bdd5-7dc67ef355ce","ios":"levelo://app?vid=a38aa4dc-c52e-46ff-bdd5-7dc67ef355ce"},"vehicle_type_id":"4","last_reported":1762369705,"current_range_meters":8000,"station_id":"ce4bhnp2rcd13ifvqgvg","pricing_plan_id":"cebpf4jnsgd1na2vs0mg"},{"bike_id":"47de9693-398c-4078-bb2e-bf0d38c76c57","system_id":"levelo_inurba_marseille","lat":43.29007,"lon":5.3904,"is_reserved":false,"is_disabled":false,"rental_uris":{"android":"levelo://app?vid=47de9693-398c-4078-bb2e-bf0d38c76c57","ios":"levelo://app?vid=47de9693-398c-4078-bb2e-bf0d38c76c57"},"vehicle_type_id":"4","last_reported":1762369705,"current_range_meters":8000,"station_id":"","pricing_plan_id":"cebpf4jnsgd1na2vs0mg"},{"bike_id":"c7173e1f-51a6-40ff-979f-aca44a8cad2b","system_id":"levelo_inurba_marseille","lat":43.266815,"lon":5.38284,"is_reserved":false,"is_disabled":false,"rental_uris":{"android":"levelo://app?vid=c7173e1f-51a6-40ff-979f-aca44a8cad2b","ios":"levelo://app?vid=c7173e1f-51a6-40ff-979f-aca44a8cad2b"},"vehicle_type_id":"4","last_reported":1762369705,"current_range_meters":8000,"station_id":"ce4bhbh2rcd13ifvqeqg","pricing_plan_id":"cebpf4jnsgd1na2vs0mg"},{"bike_id":"60fd2392-832d-4279-bd39-5c03dbe5fbe8","system_id":"levelo_inurba_marseille","lat":43.28612,"lon":5.37063,"is_reserved":false,"is_disabled":false,"rental_uris":{"android":"levelo://app?vid=60fd2392-832d-4279-bd39-5c03dbe5fbe8","ios":"levelo://app?vid=60fd2392-832d-4279-bd39-5c03dbe5fbe8"},"vehicle_type_id":"4","last_reported":1762369705,"current_range_meters":8000,"station_id":"ce4bht12rcd13ifvqi60","pricing_plan_id":"cebpf4jnsgd1na2vs0mg"},{"bike_id":"ad483091-7411-4e16-8cc4-09042e8161f5","system_id":"levelo_inurba_marseille","lat":43.273468,"lon":5.385179,"is_reserved":false,"is_disabled":true,"rental_uris":{"android":"levelo://app?vid=ad483091-7411-4e16-8cc4-09042e8161f5","ios":"levelo://app?vid=ad483091-7411-4e16-8cc4-09042e8161f5"},"vehicle_type_id":"4","last_reported":1762369705,"current_range_meters":8000,"station_id":"","pricing_plan_id":"cebpf4jnsgd1na2vs0mg"},{"bike_id":"2cd0f79c-8f14-4174-9e0b-ab69fa06af4b","system_id":"levelo_inurba_marseille","lat":43.29518,"lon":5.39048,"is_reserved":false,"is_disabled":false,"rental_uris":{"android":"levelo://app?vid=2cd0f79c-8f14-4174-9e0b-ab69fa06af4b","ios":"levelo://app?vid=2cd0f79c-8f14-4174-9e0b-ab69fa06af4b"},"vehicle_type_id":"4","last_reported":1762369705,"current_range_meters":8000,"station_id":"ce4bh3p2rcd13ifvqdp0","pricing_plan_id":"cebpf4jnsgd1na2vs0mg"},{"bike_id":"43241b2a-4cb5-4e4c-8865-8a8693625499","system_id":"levelo_inurba_marseille","lat":43.3127,"lon":5.37849,"is_reserved":false,"is_disabled":false,"rental_uris":{"android":"levelo://app?vid=43241b2a-4cb5-4e4c-8865-8a8693625499","ios":"levelo://app?vid=43241b2a-4cb5-4e4c-8865-8a8693625499"},"vehicle_type_id":"4","last_reported":1762369705,"current_range_meters":8000,"station_id":"","pricing_plan_id":"cebpf4jnsgd1na2vs0mg"},{"bike_id":"b3b3fcde-ef29-4ae9-9661-53fb5ec40466","system_id":"levelo_inurba_marseille","lat":43.31119,"lon":5.39387,"is_reserved":false,"is_disabled":false,"rental_uris":{"android":"levelo://app?vid=b3b3fcde-ef29-4ae9-9661-53fb5ec40466","ios":"levelo://app?vid=b3b3fcde-ef29-4ae9-9661-53fb5ec40466"},"vehicle_type_id":"4","last_reported":1762369705,"current_range_meters":8400,"station_id":"","pricing_plan_id":"cebpf4jnsgd1na2vs0mg"},{"bike_id":"278d465b-5dcc-40ea-8cc1-3226101b952a","system_id":"levelo_inurba_marseille","lat":43.30424,"lon":5.38877,"is_reserved":false,"is_disabled":false,"rental_uris":{"android":"levelo://app?vid=278d465b-5dcc-40ea-8cc1-3226101b952a","ios":"levelo://app?vid=278d465b-5dcc-40ea-8cc1-3226101b952a"},"vehicle_type_id":"4","last_reported":1762369705,"current_range_meters":8400,"station_id":"ce4bgk12rcd13ifvqbi0","pricing_plan_id":"cebpf4jnsgd1na2vs0mg"},{"bike_id":"f7a192fe-ecfa-451f-8d3a-3c4f39209fc4","system_id":"levelo_inurba_marseille","lat":43.32368,"lon":5.38886,"is_reserved":false,"is_disabled":false,"rental_uris":{"android":"levelo://app?vid=f7a192fe-ecfa-451f-8d3a-3c4f39209fc4","ios":"levelo://app?vid=f7a192fe-ecfa-451f-8d3a-3c4f39209fc4"},"vehicle_type_id":"4","last_reported":1762369705,"current_range_meters":8400,"station_id":"ce4bhqp2rcd13ifvqhog","pricing_plan_id":"cebpf4jnsgd1na2vs0mg"},{"bike_id":"cd9c6c8f-813a-4b2c-b0c7-7a3265cb2fa0","system_id":"levelo_inurba_marseille","lat":43.24229,"lon":5.39323,"is_reserved":false,"is_disabled":false,"rental_uris":{"android":"levelo://app?vid=cd9c6c8f-813a-4b2c-b0c7-7a3265cb2fa0","ios":"levelo://app?vid=cd9c6c8f-813a-4b2c-b0c7-7a3265cb2fa0"},"vehicle_type_id":"4","last_reported":1762369705,"current_range_meters":8400,"station_id":"","pricing_plan_id":"cebpf4jnsgd1na2vs0mg"},{"bike_id":"732b46b1-672d-4599-aa8a-a717a0952c8d","system_id":"levelo_inurba_marseille","lat":43.30424,"lon":5.39739,"is_reserved":false,"is_disabled":true,"rental_uris":{"android":"levelo://app?vid=732b46b1-672d-4599-aa8a-a717a0952c8d","ios":"levelo://app?vid=732b46b1-672d-4599-aa8a-a717a0952c8d"},"vehicle_type_id":"4","last_reported":1762369705,"current_range_meters":8400,"station_id":"ce4bh092rcd13ifvqd20","pricing_plan_id":"cebpf4jnsgd1na2vs0mg"},{"bike_id":"0336813c-2df5-44bf-86e6-ce55a4c9df3b","system_id":"levelo_inurba_marseille","lat":43.29536,"lon":5.39056,"is_reserved":false,"is_disabled":false,"rental_uris":{"android":"levelo://app?vid=0336813c-2df5-44bf-86e6-ce55a4c9df3b","ios":"levelo://app?vid=0336813c-2df5-44bf-86e6-ce55a4c9df3b"},"vehicle_type_id":"4","last_reported":1762369705,"current_range_meters":8400,"station_id":"ce4bh3p2rcd13ifvqdp0","pricing_plan_id":"cebpf4jnsgd1na2vs0mg"},{"bike_id":"e1d510dc-978c-4640-afb1-06538cda7701","system_id":"levelo_inurba_marseille","lat":43.29809,"lon":5.44066,"is_reserved":false,"is_disabled":false,"rental_uris":{"android":"levelo://app?vid=e1d510dc-978c-4640-afb1-06538cda7701","ios":"levelo://app?vid=e1d510dc-978c-4640-afb1-06538cda7701"},"vehicle_type_id":"4","last_reported":1762369705,"current_range_meters":8400,"station_id":"st_d3jp68qikq2c7381ktn0","pricing_plan_id":"cebpf4jnsgd1na2vs0mg"},{"bike_id":"4ad6dc0d-9a31-4bee-b7bc-4801a8ea9db2","system_id":"levelo_inurba_marseille","lat":43.27064,"lon":5.4228,"is_reserved":false,"is_disabled":false,"rental_uris":{"android":"levelo://app?vid=4ad6dc0d-9a31-4bee-b7bc-4801a8ea9db2","ios":"levelo://app?vid=4ad6dc0d-9a31-4bee-b7bc-4801a8ea9db2"},"vehicle_type_id":"4","last_reported":1762369705,"current_range_meters":8400,"station_id":"ce4bhk92rcd13ifvqgb0","pricing_plan_id":"cebpf4jnsgd1na2vs0mg"},{"bike_id":"b36a7c8c-7296-4967-bd6b-a53e76b669a5","system_id":"levelo_inurba_marseille","lat":43.29718,"lon":5.36601,"is_reserved":false,"is_disabled":false,"rental_uris":{"android":"levelo://app?vid=b36a7c8c-7296-4967-bd6b-a53e76b669a5","ios":"levelo://app?vid=b36a7c8c-7296-4967-bd6b-a53e76b669a5"},"vehicle_type_id":"4","last_reported":1762369705,"current_range_meters":8400,"station_id":"ce4bgn12rcd13ifvqbt0","pricing_plan_id":"cebpf4jnsgd1na2vs0mg"},{"bike_id":"0253c795-365f-4833-82e1-91240d1dcf56","system_id":"levelo_inurba_marseille","lat":43.28359,"lon":5.38636,"is_reserved":false,"is_disabled":false,"rental_uris":{"android":"levelo://app?vid=0253c795-365f-4833-82e1-91240d1dcf56","ios":"levelo://app?vid=0253c795-365f-4833-82e1-91240d1dcf56"},"vehicle_type_id":"4","last_reported":1762369705,"current_range_meters":8800,"station_id":"ce4bh492rcd13ifvqdvg","pricing_plan_id":"cebpf4jnsgd1na2vs0mg"},{"bike_id":"597f197b-3e25-4082-8b9e-6a8612bd4f82","system_id":"levelo_inurba_marseille","lat":43.27318,"lon":5.39079,"is_reserved":false,"is_disabled":false,"rental_uris":{"android":"levelo://app?vid=597f197b-3e25-4082-8b9e-6a8612bd4f82","ios":"levelo://app?vid=597f197b-3e25-4082-8b9e-6a8612bd4f82"},"vehicle_type_id":"4","last_reported":1762369705,"current_range_meters":8800,"station_id":"ce4bhgp2rcd13ifvqfe0","pricing_plan_id":"cebpf4jnsgd1na2vs0mg"},{"bike_id":"8238b597-6943-47b1-846e-b6ceb3bf4468","system_id":"levelo_inurba_marseille","lat":43.2845,"lon":5.37604,"is_reserved":false,"is_disabled":false,"rental_uris":{"android":"levelo://app?vid=8238b597-6943-47b1-846e-b6ceb3bf4468","ios":"levelo://app?vid=8238b597-6943-47b1-846e-b6ceb3bf4468"},"vehicle_type_id":"4","last_reported":1762369705,"current_range_meters":8800,"station_id":"","pricing_plan_id":"cebpf4jnsgd1na2vs0mg"},{"bike_id":"1f02314a-ebb7-4a59-914a-7bff1b84f3ba","system_id":"levelo_inurba_marseille","lat":43.2893,"lon":5.38394,"is_reserved":false,"is_disabled":false,"rental_uris":{"android":"levelo://app?vid=1f02314a-ebb7-4a59-914a-7bff1b84f3ba","ios":"levelo://app?vid=1f02314a-ebb7-4a59-914a-7bff1b84f3ba"},"vehicle_type_id":"4","last_reported":1762369705,"current_range_meters":8800,"station_id":"ce4bh612rcd13ifvqe6g","pricing_plan_id":"cebpf4jnsgd1na2vs0mg"},{"bike_id":"30bbb6d0-ff22-44cb-99c0-5f3b3808d1b7","system_id":"levelo_inurba_marseille","lat":43.29099,"lon":5.38106,"is_reserved":false,"is_disabled":false,"rental_uris":{"android":"levelo://app?vid=30bbb6d0-ff22-44cb-99c0-5f3b3808d1b7","ios":"levelo://app?vid=30bbb6d0-ff22-44cb-99c0-5f3b3808d1b7"},"vehicle_type_id":"4","last_reported":1762369705,"current_range_meters":9200,"station_id":"ce4bh512rcd13ifvqe2g","pricing_plan_id":"cebpf4jnsgd1na2vs0mg"},{"bike_id":"36dadbf7-a228-4f6f-8b08-391008b68693","system_id":"levelo_inurba_marseille","lat":43.3455,"lon":5.3683,"is_reserved":false,"is_disabled":false,"rental_uris":{"android":"levelo://app?vid=36dadbf7-a228-4f6f-8b08-391008b68693","ios":"levelo://app?vid=36dadbf7-a228-4f6f-8b08-391008b68693"},"vehicle_type_id":"4","last_reported":1762369705,"current_range_meters":9200,"station_id":"","pricing_plan_id":"cebpf4jnsgd1na2vs0mg"},{"bike_id":"9465d862-db38-45cb-98a3-e49ecdfda4db","system_id":"levelo_inurba_marseille","lat":43.29495,"lon":5.43293,"is_reserved":false,"is_disabled":true,"rental_uris":{"android":"levelo://app?vid=9465d862-db38-45cb-98a3-e49ecdfda4db","ios":"levelo://app?vid=9465d862-db38-45cb-98a3-e49ecdfda4db"},"vehicle_type_id":"4","last_reported":1762369705,"current_range_meters":9200,"station_id":"st_d3j5ugp08ojc73fj9d10","pricing_plan_id":"cebpf4jnsgd1na2vs0mg"},{"bike_id":"d52f7b9a-c0dd-478e-a9b8-6864dd072416","system_id":"levelo_inurba_marseille","lat":43.30896,"lon":5.37184,"is_reserved":false,"is_disabled":false,"rental_uris":{"android":"levelo://app?vid=d52f7b9a-c0dd-478e-a9b8-6864dd072416","ios":"levelo://app?vid=d52f7b9a-c0dd-478e-a9b8-6864dd072416"},"vehicle_type_id":"4","last_reported":1762369705,"current_range_meters":9200,"station_id":"ce4bguh2rcd13ifvqckg","pricing_plan_id":"cebpf4jnsgd1na2vs0mg"},{"bike_id":"eae235d5-3e68-4694-9a71-cfe15ffb411b","system_id":"levelo_inurba_marseille","lat":43.26952,"lon":5.38619,"is_reserved":false,"is_disabled":false,"rental_uris":{"android":"levelo://app?vid=eae235d5-3e68-4694-9a71-cfe15ffb411b","ios":"levelo://app?vid=eae235d5-3e68-4694-9a71-cfe15ffb411b"},"vehicle_type_id":"4","last_reported":1762369705,"current_range_meters":9200,"station_id":"ce4bhh92rcd13ifvqfh0","pricing_plan_id":"cebpf4jnsgd1na2vs0mg"},{"bike_id":"ea4f4b84-78b0-4180-a7f8-ecb8c6182713","system_id":"levelo_inurba_marseille","lat":43.2953,"lon":5.36104,"is_reserved":false,"is_disabled":true,"rental_uris":{"android":"levelo://app?vid=ea4f4b84-78b0-4180-a7f8-ecb8c6182713","ios":"levelo://app?vid=ea4f4b84-78b0-4180-a7f8-ecb8c6182713"},"vehicle_type_id":"4","last_reported":1762369705,"current_range_meters":9200,"station_id":"","pricing_plan_id":"cebpf4jnsgd1na2vs0mg"},{"bike_id":"31249a74-52c9-41af-95e0-b275e3aade24","system_id":"levelo_inurba_marseille","lat":43.2718,"lon":5.40992,"is_reserved":false,"is_disabled":false,"rental_uris":{"android":"levelo://app?vid=31249a74-52c9-41af-95e0-b275e3aade24","ios":"levelo://app?vid=31249a74-52c9-41af-95e0-b275e3aade24"},"vehicle_type_id":"4","last_reported":1762369705,"current_range_meters":9200,"station_id":"ce4bhl12rcd13ifvqgf0","pricing_plan_id":"cebpf4jnsgd1na2vs0mg"},{"bike_id":"5e6ec26b-85bb-44f7-9ae0-e1368234eaa7","system_id":"levelo_inurba_marseille","lat":43.27824,"lon":5.40699,"is_reserved":false,"is_disabled":false,"rental_uris":{"android":"levelo://app?vid=5e6ec26b-85bb-44f7-9ae0-e1368234eaa7","ios":"levelo://app?vid=5e6ec26b-85bb-44f7-9ae0-e1368234eaa7"},"vehicle_type_id":"4","last_reported":1762369705,"current_range_meters":9200,"station_id":"ce4bhnh2rcd13ifvqgtg","pricing_plan_id":"cebpf4jnsgd1na2vs0mg"},{"bike_id":"d80f1210-f80d-4144-8541-e1fe92f84f5f","system_id":"levelo_inurba_marseille","lat":43.24073,"lon":5.37761,"is_reserved":false,"is_disabled":false,"rental_uris":{"android":"levelo://app?vid=d80f1210-f80d-4144-8541-e1fe92f84f5f","ios":"levelo://app?vid=d80f1210-f80d-4144-8541-e1fe92f84f5f"},"vehicle_type_id":"4","last_reported":1762369705,"current_range_meters":9200,"station_id":"ce4bhnp2rcd13ifvqgvg","pricing_plan_id":"cebpf4jnsgd1na2vs0mg"},{"bike_id":"0f8ff35c-743d-4d54-a7f7-e5cc108ffd8a","system_id":"levelo_inurba_marseille","lat":43.299713,"lon":5.399059,"is_reserved":false,"is_disabled":false,"rental_uris":{"android":"levelo://app?vid=0f8ff35c-743d-4d54-a7f7-e5cc108ffd8a","ios":"levelo://app?vid=0f8ff35c-743d-4d54-a7f7-e5cc108ffd8a"},"vehicle_type_id":"4","last_reported":1762369705,"current_range_meters":9600,"station_id":"","pricing_plan_id":"cebpf4jnsgd1na2vs0mg"},{"bike_id":"a04426a3-bba5-4600-9605-7a0c3eb814d6","system_id":"levelo_inurba_marseille","lat":43.3148,"lon":5.37311,"is_reserved":false,"is_disabled":false,"rental_uris":{"android":"levelo://app?vid=a04426a3-bba5-4600-9605-7a0c3eb814d6","ios":"levelo://app?vid=a04426a3-bba5-4600-9605-7a0c3eb814d6"},"vehicle_type_id":"4","last_reported":1762369705,"current_range_meters":9600,"station_id":"ce4bgt12rcd13ifvqcd0","pricing_plan_id":"cebpf4jnsgd1na2vs0mg"},{"bike_id":"bdd4a5fb-6b12-4ef1-8102-ebabeacdc591","system_id":"levelo_inurba_marseille","lat":43.289346,"lon":5.366451,"is_reserved":false,"is_disabled":false,"rental_uris":{"android":"levelo://app?vid=bdd4a5fb-6b12-4ef1-8102-ebabeacdc591","ios":"levelo://app?vid=bdd4a5fb-6b12-4ef1-8102-ebabeacdc591"},"vehicle_type_id":"4","last_reported":1762369705,"current_range_meters":9600,"station_id":"ce4bhap2rcd13ifvqek0","pricing_plan_id":"cebpf4jnsgd1na2vs0mg"},{"bike_id":"fc495c3a-911a-4143-9e82-5a1f0d9524fc","system_id":"levelo_inurba_marseille","lat":43.27434,"lon":5.39406,"is_reserved":false,"is_disabled":false,"rental_uris":{"android":"levelo://app?vid=fc495c3a-911a-4143-9e82-5a1f0d9524fc","ios":"levelo://app?vid=fc495c3a-911a-4143-9e82-5a1f0d9524fc"},"vehicle_type_id":"4","last_reported":1762369705,"current_range_meters":9600,"station_id":"ce4bhdp2rcd13ifvqf20","pricing_plan_id":"cebpf4jnsgd1na2vs0mg"},{"bike_id":"3a504f41-9351-4999-935e-ef8adc7693a6","system_id":"levelo_inurba_marseille","lat":43.2781,"lon":5.40691,"is_reserved":false,"is_disabled":false,"rental_uris":{"android":"levelo://app?vid=3a504f41-9351-4999-935e-ef8adc7693a6","ios":"levelo://app?vid=3a504f41-9351-4999-935e-ef8adc7693a6"},"vehicle_type_id":"4","last_reported":1762369705,"current_range_meters":9600,"station_id":"ce4bhnh2rcd13ifvqgtg","pricing_plan_id":"cebpf4jnsgd1na2vs0mg"},{"bike_id":"02c565c9-e1be-4475-b1a9-b37751cdb830","system_id":"levelo_inurba_marseille","lat":43.34374,"lon":5.34891,"is_reserved":false,"is_disabled":false,"rental_uris":{"android":"levelo://app?vid=02c565c9-e1be-4475-b1a9-b37751cdb830","ios":"levelo://app?vid=02c565c9-e1be-4475-b1a9-b37751cdb830"},"vehicle_type_id":"4","last_reported":1762369705,"current_range_meters":10000,"station_id":"","pricing_plan_id":"cebpf4jnsgd1na2vs0mg"},{"bike_id":"1f16b7e5-1eee-40b0-bef9-f1c4c100dfde","system_id":"levelo_inurba_marseille","lat":43.323618,"lon":5.388796,"is_reserved":false,"is_disabled":false,"rental_uris":{"android":"levelo://app?vid=1f16b7e5-1eee-40b0-bef9-f1c4c100dfde","ios":"levelo://app?vid=1f16b7e5-1eee-40b0-bef9-f1c4c100dfde"},"vehicle_type_id":"4","last_reported":1762369705,"current_range_meters":10000,"station_id":"ce4bhqp2rcd13ifvqhog","pricing_plan_id":"cebpf4jnsgd1na2vs0mg"},{"bike_id":"b6ca4410-31f2-4bfa-a6d3-2f0a4f6b5118","system_id":"levelo_inurba_marseille","lat":43.2928,"lon":5.38434,"is_reserved":false,"is_disabled":true,"rental_uris":{"android":"levelo://app?vid=b6ca4410-31f2-4bfa-a6d3-2f0a4f6b5118","ios":"levelo://app?vid=b6ca4410-31f2-4bfa-a6d3-2f0a4f6b5118"},"vehicle_type_id":"4","last_reported":1762369705,"current_range_meters":10000,"station_id":"ce4bh692rcd13ifvqea0","pricing_plan_id":"cebpf4jnsgd1na2vs0mg"},{"bike_id":"7479cfee-6f68-4a59-afc8-ceca6b83dba4","system_id":"levelo_inurba_marseille","lat":43.25586,"lon":5.38229,"is_reserved":false,"is_disabled":false,"rental_uris":{"android":"levelo://app?vid=7479cfee-6f68-4a59-afc8-ceca6b83dba4","ios":"levelo://app?vid=7479cfee-6f68-4a59-afc8-ceca6b83dba4"},"vehicle_type_id":"4","last_reported":1762369705,"current_range_meters":10000,"station_id":"ce4bhih2rcd13ifvqfs0","pricing_plan_id":"cebpf4jnsgd1na2vs0mg"},{"bike_id":"7c8c77e6-611f-4f5e-8374-da326e1729a3","system_id":"levelo_inurba_marseille","lat":43.29831,"lon":5.44057,"is_reserved":false,"is_disabled":false,"rental_uris":{"android":"levelo://app?vid=7c8c77e6-611f-4f5e-8374-da326e1729a3","ios":"levelo://app?vid=7c8c77e6-611f-4f5e-8374-da326e1729a3"},"vehicle_type_id":"4","last_reported":1762369705,"current_range_meters":10000,"station_id":"st_d3jp68qikq2c7381ktn0","pricing_plan_id":"cebpf4jnsgd1na2vs0mg"},{"bike_id":"a6d85024-bcca-4b49-a698-55b7ce9ba80d","system_id":"levelo_inurba_marseille","lat":43.27456,"lon":5.39392,"is_reserved":false,"is_disabled":false,"rental_uris":{"android":"levelo://app?vid=a6d85024-bcca-4b49-a698-55b7ce9ba80d","ios":"levelo://app?vid=a6d85024-bcca-4b49-a698-55b7ce9ba80d"},"vehicle_type_id":"4","last_reported":1762369705,"current_range_meters":10000,"station_id":"ce4bhdp2rcd13ifvqf20","pricing_plan_id":"cebpf4jnsgd1na2vs0mg"},{"bike_id":"cf6310a7-5d75-4ff2-be60-37cf8be9b067","system_id":"levelo_inurba_marseille","lat":43.299253,"lon":5.365557,"is_reserved":false,"is_disabled":false,"rental_uris":{"android":"levelo://app?vid=cf6310a7-5d75-4ff2-be60-37cf8be9b067","ios":"levelo://app?vid=cf6310a7-5d75-4ff2-be60-37cf8be9b067"},"vehicle_type_id":"4","last_reported":1762369705,"current_range_meters":10000,"station_id":"ce4bgm92rcd13ifvqbr0","pricing_plan_id":"cebpf4jnsgd1na2vs0mg"},{"bike_id":"e7002296-a724-4792-9c77-9aa7da662e7d","system_id":"levelo_inurba_marseille","lat":43.29752,"lon":5.36248,"is_reserved":false,"is_disabled":false,"rental_uris":{"android":"levelo://app?vid=e7002296-a724-4792-9c77-9aa7da662e7d","ios":"levelo://app?vid=e7002296-a724-4792-9c77-9aa7da662e7d"},"vehicle_type_id":"4","last_reported":1762369705,"current_range_meters":10000,"station_id":"","pricing_plan_id":"cebpf4jnsgd1na2vs0mg"},{"bike_id":"d4dd6511-4dd4-439e-b285-f9df54431fe8","system_id":"levelo_inurba_marseille","lat":43.28547,"lon":5.44084,"is_reserved":false,"is_disabled":false,"rental_uris":{"android":"levelo://app?vid=d4dd6511-4dd4-439e-b285-f9df54431fe8","ios":"levelo://app?vid=d4dd6511-4dd4-439e-b285-f9df54431fe8"},"vehicle_type_id":"4","last_reported":1762369705,"current_range_meters":10000,"station_id":"st_d3j3df2ikq2c7380ej80","pricing_plan_id":"cebpf4jnsgd1na2vs0mg"},{"bike_id":"4b24dbba-41a5-4ecf-ade9-ac15d69f3a39","system_id":"levelo_inurba_marseille","lat":43.30277,"lon":5.37689,"is_reserved":false,"is_disabled":false,"rental_uris":{"android":"levelo://app?vid=4b24dbba-41a5-4ecf-ade9-ac15d69f3a39","ios":"levelo://app?vid=4b24dbba-41a5-4ecf-ade9-ac15d69f3a39"},"vehicle_type_id":"4","last_reported":1762369705,"current_range_meters":10800,"station_id":"ce4bguh2rcd13ifvqcj0","pricing_plan_id":"cebpf4jnsgd1na2vs0mg"},{"bike_id":"75a0e7d0-a4d6-4f7c-adce-b5f633c7cb4f","system_id":"levelo_inurba_marseille","lat":43.30609,"lon":5.37228,"is_reserved":false,"is_disabled":true,"rental_uris":{"android":"levelo://app?vid=75a0e7d0-a4d6-4f7c-adce-b5f633c7cb4f","ios":"levelo://app?vid=75a0e7d0-a4d6-4f7c-adce-b5f633c7cb4f"},"vehicle_type_id":"4","last_reported":1762369705,"current_range_meters":10800,"station_id":"ce4bgqh2rcd13ifvqc4g","pricing_plan_id":"cebpf4jnsgd1na2vs0mg"},{"bike_id":"dceb4beb-6bb5-4225-ae7e-d3c4b9815bbe","system_id":"levelo_inurba_marseille","lat":43.284762,"lon":5.484066,"is_reserved":false,"is_disabled":false,"rental_uris":{"android":"levelo://app?vid=dceb4beb-6bb5-4225-ae7e-d3c4b9815bbe","ios":"levelo://app?vid=dceb4beb-6bb5-4225-ae7e-d3c4b9815bbe"},"vehicle_type_id":"4","last_reported":1762369705,"current_range_meters":10800,"station_id":"st_d3svhcjqgbts73a3dn0g","pricing_plan_id":"cebpf4jnsgd1na2vs0mg"},{"bike_id":"497b0f2b-f74d-4585-bcae-0858c585aafa","system_id":"levelo_inurba_marseille","lat":43.313585,"lon":5.384888,"is_reserved":false,"is_disabled":false,"rental_uris":{"android":"levelo://app?vid=497b0f2b-f74d-4585-bcae-0858c585aafa","ios":"levelo://app?vid=497b0f2b-f74d-4585-bcae-0858c585aafa"},"vehicle_type_id":"4","last_reported":1762369705,"current_range_meters":10800,"station_id":"ce4bgt92rcd13ifvqcf0","pricing_plan_id":"cebpf4jnsgd1na2vs0mg"},{"bike_id":"3a4396c5-697b-476d-ad96-e15f4007756c","system_id":"levelo_inurba_marseille","lat":43.30124,"lon":5.39867,"is_reserved":false,"is_disabled":false,"rental_uris":{"android":"levelo://app?vid=3a4396c5-697b-476d-ad96-e15f4007756c","ios":"levelo://app?vid=3a4396c5-697b-476d-ad96-e15f4007756c"},"vehicle_type_id":"4","last_reported":1762369705,"current_range_meters":10800,"station_id":"ce4bh0h2rcd13ifvqd40","pricing_plan_id":"cebpf4jnsgd1na2vs0mg"},{"bike_id":"1047ea12-89a6-43cd-91ea-44567624f348","system_id":"levelo_inurba_marseille","lat":43.291176,"lon":5.38166,"is_reserved":false,"is_disabled":false,"rental_uris":{"android":"levelo://app?vid=1047ea12-89a6-43cd-91ea-44567624f348","ios":"levelo://app?vid=1047ea12-89a6-43cd-91ea-44567624f348"},"vehicle_type_id":"4","last_reported":1762369705,"current_range_meters":10800,"station_id":"ce4bh512rcd13ifvqe2g","pricing_plan_id":"cebpf4jnsgd1na2vs0mg"},{"bike_id":"765b9661-2b24-4c0f-a9fb-732d7409b10c","system_id":"levelo_inurba_marseille","lat":43.21603,"lon":5.34428,"is_reserved":false,"is_disabled":false,"rental_uris":{"android":"levelo://app?vid=765b9661-2b24-4c0f-a9fb-732d7409b10c","ios":"levelo://app?vid=765b9661-2b24-4c0f-a9fb-732d7409b10c"},"vehicle_type_id":"4","last_reported":1762369705,"current_range_meters":10800,"station_id":"","pricing_plan_id":"cebpf4jnsgd1na2vs0mg"},{"bike_id":"aa82f1ce-de3a-44f1-b71c-e2edd10cd370","system_id":"levelo_inurba_marseille","lat":43.273198,"lon":5.39077,"is_reserved":false,"is_disabled":false,"rental_uris":{"android":"levelo://app?vid=aa82f1ce-de3a-44f1-b71c-e2edd10cd370","ios":"levelo://app?vid=aa82f1ce-de3a-44f1-b71c-e2edd10cd370"},"vehicle_type_id":"4","last_reported":1762369705,"current_range_meters":10800,"station_id":"ce4bhgp2rcd13ifvqfe0","pricing_plan_id":"cebpf4jnsgd1na2vs0mg"},{"bike_id":"eeee6675-5cdf-49c4-bdd9-6b065b2e9e3b","system_id":"levelo_inurba_marseille","lat":43.320787,"lon":5.380529,"is_reserved":false,"is_disabled":false,"rental_uris":{"android":"levelo://app?vid=eeee6675-5cdf-49c4-bdd9-6b065b2e9e3b","ios":"levelo://app?vid=eeee6675-5cdf-49c4-bdd9-6b065b2e9e3b"},"vehicle_type_id":"4","last_reported":1762369705,"current_range_meters":10800,"station_id":"ce4bhr12rcd13ifvqhqg","pricing_plan_id":"cebpf4jnsgd1na2vs0mg"},{"bike_id":"354ebfa5-f9c8-4a51-bc7c-86cf154d9539","system_id":"levelo_inurba_marseille","lat":43.30321,"lon":5.4041,"is_reserved":false,"is_disabled":false,"rental_uris":{"android":"levelo://app?vid=354ebfa5-f9c8-4a51-bc7c-86cf154d9539","ios":"levelo://app?vid=354ebfa5-f9c8-4a51-bc7c-86cf154d9539"},"vehicle_type_id":"4","last_reported":1762369705,"current_range_meters":10800,"station_id":"ce4bh012rcd13ifvqd10","pricing_plan_id":"cebpf4jnsgd1na2vs0mg"},{"bike_id":"ac3661dd-248f-4b92-ad04-1fbf8e5c6660","system_id":"levelo_inurba_marseille","lat":43.28024,"lon":5.36942,"is_reserved":false,"is_disabled":true,"rental_uris":{"android":"levelo://app?vid=ac3661dd-248f-4b92-ad04-1fbf8e5c6660","ios":"levelo://app?vid=ac3661dd-248f-4b92-ad04-1fbf8e5c6660"},"vehicle_type_id":"4","last_reported":1762369705,"current_range_meters":10800,"station_id":"ce4bha12rcd13ifvqef0","pricing_plan_id":"cebpf4jnsgd1na2vs0mg"},{"bike_id":"035c0c62-2562-4b07-b673-becbc99b3557","system_id":"levelo_inurba_marseille","lat":43.324002,"lon":5.367388,"is_reserved":false,"is_disabled":false,"rental_uris":{"android":"levelo://app?vid=035c0c62-2562-4b07-b673-becbc99b3557","ios":"levelo://app?vid=035c0c62-2562-4b07-b673-becbc99b3557"},"vehicle_type_id":"4","last_reported":1762369705,"current_range_meters":10800,"station_id":"ce4bhs12rcd13ifvqhvg","pricing_plan_id":"cebpf4jnsgd1na2vs0mg"},{"bike_id":"16273641-9b92-483b-a83f-f6770c6ab72c","system_id":"levelo_inurba_marseille","lat":43.29523,"lon":5.39032,"is_reserved":false,"is_disabled":false,"rental_uris":{"android":"levelo://app?vid=16273641-9b92-483b-a83f-f6770c6ab72c","ios":"levelo://app?vid=16273641-9b92-483b-a83f-f6770c6ab72c"},"vehicle_type_id":"4","last_reported":1762369705,"current_range_meters":10800,"station_id":"ce4bh3p2rcd13ifvqdp0","pricing_plan_id":"cebpf4jnsgd1na2vs0mg"},{"bike_id":"db4b3bbd-978d-4478-b368-3cc0dd9e4a1a","system_id":"levelo_inurba_marseille","lat":43.29364,"lon":5.37851,"is_reserved":false,"is_disabled":false,"rental_uris":{"android":"levelo://app?vid=db4b3bbd-978d-4478-b368-3cc0dd9e4a1a","ios":"levelo://app?vid=db4b3bbd-978d-4478-b368-3cc0dd9e4a1a"},"vehicle_type_id":"4","last_reported":1762369705,"current_range_meters":11200,"station_id":"ce4bgjh2rcd13ifvqbf0","pricing_plan_id":"cebpf4jnsgd1na2vs0mg"},{"bike_id":"8390cc25-302e-4848-9eeb-54ee31dd6fc5","system_id":"levelo_inurba_marseille","lat":43.28421,"lon":5.37507,"is_reserved":false,"is_disabled":false,"rental_uris":{"android":"levelo://app?vid=8390cc25-302e-4848-9eeb-54ee31dd6fc5","ios":"levelo://app?vid=8390cc25-302e-4848-9eeb-54ee31dd6fc5"},"vehicle_type_id":"4","last_reported":1762369705,"current_range_meters":11200,"station_id":"ce4bh412rcd13ifvqds0","pricing_plan_id":"cebpf4jnsgd1na2vs0mg"},{"bike_id":"e2104b6a-7e12-4a20-ae1b-cf4b446d5e26","system_id":"levelo_inurba_marseille","lat":43.284777,"lon":5.484009,"is_reserved":false,"is_disabled":false,"rental_uris":{"android":"levelo://app?vid=e2104b6a-7e12-4a20-ae1b-cf4b446d5e26","ios":"levelo://app?vid=e2104b6a-7e12-4a20-ae1b-cf4b446d5e26"},"vehicle_type_id":"4","last_reported":1762369705,"current_range_meters":11200,"station_id":"st_d3svhcjqgbts73a3dn0g","pricing_plan_id":"cebpf4jnsgd1na2vs0mg"},{"bike_id":"e458a04e-8648-405c-ad83-b53d61f3e64a","system_id":"levelo_inurba_marseille","lat":43.22934,"lon":5.3537,"is_reserved":false,"is_disabled":false,"rental_uris":{"android":"levelo://app?vid=e458a04e-8648-405c-ad83-b53d61f3e64a","ios":"levelo://app?vid=e458a04e-8648-405c-ad83-b53d61f3e64a"},"vehicle_type_id":"4","last_reported":1762369705,"current_range_meters":11600,"station_id":"cpo3532slgdg3j2ikp40","pricing_plan_id":"cebpf4jnsgd1na2vs0mg"},{"bike_id":"8f5c5e28-dca5-4cf0-8947-a5cfbda88464","system_id":"levelo_inurba_marseille","lat":43.23195,"lon":5.3997,"is_reserved":false,"is_disabled":false,"rental_uris":{"android":"levelo://app?vid=8f5c5e28-dca5-4cf0-8947-a5cfbda88464","ios":"levelo://app?vid=8f5c5e28-dca5-4cf0-8947-a5cfbda88464"},"vehicle_type_id":"4","last_reported":1762369705,"current_range_meters":11600,"station_id":"ce4bhn12rcd13ifvqgqg","pricing_plan_id":"cebpf4jnsgd1na2vs0mg"},{"bike_id":"359c0f3a-4e42-42b5-8ca9-4a59256db590","system_id":"levelo_inurba_marseille","lat":43.29258,"lon":5.38433,"is_reserved":false,"is_disabled":false,"rental_uris":{"android":"levelo://app?vid=359c0f3a-4e42-42b5-8ca9-4a59256db590","ios":"levelo://app?vid=359c0f3a-4e42-42b5-8ca9-4a59256db590"},"vehicle_type_id":"4","last_reported":1762369705,"current_range_meters":11600,"station_id":"ce4bh692rcd13ifvqea0","pricing_plan_id":"cebpf4jnsgd1na2vs0mg"},{"bike_id":"d3f934d8-97cb-4416-93fd-f748c8c54459","system_id":"levelo_inurba_marseille","lat":43.24384,"lon":5.3705,"is_reserved":false,"is_disabled":false,"rental_uris":{"android":"levelo://app?vid=d3f934d8-97cb-4416-93fd-f748c8c54459","ios":"levelo://app?vid=d3f934d8-97cb-4416-93fd-f748c8c54459"},"vehicle_type_id":"4","last_reported":1762369705,"current_range_meters":11600,"station_id":"ce4bhhh2rcd13ifvqfk0","pricing_plan_id":"cebpf4jnsgd1na2vs0mg"},{"bike_id":"b1393d54-d42e-4ed1-a672-cbb503620a84","system_id":"levelo_inurba_marseille","lat":43.29045,"lon":5.38647,"is_reserved":false,"is_disabled":false,"rental_uris":{"android":"levelo://app?vid=b1393d54-d42e-4ed1-a672-cbb503620a84","ios":"levelo://app?vid=b1393d54-d42e-4ed1-a672-cbb503620a84"},"vehicle_type_id":"4","last_reported":1762369705,"current_range_meters":11600,"station_id":"ce4bh4p2rcd13ifvqe0g","pricing_plan_id":"cebpf4jnsgd1na2vs0mg"},{"bike_id":"623948f0-bec0-4e38-9eb6-35fc087e44ec","system_id":"levelo_inurba_marseille","lat":43.30193,"lon":5.39458,"is_reserved":false,"is_disabled":false,"rental_uris":{"android":"levelo://app?vid=623948f0-bec0-4e38-9eb6-35fc087e44ec","ios":"levelo://app?vid=623948f0-bec0-4e38-9eb6-35fc087e44ec"},"vehicle_type_id":"4","last_reported":1762369705,"current_range_meters":11600,"station_id":"ce4bh0p2rcd13ifvqd70","pricing_plan_id":"cebpf4jnsgd1na2vs0mg"},{"bike_id":"560de2b4-e6c5-4765-89f5-b3414e085c9b","system_id":"levelo_inurba_marseille","lat":43.29253,"lon":5.38419,"is_reserved":false,"is_disabled":false,"rental_uris":{"android":"levelo://app?vid=560de2b4-e6c5-4765-89f5-b3414e085c9b","ios":"levelo://app?vid=560de2b4-e6c5-4765-89f5-b3414e085c9b"},"vehicle_type_id":"4","last_reported":1762369705,"current_range_meters":11600,"station_id":"ce4bh692rcd13ifvqea0","pricing_plan_id":"cebpf4jnsgd1na2vs0mg"},{"bike_id":"b29f4980-aa7f-4c74-b964-5368d2943182","system_id":"levelo_inurba_marseille","lat":43.303314,"lon":5.404352,"is_reserved":false,"is_disabled":false,"rental_uris":{"android":"levelo://app?vid=b29f4980-aa7f-4c74-b964-5368d2943182","ios":"levelo://app?vid=b29f4980-aa7f-4c74-b964-5368d2943182"},"vehicle_type_id":"4","last_reported":1762369705,"current_range_meters":12000,"station_id":"ce4bh012rcd13ifvqd10","pricing_plan_id":"cebpf4jnsgd1na2vs0mg"},{"bike_id":"571bd3a6-912b-44a3-9841-50c558a61481","system_id":"levelo_inurba_marseille","lat":43.28137,"lon":5.40559,"is_reserved":false,"is_disabled":false,"rental_uris":{"android":"levelo://app?vid=571bd3a6-912b-44a3-9841-50c558a61481","ios":"levelo://app?vid=571bd3a6-912b-44a3-9841-50c558a61481"},"vehicle_type_id":"4","last_reported":1762369705,"current_range_meters":12000,"station_id":"","pricing_plan_id":"cebpf4jnsgd1na2vs0mg"},{"bike_id":"c24db8f8-7b44-40d8-8d41-ee28db740104","system_id":"levelo_inurba_marseille","lat":43.26567,"lon":5.39012,"is_reserved":false,"is_disabled":false,"rental_uris":{"android":"levelo://app?vid=c24db8f8-7b44-40d8-8d41-ee28db740104","ios":"levelo://app?vid=c24db8f8-7b44-40d8-8d41-ee28db740104"},"vehicle_type_id":"4","last_reported":1762369705,"current_range_meters":12000,"station_id":"ce4bhe12rcd13ifvqf30","pricing_plan_id":"cebpf4jnsgd1na2vs0mg"},{"bike_id":"9f6d9b6f-aa25-4efe-b612-e51ed7b80e57","system_id":"levelo_inurba_marseille","lat":43.28436,"lon":5.39199,"is_reserved":false,"is_disabled":false,"rental_uris":{"android":"levelo://app?vid=9f6d9b6f-aa25-4efe-b612-e51ed7b80e57","ios":"levelo://app?vid=9f6d9b6f-aa25-4efe-b612-e51ed7b80e57"},"vehicle_type_id":"4","last_reported":1762369705,"current_range_meters":12000,"station_id":"ce4bhoh2rcd13ifvqh5g","pricing_plan_id":"cebpf4jnsgd1na2vs0mg"},{"bike_id":"44a4c161-605d-4438-b884-ab0763184b99","system_id":"levelo_inurba_marseille","lat":43.264717,"lon":5.384003,"is_reserved":false,"is_disabled":false,"rental_uris":{"android":"levelo://app?vid=44a4c161-605d-4438-b884-ab0763184b99","ios":"levelo://app?vid=44a4c161-605d-4438-b884-ab0763184b99"},"vehicle_type_id":"4","last_reported":1762369705,"current_range_meters":12000,"station_id":"ce4bhe12rcd13ifvqf30","pricing_plan_id":"cebpf4jnsgd1na2vs0mg"},{"bike_id":"0950685d-ad5e-48d9-b370-cc57fc616866","system_id":"levelo_inurba_marseille","lat":43.26557,"lon":5.40317,"is_reserved":false,"is_disabled":false,"rental_uris":{"android":"levelo://app?vid=0950685d-ad5e-48d9-b370-cc57fc616866","ios":"levelo://app?vid=0950685d-ad5e-48d9-b370-cc57fc616866"},"vehicle_type_id":"4","last_reported":1762369705,"current_range_meters":12000,"station_id":"ce4bhmp2rcd13ifvqgng","pricing_plan_id":"cebpf4jnsgd1na2vs0mg"},{"bike_id":"3cb620c9-f1b9-4659-89d8-3039ec4dbbcc","system_id":"levelo_inurba_marseille","lat":43.280957,"lon":5.425946,"is_reserved":false,"is_disabled":false,"rental_uris":{"android":"levelo://app?vid=3cb620c9-f1b9-4659-89d8-3039ec4dbbcc","ios":"levelo://app?vid=3cb620c9-f1b9-4659-89d8-3039ec4dbbcc"},"vehicle_type_id":"4","last_reported":1762369705,"current_range_meters":12000,"station_id":"ce4bhnh2rcd13ifvqgug","pricing_plan_id":"cebpf4jnsgd1na2vs0mg"},{"bike_id":"8f66d37b-14d2-4b98-a82d-3df5be6e6cb7","system_id":"levelo_inurba_marseille","lat":43.26942,"lon":5.40257,"is_reserved":false,"is_disabled":false,"rental_uris":{"android":"levelo://app?vid=8f66d37b-14d2-4b98-a82d-3df5be6e6cb7","ios":"levelo://app?vid=8f66d37b-14d2-4b98-a82d-3df5be6e6cb7"},"vehicle_type_id":"4","last_reported":1762369705,"current_range_meters":12000,"station_id":"cjm6bp8fraef2m0cb0m0","pricing_plan_id":"cebpf4jnsgd1na2vs0mg"},{"bike_id":"dae30738-204c-4787-a9b5-e056fa94e0c9","system_id":"levelo_inurba_marseille","lat":43.22566,"lon":5.41628,"is_reserved":false,"is_disabled":false,"rental_uris":{"android":"levelo://app?vid=dae30738-204c-4787-a9b5-e056fa94e0c9","ios":"levelo://app?vid=dae30738-204c-4787-a9b5-e056fa94e0c9"},"vehicle_type_id":"4","last_reported":1762369705,"current_range_meters":12400,"station_id":"st_d2o4gvlbi1j2169b742g","pricing_plan_id":"cebpf4jnsgd1na2vs0mg"},{"bike_id":"ab9b2bcc-ea75-449d-adbb-4add292d38c4","system_id":"levelo_inurba_marseille","lat":43.3411,"lon":5.37982,"is_reserved":false,"is_disabled":false,"rental_uris":{"android":"levelo://app?vid=ab9b2bcc-ea75-449d-adbb-4add292d38c4","ios":"levelo://app?vid=ab9b2bcc-ea75-449d-adbb-4add292d38c4"},"vehicle_type_id":"4","last_reported":1762369705,"current_range_meters":12400,"station_id":"","pricing_plan_id":"cebpf4jnsgd1na2vs0mg"},{"bike_id":"0e552717-f3d1-4522-82d5-c6b49b1fcc26","system_id":"levelo_inurba_marseille","lat":43.275543,"lon":5.384124,"is_reserved":false,"is_disabled":false,"rental_uris":{"android":"levelo://app?vid=0e552717-f3d1-4522-82d5-c6b49b1fcc26","ios":"levelo://app?vid=0e552717-f3d1-4522-82d5-c6b49b1fcc26"},"vehicle_type_id":"4","last_reported":1762369705,"current_range_meters":12400,"station_id":"ce4bhh92rcd13ifvqfi0","pricing_plan_id":"cebpf4jnsgd1na2vs0mg"},{"bike_id":"9e980b41-4970-4ea1-9816-8faaa5d4b526","system_id":"levelo_inurba_marseille","lat":43.23145,"lon":5.43705,"is_reserved":false,"is_disabled":false,"rental_uris":{"android":"levelo://app?vid=9e980b41-4970-4ea1-9816-8faaa5d4b526","ios":"levelo://app?vid=9e980b41-4970-4ea1-9816-8faaa5d4b526"},"vehicle_type_id":"4","last_reported":1762369705,"current_range_meters":12800,"station_id":"ce4bhmp2rcd13ifvqgog","pricing_plan_id":"cebpf4jnsgd1na2vs0mg"},{"bike_id":"23704d21-dcb4-4524-a0e7-782c68706e98","system_id":"levelo_inurba_marseille","lat":43.27939,"lon":5.41036,"is_reserved":false,"is_disabled":false,"rental_uris":{"android":"levelo://app?vid=23704d21-dcb4-4524-a0e7-782c68706e98","ios":"levelo://app?vid=23704d21-dcb4-4524-a0e7-782c68706e98"},"vehicle_type_id":"4","last_reported":1762369705,"current_range_meters":12800,"station_id":"ce4bhnp2rcd13ifvqh0g","pricing_plan_id":"cebpf4jnsgd1na2vs0mg"},{"bike_id":"8db420a7-407a-4cd3-9095-5a8e96625979","system_id":"levelo_inurba_marseille","lat":43.22943,"lon":5.35353,"is_reserved":false,"is_disabled":false,"rental_uris":{"android":"levelo://app?vid=8db420a7-407a-4cd3-9095-5a8e96625979","ios":"levelo://app?vid=8db420a7-407a-4cd3-9095-5a8e96625979"},"vehicle_type_id":"4","last_reported":1762369705,"current_range_meters":12800,"station_id":"cpo3532slgdg3j2ikp40","pricing_plan_id":"cebpf4jnsgd1na2vs0mg"},{"bike_id":"47520822-b741-40b4-a3ee-01d1a699509d","system_id":"levelo_inurba_marseille","lat":43.27206,"lon":5.39177,"is_reserved":false,"is_disabled":false,"rental_uris":{"android":"levelo://app?vid=47520822-b741-40b4-a3ee-01d1a699509d","ios":"levelo://app?vid=47520822-b741-40b4-a3ee-01d1a699509d"},"vehicle_type_id":"4","last_reported":1762369705,"current_range_meters":12800,"station_id":"ce4bhhp2rcd13ifvqfm0","pricing_plan_id":"cebpf4jnsgd1na2vs0mg"},{"bike_id":"91c966f3-2e04-48e9-bdfb-ff4f2c9430a7","system_id":"levelo_inurba_marseille","lat":43.28929,"lon":5.38393,"is_reserved":false,"is_disabled":false,"rental_uris":{"android":"levelo://app?vid=91c966f3-2e04-48e9-bdfb-ff4f2c9430a7","ios":"levelo://app?vid=91c966f3-2e04-48e9-bdfb-ff4f2c9430a7"},"vehicle_type_id":"4","last_reported":1762369705,"current_range_meters":13600,"station_id":"ce4bh612rcd13ifvqe6g","pricing_plan_id":"cebpf4jnsgd1na2vs0mg"},{"bike_id":"b78a3f58-aa58-46ec-81b6-5811d8a0dc36","system_id":"levelo_inurba_marseille","lat":43.28928,"lon":5.38407,"is_reserved":false,"is_disabled":false,"rental_uris":{"android":"levelo://app?vid=b78a3f58-aa58-46ec-81b6-5811d8a0dc36","ios":"levelo://app?vid=b78a3f58-aa58-46ec-81b6-5811d8a0dc36"},"vehicle_type_id":"4","last_reported":1762369705,"current_range_meters":13600,"station_id":"ce4bh612rcd13ifvqe6g","pricing_plan_id":"cebpf4jnsgd1na2vs0mg"},{"bike_id":"cb836c96-23a3-40c8-8f47-ab1a3aef5195","system_id":"levelo_inurba_marseille","lat":43.24541,"lon":5.39521,"is_reserved":false,"is_disabled":false,"rental_uris":{"android":"levelo://app?vid=cb836c96-23a3-40c8-8f47-ab1a3aef5195","ios":"levelo://app?vid=cb836c96-23a3-40c8-8f47-ab1a3aef5195"},"vehicle_type_id":"4","last_reported":1762369705,"current_range_meters":13600,"station_id":"ce4bhlp2rcd13ifvqgjg","pricing_plan_id":"cebpf4jnsgd1na2vs0mg"},{"bike_id":"cbb5f157-82db-4310-a293-db82a5f832a4","system_id":"levelo_inurba_marseille","lat":43.28075,"lon":5.39655,"is_reserved":false,"is_disabled":false,"rental_uris":{"android":"levelo://app?vid=cbb5f157-82db-4310-a293-db82a5f832a4","ios":"levelo://app?vid=cbb5f157-82db-4310-a293-db82a5f832a4"},"vehicle_type_id":"4","last_reported":1762369705,"current_range_meters":14000,"station_id":"ce4bho12rcd13ifvqh2g","pricing_plan_id":"cebpf4jnsgd1na2vs0mg"},{"bike_id":"80300c92-ab41-4973-80a9-5f52b25e3a51","system_id":"levelo_inurba_marseille","lat":43.31492,"lon":5.37311,"is_reserved":false,"is_disabled":false,"rental_uris":{"android":"levelo://app?vid=80300c92-ab41-4973-80a9-5f52b25e3a51","ios":"levelo://app?vid=80300c92-ab41-4973-80a9-5f52b25e3a51"},"vehicle_type_id":"4","last_reported":1762369705,"current_range_meters":14000,"station_id":"ce4bgt12rcd13ifvqcd0","pricing_plan_id":"cebpf4jnsgd1na2vs0mg"},{"bike_id":"58637b84-4b24-419d-9135-6d3e55f6808b","system_id":"levelo_inurba_marseille","lat":43.27374,"lon":5.36253,"is_reserved":false,"is_disabled":false,"rental_uris":{"android":"levelo://app?vid=58637b84-4b24-419d-9135-6d3e55f6808b","ios":"levelo://app?vid=58637b84-4b24-419d-9135-6d3e55f6808b"},"vehicle_type_id":"4","last_reported":1762369705,"current_range_meters":14000,"station_id":"ce4bhbh2rcd13ifvqeo0","pricing_plan_id":"cebpf4jnsgd1na2vs0mg"},{"bike_id":"f25ddf2b-ef50-477d-8ee2-e9ed46876e3b","system_id":"levelo_inurba_marseille","lat":43.29298,"lon":5.37458,"is_reserved":false,"is_disabled":false,"rental_uris":{"android":"levelo://app?vid=f25ddf2b-ef50-477d-8ee2-e9ed46876e3b","ios":"levelo://app?vid=f25ddf2b-ef50-477d-8ee2-e9ed46876e3b"},"vehicle_type_id":"4","last_reported":1762369705,"current_range_meters":14000,"station_id":"ce4bgi12rcd13ifvqb70","pricing_plan_id":"cebpf4jnsgd1na2vs0mg"},{"bike_id":"15264985-0612-45a7-bd7e-1435535d2e4e","system_id":"levelo_inurba_marseille","lat":43.28471,"lon":5.38418,"is_reserved":false,"is_disabled":false,"rental_uris":{"android":"levelo://app?vid=15264985-0612-45a7-bd7e-1435535d2e4e","ios":"levelo://app?vid=15264985-0612-45a7-bd7e-1435535d2e4e"},"vehicle_type_id":"4","last_reported":1762369705,"current_range_meters":14000,"station_id":"ce4bh512rcd13ifvqe3g","pricing_plan_id":"cebpf4jnsgd1na2vs0mg"},{"bike_id":"94b06f3e-9c43-404e-899a-d1e48d6d7a76","system_id":"levelo_inurba_marseille","lat":43.287102,"lon":5.399967,"is_reserved":false,"is_disabled":false,"rental_uris":{"android":"levelo://app?vid=94b06f3e-9c43-404e-899a-d1e48d6d7a76","ios":"levelo://app?vid=94b06f3e-9c43-404e-899a-d1e48d6d7a76"},"vehicle_type_id":"4","last_reported":1762369705,"current_range_meters":14000,"station_id":"ce4bho92rcd13ifvqh3g","pricing_plan_id":"cebpf4jnsgd1na2vs0mg"},{"bike_id":"1b2e3542-e437-4188-9eda-632c7cbb8c02","system_id":"levelo_inurba_marseille","lat":43.27426,"lon":5.39409,"is_reserved":false,"is_disabled":false,"rental_uris":{"android":"levelo://app?vid=1b2e3542-e437-4188-9eda-632c7cbb8c02","ios":"levelo://app?vid=1b2e3542-e437-4188-9eda-632c7cbb8c02"},"vehicle_type_id":"4","last_reported":1762369705,"current_range_meters":14000,"station_id":"ce4bhdp2rcd13ifvqf20","pricing_plan_id":"cebpf4jnsgd1na2vs0mg"},{"bike_id":"bcb3c39b-ec48-48ef-9eac-eb8b71840959","system_id":"levelo_inurba_marseille","lat":43.33757,"lon":5.37464,"is_reserved":false,"is_disabled":false,"rental_uris":{"android":"levelo://app?vid=bcb3c39b-ec48-48ef-9eac-eb8b71840959","ios":"levelo://app?vid=bcb3c39b-ec48-48ef-9eac-eb8b71840959"},"vehicle_type_id":"4","last_reported":1762369705,"current_range_meters":14000,"station_id":"","pricing_plan_id":"cebpf4jnsgd1na2vs0mg"},{"bike_id":"813d84df-d28e-442a-86a4-2693a3f1117d","system_id":"levelo_inurba_marseille","lat":43.2305,"lon":5.35488,"is_reserved":false,"is_disabled":false,"rental_uris":{"android":"levelo://app?vid=813d84df-d28e-442a-86a4-2693a3f1117d","ios":"levelo://app?vid=813d84df-d28e-442a-86a4-2693a3f1117d"},"vehicle_type_id":"4","last_reported":1762369705,"current_range_meters":14000,"station_id":"cpo3342slgdg3j2ifvpg","pricing_plan_id":"cebpf4jnsgd1na2vs0mg"},{"bike_id":"cff64f4e-5f37-43ea-ae7e-1ca574864a38","system_id":"levelo_inurba_marseille","lat":43.32461,"lon":5.42857,"is_reserved":false,"is_disabled":false,"rental_uris":{"android":"levelo://app?vid=cff64f4e-5f37-43ea-ae7e-1ca574864a38","ios":"levelo://app?vid=cff64f4e-5f37-43ea-ae7e-1ca574864a38"},"vehicle_type_id":"4","last_reported":1762369705,"current_range_meters":14000,"station_id":"","pricing_plan_id":"cebpf4jnsgd1na2vs0mg"},{"bike_id":"ead68c92-b5a1-4cb9-aa17-fc1601d1ceb6","system_id":"levelo_inurba_marseille","lat":43.29574,"lon":5.36742,"is_reserved":false,"is_disabled":false,"rental_uris":{"android":"levelo://app?vid=ead68c92-b5a1-4cb9-aa17-fc1601d1ceb6","ios":"levelo://app?vid=ead68c92-b5a1-4cb9-aa17-fc1601d1ceb6"},"vehicle_type_id":"4","last_reported":1762369705,"current_range_meters":14000,"station_id":"ce4bgph2rcd13ifvqc2g","pricing_plan_id":"cebpf4jnsgd1na2vs0mg"},{"bike_id":"c14b70b2-98d4-4848-a2d9-32722b8d1daf","system_id":"levelo_inurba_marseille","lat":43.321233,"lon":5.36762,"is_reserved":false,"is_disabled":false,"rental_uris":{"android":"levelo://app?vid=c14b70b2-98d4-4848-a2d9-32722b8d1daf","ios":"levelo://app?vid=c14b70b2-98d4-4848-a2d9-32722b8d1daf"},"vehicle_type_id":"4","last_reported":1762369705,"current_range_meters":14000,"station_id":"ce4bhrh2rcd13ifvqhug","pricing_plan_id":"cebpf4jnsgd1na2vs0mg"},{"bike_id":"42d2792a-88bd-48e5-afe0-4b6400cd337a","system_id":"levelo_inurba_marseille","lat":43.31667,"lon":5.38204,"is_reserved":false,"is_disabled":false,"rental_uris":{"android":"levelo://app?vid=42d2792a-88bd-48e5-afe0-4b6400cd337a","ios":"levelo://app?vid=42d2792a-88bd-48e5-afe0-4b6400cd337a"},"vehicle_type_id":"4","last_reported":1762369705,"current_range_meters":14000,"station_id":"","pricing_plan_id":"cebpf4jnsgd1na2vs0mg"},{"bike_id":"05494d81-4a86-4ffa-98b4-159d396ed055","system_id":"levelo_inurba_marseille","lat":43.31338,"lon":5.39691,"is_reserved":false,"is_disabled":false,"rental_uris":{"android":"levelo://app?vid=05494d81-4a86-4ffa-98b4-159d396ed055","ios":"levelo://app?vid=05494d81-4a86-4ffa-98b4-159d396ed055"},"vehicle_type_id":"4","last_reported":1762369705,"current_range_meters":14000,"station_id":"ce4bgvp2rcd13ifvqcu0","pricing_plan_id":"cebpf4jnsgd1na2vs0mg"},{"bike_id":"27aefe03-bbd2-43d3-8d72-3a7105da9194","system_id":"levelo_inurba_marseille","lat":43.31356,"lon":5.37911,"is_reserved":false,"is_disabled":false,"rental_uris":{"android":"levelo://app?vid=27aefe03-bbd2-43d3-8d72-3a7105da9194","ios":"levelo://app?vid=27aefe03-bbd2-43d3-8d72-3a7105da9194"},"vehicle_type_id":"4","last_reported":1762369705,"current_range_meters":14000,"station_id":"","pricing_plan_id":"cebpf4jnsgd1na2vs0mg"},{"bike_id":"c3cd6b04-e9ba-4cc9-a618-8f38ef91fd0d","system_id":"levelo_inurba_marseille","lat":43.292604,"lon":5.384399,"is_reserved":false,"is_disabled":false,"rental_uris":{"android":"levelo://app?vid=c3cd6b04-e9ba-4cc9-a618-8f38ef91fd0d","ios":"levelo://app?vid=c3cd6b04-e9ba-4cc9-a618-8f38ef91fd0d"},"vehicle_type_id":"4","last_reported":1762369705,"current_range_meters":14000,"station_id":"ce4bh692rcd13ifvqea0","pricing_plan_id":"cebpf4jnsgd1na2vs0mg"},{"bike_id":"b14d6794-9717-4472-9d9f-f27458e4addd","system_id":"levelo_inurba_marseille","lat":43.269548,"lon":5.386319,"is_reserved":false,"is_disabled":false,"rental_uris":{"android":"levelo://app?vid=b14d6794-9717-4472-9d9f-f27458e4addd","ios":"levelo://app?vid=b14d6794-9717-4472-9d9f-f27458e4addd"},"vehicle_type_id":"4","last_reported":1762369705,"current_range_meters":14000,"station_id":"ce4bhh92rcd13ifvqfh0","pricing_plan_id":"cebpf4jnsgd1na2vs0mg"},{"bike_id":"81dcc136-dea2-46c0-98af-42dbdee92b54","system_id":"levelo_inurba_marseille","lat":43.284838,"lon":5.484137,"is_reserved":false,"is_disabled":false,"rental_uris":{"android":"levelo://app?vid=81dcc136-dea2-46c0-98af-42dbdee92b54","ios":"levelo://app?vid=81dcc136-dea2-46c0-98af-42dbdee92b54"},"vehicle_type_id":"4","last_reported":1762369705,"current_range_meters":14000,"station_id":"","pricing_plan_id":"cebpf4jnsgd1na2vs0mg"},{"bike_id":"3c96401f-d3c3-49df-bdca-2c73cef328cb","system_id":"levelo_inurba_marseille","lat":43.269434,"lon":5.402831,"is_reserved":false,"is_disabled":false,"rental_uris":{"android":"levelo://app?vid=3c96401f-d3c3-49df-bdca-2c73cef328cb","ios":"levelo://app?vid=3c96401f-d3c3-49df-bdca-2c73cef328cb"},"vehicle_type_id":"4","last_reported":1762369705,"current_range_meters":14000,"station_id":"ce4bhk92rcd13ifvqgc0","pricing_plan_id":"cebpf4jnsgd1na2vs0mg"},{"bike_id":"8cf54d33-efb5-4166-8509-df2cb57488b1","system_id":"levelo_inurba_marseille","lat":43.33427,"lon":5.4002,"is_reserved":false,"is_disabled":false,"rental_uris":{"android":"levelo://app?vid=8cf54d33-efb5-4166-8509-df2cb57488b1","ios":"levelo://app?vid=8cf54d33-efb5-4166-8509-df2cb57488b1"},"vehicle_type_id":"4","last_reported":1762369705,"current_range_meters":14000,"station_id":"","pricing_plan_id":"cebpf4jnsgd1na2vs0mg"},{"bike_id":"5df50cd3-c5ae-4177-af79-f0332f8dc63f","system_id":"levelo_inurba_marseille","lat":43.30593,"lon":5.37209,"is_reserved":false,"is_disabled":false,"rental_uris":{"android":"levelo://app?vid=5df50cd3-c5ae-4177-af79-f0332f8dc63f","ios":"levelo://app?vid=5df50cd3-c5ae-4177-af79-f0332f8dc63f"},"vehicle_type_id":"4","last_reported":1762369705,"current_range_meters":14000,"station_id":"ce4bgqh2rcd13ifvqc4g","pricing_plan_id":"cebpf4jnsgd1na2vs0mg"},{"bike_id":"13d984c8-48d8-4dfc-aa86-5f78c707cacf","system_id":"levelo_inurba_marseille","lat":43.28037,"lon":5.36946,"is_reserved":false,"is_disabled":true,"rental_uris":{"android":"levelo://app?vid=13d984c8-48d8-4dfc-aa86-5f78c707cacf","ios":"levelo://app?vid=13d984c8-48d8-4dfc-aa86-5f78c707cacf"},"vehicle_type_id":"4","last_reported":1762369705,"current_range_meters":14400,"station_id":"ce4bha12rcd13ifvqef0","pricing_plan_id":"cebpf4jnsgd1na2vs0mg"},{"bike_id":"ca46fdbd-ac89-432a-9c58-507605a7d54c","system_id":"levelo_inurba_marseille","lat":43.29269,"lon":5.37629,"is_reserved":false,"is_disabled":false,"rental_uris":{"android":"levelo://app?vid=ca46fdbd-ac89-432a-9c58-507605a7d54c","ios":"levelo://app?vid=ca46fdbd-ac89-432a-9c58-507605a7d54c"},"vehicle_type_id":"4","last_reported":1762369705,"current_range_meters":14400,"station_id":"ce4bgi12rcd13ifvqb80","pricing_plan_id":"cebpf4jnsgd1na2vs0mg"},{"bike_id":"89668189-b95b-43c4-a0b4-cad5f1f90638","system_id":"levelo_inurba_marseille","lat":43.30182,"lon":5.38186,"is_reserved":false,"is_disabled":true,"rental_uris":{"android":"levelo://app?vid=89668189-b95b-43c4-a0b4-cad5f1f90638","ios":"levelo://app?vid=89668189-b95b-43c4-a0b4-cad5f1f90638"},"vehicle_type_id":"4","last_reported":1762369705,"current_range_meters":14400,"station_id":"","pricing_plan_id":"cebpf4jnsgd1na2vs0mg"},{"bike_id":"a6010974-670e-49c0-b408-8e5fee4c2775","system_id":"levelo_inurba_marseille","lat":43.2418,"lon":5.36401,"is_reserved":false,"is_disabled":false,"rental_uris":{"android":"levelo://app?vid=a6010974-670e-49c0-b408-8e5fee4c2775","ios":"levelo://app?vid=a6010974-670e-49c0-b408-8e5fee4c2775"},"vehicle_type_id":"4","last_reported":1762369705,"current_range_meters":14800,"station_id":"cpo36qri1sfpv3e86is0","pricing_plan_id":"cebpf4jnsgd1na2vs0mg"},{"bike_id":"c0462bdf-2858-4914-a377-421987398d1e","system_id":"levelo_inurba_marseille","lat":43.3012,"lon":5.43115,"is_reserved":false,"is_disabled":false,"rental_uris":{"android":"levelo://app?vid=c0462bdf-2858-4914-a377-421987398d1e","ios":"levelo://app?vid=c0462bdf-2858-4914-a377-421987398d1e"},"vehicle_type_id":"4","last_reported":1762369705,"current_range_meters":14800,"station_id":"st_d3js3co5814s73ftftug","pricing_plan_id":"cebpf4jnsgd1na2vs0mg"},{"bike_id":"d003dd43-341c-4d5c-a6f7-c9637153b2a6","system_id":"levelo_inurba_marseille","lat":43.29524,"lon":5.38543,"is_reserved":false,"is_disabled":false,"rental_uris":{"android":"levelo://app?vid=d003dd43-341c-4d5c-a6f7-c9637153b2a6","ios":"levelo://app?vid=d003dd43-341c-4d5c-a6f7-c9637153b2a6"},"vehicle_type_id":"4","last_reported":1762369705,"current_range_meters":14800,"station_id":"ce4bgih2rcd13ifvqba0","pricing_plan_id":"cebpf4jnsgd1na2vs0mg"},{"bike_id":"8d9583f5-13d4-4bd8-9fd0-8797edcf3040","system_id":"levelo_inurba_marseille","lat":43.245376,"lon":5.373041,"is_reserved":false,"is_disabled":false,"rental_uris":{"android":"levelo://app?vid=8d9583f5-13d4-4bd8-9fd0-8797edcf3040","ios":"levelo://app?vid=8d9583f5-13d4-4bd8-9fd0-8797edcf3040"},"vehicle_type_id":"4","last_reported":1762369705,"current_range_meters":15200,"station_id":"ce4bgqh2rcd13ifvqc5g","pricing_plan_id":"cebpf4jnsgd1na2vs0mg"},{"bike_id":"0fa17124-7aa2-471e-905a-f02c2fcf7ddc","system_id":"levelo_inurba_marseille","lat":43.30091,"lon":5.39061,"is_reserved":false,"is_disabled":false,"rental_uris":{"android":"levelo://app?vid=0fa17124-7aa2-471e-905a-f02c2fcf7ddc","ios":"levelo://app?vid=0fa17124-7aa2-471e-905a-f02c2fcf7ddc"},"vehicle_type_id":"4","last_reported":1762369705,"current_range_meters":15200,"station_id":"ce4bh192rcd13ifvqdb0","pricing_plan_id":"cebpf4jnsgd1na2vs0mg"},{"bike_id":"34766c65-aa4c-4509-be73-0e560cece71b","system_id":"levelo_inurba_marseille","lat":43.269294,"lon":5.40261,"is_reserved":false,"is_disabled":false,"rental_uris":{"android":"levelo://app?vid=34766c65-aa4c-4509-be73-0e560cece71b","ios":"levelo://app?vid=34766c65-aa4c-4509-be73-0e560cece71b"},"vehicle_type_id":"4","last_reported":1762369705,"current_range_meters":15200,"station_id":"cjm6bp8fraef2m0cb0m0","pricing_plan_id":"cebpf4jnsgd1na2vs0mg"},{"bike_id":"bda62a0d-e285-4468-a90a-40c415b7cc05","system_id":"levelo_inurba_marseille","lat":43.27324,"lon":5.39072,"is_reserved":false,"is_disabled":false,"rental_uris":{"android":"levelo://app?vid=bda62a0d-e285-4468-a90a-40c415b7cc05","ios":"levelo://app?vid=bda62a0d-e285-4468-a90a-40c415b7cc05"},"vehicle_type_id":"4","last_reported":1762369705,"current_range_meters":15200,"station_id":"ce4bhgp2rcd13ifvqfe0","pricing_plan_id":"cebpf4jnsgd1na2vs0mg"},{"bike_id":"8cbfebfc-6d68-4b68-8270-d866ef29a005","system_id":"levelo_inurba_marseille","lat":43.295288,"lon":5.385316,"is_reserved":false,"is_disabled":false,"rental_uris":{"android":"levelo://app?vid=8cbfebfc-6d68-4b68-8270-d866ef29a005","ios":"levelo://app?vid=8cbfebfc-6d68-4b68-8270-d866ef29a005"},"vehicle_type_id":"4","last_reported":1762369705,"current_range_meters":15200,"station_id":"ce4bgih2rcd13ifvqba0","pricing_plan_id":"cebpf4jnsgd1na2vs0mg"},{"bike_id":"3cf19423-4f24-4709-adcb-e1ca70cf4cef","system_id":"levelo_inurba_marseille","lat":43.317,"lon":5.40463,"is_reserved":false,"is_disabled":true,"rental_uris":{"android":"levelo://app?vid=3cf19423-4f24-4709-adcb-e1ca70cf4cef","ios":"levelo://app?vid=3cf19423-4f24-4709-adcb-e1ca70cf4cef"},"vehicle_type_id":"4","last_reported":1762369705,"current_range_meters":16000,"station_id":"ce4bh012rcd13ifvqd00","pricing_plan_id":"cebpf4jnsgd1na2vs0mg"},{"bike_id":"945e96b7-fc8b-4042-b636-1cb46e8c6c47","system_id":"levelo_inurba_marseille","lat":43.30896,"lon":5.3719,"is_reserved":false,"is_disabled":false,"rental_uris":{"android":"levelo://app?vid=945e96b7-fc8b-4042-b636-1cb46e8c6c47","ios":"levelo://app?vid=945e96b7-fc8b-4042-b636-1cb46e8c6c47"},"vehicle_type_id":"4","last_reported":1762369705,"current_range_meters":16000,"station_id":"ce4bguh2rcd13ifvqckg","pricing_plan_id":"cebpf4jnsgd1na2vs0mg"},{"bike_id":"d77a88e5-20b9-4fe1-89df-69baec122738","system_id":"levelo_inurba_marseille","lat":43.29748,"lon":5.38075,"is_reserved":false,"is_disabled":false,"rental_uris":{"android":"levelo://app?vid=d77a88e5-20b9-4fe1-89df-69baec122738","ios":"levelo://app?vid=d77a88e5-20b9-4fe1-89df-69baec122738"},"vehicle_type_id":"4","last_reported":1762369705,"current_range_meters":16000,"station_id":"","pricing_plan_id":"cebpf4jnsgd1na2vs0mg"},{"bike_id":"929999a6-b071-4278-81b4-e68a96607eec","system_id":"levelo_inurba_marseille","lat":43.24093,"lon":5.37781,"is_reserved":false,"is_disabled":false,"rental_uris":{"android":"levelo://app?vid=929999a6-b071-4278-81b4-e68a96607eec","ios":"levelo://app?vid=929999a6-b071-4278-81b4-e68a96607eec"},"vehicle_type_id":"4","last_reported":1762369705,"current_range_meters":16000,"station_id":"ce4bhnp2rcd13ifvqgvg","pricing_plan_id":"cebpf4jnsgd1na2vs0mg"},{"bike_id":"6c737ed5-968f-466e-b0b7-b6e46d701728","system_id":"levelo_inurba_marseille","lat":43.2987,"lon":5.39727,"is_reserved":false,"is_disabled":false,"rental_uris":{"android":"levelo://app?vid=6c737ed5-968f-466e-b0b7-b6e46d701728","ios":"levelo://app?vid=6c737ed5-968f-466e-b0b7-b6e46d701728"},"vehicle_type_id":"4","last_reported":1762369705,"current_range_meters":16000,"station_id":"ce4bh0h2rcd13ifvqd50","pricing_plan_id":"cebpf4jnsgd1na2vs0mg"},{"bike_id":"bb09bf26-fe04-437b-89bc-f629c719a974","system_id":"levelo_inurba_marseille","lat":43.26953,"lon":5.38632,"is_reserved":false,"is_disabled":false,"rental_uris":{"android":"levelo://app?vid=bb09bf26-fe04-437b-89bc-f629c719a974","ios":"levelo://app?vid=bb09bf26-fe04-437b-89bc-f629c719a974"},"vehicle_type_id":"4","last_reported":1762369705,"current_range_meters":16000,"station_id":"ce4bhh92rcd13ifvqfh0","pricing_plan_id":"cebpf4jnsgd1na2vs0mg"},{"bike_id":"2eb82506-87ab-4439-9037-d78d3fa7d513","system_id":"levelo_inurba_marseille","lat":43.27303,"lon":5.39069,"is_reserved":false,"is_disabled":false,"rental_uris":{"android":"levelo://app?vid=2eb82506-87ab-4439-9037-d78d3fa7d513","ios":"levelo://app?vid=2eb82506-87ab-4439-9037-d78d3fa7d513"},"vehicle_type_id":"4","last_reported":1762369705,"current_range_meters":16400,"station_id":"ce4bhgp2rcd13ifvqfe0","pricing_plan_id":"cebpf4jnsgd1na2vs0mg"},{"bike_id":"376d879c-b18b-4d8c-8432-51ed24b99976","system_id":"levelo_inurba_marseille","lat":43.268053,"lon":5.402702,"is_reserved":false,"is_disabled":false,"rental_uris":{"android":"levelo://app?vid=376d879c-b18b-4d8c-8432-51ed24b99976","ios":"levelo://app?vid=376d879c-b18b-4d8c-8432-51ed24b99976"},"vehicle_type_id":"4","last_reported":1762369705,"current_range_meters":16400,"station_id":"ce501612rcd8frsf0b60","pricing_plan_id":"cebpf4jnsgd1na2vs0mg"},{"bike_id":"40e478f4-3bb3-4c65-aa90-4564427c0f6f","system_id":"levelo_inurba_marseille","lat":43.2961,"lon":5.38093,"is_reserved":false,"is_disabled":false,"rental_uris":{"android":"levelo://app?vid=40e478f4-3bb3-4c65-aa90-4564427c0f6f","ios":"levelo://app?vid=40e478f4-3bb3-4c65-aa90-4564427c0f6f"},"vehicle_type_id":"4","last_reported":1762369705,"current_range_meters":16400,"station_id":"ce4bgl12rcd13ifvqbo0","pricing_plan_id":"cebpf4jnsgd1na2vs0mg"},{"bike_id":"c6d2dafc-fb2c-4b82-8b78-f3d7d347211b","system_id":"levelo_inurba_marseille","lat":43.32356,"lon":5.36734,"is_reserved":false,"is_disabled":false,"rental_uris":{"android":"levelo://app?vid=c6d2dafc-fb2c-4b82-8b78-f3d7d347211b","ios":"levelo://app?vid=c6d2dafc-fb2c-4b82-8b78-f3d7d347211b"},"vehicle_type_id":"4","last_reported":1762369705,"current_range_meters":16400,"station_id":"ce4bhsh2rcd13ifvqi2g","pricing_plan_id":"cebpf4jnsgd1na2vs0mg"},{"bike_id":"332ea5f8-d8ad-4878-bba6-2a32605882e6","system_id":"levelo_inurba_marseille","lat":43.32101,"lon":5.36783,"is_reserved":false,"is_disabled":false,"rental_uris":{"android":"levelo://app?vid=332ea5f8-d8ad-4878-bba6-2a32605882e6","ios":"levelo://app?vid=332ea5f8-d8ad-4878-bba6-2a32605882e6"},"vehicle_type_id":"4","last_reported":1762369705,"current_range_meters":16400,"station_id":"ce4bhrh2rcd13ifvqhug","pricing_plan_id":"cebpf4jnsgd1na2vs0mg"},{"bike_id":"f64bf7d2-5fd8-4fa3-b324-dc5fa9e2df5d","system_id":"levelo_inurba_marseille","lat":43.29531,"lon":5.38541,"is_reserved":false,"is_disabled":false,"rental_uris":{"android":"levelo://app?vid=f64bf7d2-5fd8-4fa3-b324-dc5fa9e2df5d","ios":"levelo://app?vid=f64bf7d2-5fd8-4fa3-b324-dc5fa9e2df5d"},"vehicle_type_id":"4","last_reported":1762369705,"current_range_meters":16400,"station_id":"ce4bgih2rcd13ifvqba0","pricing_plan_id":"cebpf4jnsgd1na2vs0mg"},{"bike_id":"6dd7766c-38c3-45a4-b565-eeac613cc87d","system_id":"levelo_inurba_marseille","lat":43.26945,"lon":5.40252,"is_reserved":false,"is_disabled":false,"rental_uris":{"android":"levelo://app?vid=6dd7766c-38c3-45a4-b565-eeac613cc87d","ios":"levelo://app?vid=6dd7766c-38c3-45a4-b565-eeac613cc87d"},"vehicle_type_id":"4","last_reported":1762369705,"current_range_meters":16400,"station_id":"cjm6bp8fraef2m0cb0m0","pricing_plan_id":"cebpf4jnsgd1na2vs0mg"},{"bike_id":"33daae0c-4733-4832-a4d5-c1e66ebb727c","system_id":"levelo_inurba_marseille","lat":43.30529,"lon":5.36714,"is_reserved":false,"is_disabled":false,"rental_uris":{"android":"levelo://app?vid=33daae0c-4733-4832-a4d5-c1e66ebb727c","ios":"levelo://app?vid=33daae0c-4733-4832-a4d5-c1e66ebb727c"},"vehicle_type_id":"4","last_reported":1762369705,"current_range_meters":16400,"station_id":"ce4bgrp2rcd13ifvqc9g","pricing_plan_id":"cebpf4jnsgd1na2vs0mg"},{"bike_id":"92e6f8d5-71b7-425a-8e5d-0d8a35c117ca","system_id":"levelo_inurba_marseille","lat":43.28154,"lon":5.42646,"is_reserved":false,"is_disabled":false,"rental_uris":{"android":"levelo://app?vid=92e6f8d5-71b7-425a-8e5d-0d8a35c117ca","ios":"levelo://app?vid=92e6f8d5-71b7-425a-8e5d-0d8a35c117ca"},"vehicle_type_id":"4","last_reported":1762369705,"current_range_meters":16400,"station_id":"ce4bhnh2rcd13ifvqgug","pricing_plan_id":"cebpf4jnsgd1na2vs0mg"},{"bike_id":"ddeaa719-beea-4500-8aff-3836fff83949","system_id":"levelo_inurba_marseille","lat":43.31271,"lon":5.4681,"is_reserved":false,"is_disabled":false,"rental_uris":{"android":"levelo://app?vid=ddeaa719-beea-4500-8aff-3836fff83949","ios":"levelo://app?vid=ddeaa719-beea-4500-8aff-3836fff83949"},"vehicle_type_id":"4","last_reported":1762369705,"current_range_meters":16400,"station_id":"","pricing_plan_id":"cebpf4jnsgd1na2vs0mg"},{"bike_id":"4409e8e6-e2b1-45fd-ac80-4ccdb4f82c11","system_id":"levelo_inurba_marseille","lat":43.3109,"lon":5.4241,"is_reserved":false,"is_disabled":false,"rental_uris":{"android":"levelo://app?vid=4409e8e6-e2b1-45fd-ac80-4ccdb4f82c11","ios":"levelo://app?vid=4409e8e6-e2b1-45fd-ac80-4ccdb4f82c11"},"vehicle_type_id":"4","last_reported":1762369705,"current_range_meters":16800,"station_id":"ce4bhp92rcd13ifvqhag","pricing_plan_id":"cebpf4jnsgd1na2vs0mg"},