{"last_updated":1701194947,"ttl":30,"version":"2.2","data":{"bikes":[{"bike_id":"a5491b6b-4d88-4ea3-8570-ce38f5f43607","system_id":"levelo_inurba_marseille","lat":43.312239,"lon":5.368562,"is_reserved":false,"is_disabled":false,"rental_uris":{"android":"levelo://app?vid=a5491b6b-4d88-4ea3-8570-ce38f5f43607","ios":"levelo://app?vid=a5491b6b-4d88-4ea3-8570-ce38f5f43607"},"vehicle_type_id":"4","last_reported":1701194947,"current_range_meters":28000,"station_id":"ce4bgl92rcd13ifvqbq0","pricing_plan_id":"free"},{"bike_id":"6562eb17-4941-4798-8528-7ebfb34389a3","system_id":"levelo_inurba_marseille","lat":43.312239,"lon":5.368562,"is_reserved":false,"is_disabled":false,"rental_uris":{"android":"levelo://app?vid=6562eb17-4941-4798-8528-7ebfb34389a3","ios":"levelo://app?vid=6562eb17-4941-4798-8528-7ebfb34389a3"},"vehicle_type_id":"4","last_reported":1701194947,"current_range_meters":800,"station_id":"ce4bgl92rcd13ifvqbq0","pricing_plan_id":"free"},{"bike_id":"41b86c11-fe40-4d29-8597-38dea917e377","system_id":"levelo_inurba_marseille","lat":43.314811,"lon":5.373103,"is_reserved":false,"is_disabled":false,"rental_uris":{"android":"levelo://app?vid=41b86c11-fe40-4d29-8597-38dea917e377","ios":"levelo://app?vid=41b86c11-fe40-4d29-8597-38dea917e377"},"vehicle_type_id":"4","last_reported":1701194947,"current_range_meters":29600,"station_id":"ce4bgt12rcd13ifvqcd0","pricing_plan_id":"free"},{"bike_id":"ffbc7983-eaf2-43b6-8c4b-28ca336d0813","system_id":"levelo_inurba_marseille","lat":43.314811,"lon":5.373103,"is_reserved":false,"is_disabled":false,"rental_uris":{"android":"levelo://app?vid=ffbc7983-eaf2-43b6-8c4b-28ca336d0813","ios":"levelo://app?vid=ffbc7983-eaf2-43b6-8c4b-28ca336d0813"},"vehicle_type_id":"4","last_reported":1701194947,"current_range_meters":26000,"station_id":"ce4bgt12rcd13ifvqcd0","pricing_plan_id":"free"},{"bike_id":"e5930290-4de9-4592-b0ff-1380d2b4e48e","system_id":"levelo_inurba_marseille","lat":43.31349,"lon":5.37637,"is_reserved":false,"is_disabled":false,"rental_uris":{"android":"levelo://app?vid=e5930290-4de9-4592-b0ff-1380d2b4e48e","ios":"levelo://app?vid=e5930290-4de9-4592-b0ff-1380d2b4e48e"},"vehicle_type_id":"4","last_reported":1701194947,"current_range_meters":26400,"station_id":"","pricing_plan_id":"free"},{"bike_id":"795259dd-ef69-4962-9b7e-033018acb347","system_id":"levelo_inurba_marseille","lat":43.30549,"lon":5.36702,"is_reserved":false,"is_disabled":false,"rental_uris":{"android":"levelo://app?vid=795259dd-ef69-4962-9b7e-033018acb347","ios":"levelo://app?vid=795259dd-ef69-4962-9b7e-033018acb347"},"vehicle_type_id":"4","last_reported":1701194947,"current_range_meters":10000,"station_id":"ce4bgrp2rcd13ifvqc9g","pricing_plan_id":"free"},{"bike_id":"4775bf04-6961-40cb-b1f2-07de343ae7a3","system_id":"levelo_inurba_marseille","lat":43.305458,"lon":5.367165,"is_reserved":false,"is_disabled":false,"rental_uris":{"android":"levelo://app?vid=4775bf04-6961-40cb-b1f2-07de343ae7a3","ios":"levelo://app?vid=4775bf04-6961-40cb-b1f2-07de343ae7a3"},"vehicle_type_id":"4","last_reported":1701194947,"current_range_meters":30000,"station_id":"ce4bgrp2rcd13ifvqc9g","pricing_plan_id":"free"},{"bike_id":"5c67797f-7440-4866-a626-a9c6be1aada8","system_id":"levelo_inurba_marseille","lat":43.305989,"lon":5.37225,"is_reserved":false,"is_disabled":false,"rental_uris":{"android":"levelo://app?vid=5c67797f-7440-4866-a626-a9c6be1aada8","ios":"levelo://app?vid=5c67797f-7440-4866-a626-a9c6be1aada8"},"vehicle_type_id":"4","last_reported":1701194947,"current_range_meters":5200,"station_id":"ce4bgqh2rcd13ifvqc4g","pricing_plan_id":"free"},{"bike_id":"45b3ff23-a937-45d9-9f96-088c308c0189","system_id":"levelo_inurba_marseille","lat":43.308196,"lon":5.376569,"is_reserved":false,"is_disabled":false,"rental_uris":{"android":"levelo://app?vid=45b3ff23-a937-45d9-9f96-088c308c0189","ios":"levelo://app?vid=45b3ff23-a937-45d9-9f96-088c308c0189"},"vehicle_type_id":"4","last_reported":1701194947,"current_range_meters":13200,"station_id":"ce4bgv92rcd13ifvqcq0","pricing_plan_id":"free"},{"bike_id":"f427a2c3-6e4a-446b-ae2f-9be8aa7f4122","system_id":"levelo_inurba_marseille","lat":43.31719,"lon":5.376813,"is_reserved":false,"is_disabled":false,"rental_uris":{"android":"levelo://app?vid=f427a2c3-6e4a-446b-ae2f-9be8aa7f4122","ios":"levelo://app?vid=f427a2c3-6e4a-446b-ae2f-9be8aa7f4122"},"vehicle_type_id":"4","last_reported":1701194947,"current_range_meters":12400,"station_id":"ce4bgth2rcd13ifvqch0","pricing_plan_id":"free"},{"bike_id":"e913f328-1e31-4c22-bd87-f809ea246de4","system_id":"levelo_inurba_marseille","lat":43.317168,"lon":5.376883,"is_reserved":false,"is_disabled":false,"rental_uris":{"android":"levelo://app?vid=e913f328-1e31-4c22-bd87-f809ea246de4","ios":"levelo://app?vid=e913f328-1e31-4c22-bd87-f809ea246de4"},"vehicle_type_id":"4","last_reported":1701194947,"current_range_meters":14800,"station_id":"ce4bgth2rcd13ifvqch0","pricing_plan_id":"free"},{"bike_id":"ed69cef3-45a4-4ef0-8519-b3f86735f761","system_id":"levelo_inurba_marseille","lat":43.317066,"lon":5.377222,"is_reserved":false,"is_disabled":false,"rental_uris":{"android":"levelo://app?vid=ed69cef3-45a4-4ef0-8519-b3f86735f761","ios":"levelo://app?vid=ed69cef3-45a4-4ef0-8519-b3f86735f761"},"vehicle_type_id":"4","last_reported":1701194947,"current_range_meters":24000,"station_id":"ce4bgth2rcd13ifvqch0","pricing_plan_id":"free"},{"bike_id":"3a1e9cb1-dfa6-409f-a6ca-b0252754cb07","system_id":"levelo_inurba_marseille","lat":43.30455,"lon":5.37315,"is_reserved":false,"is_disabled":false,"rental_uris":{"android":"levelo://app?vid=3a1e9cb1-dfa6-409f-a6ca-b0252754cb07","ios":"levelo://app?vid=3a1e9cb1-dfa6-409f-a6ca-b0252754cb07"},"vehicle_type_id":"4","last_reported":1701194947,"current_range_meters":4000,"station_id":"","pricing_plan_id":"free"},{"bike_id":"bcf70ad7-b316-418d-8031-ed84973523f4","system_id":"levelo_inurba_marseille","lat":43.30384,"lon":5.37862,"is_reserved":false,"is_disabled":false,"rental_uris":{"android":"levelo://app?vid=bcf70ad7-b316-418d-8031-ed84973523f4","ios":"levelo://app?vid=bcf70ad7-b316-418d-8031-ed84973523f4"},"vehicle_type_id":"4","last_reported":1701194947,"current_range_meters":30800,"station_id":"","pricing_plan_id":"free"},{"bike_id":"7d3f4549-b029-4686-b9c4-595eb37efc66","system_id":"levelo_inurba_marseille","lat":43.299724,"lon":5.371829,"is_reserved":false,"is_disabled":false,"rental_uris":{"android":"levelo://app?vid=7d3f4549-b029-4686-b9c4-595eb37efc66","ios":"levelo://app?vid=7d3f4549-b029-4686-b9c4-595eb37efc66"},"vehicle_type_id":"4","last_reported":1701194947,"current_range_meters":4800,"station_id":"ce4bgr92rcd13ifvqc7g","pricing_plan_id":"free"},{"bike_id":"94a06e4d-5ae8-44ed-8203-e1ee88c81e66","system_id":"levelo_inurba_marseille","lat":43.299724,"lon":5.371829,"is_reserved":false,"is_disabled":false,"rental_uris":{"android":"levelo://app?vid=94a06e4d-5ae8-44ed-8203-e1ee88c81e66","ios":"levelo://app?vid=94a06e4d-5ae8-44ed-8203-e1ee88c81e66"},"vehicle_type_id":"4","last_reported":1701194947,"current_range_meters":17200,"station_id":"ce4bgr92rcd13ifvqc7g","pricing_plan_id":"free"},{"bike_id":"3305e898-7b10-442a-a6ab-22dd49e55df0","system_id":"levelo_inurba_marseille","lat":43.299724,"lon":5.371829,"is_reserved":false,"is_disabled":false,"rental_uris":{"android":"levelo://app?vid=3305e898-7b10-442a-a6ab-22dd49e55df0","ios":"levelo://app?vid=3305e898-7b10-442a-a6ab-22dd49e55df0"},"vehicle_type_id":"4","last_reported":1701194947,"current_range_meters":27200,"station_id":"ce4bgr92rcd13ifvqc7g","pricing_plan_id":"free"},{"bike_id":"bcd5774c-9c1d-475e-bff8-005af6bfd0f3","system_id":"levelo_inurba_marseille","lat":43.298433,"lon":5.362774,"is_reserved":false,"is_disabled":false,"rental_uris":{"android":"levelo://app?vid=bcd5774c-9c1d-475e-bff8-005af6bfd0f3","ios":"levelo://app?vid=bcd5774c-9c1d-475e-bff8-005af6bfd0f3"},"vehicle_type_id":"4","last_reported":1701194947,"current_range_meters":2800,"station_id":"ce4bgpp2rcd13ifvqc3g","pricing_plan_id":"free"},{"bike_id":"68c5792c-3743-46b0-ba80-ead5661e1a6c","system_id":"levelo_inurba_marseille","lat":43.311722,"lon":5.387247,"is_reserved":false,"is_disabled":false,"rental_uris":{"android":"levelo://app?vid=68c5792c-3743-46b0-ba80-ead5661e1a6c","ios":"levelo://app?vid=68c5792c-3743-46b0-ba80-ead5661e1a6c"},"vehicle_type_id":"4","last_reported":1701194947,"current_range_meters":0,"station_id":"ce4bgv12rcd13ifvqcp0","pricing_plan_id":"free"},{"bike_id":"9f0f067c-4570-4779-9fe7-642e24984182","system_id":"levelo_inurba_marseille","lat":43.29612,"lon":5.36553,"is_reserved":false,"is_disabled":false,"rental_uris":{"android":"levelo://app?vid=9f0f067c-4570-4779-9fe7-642e24984182","ios":"levelo://app?vid=9f0f067c-4570-4779-9fe7-642e24984182"},"vehicle_type_id":"4","last_reported":1701194947,"current_range_meters":19200,"station_id":"","pricing_plan_id":"free"},{"bike_id":"cf0c0f7d-2113-46ed-85a8-113d8181a3bd","system_id":"levelo_inurba_marseille","lat":43.29713,"lon":5.37683,"is_reserved":false,"is_disabled":false,"rental_uris":{"android":"levelo://app?vid=cf0c0f7d-2113-46ed-85a8-113d8181a3bd","ios":"levelo://app?vid=cf0c0f7d-2113-46ed-85a8-113d8181a3bd"},"vehicle_type_id":"4","last_reported":1701194947,"current_range_meters":0,"station_id":"ce4bgkh2rcd13ifvqbl0","pricing_plan_id":"free"},{"bike_id":"3e09080e-9db5-4c48-951f-c5f672a60264","system_id":"levelo_inurba_marseille","lat":43.32892,"lon":5.37561,"is_reserved":false,"is_disabled":false,"rental_uris":{"android":"levelo://app?vid=3e09080e-9db5-4c48-951f-c5f672a60264","ios":"levelo://app?vid=3e09080e-9db5-4c48-951f-c5f672a60264"},"vehicle_type_id":"4","last_reported":1701194947,"current_range_meters":14400,"station_id":"","pricing_plan_id":"free"},{"bike_id":"ca46c6e6-faa2-4edf-b08a-8fb5d723199f","system_id":"levelo_inurba_marseille","lat":43.298037,"lon":5.381066,"is_reserved":false,"is_disabled":false,"rental_uris":{"android":"levelo://app?vid=ca46c6e6-faa2-4edf-b08a-8fb5d723199f","ios":"levelo://app?vid=ca46c6e6-faa2-4edf-b08a-8fb5d723199f"},"vehicle_type_id":"4","last_reported":1701194947,"current_range_meters":17200,"station_id":"ce4bgip2rcd13ifvqbb0","pricing_plan_id":"free"},{"bike_id":"8c815222-769e-4dc5-93c0-5e87a9b99aa3","system_id":"levelo_inurba_marseille","lat":43.304274,"lon":5.388873,"is_reserved":false,"is_disabled":false,"rental_uris":{"android":"levelo://app?vid=8c815222-769e-4dc5-93c0-5e87a9b99aa3","ios":"levelo://app?vid=8c815222-769e-4dc5-93c0-5e87a9b99aa3"},"vehicle_type_id":"4","last_reported":1701194947,"current_range_meters":400,"station_id":"ce4bgk12rcd13ifvqbi0","pricing_plan_id":"free"},{"bike_id":"deed4d43-28f2-4d1d-8bf8-dda5b349a92c","system_id":"levelo_inurba_marseille","lat":43.29539,"lon":5.37447,"is_reserved":false,"is_disabled":false,"rental_uris":{"android":"levelo://app?vid=deed4d43-28f2-4d1d-8bf8-dda5b349a92c","ios":"levelo://app?vid=deed4d43-28f2-4d1d-8bf8-dda5b349a92c"},"vehicle_type_id":"4","last_reported":1701194947,"current_range_meters":18000,"station_id":"ce4bgkp2rcd13ifvqbmg","pricing_plan_id":"free"},{"bike_id":"af13f851-6855-47d6-bb31-4e7b0943c506","system_id":"levelo_inurba_marseille","lat":43.299717,"lon":5.384845,"is_reserved":false,"is_disabled":false,"rental_uris":{"android":"levelo://app?vid=af13f851-6855-47d6-bb31-4e7b0943c506","ios":"levelo://app?vid=af13f851-6855-47d6-bb31-4e7b0943c506"},"vehicle_type_id":"4","last_reported":1701194947,"current_range_meters":8000,"station_id":"ce4bgj92rcd13ifvqbd0","pricing_plan_id":"free"},{"bike_id":"a42595d8-62b4-487c-a25b-4898ccd87910","system_id":"levelo_inurba_marseille","lat":43.299717,"lon":5.384845,"is_reserved":false,"is_disabled":false,"rental_uris":{"android":"levelo://app?vid=a42595d8-62b4-487c-a25b-4898ccd87910","ios":"levelo://app?vid=a42595d8-62b4-487c-a25b-4898ccd87910"},"vehicle_type_id":"4","last_reported":1701194947,"current_range_meters":800,"station_id":"ce4bgj92rcd13ifvqbd0","pricing_plan_id":"free"},{"bike_id":"9003eeb0-0127-4a36-977e-49e3fbe21aab","system_id":"levelo_inurba_marseille","lat":43.29966,"lon":5.385003,"is_reserved":false,"is_disabled":false,"rental_uris":{"android":"levelo://app?vid=9003eeb0-0127-4a36-977e-49e3fbe21aab","ios":"levelo://app?vid=9003eeb0-0127-4a36-977e-49e3fbe21aab"},"vehicle_type_id":"4","last_reported":1701194947,"current_range_meters":0,"station_id":"ce4bgj92rcd13ifvqbd0","pricing_plan_id":"free"},{"bike_id":"20b91bc0-1a2c-4f27-87de-0c1e2d57a793","system_id":"levelo_inurba_marseille","lat":43.299717,"lon":5.384845,"is_reserved":false,"is_disabled":false,"rental_uris":{"android":"levelo://app?vid=20b91bc0-1a2c-4f27-87de-0c1e2d57a793","ios":"levelo://app?vid=20b91bc0-1a2c-4f27-87de-0c1e2d57a793"},"vehicle_type_id":"4","last_reported":1701194947,"current_range_meters":26400,"station_id":"ce4bgj92rcd13ifvqbd0","pricing_plan_id":"free"},{"bike_id":"a1dfe32a-a7de-43d8-8d28-6c2e1d7ab658","system_id":"levelo_inurba_marseille","lat":43.304274,"lon":5.388873,"is_reserved":false,"is_disabled":false,"rental_uris":{"android":"levelo://app?vid=a1dfe32a-a7de-43d8-8d28-6c2e1d7ab658","ios":"levelo://app?vid=a1dfe32a-a7de-43d8-8d28-6c2e1d7ab658"},"vehicle_type_id":"4","last_reported":1701194947,"current_range_meters":27200,"station_id":"ce4bgk12rcd13ifvqbi0","pricing_plan_id":"free"},{"bike_id":"8c76882a-9005-4fb7-8341-a76bf1224448","system_id":"levelo_inurba_marseille","lat":43.299707,"lon":5.384859,"is_reserved":false,"is_disabled":false,"rental_uris":{"android":"levelo://app?vid=8c76882a-9005-4fb7-8341-a76bf1224448","ios":"levelo://app?vid=8c76882a-9005-4fb7-8341-a76bf1224448"},"vehicle_type_id":"4","last_reported":1701194947,"current_range_meters":20800,"station_id":"ce4bgj92rcd13ifvqbd0","pricing_plan_id":"free"},{"bike_id":"6d682541-e303-48f1-a51f-1a3e63d669b4","system_id":"levelo_inurba_marseille","lat":43.32366,"lon":5.389284,"is_reserved":false,"is_disabled":false,"rental_uris":{"android":"levelo://app?vid=6d682541-e303-48f1-a51f-1a3e63d669b4","ios":"levelo://app?vid=6d682541-e303-48f1-a51f-1a3e63d669b4"},"vehicle_type_id":"4","last_reported":1701194947,"current_range_meters":27200,"station_id":"ce4bhqp2rcd13ifvqhog","pricing_plan_id":"free"},{"bike_id":"822b26d0-5507-4031-94d1-bf52f84976c8","system_id":"levelo_inurba_marseille","lat":43.292754,"lon":5.368474,"is_reserved":false,"is_disabled":false,"rental_uris":{"android":"levelo://app?vid=822b26d0-5507-4031-94d1-bf52f84976c8","ios":"levelo://app?vid=822b26d0-5507-4031-94d1-bf52f84976c8"},"vehicle_type_id":"4","last_reported":1701194947,"current_range_meters":0,"station_id":"ce4bhbp2rcd13ifvqesg","pricing_plan_id":"free"},{"bike_id":"46c7d37a-50ca-4d21-9597-617afb8e96d2","system_id":"levelo_inurba_marseille","lat":43.293009,"lon":5.374584,"is_reserved":false,"is_disabled":false,"rental_uris":{"android":"levelo://app?vid=46c7d37a-50ca-4d21-9597-617afb8e96d2","ios":"levelo://app?vid=46c7d37a-50ca-4d21-9597-617afb8e96d2"},"vehicle_type_id":"4","last_reported":1701194947,"current_range_meters":24400,"station_id":"ce4bgi12rcd13ifvqb70","pricing_plan_id":"free"},{"bike_id":"06014fc5-e63f-4331-98c1-5bdfac25b984","system_id":"levelo_inurba_marseille","lat":43.293009,"lon":5.374584,"is_reserved":false,"is_disabled":false,"rental_uris":{"android":"levelo://app?vid=06014fc5-e63f-4331-98c1-5bdfac25b984","ios":"levelo://app?vid=06014fc5-e63f-4331-98c1-5bdfac25b984"},"vehicle_type_id":"4","last_reported":1701194947,"current_range_meters":3200,"station_id":"ce4bgi12rcd13ifvqb70","pricing_plan_id":"free"},{"bike_id":"a1b368e0-c75e-477a-a240-0ba2dccf3604","system_id":"levelo_inurba_marseille","lat":43.303002,"lon":5.392142,"is_reserved":false,"is_disabled":false,"rental_uris":{"android":"levelo://app?vid=a1b368e0-c75e-477a-a240-0ba2dccf3604","ios":"levelo://app?vid=a1b368e0-c75e-477a-a240-0ba2dccf3604"},"vehicle_type_id":"4","last_reported":1701194947,"current_range_meters":1200,"station_id":"ce4bgkh2rcd13ifvqbk0","pricing_plan_id":"free"},{"bike_id":"2d63610c-779d-4d70-914c-75eb8f40a2cf","system_id":"levelo_inurba_marseille","lat":43.2936,"lon":5.37835,"is_reserved":false,"is_disabled":false,"rental_uris":{"android":"levelo://app?vid=2d63610c-779d-4d70-914c-75eb8f40a2cf","ios":"levelo://app?vid=2d63610c-779d-4d70-914c-75eb8f40a2cf"},"vehicle_type_id":"4","last_reported":1701194947,"current_range_meters":0,"station_id":"ce4bgjh2rcd13ifvqbf0","pricing_plan_id":"free"},{"bike_id":"cc8cca31-021f-4fb9-99be-ecea4a72d827","system_id":"levelo_inurba_marseille","lat":43.30085,"lon":5.390856,"is_reserved":false,"is_disabled":false,"rental_uris":{"android":"levelo://app?vid=cc8cca31-021f-4fb9-99be-ecea4a72d827","ios":"levelo://app?vid=cc8cca31-021f-4fb9-99be-ecea4a72d827"},"vehicle_type_id":"4","last_reported":1701194947,"current_range_meters":2800,"station_id":"ce4bh192rcd13ifvqdb0","pricing_plan_id":"free"},{"bike_id":"2eb427a9-b2de-44e0-b618-9d604c3cee32","system_id":"levelo_inurba_marseille","lat":43.30085,"lon":5.390856,"is_reserved":false,"is_disabled":false,"rental_uris":{"android":"levelo://app?vid=2eb427a9-b2de-44e0-b618-9d604c3cee32","ios":"levelo://app?vid=2eb427a9-b2de-44e0-b618-9d604c3cee32"},"vehicle_type_id":"4","last_reported":1701194947,"current_range_meters":19200,"station_id":"ce4bh192rcd13ifvqdb0","pricing_plan_id":"free"},{"bike_id":"9b12a671-1912-4f16-a877-2a9fbfc1f288","system_id":"levelo_inurba_marseille","lat":43.298764,"lon":5.388973,"is_reserved":false,"is_disabled":false,"rental_uris":{"android":"levelo://app?vid=9b12a671-1912-4f16-a877-2a9fbfc1f288","ios":"levelo://app?vid=9b12a671-1912-4f16-a877-2a9fbfc1f288"},"vehicle_type_id":"4","last_reported":1701194947,"current_range_meters":11600,"station_id":"ce4bh392rcd13ifvqdl0","pricing_plan_id":"free"},{"bike_id":"b1f40ead-725f-4e69-86b2-b0569b28c87e","system_id":"levelo_inurba_marseille","lat":43.313291,"lon":5.396838,"is_reserved":false,"is_disabled":false,"rental_uris":{"android":"levelo://app?vid=b1f40ead-725f-4e69-86b2-b0569b28c87e","ios":"levelo://app?vid=b1f40ead-725f-4e69-86b2-b0569b28c87e"},"vehicle_type_id":"4","last_reported":1701194947,"current_range_meters":2800,"station_id":"ce4bgvp2rcd13ifvqcu0","pricing_plan_id":"free"},{"bike_id":"ba171e08-4ae0-42bb-abb4-3c2e26a950c4","system_id":"levelo_inurba_marseille","lat":43.309038,"lon":5.396546,"is_reserved":false,"is_disabled":false,"rental_uris":{"android":"levelo://app?vid=ba171e08-4ae0-42bb-abb4-3c2e26a950c4","ios":"levelo://app?vid=ba171e08-4ae0-42bb-abb4-3c2e26a950c4"},"vehicle_type_id":"4","last_reported":1701194947,"current_range_meters":20800,"station_id":"ce4bh012rcd13ifvqcv0","pricing_plan_id":"free"},{"bike_id":"11eb1ba3-9034-4c77-8837-4653144d6053","system_id":"levelo_inurba_marseille","lat":43.31323,"lon":5.39695,"is_reserved":false,"is_disabled":false,"rental_uris":{"android":"levelo://app?vid=11eb1ba3-9034-4c77-8837-4653144d6053","ios":"levelo://app?vid=11eb1ba3-9034-4c77-8837-4653144d6053"},"vehicle_type_id":"4","last_reported":1701194947,"current_range_meters":4400,"station_id":"ce4bgvp2rcd13ifvqcu0","pricing_plan_id":"free"},{"bike_id":"149c93a4-59f1-47a1-9a99-44a3700382ed","system_id":"levelo_inurba_marseille","lat":43.29529,"lon":5.385581,"is_reserved":false,"is_disabled":false,"rental_uris":{"android":"levelo://app?vid=149c93a4-59f1-47a1-9a99-44a3700382ed","ios":"levelo://app?vid=149c93a4-59f1-47a1-9a99-44a3700382ed"},"vehicle_type_id":"4","last_reported":1701194947,"current_range_meters":11200,"station_id":"ce4bgih2rcd13ifvqba0","pricing_plan_id":"free"},{"bike_id":"ae3a738c-c930-4a5a-b1cb-e8c174fa8385","system_id":"levelo_inurba_marseille","lat":43.290779,"lon":5.371482,"is_reserved":false,"is_disabled":false,"rental_uris":{"android":"levelo://app?vid=ae3a738c-c930-4a5a-b1cb-e8c174fa8385","ios":"levelo://app?vid=ae3a738c-c930-4a5a-b1cb-e8c174fa8385"},"vehicle_type_id":"4","last_reported":1701194947,"current_range_meters":11600,"station_id":"ce4bh5p2rcd13ifvqe4g","pricing_plan_id":"free"},{"bike_id":"6405eebb-a09c-48f1-ac34-39e921dc6560","system_id":"levelo_inurba_marseille","lat":43.290624,"lon":5.359245,"is_reserved":false,"is_disabled":false,"rental_uris":{"android":"levelo://app?vid=6405eebb-a09c-48f1-ac34-39e921dc6560","ios":"levelo://app?vid=6405eebb-a09c-48f1-ac34-39e921dc6560"},"vehicle_type_id":"4","last_reported":1701194947,"current_range_meters":6800,"station_id":"ce4bha92rcd13ifvqeg0","pricing_plan_id":"free"},{"bike_id":"988f29d4-7bdf-4575-81ce-2b46a9f7c364","system_id":"levelo_inurba_marseille","lat":43.304296,"lon":5.397513,"is_reserved":false,"is_disabled":false,"rental_uris":{"android":"levelo://app?vid=988f29d4-7bdf-4575-81ce-2b46a9f7c364","ios":"levelo://app?vid=988f29d4-7bdf-4575-81ce-2b46a9f7c364"},"vehicle_type_id":"4","last_reported":1701194947,"current_range_meters":21200,"station_id":"ce4bh092rcd13ifvqd20","pricing_plan_id":"free"},{"bike_id":"d10d7065-60e1-49dd-ac29-e435bc6143ec","system_id":"levelo_inurba_marseille","lat":43.304296,"lon":5.397513,"is_reserved":false,"is_disabled":false,"rental_uris":{"android":"levelo://app?vid=d10d7065-60e1-49dd-ac29-e435bc6143ec","ios":"levelo://app?vid=d10d7065-60e1-49dd-ac29-e435bc6143ec"},"vehicle_type_id":"4","last_reported":1701194947,"current_range_meters":25600,"station_id":"ce4bh092rcd13ifvqd20","pricing_plan_id":"free"},{"bike_id":"421dabb2-b5c9-4939-928e-ec753f89bc88","system_id":"levelo_inurba_marseille","lat":43.304274,"lon":5.397513,"is_reserved":false,"is_disabled":false,"rental_uris":{"android":"levelo://app?vid=421dabb2-b5c9-4939-928e-ec753f89bc88","ios":"levelo://app?vid=421dabb2-b5c9-4939-928e-ec753f89bc88"},"vehicle_type_id":"4","last_reported":1701194947,"current_range_meters":31200,"station_id":"ce4bh092rcd13ifvqd20","pricing_plan_id":"free"},{"bike_id":"b8c69fad-2b8d-480d-9277-a27d3592476d","system_id":"levelo_inurba_marseille","lat":43.304274,"lon":5.397513,"is_reserved":false,"is_disabled":false,"rental_uris":{"android":"levelo://app?vid=b8c69fad-2b8d-480d-9277-a27d3592476d","ios":"levelo://app?vid=b8c69fad-2b8d-480d-9277-a27d3592476d"},"vehicle_type_id":"4","last_reported":1701194947,"current_range_meters":30800,"station_id":"ce4bh092rcd13ifvqd20","pricing_plan_id":"free"},{"bike_id":"4c87ae2b-1118-4f56-bc1d-4e241936a9ec","system_id":"levelo_inurba_marseille","lat":43.30429,"lon":5.39756,"is_reserved":false,"is_disabled":false,"rental_uris":{"android":"levelo://app?vid=4c87ae2b-1118-4f56-bc1d-4e241936a9ec","ios":"levelo://app?vid=4c87ae2b-1118-4f56-bc1d-4e241936a9ec"},"vehicle_type_id":"4","last_reported":1701194947,"current_range_meters":800,"station_id":"ce4bh092rcd13ifvqd20","pricing_plan_id":"free"},{"bike_id":"c8e78174-fe8b-4fb9-9120-260998ebd3f0","system_id":"levelo_inurba_marseille","lat":43.290104,"lon":5.356111,"is_reserved":false,"is_disabled":false,"rental_uris":{"android":"levelo://app?vid=c8e78174-fe8b-4fb9-9120-260998ebd3f0","ios":"levelo://app?vid=c8e78174-fe8b-4fb9-9120-260998ebd3f0"},"vehicle_type_id":"4","last_reported":1701194947,"current_range_meters":800,"station_id":"ce4bhb92rcd13ifvqen0","pricing_plan_id":"free"},{"bike_id":"e553c33d-6e42-4458-bb16-16509fbfe21e","system_id":"levelo_inurba_marseille","lat":43.33041,"lon":5.38921,"is_reserved":false,"is_disabled":false,"rental_uris":{"android":"levelo://app?vid=e553c33d-6e42-4458-bb16-16509fbfe21e","ios":"levelo://app?vid=e553c33d-6e42-4458-bb16-16509fbfe21e"},"vehicle_type_id":"4","last_reported":1701194947,"current_range_meters":4800,"station_id":"ce4bhr92rcd13ifvqhrg","pricing_plan_id":"free"},{"bike_id":"4a9b0e53-2eeb-4b7c-9d3d-000fbb38a959","system_id":"levelo_inurba_marseille","lat":43.2901,"lon":5.381269,"is_reserved":false,"is_disabled":false,"rental_uris":{"android":"levelo://app?vid=4a9b0e53-2eeb-4b7c-9d3d-000fbb38a959","ios":"levelo://app?vid=4a9b0e53-2eeb-4b7c-9d3d-000fbb38a959"},"vehicle_type_id":"4","last_reported":1701194947,"current_range_meters":1200,"station_id":"ce4bh4p2rcd13ifvqe1g","pricing_plan_id":"free"},{"bike_id":"77b088cb-35f9-460a-9f79-0c93b2db5ec1","system_id":"levelo_inurba_marseille","lat":43.28856,"lon":5.358371,"is_reserved":false,"is_disabled":false,"rental_uris":{"android":"levelo://app?vid=77b088cb-35f9-460a-9f79-0c93b2db5ec1","ios":"levelo://app?vid=77b088cb-35f9-460a-9f79-0c93b2db5ec1"},"vehicle_type_id":"4","last_reported":1701194947,"current_range_meters":2000,"station_id":"ce4bhb12rcd13ifvqem0","pricing_plan_id":"free"},{"bike_id":"42654389-2a77-4ceb-ad0b-ba81c145407d","system_id":"levelo_inurba_marseille","lat":43.30939,"lon":5.40138,"is_reserved":false,"is_disabled":false,"rental_uris":{"android":"levelo://app?vid=42654389-2a77-4ceb-ad0b-ba81c145407d","ios":"levelo://app?vid=42654389-2a77-4ceb-ad0b-ba81c145407d"},"vehicle_type_id":"4","last_reported":1701194947,"current_range_meters":20000,"station_id":"ce4bgvp2rcd13ifvqct0","pricing_plan_id":"free"},{"bike_id":"34186400-9dc4-4a46-848e-b87bf3d1aa5d","system_id":"levelo_inurba_marseille","lat":43.31267,"lon":5.40181,"is_reserved":false,"is_disabled":false,"rental_uris":{"android":"levelo://app?vid=34186400-9dc4-4a46-848e-b87bf3d1aa5d","ios":"levelo://app?vid=34186400-9dc4-4a46-848e-b87bf3d1aa5d"},"vehicle_type_id":"4","last_reported":1701194947,"current_range_meters":16800,"station_id":"ce4bh092rcd13ifvqd30","pricing_plan_id":"free"},{"bike_id":"1d50ae15-236f-4896-9c9d-f2489f73a51e","system_id":"levelo_inurba_marseille","lat":43.301387,"lon":5.398543,"is_reserved":false,"is_disabled":false,"rental_uris":{"android":"levelo://app?vid=1d50ae15-236f-4896-9c9d-f2489f73a51e","ios":"levelo://app?vid=1d50ae15-236f-4896-9c9d-f2489f73a51e"},"vehicle_type_id":"4","last_reported":1701194947,"current_range_meters":17200,"station_id":"ce4bh0h2rcd13ifvqd40","pricing_plan_id":"free"},{"bike_id":"dcaece8c-332a-4a0f-b441-8e5972840407","system_id":"levelo_inurba_marseille","lat":43.30138,"lon":5.39855,"is_reserved":false,"is_disabled":false,"rental_uris":{"android":"levelo://app?vid=dcaece8c-332a-4a0f-b441-8e5972840407","ios":"levelo://app?vid=dcaece8c-332a-4a0f-b441-8e5972840407"},"vehicle_type_id":"4","last_reported":1701194947,"current_range_meters":0,"station_id":"ce4bh0h2rcd13ifvqd40","pricing_plan_id":"free"},{"bike_id":"a0082387-bb94-43da-a9f5-18d4c83436e3","system_id":"levelo_inurba_marseille","lat":43.30137,"lon":5.39866,"is_reserved":false,"is_disabled":false,"rental_uris":{"android":"levelo://app?vid=a0082387-bb94-43da-a9f5-18d4c83436e3","ios":"levelo://app?vid=a0082387-bb94-43da-a9f5-18d4c83436e3"},"vehicle_type_id":"4","last_reported":1701194947,"current_range_meters":14000,"station_id":"ce4bh0h2rcd13ifvqd40","pricing_plan_id":"free"},{"bike_id":"705d4cec-3729-48cb-aa4e-2f58d1c414b8","system_id":"levelo_inurba_marseille","lat":43.286961,"lon":5.373785,"is_reserved":false,"is_disabled":false,"rental_uris":{"android":"levelo://app?vid=705d4cec-3729-48cb-aa4e-2f58d1c414b8","ios":"levelo://app?vid=705d4cec-3729-48cb-aa4e-2f58d1c414b8"},"vehicle_type_id":"4","last_reported":1701194947,"current_range_meters":16400,"station_id":"ce4bh3p2rcd13ifvqdq0","pricing_plan_id":"free"},{"bike_id":"e53ef190-f3dc-4997-bdc4-2d5fe846cb1c","system_id":"levelo_inurba_marseille","lat":43.286593,"lon":5.363346,"is_reserved":false,"is_disabled":false,"rental_uris":{"android":"levelo://app?vid=e53ef190-f3dc-4997-bdc4-2d5fe846cb1c","ios":"levelo://app?vid=e53ef190-f3dc-4997-bdc4-2d5fe846cb1c"},"vehicle_type_id":"4","last_reported":1701194947,"current_range_meters":18000,"station_id":"ce4bhah2rcd13ifvqej0","pricing_plan_id":"free"},{"bike_id":"c07f0312-a415-4cc2-81a0-38436b7503c9","system_id":"levelo_inurba_marseille","lat":43.286593,"lon":5.363346,"is_reserved":false,"is_disabled":false,"rental_uris":{"android":"levelo://app?vid=c07f0312-a415-4cc2-81a0-38436b7503c9","ios":"levelo://app?vid=c07f0312-a415-4cc2-81a0-38436b7503c9"},"vehicle_type_id":"4","last_reported":1701194947,"current_range_meters":30800,"station_id":"ce4bhah2rcd13ifvqej0","pricing_plan_id":"free"},{"bike_id":"642856a1-9ab2-476a-940d-fee066c2d6d2","system_id":"levelo_inurba_marseille","lat":43.29877,"lon":5.39745,"is_reserved":false,"is_disabled":false,"rental_uris":{"android":"levelo://app?vid=642856a1-9ab2-476a-940d-fee066c2d6d2","ios":"levelo://app?vid=642856a1-9ab2-476a-940d-fee066c2d6d2"},"vehicle_type_id":"4","last_reported":1701194947,"current_range_meters":0,"station_id":"ce4bh0h2rcd13ifvqd50","pricing_plan_id":"free"},{"bike_id":"d3971566-0575-4b81-9234-55989e3ca035","system_id":"levelo_inurba_marseille","lat":43.295196,"lon":5.39397,"is_reserved":false,"is_disabled":false,"rental_uris":{"android":"levelo://app?vid=d3971566-0575-4b81-9234-55989e3ca035","ios":"levelo://app?vid=d3971566-0575-4b81-9234-55989e3ca035"},"vehicle_type_id":"4","last_reported":1701194947,"current_range_meters":15200,"station_id":"ce4bh292rcd13ifvqdf0","pricing_plan_id":"free"},{"bike_id":"9b09098d-300d-452c-bce4-838cca408bec","system_id":"levelo_inurba_marseille","lat":43.286961,"lon":5.373785,"is_reserved":false,"is_disabled":false,"rental_uris":{"android":"levelo://app?vid=9b09098d-300d-452c-bce4-838cca408bec","ios":"levelo://app?vid=9b09098d-300d-452c-bce4-838cca408bec"},"vehicle_type_id":"4","last_reported":1701194947,"current_range_meters":4800,"station_id":"ce4bh3p2rcd13ifvqdq0","pricing_plan_id":"free"},{"bike_id":"cc20ea20-f4c7-4e35-8c7f-0cadd54b7968","system_id":"levelo_inurba_marseille","lat":43.286593,"lon":5.363346,"is_reserved":false,"is_disabled":false,"rental_uris":{"android":"levelo://app?vid=cc20ea20-f4c7-4e35-8c7f-0cadd54b7968","ios":"levelo://app?vid=cc20ea20-f4c7-4e35-8c7f-0cadd54b7968"},"vehicle_type_id":"4","last_reported":1701194947,"current_range_meters":16000,"station_id":"ce4bhah2rcd13ifvqej0","pricing_plan_id":"free"},{"bike_id":"56dca729-e34a-4cf5-87fe-49a75c0029f1","system_id":"levelo_inurba_marseille","lat":43.295196,"lon":5.39397,"is_reserved":false,"is_disabled":false,"rental_uris":{"android":"levelo://app?vid=56dca729-e34a-4cf5-87fe-49a75c0029f1","ios":"levelo://app?vid=56dca729-e34a-4cf5-87fe-49a75c0029f1"},"vehicle_type_id":"4","last_reported":1701194947,"current_range_meters":400,"station_id":"ce4bh292rcd13ifvqdf0","pricing_plan_id":"free"},{"bike_id":"e162f09a-7b78-4683-a74e-d51857ca8f8d","system_id":"levelo_inurba_marseille","lat":43.289307,"lon":5.38406,"is_reserved":false,"is_disabled":false,"rental_uris":{"android":"levelo://app?vid=e162f09a-7b78-4683-a74e-d51857ca8f8d","ios":"levelo://app?vid=e162f09a-7b78-4683-a74e-d51857ca8f8d"},"vehicle_type_id":"4","last_reported":1701194947,"current_range_meters":22400,"station_id":"ce4bh612rcd13ifvqe6g","pricing_plan_id":"free"},{"bike_id":"99bc40da-d976-4ea8-96cc-a962a86df958","system_id":"levelo_inurba_marseille","lat":43.29035,"lon":5.38641,"is_reserved":false,"is_disabled":false,"rental_uris":{"android":"levelo://app?vid=99bc40da-d976-4ea8-96cc-a962a86df958","ios":"levelo://app?vid=99bc40da-d976-4ea8-96cc-a962a86df958"},"vehicle_type_id":"4","last_reported":1701194947,"current_range_meters":14400,"station_id":"","pricing_plan_id":"free"},{"bike_id":"db5b8192-385d-45e9-9adc-9977406e5859","system_id":"levelo_inurba_marseille","lat":43.29038,"lon":5.3865,"is_reserved":false,"is_disabled":false,"rental_uris":{"android":"levelo://app?vid=db5b8192-385d-45e9-9adc-9977406e5859","ios":"levelo://app?vid=db5b8192-385d-45e9-9adc-9977406e5859"},"vehicle_type_id":"4","last_reported":1701194947,"current_range_meters":27600,"station_id":"ce4bh4p2rcd13ifvqe0g","pricing_plan_id":"free"},{"bike_id":"5cf586ab-e673-4da5-8ff1-9e9eabe9db83","system_id":"levelo_inurba_marseille","lat":43.302759,"lon":5.400793,"is_reserved":false,"is_disabled":false,"rental_uris":{"android":"levelo://app?vid=5cf586ab-e673-4da5-8ff1-9e9eabe9db83","ios":"levelo://app?vid=5cf586ab-e673-4da5-8ff1-9e9eabe9db83"},"vehicle_type_id":"4","last_reported":1701194947,"current_range_meters":20800,"station_id":"ce4bgvh2rcd13ifvqcs0","pricing_plan_id":"free"},{"bike_id":"43166c4b-603b-47bf-9493-5c249d77fc47","system_id":"levelo_inurba_marseille","lat":43.302759,"lon":5.400793,"is_reserved":false,"is_disabled":false,"rental_uris":{"android":"levelo://app?vid=43166c4b-603b-47bf-9493-5c249d77fc47","ios":"levelo://app?vid=43166c4b-603b-47bf-9493-5c249d77fc47"},"vehicle_type_id":"4","last_reported":1701194947,"current_range_meters":3200,"station_id":"ce4bgvh2rcd13ifvqcs0","pricing_plan_id":"free"},{"bike_id":"69ecfc7b-ee6d-46dc-b80d-a13ed506a719","system_id":"levelo_inurba_marseille","lat":43.302759,"lon":5.400793,"is_reserved":false,"is_disabled":false,"rental_uris":{"android":"levelo://app?vid=69ecfc7b-ee6d-46dc-b80d-a13ed506a719","ios":"levelo://app?vid=69ecfc7b-ee6d-46dc-b80d-a13ed506a719"},"vehicle_type_id":"4","last_reported":1701194947,"current_range_meters":30800,"station_id":"ce4bgvh2rcd13ifvqcs0","pricing_plan_id":"free"},{"bike_id":"9c170648-b835-4ed8-b22f-974e731efb3e","system_id":"levelo_inurba_marseille","lat":43.286039,"lon":5.370681,"is_reserved":false,"is_disabled":false,"rental_uris":{"android":"levelo://app?vid=9c170648-b835-4ed8-b22f-974e731efb3e","ios":"levelo://app?vid=9c170648-b835-4ed8-b22f-974e731efb3e"},"vehicle_type_id":"4","last_reported":1701194947,"current_range_meters":6000,"station_id":"ce4bht12rcd13ifvqi60","pricing_plan_id":"free"},{"bike_id":"0c5a10bc-40d1-4fd7-8713-dfe969399825","system_id":"levelo_inurba_marseille","lat":43.316085,"lon":5.403624,"is_reserved":false,"is_disabled":false,"rental_uris":{"android":"levelo://app?vid=0c5a10bc-40d1-4fd7-8713-dfe969399825","ios":"levelo://app?vid=0c5a10bc-40d1-4fd7-8713-dfe969399825"},"vehicle_type_id":"4","last_reported":1701194947,"current_range_meters":18000,"station_id":"ce4bh012rcd13ifvqd00","pricing_plan_id":"free"},{"bike_id":"1653c888-0006-4c94-8078-fc5ad34b6550","system_id":"levelo_inurba_marseille","lat":43.316462,"lon":5.404376,"is_reserved":false,"is_disabled":false,"rental_uris":{"android":"levelo://app?vid=1653c888-0006-4c94-8078-fc5ad34b6550","ios":"levelo://app?vid=1653c888-0006-4c94-8078-fc5ad34b6550"},"vehicle_type_id":"4","last_reported":1701194947,"current_range_meters":30000,"station_id":"ce4bh012rcd13ifvqd00","pricing_plan_id":"free"},{"bike_id":"625f7362-4aef-41bf-9975-56a440d1b477","system_id":"levelo_inurba_marseille","lat":43.316535,"lon":5.404397,"is_reserved":false,"is_disabled":false,"rental_uris":{"android":"levelo://app?vid=625f7362-4aef-41bf-9975-56a440d1b477","ios":"levelo://app?vid=625f7362-4aef-41bf-9975-56a440d1b477"},"vehicle_type_id":"4","last_reported":1701194947,"current_range_meters":30800,"station_id":"ce4bh012rcd13ifvqd00","pricing_plan_id":"free"},{"bike_id":"cc8f81d7-030d-4bc6-bcba-0f5509f170e2","system_id":"levelo_inurba_marseille","lat":43.291994,"lon":5.392907,"is_reserved":false,"is_disabled":false,"rental_uris":{"android":"levelo://app?vid=cc8f81d7-030d-4bc6-bcba-0f5509f170e2","ios":"levelo://app?vid=cc8f81d7-030d-4bc6-bcba-0f5509f170e2"},"vehicle_type_id":"4","last_reported":1701194947,"current_range_meters":30000,"station_id":"ce4bh192rcd13ifvqdd0","pricing_plan_id":"free"},{"bike_id":"6e260073-5ea9-41a4-92bd-0eebb7184a46","system_id":"levelo_inurba_marseille","lat":43.284538,"lon":5.358657,"is_reserved":false,"is_disabled":false,"rental_uris":{"android":"levelo://app?vid=6e260073-5ea9-41a4-92bd-0eebb7184a46","ios":"levelo://app?vid=6e260073-5ea9-41a4-92bd-0eebb7184a46"},"vehicle_type_id":"4","last_reported":1701194947,"current_range_meters":24000,"station_id":"ce4bhah2rcd13ifvqei0","pricing_plan_id":"free"},{"bike_id":"5e43b6eb-37fc-481f-83f6-a4b4faa34f4f","system_id":"levelo_inurba_marseille","lat":43.284538,"lon":5.358657,"is_reserved":false,"is_disabled":false,"rental_uris":{"android":"levelo://app?vid=5e43b6eb-37fc-481f-83f6-a4b4faa34f4f","ios":"levelo://app?vid=5e43b6eb-37fc-481f-83f6-a4b4faa34f4f"},"vehicle_type_id":"4","last_reported":1701194947,"current_range_meters":20800,"station_id":"ce4bhah2rcd13ifvqei0","pricing_plan_id":"free"},{"bike_id":"be863781-d1a5-4037-b452-89ec03a9a1ab","system_id":"levelo_inurba_marseille","lat":43.284538,"lon":5.358657,"is_reserved":false,"is_disabled":false,"rental_uris":{"android":"levelo://app?vid=be863781-d1a5-4037-b452-89ec03a9a1ab","ios":"levelo://app?vid=be863781-d1a5-4037-b452-89ec03a9a1ab"},"vehicle_type_id":"4","last_reported":1701194947,"current_range_meters":30400,"station_id":"ce4bhah2rcd13ifvqei0","pricing_plan_id":"free"},{"bike_id":"38e20aee-0f2e-4b14-beaf-ebce34830f09","system_id":"levelo_inurba_marseille","lat":43.284538,"lon":5.358657,"is_reserved":false,"is_disabled":false,"rental_uris":{"android":"levelo://app?vid=38e20aee-0f2e-4b14-beaf-ebce34830f09","ios":"levelo://app?vid=38e20aee-0f2e-4b14-beaf-ebce34830f09"},"vehicle_type_id":"4","last_reported":1701194947,"current_range_meters":30000,"station_id":"ce4bhah2rcd13ifvqei0","pricing_plan_id":"free"},{"bike_id":"25c2ec6d-e178-4d2f-88d3-840244cb8ec0","system_id":"levelo_inurba_marseille","lat":43.284534,"lon":5.358662,"is_reserved":false,"is_disabled":false,"rental_uris":{"android":"levelo://app?vid=25c2ec6d-e178-4d2f-88d3-840244cb8ec0","ios":"levelo://app?vid=25c2ec6d-e178-4d2f-88d3-840244cb8ec0"},"vehicle_type_id":"4","last_reported":1701194947,"current_range_meters":30400,"station_id":"ce4bhah2rcd13ifvqei0","pricing_plan_id":"free"},{"bike_id":"7b1a1e79-e6b1-4bf4-968f-64e74e750cc2","system_id":"levelo_inurba_marseille","lat":43.284538,"lon":5.358657,"is_reserved":false,"is_disabled":false,"rental_uris":{"android":"levelo://app?vid=7b1a1e79-e6b1-4bf4-968f-64e74e750cc2","ios":"levelo://app?vid=7b1a1e79-e6b1-4bf4-968f-64e74e750cc2"},"vehicle_type_id":"4","last_reported":1701194947,"current_range_meters":24400,"station_id":"ce4bhah2rcd13ifvqei0","pricing_plan_id":"free"},{"bike_id":"f9d317a2-ff24-41e6-9549-7f0d05f9ec1e","system_id":"levelo_inurba_marseille","lat":43.284534,"lon":5.358662,"is_reserved":false,"is_disabled":false,"rental_uris":{"android":"levelo://app?vid=f9d317a2-ff24-41e6-9549-7f0d05f9ec1e","ios":"levelo://app?vid=f9d317a2-ff24-41e6-9549-7f0d05f9ec1e"},"vehicle_type_id":"4","last_reported":1701194947,"current_range_meters":23600,"station_id":"ce4bhah2rcd13ifvqei0","pricing_plan_id":"free"},{"bike_id":"2c90726a-9b18-4098-aa00-234149dd7698","system_id":"levelo_inurba_marseille","lat":43.28617,"lon":5.35104,"is_reserved":false,"is_disabled":false,"rental_uris":{"android":"levelo://app?vid=2c90726a-9b18-4098-aa00-234149dd7698","ios":"levelo://app?vid=2c90726a-9b18-4098-aa00-234149dd7698"},"vehicle_type_id":"4","last_reported":1701194947,"current_range_meters":18000,"station_id":"ce4bhch2rcd13ifvqeug","pricing_plan_id":"free"},{"bike_id":"3a411332-de50-401f-b4fa-5b272c8b4bbf","system_id":"levelo_inurba_marseille","lat":43.285856,"lon":5.350771,"is_reserved":false,"is_disabled":false,"rental_uris":{"android":"levelo://app?vid=3a411332-de50-401f-b4fa-5b272c8b4bbf","ios":"levelo://app?vid=3a411332-de50-401f-b4fa-5b272c8b4bbf"},"vehicle_type_id":"4","last_reported":1701194947,"current_range_meters":8800,"station_id":"ce4bhch2rcd13ifvqeug","pricing_plan_id":"free"},{"bike_id":"6d191312-7067-4d16-b793-f0e671dfe716","system_id":"levelo_inurba_marseille","lat":43.285856,"lon":5.350771,"is_reserved":false,"is_disabled":false,"rental_uris":{"android":"levelo://app?vid=6d191312-7067-4d16-b793-f0e671dfe716","ios":"levelo://app?vid=6d191312-7067-4d16-b793-f0e671dfe716"},"vehicle_type_id":"4","last_reported":1701194947,"current_range_meters":8800,"station_id":"ce4bhch2rcd13ifvqeug","pricing_plan_id":"free"},{"bike_id":"130fa135-952f-4aa0-97be-9b7875e4bfa9","system_id":"levelo_inurba_marseille","lat":43.295713,"lon":5.399639,"is_reserved":false,"is_disabled":false,"rental_uris":{"android":"levelo://app?vid=130fa135-952f-4aa0-97be-9b7875e4bfa9","ios":"levelo://app?vid=130fa135-952f-4aa0-97be-9b7875e4bfa9"},"vehicle_type_id":"4","last_reported":1701194947,"current_range_meters":18800,"station_id":"ce4bh312rcd13ifvqdj0","pricing_plan_id":"free"},{"bike_id":"cf4f7869-2fd0-4d43-bbc5-8735392fdb71","system_id":"levelo_inurba_marseille","lat":43.28675,"lon":5.38658,"is_reserved":false,"is_disabled":false,"rental_uris":{"android":"levelo://app?vid=cf4f7869-2fd0-4d43-bbc5-8735392fdb71","ios":"levelo://app?vid=cf4f7869-2fd0-4d43-bbc5-8735392fdb71"},"vehicle_type_id":"4","last_reported":1701194947,"current_range_meters":2400,"station_id":"ce4bh492rcd13ifvqdug","pricing_plan_id":"free"},{"bike_id":"78837215-3832-48d3-93c6-09010952dc43","system_id":"levelo_inurba_marseille","lat":43.2848,"lon":5.3841,"is_reserved":false,"is_disabled":false,"rental_uris":{"android":"levelo://app?vid=78837215-3832-48d3-93c6-09010952dc43","ios":"levelo://app?vid=78837215-3832-48d3-93c6-09010952dc43"},"vehicle_type_id":"4","last_reported":1701194947,"current_range_meters":0,"station_id":"ce4bh512rcd13ifvqe3g","pricing_plan_id":"free"},{"bike_id":"9ee88844-f681-4715-977d-5d445eeeae2f","system_id":"levelo_inurba_marseille","lat":43.288501,"lon":5.393087,"is_reserved":false,"is_disabled":false,"rental_uris":{"android":"levelo://app?vid=9ee88844-f681-4715-977d-5d445eeeae2f","ios":"levelo://app?vid=9ee88844-f681-4715-977d-5d445eeeae2f"},"vehicle_type_id":"4","last_reported":1701194947,"current_range_meters":23200,"station_id":"ce4bh2p2rcd13ifvqdi0","pricing_plan_id":"free"},{"bike_id":"89de1d7a-a9b7-43e1-9280-5a8e3c1e2c1a","system_id":"levelo_inurba_marseille","lat":43.288501,"lon":5.393087,"is_reserved":false,"is_disabled":false,"rental_uris":{"android":"levelo://app?vid=89de1d7a-a9b7-43e1-9280-5a8e3c1e2c1a","ios":"levelo://app?vid=89de1d7a-a9b7-43e1-9280-5a8e3c1e2c1a"},"vehicle_type_id":"4","last_reported":1701194947,"current_range_meters":13600,"station_id":"ce4bh2p2rcd13ifvqdi0","pricing_plan_id":"free"},{"bike_id":"c475a316-9477-4dba-8b6a-6df577516dcd","system_id":"levelo_inurba_marseille","lat":43.284219,"lon":5.3497,"is_reserved":false,"is_disabled":false,"rental_uris":{"android":"levelo://app?vid=c475a316-9477-4dba-8b6a-6df577516dcd","ios":"levelo://app?vid=c475a316-9477-4dba-8b6a-6df577516dcd"},"vehicle_type_id":"4","last_reported":1701194947,"current_range_meters":8800,"station_id":"ce4bhbh2rcd13ifvqepg","pricing_plan_id":"free"},{"bike_id":"4b5b5b9a-04c9-4c9b-9f27-7f62860aeb4d","system_id":"levelo_inurba_marseille","lat":43.2804,"lon":5.3695,"is_reserved":false,"is_disabled":false,"rental_uris":{"android":"levelo://app?vid=4b5b5b9a-04c9-4c9b-9f27-7f62860aeb4d","ios":"levelo://app?vid=4b5b5b9a-04c9-4c9b-9f27-7f62860aeb4d"},"vehicle_type_id":"4","last_reported":1701194947,"current_range_meters":26400,"station_id":"ce4bha12rcd13ifvqef0","pricing_plan_id":"free"},{"bike_id":"90bb93de-60c6-45f1-8989-bac32159e22e","system_id":"levelo_inurba_marseille","lat":43.28036,"lon":5.36945,"is_reserved":false,"is_disabled":false,"rental_uris":{"android":"levelo://app?vid=90bb93de-60c6-45f1-8989-bac32159e22e","ios":"levelo://app?vid=90bb93de-60c6-45f1-8989-bac32159e22e"},"vehicle_type_id":"4","last_reported":1701194947,"current_range_meters":0,"station_id":"ce4bha12rcd13ifvqef0","pricing_plan_id":"free"},{"bike_id":"83386e6a-5c24-44bc-bc4f-23a58973e99c","system_id":"levelo_inurba_marseille","lat":43.280264,"lon":5.382388,"is_reserved":false,"is_disabled":false,"rental_uris":{"android":"levelo://app?vid=83386e6a-5c24-44bc-bc4f-23a58973e99c","ios":"levelo://app?vid=83386e6a-5c24-44bc-bc4f-23a58973e99c"},"vehicle_type_id":"4","last_reported":1701194947,"current_range_meters":0,"station_id":"","pricing_plan_id":"free"},{"bike_id":"065d9d4f-3040-400d-834a-33c87a992b10","system_id":"levelo_inurba_marseille","lat":43.304188,"lon":5.412904,"is_reserved":false,"is_disabled":false,"rental_uris":{"android":"levelo://app?vid=065d9d4f-3040-400d-834a-33c87a992b10","ios":"levelo://app?vid=065d9d4f-3040-400d-834a-33c87a992b10"},"vehicle_type_id":"4","last_reported":1701194947,"current_range_meters":28000,"station_id":"ce4bhop2rcd13ifvqh8g","pricing_plan_id":"free"},{"bike_id":"f6dc0013-0eff-4e6e-a377-0b6b9e89afb3","system_id":"levelo_inurba_marseille","lat":43.279087,"lon":5.380114,"is_reserved":false,"is_disabled":false,"rental_uris":{"android":"levelo://app?vid=f6dc0013-0eff-4e6e-a377-0b6b9e89afb3","ios":"levelo://app?vid=f6dc0013-0eff-4e6e-a377-0b6b9e89afb3"},"vehicle_type_id":"4","last_reported":1701194947,"current_range_meters":24800,"station_id":"ce4bhf92rcd13ifvqf50","pricing_plan_id":"free"},{"bike_id":"a2079a49-a110-4816-9393-59dcefe2a141","system_id":"levelo_inurba_marseille","lat":43.320045,"lon":5.415046,"is_reserved":false,"is_disabled":false,"rental_uris":{"android":"levelo://app?vid=a2079a49-a110-4816-9393-59dcefe2a141","ios":"levelo://app?vid=a2079a49-a110-4816-9393-59dcefe2a141"},"vehicle_type_id":"4","last_reported":1701194947,"current_range_meters":12400,"station_id":"ce4bhq92rcd13ifvqhkg","pricing_plan_id":"free"},{"bike_id":"9c1ef7c9-7988-479c-a2b8-34e40854a6f4","system_id":"levelo_inurba_marseille","lat":43.320045,"lon":5.415046,"is_reserved":false,"is_disabled":false,"rental_uris":{"android":"levelo://app?vid=9c1ef7c9-7988-479c-a2b8-34e40854a6f4","ios":"levelo://app?vid=9c1ef7c9-7988-479c-a2b8-34e40854a6f4"},"vehicle_type_id":"4","last_reported":1701194947,"current_range_meters":5600,"station_id":"ce4bhq92rcd13ifvqhkg","pricing_plan_id":"free"},{"bike_id":"6e517c47-514c-4dba-a63a-8108304365cb","system_id":"levelo_inurba_marseille","lat":43.320045,"lon":5.415048,"is_reserved":false,"is_disabled":false,"rental_uris":{"android":"levelo://app?vid=6e517c47-514c-4dba-a63a-8108304365cb","ios":"levelo://app?vid=6e517c47-514c-4dba-a63a-8108304365cb"},"vehicle_type_id":"4","last_reported":1701194947,"current_range_meters":18400,"station_id":"ce4bhq92rcd13ifvqhkg","pricing_plan_id":"free"},{"bike_id":"c6815414-c34f-49ec-a46b-3d2a29b878e2","system_id":"levelo_inurba_marseille","lat":43.292571,"lon":5.409107,"is_reserved":false,"is_disabled":false,"rental_uris":{"android":"levelo://app?vid=c6815414-c34f-49ec-a46b-3d2a29b878e2","ios":"levelo://app?vid=c6815414-c34f-49ec-a46b-3d2a29b878e2"},"vehicle_type_id":"4","last_reported":1701194947,"current_range_meters":22800,"station_id":"ce4bh192rcd13ifvqdc0","pricing_plan_id":"free"},{"bike_id":"77ba8069-70f8-4881-8eac-8d5ceefe11df","system_id":"levelo_inurba_marseille","lat":43.276179,"lon":5.361009,"is_reserved":false,"is_disabled":false,"rental_uris":{"android":"levelo://app?vid=77ba8069-70f8-4881-8eac-8d5ceefe11df","ios":"levelo://app?vid=77ba8069-70f8-4881-8eac-8d5ceefe11df"},"vehicle_type_id":"4","last_reported":1701194947,"current_range_meters":22000,"station_id":"ce4bgj92rcd13ifvqbe0","pricing_plan_id":"free"},{"bike_id":"e292fd5c-f88c-4ec9-956b-fcd907f9141e","system_id":"levelo_inurba_marseille","lat":43.276179,"lon":5.361009,"is_reserved":false,"is_disabled":false,"rental_uris":{"android":"levelo://app?vid=e292fd5c-f88c-4ec9-956b-fcd907f9141e","ios":"levelo://app?vid=e292fd5c-f88c-4ec9-956b-fcd907f9141e"},"vehicle_type_id":"4","last_reported":1701194947,"current_range_meters":7200,"station_id":"ce4bgj92rcd13ifvqbe0","pricing_plan_id":"free"},{"bike_id":"ef91fe83-dccd-4077-a4c7-e9823cf71941","system_id":"levelo_inurba_marseille","lat":43.303837,"lon":5.418724,"is_reserved":false,"is_disabled":false,"rental_uris":{"android":"levelo://app?vid=ef91fe83-dccd-4077-a4c7-e9823cf71941","ios":"levelo://app?vid=ef91fe83-dccd-4077-a4c7-e9823cf71941"},"vehicle_type_id":"4","last_reported":1701194947,"current_range_meters":26400,"station_id":"ce4bhop2rcd13ifvqh7g","pricing_plan_id":"free"},{"bike_id":"1cd2764f-f1d9-4d72-817c-b90f7f64584d","system_id":"levelo_inurba_marseille","lat":43.278399,"lon":5.392139,"is_reserved":false,"is_disabled":false,"rental_uris":{"android":"levelo://app?vid=1cd2764f-f1d9-4d72-817c-b90f7f64584d","ios":"levelo://app?vid=1cd2764f-f1d9-4d72-817c-b90f7f64584d"},"vehicle_type_id":"4","last_reported":1701194947,"current_range_meters":4800,"station_id":"ce4bhjp2rcd13ifvqga0","pricing_plan_id":"free"},{"bike_id":"327d89cf-7091-4ff9-b2a7-93d6b84ea853","system_id":"levelo_inurba_marseille","lat":43.273613,"lon":5.362705,"is_reserved":false,"is_disabled":false,"rental_uris":{"android":"levelo://app?vid=327d89cf-7091-4ff9-b2a7-93d6b84ea853","ios":"levelo://app?vid=327d89cf-7091-4ff9-b2a7-93d6b84ea853"},"vehicle_type_id":"4","last_reported":1701194947,"current_range_meters":20400,"station_id":"ce4bhbh2rcd13ifvqeo0","pricing_plan_id":"free"},{"bike_id":"d777abcc-4d39-46f1-98c9-af3c0f07c4ce","system_id":"levelo_inurba_marseille","lat":43.273609,"lon":5.362708,"is_reserved":false,"is_disabled":false,"rental_uris":{"android":"levelo://app?vid=d777abcc-4d39-46f1-98c9-af3c0f07c4ce","ios":"levelo://app?vid=d777abcc-4d39-46f1-98c9-af3c0f07c4ce"},"vehicle_type_id":"4","last_reported":1701194947,"current_range_meters":22000,"station_id":"ce4bhbh2rcd13ifvqeo0","pricing_plan_id":"free"},{"bike_id":"0b2da9cf-3d40-4d02-8411-ee53b9cb0a23","system_id":"levelo_inurba_marseille","lat":43.275625,"lon":5.384392,"is_reserved":false,"is_disabled":false,"rental_uris":{"android":"levelo://app?vid=0b2da9cf-3d40-4d02-8411-ee53b9cb0a23","ios":"levelo://app?vid=0b2da9cf-3d40-4d02-8411-ee53b9cb0a23"},"vehicle_type_id":"4","last_reported":1701194947,"current_range_meters":24800,"station_id":"ce4bhh92rcd13ifvqfi0","pricing_plan_id":"free"},{"bike_id":"79b6f054-6f36-45f9-aa2c-10a43c56ddba","system_id":"levelo_inurba_marseille","lat":43.275625,"lon":5.384392,"is_reserved":false,"is_disabled":false,"rental_uris":{"android":"levelo://app?vid=79b6f054-6f36-45f9-aa2c-10a43c56ddba","ios":"levelo://app?vid=79b6f054-6f36-45f9-aa2c-10a43c56ddba"},"vehicle_type_id":"4","last_reported":1701194947,"current_range_meters":12800,"station_id":"ce4bhh92rcd13ifvqfi0","pricing_plan_id":"free"},{"bike_id":"856f0679-fc9f-4639-b2ab-d2a04c4063b2","system_id":"levelo_inurba_marseille","lat":43.27999,"lon":5.40018,"is_reserved":false,"is_disabled":false,"rental_uris":{"android":"levelo://app?vid=856f0679-fc9f-4639-b2ab-d2a04c4063b2","ios":"levelo://app?vid=856f0679-fc9f-4639-b2ab-d2a04c4063b2"},"vehicle_type_id":"4","last_reported":1701194947,"current_range_meters":0,"station_id":"ce4bho92rcd13ifvqh4g","pricing_plan_id":"free"},{"bike_id":"d0fbaac9-5f1b-4e04-a4c7-06abf4bd9547","system_id":"levelo_inurba_marseille","lat":43.279952,"lon":5.400085,"is_reserved":false,"is_disabled":false,"rental_uris":{"android":"levelo://app?vid=d0fbaac9-5f1b-4e04-a4c7-06abf4bd9547","ios":"levelo://app?vid=d0fbaac9-5f1b-4e04-a4c7-06abf4bd9547"},"vehicle_type_id":"4","last_reported":1701194947,"current_range_meters":28400,"station_id":"ce4bho92rcd13ifvqh4g","pricing_plan_id":"free"},{"bike_id":"8a16ea1e-609b-4a07-8d0b-35f650d0dba6","system_id":"levelo_inurba_marseille","lat":43.265569,"lon":5.390047,"is_reserved":false,"is_disabled":false,"rental_uris":{"android":"levelo://app?vid=8a16ea1e-609b-4a07-8d0b-35f650d0dba6","ios":"levelo://app?vid=8a16ea1e-609b-4a07-8d0b-35f650d0dba6"},"vehicle_type_id":"4","last_reported":1701194947,"current_range_meters":11200,"station_id":"ce4bhe12rcd13ifvqf30","pricing_plan_id":"free"},{"bike_id":"e9c8ea64-74b1-4b58-b699-24b0e3cdcaca","system_id":"levelo_inurba_marseille","lat":43.310785,"lon":5.424305,"is_reserved":false,"is_disabled":false,"rental_uris":{"android":"levelo://app?vid=e9c8ea64-74b1-4b58-b699-24b0e3cdcaca","ios":"levelo://app?vid=e9c8ea64-74b1-4b58-b699-24b0e3cdcaca"},"vehicle_type_id":"4","last_reported":1701194947,"current_range_meters":3600,"station_id":"ce4bhp92rcd13ifvqhag","pricing_plan_id":"free"},{"bike_id":"0d2f8383-0939-4bbd-987a-b05def9a4f03","system_id":"levelo_inurba_marseille","lat":43.310785,"lon":5.424305,"is_reserved":false,"is_disabled":false,"rental_uris":{"android":"levelo://app?vid=0d2f8383-0939-4bbd-987a-b05def9a4f03","ios":"levelo://app?vid=0d2f8383-0939-4bbd-987a-b05def9a4f03"},"vehicle_type_id":"4","last_reported":1701194947,"current_range_meters":4400,"station_id":"ce4bhp92rcd13ifvqhag","pricing_plan_id":"free"},{"bike_id":"424fea02-3864-4c21-ae21-641e2d296cba","system_id":"levelo_inurba_marseille","lat":43.310785,"lon":5.424305,"is_reserved":false,"is_disabled":false,"rental_uris":{"android":"levelo://app?vid=424fea02-3864-4c21-ae21-641e2d296cba","ios":"levelo://app?vid=424fea02-3864-4c21-ae21-641e2d296cba"},"vehicle_type_id":"4","last_reported":1701194947,"current_range_meters":12400,"station_id":"ce4bhp92rcd13ifvqhag","pricing_plan_id":"free"},{"bike_id":"82aceb70-b3c3-42cf-9503-a688feddfca5","system_id":"levelo_inurba_marseille","lat":43.295523,"lon":5.422926,"is_reserved":false,"is_disabled":false,"rental_uris":{"android":"levelo://app?vid=82aceb70-b3c3-42cf-9503-a688feddfca5","ios":"levelo://app?vid=82aceb70-b3c3-42cf-9503-a688feddfca5"},"vehicle_type_id":"4","last_reported":1701194947,"current_range_meters":5600,"station_id":"ce4bhph2rcd13ifvqhdg","pricing_plan_id":"free"},{"bike_id":"19dd1cee-8873-4a30-9f6c-f5206a9328e0","system_id":"levelo_inurba_marseille","lat":43.295511,"lon":5.422926,"is_reserved":false,"is_disabled":false,"rental_uris":{"android":"levelo://app?vid=19dd1cee-8873-4a30-9f6c-f5206a9328e0","ios":"levelo://app?vid=19dd1cee-8873-4a30-9f6c-f5206a9328e0"},"vehicle_type_id":"4","last_reported":1701194947,"current_range_meters":30000,"station_id":"ce4bhph2rcd13ifvqhdg","pricing_plan_id":"free"},{"bike_id":"62cfa572-51d4-4a04-9e45-ea785883caeb","system_id":"levelo_inurba_marseille","lat":43.27215,"lon":5.39262,"is_reserved":false,"is_disabled":false,"rental_uris":{"android":"levelo://app?vid=62cfa572-51d4-4a04-9e45-ea785883caeb","ios":"levelo://app?vid=62cfa572-51d4-4a04-9e45-ea785883caeb"},"vehicle_type_id":"4","last_reported":1701194947,"current_range_meters":14800,"station_id":"","pricing_plan_id":"free"},{"bike_id":"861ce127-c633-47c4-a541-50848c0dc844","system_id":"levelo_inurba_marseille","lat":43.278128,"lon":5.407195,"is_reserved":false,"is_disabled":false,"rental_uris":{"android":"levelo://app?vid=861ce127-c633-47c4-a541-50848c0dc844","ios":"levelo://app?vid=861ce127-c633-47c4-a541-50848c0dc844"},"vehicle_type_id":"4","last_reported":1701194947,"current_range_meters":16800,"station_id":"ce4bhnh2rcd13ifvqgtg","pricing_plan_id":"free"},{"bike_id":"ce052a0f-cd71-41a3-a930-be1df6a86a1f","system_id":"levelo_inurba_marseille","lat":43.278128,"lon":5.407195,"is_reserved":false,"is_disabled":false,"rental_uris":{"android":"levelo://app?vid=ce052a0f-cd71-41a3-a930-be1df6a86a1f","ios":"levelo://app?vid=ce052a0f-cd71-41a3-a930-be1df6a86a1f"},"vehicle_type_id":"4","last_reported":1701194947,"current_range_meters":24400,"station_id":"ce4bhnh2rcd13ifvqgtg","pricing_plan_id":"free"},{"bike_id":"3c8a626b-51e3-42be-850a-edc49335e8bc","system_id":"levelo_inurba_marseille","lat":43.278128,"lon":5.407195,"is_reserved":false,"is_disabled":false,"rental_uris":{"android":"levelo://app?vid=3c8a626b-51e3-42be-850a-edc49335e8bc","ios":"levelo://app?vid=3c8a626b-51e3-42be-850a-edc49335e8bc"},"vehicle_type_id":"4","last_reported":1701194947,"current_range_meters":21600,"station_id":"ce4bhnh2rcd13ifvqgtg","pricing_plan_id":"free"},{"bike_id":"f6a66ed5-2dd8-446f-b676-c60f8dfe261d","system_id":"levelo_inurba_marseille","lat":43.278128,"lon":5.407195,"is_reserved":false,"is_disabled":false,"rental_uris":{"android":"levelo://app?vid=f6a66ed5-2dd8-446f-b676-c60f8dfe261d","ios":"levelo://app?vid=f6a66ed5-2dd8-446f-b676-c60f8dfe261d"},"vehicle_type_id":"4","last_reported":1701194947,"current_range_meters":26000,"station_id":"ce4bhnh2rcd13ifvqgtg","pricing_plan_id":"free"},{"bike_id":"9c09eb91-1097-47a8-9dc8-35b06c30a904","system_id":"levelo_inurba_marseille","lat":43.278128,"lon":5.407195,"is_reserved":false,"is_disabled":false,"rental_uris":{"android":"levelo://app?vid=9c09eb91-1097-47a8-9dc8-35b06c30a904","ios":"levelo://app?vid=9c09eb91-1097-47a8-9dc8-35b06c30a904"},"vehicle_type_id":"4","last_reported":1701194947,"current_range_meters":16000,"station_id":"ce4bhnh2rcd13ifvqgtg","pricing_plan_id":"free"},{"bike_id":"c8f06c6b-e98f-4268-8742-64627a93f9e3","system_id":"levelo_inurba_marseille","lat":43.278128,"lon":5.407195,"is_reserved":false,"is_disabled":false,"rental_uris":{"android":"levelo://app?vid=c8f06c6b-e98f-4268-8742-64627a93f9e3","ios":"levelo://app?vid=c8f06c6b-e98f-4268-8742-64627a93f9e3"},"vehicle_type_id":"4","last_reported":1701194947,"current_range_meters":31600,"station_id":"ce4bhnh2rcd13ifvqgtg","pricing_plan_id":"free"},{"bike_id":"c3fc66fc-765e-4750-9338-4a694ca85dfe","system_id":"levelo_inurba_marseille","lat":43.269467,"lon":5.386439,"is_reserved":false,"is_disabled":false,"rental_uris":{"android":"levelo://app?vid=c3fc66fc-765e-4750-9338-4a694ca85dfe","ios":"levelo://app?vid=c3fc66fc-765e-4750-9338-4a694ca85dfe"},"vehicle_type_id":"4","last_reported":1701194947,"current_range_meters":16800,"station_id":"ce4bhh92rcd13ifvqfh0","pricing_plan_id":"free"},{"bike_id":"ed793d90-896d-42d4-9cb4-591012f7cc72","system_id":"levelo_inurba_marseille","lat":43.27947,"lon":5.4105,"is_reserved":false,"is_disabled":false,"rental_uris":{"android":"levelo://app?vid=ed793d90-896d-42d4-9cb4-591012f7cc72","ios":"levelo://app?vid=ed793d90-896d-42d4-9cb4-591012f7cc72"},"vehicle_type_id":"4","last_reported":1701194947,"current_range_meters":27600,"station_id":"ce4bhnp2rcd13ifvqh0g","pricing_plan_id":"free"},{"bike_id":"fa0542ad-2996-4caa-ad83-19dcfd2cd6a9","system_id":"levelo_inurba_marseille","lat":43.279455,"lon":5.4105,"is_reserved":false,"is_disabled":false,"rental_uris":{"android":"levelo://app?vid=fa0542ad-2996-4caa-ad83-19dcfd2cd6a9","ios":"levelo://app?vid=fa0542ad-2996-4caa-ad83-19dcfd2cd6a9"},"vehicle_type_id":"4","last_reported":1701194947,"current_range_meters":800,"station_id":"ce4bhnp2rcd13ifvqh0g","pricing_plan_id":"free"},{"bike_id":"fd6076a2-900b-45c7-a82d-f0f0875b7fad","system_id":"levelo_inurba_marseille","lat":43.279492,"lon":5.41077,"is_reserved":false,"is_disabled":false,"rental_uris":{"android":"levelo://app?vid=fd6076a2-900b-45c7-a82d-f0f0875b7fad","ios":"levelo://app?vid=fd6076a2-900b-45c7-a82d-f0f0875b7fad"},"vehicle_type_id":"4","last_reported":1701194947,"current_range_meters":24400,"station_id":"ce4bhnp2rcd13ifvqh0g","pricing_plan_id":"free"},{"bike_id":"270a38cf-56f4-4dee-997b-166325a0649d","system_id":"levelo_inurba_marseille","lat":43.269319,"lon":5.389397,"is_reserved":false,"is_disabled":false,"rental_uris":{"android":"levelo://app?vid=270a38cf-56f4-4dee-997b-166325a0649d","ios":"levelo://app?vid=270a38cf-56f4-4dee-997b-166325a0649d"},"vehicle_type_id":"4","last_reported":1701194947,"current_range_meters":29600,"station_id":"ce4bhhh2rcd13ifvqfl0","pricing_plan_id":"free"},{"bike_id":"46fe186b-7c78-4538-bafa-f62dfbb99fed","system_id":"levelo_inurba_marseille","lat":43.27906,"lon":5.41226,"is_reserved":false,"is_disabled":false,"rental_uris":{"android":"levelo://app?vid=46fe186b-7c78-4538-bafa-f62dfbb99fed","ios":"levelo://app?vid=46fe186b-7c78-4538-bafa-f62dfbb99fed"},"vehicle_type_id":"4","last_reported":1701194947,"current_range_meters":14400,"station_id":"","pricing_plan_id":"free"},{"bike_id":"80f40827-02cd-4712-8bd4-15060a306138","system_id":"levelo_inurba_marseille","lat":43.26681,"lon":5.382694,"is_reserved":false,"is_disabled":false,"rental_uris":{"android":"levelo://app?vid=80f40827-02cd-4712-8bd4-15060a306138","ios":"levelo://app?vid=80f40827-02cd-4712-8bd4-15060a306138"},"vehicle_type_id":"4","last_reported":1701194947,"current_range_meters":2000,"station_id":"ce4bhg92rcd13ifvqf90","pricing_plan_id":"free"},{"bike_id":"998756c4-33d5-43ee-8d59-0d18ec85cc5c","system_id":"levelo_inurba_marseille","lat":43.26551,"lon":5.37288,"is_reserved":false,"is_disabled":false,"rental_uris":{"android":"levelo://app?vid=998756c4-33d5-43ee-8d59-0d18ec85cc5c","ios":"levelo://app?vid=998756c4-33d5-43ee-8d59-0d18ec85cc5c"},"vehicle_type_id":"4","last_reported":1701194947,"current_range_meters":24800,"station_id":"ce4bhg12rcd13ifvqf70","pricing_plan_id":"free"},{"bike_id":"7769d8a6-ace2-4600-bc82-4d6d23aeed77","system_id":"levelo_inurba_marseille","lat":43.28472,"lon":5.422,"is_reserved":false,"is_disabled":false,"rental_uris":{"android":"levelo://app?vid=7769d8a6-ace2-4600-bc82-4d6d23aeed77","ios":"levelo://app?vid=7769d8a6-ace2-4600-bc82-4d6d23aeed77"},"vehicle_type_id":"4","last_reported":1701194947,"current_range_meters":0,"station_id":"","pricing_plan_id":"free"},{"bike_id":"143beae7-b154-475e-856c-eaf8cd7ded9c","system_id":"levelo_inurba_marseille","lat":43.265714,"lon":5.372891,"is_reserved":false,"is_disabled":false,"rental_uris":{"android":"levelo://app?vid=143beae7-b154-475e-856c-eaf8cd7ded9c","ios":"levelo://app?vid=143beae7-b154-475e-856c-eaf8cd7ded9c"},"vehicle_type_id":"4","last_reported":1701194947,"current_range_meters":400,"station_id":"ce4bhg12rcd13ifvqf70","pricing_plan_id":"free"},{"bike_id":"e02045aa-3800-43e1-b580-fb75c4eb32be","system_id":"levelo_inurba_marseille","lat":43.26947,"lon":5.39979,"is_reserved":false,"is_disabled":false,"rental_uris":{"android":"levelo://app?vid=e02045aa-3800-43e1-b580-fb75c4eb32be","ios":"levelo://app?vid=e02045aa-3800-43e1-b580-fb75c4eb32be"},"vehicle_type_id":"4","last_reported":1701194947,"current_range_meters":3600,"station_id":"","pricing_plan_id":"free"},{"bike_id":"7535fedc-74ac-474b-8a2d-12a425012ada","system_id":"levelo_inurba_marseille","lat":43.308051,"lon":5.43527,"is_reserved":false,"is_disabled":false,"rental_uris":{"android":"levelo://app?vid=7535fedc-74ac-474b-8a2d-12a425012ada","ios":"levelo://app?vid=7535fedc-74ac-474b-8a2d-12a425012ada"},"vehicle_type_id":"4","last_reported":1701194947,"current_range_meters":29200,"station_id":"ce4bhph2rcd13ifvqheg","pricing_plan_id":"free"},{"bike_id":"23989d20-8a3e-42ec-be34-7eae04d446c8","system_id":"levelo_inurba_marseille","lat":43.308051,"lon":5.43527,"is_reserved":false,"is_disabled":false,"rental_uris":{"android":"levelo://app?vid=23989d20-8a3e-42ec-be34-7eae04d446c8","ios":"levelo://app?vid=23989d20-8a3e-42ec-be34-7eae04d446c8"},"vehicle_type_id":"4","last_reported":1701194947,"current_range_meters":10000,"station_id":"ce4bhph2rcd13ifvqheg","pricing_plan_id":"free"},{"bike_id":"36ff8b22-4416-4be8-9fd9-f14993d572ae","system_id":"levelo_inurba_marseille","lat":43.265569,"lon":5.390047,"is_reserved":false,"is_disabled":false,"rental_uris":{"android":"levelo://app?vid=36ff8b22-4416-4be8-9fd9-f14993d572ae","ios":"levelo://app?vid=36ff8b22-4416-4be8-9fd9-f14993d572ae"},"vehicle_type_id":"4","last_reported":1701194947,"current_range_meters":16400,"station_id":"ce4bhe12rcd13ifvqf30","pricing_plan_id":"free"},{"bike_id":"01f59b5a-9872-4491-82ac-aede9385819b","system_id":"levelo_inurba_marseille","lat":43.26941,"lon":5.40253,"is_reserved":false,"is_disabled":false,"rental_uris":{"android":"levelo://app?vid=01f59b5a-9872-4491-82ac-aede9385819b","ios":"levelo://app?vid=01f59b5a-9872-4491-82ac-aede9385819b"},"vehicle_type_id":"4","last_reported":1701194947,"current_range_meters":1200,"station_id":"cjm6bp8fraef2m0cb0m0","pricing_plan_id":"free"},{"bike_id":"2cfd894b-595c-4bac-a01a-4d2673d809b1","system_id":"levelo_inurba_marseille","lat":43.261782,"lon":5.374515,"is_reserved":false,"is_disabled":false,"rental_uris":{"android":"levelo://app?vid=2cfd894b-595c-4bac-a01a-4d2673d809b1","ios":"levelo://app?vid=2cfd894b-595c-4bac-a01a-4d2673d809b1"},"vehicle_type_id":"4","last_reported":1701194947,"current_range_meters":21600,"station_id":"ce4bhgp2rcd13ifvqfc0","pricing_plan_id":"free"},{"bike_id":"433b0d50-6ec6-4b62-ad03-03c128f15533","system_id":"levelo_inurba_marseille","lat":43.317104,"lon":5.436818,"is_reserved":false,"is_disabled":false,"rental_uris":{"android":"levelo://app?vid=433b0d50-6ec6-4b62-ad03-03c128f15533","ios":"levelo://app?vid=433b0d50-6ec6-4b62-ad03-03c128f15533"},"vehicle_type_id":"4","last_reported":1701194947,"current_range_meters":10400,"station_id":"ce4bhp92rcd13ifvqhcg","pricing_plan_id":"free"},{"bike_id":"3ee6d42b-be43-4558-85e1-d7d39f345c6b","system_id":"levelo_inurba_marseille","lat":43.317104,"lon":5.436818,"is_reserved":false,"is_disabled":false,"rental_uris":{"android":"levelo://app?vid=3ee6d42b-be43-4558-85e1-d7d39f345c6b","ios":"levelo://app?vid=3ee6d42b-be43-4558-85e1-d7d39f345c6b"},"vehicle_type_id":"4","last_reported":1701194947,"current_range_meters":30400,"station_id":"ce4bhp92rcd13ifvqhcg","pricing_plan_id":"free"},{"bike_id":"0a411095-3a8a-4221-843c-f3d98b94b3cb","system_id":"levelo_inurba_marseille","lat":43.271388,"lon":5.409269,"is_reserved":false,"is_disabled":false,"rental_uris":{"android":"levelo://app?vid=0a411095-3a8a-4221-843c-f3d98b94b3cb","ios":"levelo://app?vid=0a411095-3a8a-4221-843c-f3d98b94b3cb"},"vehicle_type_id":"4","last_reported":1701194947,"current_range_meters":28800,"station_id":"ce4bhl12rcd13ifvqgf0","pricing_plan_id":"free"},{"bike_id":"db2e35b6-91ba-4b8a-b10b-c020bac1b56a","system_id":"levelo_inurba_marseille","lat":43.262012,"lon":5.379307,"is_reserved":false,"is_disabled":false,"rental_uris":{"android":"levelo://app?vid=db2e35b6-91ba-4b8a-b10b-c020bac1b56a","ios":"levelo://app?vid=db2e35b6-91ba-4b8a-b10b-c020bac1b56a"},"vehicle_type_id":"4","last_reported":1701194947,"current_range_meters":27600,"station_id":"ce4bhjp2rcd13ifvqg90","pricing_plan_id":"free"},{"bike_id":"5edf4ffd-945c-46ca-853f-f4dc48bf88b7","system_id":"levelo_inurba_marseille","lat":43.26202,"lon":5.379299,"is_reserved":false,"is_disabled":false,"rental_uris":{"android":"levelo://app?vid=5edf4ffd-945c-46ca-853f-f4dc48bf88b7","ios":"levelo://app?vid=5edf4ffd-945c-46ca-853f-f4dc48bf88b7"},"vehicle_type_id":"4","last_reported":1701194947,"current_range_meters":31600,"station_id":"ce4bhjp2rcd13ifvqg90","pricing_plan_id":"free"},{"bike_id":"1b6e1605-822a-4d11-8a82-d6df3a659dce","system_id":"levelo_inurba_marseille","lat":43.271368,"lon":5.40928,"is_reserved":false,"is_disabled":false,"rental_uris":{"android":"levelo://app?vid=1b6e1605-822a-4d11-8a82-d6df3a659dce","ios":"levelo://app?vid=1b6e1605-822a-4d11-8a82-d6df3a659dce"},"vehicle_type_id":"4","last_reported":1701194947,"current_range_meters":4400,"station_id":"ce4bhl12rcd13ifvqgf0","pricing_plan_id":"free"},{"bike_id":"fa7abb30-4346-431c-b1fa-aef86f064968","system_id":"levelo_inurba_marseille","lat":43.26202,"lon":5.379299,"is_reserved":false,"is_disabled":false,"rental_uris":{"android":"levelo://app?vid=fa7abb30-4346-431c-b1fa-aef86f064968","ios":"levelo://app?vid=fa7abb30-4346-431c-b1fa-aef86f064968"},"vehicle_type_id":"4","last_reported":1701194947,"current_range_meters":12400,"station_id":"ce4bhjp2rcd13ifvqg90","pricing_plan_id":"free"},{"bike_id":"446cd8c0-e899-491b-a3a1-821d86a5b153","system_id":"levelo_inurba_marseille","lat":43.26202,"lon":5.379299,"is_reserved":false,"is_disabled":false,"rental_uris":{"android":"levelo://app?vid=446cd8c0-e899-491b-a3a1-821d86a5b153","ios":"levelo://app?vid=446cd8c0-e899-491b-a3a1-821d86a5b153"},"vehicle_type_id":"4","last_reported":1701194947,"current_range_meters":16400,"station_id":"ce4bhjp2rcd13ifvqg90","pricing_plan_id":"free"},{"bike_id":"ee061ca8-9195-421f-9f0b-16def3d407c4","system_id":"levelo_inurba_marseille","lat":43.271368,"lon":5.40928,"is_reserved":false,"is_disabled":false,"rental_uris":{"android":"levelo://app?vid=ee061ca8-9195-421f-9f0b-16def3d407c4","ios":"levelo://app?vid=ee061ca8-9195-421f-9f0b-16def3d407c4"},"vehicle_type_id":"4","last_reported":1701194947,"current_range_meters":13600,"station_id":"ce4bhl12rcd13ifvqgf0","pricing_plan_id":"free"},{"bike_id":"ef0dad78-ddd6-493b-adb5-f6ea1090c77a","system_id":"levelo_inurba_marseille","lat":43.26806,"lon":5.40271,"is_reserved":false,"is_disabled":false,"rental_uris":{"android":"levelo://app?vid=ef0dad78-ddd6-493b-adb5-f6ea1090c77a","ios":"levelo://app?vid=ef0dad78-ddd6-493b-adb5-f6ea1090c77a"},"vehicle_type_id":"4","last_reported":1701194947,"current_range_meters":20400,"station_id":"ce501612rcd8frsf0b60","pricing_plan_id":"free"},{"bike_id":"f4f2e1d5-dafa-412d-9b3a-3611814786ce","system_id":"levelo_inurba_marseille","lat":43.298768,"lon":5.43643,"is_reserved":false,"is_disabled":false,"rental_uris":{"android":"levelo://app?vid=f4f2e1d5-dafa-412d-9b3a-3611814786ce","ios":"levelo://app?vid=f4f2e1d5-dafa-412d-9b3a-3611814786ce"},"vehicle_type_id":"4","last_reported":1701194947,"current_range_meters":31200,"station_id":"ce4bhpp2rcd13ifvqhfg","pricing_plan_id":"free"},{"bike_id":"7fa1f073-4aa8-4024-b94a-b9e2738d0313","system_id":"levelo_inurba_marseille","lat":43.298768,"lon":5.43643,"is_reserved":false,"is_disabled":false,"rental_uris":{"android":"levelo://app?vid=7fa1f073-4aa8-4024-b94a-b9e2738d0313","ios":"levelo://app?vid=7fa1f073-4aa8-4024-b94a-b9e2738d0313"},"vehicle_type_id":"4","last_reported":1701194947,"current_range_meters":16800,"station_id":"ce4bhpp2rcd13ifvqhfg","pricing_plan_id":"free"},{"bike_id":"9713bde9-c9a7-4d76-bb95-dac32047e32a","system_id":"levelo_inurba_marseille","lat":43.298768,"lon":5.43643,"is_reserved":false,"is_disabled":false,"rental_uris":{"android":"levelo://app?vid=9713bde9-c9a7-4d76-bb95-dac32047e32a","ios":"levelo://app?vid=9713bde9-c9a7-4d76-bb95-dac32047e32a"},"vehicle_type_id":"4","last_reported":1701194947,"current_range_meters":29200,"station_id":"ce4bhpp2rcd13ifvqhfg","pricing_plan_id":"free"},{"bike_id":"e5ff3a52-c2a1-4dfd-80ea-871162d24da3","system_id":"levelo_inurba_marseille","lat":43.260219,"lon":5.37546,"is_reserved":false,"is_disabled":false,"rental_uris":{"android":"levelo://app?vid=e5ff3a52-c2a1-4dfd-80ea-871162d24da3","ios":"levelo://app?vid=e5ff3a52-c2a1-4dfd-80ea-871162d24da3"},"vehicle_type_id":"4","last_reported":1701194947,"current_range_meters":15200,"station_id":"ce4bhgh2rcd13ifvqfa0","pricing_plan_id":"free"},{"bike_id":"baa110bc-e6be-491b-9db8-5e934046b735","system_id":"levelo_inurba_marseille","lat":43.260165,"lon":5.37555,"is_reserved":false,"is_disabled":false,"rental_uris":{"android":"levelo://app?vid=baa110bc-e6be-491b-9db8-5e934046b735","ios":"levelo://app?vid=baa110bc-e6be-491b-9db8-5e934046b735"},"vehicle_type_id":"4","last_reported":1701194947,"current_range_meters":16400,"station_id":"ce4bhgh2rcd13ifvqfa0","pricing_plan_id":"free"},{"bike_id":"61405fe3-3b73-4634-b13e-87eff05ade8a","system_id":"levelo_inurba_marseille","lat":43.281548,"lon":5.42643,"is_reserved":false,"is_disabled":false,"rental_uris":{"android":"levelo://app?vid=61405fe3-3b73-4634-b13e-87eff05ade8a","ios":"levelo://app?vid=61405fe3-3b73-4634-b13e-87eff05ade8a"},"vehicle_type_id":"4","last_reported":1701194947,"current_range_meters":27600,"station_id":"ce4bhnh2rcd13ifvqgug","pricing_plan_id":"free"},{"bike_id":"28fa65af-94bc-46bf-afd7-eff4cf5577da","system_id":"levelo_inurba_marseille","lat":43.25584,"lon":5.38225,"is_reserved":false,"is_disabled":false,"rental_uris":{"android":"levelo://app?vid=28fa65af-94bc-46bf-afd7-eff4cf5577da","ios":"levelo://app?vid=28fa65af-94bc-46bf-afd7-eff4cf5577da"},"vehicle_type_id":"4","last_reported":1701194947,"current_range_meters":31200,"station_id":"ce4bhih2rcd13ifvqfs0","pricing_plan_id":"free"},{"bike_id":"b09cf6fe-9609-4834-a4fb-3cf72efe3863","system_id":"levelo_inurba_marseille","lat":43.25586,"lon":5.38243,"is_reserved":false,"is_disabled":false,"rental_uris":{"android":"levelo://app?vid=b09cf6fe-9609-4834-a4fb-3cf72efe3863","ios":"levelo://app?vid=b09cf6fe-9609-4834-a4fb-3cf72efe3863"},"vehicle_type_id":"4","last_reported":1701194947,"current_range_meters":19600,"station_id":"ce4bhih2rcd13ifvqfs0","pricing_plan_id":"free"},{"bike_id":"4cd302e3-8c75-4df9-b451-163a0cd3ffc2","system_id":"levelo_inurba_marseille","lat":43.25584,"lon":5.3824,"is_reserved":false,"is_disabled":false,"rental_uris":{"android":"levelo://app?vid=4cd302e3-8c75-4df9-b451-163a0cd3ffc2","ios":"levelo://app?vid=4cd302e3-8c75-4df9-b451-163a0cd3ffc2"},"vehicle_type_id":"4","last_reported":1701194947,"current_range_meters":9200,"station_id":"ce4bhih2rcd13ifvqfs0","pricing_plan_id":"free"},{"bike_id":"eeab90d1-54ad-41e2-9e6d-94f07eb70048","system_id":"levelo_inurba_marseille","lat":43.255809,"lon":5.382426,"is_reserved":false,"is_disabled":false,"rental_uris":{"android":"levelo://app?vid=eeab90d1-54ad-41e2-9e6d-94f07eb70048","ios":"levelo://app?vid=eeab90d1-54ad-41e2-9e6d-94f07eb70048"},"vehicle_type_id":"4","last_reported":1701194947,"current_range_meters":27200,"station_id":"ce4bhih2rcd13ifvqfs0","pricing_plan_id":"free"},{"bike_id":"be32455b-e813-47c5-9094-3dfc5a0d8d7a","system_id":"levelo_inurba_marseille","lat":43.255799,"lon":5.382407,"is_reserved":false,"is_disabled":false,"rental_uris":{"android":"levelo://app?vid=be32455b-e813-47c5-9094-3dfc5a0d8d7a","ios":"levelo://app?vid=be32455b-e813-47c5-9094-3dfc5a0d8d7a"},"vehicle_type_id":"4","last_reported":1701194947,"current_range_meters":30800,"station_id":"ce4bhih2rcd13ifvqfs0","pricing_plan_id":"free"},{"bike_id":"2a359975-e46f-4b44-a624-025c90902ae7","system_id":"levelo_inurba_marseille","lat":43.25578,"lon":5.3823,"is_reserved":false,"is_disabled":false,"rental_uris":{"android":"levelo://app?vid=2a359975-e46f-4b44-a624-025c90902ae7","ios":"levelo://app?vid=2a359975-e46f-4b44-a624-025c90902ae7"},"vehicle_type_id":"4","last_reported":1701194947,"current_range_meters":14400,"station_id":"ce4bhih2rcd13ifvqfs0","pricing_plan_id":"free"},{"bike_id":"57938117-2341-478e-b38d-5404e82d41c3","system_id":"levelo_inurba_marseille","lat":43.25577,"lon":5.38228,"is_reserved":false,"is_disabled":false,"rental_uris":{"android":"levelo://app?vid=57938117-2341-478e-b38d-5404e82d41c3","ios":"levelo://app?vid=57938117-2341-478e-b38d-5404e82d41c3"},"vehicle_type_id":"4","last_reported":1701194947,"current_range_meters":30000,"station_id":"ce4bhih2rcd13ifvqfs0","pricing_plan_id":"free"},{"bike_id":"30f219e9-cf16-46c1-835b-b063ccd32fdb","system_id":"levelo_inurba_marseille","lat":43.25578,"lon":5.38243,"is_reserved":false,"is_disabled":false,"rental_uris":{"android":"levelo://app?vid=30f219e9-cf16-46c1-835b-b063ccd32fdb","ios":"levelo://app?vid=30f219e9-cf16-46c1-835b-b063ccd32fdb"},"vehicle_type_id":"4","last_reported":1701194947,"current_range_meters":31200,"station_id":"ce4bhih2rcd13ifvqfs0","pricing_plan_id":"free"},{"bike_id":"2c04b5df-c4e3-41eb-b552-3c0cc063f8bd","system_id":"levelo_inurba_marseille","lat":43.258224,"lon":5.394369,"is_reserved":false,"is_disabled":false,"rental_uris":{"android":"levelo://app?vid=2c04b5df-c4e3-41eb-b552-3c0cc063f8bd","ios":"levelo://app?vid=2c04b5df-c4e3-41eb-b552-3c0cc063f8bd"},"vehicle_type_id":"4","last_reported":1701194947,"current_range_meters":14800,"station_id":"ce4bhip2rcd13ifvqft0","pricing_plan_id":"free"},{"bike_id":"09220ab1-b157-4be4-814b-234fe6558044","system_id":"levelo_inurba_marseille","lat":43.255691,"lon":5.382206,"is_reserved":false,"is_disabled":false,"rental_uris":{"android":"levelo://app?vid=09220ab1-b157-4be4-814b-234fe6558044","ios":"levelo://app?vid=09220ab1-b157-4be4-814b-234fe6558044"},"vehicle_type_id":"4","last_reported":1701194947,"current_range_meters":31200,"station_id":"ce4bhih2rcd13ifvqfs0","pricing_plan_id":"free"},{"bike_id":"f0bc73a3-8916-4ece-b902-da5bb590f69d","system_id":"levelo_inurba_marseille","lat":43.25491,"lon":5.37651,"is_reserved":false,"is_disabled":false,"rental_uris":{"android":"levelo://app?vid=f0bc73a3-8916-4ece-b902-da5bb590f69d","ios":"levelo://app?vid=f0bc73a3-8916-4ece-b902-da5bb590f69d"},"vehicle_type_id":"4","last_reported":1701194947,"current_range_meters":31200,"station_id":"ce4bhh12rcd13ifvqff0","pricing_plan_id":"free"},{"bike_id":"fabc39c7-7212-4723-be7d-f3e431f42d2e","system_id":"levelo_inurba_marseille","lat":43.258658,"lon":5.398935,"is_reserved":false,"is_disabled":false,"rental_uris":{"android":"levelo://app?vid=fabc39c7-7212-4723-be7d-f3e431f42d2e","ios":"levelo://app?vid=fabc39c7-7212-4723-be7d-f3e431f42d2e"},"vehicle_type_id":"4","last_reported":1701194947,"current_range_meters":0,"station_id":"ce4bhl92rcd13ifvqghg","pricing_plan_id":"free"},{"bike_id":"7fffe5d9-d711-4f9e-b9e1-4f93667956b7","system_id":"levelo_inurba_marseille","lat":43.259009,"lon":5.40929,"is_reserved":false,"is_disabled":false,"rental_uris":{"android":"levelo://app?vid=7fffe5d9-d711-4f9e-b9e1-4f93667956b7","ios":"levelo://app?vid=7fffe5d9-d711-4f9e-b9e1-4f93667956b7"},"vehicle_type_id":"4","last_reported":1701194947,"current_range_meters":9600,"station_id":"ce4bhm92rcd13ifvqglg","pricing_plan_id":"free"},{"bike_id":"462bb4e2-f9b1-4cda-8016-d129cd4afd4c","system_id":"levelo_inurba_marseille","lat":43.258224,"lon":5.394369,"is_reserved":false,"is_disabled":false,"rental_uris":{"android":"levelo://app?vid=462bb4e2-f9b1-4cda-8016-d129cd4afd4c","ios":"levelo://app?vid=462bb4e2-f9b1-4cda-8016-d129cd4afd4c"},"vehicle_type_id":"4","last_reported":1701194947,"current_range_meters":27200,"station_id":"ce4bhip2rcd13ifvqft0","pricing_plan_id":"free"},{"bike_id":"cec2e443-0315-45bf-9dd0-313fbfa11e64","system_id":"levelo_inurba_marseille","lat":43.250009,"lon":5.389195,"is_reserved":false,"is_disabled":false,"rental_uris":{"android":"levelo://app?vid=cec2e443-0315-45bf-9dd0-313fbfa11e64","ios":"levelo://app?vid=cec2e443-0315-45bf-9dd0-313fbfa11e64"},"vehicle_type_id":"4","last_reported":1701194947,"current_range_meters":25600,"station_id":"ce4bhgp2rcd13ifvqfd0","pricing_plan_id":"free"},{"bike_id":"a6d4bd49-6af7-40b7-a892-b86a32f3777d","system_id":"levelo_inurba_marseille","lat":43.2479,"lon":5.374457,"is_reserved":false,"is_disabled":false,"rental_uris":{"android":"levelo://app?vid=a6d4bd49-6af7-40b7-a892-b86a32f3777d","ios":"levelo://app?vid=a6d4bd49-6af7-40b7-a892-b86a32f3777d"},"vehicle_type_id":"4","last_reported":1701194947,"current_range_meters":21600,"station_id":"ce4bhgh2rcd13ifvqfb0","pricing_plan_id":"free"},{"bike_id":"87fce401-ae15-4214-8d0c-cd3ecd5f960e","system_id":"levelo_inurba_marseille","lat":43.2479,"lon":5.374457,"is_reserved":false,"is_disabled":false,"rental_uris":{"android":"levelo://app?vid=87fce401-ae15-4214-8d0c-cd3ecd5f960e","ios":"levelo://app?vid=87fce401-ae15-4214-8d0c-cd3ecd5f960e"},"vehicle_type_id":"4","last_reported":1701194947,"current_range_meters":31200,"station_id":"ce4bhgh2rcd13ifvqfb0","pricing_plan_id":"free"},{"bike_id":"4c0c3118-7eaa-4ebd-8d87-d449bea3e021","system_id":"levelo_inurba_marseille","lat":43.250897,"lon":5.395161,"is_reserved":false,"is_disabled":false,"rental_uris":{"android":"levelo://app?vid=4c0c3118-7eaa-4ebd-8d87-d449bea3e021","ios":"levelo://app?vid=4c0c3118-7eaa-4ebd-8d87-d449bea3e021"},"vehicle_type_id":"4","last_reported":1701194947,"current_range_meters":15600,"station_id":"ce4bhm12rcd13ifvqgkg","pricing_plan_id":"free"},{"bike_id":"b869908f-3400-4662-a0fe-d47662830b03","system_id":"levelo_inurba_marseille","lat":43.25086,"lon":5.39522,"is_reserved":false,"is_disabled":false,"rental_uris":{"android":"levelo://app?vid=b869908f-3400-4662-a0fe-d47662830b03","ios":"levelo://app?vid=b869908f-3400-4662-a0fe-d47662830b03"},"vehicle_type_id":"4","last_reported":1701194947,"current_range_meters":22400,"station_id":"ce4bhm12rcd13ifvqgkg","pricing_plan_id":"free"},{"bike_id":"5836db52-bc83-44f8-a451-b124bd28216c","system_id":"levelo_inurba_marseille","lat":43.25086,"lon":5.39526,"is_reserved":false,"is_disabled":false,"rental_uris":{"android":"levelo://app?vid=5836db52-bc83-44f8-a451-b124bd28216c","ios":"levelo://app?vid=5836db52-bc83-44f8-a451-b124bd28216c"},"vehicle_type_id":"4","last_reported":1701194947,"current_range_meters":16000,"station_id":"ce4bhm12rcd13ifvqgkg","pricing_plan_id":"free"},{"bike_id":"e9d9aa15-9b8f-4741-88c1-90b4b2b01fdc","system_id":"levelo_inurba_marseille","lat":43.25102,"lon":5.403214,"is_reserved":false,"is_disabled":false,"rental_uris":{"android":"levelo://app?vid=e9d9aa15-9b8f-4741-88c1-90b4b2b01fdc","ios":"levelo://app?vid=e9d9aa15-9b8f-4741-88c1-90b4b2b01fdc"},"vehicle_type_id":"4","last_reported":1701194947,"current_range_meters":0,"station_id":"ce4bhlh2rcd13ifvqgig","pricing_plan_id":"free"},{"bike_id":"0535d8be-b9cc-416b-b36a-1950dc249a56","system_id":"levelo_inurba_marseille","lat":43.24693,"lon":5.382096,"is_reserved":false,"is_disabled":false,"rental_uris":{"android":"levelo://app?vid=0535d8be-b9cc-416b-b36a-1950dc249a56","ios":"levelo://app?vid=0535d8be-b9cc-416b-b36a-1950dc249a56"},"vehicle_type_id":"4","last_reported":1701194947,"current_range_meters":0,"station_id":"ce4bhih2rcd13ifvqfr0","pricing_plan_id":"free"},{"bike_id":"95410c4a-5ec8-418f-abc1-2005a0d2819e","system_id":"levelo_inurba_marseille","lat":43.2511,"lon":5.40319,"is_reserved":false,"is_disabled":false,"rental_uris":{"android":"levelo://app?vid=95410c4a-5ec8-418f-abc1-2005a0d2819e","ios":"levelo://app?vid=95410c4a-5ec8-418f-abc1-2005a0d2819e"},"vehicle_type_id":"4","last_reported":1701194947,"current_range_meters":23200,"station_id":"ce4bhlh2rcd13ifvqgig","pricing_plan_id":"free"},{"bike_id":"ff268154-f02c-4a83-8095-8ed2b98cb1a2","system_id":"levelo_inurba_marseille","lat":43.25107,"lon":5.40325,"is_reserved":false,"is_disabled":false,"rental_uris":{"android":"levelo://app?vid=ff268154-f02c-4a83-8095-8ed2b98cb1a2","ios":"levelo://app?vid=ff268154-f02c-4a83-8095-8ed2b98cb1a2"},"vehicle_type_id":"4","last_reported":1701194947,"current_range_meters":0,"station_id":"ce4bhlh2rcd13ifvqgig","pricing_plan_id":"free"},{"bike_id":"77dcd9cc-d393-41d8-a7dc-f4e572157d16","system_id":"levelo_inurba_marseille","lat":43.25102,"lon":5.403214,"is_reserved":false,"is_disabled":false,"rental_uris":{"android":"levelo://app?vid=77dcd9cc-d393-41d8-a7dc-f4e572157d16","ios":"levelo://app?vid=77dcd9cc-d393-41d8-a7dc-f4e572157d16"},"vehicle_type_id":"4","last_reported":1701194947,"current_range_meters":29600,"station_id":"ce4bhlh2rcd13ifvqgig","pricing_plan_id":"free"},{"bike_id":"0f6340a6-f337-41da-8447-e37915f2a088","system_id":"levelo_inurba_marseille","lat":43.246461,"lon":5.389014,"is_reserved":false,"is_disabled":false,"rental_uris":{"android":"levelo://app?vid=0f6340a6-f337-41da-8447-e37915f2a088","ios":"levelo://app?vid=0f6340a6-f337-41da-8447-e37915f2a088"},"vehicle_type_id":"4","last_reported":1701194947,"current_range_meters":17200,"station_id":"ce4bhg12rcd13ifvqf60","pricing_plan_id":"free"},{"bike_id":"f1388486-ef3c-45a1-bd38-657b364d74cc","system_id":"levelo_inurba_marseille","lat":43.246461,"lon":5.389014,"is_reserved":false,"is_disabled":false,"rental_uris":{"android":"levelo://app?vid=f1388486-ef3c-45a1-bd38-657b364d74cc","ios":"levelo://app?vid=f1388486-ef3c-45a1-bd38-657b364d74cc"},"vehicle_type_id":"4","last_reported":1701194947,"current_range_meters":28400,"station_id":"ce4bhg12rcd13ifvqf60","pricing_plan_id":"free"},{"bike_id":"28d3e037-6348-4021-a673-f1af8b06b9f2","system_id":"levelo_inurba_marseille","lat":43.246461,"lon":5.389014,"is_reserved":false,"is_disabled":false,"rental_uris":{"android":"levelo://app?vid=28d3e037-6348-4021-a673-f1af8b06b9f2","ios":"levelo://app?vid=28d3e037-6348-4021-a673-f1af8b06b9f2"},"vehicle_type_id":"4","last_reported":1701194947,"current_range_meters":2400,"station_id":"ce4bhg12rcd13ifvqf60","pricing_plan_id":"free"},{"bike_id":"762dbb25-3bfb-498b-ae0f-cd5e2427a1c8","system_id":"levelo_inurba_marseille","lat":43.246467,"lon":5.388984,"is_reserved":false,"is_disabled":false,"rental_uris":{"android":"levelo://app?vid=762dbb25-3bfb-498b-ae0f-cd5e2427a1c8","ios":"levelo://app?vid=762dbb25-3bfb-498b-ae0f-cd5e2427a1c8"},"vehicle_type_id":"4","last_reported":1701194947,"current_range_meters":2400,"station_id":"ce4bhg12rcd13ifvqf60","pricing_plan_id":"free"},{"bike_id":"1a5bfc79-72e5-4236-bf5b-c21eb878e136","system_id":"levelo_inurba_marseille","lat":43.246467,"lon":5.388984,"is_reserved":false,"is_disabled":false,"rental_uris":{"android":"levelo://app?vid=1a5bfc79-72e5-4236-bf5b-c21eb878e136","ios":"levelo://app?vid=1a5bfc79-72e5-4236-bf5b-c21eb878e136"},"vehicle_type_id":"4","last_reported":1701194947,"current_range_meters":19600,"station_id":"ce4bhg12rcd13ifvqf60","pricing_plan_id":"free"},{"bike_id":"56fa133a-d164-4258-b3d1-5edbf7825eed","system_id":"levelo_inurba_marseille","lat":43.243884,"lon":5.370737,"is_reserved":false,"is_disabled":false,"rental_uris":{"android":"levelo://app?vid=56fa133a-d164-4258-b3d1-5edbf7825eed","ios":"levelo://app?vid=56fa133a-d164-4258-b3d1-5edbf7825eed"},"vehicle_type_id":"4","last_reported":1701194947,"current_range_meters":14000,"station_id":"ce4bhhh2rcd13ifvqfk0","pricing_plan_id":"free"},{"bike_id":"600b145d-cb1e-4656-b36c-871acee446e1","system_id":"levelo_inurba_marseille","lat":43.245581,"lon":5.395069,"is_reserved":false,"is_disabled":false,"rental_uris":{"android":"levelo://app?vid=600b145d-cb1e-4656-b36c-871acee446e1","ios":"levelo://app?vid=600b145d-cb1e-4656-b36c-871acee446e1"},"vehicle_type_id":"4","last_reported":1701194947,"current_range_meters":3600,"station_id":"ce4bhlp2rcd13ifvqgjg","pricing_plan_id":"free"},{"bike_id":"cc95caf3-5a17-44b1-8509-402b32a2fee9","system_id":"levelo_inurba_marseille","lat":43.239588,"lon":5.366238,"is_reserved":false,"is_disabled":false,"rental_uris":{"android":"levelo://app?vid=cc95caf3-5a17-44b1-8509-402b32a2fee9","ios":"levelo://app?vid=cc95caf3-5a17-44b1-8509-402b32a2fee9"},"vehicle_type_id":"4","last_reported":1701194947,"current_range_meters":29200,"station_id":"ce4bhi12rcd13ifvqfp0","pricing_plan_id":"free"},{"bike_id":"42a6da49-ed08-46fe-8bd2-bb30d4c869d4","system_id":"levelo_inurba_marseille","lat":43.239588,"lon":5.366238,"is_reserved":false,"is_disabled":false,"rental_uris":{"android":"levelo://app?vid=42a6da49-ed08-46fe-8bd2-bb30d4c869d4","ios":"levelo://app?vid=42a6da49-ed08-46fe-8bd2-bb30d4c869d4"},"vehicle_type_id":"4","last_reported":1701194947,"current_range_meters":6400,"station_id":"ce4bhi12rcd13ifvqfp0","pricing_plan_id":"free"},{"bike_id":"f49e990d-6ef6-47f3-81ff-a580a8e67ac7","system_id":"levelo_inurba_marseille","lat":43.239588,"lon":5.366238,"is_reserved":false,"is_disabled":false,"rental_uris":{"android":"levelo://app?vid=f49e990d-6ef6-47f3-81ff-a580a8e67ac7","ios":"levelo://app?vid=f49e990d-6ef6-47f3-81ff-a580a8e67ac7"},"vehicle_type_id":"4","last_reported":1701194947,"current_range_meters":19600,"station_id":"ce4bhi12rcd13ifvqfp0","pricing_plan_id":"free"},{"bike_id":"4940b067-f333-4f00-82ab-870f55a6e8ad","system_id":"levelo_inurba_marseille","lat":43.239647,"lon":5.366237,"is_reserved":false,"is_disabled":false,"rental_uris":{"android":"levelo://app?vid=4940b067-f333-4f00-82ab-870f55a6e8ad","ios":"levelo://app?vid=4940b067-f333-4f00-82ab-870f55a6e8ad"},"vehicle_type_id":"4","last_reported":1701194947,"current_range_meters":1600,"station_id":"ce4bhi12rcd13ifvqfp0","pricing_plan_id":"free"},{"bike_id":"fe2e14a2-dd05-44a1-9c66-2bf540c8859a","system_id":"levelo_inurba_marseille","lat":43.239588,"lon":5.366238,"is_reserved":false,"is_disabled":false,"rental_uris":{"android":"levelo://app?vid=fe2e14a2-dd05-44a1-9c66-2bf540c8859a","ios":"levelo://app?vid=fe2e14a2-dd05-44a1-9c66-2bf540c8859a"},"vehicle_type_id":"4","last_reported":1701194947,"current_range_meters":30800,"station_id":"ce4bhi12rcd13ifvqfp0","pricing_plan_id":"free"},{"bike_id":"f0bcb6fb-fca6-4960-bedf-e9143f575053","system_id":"levelo_inurba_marseille","lat":43.239588,"lon":5.366238,"is_reserved":false,"is_disabled":false,"rental_uris":{"android":"levelo://app?vid=f0bcb6fb-fca6-4960-bedf-e9143f575053","ios":"levelo://app?vid=f0bcb6fb-fca6-4960-bedf-e9143f575053"},"vehicle_type_id":"4","last_reported":1701194947,"current_range_meters":6000,"station_id":"ce4bhi12rcd13ifvqfp0","pricing_plan_id":"free"},{"bike_id":"1cf6be1f-31d9-4234-96c6-f3043c3f7b5e","system_id":"levelo_inurba_marseille","lat":43.241782,"lon":5.397261,"is_reserved":false,"is_disabled":false,"rental_uris":{"android":"levelo://app?vid=1cf6be1f-31d9-4234-96c6-f3043c3f7b5e","ios":"levelo://app?vid=1cf6be1f-31d9-4234-96c6-f3043c3f7b5e"},"vehicle_type_id":"4","last_reported":1701194947,"current_range_meters":10400,"station_id":"ce4bhn12rcd13ifvqgpg","pricing_plan_id":"free"},{"bike_id":"984d0f76-e572-47a8-af91-8606873a0bab","system_id":"levelo_inurba_marseille","lat":43.2418,"lon":5.3972,"is_reserved":false,"is_disabled":false,"rental_uris":{"android":"levelo://app?vid=984d0f76-e572-47a8-af91-8606873a0bab","ios":"levelo://app?vid=984d0f76-e572-47a8-af91-8606873a0bab"},"vehicle_type_id":"4","last_reported":1701194947,"current_range_meters":400,"station_id":"ce4bhn12rcd13ifvqgpg","pricing_plan_id":"free"},{"bike_id":"c298c075-4289-4e2a-8cbe-5956a8fee31d","system_id":"levelo_inurba_marseille","lat":43.231919,"lon":5.355532,"is_reserved":false,"is_disabled":false,"rental_uris":{"android":"levelo://app?vid=c298c075-4289-4e2a-8cbe-5956a8fee31d","ios":"levelo://app?vid=c298c075-4289-4e2a-8cbe-5956a8fee31d"},"vehicle_type_id":"4","last_reported":1701194947,"current_range_meters":27200,"station_id":"ce4bhu92rcd13ifvqi70","pricing_plan_id":"free"},{"bike_id":"caf24fd1-c713-46bf-a390-7a475374afbf","system_id":"levelo_inurba_marseille","lat":43.231923,"lon":5.355545,"is_reserved":false,"is_disabled":false,"rental_uris":{"android":"levelo://app?vid=caf24fd1-c713-46bf-a390-7a475374afbf","ios":"levelo://app?vid=caf24fd1-c713-46bf-a390-7a475374afbf"},"vehicle_type_id":"4","last_reported":1701194947,"current_range_meters":12800,"station_id":"ce4bhu92rcd13ifvqi70","pricing_plan_id":"free"},{"bike_id":"d1703505-b125-4a98-a807-11024241bc04","system_id":"levelo_inurba_marseille","lat":43.231923,"lon":5.355545,"is_reserved":false,"is_disabled":false,"rental_uris":{"android":"levelo://app?vid=d1703505-b125-4a98-a807-11024241bc04","ios":"levelo://app?vid=d1703505-b125-4a98-a807-11024241bc04"},"vehicle_type_id":"4","last_reported":1701194947,"current_range_meters":26000,"station_id":"ce4bhu92rcd13ifvqi70","pricing_plan_id":"free"},{"bike_id":"cb1ad581-4198-43f1-868c-486f2828ac05","system_id":"levelo_inurba_marseille","lat":43.231919,"lon":5.355532,"is_reserved":false,"is_disabled":false,"rental_uris":{"android":"levelo://app?vid=cb1ad581-4198-43f1-868c-486f2828ac05","ios":"levelo://app?vid=cb1ad581-4198-43f1-868c-486f2828ac05"},"vehicle_type_id":"4","last_reported":1701194947,"current_range_meters":22400,"station_id":"ce4bhu92rcd13ifvqi70","pricing_plan_id":"free"},{"bike_id":"b37cf8bc-ef87-4960-b38c-3279b894369f","system_id":"levelo_inurba_marseille","lat":43.231923,"lon":5.355545,"is_reserved":false,"is_disabled":false,"rental_uris":{"android":"levelo://app?vid=b37cf8bc-ef87-4960-b38c-3279b894369f","ios":"levelo://app?vid=b37cf8bc-ef87-4960-b38c-3279b894369f"},"vehicle_type_id":"4","last_reported":1701194947,"current_range_meters":31600,"station_id":"ce4bhu92rcd13ifvqi70","pricing_plan_id":"free"},{"bike_id":"d8c47b6d-f8d1-43bc-94b5-3b14f4a621dc","system_id":"levelo_inurba_marseille","lat":43.231919,"lon":5.355532,"is_reserved":false,"is_disabled":false,"rental_uris":{"android":"levelo://app?vid=d8c47b6d-f8d1-43bc-94b5-3b14f4a621dc","ios":"levelo://app?vid=d8c47b6d-f8d1-43bc-94b5-3b14f4a621dc"},"vehicle_type_id":"4","last_reported":1701194947,"current_range_meters":6400,"station_id":"ce4bhu92rcd13ifvqi70","pricing_plan_id":"free"},{"bike_id":"999bae91-5c10-4761-9e1a-454f2eb24f30","system_id":"levelo_inurba_marseille","lat":43.231793,"lon":5.400044,"is_reserved":false,"is_disabled":false,"rental_uris":{"android":"levelo://app?vid=999bae91-5c10-4761-9e1a-454f2eb24f30","ios":"levelo://app?vid=999bae91-5c10-4761-9e1a-454f2eb24f30"},"vehicle_type_id":"4","last_reported":1701194947,"current_range_meters":14800,"station_id":"ce4bhn12rcd13ifvqgqg","pricing_plan_id":"free"},{"bike_id":"d7b03b38-f119-4134-94e1-e00f1f58ff44","system_id":"levelo_inurba_marseille","lat":43.231919,"lon":5.399856,"is_reserved":false,"is_disabled":false,"rental_uris":{"android":"levelo://app?vid=d7b03b38-f119-4134-94e1-e00f1f58ff44","ios":"levelo://app?vid=d7b03b38-f119-4134-94e1-e00f1f58ff44"},"vehicle_type_id":"4","last_reported":1701194947,"current_range_meters":31200,"station_id":"ce4bhn12rcd13ifvqgqg","pricing_plan_id":"free"},{"bike_id":"a6b66b16-94c8-443a-b6dc-efcfd4b21fef","system_id":"levelo_inurba_marseille","lat":43.231794,"lon":5.400052,"is_reserved":false,"is_disabled":false,"rental_uris":{"android":"levelo://app?vid=a6b66b16-94c8-443a-b6dc-efcfd4b21fef","ios":"levelo://app?vid=a6b66b16-94c8-443a-b6dc-efcfd4b21fef"},"vehicle_type_id":"4","last_reported":1701194947,"current_range_meters":14800,"station_id":"ce4bhn12rcd13ifvqgqg","pricing_plan_id":"free"},{"bike_id":"8b731d20-f7b1-4787-82e3-b63cbfe0f0d8","system_id":"levelo_inurba_marseille","lat":43.231793,"lon":5.400044,"is_reserved":false,"is_disabled":false,"rental_uris":{"android":"levelo://app?vid=8b731d20-f7b1-4787-82e3-b63cbfe0f0d8","ios":"levelo://app?vid=8b731d20-f7b1-4787-82e3-b63cbfe0f0d8"},"vehicle_type_id":"4","last_reported":1701194947,"current_range_meters":12000,"station_id":"ce4bhn12rcd13ifvqgqg","pricing_plan_id":"free"},{"bike_id":"addb5449-a430-4f38-91b1-be79a795825d","system_id":"levelo_inurba_marseille","lat":43.231793,"lon":5.400044,"is_reserved":false,"is_disabled":false,"rental_uris":{"android":"levelo://app?vid=addb5449-a430-4f38-91b1-be79a795825d","ios":"levelo://app?vid=addb5449-a430-4f38-91b1-be79a795825d"},"vehicle_type_id":"4","last_reported":1701194947,"current_range_meters":31200,"station_id":"ce4bhn12rcd13ifvqgqg","pricing_plan_id":"free"},{"bike_id":"9a7ef747-2d6e-4971-8c61-7fee9382ac76","system_id":"levelo_inurba_marseille","lat":43.231794,"lon":5.400052,"is_reserved":false,"is_disabled":false,"rental_uris":{"android":"levelo://app?vid=9a7ef747-2d6e-4971-8c61-7fee9382ac76","ios":"levelo://app?vid=9a7ef747-2d6e-4971-8c61-7fee9382ac76"},"vehicle_type_id":"4","last_reported":1701194947,"current_range_meters":28000,"station_id":"ce4bhn12rcd13ifvqgqg","pricing_plan_id":"free"},{"bike_id":"e1d86ea6-4683-4b9e-8f27-180e0a317995","system_id":"levelo_inurba_marseille","lat":43.231794,"lon":5.400052,"is_reserved":false,"is_disabled":false,"rental_uris":{"android":"levelo://app?vid=e1d86ea6-4683-4b9e-8f27-180e0a317995","ios":"levelo://app?vid=e1d86ea6-4683-4b9e-8f27-180e0a317995"},"vehicle_type_id":"4","last_reported":1701194947,"current_range_meters":26400,"station_id":"ce4bhn12rcd13ifvqgqg","pricing_plan_id":"free"},{"bike_id":"70f8d6b1-3beb-4459-a185-9caece882463","system_id":"levelo_inurba_marseille","lat":43.231794,"lon":5.400052,"is_reserved":false,"is_disabled":false,"rental_uris":{"android":"levelo://app?vid=70f8d6b1-3beb-4459-a185-9caece882463","ios":"levelo://app?vid=70f8d6b1-3beb-4459-a185-9caece882463"},"vehicle_type_id":"4","last_reported":1701194947,"current_range_meters":31200,"station_id":"ce4bhn12rcd13ifvqgqg","pricing_plan_id":"free"},{"bike_id":"9cda8cdf-9120-4a6e-bac3-fb3433683fe9","system_id":"levelo_inurba_marseille","lat":43.231793,"lon":5.400044,"is_reserved":false,"is_disabled":false,"rental_uris":{"android":"levelo://app?vid=9cda8cdf-9120-4a6e-bac3-fb3433683fe9","ios":"levelo://app?vid=9cda8cdf-9120-4a6e-bac3-fb3433683fe9"},"vehicle_type_id":"4","last_reported":1701194947,"current_range_meters":14000,"station_id":"ce4bhn12rcd13ifvqgqg","pricing_plan_id":"free"}]}}