{"last_updated":1761386929,"ttl":60,"version":"2.2","data":{"bikes":[{"bike_id":"c1832106-d32f-4ab1-8858-f41f1790ceda","system_id":"levelo_inurba_marseille","lat":43.21765,"lon":5.34616,"is_reserved":false,"is_disabled":false,"rental_uris":{"android":"levelo://app?vid=c1832106-d32f-4ab1-8858-f41f1790ceda","ios":"levelo://app?vid=c1832106-d32f-4ab1-8858-f41f1790ceda"},"vehicle_type_id":"4","last_reported":1761386929,"current_range_meters":2800,"station_id":"","pricing_plan_id":"cebpf4jnsgd1na2vs0mg"},{"bike_id":"7546f470-e2c9-46ad-b638-733b3092a9dc","system_id":"levelo_inurba_marseille","lat":43.22537,"lon":5.34856,"is_reserved":false,"is_disabled":false,"rental_uris":{"android":"levelo://app?vid=7546f470-e2c9-46ad-b638-733b3092a9dc","ios":"levelo://app?vid=7546f470-e2c9-46ad-b638-733b3092a9dc"},"vehicle_type_id":"4","last_reported":1761386929,"current_range_meters":3200,"station_id":"","pricing_plan_id":"cebpf4jnsgd1na2vs0mg"},{"bike_id":"a082b7a1-e29f-4ac4-98ac-c6889995e3f4","system_id":"levelo_inurba_marseille","lat":43.29608,"lon":5.37727,"is_reserved":false,"is_disabled":false,"rental_uris":{"android":"levelo://app?vid=a082b7a1-e29f-4ac4-98ac-c6889995e3f4","ios":"levelo://app?vid=a082b7a1-e29f-4ac4-98ac-c6889995e3f4"},"vehicle_type_id":"4","last_reported":1761386929,"current_range_meters":4000,"station_id":"ce4bgi92rcd13ifvqb90","pricing_plan_id":"cebpf4jnsgd1na2vs0mg"},{"bike_id":"e9bf4828-3b6f-43de-9b9e-29f4a9fbed0c","system_id":"levelo_inurba_marseille","lat":43.30304,"lon":5.39203,"is_reserved":false,"is_disabled":false,"rental_uris":{"android":"levelo://app?vid=e9bf4828-3b6f-43de-9b9e-29f4a9fbed0c","ios":"levelo://app?vid=e9bf4828-3b6f-43de-9b9e-29f4a9fbed0c"},"vehicle_type_id":"4","last_reported":1761386929,"current_range_meters":4400,"station_id":"ce4bgkh2rcd13ifvqbk0","pricing_plan_id":"cebpf4jnsgd1na2vs0mg"},{"bike_id":"3e4783b6-28d8-4737-a4ef-6a1b0da02476","system_id":"levelo_inurba_marseille","lat":43.29446,"lon":5.40719,"is_reserved":false,"is_disabled":false,"rental_uris":{"android":"levelo://app?vid=3e4783b6-28d8-4737-a4ef-6a1b0da02476","ios":"levelo://app?vid=3e4783b6-28d8-4737-a4ef-6a1b0da02476"},"vehicle_type_id":"4","last_reported":1761386929,"current_range_meters":4400,"station_id":"","pricing_plan_id":"cebpf4jnsgd1na2vs0mg"},{"bike_id":"abd901b8-7c36-495e-8a02-f289d3842cbb","system_id":"levelo_inurba_marseille","lat":43.240631,"lon":5.377685,"is_reserved":false,"is_disabled":false,"rental_uris":{"android":"levelo://app?vid=abd901b8-7c36-495e-8a02-f289d3842cbb","ios":"levelo://app?vid=abd901b8-7c36-495e-8a02-f289d3842cbb"},"vehicle_type_id":"4","last_reported":1761386929,"current_range_meters":4400,"station_id":"ce4bhnp2rcd13ifvqgvg","pricing_plan_id":"cebpf4jnsgd1na2vs0mg"},{"bike_id":"ca1d1489-56cb-44b6-8655-4a6065fd56b7","system_id":"levelo_inurba_marseille","lat":43.23048,"lon":5.35485,"is_reserved":false,"is_disabled":false,"rental_uris":{"android":"levelo://app?vid=ca1d1489-56cb-44b6-8655-4a6065fd56b7","ios":"levelo://app?vid=ca1d1489-56cb-44b6-8655-4a6065fd56b7"},"vehicle_type_id":"4","last_reported":1761386929,"current_range_meters":4400,"station_id":"","pricing_plan_id":"cebpf4jnsgd1na2vs0mg"},{"bike_id":"5d90201f-5c89-4f9a-a7f7-4ea02b092b53","system_id":"levelo_inurba_marseille","lat":43.272065,"lon":5.391846,"is_reserved":false,"is_disabled":false,"rental_uris":{"android":"levelo://app?vid=5d90201f-5c89-4f9a-a7f7-4ea02b092b53","ios":"levelo://app?vid=5d90201f-5c89-4f9a-a7f7-4ea02b092b53"},"vehicle_type_id":"4","last_reported":1761386929,"current_range_meters":4400,"station_id":"ce4bhhp2rcd13ifvqfm0","pricing_plan_id":"cebpf4jnsgd1na2vs0mg"},{"bike_id":"8be3ebbc-b2d4-4c5b-b42c-662ba43d65dd","system_id":"levelo_inurba_marseille","lat":43.29268,"lon":5.36855,"is_reserved":false,"is_disabled":false,"rental_uris":{"android":"levelo://app?vid=8be3ebbc-b2d4-4c5b-b42c-662ba43d65dd","ios":"levelo://app?vid=8be3ebbc-b2d4-4c5b-b42c-662ba43d65dd"},"vehicle_type_id":"4","last_reported":1761386929,"current_range_meters":4800,"station_id":"ce4bhbp2rcd13ifvqesg","pricing_plan_id":"cebpf4jnsgd1na2vs0mg"},{"bike_id":"c3358a0e-1112-411e-83b6-1af8ffbf656b","system_id":"levelo_inurba_marseille","lat":43.305419,"lon":5.365431,"is_reserved":false,"is_disabled":false,"rental_uris":{"android":"levelo://app?vid=c3358a0e-1112-411e-83b6-1af8ffbf656b","ios":"levelo://app?vid=c3358a0e-1112-411e-83b6-1af8ffbf656b"},"vehicle_type_id":"4","last_reported":1761386929,"current_range_meters":4800,"station_id":"ce4bgs12rcd13ifvqcag","pricing_plan_id":"cebpf4jnsgd1na2vs0mg"},{"bike_id":"a353b223-9684-4ce9-86c1-2d00082a2f5a","system_id":"levelo_inurba_marseille","lat":43.32044,"lon":5.415574,"is_reserved":false,"is_disabled":false,"rental_uris":{"android":"levelo://app?vid=a353b223-9684-4ce9-86c1-2d00082a2f5a","ios":"levelo://app?vid=a353b223-9684-4ce9-86c1-2d00082a2f5a"},"vehicle_type_id":"4","last_reported":1761386929,"current_range_meters":5600,"station_id":"ce4bhq92rcd13ifvqhkg","pricing_plan_id":"cebpf4jnsgd1na2vs0mg"},{"bike_id":"323bf2de-3bb4-4b4c-b330-b19ea807dbf5","system_id":"levelo_inurba_marseille","lat":43.32998,"lon":5.42941,"is_reserved":false,"is_disabled":false,"rental_uris":{"android":"levelo://app?vid=323bf2de-3bb4-4b4c-b330-b19ea807dbf5","ios":"levelo://app?vid=323bf2de-3bb4-4b4c-b330-b19ea807dbf5"},"vehicle_type_id":"4","last_reported":1761386929,"current_range_meters":6000,"station_id":"","pricing_plan_id":"cebpf4jnsgd1na2vs0mg"},{"bike_id":"17bd9fff-f8a7-45af-8120-cab272292f42","system_id":"levelo_inurba_marseille","lat":43.284778,"lon":5.483972,"is_reserved":false,"is_disabled":false,"rental_uris":{"android":"levelo://app?vid=17bd9fff-f8a7-45af-8120-cab272292f42","ios":"levelo://app?vid=17bd9fff-f8a7-45af-8120-cab272292f42"},"vehicle_type_id":"4","last_reported":1761386929,"current_range_meters":6000,"station_id":"st_d3svhcjqgbts73a3dn0g","pricing_plan_id":"cebpf4jnsgd1na2vs0mg"},{"bike_id":"0d2b9fd2-e679-4ac9-9da4-b4e4a73fa6c8","system_id":"levelo_inurba_marseille","lat":43.23048,"lon":5.35491,"is_reserved":false,"is_disabled":false,"rental_uris":{"android":"levelo://app?vid=0d2b9fd2-e679-4ac9-9da4-b4e4a73fa6c8","ios":"levelo://app?vid=0d2b9fd2-e679-4ac9-9da4-b4e4a73fa6c8"},"vehicle_type_id":"4","last_reported":1761386929,"current_range_meters":6000,"station_id":"","pricing_plan_id":"cebpf4jnsgd1na2vs0mg"},{"bike_id":"9bfed83c-4a67-448a-b6b2-0cdeb6d04c62","system_id":"levelo_inurba_marseille","lat":43.21191,"lon":5.35084,"is_reserved":false,"is_disabled":false,"rental_uris":{"android":"levelo://app?vid=9bfed83c-4a67-448a-b6b2-0cdeb6d04c62","ios":"levelo://app?vid=9bfed83c-4a67-448a-b6b2-0cdeb6d04c62"},"vehicle_type_id":"4","last_reported":1761386929,"current_range_meters":6400,"station_id":"st_cvj6sg6p6f1abm77japg","pricing_plan_id":"cebpf4jnsgd1na2vs0mg"},{"bike_id":"54f28a55-f48d-4068-ab8c-956cb00b3cec","system_id":"levelo_inurba_marseille","lat":43.29761,"lon":5.42774,"is_reserved":false,"is_disabled":false,"rental_uris":{"android":"levelo://app?vid=54f28a55-f48d-4068-ab8c-956cb00b3cec","ios":"levelo://app?vid=54f28a55-f48d-4068-ab8c-956cb00b3cec"},"vehicle_type_id":"4","last_reported":1761386929,"current_range_meters":6400,"station_id":"st_d3md5207bmas73dh9klg","pricing_plan_id":"cebpf4jnsgd1na2vs0mg"},{"bike_id":"706884f5-8035-4279-b454-b10de1fbfe46","system_id":"levelo_inurba_marseille","lat":43.30138,"lon":5.3742,"is_reserved":false,"is_disabled":false,"rental_uris":{"android":"levelo://app?vid=706884f5-8035-4279-b454-b10de1fbfe46","ios":"levelo://app?vid=706884f5-8035-4279-b454-b10de1fbfe46"},"vehicle_type_id":"4","last_reported":1761386929,"current_range_meters":6400,"station_id":"ce4bgs92rcd13ifvqcc0","pricing_plan_id":"cebpf4jnsgd1na2vs0mg"},{"bike_id":"099c1e32-2cc2-4f85-9346-021c85b32380","system_id":"levelo_inurba_marseille","lat":43.27375,"lon":5.36241,"is_reserved":false,"is_disabled":false,"rental_uris":{"android":"levelo://app?vid=099c1e32-2cc2-4f85-9346-021c85b32380","ios":"levelo://app?vid=099c1e32-2cc2-4f85-9346-021c85b32380"},"vehicle_type_id":"4","last_reported":1761386929,"current_range_meters":6400,"station_id":"ce4bhbh2rcd13ifvqeo0","pricing_plan_id":"cebpf4jnsgd1na2vs0mg"},{"bike_id":"3c7ce920-4ffc-4c10-b467-bb71a6a8d004","system_id":"levelo_inurba_marseille","lat":43.337444,"lon":5.374475,"is_reserved":false,"is_disabled":false,"rental_uris":{"android":"levelo://app?vid=3c7ce920-4ffc-4c10-b467-bb71a6a8d004","ios":"levelo://app?vid=3c7ce920-4ffc-4c10-b467-bb71a6a8d004"},"vehicle_type_id":"4","last_reported":1761386929,"current_range_meters":6800,"station_id":"","pricing_plan_id":"cebpf4jnsgd1na2vs0mg"},{"bike_id":"bf52d227-e2e6-4e46-bfde-44cbb96d7d45","system_id":"levelo_inurba_marseille","lat":43.21194,"lon":5.35082,"is_reserved":false,"is_disabled":false,"rental_uris":{"android":"levelo://app?vid=bf52d227-e2e6-4e46-bfde-44cbb96d7d45","ios":"levelo://app?vid=bf52d227-e2e6-4e46-bfde-44cbb96d7d45"},"vehicle_type_id":"4","last_reported":1761386929,"current_range_meters":6800,"station_id":"st_cvj6sg6p6f1abm77japg","pricing_plan_id":"cebpf4jnsgd1na2vs0mg"},{"bike_id":"f5fb57fc-f950-4e3c-8a56-c4a7e402aed1","system_id":"levelo_inurba_marseille","lat":43.30537,"lon":5.36568,"is_reserved":false,"is_disabled":false,"rental_uris":{"android":"levelo://app?vid=f5fb57fc-f950-4e3c-8a56-c4a7e402aed1","ios":"levelo://app?vid=f5fb57fc-f950-4e3c-8a56-c4a7e402aed1"},"vehicle_type_id":"4","last_reported":1761386929,"current_range_meters":6800,"station_id":"ce4bgs12rcd13ifvqcag","pricing_plan_id":"cebpf4jnsgd1na2vs0mg"},{"bike_id":"6a254a5b-5fe1-48e8-8987-166da95eb935","system_id":"levelo_inurba_marseille","lat":43.29964,"lon":5.38497,"is_reserved":false,"is_disabled":false,"rental_uris":{"android":"levelo://app?vid=6a254a5b-5fe1-48e8-8987-166da95eb935","ios":"levelo://app?vid=6a254a5b-5fe1-48e8-8987-166da95eb935"},"vehicle_type_id":"4","last_reported":1761386929,"current_range_meters":6800,"station_id":"ce4bgj92rcd13ifvqbd0","pricing_plan_id":"cebpf4jnsgd1na2vs0mg"},{"bike_id":"00fd3c6a-780c-49dc-9993-d4de69c9b57a","system_id":"levelo_inurba_marseille","lat":43.310738,"lon":5.37455,"is_reserved":false,"is_disabled":false,"rental_uris":{"android":"levelo://app?vid=00fd3c6a-780c-49dc-9993-d4de69c9b57a","ios":"levelo://app?vid=00fd3c6a-780c-49dc-9993-d4de69c9b57a"},"vehicle_type_id":"4","last_reported":1761386929,"current_range_meters":6800,"station_id":"","pricing_plan_id":"cebpf4jnsgd1na2vs0mg"},{"bike_id":"8bcacd78-80de-4026-af75-b37ebe3030fe","system_id":"levelo_inurba_marseille","lat":43.334756,"lon":5.404255,"is_reserved":false,"is_disabled":false,"rental_uris":{"android":"levelo://app?vid=8bcacd78-80de-4026-af75-b37ebe3030fe","ios":"levelo://app?vid=8bcacd78-80de-4026-af75-b37ebe3030fe"},"vehicle_type_id":"4","last_reported":1761386929,"current_range_meters":6800,"station_id":"","pricing_plan_id":"cebpf4jnsgd1na2vs0mg"},{"bike_id":"b9764ed2-f91a-421e-b54e-d7527bd8af22","system_id":"levelo_inurba_marseille","lat":43.29811,"lon":5.36588,"is_reserved":false,"is_disabled":false,"rental_uris":{"android":"levelo://app?vid=b9764ed2-f91a-421e-b54e-d7527bd8af22","ios":"levelo://app?vid=b9764ed2-f91a-421e-b54e-d7527bd8af22"},"vehicle_type_id":"4","last_reported":1761386929,"current_range_meters":7200,"station_id":"","pricing_plan_id":"cebpf4jnsgd1na2vs0mg"},{"bike_id":"84174ffe-45ed-4ba5-885e-ae350d1eb888","system_id":"levelo_inurba_marseille","lat":43.2826,"lon":5.35075,"is_reserved":false,"is_disabled":false,"rental_uris":{"android":"levelo://app?vid=84174ffe-45ed-4ba5-885e-ae350d1eb888","ios":"levelo://app?vid=84174ffe-45ed-4ba5-885e-ae350d1eb888"},"vehicle_type_id":"4","last_reported":1761386929,"current_range_meters":8000,"station_id":"ce4bhbp2rcd13ifvqerg","pricing_plan_id":"cebpf4jnsgd1na2vs0mg"},{"bike_id":"cb14a91a-e5a7-4fa2-9c1d-b1acec3d3362","system_id":"levelo_inurba_marseille","lat":43.337444,"lon":5.374475,"is_reserved":false,"is_disabled":false,"rental_uris":{"android":"levelo://app?vid=cb14a91a-e5a7-4fa2-9c1d-b1acec3d3362","ios":"levelo://app?vid=cb14a91a-e5a7-4fa2-9c1d-b1acec3d3362"},"vehicle_type_id":"4","last_reported":1761386929,"current_range_meters":8000,"station_id":"","pricing_plan_id":"cebpf4jnsgd1na2vs0mg"},{"bike_id":"9881c788-42a8-46f5-8ccc-580a73583155","system_id":"levelo_inurba_marseille","lat":43.32077,"lon":5.40899,"is_reserved":false,"is_disabled":false,"rental_uris":{"android":"levelo://app?vid=9881c788-42a8-46f5-8ccc-580a73583155","ios":"levelo://app?vid=9881c788-42a8-46f5-8ccc-580a73583155"},"vehicle_type_id":"4","last_reported":1761386929,"current_range_meters":8000,"station_id":"","pricing_plan_id":"cebpf4jnsgd1na2vs0mg"},{"bike_id":"2842f5fd-7b05-4b47-909c-5ee54d7d3bc5","system_id":"levelo_inurba_marseille","lat":43.32454,"lon":5.42781,"is_reserved":false,"is_disabled":false,"rental_uris":{"android":"levelo://app?vid=2842f5fd-7b05-4b47-909c-5ee54d7d3bc5","ios":"levelo://app?vid=2842f5fd-7b05-4b47-909c-5ee54d7d3bc5"},"vehicle_type_id":"4","last_reported":1761386929,"current_range_meters":8400,"station_id":"","pricing_plan_id":"cebpf4jnsgd1na2vs0mg"},{"bike_id":"2607d543-7c47-43e4-a647-2cf8c722b16a","system_id":"levelo_inurba_marseille","lat":43.29702,"lon":5.36614,"is_reserved":false,"is_disabled":false,"rental_uris":{"android":"levelo://app?vid=2607d543-7c47-43e4-a647-2cf8c722b16a","ios":"levelo://app?vid=2607d543-7c47-43e4-a647-2cf8c722b16a"},"vehicle_type_id":"4","last_reported":1761386929,"current_range_meters":8400,"station_id":"ce4bgn12rcd13ifvqbt0","pricing_plan_id":"cebpf4jnsgd1na2vs0mg"},{"bike_id":"e35e1247-2ec0-4206-a360-6aaa534a130f","system_id":"levelo_inurba_marseille","lat":43.284785,"lon":5.483869,"is_reserved":false,"is_disabled":false,"rental_uris":{"android":"levelo://app?vid=e35e1247-2ec0-4206-a360-6aaa534a130f","ios":"levelo://app?vid=e35e1247-2ec0-4206-a360-6aaa534a130f"},"vehicle_type_id":"4","last_reported":1761386929,"current_range_meters":8800,"station_id":"st_d3svhcjqgbts73a3dn0g","pricing_plan_id":"cebpf4jnsgd1na2vs0mg"},{"bike_id":"5f9debc0-c360-4a2e-b517-592e9a0c2818","system_id":"levelo_inurba_marseille","lat":43.32939,"lon":5.42793,"is_reserved":false,"is_disabled":false,"rental_uris":{"android":"levelo://app?vid=5f9debc0-c360-4a2e-b517-592e9a0c2818","ios":"levelo://app?vid=5f9debc0-c360-4a2e-b517-592e9a0c2818"},"vehicle_type_id":"4","last_reported":1761386929,"current_range_meters":9200,"station_id":"","pricing_plan_id":"cebpf4jnsgd1na2vs0mg"},{"bike_id":"2ea49922-2074-4613-aa64-a997e98a287e","system_id":"levelo_inurba_marseille","lat":43.307321,"lon":5.424375,"is_reserved":false,"is_disabled":false,"rental_uris":{"android":"levelo://app?vid=2ea49922-2074-4613-aa64-a997e98a287e","ios":"levelo://app?vid=2ea49922-2074-4613-aa64-a997e98a287e"},"vehicle_type_id":"4","last_reported":1761386929,"current_range_meters":9200,"station_id":"st_cvj6ca6bvosntc0bfgr0","pricing_plan_id":"cebpf4jnsgd1na2vs0mg"},{"bike_id":"01032384-0313-4f0b-ab56-6689e797baf2","system_id":"levelo_inurba_marseille","lat":43.28226,"lon":5.39062,"is_reserved":false,"is_disabled":false,"rental_uris":{"android":"levelo://app?vid=01032384-0313-4f0b-ab56-6689e797baf2","ios":"levelo://app?vid=01032384-0313-4f0b-ab56-6689e797baf2"},"vehicle_type_id":"4","last_reported":1761386929,"current_range_meters":9200,"station_id":"ce4bhn92rcd13ifvqgsg","pricing_plan_id":"cebpf4jnsgd1na2vs0mg"},{"bike_id":"09afc97d-4be4-45f0-97e1-77a86f6add7f","system_id":"levelo_inurba_marseille","lat":43.31245,"lon":5.36875,"is_reserved":false,"is_disabled":false,"rental_uris":{"android":"levelo://app?vid=09afc97d-4be4-45f0-97e1-77a86f6add7f","ios":"levelo://app?vid=09afc97d-4be4-45f0-97e1-77a86f6add7f"},"vehicle_type_id":"4","last_reported":1761386929,"current_range_meters":9200,"station_id":"ce4bgl92rcd13ifvqbq0","pricing_plan_id":"cebpf4jnsgd1na2vs0mg"},{"bike_id":"6fdaf905-d742-45ec-b7b0-a640fb6d8f71","system_id":"levelo_inurba_marseille","lat":43.29225,"lon":5.36059,"is_reserved":false,"is_disabled":false,"rental_uris":{"android":"levelo://app?vid=6fdaf905-d742-45ec-b7b0-a640fb6d8f71","ios":"levelo://app?vid=6fdaf905-d742-45ec-b7b0-a640fb6d8f71"},"vehicle_type_id":"4","last_reported":1761386929,"current_range_meters":9200,"station_id":"ce4bhbh2rcd13ifvqeqg","pricing_plan_id":"cebpf4jnsgd1na2vs0mg"},{"bike_id":"32ce9492-4637-4d6e-a292-cd351db28377","system_id":"levelo_inurba_marseille","lat":43.30212,"lon":5.37202,"is_reserved":false,"is_disabled":false,"rental_uris":{"android":"levelo://app?vid=32ce9492-4637-4d6e-a292-cd351db28377","ios":"levelo://app?vid=32ce9492-4637-4d6e-a292-cd351db28377"},"vehicle_type_id":"4","last_reported":1761386929,"current_range_meters":9600,"station_id":"","pricing_plan_id":"cebpf4jnsgd1na2vs0mg"},{"bike_id":"6b307c52-f33b-4885-85a6-9bac6592bb3d","system_id":"levelo_inurba_marseille","lat":43.23066,"lon":5.35486,"is_reserved":false,"is_disabled":false,"rental_uris":{"android":"levelo://app?vid=6b307c52-f33b-4885-85a6-9bac6592bb3d","ios":"levelo://app?vid=6b307c52-f33b-4885-85a6-9bac6592bb3d"},"vehicle_type_id":"4","last_reported":1761386929,"current_range_meters":9600,"station_id":"cpo3342slgdg3j2ifvpg","pricing_plan_id":"cebpf4jnsgd1na2vs0mg"},{"bike_id":"6a9a5c0c-ec7e-4cf0-80d0-f6430f461bb6","system_id":"levelo_inurba_marseille","lat":43.28398,"lon":5.37513,"is_reserved":false,"is_disabled":false,"rental_uris":{"android":"levelo://app?vid=6a9a5c0c-ec7e-4cf0-80d0-f6430f461bb6","ios":"levelo://app?vid=6a9a5c0c-ec7e-4cf0-80d0-f6430f461bb6"},"vehicle_type_id":"4","last_reported":1761386929,"current_range_meters":9600,"station_id":"ce4bh412rcd13ifvqds0","pricing_plan_id":"cebpf4jnsgd1na2vs0mg"},{"bike_id":"ecc27316-66fd-4e09-a801-de7ca82fc0a1","system_id":"levelo_inurba_marseille","lat":43.28475,"lon":5.38417,"is_reserved":false,"is_disabled":false,"rental_uris":{"android":"levelo://app?vid=ecc27316-66fd-4e09-a801-de7ca82fc0a1","ios":"levelo://app?vid=ecc27316-66fd-4e09-a801-de7ca82fc0a1"},"vehicle_type_id":"4","last_reported":1761386929,"current_range_meters":10000,"station_id":"ce4bh512rcd13ifvqe3g","pricing_plan_id":"cebpf4jnsgd1na2vs0mg"},{"bike_id":"6398fd05-47e5-41f8-95bf-116d17d1d757","system_id":"levelo_inurba_marseille","lat":43.292603,"lon":5.384447,"is_reserved":false,"is_disabled":false,"rental_uris":{"android":"levelo://app?vid=6398fd05-47e5-41f8-95bf-116d17d1d757","ios":"levelo://app?vid=6398fd05-47e5-41f8-95bf-116d17d1d757"},"vehicle_type_id":"4","last_reported":1761386929,"current_range_meters":10800,"station_id":"","pricing_plan_id":"cebpf4jnsgd1na2vs0mg"},{"bike_id":"4f5c5045-2f2c-4ab7-ad8b-eeba1d52fe66","system_id":"levelo_inurba_marseille","lat":43.310766,"lon":5.374576,"is_reserved":false,"is_disabled":false,"rental_uris":{"android":"levelo://app?vid=4f5c5045-2f2c-4ab7-ad8b-eeba1d52fe66","ios":"levelo://app?vid=4f5c5045-2f2c-4ab7-ad8b-eeba1d52fe66"},"vehicle_type_id":"4","last_reported":1761386929,"current_range_meters":10800,"station_id":"","pricing_plan_id":"cebpf4jnsgd1na2vs0mg"},{"bike_id":"e1d05531-bc5b-42c2-b668-1c49ad26d333","system_id":"levelo_inurba_marseille","lat":43.33763,"lon":5.37423,"is_reserved":false,"is_disabled":false,"rental_uris":{"android":"levelo://app?vid=e1d05531-bc5b-42c2-b668-1c49ad26d333","ios":"levelo://app?vid=e1d05531-bc5b-42c2-b668-1c49ad26d333"},"vehicle_type_id":"4","last_reported":1761386929,"current_range_meters":10800,"station_id":"","pricing_plan_id":"cebpf4jnsgd1na2vs0mg"},{"bike_id":"e94f57f2-601c-4cad-a187-6e953770aa25","system_id":"levelo_inurba_marseille","lat":43.31225,"lon":5.37869,"is_reserved":false,"is_disabled":false,"rental_uris":{"android":"levelo://app?vid=e94f57f2-601c-4cad-a187-6e953770aa25","ios":"levelo://app?vid=e94f57f2-601c-4cad-a187-6e953770aa25"},"vehicle_type_id":"4","last_reported":1761386929,"current_range_meters":10800,"station_id":"","pricing_plan_id":"cebpf4jnsgd1na2vs0mg"},{"bike_id":"f9cd31c4-c0f9-4886-a7e2-15031d46f6ef","system_id":"levelo_inurba_marseille","lat":43.26142,"lon":5.38017,"is_reserved":false,"is_disabled":true,"rental_uris":{"android":"levelo://app?vid=f9cd31c4-c0f9-4886-a7e2-15031d46f6ef","ios":"levelo://app?vid=f9cd31c4-c0f9-4886-a7e2-15031d46f6ef"},"vehicle_type_id":"4","last_reported":1761386929,"current_range_meters":11200,"station_id":"","pricing_plan_id":"cebpf4jnsgd1na2vs0mg"},{"bike_id":"69599b97-b573-4868-ae16-9bda40c9248f","system_id":"levelo_inurba_marseille","lat":43.21191,"lon":5.3507,"is_reserved":false,"is_disabled":false,"rental_uris":{"android":"levelo://app?vid=69599b97-b573-4868-ae16-9bda40c9248f","ios":"levelo://app?vid=69599b97-b573-4868-ae16-9bda40c9248f"},"vehicle_type_id":"4","last_reported":1761386929,"current_range_meters":11200,"station_id":"st_cvj6sg6p6f1abm77japg","pricing_plan_id":"cebpf4jnsgd1na2vs0mg"},{"bike_id":"b7a197e8-49c3-4c10-aa54-08f4141c45da","system_id":"levelo_inurba_marseille","lat":43.30189,"lon":5.36631,"is_reserved":false,"is_disabled":false,"rental_uris":{"android":"levelo://app?vid=b7a197e8-49c3-4c10-aa54-08f4141c45da","ios":"levelo://app?vid=b7a197e8-49c3-4c10-aa54-08f4141c45da"},"vehicle_type_id":"4","last_reported":1761386929,"current_range_meters":11200,"station_id":"ce4bgrh2rcd13ifvqc8g","pricing_plan_id":"cebpf4jnsgd1na2vs0mg"},{"bike_id":"8140022e-57eb-4d3d-b920-16ad6a841275","system_id":"levelo_inurba_marseille","lat":43.280374,"lon":5.369371,"is_reserved":false,"is_disabled":false,"rental_uris":{"android":"levelo://app?vid=8140022e-57eb-4d3d-b920-16ad6a841275","ios":"levelo://app?vid=8140022e-57eb-4d3d-b920-16ad6a841275"},"vehicle_type_id":"4","last_reported":1761386929,"current_range_meters":11200,"station_id":"ce4bha12rcd13ifvqef0","pricing_plan_id":"cebpf4jnsgd1na2vs0mg"},{"bike_id":"4923f04b-063d-4d5c-a4b1-a704d5499e67","system_id":"levelo_inurba_marseille","lat":43.22419,"lon":5.34649,"is_reserved":false,"is_disabled":false,"rental_uris":{"android":"levelo://app?vid=4923f04b-063d-4d5c-a4b1-a704d5499e67","ios":"levelo://app?vid=4923f04b-063d-4d5c-a4b1-a704d5499e67"},"vehicle_type_id":"4","last_reported":1761386929,"current_range_meters":11600,"station_id":"","pricing_plan_id":"cebpf4jnsgd1na2vs0mg"},{"bike_id":"a4f51573-926b-4429-8562-c0114162b3ca","system_id":"levelo_inurba_marseille","lat":43.305864,"lon":5.393545,"is_reserved":false,"is_disabled":false,"rental_uris":{"android":"levelo://app?vid=a4f51573-926b-4429-8562-c0114162b3ca","ios":"levelo://app?vid=a4f51573-926b-4429-8562-c0114162b3ca"},"vehicle_type_id":"4","last_reported":1761386929,"current_range_meters":11600,"station_id":"ce4bh0p2rcd13ifvqd80","pricing_plan_id":"cebpf4jnsgd1na2vs0mg"},{"bike_id":"c70a5567-5460-4c31-a070-7544e706941c","system_id":"levelo_inurba_marseille","lat":43.22561,"lon":5.41623,"is_reserved":false,"is_disabled":false,"rental_uris":{"android":"levelo://app?vid=c70a5567-5460-4c31-a070-7544e706941c","ios":"levelo://app?vid=c70a5567-5460-4c31-a070-7544e706941c"},"vehicle_type_id":"4","last_reported":1761386929,"current_range_meters":12000,"station_id":"st_d2o4gvlbi1j2169b742g","pricing_plan_id":"cebpf4jnsgd1na2vs0mg"},{"bike_id":"9993f763-e8ce-4512-9f64-ba4bb9c08b56","system_id":"levelo_inurba_marseille","lat":43.27316,"lon":5.39075,"is_reserved":false,"is_disabled":false,"rental_uris":{"android":"levelo://app?vid=9993f763-e8ce-4512-9f64-ba4bb9c08b56","ios":"levelo://app?vid=9993f763-e8ce-4512-9f64-ba4bb9c08b56"},"vehicle_type_id":"4","last_reported":1761386929,"current_range_meters":12000,"station_id":"ce4bhgp2rcd13ifvqfe0","pricing_plan_id":"cebpf4jnsgd1na2vs0mg"},{"bike_id":"72595d14-8f84-4de5-a9ab-f8151c131960","system_id":"levelo_inurba_marseille","lat":43.22925,"lon":5.35385,"is_reserved":false,"is_disabled":false,"rental_uris":{"android":"levelo://app?vid=72595d14-8f84-4de5-a9ab-f8151c131960","ios":"levelo://app?vid=72595d14-8f84-4de5-a9ab-f8151c131960"},"vehicle_type_id":"4","last_reported":1761386929,"current_range_meters":12400,"station_id":"cpo3532slgdg3j2ikp40","pricing_plan_id":"cebpf4jnsgd1na2vs0mg"},{"bike_id":"9d964ec4-c537-4f1d-b21c-451d3f46b1bf","system_id":"levelo_inurba_marseille","lat":43.299053,"lon":5.378596,"is_reserved":false,"is_disabled":false,"rental_uris":{"android":"levelo://app?vid=9d964ec4-c537-4f1d-b21c-451d3f46b1bf","ios":"levelo://app?vid=9d964ec4-c537-4f1d-b21c-451d3f46b1bf"},"vehicle_type_id":"4","last_reported":1761386929,"current_range_meters":12400,"station_id":"","pricing_plan_id":"cebpf4jnsgd1na2vs0mg"},{"bike_id":"060c9d8c-8f82-41f6-a42b-d6c968e6d48a","system_id":"levelo_inurba_marseille","lat":43.29297,"lon":5.37457,"is_reserved":false,"is_disabled":false,"rental_uris":{"android":"levelo://app?vid=060c9d8c-8f82-41f6-a42b-d6c968e6d48a","ios":"levelo://app?vid=060c9d8c-8f82-41f6-a42b-d6c968e6d48a"},"vehicle_type_id":"4","last_reported":1761386929,"current_range_meters":12400,"station_id":"ce4bgi12rcd13ifvqb70","pricing_plan_id":"cebpf4jnsgd1na2vs0mg"},{"bike_id":"8be6a47c-9542-4fed-8109-f6d91a0f2b3f","system_id":"levelo_inurba_marseille","lat":43.29174,"lon":5.37161,"is_reserved":false,"is_disabled":false,"rental_uris":{"android":"levelo://app?vid=8be6a47c-9542-4fed-8109-f6d91a0f2b3f","ios":"levelo://app?vid=8be6a47c-9542-4fed-8109-f6d91a0f2b3f"},"vehicle_type_id":"4","last_reported":1761386929,"current_range_meters":12800,"station_id":"ce4bha92rcd13ifvqeh0","pricing_plan_id":"cebpf4jnsgd1na2vs0mg"},{"bike_id":"4f6d245d-0277-4f24-8760-3d192a819e3d","system_id":"levelo_inurba_marseille","lat":43.27185,"lon":5.41004,"is_reserved":false,"is_disabled":false,"rental_uris":{"android":"levelo://app?vid=4f6d245d-0277-4f24-8760-3d192a819e3d","ios":"levelo://app?vid=4f6d245d-0277-4f24-8760-3d192a819e3d"},"vehicle_type_id":"4","last_reported":1761386929,"current_range_meters":12800,"station_id":"ce4bhl12rcd13ifvqgf0","pricing_plan_id":"cebpf4jnsgd1na2vs0mg"},{"bike_id":"77eb1dea-a4e7-4175-afa6-f44665f7ae08","system_id":"levelo_inurba_marseille","lat":43.30141,"lon":5.38767,"is_reserved":false,"is_disabled":false,"rental_uris":{"android":"levelo://app?vid=77eb1dea-a4e7-4175-afa6-f44665f7ae08","ios":"levelo://app?vid=77eb1dea-a4e7-4175-afa6-f44665f7ae08"},"vehicle_type_id":"4","last_reported":1761386929,"current_range_meters":12800,"station_id":"ce4bghh2rcd13ifvqb60","pricing_plan_id":"cebpf4jnsgd1na2vs0mg"},{"bike_id":"37aa7340-fed3-4398-bf5e-e26162ebe2e7","system_id":"levelo_inurba_marseille","lat":43.23152,"lon":5.43723,"is_reserved":false,"is_disabled":false,"rental_uris":{"android":"levelo://app?vid=37aa7340-fed3-4398-bf5e-e26162ebe2e7","ios":"levelo://app?vid=37aa7340-fed3-4398-bf5e-e26162ebe2e7"},"vehicle_type_id":"4","last_reported":1761386929,"current_range_meters":14000,"station_id":"ce4bhmp2rcd13ifvqgog","pricing_plan_id":"cebpf4jnsgd1na2vs0mg"},{"bike_id":"b9115c50-92ef-480e-a85a-c60a728c2917","system_id":"levelo_inurba_marseille","lat":43.24916,"lon":5.39009,"is_reserved":false,"is_disabled":true,"rental_uris":{"android":"levelo://app?vid=b9115c50-92ef-480e-a85a-c60a728c2917","ios":"levelo://app?vid=b9115c50-92ef-480e-a85a-c60a728c2917"},"vehicle_type_id":"4","last_reported":1761386929,"current_range_meters":14000,"station_id":"","pricing_plan_id":"cebpf4jnsgd1na2vs0mg"},{"bike_id":"d4f34596-cd96-4004-af96-068144e0795b","system_id":"levelo_inurba_marseille","lat":43.30681,"lon":5.42226,"is_reserved":false,"is_disabled":false,"rental_uris":{"android":"levelo://app?vid=d4f34596-cd96-4004-af96-068144e0795b","ios":"levelo://app?vid=d4f34596-cd96-4004-af96-068144e0795b"},"vehicle_type_id":"4","last_reported":1761386929,"current_range_meters":14000,"station_id":"","pricing_plan_id":"cebpf4jnsgd1na2vs0mg"},{"bike_id":"c0ede271-ab93-48a2-8735-190d5222fc86","system_id":"levelo_inurba_marseille","lat":43.30145,"lon":5.37421,"is_reserved":false,"is_disabled":false,"rental_uris":{"android":"levelo://app?vid=c0ede271-ab93-48a2-8735-190d5222fc86","ios":"levelo://app?vid=c0ede271-ab93-48a2-8735-190d5222fc86"},"vehicle_type_id":"4","last_reported":1761386929,"current_range_meters":14400,"station_id":"ce4bgs92rcd13ifvqcc0","pricing_plan_id":"cebpf4jnsgd1na2vs0mg"},{"bike_id":"43117888-69d1-4bc6-a73a-697554e4a08e","system_id":"levelo_inurba_marseille","lat":43.25241,"lon":5.37808,"is_reserved":false,"is_disabled":false,"rental_uris":{"android":"levelo://app?vid=43117888-69d1-4bc6-a73a-697554e4a08e","ios":"levelo://app?vid=43117888-69d1-4bc6-a73a-697554e4a08e"},"vehicle_type_id":"4","last_reported":1761386929,"current_range_meters":14400,"station_id":"","pricing_plan_id":"cebpf4jnsgd1na2vs0mg"},{"bike_id":"386a9c87-6707-4c56-9410-3952ef242f20","system_id":"levelo_inurba_marseille","lat":43.24075,"lon":5.3776,"is_reserved":false,"is_disabled":false,"rental_uris":{"android":"levelo://app?vid=386a9c87-6707-4c56-9410-3952ef242f20","ios":"levelo://app?vid=386a9c87-6707-4c56-9410-3952ef242f20"},"vehicle_type_id":"4","last_reported":1761386929,"current_range_meters":14400,"station_id":"ce4bhnp2rcd13ifvqgvg","pricing_plan_id":"cebpf4jnsgd1na2vs0mg"},{"bike_id":"141d86a8-3834-4067-87fc-81c44d55e5a4","system_id":"levelo_inurba_marseille","lat":43.2859,"lon":5.35099,"is_reserved":false,"is_disabled":false,"rental_uris":{"android":"levelo://app?vid=141d86a8-3834-4067-87fc-81c44d55e5a4","ios":"levelo://app?vid=141d86a8-3834-4067-87fc-81c44d55e5a4"},"vehicle_type_id":"4","last_reported":1761386929,"current_range_meters":14400,"station_id":"ce4bhch2rcd13ifvqeug","pricing_plan_id":"cebpf4jnsgd1na2vs0mg"},{"bike_id":"8e92164c-deff-4fbd-9f4e-43ff81933572","system_id":"levelo_inurba_marseille","lat":43.298334,"lon":5.420145,"is_reserved":false,"is_disabled":false,"rental_uris":{"android":"levelo://app?vid=8e92164c-deff-4fbd-9f4e-43ff81933572","ios":"levelo://app?vid=8e92164c-deff-4fbd-9f4e-43ff81933572"},"vehicle_type_id":"4","last_reported":1761386929,"current_range_meters":14400,"station_id":"","pricing_plan_id":"cebpf4jnsgd1na2vs0mg"},{"bike_id":"36ef565d-595c-4fe5-832e-9069968fcd08","system_id":"levelo_inurba_marseille","lat":43.32545,"lon":5.41453,"is_reserved":false,"is_disabled":true,"rental_uris":{"android":"levelo://app?vid=36ef565d-595c-4fe5-832e-9069968fcd08","ios":"levelo://app?vid=36ef565d-595c-4fe5-832e-9069968fcd08"},"vehicle_type_id":"4","last_reported":1761386929,"current_range_meters":15200,"station_id":"ce4bhq12rcd13ifvqhhg","pricing_plan_id":"cebpf4jnsgd1na2vs0mg"},{"bike_id":"3cfa595b-cff3-48e4-9ef0-78ef1b9568f9","system_id":"levelo_inurba_marseille","lat":43.290181,"lon":5.381441,"is_reserved":false,"is_disabled":false,"rental_uris":{"android":"levelo://app?vid=3cfa595b-cff3-48e4-9ef0-78ef1b9568f9","ios":"levelo://app?vid=3cfa595b-cff3-48e4-9ef0-78ef1b9568f9"},"vehicle_type_id":"4","last_reported":1761386929,"current_range_meters":15200,"station_id":"ce4bh4p2rcd13ifvqe1g","pricing_plan_id":"cebpf4jnsgd1na2vs0mg"},{"bike_id":"48736ec0-1351-48ef-b390-a2f65d2bfc4e","system_id":"levelo_inurba_marseille","lat":43.271986,"lon":5.391686,"is_reserved":false,"is_disabled":false,"rental_uris":{"android":"levelo://app?vid=48736ec0-1351-48ef-b390-a2f65d2bfc4e","ios":"levelo://app?vid=48736ec0-1351-48ef-b390-a2f65d2bfc4e"},"vehicle_type_id":"4","last_reported":1761386929,"current_range_meters":15200,"station_id":"ce4bhhp2rcd13ifvqfm0","pricing_plan_id":"cebpf4jnsgd1na2vs0mg"},{"bike_id":"8c35a7e4-8378-4fdf-b42f-02e88b6199ca","system_id":"levelo_inurba_marseille","lat":43.32121,"lon":5.36764,"is_reserved":false,"is_disabled":false,"rental_uris":{"android":"levelo://app?vid=8c35a7e4-8378-4fdf-b42f-02e88b6199ca","ios":"levelo://app?vid=8c35a7e4-8378-4fdf-b42f-02e88b6199ca"},"vehicle_type_id":"4","last_reported":1761386929,"current_range_meters":15200,"station_id":"ce4bhrh2rcd13ifvqhug","pricing_plan_id":"cebpf4jnsgd1na2vs0mg"},{"bike_id":"872912e2-779b-4f95-8301-307048c20270","system_id":"levelo_inurba_marseille","lat":43.21186,"lon":5.35065,"is_reserved":false,"is_disabled":false,"rental_uris":{"android":"levelo://app?vid=872912e2-779b-4f95-8301-307048c20270","ios":"levelo://app?vid=872912e2-779b-4f95-8301-307048c20270"},"vehicle_type_id":"4","last_reported":1761386929,"current_range_meters":16000,"station_id":"st_cvj6sg6p6f1abm77japg","pricing_plan_id":"cebpf4jnsgd1na2vs0mg"},{"bike_id":"dab36927-4328-48fa-bffb-145a737de07e","system_id":"levelo_inurba_marseille","lat":43.30789,"lon":5.43519,"is_reserved":false,"is_disabled":true,"rental_uris":{"android":"levelo://app?vid=dab36927-4328-48fa-bffb-145a737de07e","ios":"levelo://app?vid=dab36927-4328-48fa-bffb-145a737de07e"},"vehicle_type_id":"4","last_reported":1761386929,"current_range_meters":16000,"station_id":"ce4bhph2rcd13ifvqheg","pricing_plan_id":"cebpf4jnsgd1na2vs0mg"},{"bike_id":"27fd9a23-97ba-435b-8e72-6b200598425f","system_id":"levelo_inurba_marseille","lat":43.29843,"lon":5.36268,"is_reserved":false,"is_disabled":false,"rental_uris":{"android":"levelo://app?vid=27fd9a23-97ba-435b-8e72-6b200598425f","ios":"levelo://app?vid=27fd9a23-97ba-435b-8e72-6b200598425f"},"vehicle_type_id":"4","last_reported":1761386929,"current_range_meters":16000,"station_id":"ce4bgpp2rcd13ifvqc3g","pricing_plan_id":"cebpf4jnsgd1na2vs0mg"},{"bike_id":"f9386dde-e955-41d5-b191-a9a86e4b8f84","system_id":"levelo_inurba_marseille","lat":43.28415,"lon":5.37522,"is_reserved":false,"is_disabled":true,"rental_uris":{"android":"levelo://app?vid=f9386dde-e955-41d5-b191-a9a86e4b8f84","ios":"levelo://app?vid=f9386dde-e955-41d5-b191-a9a86e4b8f84"},"vehicle_type_id":"4","last_reported":1761386929,"current_range_meters":16000,"station_id":"ce4bh412rcd13ifvqds0","pricing_plan_id":"cebpf4jnsgd1na2vs0mg"},{"bike_id":"08a7e0bb-48fa-4657-a672-fdcb01f677b0","system_id":"levelo_inurba_marseille","lat":43.29628,"lon":5.40601,"is_reserved":false,"is_disabled":false,"rental_uris":{"android":"levelo://app?vid=08a7e0bb-48fa-4657-a672-fdcb01f677b0","ios":"levelo://app?vid=08a7e0bb-48fa-4657-a672-fdcb01f677b0"},"vehicle_type_id":"4","last_reported":1761386929,"current_range_meters":16000,"station_id":"ce4bh0h2rcd13ifvqd60","pricing_plan_id":"cebpf4jnsgd1na2vs0mg"},{"bike_id":"985d01d8-f70e-4476-ae96-47ef920b9ab6","system_id":"levelo_inurba_marseille","lat":43.21191,"lon":5.35073,"is_reserved":false,"is_disabled":false,"rental_uris":{"android":"levelo://app?vid=985d01d8-f70e-4476-ae96-47ef920b9ab6","ios":"levelo://app?vid=985d01d8-f70e-4476-ae96-47ef920b9ab6"},"vehicle_type_id":"4","last_reported":1761386929,"current_range_meters":16000,"station_id":"st_cvj6sg6p6f1abm77japg","pricing_plan_id":"cebpf4jnsgd1na2vs0mg"},{"bike_id":"4d2ac17a-10c7-4257-b14a-5a0821903d3a","system_id":"levelo_inurba_marseille","lat":43.2985,"lon":5.36287,"is_reserved":false,"is_disabled":false,"rental_uris":{"android":"levelo://app?vid=4d2ac17a-10c7-4257-b14a-5a0821903d3a","ios":"levelo://app?vid=4d2ac17a-10c7-4257-b14a-5a0821903d3a"},"vehicle_type_id":"4","last_reported":1761386929,"current_range_meters":16400,"station_id":"ce4bgpp2rcd13ifvqc3g","pricing_plan_id":"cebpf4jnsgd1na2vs0mg"},{"bike_id":"8e1001bf-14bf-4add-9e80-532070c873ea","system_id":"levelo_inurba_marseille","lat":43.25573,"lon":5.38245,"is_reserved":false,"is_disabled":false,"rental_uris":{"android":"levelo://app?vid=8e1001bf-14bf-4add-9e80-532070c873ea","ios":"levelo://app?vid=8e1001bf-14bf-4add-9e80-532070c873ea"},"vehicle_type_id":"4","last_reported":1761386929,"current_range_meters":16400,"station_id":"ce4bhih2rcd13ifvqfs0","pricing_plan_id":"cebpf4jnsgd1na2vs0mg"},{"bike_id":"edd2c541-eaf2-4a50-a0de-142f364b01dc","system_id":"levelo_inurba_marseille","lat":43.31264,"lon":5.37754,"is_reserved":false,"is_disabled":false,"rental_uris":{"android":"levelo://app?vid=edd2c541-eaf2-4a50-a0de-142f364b01dc","ios":"levelo://app?vid=edd2c541-eaf2-4a50-a0de-142f364b01dc"},"vehicle_type_id":"4","last_reported":1761386929,"current_range_meters":16400,"station_id":"","pricing_plan_id":"cebpf4jnsgd1na2vs0mg"},{"bike_id":"6cf2b315-d1ee-4e24-a665-250fae4ab05f","system_id":"levelo_inurba_marseille","lat":43.31316,"lon":5.37523,"is_reserved":false,"is_disabled":true,"rental_uris":{"android":"levelo://app?vid=6cf2b315-d1ee-4e24-a665-250fae4ab05f","ios":"levelo://app?vid=6cf2b315-d1ee-4e24-a665-250fae4ab05f"},"vehicle_type_id":"4","last_reported":1761386929,"current_range_meters":16400,"station_id":"","pricing_plan_id":"cebpf4jnsgd1na2vs0mg"},{"bike_id":"3310615f-aea1-494c-b320-aea612b2bbb0","system_id":"levelo_inurba_marseille","lat":43.24165,"lon":5.36391,"is_reserved":false,"is_disabled":false,"rental_uris":{"android":"levelo://app?vid=3310615f-aea1-494c-b320-aea612b2bbb0","ios":"levelo://app?vid=3310615f-aea1-494c-b320-aea612b2bbb0"},"vehicle_type_id":"4","last_reported":1761386929,"current_range_meters":16400,"station_id":"cpo36qri1sfpv3e86is0","pricing_plan_id":"cebpf4jnsgd1na2vs0mg"},{"bike_id":"8c4ade53-28b6-421a-8b0a-4b851571fed4","system_id":"levelo_inurba_marseille","lat":43.25343,"lon":5.42191,"is_reserved":false,"is_disabled":false,"rental_uris":{"android":"levelo://app?vid=8c4ade53-28b6-421a-8b0a-4b851571fed4","ios":"levelo://app?vid=8c4ade53-28b6-421a-8b0a-4b851571fed4"},"vehicle_type_id":"4","last_reported":1761386929,"current_range_meters":16400,"station_id":"st_d2m65c5bi1j21697t3ng","pricing_plan_id":"cebpf4jnsgd1na2vs0mg"},{"bike_id":"fbc51a66-9f5b-4793-bf47-376ff7c8c289","system_id":"levelo_inurba_marseille","lat":43.21198,"lon":5.3507,"is_reserved":false,"is_disabled":false,"rental_uris":{"android":"levelo://app?vid=fbc51a66-9f5b-4793-bf47-376ff7c8c289","ios":"levelo://app?vid=fbc51a66-9f5b-4793-bf47-376ff7c8c289"},"vehicle_type_id":"4","last_reported":1761386929,"current_range_meters":16400,"station_id":"st_cvj6sg6p6f1abm77japg","pricing_plan_id":"cebpf4jnsgd1na2vs0mg"},{"bike_id":"5b0b17fe-cec8-4524-9f22-f7284c9e44e4","system_id":"levelo_inurba_marseille","lat":43.25582,"lon":5.38241,"is_reserved":false,"is_disabled":false,"rental_uris":{"android":"levelo://app?vid=5b0b17fe-cec8-4524-9f22-f7284c9e44e4","ios":"levelo://app?vid=5b0b17fe-cec8-4524-9f22-f7284c9e44e4"},"vehicle_type_id":"4","last_reported":1761386929,"current_range_meters":16800,"station_id":"ce4bhih2rcd13ifvqfs0","pricing_plan_id":"cebpf4jnsgd1na2vs0mg"},{"bike_id":"43824ee7-ae42-4459-9f67-c7048315a4ba","system_id":"levelo_inurba_marseille","lat":43.30294,"lon":5.39221,"is_reserved":false,"is_disabled":false,"rental_uris":{"android":"levelo://app?vid=43824ee7-ae42-4459-9f67-c7048315a4ba","ios":"levelo://app?vid=43824ee7-ae42-4459-9f67-c7048315a4ba"},"vehicle_type_id":"4","last_reported":1761386929,"current_range_meters":16800,"station_id":"ce4bgkh2rcd13ifvqbk0","pricing_plan_id":"cebpf4jnsgd1na2vs0mg"},{"bike_id":"79acc5ae-1f2e-4766-8068-80d5e38bc62b","system_id":"levelo_inurba_marseille","lat":43.23045,"lon":5.35488,"is_reserved":false,"is_disabled":false,"rental_uris":{"android":"levelo://app?vid=79acc5ae-1f2e-4766-8068-80d5e38bc62b","ios":"levelo://app?vid=79acc5ae-1f2e-4766-8068-80d5e38bc62b"},"vehicle_type_id":"4","last_reported":1761386929,"current_range_meters":16800,"station_id":"","pricing_plan_id":"cebpf4jnsgd1na2vs0mg"},{"bike_id":"bc95afcf-bbb4-4461-b698-006cff3a9e26","system_id":"levelo_inurba_marseille","lat":43.284119,"lon":5.374977,"is_reserved":false,"is_disabled":false,"rental_uris":{"android":"levelo://app?vid=bc95afcf-bbb4-4461-b698-006cff3a9e26","ios":"levelo://app?vid=bc95afcf-bbb4-4461-b698-006cff3a9e26"},"vehicle_type_id":"4","last_reported":1761386929,"current_range_meters":16800,"station_id":"ce4bh412rcd13ifvqds0","pricing_plan_id":"cebpf4jnsgd1na2vs0mg"},{"bike_id":"51f6b392-8d0d-41b5-9bf6-76a949608beb","system_id":"levelo_inurba_marseille","lat":43.25335,"lon":5.42168,"is_reserved":false,"is_disabled":false,"rental_uris":{"android":"levelo://app?vid=51f6b392-8d0d-41b5-9bf6-76a949608beb","ios":"levelo://app?vid=51f6b392-8d0d-41b5-9bf6-76a949608beb"},"vehicle_type_id":"4","last_reported":1761386929,"current_range_meters":16800,"station_id":"st_d2m65c5bi1j21697t3ng","pricing_plan_id":"cebpf4jnsgd1na2vs0mg"},{"bike_id":"90469772-1fd7-4273-964f-72f37bfc91d9","system_id":"levelo_inurba_marseille","lat":43.298483,"lon":5.362908,"is_reserved":false,"is_disabled":false,"rental_uris":{"android":"levelo://app?vid=90469772-1fd7-4273-964f-72f37bfc91d9","ios":"levelo://app?vid=90469772-1fd7-4273-964f-72f37bfc91d9"},"vehicle_type_id":"4","last_reported":1761386929,"current_range_meters":16800,"station_id":"ce4bgpp2rcd13ifvqc3g","pricing_plan_id":"cebpf4jnsgd1na2vs0mg"},{"bike_id":"60b40f9a-f55f-4be7-a6ef-5e37d417761a","system_id":"levelo_inurba_marseille","lat":43.240511,"lon":5.377578,"is_reserved":false,"is_disabled":false,"rental_uris":{"android":"levelo://app?vid=60b40f9a-f55f-4be7-a6ef-5e37d417761a","ios":"levelo://app?vid=60b40f9a-f55f-4be7-a6ef-5e37d417761a"},"vehicle_type_id":"4","last_reported":1761386929,"current_range_meters":16800,"station_id":"ce4bhnp2rcd13ifvqgvg","pricing_plan_id":"cebpf4jnsgd1na2vs0mg"},{"bike_id":"d599cb6e-fa9f-4cf2-836a-8982e8153bc5","system_id":"levelo_inurba_marseille","lat":43.24662,"lon":5.38161,"is_reserved":false,"is_disabled":false,"rental_uris":{"android":"levelo://app?vid=d599cb6e-fa9f-4cf2-836a-8982e8153bc5","ios":"levelo://app?vid=d599cb6e-fa9f-4cf2-836a-8982e8153bc5"},"vehicle_type_id":"4","last_reported":1761386929,"current_range_meters":16800,"station_id":"ce4bhih2rcd13ifvqfr0","pricing_plan_id":"cebpf4jnsgd1na2vs0mg"},{"bike_id":"79843ed5-696c-4b67-8f8e-24fb583c3116","system_id":"levelo_inurba_marseille","lat":43.337444,"lon":5.374475,"is_reserved":false,"is_disabled":false,"rental_uris":{"android":"levelo://app?vid=79843ed5-696c-4b67-8f8e-24fb583c3116","ios":"levelo://app?vid=79843ed5-696c-4b67-8f8e-24fb583c3116"},"vehicle_type_id":"4","last_reported":1761386929,"current_range_meters":16800,"station_id":"","pricing_plan_id":"cebpf4jnsgd1na2vs0mg"},{"bike_id":"40fed290-3dea-4c73-bf2e-af05de8161fd","system_id":"levelo_inurba_marseille","lat":43.32111,"lon":5.36746,"is_reserved":false,"is_disabled":false,"rental_uris":{"android":"levelo://app?vid=40fed290-3dea-4c73-bf2e-af05de8161fd","ios":"levelo://app?vid=40fed290-3dea-4c73-bf2e-af05de8161fd"},"vehicle_type_id":"4","last_reported":1761386929,"current_range_meters":17200,"station_id":"ce4bhrh2rcd13ifvqhug","pricing_plan_id":"cebpf4jnsgd1na2vs0mg"},{"bike_id":"bc805b80-3097-410f-b503-9e60f016e0de","system_id":"levelo_inurba_marseille","lat":43.27218,"lon":5.39213,"is_reserved":false,"is_disabled":true,"rental_uris":{"android":"levelo://app?vid=bc805b80-3097-410f-b503-9e60f016e0de","ios":"levelo://app?vid=bc805b80-3097-410f-b503-9e60f016e0de"},"vehicle_type_id":"4","last_reported":1761386929,"current_range_meters":17200,"station_id":"ce4bhhp2rcd13ifvqfm0","pricing_plan_id":"cebpf4jnsgd1na2vs0mg"},{"bike_id":"8b364b8c-d151-4233-94ac-60c445eefbc7","system_id":"levelo_inurba_marseille","lat":43.29307,"lon":5.374628,"is_reserved":false,"is_disabled":false,"rental_uris":{"android":"levelo://app?vid=8b364b8c-d151-4233-94ac-60c445eefbc7","ios":"levelo://app?vid=8b364b8c-d151-4233-94ac-60c445eefbc7"},"vehicle_type_id":"4","last_reported":1761386929,"current_range_meters":17200,"station_id":"ce4bgi12rcd13ifvqb70","pricing_plan_id":"cebpf4jnsgd1na2vs0mg"},{"bike_id":"ca4c59d8-22d3-4ea2-a5e7-d4351a39ffde","system_id":"levelo_inurba_marseille","lat":43.32113,"lon":5.36782,"is_reserved":false,"is_disabled":false,"rental_uris":{"android":"levelo://app?vid=ca4c59d8-22d3-4ea2-a5e7-d4351a39ffde","ios":"levelo://app?vid=ca4c59d8-22d3-4ea2-a5e7-d4351a39ffde"},"vehicle_type_id":"4","last_reported":1761386929,"current_range_meters":17600,"station_id":"ce4bhrh2rcd13ifvqhug","pricing_plan_id":"cebpf4jnsgd1na2vs0mg"},{"bike_id":"7ffa6b7f-030c-4147-9b3b-d5942785b435","system_id":"levelo_inurba_marseille","lat":43.29294,"lon":5.37434,"is_reserved":false,"is_disabled":false,"rental_uris":{"android":"levelo://app?vid=7ffa6b7f-030c-4147-9b3b-d5942785b435","ios":"levelo://app?vid=7ffa6b7f-030c-4147-9b3b-d5942785b435"},"vehicle_type_id":"4","last_reported":1761386929,"current_range_meters":17600,"station_id":"ce4bgi12rcd13ifvqb70","pricing_plan_id":"cebpf4jnsgd1na2vs0mg"},{"bike_id":"bf307966-b57c-4667-96e1-3c4f89a5fcc6","system_id":"levelo_inurba_marseille","lat":43.29562,"lon":5.37499,"is_reserved":false,"is_disabled":false,"rental_uris":{"android":"levelo://app?vid=bf307966-b57c-4667-96e1-3c4f89a5fcc6","ios":"levelo://app?vid=bf307966-b57c-4667-96e1-3c4f89a5fcc6"},"vehicle_type_id":"4","last_reported":1761386929,"current_range_meters":17600,"station_id":"ce4bgh92rcd13ifvqb50","pricing_plan_id":"cebpf4jnsgd1na2vs0mg"},{"bike_id":"bce465dd-c53c-477f-ba92-19bdb4085497","system_id":"levelo_inurba_marseille","lat":43.25428,"lon":5.37647,"is_reserved":false,"is_disabled":true,"rental_uris":{"android":"levelo://app?vid=bce465dd-c53c-477f-ba92-19bdb4085497","ios":"levelo://app?vid=bce465dd-c53c-477f-ba92-19bdb4085497"},"vehicle_type_id":"4","last_reported":1761386929,"current_range_meters":17600,"station_id":"","pricing_plan_id":"cebpf4jnsgd1na2vs0mg"},{"bike_id":"de4c9d67-aa03-439a-a821-c7b9a613d790","system_id":"levelo_inurba_marseille","lat":43.21194,"lon":5.35068,"is_reserved":false,"is_disabled":false,"rental_uris":{"android":"levelo://app?vid=de4c9d67-aa03-439a-a821-c7b9a613d790","ios":"levelo://app?vid=de4c9d67-aa03-439a-a821-c7b9a613d790"},"vehicle_type_id":"4","last_reported":1761386929,"current_range_meters":17600,"station_id":"st_cvj6sg6p6f1abm77japg","pricing_plan_id":"cebpf4jnsgd1na2vs0mg"},{"bike_id":"151681fe-d6da-478a-be81-1ca5e6442b9c","system_id":"levelo_inurba_marseille","lat":43.270606,"lon":5.402619,"is_reserved":false,"is_disabled":false,"rental_uris":{"android":"levelo://app?vid=151681fe-d6da-478a-be81-1ca5e6442b9c","ios":"levelo://app?vid=151681fe-d6da-478a-be81-1ca5e6442b9c"},"vehicle_type_id":"4","last_reported":1761386929,"current_range_meters":17600,"station_id":"ce4bhk92rcd13ifvqgc0","pricing_plan_id":"cebpf4jnsgd1na2vs0mg"},{"bike_id":"77addd33-c863-4fc8-ba99-ebfb4dcce4bc","system_id":"levelo_inurba_marseille","lat":43.3014,"lon":5.38775,"is_reserved":false,"is_disabled":false,"rental_uris":{"android":"levelo://app?vid=77addd33-c863-4fc8-ba99-ebfb4dcce4bc","ios":"levelo://app?vid=77addd33-c863-4fc8-ba99-ebfb4dcce4bc"},"vehicle_type_id":"4","last_reported":1761386929,"current_range_meters":17600,"station_id":"ce4bghh2rcd13ifvqb60","pricing_plan_id":"cebpf4jnsgd1na2vs0mg"},{"bike_id":"29b38a45-3e07-40c1-b8b1-5f85b487711f","system_id":"levelo_inurba_marseille","lat":43.31227,"lon":5.40437,"is_reserved":false,"is_disabled":false,"rental_uris":{"android":"levelo://app?vid=29b38a45-3e07-40c1-b8b1-5f85b487711f","ios":"levelo://app?vid=29b38a45-3e07-40c1-b8b1-5f85b487711f"},"vehicle_type_id":"4","last_reported":1761386929,"current_range_meters":18000,"station_id":"","pricing_plan_id":"cebpf4jnsgd1na2vs0mg"},{"bike_id":"74546168-aafc-4fc6-824e-fd7787db6ac1","system_id":"levelo_inurba_marseille","lat":43.229253,"lon":5.353737,"is_reserved":false,"is_disabled":false,"rental_uris":{"android":"levelo://app?vid=74546168-aafc-4fc6-824e-fd7787db6ac1","ios":"levelo://app?vid=74546168-aafc-4fc6-824e-fd7787db6ac1"},"vehicle_type_id":"4","last_reported":1761386929,"current_range_meters":18000,"station_id":"cpo3532slgdg3j2ikp40","pricing_plan_id":"cebpf4jnsgd1na2vs0mg"},{"bike_id":"582dfa3f-e2f9-4b57-9fe3-9f6490817e4a","system_id":"levelo_inurba_marseille","lat":43.29846,"lon":5.36261,"is_reserved":false,"is_disabled":false,"rental_uris":{"android":"levelo://app?vid=582dfa3f-e2f9-4b57-9fe3-9f6490817e4a","ios":"levelo://app?vid=582dfa3f-e2f9-4b57-9fe3-9f6490817e4a"},"vehicle_type_id":"4","last_reported":1761386929,"current_range_meters":18000,"station_id":"ce4bgpp2rcd13ifvqc3g","pricing_plan_id":"cebpf4jnsgd1na2vs0mg"},{"bike_id":"62eb6828-cb1e-418d-91d1-8e62ed406fc9","system_id":"levelo_inurba_marseille","lat":43.292143,"lon":5.360595,"is_reserved":false,"is_disabled":false,"rental_uris":{"android":"levelo://app?vid=62eb6828-cb1e-418d-91d1-8e62ed406fc9","ios":"levelo://app?vid=62eb6828-cb1e-418d-91d1-8e62ed406fc9"},"vehicle_type_id":"4","last_reported":1761386929,"current_range_meters":18000,"station_id":"ce4bhbh2rcd13ifvqeqg","pricing_plan_id":"cebpf4jnsgd1na2vs0mg"},{"bike_id":"e4746a2d-9cd3-46c8-bf0e-3a10fdb16ced","system_id":"levelo_inurba_marseille","lat":43.323624,"lon":5.36755,"is_reserved":false,"is_disabled":false,"rental_uris":{"android":"levelo://app?vid=e4746a2d-9cd3-46c8-bf0e-3a10fdb16ced","ios":"levelo://app?vid=e4746a2d-9cd3-46c8-bf0e-3a10fdb16ced"},"vehicle_type_id":"4","last_reported":1761386929,"current_range_meters":18000,"station_id":"ce4bhsh2rcd13ifvqi2g","pricing_plan_id":"cebpf4jnsgd1na2vs0mg"},{"bike_id":"c0b81f28-bbba-4247-a74b-c55a34b31846","system_id":"levelo_inurba_marseille","lat":43.33258,"lon":5.41086,"is_reserved":false,"is_disabled":false,"rental_uris":{"android":"levelo://app?vid=c0b81f28-bbba-4247-a74b-c55a34b31846","ios":"levelo://app?vid=c0b81f28-bbba-4247-a74b-c55a34b31846"},"vehicle_type_id":"4","last_reported":1761386929,"current_range_meters":18800,"station_id":"","pricing_plan_id":"cebpf4jnsgd1na2vs0mg"},{"bike_id":"fc74c03f-6810-4b94-8149-477bae3888a5","system_id":"levelo_inurba_marseille","lat":43.2981,"lon":5.44065,"is_reserved":false,"is_disabled":false,"rental_uris":{"android":"levelo://app?vid=fc74c03f-6810-4b94-8149-477bae3888a5","ios":"levelo://app?vid=fc74c03f-6810-4b94-8149-477bae3888a5"},"vehicle_type_id":"4","last_reported":1761386929,"current_range_meters":18800,"station_id":"st_d3jp68qikq2c7381ktn0","pricing_plan_id":"cebpf4jnsgd1na2vs0mg"},{"bike_id":"a7f883ab-2769-43da-937c-354e091269f7","system_id":"levelo_inurba_marseille","lat":43.23191,"lon":5.35565,"is_reserved":false,"is_disabled":false,"rental_uris":{"android":"levelo://app?vid=a7f883ab-2769-43da-937c-354e091269f7","ios":"levelo://app?vid=a7f883ab-2769-43da-937c-354e091269f7"},"vehicle_type_id":"4","last_reported":1761386929,"current_range_meters":18800,"station_id":"ce4bhu92rcd13ifvqi70","pricing_plan_id":"cebpf4jnsgd1na2vs0mg"},{"bike_id":"7fb3971e-84b0-4ac6-82fb-b4ca6cdec2ab","system_id":"levelo_inurba_marseille","lat":43.29486,"lon":5.43306,"is_reserved":false,"is_disabled":false,"rental_uris":{"android":"levelo://app?vid=7fb3971e-84b0-4ac6-82fb-b4ca6cdec2ab","ios":"levelo://app?vid=7fb3971e-84b0-4ac6-82fb-b4ca6cdec2ab"},"vehicle_type_id":"4","last_reported":1761386929,"current_range_meters":18800,"station_id":"st_d3j5ugp08ojc73fj9d10","pricing_plan_id":"cebpf4jnsgd1na2vs0mg"},{"bike_id":"f72a00f1-1fed-4f6c-b4b5-8473dfdb4606","system_id":"levelo_inurba_marseille","lat":43.29661,"lon":5.4038,"is_reserved":false,"is_disabled":false,"rental_uris":{"android":"levelo://app?vid=f72a00f1-1fed-4f6c-b4b5-8473dfdb4606","ios":"levelo://app?vid=f72a00f1-1fed-4f6c-b4b5-8473dfdb4606"},"vehicle_type_id":"4","last_reported":1761386929,"current_range_meters":18800,"station_id":"","pricing_plan_id":"cebpf4jnsgd1na2vs0mg"},{"bike_id":"38a064e1-0c23-4c21-963f-8d817112a18f","system_id":"levelo_inurba_marseille","lat":43.28395,"lon":5.39883,"is_reserved":false,"is_disabled":false,"rental_uris":{"android":"levelo://app?vid=38a064e1-0c23-4c21-963f-8d817112a18f","ios":"levelo://app?vid=38a064e1-0c23-4c21-963f-8d817112a18f"},"vehicle_type_id":"4","last_reported":1761386929,"current_range_meters":18800,"station_id":"","pricing_plan_id":"cebpf4jnsgd1na2vs0mg"},{"bike_id":"e4ccce50-4824-4895-aa8c-033835526f23","system_id":"levelo_inurba_marseille","lat":43.318785,"lon":5.399864,"is_reserved":false,"is_disabled":false,"rental_uris":{"android":"levelo://app?vid=e4ccce50-4824-4895-aa8c-033835526f23","ios":"levelo://app?vid=e4ccce50-4824-4895-aa8c-033835526f23"},"vehicle_type_id":"4","last_reported":1761386929,"current_range_meters":18800,"station_id":"","pricing_plan_id":"cebpf4jnsgd1na2vs0mg"},{"bike_id":"322cdff8-a2c4-4304-9237-21cde55ebd77","system_id":"levelo_inurba_marseille","lat":43.26498,"lon":5.39543,"is_reserved":false,"is_disabled":false,"rental_uris":{"android":"levelo://app?vid=322cdff8-a2c4-4304-9237-21cde55ebd77","ios":"levelo://app?vid=322cdff8-a2c4-4304-9237-21cde55ebd77"},"vehicle_type_id":"4","last_reported":1761386929,"current_range_meters":18800,"station_id":"ce4bhi12rcd13ifvqfq0","pricing_plan_id":"cebpf4jnsgd1na2vs0mg"},{"bike_id":"cd33ad2f-074d-4823-b442-df5bd7a554e2","system_id":"levelo_inurba_marseille","lat":43.24403,"lon":5.37047,"is_reserved":false,"is_disabled":false,"rental_uris":{"android":"levelo://app?vid=cd33ad2f-074d-4823-b442-df5bd7a554e2","ios":"levelo://app?vid=cd33ad2f-074d-4823-b442-df5bd7a554e2"},"vehicle_type_id":"4","last_reported":1761386929,"current_range_meters":19200,"station_id":"ce4bhhh2rcd13ifvqfk0","pricing_plan_id":"cebpf4jnsgd1na2vs0mg"},{"bike_id":"3da36b46-32f0-4723-8f3b-8cba39a84287","system_id":"levelo_inurba_marseille","lat":43.243937,"lon":5.370423,"is_reserved":false,"is_disabled":false,"rental_uris":{"android":"levelo://app?vid=3da36b46-32f0-4723-8f3b-8cba39a84287","ios":"levelo://app?vid=3da36b46-32f0-4723-8f3b-8cba39a84287"},"vehicle_type_id":"4","last_reported":1761386929,"current_range_meters":19200,"station_id":"ce4bhhh2rcd13ifvqfk0","pricing_plan_id":"cebpf4jnsgd1na2vs0mg"},{"bike_id":"d4f6cd6f-2e03-4d52-87e2-774301b94d7f","system_id":"levelo_inurba_marseille","lat":43.21206,"lon":5.35054,"is_reserved":false,"is_disabled":false,"rental_uris":{"android":"levelo://app?vid=d4f6cd6f-2e03-4d52-87e2-774301b94d7f","ios":"levelo://app?vid=d4f6cd6f-2e03-4d52-87e2-774301b94d7f"},"vehicle_type_id":"4","last_reported":1761386929,"current_range_meters":19600,"station_id":"st_cvj6sg6p6f1abm77japg","pricing_plan_id":"cebpf4jnsgd1na2vs0mg"},{"bike_id":"b4a58be7-078f-4a20-a7d5-be89215205b6","system_id":"levelo_inurba_marseille","lat":43.31267,"lon":5.40186,"is_reserved":false,"is_disabled":false,"rental_uris":{"android":"levelo://app?vid=b4a58be7-078f-4a20-a7d5-be89215205b6","ios":"levelo://app?vid=b4a58be7-078f-4a20-a7d5-be89215205b6"},"vehicle_type_id":"4","last_reported":1761386929,"current_range_meters":19600,"station_id":"ce4bh092rcd13ifvqd30","pricing_plan_id":"cebpf4jnsgd1na2vs0mg"},{"bike_id":"e9231516-5a35-4555-a3d0-a295defac595","system_id":"levelo_inurba_marseille","lat":43.27812,"lon":5.40716,"is_reserved":false,"is_disabled":false,"rental_uris":{"android":"levelo://app?vid=e9231516-5a35-4555-a3d0-a295defac595","ios":"levelo://app?vid=e9231516-5a35-4555-a3d0-a295defac595"},"vehicle_type_id":"4","last_reported":1761386929,"current_range_meters":19600,"station_id":"ce4bhnh2rcd13ifvqgtg","pricing_plan_id":"cebpf4jnsgd1na2vs0mg"},{"bike_id":"e5bd73c9-d2fd-429b-a719-e50033314cf7","system_id":"levelo_inurba_marseille","lat":43.235301,"lon":5.412773,"is_reserved":false,"is_disabled":false,"rental_uris":{"android":"levelo://app?vid=e5bd73c9-d2fd-429b-a719-e50033314cf7","ios":"levelo://app?vid=e5bd73c9-d2fd-429b-a719-e50033314cf7"},"vehicle_type_id":"4","last_reported":1761386929,"current_range_meters":19600,"station_id":"ce4bh192rcd13ifvqdb0","pricing_plan_id":"cebpf4jnsgd1na2vs0mg"},{"bike_id":"df32a8bf-ca8a-481f-a891-94f4bf44442f","system_id":"levelo_inurba_marseille","lat":43.30004,"lon":5.37356,"is_reserved":false,"is_disabled":false,"rental_uris":{"android":"levelo://app?vid=df32a8bf-ca8a-481f-a891-94f4bf44442f","ios":"levelo://app?vid=df32a8bf-ca8a-481f-a891-94f4bf44442f"},"vehicle_type_id":"4","last_reported":1761386929,"current_range_meters":19600,"station_id":"","pricing_plan_id":"cebpf4jnsgd1na2vs0mg"},{"bike_id":"e90ff1ca-a6ac-42e7-9927-ded229b29c6a","system_id":"levelo_inurba_marseille","lat":43.33083,"lon":5.41705,"is_reserved":false,"is_disabled":false,"rental_uris":{"android":"levelo://app?vid=e90ff1ca-a6ac-42e7-9927-ded229b29c6a","ios":"levelo://app?vid=e90ff1ca-a6ac-42e7-9927-ded229b29c6a"},"vehicle_type_id":"4","last_reported":1761386929,"current_range_meters":19600,"station_id":"","pricing_plan_id":"cebpf4jnsgd1na2vs0mg"},{"bike_id":"924c497b-3d4b-407f-b960-f7336e7b46d0","system_id":"levelo_inurba_marseille","lat":43.225662,"lon":5.416218,"is_reserved":false,"is_disabled":false,"rental_uris":{"android":"levelo://app?vid=924c497b-3d4b-407f-b960-f7336e7b46d0","ios":"levelo://app?vid=924c497b-3d4b-407f-b960-f7336e7b46d0"},"vehicle_type_id":"4","last_reported":1761386929,"current_range_meters":19600,"station_id":"ce4bh192rcd13ifvqdb0","pricing_plan_id":"cebpf4jnsgd1na2vs0mg"},{"bike_id":"8847af5d-c1ad-4d8d-a5c1-273c3b41c105","system_id":"levelo_inurba_marseille","lat":43.32248,"lon":5.41973,"is_reserved":false,"is_disabled":false,"rental_uris":{"android":"levelo://app?vid=8847af5d-c1ad-4d8d-a5c1-273c3b41c105","ios":"levelo://app?vid=8847af5d-c1ad-4d8d-a5c1-273c3b41c105"},"vehicle_type_id":"4","last_reported":1761386929,"current_range_meters":20000,"station_id":"","pricing_plan_id":"cebpf4jnsgd1na2vs0mg"},{"bike_id":"8c118fb3-2482-42d1-8507-b5f94f6adec4","system_id":"levelo_inurba_marseille","lat":43.273132,"lon":5.390696,"is_reserved":false,"is_disabled":false,"rental_uris":{"android":"levelo://app?vid=8c118fb3-2482-42d1-8507-b5f94f6adec4","ios":"levelo://app?vid=8c118fb3-2482-42d1-8507-b5f94f6adec4"},"vehicle_type_id":"4","last_reported":1761386929,"current_range_meters":20000,"station_id":"ce4bhgp2rcd13ifvqfe0","pricing_plan_id":"cebpf4jnsgd1na2vs0mg"},{"bike_id":"a268ea59-1309-49c9-a001-1557ec984129","system_id":"levelo_inurba_marseille","lat":43.32447,"lon":5.36571,"is_reserved":false,"is_disabled":false,"rental_uris":{"android":"levelo://app?vid=a268ea59-1309-49c9-a001-1557ec984129","ios":"levelo://app?vid=a268ea59-1309-49c9-a001-1557ec984129"},"vehicle_type_id":"4","last_reported":1761386929,"current_range_meters":20000,"station_id":"ce4bhs12rcd13ifvqhvg","pricing_plan_id":"cebpf4jnsgd1na2vs0mg"},{"bike_id":"218c6e0a-6fdf-41f2-9f9c-52da1cbef58a","system_id":"levelo_inurba_marseille","lat":43.32363,"lon":5.36762,"is_reserved":false,"is_disabled":false,"rental_uris":{"android":"levelo://app?vid=218c6e0a-6fdf-41f2-9f9c-52da1cbef58a","ios":"levelo://app?vid=218c6e0a-6fdf-41f2-9f9c-52da1cbef58a"},"vehicle_type_id":"4","last_reported":1761386929,"current_range_meters":20000,"station_id":"ce4bhsh2rcd13ifvqi2g","pricing_plan_id":"cebpf4jnsgd1na2vs0mg"},{"bike_id":"67f8857f-0853-46d2-b9ef-96c5ce2639bc","system_id":"levelo_inurba_marseille","lat":43.23064,"lon":5.35482,"is_reserved":false,"is_disabled":false,"rental_uris":{"android":"levelo://app?vid=67f8857f-0853-46d2-b9ef-96c5ce2639bc","ios":"levelo://app?vid=67f8857f-0853-46d2-b9ef-96c5ce2639bc"},"vehicle_type_id":"4","last_reported":1761386929,"current_range_meters":20000,"station_id":"cpo3342slgdg3j2ifvpg","pricing_plan_id":"cebpf4jnsgd1na2vs0mg"},{"bike_id":"d5dfaebc-363f-4601-b26a-6e9c4f1c2b4b","system_id":"levelo_inurba_marseille","lat":43.21192,"lon":5.35072,"is_reserved":false,"is_disabled":false,"rental_uris":{"android":"levelo://app?vid=d5dfaebc-363f-4601-b26a-6e9c4f1c2b4b","ios":"levelo://app?vid=d5dfaebc-363f-4601-b26a-6e9c4f1c2b4b"},"vehicle_type_id":"4","last_reported":1761386929,"current_range_meters":20000,"station_id":"st_cvj6sg6p6f1abm77japg","pricing_plan_id":"cebpf4jnsgd1na2vs0mg"},{"bike_id":"d3cc7656-8e75-4784-83f0-bcb556deaa8f","system_id":"levelo_inurba_marseille","lat":43.30158,"lon":5.380756,"is_reserved":false,"is_disabled":false,"rental_uris":{"android":"levelo://app?vid=d3cc7656-8e75-4784-83f0-bcb556deaa8f","ios":"levelo://app?vid=d3cc7656-8e75-4784-83f0-bcb556deaa8f"},"vehicle_type_id":"4","last_reported":1761386929,"current_range_meters":20000,"station_id":"ce4bgjp2rcd13ifvqbh0","pricing_plan_id":"cebpf4jnsgd1na2vs0mg"},{"bike_id":"ad166e8d-320f-47c2-bfd9-9e014a946d21","system_id":"levelo_inurba_marseille","lat":43.27812,"lon":5.4072,"is_reserved":false,"is_disabled":true,"rental_uris":{"android":"levelo://app?vid=ad166e8d-320f-47c2-bfd9-9e014a946d21","ios":"levelo://app?vid=ad166e8d-320f-47c2-bfd9-9e014a946d21"},"vehicle_type_id":"4","last_reported":1761386929,"current_range_meters":20000,"station_id":"ce4bhnh2rcd13ifvqgtg","pricing_plan_id":"cebpf4jnsgd1na2vs0mg"},{"bike_id":"4a7237f1-393e-4223-adff-0bc867aed980","system_id":"levelo_inurba_marseille","lat":43.27316,"lon":5.39084,"is_reserved":false,"is_disabled":false,"rental_uris":{"android":"levelo://app?vid=4a7237f1-393e-4223-adff-0bc867aed980","ios":"levelo://app?vid=4a7237f1-393e-4223-adff-0bc867aed980"},"vehicle_type_id":"4","last_reported":1761386929,"current_range_meters":20000,"station_id":"ce4bhgp2rcd13ifvqfe0","pricing_plan_id":"cebpf4jnsgd1na2vs0mg"},{"bike_id":"1a941277-2e63-4624-8f42-ffde5fbf41f3","system_id":"levelo_inurba_marseille","lat":43.31489,"lon":5.37319,"is_reserved":false,"is_disabled":false,"rental_uris":{"android":"levelo://app?vid=1a941277-2e63-4624-8f42-ffde5fbf41f3","ios":"levelo://app?vid=1a941277-2e63-4624-8f42-ffde5fbf41f3"},"vehicle_type_id":"4","last_reported":1761386929,"current_range_meters":20400,"station_id":"ce4bgt12rcd13ifvqcd0","pricing_plan_id":"cebpf4jnsgd1na2vs0mg"},{"bike_id":"317107fa-306d-4b8d-9380-a16cd06486ce","system_id":"levelo_inurba_marseille","lat":43.28449,"lon":5.35891,"is_reserved":false,"is_disabled":true,"rental_uris":{"android":"levelo://app?vid=317107fa-306d-4b8d-9380-a16cd06486ce","ios":"levelo://app?vid=317107fa-306d-4b8d-9380-a16cd06486ce"},"vehicle_type_id":"4","last_reported":1761386929,"current_range_meters":20400,"station_id":"ce4bhah2rcd13ifvqei0","pricing_plan_id":"cebpf4jnsgd1na2vs0mg"},{"bike_id":"97156ebb-a03c-4ea0-a0d0-f8a930bc3abc","system_id":"levelo_inurba_marseille","lat":43.290216,"lon":5.381285,"is_reserved":false,"is_disabled":false,"rental_uris":{"android":"levelo://app?vid=97156ebb-a03c-4ea0-a0d0-f8a930bc3abc","ios":"levelo://app?vid=97156ebb-a03c-4ea0-a0d0-f8a930bc3abc"},"vehicle_type_id":"4","last_reported":1761386929,"current_range_meters":20400,"station_id":"ce4bh4p2rcd13ifvqe1g","pricing_plan_id":"cebpf4jnsgd1na2vs0mg"},{"bike_id":"4011c122-3e6b-4b30-9fb5-09eabd4f6d40","system_id":"levelo_inurba_marseille","lat":43.26189,"lon":5.37898,"is_reserved":false,"is_disabled":false,"rental_uris":{"android":"levelo://app?vid=4011c122-3e6b-4b30-9fb5-09eabd4f6d40","ios":"levelo://app?vid=4011c122-3e6b-4b30-9fb5-09eabd4f6d40"},"vehicle_type_id":"4","last_reported":1761386929,"current_range_meters":20400,"station_id":"ce4bhjp2rcd13ifvqg90","pricing_plan_id":"cebpf4jnsgd1na2vs0mg"},{"bike_id":"64b75b4a-3497-4861-8cc2-90dd62cd9f5e","system_id":"levelo_inurba_marseille","lat":43.294872,"lon":5.4331,"is_reserved":false,"is_disabled":false,"rental_uris":{"android":"levelo://app?vid=64b75b4a-3497-4861-8cc2-90dd62cd9f5e","ios":"levelo://app?vid=64b75b4a-3497-4861-8cc2-90dd62cd9f5e"},"vehicle_type_id":"4","last_reported":1761386929,"current_range_meters":20400,"station_id":"st_d3j5ugp08ojc73fj9d10","pricing_plan_id":"cebpf4jnsgd1na2vs0mg"},{"bike_id":"c124d4a0-9e47-48ec-ad7a-ea36eb6e5d35","system_id":"levelo_inurba_marseille","lat":43.2438,"lon":5.37051,"is_reserved":false,"is_disabled":false,"rental_uris":{"android":"levelo://app?vid=c124d4a0-9e47-48ec-ad7a-ea36eb6e5d35","ios":"levelo://app?vid=c124d4a0-9e47-48ec-ad7a-ea36eb6e5d35"},"vehicle_type_id":"4","last_reported":1761386929,"current_range_meters":20400,"station_id":"ce4bhhh2rcd13ifvqfk0","pricing_plan_id":"cebpf4jnsgd1na2vs0mg"},{"bike_id":"6d0fda98-f8bc-4e1a-b4e8-ae972eacdb19","system_id":"levelo_inurba_marseille","lat":43.27819,"lon":5.40714,"is_reserved":false,"is_disabled":false,"rental_uris":{"android":"levelo://app?vid=6d0fda98-f8bc-4e1a-b4e8-ae972eacdb19","ios":"levelo://app?vid=6d0fda98-f8bc-4e1a-b4e8-ae972eacdb19"},"vehicle_type_id":"4","last_reported":1761386929,"current_range_meters":20800,"station_id":"ce4bhnh2rcd13ifvqgtg","pricing_plan_id":"cebpf4jnsgd1na2vs0mg"},{"bike_id":"50422f4e-3c9e-4bf3-802a-e3507df47a14","system_id":"levelo_inurba_marseille","lat":43.23054,"lon":5.35479,"is_reserved":false,"is_disabled":false,"rental_uris":{"android":"levelo://app?vid=50422f4e-3c9e-4bf3-802a-e3507df47a14","ios":"levelo://app?vid=50422f4e-3c9e-4bf3-802a-e3507df47a14"},"vehicle_type_id":"4","last_reported":1761386929,"current_range_meters":20800,"station_id":"","pricing_plan_id":"cebpf4jnsgd1na2vs0mg"},{"bike_id":"1eac0aa7-2b82-4118-bb70-4582cf563475","system_id":"levelo_inurba_marseille","lat":43.28481,"lon":5.4838,"is_reserved":false,"is_disabled":false,"rental_uris":{"android":"levelo://app?vid=1eac0aa7-2b82-4118-bb70-4582cf563475","ios":"levelo://app?vid=1eac0aa7-2b82-4118-bb70-4582cf563475"},"vehicle_type_id":"4","last_reported":1761386929,"current_range_meters":20800,"station_id":"st_d3svhcjqgbts73a3dn0g","pricing_plan_id":"cebpf4jnsgd1na2vs0mg"},{"bike_id":"9438d25a-696a-4f3d-8b88-3dbb46e80b4d","system_id":"levelo_inurba_marseille","lat":43.3148,"lon":5.373065,"is_reserved":false,"is_disabled":false,"rental_uris":{"android":"levelo://app?vid=9438d25a-696a-4f3d-8b88-3dbb46e80b4d","ios":"levelo://app?vid=9438d25a-696a-4f3d-8b88-3dbb46e80b4d"},"vehicle_type_id":"4","last_reported":1761386929,"current_range_meters":20800,"station_id":"ce4bgt12rcd13ifvqcd0","pricing_plan_id":"cebpf4jnsgd1na2vs0mg"},{"bike_id":"3e034739-17b5-47e9-b0d3-c3e41e54e8cb","system_id":"levelo_inurba_marseille","lat":43.296179,"lon":5.377294,"is_reserved":false,"is_disabled":false,"rental_uris":{"android":"levelo://app?vid=3e034739-17b5-47e9-b0d3-c3e41e54e8cb","ios":"levelo://app?vid=3e034739-17b5-47e9-b0d3-c3e41e54e8cb"},"vehicle_type_id":"4","last_reported":1761386929,"current_range_meters":20800,"station_id":"ce4bgi92rcd13ifvqb90","pricing_plan_id":"cebpf4jnsgd1na2vs0mg"},{"bike_id":"d1e4a75a-f5d0-4a59-9f82-9122d098850b","system_id":"levelo_inurba_marseille","lat":43.229337,"lon":5.353785,"is_reserved":false,"is_disabled":false,"rental_uris":{"android":"levelo://app?vid=d1e4a75a-f5d0-4a59-9f82-9122d098850b","ios":"levelo://app?vid=d1e4a75a-f5d0-4a59-9f82-9122d098850b"},"vehicle_type_id":"4","last_reported":1761386929,"current_range_meters":20800,"station_id":"cpo3532slgdg3j2ikp40","pricing_plan_id":"cebpf4jnsgd1na2vs0mg"},{"bike_id":"a4e5bcc6-a7b8-434d-ace3-ad8062b82eef","system_id":"levelo_inurba_marseille","lat":43.24665,"lon":5.3817,"is_reserved":false,"is_disabled":false,"rental_uris":{"android":"levelo://app?vid=a4e5bcc6-a7b8-434d-ace3-ad8062b82eef","ios":"levelo://app?vid=a4e5bcc6-a7b8-434d-ace3-ad8062b82eef"},"vehicle_type_id":"4","last_reported":1761386929,"current_range_meters":20800,"station_id":"ce4bhih2rcd13ifvqfr0","pricing_plan_id":"cebpf4jnsgd1na2vs0mg"},{"bike_id":"6a4eeade-f2bd-42ad-b0a0-31af57f1e442","system_id":"levelo_inurba_marseille","lat":43.31479,"lon":5.37314,"is_reserved":false,"is_disabled":false,"rental_uris":{"android":"levelo://app?vid=6a4eeade-f2bd-42ad-b0a0-31af57f1e442","ios":"levelo://app?vid=6a4eeade-f2bd-42ad-b0a0-31af57f1e442"},"vehicle_type_id":"4","last_reported":1761386929,"current_range_meters":21600,"station_id":"ce4bgt12rcd13ifvqcd0","pricing_plan_id":"cebpf4jnsgd1na2vs0mg"},{"bike_id":"5c254468-8ac2-4dd0-b776-4672b2bb8cc3","system_id":"levelo_inurba_marseille","lat":43.284091,"lon":5.349804,"is_reserved":false,"is_disabled":false,"rental_uris":{"android":"levelo://app?vid=5c254468-8ac2-4dd0-b776-4672b2bb8cc3","ios":"levelo://app?vid=5c254468-8ac2-4dd0-b776-4672b2bb8cc3"},"vehicle_type_id":"4","last_reported":1761386929,"current_range_meters":21600,"station_id":"ce4bhbh2rcd13ifvqepg","pricing_plan_id":"cebpf4jnsgd1na2vs0mg"},{"bike_id":"9fa52fac-5e0a-4a48-a174-9a1c2ae155ef","system_id":"levelo_inurba_marseille","lat":43.29604,"lon":5.37723,"is_reserved":false,"is_disabled":false,"rental_uris":{"android":"levelo://app?vid=9fa52fac-5e0a-4a48-a174-9a1c2ae155ef","ios":"levelo://app?vid=9fa52fac-5e0a-4a48-a174-9a1c2ae155ef"},"vehicle_type_id":"4","last_reported":1761386929,"current_range_meters":21600,"station_id":"ce4bgi92rcd13ifvqb90","pricing_plan_id":"cebpf4jnsgd1na2vs0mg"},{"bike_id":"65f9e6e9-fe9f-4129-a2eb-b2fb3a535ba0","system_id":"levelo_inurba_marseille","lat":43.2867,"lon":5.38678,"is_reserved":false,"is_disabled":false,"rental_uris":{"android":"levelo://app?vid=65f9e6e9-fe9f-4129-a2eb-b2fb3a535ba0","ios":"levelo://app?vid=65f9e6e9-fe9f-4129-a2eb-b2fb3a535ba0"},"vehicle_type_id":"4","last_reported":1761386929,"current_range_meters":21600,"station_id":"ce4bh492rcd13ifvqdug","pricing_plan_id":"cebpf4jnsgd1na2vs0mg"},{"bike_id":"91d5c914-2907-4403-b239-a8e651a7b844","system_id":"levelo_inurba_marseille","lat":43.29733,"lon":5.376873,"is_reserved":false,"is_disabled":false,"rental_uris":{"android":"levelo://app?vid=91d5c914-2907-4403-b239-a8e651a7b844","ios":"levelo://app?vid=91d5c914-2907-4403-b239-a8e651a7b844"},"vehicle_type_id":"4","last_reported":1761386929,"current_range_meters":22000,"station_id":"ce4bgkh2rcd13ifvqbl0","pricing_plan_id":"cebpf4jnsgd1na2vs0mg"},{"bike_id":"15e69578-d6e0-4ec3-88a0-1f428a90e349","system_id":"levelo_inurba_marseille","lat":43.28611,"lon":5.35106,"is_reserved":false,"is_disabled":false,"rental_uris":{"android":"levelo://app?vid=15e69578-d6e0-4ec3-88a0-1f428a90e349","ios":"levelo://app?vid=15e69578-d6e0-4ec3-88a0-1f428a90e349"},"vehicle_type_id":"4","last_reported":1761386929,"current_range_meters":22000,"station_id":"ce4bhch2rcd13ifvqeug","pricing_plan_id":"cebpf4jnsgd1na2vs0mg"},{"bike_id":"52aac1a1-258f-475c-82f8-b1b191183b0c","system_id":"levelo_inurba_marseille","lat":43.30964,"lon":5.39041,"is_reserved":false,"is_disabled":false,"rental_uris":{"android":"levelo://app?vid=52aac1a1-258f-475c-82f8-b1b191183b0c","ios":"levelo://app?vid=52aac1a1-258f-475c-82f8-b1b191183b0c"},"vehicle_type_id":"4","last_reported":1761386929,"current_range_meters":22000,"station_id":"ce4bgup2rcd13ifvqco0","pricing_plan_id":"cebpf4jnsgd1na2vs0mg"},{"bike_id":"92248a47-f01e-4e2f-802c-f85d2638ec21","system_id":"levelo_inurba_marseille","lat":43.28678,"lon":5.36353,"is_reserved":false,"is_disabled":false,"rental_uris":{"android":"levelo://app?vid=92248a47-f01e-4e2f-802c-f85d2638ec21","ios":"levelo://app?vid=92248a47-f01e-4e2f-802c-f85d2638ec21"},"vehicle_type_id":"4","last_reported":1761386929,"current_range_meters":22400,"station_id":"ce4bhah2rcd13ifvqej0","pricing_plan_id":"cebpf4jnsgd1na2vs0mg"},{"bike_id":"3211ce47-eb18-47da-9deb-118dcbdfb370","system_id":"levelo_inurba_marseille","lat":43.23786,"lon":5.36629,"is_reserved":false,"is_disabled":false,"rental_uris":{"android":"levelo://app?vid=3211ce47-eb18-47da-9deb-118dcbdfb370","ios":"levelo://app?vid=3211ce47-eb18-47da-9deb-118dcbdfb370"},"vehicle_type_id":"4","last_reported":1761386929,"current_range_meters":22400,"station_id":"st_d3nk18o9ro0c73en2l3g","pricing_plan_id":"cebpf4jnsgd1na2vs0mg"},{"bike_id":"2a545b8f-0330-49c6-8adb-8b5544db741b","system_id":"levelo_inurba_marseille","lat":43.24646,"lon":5.38891,"is_reserved":false,"is_disabled":false,"rental_uris":{"android":"levelo://app?vid=2a545b8f-0330-49c6-8adb-8b5544db741b","ios":"levelo://app?vid=2a545b8f-0330-49c6-8adb-8b5544db741b"},"vehicle_type_id":"4","last_reported":1761386929,"current_range_meters":22400,"station_id":"ce4bhg12rcd13ifvqf60","pricing_plan_id":"cebpf4jnsgd1na2vs0mg"},{"bike_id":"641b8916-4397-40b4-ba0a-aeed89817abb","system_id":"levelo_inurba_marseille","lat":43.31682,"lon":5.40473,"is_reserved":false,"is_disabled":false,"rental_uris":{"android":"levelo://app?vid=641b8916-4397-40b4-ba0a-aeed89817abb","ios":"levelo://app?vid=641b8916-4397-40b4-ba0a-aeed89817abb"},"vehicle_type_id":"4","last_reported":1761386929,"current_range_meters":22400,"station_id":"ce4bh012rcd13ifvqd00","pricing_plan_id":"cebpf4jnsgd1na2vs0mg"},{"bike_id":"b2500e72-6fff-43e1-ae91-92413a59c8fa","system_id":"levelo_inurba_marseille","lat":43.2958,"lon":5.37508,"is_reserved":false,"is_disabled":false,"rental_uris":{"android":"levelo://app?vid=b2500e72-6fff-43e1-ae91-92413a59c8fa","ios":"levelo://app?vid=b2500e72-6fff-43e1-ae91-92413a59c8fa"},"vehicle_type_id":"4","last_reported":1761386929,"current_range_meters":22800,"station_id":"ce4bgh92rcd13ifvqb50","pricing_plan_id":"cebpf4jnsgd1na2vs0mg"},{"bike_id":"6514e3f0-a82c-4abc-bfeb-264132b37a4b","system_id":"levelo_inurba_marseille","lat":43.30166,"lon":5.37362,"is_reserved":false,"is_disabled":false,"rental_uris":{"android":"levelo://app?vid=6514e3f0-a82c-4abc-bfeb-264132b37a4b","ios":"levelo://app?vid=6514e3f0-a82c-4abc-bfeb-264132b37a4b"},"vehicle_type_id":"4","last_reported":1761386929,"current_range_meters":22800,"station_id":"ce4bgs92rcd13ifvqcc0","pricing_plan_id":"cebpf4jnsgd1na2vs0mg"},{"bike_id":"d4ff65ca-a40d-4d6a-b990-b07d00791dbd","system_id":"levelo_inurba_marseille","lat":43.28507,"lon":5.38581,"is_reserved":false,"is_disabled":false,"rental_uris":{"android":"levelo://app?vid=d4ff65ca-a40d-4d6a-b990-b07d00791dbd","ios":"levelo://app?vid=d4ff65ca-a40d-4d6a-b990-b07d00791dbd"},"vehicle_type_id":"4","last_reported":1761386929,"current_range_meters":22800,"station_id":"ce4bh8p2rcd13ifvqeb0","pricing_plan_id":"cebpf4jnsgd1na2vs0mg"},{"bike_id":"79ae58ae-8a91-4a69-a343-d8adff758422","system_id":"levelo_inurba_marseille","lat":43.26229,"lon":5.4045,"is_reserved":false,"is_disabled":false,"rental_uris":{"android":"levelo://app?vid=79ae58ae-8a91-4a69-a343-d8adff758422","ios":"levelo://app?vid=79ae58ae-8a91-4a69-a343-d8adff758422"},"vehicle_type_id":"4","last_reported":1761386929,"current_range_meters":22800,"station_id":"ce4bhmh2rcd13ifvqgmg","pricing_plan_id":"cebpf4jnsgd1na2vs0mg"},{"bike_id":"f6c30a7b-52e6-4863-ad38-edb3eff1a149","system_id":"levelo_inurba_marseille","lat":43.3089,"lon":5.39648,"is_reserved":false,"is_disabled":false,"rental_uris":{"android":"levelo://app?vid=f6c30a7b-52e6-4863-ad38-edb3eff1a149","ios":"levelo://app?vid=f6c30a7b-52e6-4863-ad38-edb3eff1a149"},"vehicle_type_id":"4","last_reported":1761386929,"current_range_meters":22800,"station_id":"ce4bh012rcd13ifvqcv0","pricing_plan_id":"cebpf4jnsgd1na2vs0mg"},{"bike_id":"b223c2ec-c618-485b-b65c-09069add52e9","system_id":"levelo_inurba_marseille","lat":43.248165,"lon":5.374604,"is_reserved":false,"is_disabled":false,"rental_uris":{"android":"levelo://app?vid=b223c2ec-c618-485b-b65c-09069add52e9","ios":"levelo://app?vid=b223c2ec-c618-485b-b65c-09069add52e9"},"vehicle_type_id":"4","last_reported":1761386929,"current_range_meters":23200,"station_id":"ce4bhgh2rcd13ifvqfb0","pricing_plan_id":"cebpf4jnsgd1na2vs0mg"},{"bike_id":"60db9b79-6c8a-4db1-b9f9-e93e2cedf4c5","system_id":"levelo_inurba_marseille","lat":43.2899,"lon":5.37828,"is_reserved":false,"is_disabled":false,"rental_uris":{"android":"levelo://app?vid=60db9b79-6c8a-4db1-b9f9-e93e2cedf4c5","ios":"levelo://app?vid=60db9b79-6c8a-4db1-b9f9-e93e2cedf4c5"},"vehicle_type_id":"4","last_reported":1761386929,"current_range_meters":23200,"station_id":"ce4bh9p2rcd13ifvqed0","pricing_plan_id":"cebpf4jnsgd1na2vs0mg"},{"bike_id":"f21d9779-341a-43e0-ae1a-71c03867bcad","system_id":"levelo_inurba_marseille","lat":43.290988,"lon":5.381308,"is_reserved":false,"is_disabled":false,"rental_uris":{"android":"levelo://app?vid=f21d9779-341a-43e0-ae1a-71c03867bcad","ios":"levelo://app?vid=f21d9779-341a-43e0-ae1a-71c03867bcad"},"vehicle_type_id":"4","last_reported":1761386929,"current_range_meters":23200,"station_id":"ce4bh512rcd13ifvqe2g","pricing_plan_id":"cebpf4jnsgd1na2vs0mg"},{"bike_id":"8f5c3197-c223-412b-88eb-bee3f4507288","system_id":"levelo_inurba_marseille","lat":43.29921,"lon":5.36919,"is_reserved":false,"is_disabled":false,"rental_uris":{"android":"levelo://app?vid=8f5c3197-c223-412b-88eb-bee3f4507288","ios":"levelo://app?vid=8f5c3197-c223-412b-88eb-bee3f4507288"},"vehicle_type_id":"4","last_reported":1761386929,"current_range_meters":23200,"station_id":"","pricing_plan_id":"cebpf4jnsgd1na2vs0mg"},{"bike_id":"6419366e-14ca-49c7-9586-1a136d3748ee","system_id":"levelo_inurba_marseille","lat":43.29847,"lon":5.36284,"is_reserved":false,"is_disabled":false,"rental_uris":{"android":"levelo://app?vid=6419366e-14ca-49c7-9586-1a136d3748ee","ios":"levelo://app?vid=6419366e-14ca-49c7-9586-1a136d3748ee"},"vehicle_type_id":"4","last_reported":1761386929,"current_range_meters":23200,"station_id":"ce4bgpp2rcd13ifvqc3g","pricing_plan_id":"cebpf4jnsgd1na2vs0mg"},{"bike_id":"3c999d93-43ac-422a-a32e-188523994b73","system_id":"levelo_inurba_marseille","lat":43.28616,"lon":5.35106,"is_reserved":false,"is_disabled":false,"rental_uris":{"android":"levelo://app?vid=3c999d93-43ac-422a-a32e-188523994b73","ios":"levelo://app?vid=3c999d93-43ac-422a-a32e-188523994b73"},"vehicle_type_id":"4","last_reported":1761386929,"current_range_meters":24000,"station_id":"ce4bhch2rcd13ifvqeug","pricing_plan_id":"cebpf4jnsgd1na2vs0mg"},{"bike_id":"5b5959ea-a064-4c19-ab69-fa898eaa792a","system_id":"levelo_inurba_marseille","lat":43.25496,"lon":5.37648,"is_reserved":false,"is_disabled":false,"rental_uris":{"android":"levelo://app?vid=5b5959ea-a064-4c19-ab69-fa898eaa792a","ios":"levelo://app?vid=5b5959ea-a064-4c19-ab69-fa898eaa792a"},"vehicle_type_id":"4","last_reported":1761386929,"current_range_meters":24000,"station_id":"ce4bhh12rcd13ifvqff0","pricing_plan_id":"cebpf4jnsgd1na2vs0mg"},{"bike_id":"be836a37-286a-4f16-81af-a5d0434952bf","system_id":"levelo_inurba_marseille","lat":43.23202,"lon":5.35565,"is_reserved":false,"is_disabled":false,"rental_uris":{"android":"levelo://app?vid=be836a37-286a-4f16-81af-a5d0434952bf","ios":"levelo://app?vid=be836a37-286a-4f16-81af-a5d0434952bf"},"vehicle_type_id":"4","last_reported":1761386929,"current_range_meters":24000,"station_id":"ce4bhu92rcd13ifvqi70","pricing_plan_id":"cebpf4jnsgd1na2vs0mg"},{"bike_id":"f8bb10f5-ae35-4757-a34f-3077f489dd37","system_id":"levelo_inurba_marseille","lat":43.29584,"lon":5.37504,"is_reserved":false,"is_disabled":false,"rental_uris":{"android":"levelo://app?vid=f8bb10f5-ae35-4757-a34f-3077f489dd37","ios":"levelo://app?vid=f8bb10f5-ae35-4757-a34f-3077f489dd37"},"vehicle_type_id":"4","last_reported":1761386929,"current_range_meters":24000,"station_id":"ce4bgh92rcd13ifvqb50","pricing_plan_id":"cebpf4jnsgd1na2vs0mg"},{"bike_id":"ba6662ce-864a-4d51-8fd4-ebf287339297","system_id":"levelo_inurba_marseille","lat":43.28412,"lon":5.34984,"is_reserved":false,"is_disabled":false,"rental_uris":{"android":"levelo://app?vid=ba6662ce-864a-4d51-8fd4-ebf287339297","ios":"levelo://app?vid=ba6662ce-864a-4d51-8fd4-ebf287339297"},"vehicle_type_id":"4","last_reported":1761386929,"current_range_meters":24000,"station_id":"ce4bhbh2rcd13ifvqepg","pricing_plan_id":"cebpf4jnsgd1na2vs0mg"},{"bike_id":"da945370-32c7-4765-8b8c-dadee680d38e","system_id":"levelo_inurba_marseille","lat":43.34058,"lon":5.40415,"is_reserved":false,"is_disabled":false,"rental_uris":{"android":"levelo://app?vid=da945370-32c7-4765-8b8c-dadee680d38e","ios":"levelo://app?vid=da945370-32c7-4765-8b8c-dadee680d38e"},"vehicle_type_id":"4","last_reported":1761386929,"current_range_meters":24000,"station_id":"","pricing_plan_id":"cebpf4jnsgd1na2vs0mg"},{"bike_id":"7445a99a-f95d-4e30-b931-5346d9df3c6e","system_id":"levelo_inurba_marseille","lat":43.29601,"lon":5.37728,"is_reserved":false,"is_disabled":false,"rental_uris":{"android":"levelo://app?vid=7445a99a-f95d-4e30-b931-5346d9df3c6e","ios":"levelo://app?vid=7445a99a-f95d-4e30-b931-5346d9df3c6e"},"vehicle_type_id":"4","last_reported":1761386929,"current_range_meters":24000,"station_id":"ce4bgi92rcd13ifvqb90","pricing_plan_id":"cebpf4jnsgd1na2vs0mg"},{"bike_id":"aba763c2-52ef-4abf-80e1-b9a3e988b859","system_id":"levelo_inurba_marseille","lat":43.30415,"lon":5.41277,"is_reserved":false,"is_disabled":false,"rental_uris":{"android":"levelo://app?vid=aba763c2-52ef-4abf-80e1-b9a3e988b859","ios":"levelo://app?vid=aba763c2-52ef-4abf-80e1-b9a3e988b859"},"vehicle_type_id":"4","last_reported":1761386929,"current_range_meters":24000,"station_id":"ce4bhop2rcd13ifvqh8g","pricing_plan_id":"cebpf4jnsgd1na2vs0mg"},{"bike_id":"7ea22885-dc87-47f2-8661-b09b4f1d1533","system_id":"levelo_inurba_marseille","lat":43.28937,"lon":5.36642,"is_reserved":false,"is_disabled":false,"rental_uris":{"android":"levelo://app?vid=7ea22885-dc87-47f2-8661-b09b4f1d1533","ios":"levelo://app?vid=7ea22885-dc87-47f2-8661-b09b4f1d1533"},"vehicle_type_id":"4","last_reported":1761386929,"current_range_meters":24000,"station_id":"ce4bhap2rcd13ifvqek0","pricing_plan_id":"cebpf4jnsgd1na2vs0mg"},{"bike_id":"019676a0-c20d-423a-9153-8726335203f6","system_id":"levelo_inurba_marseille","lat":43.30131,"lon":5.38783,"is_reserved":false,"is_disabled":false,"rental_uris":{"android":"levelo://app?vid=019676a0-c20d-423a-9153-8726335203f6","ios":"levelo://app?vid=019676a0-c20d-423a-9153-8726335203f6"},"vehicle_type_id":"4","last_reported":1761386929,"current_range_meters":24400,"station_id":"ce4bghh2rcd13ifvqb60","pricing_plan_id":"cebpf4jnsgd1na2vs0mg"},{"bike_id":"b83891d3-7971-45ae-9af3-651a6e6209e2","system_id":"levelo_inurba_marseille","lat":43.231873,"lon":5.355498,"is_reserved":false,"is_disabled":false,"rental_uris":{"android":"levelo://app?vid=b83891d3-7971-45ae-9af3-651a6e6209e2","ios":"levelo://app?vid=b83891d3-7971-45ae-9af3-651a6e6209e2"},"vehicle_type_id":"4","last_reported":1761386929,"current_range_meters":24400,"station_id":"ce4bhu92rcd13ifvqi70","pricing_plan_id":"cebpf4jnsgd1na2vs0mg"},{"bike_id":"1f6fd898-1d00-44c8-a7eb-651871b842ee","system_id":"levelo_inurba_marseille","lat":43.30143,"lon":5.37423,"is_reserved":false,"is_disabled":false,"rental_uris":{"android":"levelo://app?vid=1f6fd898-1d00-44c8-a7eb-651871b842ee","ios":"levelo://app?vid=1f6fd898-1d00-44c8-a7eb-651871b842ee"},"vehicle_type_id":"4","last_reported":1761386929,"current_range_meters":24400,"station_id":"ce4bgs92rcd13ifvqcc0","pricing_plan_id":"cebpf4jnsgd1na2vs0mg"},{"bike_id":"baaf1316-21a3-4c18-8589-fb956739a947","system_id":"levelo_inurba_marseille","lat":43.25934,"lon":5.40906,"is_reserved":false,"is_disabled":false,"rental_uris":{"android":"levelo://app?vid=baaf1316-21a3-4c18-8589-fb956739a947","ios":"levelo://app?vid=baaf1316-21a3-4c18-8589-fb956739a947"},"vehicle_type_id":"4","last_reported":1761386929,"current_range_meters":24400,"station_id":"ce4bhm92rcd13ifvqglg","pricing_plan_id":"cebpf4jnsgd1na2vs0mg"},{"bike_id":"609e8845-7ae3-4c4f-97f5-856dd3a8b490","system_id":"levelo_inurba_marseille","lat":43.28868,"lon":5.425103,"is_reserved":false,"is_disabled":false,"rental_uris":{"android":"levelo://app?vid=609e8845-7ae3-4c4f-97f5-856dd3a8b490","ios":"levelo://app?vid=609e8845-7ae3-4c4f-97f5-856dd3a8b490"},"vehicle_type_id":"4","last_reported":1761386929,"current_range_meters":24400,"station_id":"st_d3b462108ojc7389ooeg","pricing_plan_id":"cebpf4jnsgd1na2vs0mg"},{"bike_id":"d74cb4f3-6f71-4933-bc1d-1ecf7190b6df","system_id":"levelo_inurba_marseille","lat":43.23149,"lon":5.43712,"is_reserved":false,"is_disabled":false,"rental_uris":{"android":"levelo://app?vid=d74cb4f3-6f71-4933-bc1d-1ecf7190b6df","ios":"levelo://app?vid=d74cb4f3-6f71-4933-bc1d-1ecf7190b6df"},"vehicle_type_id":"4","last_reported":1761386929,"current_range_meters":24400,"station_id":"ce4bhmp2rcd13ifvqgog","pricing_plan_id":"cebpf4jnsgd1na2vs0mg"},{"bike_id":"4d79ec17-b191-44d9-affe-0426aeb51aa8","system_id":"levelo_inurba_marseille","lat":43.30298,"lon":5.36911,"is_reserved":false,"is_disabled":true,"rental_uris":{"android":"levelo://app?vid=4d79ec17-b191-44d9-affe-0426aeb51aa8","ios":"levelo://app?vid=4d79ec17-b191-44d9-affe-0426aeb51aa8"},"vehicle_type_id":"4","last_reported":1761386929,"current_range_meters":24400,"station_id":"ce4bgqh2rcd13ifvqc5g","pricing_plan_id":"cebpf4jnsgd1na2vs0mg"},{"bike_id":"79f9cde6-2fc1-438e-a896-83f6555a03e6","system_id":"levelo_inurba_marseille","lat":43.3211,"lon":5.36809,"is_reserved":false,"is_disabled":false,"rental_uris":{"android":"levelo://app?vid=79f9cde6-2fc1-438e-a896-83f6555a03e6","ios":"levelo://app?vid=79f9cde6-2fc1-438e-a896-83f6555a03e6"},"vehicle_type_id":"4","last_reported":1761386929,"current_range_meters":24400,"station_id":"ce4bhrh2rcd13ifvqhug","pricing_plan_id":"cebpf4jnsgd1na2vs0mg"},{"bike_id":"0256bfe0-0298-47d6-bb08-fb60907a3de7","system_id":"levelo_inurba_marseille","lat":43.28262,"lon":5.35076,"is_reserved":false,"is_disabled":false,"rental_uris":{"android":"levelo://app?vid=0256bfe0-0298-47d6-bb08-fb60907a3de7","ios":"levelo://app?vid=0256bfe0-0298-47d6-bb08-fb60907a3de7"},"vehicle_type_id":"4","last_reported":1761386929,"current_range_meters":24400,"station_id":"ce4bhbp2rcd13ifvqerg","pricing_plan_id":"cebpf4jnsgd1na2vs0mg"},{"bike_id":"77ac8331-216b-467f-a5b1-34a019d119d6","system_id":"levelo_inurba_marseille","lat":43.25095,"lon":5.39514,"is_reserved":false,"is_disabled":false,"rental_uris":{"android":"levelo://app?vid=77ac8331-216b-467f-a5b1-34a019d119d6","ios":"levelo://app?vid=77ac8331-216b-467f-a5b1-34a019d119d6"},"vehicle_type_id":"4","last_reported":1761386929,"current_range_meters":24400,"station_id":"ce4bhm12rcd13ifvqgkg","pricing_plan_id":"cebpf4jnsgd1na2vs0mg"},{"bike_id":"b6320d4c-c484-4668-977f-405785170138","system_id":"levelo_inurba_marseille","lat":43.2984,"lon":5.36271,"is_reserved":false,"is_disabled":false,"rental_uris":{"android":"levelo://app?vid=b6320d4c-c484-4668-977f-405785170138","ios":"levelo://app?vid=b6320d4c-c484-4668-977f-405785170138"},"vehicle_type_id":"4","last_reported":1761386929,"current_range_meters":24400,"station_id":"ce4bgpp2rcd13ifvqc3g","pricing_plan_id":"cebpf4jnsgd1na2vs0mg"},{"bike_id":"e92a5181-3093-4535-adde-2230374de0aa","system_id":"levelo_inurba_marseille","lat":43.31368,"lon":5.37713,"is_reserved":false,"is_disabled":false,"rental_uris":{"android":"levelo://app?vid=e92a5181-3093-4535-adde-2230374de0aa","ios":"levelo://app?vid=e92a5181-3093-4535-adde-2230374de0aa"},"vehicle_type_id":"4","last_reported":1761386929,"current_range_meters":24400,"station_id":"","pricing_plan_id":"cebpf4jnsgd1na2vs0mg"},{"bike_id":"6dd4908b-a403-42aa-bc02-f8214772344a","system_id":"levelo_inurba_marseille","lat":43.28155,"lon":5.42648,"is_reserved":false,"is_disabled":false,"rental_uris":{"android":"levelo://app?vid=6dd4908b-a403-42aa-bc02-f8214772344a","ios":"levelo://app?vid=6dd4908b-a403-42aa-bc02-f8214772344a"},"vehicle_type_id":"4","last_reported":1761386929,"current_range_meters":24400,"station_id":"ce4bhnh2rcd13ifvqgug","pricing_plan_id":"cebpf4jnsgd1na2vs0mg"},{"bike_id":"12cefd40-c26f-402c-b50f-33cfb17b8e9f","system_id":"levelo_inurba_marseille","lat":43.2596,"lon":5.37541,"is_reserved":false,"is_disabled":false,"rental_uris":{"android":"levelo://app?vid=12cefd40-c26f-402c-b50f-33cfb17b8e9f","ios":"levelo://app?vid=12cefd40-c26f-402c-b50f-33cfb17b8e9f"},"vehicle_type_id":"4","last_reported":1761386929,"current_range_meters":24800,"station_id":"","pricing_plan_id":"cebpf4jnsgd1na2vs0mg"},{"bike_id":"fc415666-0eee-42cf-ad7e-559eb9802048","system_id":"levelo_inurba_marseille","lat":43.31097,"lon":5.37487,"is_reserved":false,"is_disabled":false,"rental_uris":{"android":"levelo://app?vid=fc415666-0eee-42cf-ad7e-559eb9802048","ios":"levelo://app?vid=fc415666-0eee-42cf-ad7e-559eb9802048"},"vehicle_type_id":"4","last_reported":1761386929,"current_range_meters":24800,"station_id":"","pricing_plan_id":"cebpf4jnsgd1na2vs0mg"},{"bike_id":"6e988c8c-4336-4910-9f12-b97a326c144d","system_id":"levelo_inurba_marseille","lat":43.231865,"lon":5.355546,"is_reserved":false,"is_disabled":false,"rental_uris":{"android":"levelo://app?vid=6e988c8c-4336-4910-9f12-b97a326c144d","ios":"levelo://app?vid=6e988c8c-4336-4910-9f12-b97a326c144d"},"vehicle_type_id":"4","last_reported":1761386929,"current_range_meters":24800,"station_id":"ce4bhu92rcd13ifvqi70","pricing_plan_id":"cebpf4jnsgd1na2vs0mg"},{"bike_id":"e857c5a5-3d74-427a-ba24-1602285922cc","system_id":"levelo_inurba_marseille","lat":43.22932,"lon":5.35378,"is_reserved":false,"is_disabled":false,"rental_uris":{"android":"levelo://app?vid=e857c5a5-3d74-427a-ba24-1602285922cc","ios":"levelo://app?vid=e857c5a5-3d74-427a-ba24-1602285922cc"},"vehicle_type_id":"4","last_reported":1761386929,"current_range_meters":24800,"station_id":"cpo3532slgdg3j2ikp40","pricing_plan_id":"cebpf4jnsgd1na2vs0mg"},{"bike_id":"d171e6c6-2fee-4918-b61b-64ecd1831a76","system_id":"levelo_inurba_marseille","lat":43.28856,"lon":5.4252,"is_reserved":false,"is_disabled":false,"rental_uris":{"android":"levelo://app?vid=d171e6c6-2fee-4918-b61b-64ecd1831a76","ios":"levelo://app?vid=d171e6c6-2fee-4918-b61b-64ecd1831a76"},"vehicle_type_id":"4","last_reported":1761386929,"current_range_meters":24800,"station_id":"st_d3b462108ojc7389ooeg","pricing_plan_id":"cebpf4jnsgd1na2vs0mg"},{"bike_id":"8d178b94-2def-47a6-b79b-8534021ab582","system_id":"levelo_inurba_marseille","lat":43.304779,"lon":5.39329,"is_reserved":false,"is_disabled":false,"rental_uris":{"android":"levelo://app?vid=8d178b94-2def-47a6-b79b-8534021ab582","ios":"levelo://app?vid=8d178b94-2def-47a6-b79b-8534021ab582"},"vehicle_type_id":"4","last_reported":1761386929,"current_range_meters":24800,"station_id":"ce4bh0p2rcd13ifvqd80","pricing_plan_id":"cebpf4jnsgd1na2vs0mg"},{"bike_id":"645d2098-2cd5-468e-a9ce-0630b3026379","system_id":"levelo_inurba_marseille","lat":43.229284,"lon":5.353747,"is_reserved":false,"is_disabled":false,"rental_uris":{"android":"levelo://app?vid=645d2098-2cd5-468e-a9ce-0630b3026379","ios":"levelo://app?vid=645d2098-2cd5-468e-a9ce-0630b3026379"},"vehicle_type_id":"4","last_reported":1761386929,"current_range_meters":24800,"station_id":"cpo3532slgdg3j2ikp40","pricing_plan_id":"cebpf4jnsgd1na2vs0mg"},{"bike_id":"de1ee74a-2037-41cc-915a-194c40fd41c8","system_id":"levelo_inurba_marseille","lat":43.26562,"lon":5.40323,"is_reserved":false,"is_disabled":false,"rental_uris":{"android":"levelo://app?vid=de1ee74a-2037-41cc-915a-194c40fd41c8","ios":"levelo://app?vid=de1ee74a-2037-41cc-915a-194c40fd41c8"},"vehicle_type_id":"4","last_reported":1761386929,"current_range_meters":24800,"station_id":"ce4bhmp2rcd13ifvqgng","pricing_plan_id":"cebpf4jnsgd1na2vs0mg"},{"bike_id":"d55aa900-43d1-43c6-87d1-5651b4d8ff4a","system_id":"levelo_inurba_marseille","lat":43.30325,"lon":5.43772,"is_reserved":false,"is_disabled":false,"rental_uris":{"android":"levelo://app?vid=d55aa900-43d1-43c6-87d1-5651b4d8ff4a","ios":"levelo://app?vid=d55aa900-43d1-43c6-87d1-5651b4d8ff4a"},"vehicle_type_id":"4","last_reported":1761386929,"current_range_meters":25200,"station_id":"","pricing_plan_id":"cebpf4jnsgd1na2vs0mg"},{"bike_id":"81767fea-4677-4baa-9227-d5e2496790bd","system_id":"levelo_inurba_marseille","lat":43.24803,"lon":5.37452,"is_reserved":false,"is_disabled":false,"rental_uris":{"android":"levelo://app?vid=81767fea-4677-4baa-9227-d5e2496790bd","ios":"levelo://app?vid=81767fea-4677-4baa-9227-d5e2496790bd"},"vehicle_type_id":"4","last_reported":1761386929,"current_range_meters":25200,"station_id":"ce4bhgh2rcd13ifvqfb0","pricing_plan_id":"cebpf4jnsgd1na2vs0mg"},{"bike_id":"44cdca1a-1163-4dfe-a643-de8323f6baf8","system_id":"levelo_inurba_marseille","lat":43.31754,"lon":5.39026,"is_reserved":false,"is_disabled":false,"rental_uris":{"android":"levelo://app?vid=44cdca1a-1163-4dfe-a643-de8323f6baf8","ios":"levelo://app?vid=44cdca1a-1163-4dfe-a643-de8323f6baf8"},"vehicle_type_id":"4","last_reported":1761386929,"current_range_meters":25200,"station_id":"ce4bhqp2rcd13ifvqhng","pricing_plan_id":"cebpf4jnsgd1na2vs0mg"},{"bike_id":"b5fe5ca5-db3c-4d5e-b0fa-f5b6c3fa4ff8","system_id":"levelo_inurba_marseille","lat":43.26787,"lon":5.39414,"is_reserved":false,"is_disabled":false,"rental_uris":{"android":"levelo://app?vid=b5fe5ca5-db3c-4d5e-b0fa-f5b6c3fa4ff8","ios":"levelo://app?vid=b5fe5ca5-db3c-4d5e-b0fa-f5b6c3fa4ff8"},"vehicle_type_id":"4","last_reported":1761386929,"current_range_meters":25200,"station_id":"ce4bhh12rcd13ifvqfg0","pricing_plan_id":"cebpf4jnsgd1na2vs0mg"},{"bike_id":"57ca2bae-e7e1-4b63-9bc3-34da19b9da75","system_id":"levelo_inurba_marseille","lat":43.305888,"lon":5.365674,"is_reserved":false,"is_disabled":false,"rental_uris":{"android":"levelo://app?vid=57ca2bae-e7e1-4b63-9bc3-34da19b9da75","ios":"levelo://app?vid=57ca2bae-e7e1-4b63-9bc3-34da19b9da75"},"vehicle_type_id":"4","last_reported":1761386929,"current_range_meters":25200,"station_id":"ce4bgs12rcd13ifvqcag","pricing_plan_id":"cebpf4jnsgd1na2vs0mg"},{"bike_id":"1c7ff7de-662d-4f42-bc9c-763e3134725e","system_id":"levelo_inurba_marseille","lat":43.284222,"lon":5.349867,"is_reserved":false,"is_disabled":false,"rental_uris":{"android":"levelo://app?vid=1c7ff7de-662d-4f42-bc9c-763e3134725e","ios":"levelo://app?vid=1c7ff7de-662d-4f42-bc9c-763e3134725e"},"vehicle_type_id":"4","last_reported":1761386929,"current_range_meters":25200,"station_id":"ce4bhbh2rcd13ifvqepg","pricing_plan_id":"cebpf4jnsgd1na2vs0mg"},{"bike_id":"67364f74-7cf9-46cb-97a5-43088d20b006","system_id":"levelo_inurba_marseille","lat":43.24665,"lon":5.4312,"is_reserved":false,"is_disabled":false,"rental_uris":{"android":"levelo://app?vid=67364f74-7cf9-46cb-97a5-43088d20b006","ios":"levelo://app?vid=67364f74-7cf9-46cb-97a5-43088d20b006"},"vehicle_type_id":"4","last_reported":1761386929,"current_range_meters":25200,"station_id":"st_d2m6c4gdas8pm72e190g","pricing_plan_id":"cebpf4jnsgd1na2vs0mg"},{"bike_id":"961f3de9-c612-489a-89e8-0ed80f9ecf3a","system_id":"levelo_inurba_marseille","lat":43.28495,"lon":5.38415,"is_reserved":false,"is_disabled":false,"rental_uris":{"android":"levelo://app?vid=961f3de9-c612-489a-89e8-0ed80f9ecf3a","ios":"levelo://app?vid=961f3de9-c612-489a-89e8-0ed80f9ecf3a"},"vehicle_type_id":"4","last_reported":1761386929,"current_range_meters":25200,"station_id":"ce4bh512rcd13ifvqe3g","pricing_plan_id":"cebpf4jnsgd1na2vs0mg"},{"bike_id":"476ede32-cfdc-42f2-8cc1-233e266f9923","system_id":"levelo_inurba_marseille","lat":43.295699,"lon":5.37555,"is_reserved":false,"is_disabled":false,"rental_uris":{"android":"levelo://app?vid=476ede32-cfdc-42f2-8cc1-233e266f9923","ios":"levelo://app?vid=476ede32-cfdc-42f2-8cc1-233e266f9923"},"vehicle_type_id":"4","last_reported":1761386929,"current_range_meters":25600,"station_id":"","pricing_plan_id":"cebpf4jnsgd1na2vs0mg"},{"bike_id":"1a11cf74-ccbf-4b76-84ba-29a8eb7a05b1","system_id":"levelo_inurba_marseille","lat":43.3199,"lon":5.38156,"is_reserved":false,"is_disabled":false,"rental_uris":{"android":"levelo://app?vid=1a11cf74-ccbf-4b76-84ba-29a8eb7a05b1","ios":"levelo://app?vid=1a11cf74-ccbf-4b76-84ba-29a8eb7a05b1"},"vehicle_type_id":"4","last_reported":1761386929,"current_range_meters":25600,"station_id":"ce4bhr12rcd13ifvqhpg","pricing_plan_id":"cebpf4jnsgd1na2vs0mg"},{"bike_id":"8d4cba2b-0073-4ef5-b887-ca552dadf2bb","system_id":"levelo_inurba_marseille","lat":43.29613,"lon":5.37742,"is_reserved":false,"is_disabled":false,"rental_uris":{"android":"levelo://app?vid=8d4cba2b-0073-4ef5-b887-ca552dadf2bb","ios":"levelo://app?vid=8d4cba2b-0073-4ef5-b887-ca552dadf2bb"},"vehicle_type_id":"4","last_reported":1761386929,"current_range_meters":25600,"station_id":"ce4bgi92rcd13ifvqb90","pricing_plan_id":"cebpf4jnsgd1na2vs0mg"},{"bike_id":"83106217-f024-4381-9607-50194d3370ce","system_id":"levelo_inurba_marseille","lat":43.24159,"lon":5.364,"is_reserved":false,"is_disabled":false,"rental_uris":{"android":"levelo://app?vid=83106217-f024-4381-9607-50194d3370ce","ios":"levelo://app?vid=83106217-f024-4381-9607-50194d3370ce"},"vehicle_type_id":"4","last_reported":1761386929,"current_range_meters":25600,"station_id":"cpo36qri1sfpv3e86is0","pricing_plan_id":"cebpf4jnsgd1na2vs0mg"},{"bike_id":"a21bb900-ea85-4b67-98fa-33512ef7e207","system_id":"levelo_inurba_marseille","lat":43.26811,"lon":5.39442,"is_reserved":false,"is_disabled":false,"rental_uris":{"android":"levelo://app?vid=a21bb900-ea85-4b67-98fa-33512ef7e207","ios":"levelo://app?vid=a21bb900-ea85-4b67-98fa-33512ef7e207"},"vehicle_type_id":"4","last_reported":1761386929,"current_range_meters":25600,"station_id":"ce4bhh12rcd13ifvqfg0","pricing_plan_id":"cebpf4jnsgd1na2vs0mg"},{"bike_id":"07f22f5a-d27f-4761-bb55-0bfa4924eb19","system_id":"levelo_inurba_marseille","lat":43.2534,"lon":5.42165,"is_reserved":false,"is_disabled":false,"rental_uris":{"android":"levelo://app?vid=07f22f5a-d27f-4761-bb55-0bfa4924eb19","ios":"levelo://app?vid=07f22f5a-d27f-4761-bb55-0bfa4924eb19"},"vehicle_type_id":"4","last_reported":1761386929,"current_range_meters":25600,"station_id":"st_d2m65c5bi1j21697t3ng","pricing_plan_id":"cebpf4jnsgd1na2vs0mg"},{"bike_id":"c8e4a27d-8be4-48d8-bcd1-28072074b39c","system_id":"levelo_inurba_marseille","lat":43.29788,"lon":5.37101,"is_reserved":false,"is_disabled":false,"rental_uris":{"android":"levelo://app?vid=c8e4a27d-8be4-48d8-bcd1-28072074b39c","ios":"levelo://app?vid=c8e4a27d-8be4-48d8-bcd1-28072074b39c"},"vehicle_type_id":"4","last_reported":1761386929,"current_range_meters":25600,"station_id":"ce4bgop2rcd13ifvqc1g","pricing_plan_id":"cebpf4jnsgd1na2vs0mg"},{"bike_id":"21dbf7f2-eb19-4663-b1c0-879822879492","system_id":"levelo_inurba_marseille","lat":43.337625,"lon":5.374407,"is_reserved":false,"is_disabled":false,"rental_uris":{"android":"levelo://app?vid=21dbf7f2-eb19-4663-b1c0-879822879492","ios":"levelo://app?vid=21dbf7f2-eb19-4663-b1c0-879822879492"},"vehicle_type_id":"4","last_reported":1761386929,"current_range_meters":25600,"station_id":"","pricing_plan_id":"cebpf4jnsgd1na2vs0mg"},{"bike_id":"b04f31f5-e59c-4e8c-9158-3cd5589c2fc4","system_id":"levelo_inurba_marseille","lat":43.230626,"lon":5.354891,"is_reserved":false,"is_disabled":false,"rental_uris":{"android":"levelo://app?vid=b04f31f5-e59c-4e8c-9158-3cd5589c2fc4","ios":"levelo://app?vid=b04f31f5-e59c-4e8c-9158-3cd5589c2fc4"},"vehicle_type_id":"4","last_reported":1761386929,"current_range_meters":26000,"station_id":"cpo3342slgdg3j2ifvpg","pricing_plan_id":"cebpf4jnsgd1na2vs0mg"},{"bike_id":"ac7a5257-38c5-4d2f-af8c-648f2433e513","system_id":"levelo_inurba_marseille","lat":43.27377,"lon":5.36264,"is_reserved":false,"is_disabled":false,"rental_uris":{"android":"levelo://app?vid=ac7a5257-38c5-4d2f-af8c-648f2433e513","ios":"levelo://app?vid=ac7a5257-38c5-4d2f-af8c-648f2433e513"},"vehicle_type_id":"4","last_reported":1761386929,"current_range_meters":26000,"station_id":"","pricing_plan_id":"cebpf4jnsgd1na2vs0mg"},{"bike_id":"690096a5-5380-424a-b849-e63c3ae36400","system_id":"levelo_inurba_marseille","lat":43.239582,"lon":5.366283,"is_reserved":false,"is_disabled":false,"rental_uris":{"android":"levelo://app?vid=690096a5-5380-424a-b849-e63c3ae36400","ios":"levelo://app?vid=690096a5-5380-424a-b849-e63c3ae36400"},"vehicle_type_id":"4","last_reported":1761386929,"current_range_meters":26000,"station_id":"ce4bhi12rcd13ifvqfp0","pricing_plan_id":"cebpf4jnsgd1na2vs0mg"},{"bike_id":"d943d571-2d87-4248-bb42-e8ef87fc6a6f","system_id":"levelo_inurba_marseille","lat":43.28607,"lon":5.37068,"is_reserved":false,"is_disabled":false,"rental_uris":{"android":"levelo://app?vid=d943d571-2d87-4248-bb42-e8ef87fc6a6f","ios":"levelo://app?vid=d943d571-2d87-4248-bb42-e8ef87fc6a6f"},"vehicle_type_id":"4","last_reported":1761386929,"current_range_meters":26000,"station_id":"ce4bht12rcd13ifvqi60","pricing_plan_id":"cebpf4jnsgd1na2vs0mg"},{"bike_id":"cf335abc-a695-44e5-abab-44b566e6f75c","system_id":"levelo_inurba_marseille","lat":43.30591,"lon":5.39355,"is_reserved":false,"is_disabled":false,"rental_uris":{"android":"levelo://app?vid=cf335abc-a695-44e5-abab-44b566e6f75c","ios":"levelo://app?vid=cf335abc-a695-44e5-abab-44b566e6f75c"},"vehicle_type_id":"4","last_reported":1761386929,"current_range_meters":26000,"station_id":"ce4bh0p2rcd13ifvqd80","pricing_plan_id":"cebpf4jnsgd1na2vs0mg"},{"bike_id":"8b335461-8740-433e-ac94-bdc77582321e","system_id":"levelo_inurba_marseille","lat":43.25864,"lon":5.39897,"is_reserved":false,"is_disabled":false,"rental_uris":{"android":"levelo://app?vid=8b335461-8740-433e-ac94-bdc77582321e","ios":"levelo://app?vid=8b335461-8740-433e-ac94-bdc77582321e"},"vehicle_type_id":"4","last_reported":1761386929,"current_range_meters":26000,"station_id":"ce4bhl92rcd13ifvqghg","pricing_plan_id":"cebpf4jnsgd1na2vs0mg"},{"bike_id":"766b29db-327f-4450-85ae-7d55245da795","system_id":"levelo_inurba_marseille","lat":43.27561,"lon":5.38438,"is_reserved":false,"is_disabled":false,"rental_uris":{"android":"levelo://app?vid=766b29db-327f-4450-85ae-7d55245da795","ios":"levelo://app?vid=766b29db-327f-4450-85ae-7d55245da795"},"vehicle_type_id":"4","last_reported":1761386929,"current_range_meters":26000,"station_id":"ce4bhh92rcd13ifvqfi0","pricing_plan_id":"cebpf4jnsgd1na2vs0mg"},