{"last_updated":1751703204,"ttl":60,"version":"2.2","data":{"bikes":[{"bike_id":"3da29fb8-fc97-44c6-b9ac-31dd456b2fd4","system_id":"levelo_inurba_marseille","lat":43.33771,"lon":5.37424,"is_reserved":false,"is_disabled":true,"rental_uris":{"android":"levelo://app?vid=3da29fb8-fc97-44c6-b9ac-31dd456b2fd4","ios":"levelo://app?vid=3da29fb8-fc97-44c6-b9ac-31dd456b2fd4"},"vehicle_type_id":"4","last_reported":1751703204,"current_range_meters":0,"station_id":"","pricing_plan_id":"cebpf4jnsgd1na2vs0mg"},{"bike_id":"01861ad8-a8d7-4be6-816e-651927c87584","system_id":"levelo_inurba_marseille","lat":43.33751,"lon":5.37456,"is_reserved":false,"is_disabled":true,"rental_uris":{"android":"levelo://app?vid=01861ad8-a8d7-4be6-816e-651927c87584","ios":"levelo://app?vid=01861ad8-a8d7-4be6-816e-651927c87584"},"vehicle_type_id":"4","last_reported":1751703204,"current_range_meters":0,"station_id":"","pricing_plan_id":"cebpf4jnsgd1na2vs0mg"},{"bike_id":"1e8d53c2-64dd-458d-ae13-56136bcc9b16","system_id":"levelo_inurba_marseille","lat":43.21752,"lon":5.34605,"is_reserved":false,"is_disabled":true,"rental_uris":{"android":"levelo://app?vid=1e8d53c2-64dd-458d-ae13-56136bcc9b16","ios":"levelo://app?vid=1e8d53c2-64dd-458d-ae13-56136bcc9b16"},"vehicle_type_id":"4","last_reported":1751703204,"current_range_meters":0,"station_id":"","pricing_plan_id":"cebpf4jnsgd1na2vs0mg"},{"bike_id":"c8885025-0b30-48c0-846f-ea87c2948681","system_id":"levelo_inurba_marseille","lat":43.301485,"lon":5.37739,"is_reserved":false,"is_disabled":true,"rental_uris":{"android":"levelo://app?vid=c8885025-0b30-48c0-846f-ea87c2948681","ios":"levelo://app?vid=c8885025-0b30-48c0-846f-ea87c2948681"},"vehicle_type_id":"4","last_reported":1751703204,"current_range_meters":0,"station_id":"","pricing_plan_id":"cebpf4jnsgd1na2vs0mg"},{"bike_id":"c9c1daf4-a7c2-403a-9448-2d7f40669937","system_id":"levelo_inurba_marseille","lat":43.313653,"lon":5.384951,"is_reserved":false,"is_disabled":true,"rental_uris":{"android":"levelo://app?vid=c9c1daf4-a7c2-403a-9448-2d7f40669937","ios":"levelo://app?vid=c9c1daf4-a7c2-403a-9448-2d7f40669937"},"vehicle_type_id":"4","last_reported":1751703204,"current_range_meters":0,"station_id":"ce4bgt92rcd13ifvqcf0","pricing_plan_id":"cebpf4jnsgd1na2vs0mg"},{"bike_id":"7b59b02f-d11f-4605-98d5-ae20c43c1982","system_id":"levelo_inurba_marseille","lat":43.241713,"lon":5.364399,"is_reserved":false,"is_disabled":true,"rental_uris":{"android":"levelo://app?vid=7b59b02f-d11f-4605-98d5-ae20c43c1982","ios":"levelo://app?vid=7b59b02f-d11f-4605-98d5-ae20c43c1982"},"vehicle_type_id":"4","last_reported":1751703204,"current_range_meters":0,"station_id":"ce4bhbh2rcd13ifvqeqg","pricing_plan_id":"cebpf4jnsgd1na2vs0mg"},{"bike_id":"fb7eaa34-3090-467a-bc3a-a4c2c7cd510d","system_id":"levelo_inurba_marseille","lat":43.21765,"lon":5.34622,"is_reserved":false,"is_disabled":true,"rental_uris":{"android":"levelo://app?vid=fb7eaa34-3090-467a-bc3a-a4c2c7cd510d","ios":"levelo://app?vid=fb7eaa34-3090-467a-bc3a-a4c2c7cd510d"},"vehicle_type_id":"4","last_reported":1751703204,"current_range_meters":0,"station_id":"st_cvj6r9ubvosntc0bgbag","pricing_plan_id":"cebpf4jnsgd1na2vs0mg"},{"bike_id":"2db7de25-6c57-447b-bff5-ea01c3753780","system_id":"levelo_inurba_marseille","lat":43.21749,"lon":5.3458,"is_reserved":false,"is_disabled":true,"rental_uris":{"android":"levelo://app?vid=2db7de25-6c57-447b-bff5-ea01c3753780","ios":"levelo://app?vid=2db7de25-6c57-447b-bff5-ea01c3753780"},"vehicle_type_id":"4","last_reported":1751703204,"current_range_meters":0,"station_id":"st_cvj6r9ubvosntc0bgbag","pricing_plan_id":"cebpf4jnsgd1na2vs0mg"},{"bike_id":"232c7599-afff-41a5-b0d2-0bcec5f48bb6","system_id":"levelo_inurba_marseille","lat":43.217564,"lon":5.34593,"is_reserved":false,"is_disabled":true,"rental_uris":{"android":"levelo://app?vid=232c7599-afff-41a5-b0d2-0bcec5f48bb6","ios":"levelo://app?vid=232c7599-afff-41a5-b0d2-0bcec5f48bb6"},"vehicle_type_id":"4","last_reported":1751703204,"current_range_meters":0,"station_id":"st_cvj6r9ubvosntc0bgbag","pricing_plan_id":"cebpf4jnsgd1na2vs0mg"},{"bike_id":"5e8830ec-34e5-4f0f-b607-434b2954d153","system_id":"levelo_inurba_marseille","lat":43.211917,"lon":5.350757,"is_reserved":false,"is_disabled":true,"rental_uris":{"android":"levelo://app?vid=5e8830ec-34e5-4f0f-b607-434b2954d153","ios":"levelo://app?vid=5e8830ec-34e5-4f0f-b607-434b2954d153"},"vehicle_type_id":"4","last_reported":1751703204,"current_range_meters":0,"station_id":"st_cvj6sg6p6f1abm77japg","pricing_plan_id":"cebpf4jnsgd1na2vs0mg"},{"bike_id":"cd2a3af2-854b-4519-92e5-1eaf70ba8a37","system_id":"levelo_inurba_marseille","lat":43.21193,"lon":5.35074,"is_reserved":false,"is_disabled":true,"rental_uris":{"android":"levelo://app?vid=cd2a3af2-854b-4519-92e5-1eaf70ba8a37","ios":"levelo://app?vid=cd2a3af2-854b-4519-92e5-1eaf70ba8a37"},"vehicle_type_id":"4","last_reported":1751703204,"current_range_meters":0,"station_id":"st_cvj6sg6p6f1abm77japg","pricing_plan_id":"cebpf4jnsgd1na2vs0mg"},{"bike_id":"4cb9278c-7fe0-42e0-8831-fc435e126d3e","system_id":"levelo_inurba_marseille","lat":43.28266,"lon":5.35063,"is_reserved":false,"is_disabled":true,"rental_uris":{"android":"levelo://app?vid=4cb9278c-7fe0-42e0-8831-fc435e126d3e","ios":"levelo://app?vid=4cb9278c-7fe0-42e0-8831-fc435e126d3e"},"vehicle_type_id":"4","last_reported":1751703204,"current_range_meters":400,"station_id":"ce4bhbp2rcd13ifvqerg","pricing_plan_id":"cebpf4jnsgd1na2vs0mg"},{"bike_id":"030833f6-f365-4b0a-ab3c-50584a2e4a9a","system_id":"levelo_inurba_marseille","lat":43.31067,"lon":5.38351,"is_reserved":false,"is_disabled":true,"rental_uris":{"android":"levelo://app?vid=030833f6-f365-4b0a-ab3c-50584a2e4a9a","ios":"levelo://app?vid=030833f6-f365-4b0a-ab3c-50584a2e4a9a"},"vehicle_type_id":"4","last_reported":1751703204,"current_range_meters":1200,"station_id":"ce4bgv92rcd13ifvqcr0","pricing_plan_id":"cebpf4jnsgd1na2vs0mg"},{"bike_id":"8afa7640-ebe8-4025-983a-c83f3912a2dd","system_id":"levelo_inurba_marseille","lat":43.211942,"lon":5.350583,"is_reserved":false,"is_disabled":true,"rental_uris":{"android":"levelo://app?vid=8afa7640-ebe8-4025-983a-c83f3912a2dd","ios":"levelo://app?vid=8afa7640-ebe8-4025-983a-c83f3912a2dd"},"vehicle_type_id":"4","last_reported":1751703204,"current_range_meters":1200,"station_id":"st_cvj6sg6p6f1abm77japg","pricing_plan_id":"cebpf4jnsgd1na2vs0mg"},{"bike_id":"e26ba497-efc7-4420-b8c5-9fa5e27f2ce4","system_id":"levelo_inurba_marseille","lat":43.31353,"lon":5.37075,"is_reserved":false,"is_disabled":false,"rental_uris":{"android":"levelo://app?vid=e26ba497-efc7-4420-b8c5-9fa5e27f2ce4","ios":"levelo://app?vid=e26ba497-efc7-4420-b8c5-9fa5e27f2ce4"},"vehicle_type_id":"4","last_reported":1751703204,"current_range_meters":2800,"station_id":"","pricing_plan_id":"cebpf4jnsgd1na2vs0mg"},{"bike_id":"7483024e-94ab-494a-b457-54fd9cb9c338","system_id":"levelo_inurba_marseille","lat":43.31687,"lon":5.40469,"is_reserved":false,"is_disabled":false,"rental_uris":{"android":"levelo://app?vid=7483024e-94ab-494a-b457-54fd9cb9c338","ios":"levelo://app?vid=7483024e-94ab-494a-b457-54fd9cb9c338"},"vehicle_type_id":"4","last_reported":1751703204,"current_range_meters":2800,"station_id":"ce4bh012rcd13ifvqd00","pricing_plan_id":"cebpf4jnsgd1na2vs0mg"},{"bike_id":"d0007abe-b463-49b3-a8c1-445b477fb585","system_id":"levelo_inurba_marseille","lat":43.26572,"lon":5.39006,"is_reserved":false,"is_disabled":false,"rental_uris":{"android":"levelo://app?vid=d0007abe-b463-49b3-a8c1-445b477fb585","ios":"levelo://app?vid=d0007abe-b463-49b3-a8c1-445b477fb585"},"vehicle_type_id":"4","last_reported":1751703204,"current_range_meters":2800,"station_id":"ce4bhe12rcd13ifvqf30","pricing_plan_id":"cebpf4jnsgd1na2vs0mg"},{"bike_id":"a80ac89e-f955-4f6a-8ac0-cc8516adb5b3","system_id":"levelo_inurba_marseille","lat":43.2952,"lon":5.394,"is_reserved":false,"is_disabled":false,"rental_uris":{"android":"levelo://app?vid=a80ac89e-f955-4f6a-8ac0-cc8516adb5b3","ios":"levelo://app?vid=a80ac89e-f955-4f6a-8ac0-cc8516adb5b3"},"vehicle_type_id":"4","last_reported":1751703204,"current_range_meters":3200,"station_id":"ce4bh292rcd13ifvqdf0","pricing_plan_id":"cebpf4jnsgd1na2vs0mg"},{"bike_id":"3506754f-5a43-499e-8081-efb7f8357138","system_id":"levelo_inurba_marseille","lat":43.25931,"lon":5.40896,"is_reserved":false,"is_disabled":false,"rental_uris":{"android":"levelo://app?vid=3506754f-5a43-499e-8081-efb7f8357138","ios":"levelo://app?vid=3506754f-5a43-499e-8081-efb7f8357138"},"vehicle_type_id":"4","last_reported":1751703204,"current_range_meters":3200,"station_id":"ce4bhm92rcd13ifvqglg","pricing_plan_id":"cebpf4jnsgd1na2vs0mg"},{"bike_id":"d52317ec-9d8e-4e5d-a5ef-563eb0952a26","system_id":"levelo_inurba_marseille","lat":43.31772,"lon":5.39,"is_reserved":false,"is_disabled":false,"rental_uris":{"android":"levelo://app?vid=d52317ec-9d8e-4e5d-a5ef-563eb0952a26","ios":"levelo://app?vid=d52317ec-9d8e-4e5d-a5ef-563eb0952a26"},"vehicle_type_id":"4","last_reported":1751703204,"current_range_meters":3200,"station_id":"ce4bhqp2rcd13ifvqhng","pricing_plan_id":"cebpf4jnsgd1na2vs0mg"},{"bike_id":"9bfc7d3d-4e60-4f8a-9c32-ef3d0e77ec5b","system_id":"levelo_inurba_marseille","lat":43.212191,"lon":5.350436,"is_reserved":false,"is_disabled":false,"rental_uris":{"android":"levelo://app?vid=9bfc7d3d-4e60-4f8a-9c32-ef3d0e77ec5b","ios":"levelo://app?vid=9bfc7d3d-4e60-4f8a-9c32-ef3d0e77ec5b"},"vehicle_type_id":"4","last_reported":1751703204,"current_range_meters":3600,"station_id":"","pricing_plan_id":"cebpf4jnsgd1na2vs0mg"},{"bike_id":"c3ae91a3-84a1-49e1-b302-b2dd0c68bce6","system_id":"levelo_inurba_marseille","lat":43.3058,"lon":5.39362,"is_reserved":false,"is_disabled":false,"rental_uris":{"android":"levelo://app?vid=c3ae91a3-84a1-49e1-b302-b2dd0c68bce6","ios":"levelo://app?vid=c3ae91a3-84a1-49e1-b302-b2dd0c68bce6"},"vehicle_type_id":"4","last_reported":1751703204,"current_range_meters":3600,"station_id":"ce4bh0p2rcd13ifvqd80","pricing_plan_id":"cebpf4jnsgd1na2vs0mg"},{"bike_id":"992ab7dc-c592-4e14-b2f9-22fa9f6cf401","system_id":"levelo_inurba_marseille","lat":43.29883,"lon":5.38903,"is_reserved":false,"is_disabled":false,"rental_uris":{"android":"levelo://app?vid=992ab7dc-c592-4e14-b2f9-22fa9f6cf401","ios":"levelo://app?vid=992ab7dc-c592-4e14-b2f9-22fa9f6cf401"},"vehicle_type_id":"4","last_reported":1751703204,"current_range_meters":3600,"station_id":"ce4bh392rcd13ifvqdl0","pricing_plan_id":"cebpf4jnsgd1na2vs0mg"},{"bike_id":"5675c288-87fc-489e-b63c-c877fa0da1b4","system_id":"levelo_inurba_marseille","lat":43.28714,"lon":5.3609,"is_reserved":false,"is_disabled":false,"rental_uris":{"android":"levelo://app?vid=5675c288-87fc-489e-b63c-c877fa0da1b4","ios":"levelo://app?vid=5675c288-87fc-489e-b63c-c877fa0da1b4"},"vehicle_type_id":"4","last_reported":1751703204,"current_range_meters":3600,"station_id":"cki0cbj6b192h4jlfktg","pricing_plan_id":"cebpf4jnsgd1na2vs0mg"},{"bike_id":"e9f93152-c103-42e7-8290-70a0dd64d0c1","system_id":"levelo_inurba_marseille","lat":43.24811,"lon":5.37457,"is_reserved":false,"is_disabled":false,"rental_uris":{"android":"levelo://app?vid=e9f93152-c103-42e7-8290-70a0dd64d0c1","ios":"levelo://app?vid=e9f93152-c103-42e7-8290-70a0dd64d0c1"},"vehicle_type_id":"4","last_reported":1751703204,"current_range_meters":4000,"station_id":"","pricing_plan_id":"cebpf4jnsgd1na2vs0mg"},{"bike_id":"e6e3ebe5-5d8f-437c-8f99-f6bd243ac5b2","system_id":"levelo_inurba_marseille","lat":43.30475,"lon":5.36982,"is_reserved":false,"is_disabled":false,"rental_uris":{"android":"levelo://app?vid=e6e3ebe5-5d8f-437c-8f99-f6bd243ac5b2","ios":"levelo://app?vid=e6e3ebe5-5d8f-437c-8f99-f6bd243ac5b2"},"vehicle_type_id":"4","last_reported":1751703204,"current_range_meters":4400,"station_id":"","pricing_plan_id":"cebpf4jnsgd1na2vs0mg"},{"bike_id":"80335fc8-36c8-4c76-b240-2c0da993dff0","system_id":"levelo_inurba_marseille","lat":43.31695,"lon":5.40474,"is_reserved":false,"is_disabled":false,"rental_uris":{"android":"levelo://app?vid=80335fc8-36c8-4c76-b240-2c0da993dff0","ios":"levelo://app?vid=80335fc8-36c8-4c76-b240-2c0da993dff0"},"vehicle_type_id":"4","last_reported":1751703204,"current_range_meters":4400,"station_id":"ce4bh012rcd13ifvqd00","pricing_plan_id":"cebpf4jnsgd1na2vs0mg"},{"bike_id":"20a85b05-f36d-41d5-a952-fe1a16c0cc78","system_id":"levelo_inurba_marseille","lat":43.28446,"lon":5.39193,"is_reserved":false,"is_disabled":false,"rental_uris":{"android":"levelo://app?vid=20a85b05-f36d-41d5-a952-fe1a16c0cc78","ios":"levelo://app?vid=20a85b05-f36d-41d5-a952-fe1a16c0cc78"},"vehicle_type_id":"4","last_reported":1751703204,"current_range_meters":4400,"station_id":"ce4bhoh2rcd13ifvqh5g","pricing_plan_id":"cebpf4jnsgd1na2vs0mg"},{"bike_id":"be4e2ba2-f83c-4be6-923a-932d435bb5ce","system_id":"levelo_inurba_marseille","lat":43.28224,"lon":5.40443,"is_reserved":false,"is_disabled":false,"rental_uris":{"android":"levelo://app?vid=be4e2ba2-f83c-4be6-923a-932d435bb5ce","ios":"levelo://app?vid=be4e2ba2-f83c-4be6-923a-932d435bb5ce"},"vehicle_type_id":"4","last_reported":1751703204,"current_range_meters":4800,"station_id":"","pricing_plan_id":"cebpf4jnsgd1na2vs0mg"},{"bike_id":"6c2a6d04-4b0d-45c2-99de-4707245db9b8","system_id":"levelo_inurba_marseille","lat":43.318928,"lon":5.407282,"is_reserved":false,"is_disabled":false,"rental_uris":{"android":"levelo://app?vid=6c2a6d04-4b0d-45c2-99de-4707245db9b8","ios":"levelo://app?vid=6c2a6d04-4b0d-45c2-99de-4707245db9b8"},"vehicle_type_id":"4","last_reported":1751703204,"current_range_meters":5600,"station_id":"ce4bhq12rcd13ifvqhig","pricing_plan_id":"cebpf4jnsgd1na2vs0mg"},{"bike_id":"4e67bfce-1b57-4f4e-9750-293dfed6555c","system_id":"levelo_inurba_marseille","lat":43.31527,"lon":5.38024,"is_reserved":false,"is_disabled":false,"rental_uris":{"android":"levelo://app?vid=4e67bfce-1b57-4f4e-9750-293dfed6555c","ios":"levelo://app?vid=4e67bfce-1b57-4f4e-9750-293dfed6555c"},"vehicle_type_id":"4","last_reported":1751703204,"current_range_meters":6000,"station_id":"","pricing_plan_id":"cebpf4jnsgd1na2vs0mg"},{"bike_id":"f6ac2ca1-a3ac-4f58-b1a1-b74be8a76990","system_id":"levelo_inurba_marseille","lat":43.29896,"lon":5.43639,"is_reserved":false,"is_disabled":false,"rental_uris":{"android":"levelo://app?vid=f6ac2ca1-a3ac-4f58-b1a1-b74be8a76990","ios":"levelo://app?vid=f6ac2ca1-a3ac-4f58-b1a1-b74be8a76990"},"vehicle_type_id":"4","last_reported":1751703204,"current_range_meters":6000,"station_id":"ce4bhpp2rcd13ifvqhfg","pricing_plan_id":"cebpf4jnsgd1na2vs0mg"},{"bike_id":"dd51738b-5e85-42b6-ba8e-e4ed73e0ad94","system_id":"levelo_inurba_marseille","lat":43.29566,"lon":5.3996,"is_reserved":false,"is_disabled":false,"rental_uris":{"android":"levelo://app?vid=dd51738b-5e85-42b6-ba8e-e4ed73e0ad94","ios":"levelo://app?vid=dd51738b-5e85-42b6-ba8e-e4ed73e0ad94"},"vehicle_type_id":"4","last_reported":1751703204,"current_range_meters":6400,"station_id":"ce4bh312rcd13ifvqdj0","pricing_plan_id":"cebpf4jnsgd1na2vs0mg"},{"bike_id":"d799b321-3a7d-4201-b46e-ffe2ad124f19","system_id":"levelo_inurba_marseille","lat":43.32911,"lon":5.38392,"is_reserved":false,"is_disabled":false,"rental_uris":{"android":"levelo://app?vid=d799b321-3a7d-4201-b46e-ffe2ad124f19","ios":"levelo://app?vid=d799b321-3a7d-4201-b46e-ffe2ad124f19"},"vehicle_type_id":"4","last_reported":1751703204,"current_range_meters":6800,"station_id":"","pricing_plan_id":"cebpf4jnsgd1na2vs0mg"},{"bike_id":"dfa1c380-e619-4d58-9700-e366787f15f4","system_id":"levelo_inurba_marseille","lat":43.310675,"lon":5.383533,"is_reserved":false,"is_disabled":false,"rental_uris":{"android":"levelo://app?vid=dfa1c380-e619-4d58-9700-e366787f15f4","ios":"levelo://app?vid=dfa1c380-e619-4d58-9700-e366787f15f4"},"vehicle_type_id":"4","last_reported":1751703204,"current_range_meters":6800,"station_id":"ce4bgv92rcd13ifvqcr0","pricing_plan_id":"cebpf4jnsgd1na2vs0mg"},{"bike_id":"bb624e97-5eea-4626-90de-024b0e973be4","system_id":"levelo_inurba_marseille","lat":43.28933,"lon":5.3664,"is_reserved":false,"is_disabled":false,"rental_uris":{"android":"levelo://app?vid=bb624e97-5eea-4626-90de-024b0e973be4","ios":"levelo://app?vid=bb624e97-5eea-4626-90de-024b0e973be4"},"vehicle_type_id":"4","last_reported":1751703204,"current_range_meters":6800,"station_id":"ce4bhap2rcd13ifvqek0","pricing_plan_id":"cebpf4jnsgd1na2vs0mg"},{"bike_id":"e3822c24-4fb4-45b7-8cd2-6e1079eeff65","system_id":"levelo_inurba_marseille","lat":43.31082,"lon":5.42445,"is_reserved":false,"is_disabled":false,"rental_uris":{"android":"levelo://app?vid=e3822c24-4fb4-45b7-8cd2-6e1079eeff65","ios":"levelo://app?vid=e3822c24-4fb4-45b7-8cd2-6e1079eeff65"},"vehicle_type_id":"4","last_reported":1751703204,"current_range_meters":6800,"station_id":"ce4bhp92rcd13ifvqhag","pricing_plan_id":"cebpf4jnsgd1na2vs0mg"},{"bike_id":"a2015b07-a010-43b1-8acc-edb1f1eb7040","system_id":"levelo_inurba_marseille","lat":43.31274,"lon":5.40166,"is_reserved":false,"is_disabled":false,"rental_uris":{"android":"levelo://app?vid=a2015b07-a010-43b1-8acc-edb1f1eb7040","ios":"levelo://app?vid=a2015b07-a010-43b1-8acc-edb1f1eb7040"},"vehicle_type_id":"4","last_reported":1751703204,"current_range_meters":7200,"station_id":"ce4bh092rcd13ifvqd30","pricing_plan_id":"cebpf4jnsgd1na2vs0mg"},{"bike_id":"e72b322f-f7ba-4e6e-b1d4-d60c60cf6612","system_id":"levelo_inurba_marseille","lat":43.28721,"lon":5.3608,"is_reserved":false,"is_disabled":false,"rental_uris":{"android":"levelo://app?vid=e72b322f-f7ba-4e6e-b1d4-d60c60cf6612","ios":"levelo://app?vid=e72b322f-f7ba-4e6e-b1d4-d60c60cf6612"},"vehicle_type_id":"4","last_reported":1751703204,"current_range_meters":7200,"station_id":"cki0cbj6b192h4jlfktg","pricing_plan_id":"cebpf4jnsgd1na2vs0mg"},{"bike_id":"ba154a12-11bd-42a5-958a-5992f5d043d1","system_id":"levelo_inurba_marseille","lat":43.30478,"lon":5.37049,"is_reserved":false,"is_disabled":false,"rental_uris":{"android":"levelo://app?vid=ba154a12-11bd-42a5-958a-5992f5d043d1","ios":"levelo://app?vid=ba154a12-11bd-42a5-958a-5992f5d043d1"},"vehicle_type_id":"4","last_reported":1751703204,"current_range_meters":8000,"station_id":"","pricing_plan_id":"cebpf4jnsgd1na2vs0mg"},{"bike_id":"dbde0d81-068a-4fa4-a92a-5f5e4289de54","system_id":"levelo_inurba_marseille","lat":43.28424,"lon":5.34985,"is_reserved":false,"is_disabled":false,"rental_uris":{"android":"levelo://app?vid=dbde0d81-068a-4fa4-a92a-5f5e4289de54","ios":"levelo://app?vid=dbde0d81-068a-4fa4-a92a-5f5e4289de54"},"vehicle_type_id":"4","last_reported":1751703204,"current_range_meters":8000,"station_id":"","pricing_plan_id":"cebpf4jnsgd1na2vs0mg"},{"bike_id":"b8a88a93-764b-45eb-bfbe-648c41149ae0","system_id":"levelo_inurba_marseille","lat":43.26561,"lon":5.3728,"is_reserved":false,"is_disabled":false,"rental_uris":{"android":"levelo://app?vid=b8a88a93-764b-45eb-bfbe-648c41149ae0","ios":"levelo://app?vid=b8a88a93-764b-45eb-bfbe-648c41149ae0"},"vehicle_type_id":"4","last_reported":1751703204,"current_range_meters":8000,"station_id":"ce4bhg12rcd13ifvqf70","pricing_plan_id":"cebpf4jnsgd1na2vs0mg"},{"bike_id":"9f1f6042-7e07-4b00-9dc1-8f0343d9174e","system_id":"levelo_inurba_marseille","lat":43.21196,"lon":5.35068,"is_reserved":false,"is_disabled":false,"rental_uris":{"android":"levelo://app?vid=9f1f6042-7e07-4b00-9dc1-8f0343d9174e","ios":"levelo://app?vid=9f1f6042-7e07-4b00-9dc1-8f0343d9174e"},"vehicle_type_id":"4","last_reported":1751703204,"current_range_meters":8000,"station_id":"st_cvj6sg6p6f1abm77japg","pricing_plan_id":"cebpf4jnsgd1na2vs0mg"},{"bike_id":"2ffeba7a-8316-4052-8019-91454da58cbe","system_id":"levelo_inurba_marseille","lat":43.26989,"lon":5.42012,"is_reserved":false,"is_disabled":false,"rental_uris":{"android":"levelo://app?vid=2ffeba7a-8316-4052-8019-91454da58cbe","ios":"levelo://app?vid=2ffeba7a-8316-4052-8019-91454da58cbe"},"vehicle_type_id":"4","last_reported":1751703204,"current_range_meters":8400,"station_id":"","pricing_plan_id":"cebpf4jnsgd1na2vs0mg"},{"bike_id":"08c8c007-c020-4697-bc54-06e20bd04f18","system_id":"levelo_inurba_marseille","lat":43.30801,"lon":5.38138,"is_reserved":false,"is_disabled":false,"rental_uris":{"android":"levelo://app?vid=08c8c007-c020-4697-bc54-06e20bd04f18","ios":"levelo://app?vid=08c8c007-c020-4697-bc54-06e20bd04f18"},"vehicle_type_id":"4","last_reported":1751703204,"current_range_meters":8400,"station_id":"ce4bgt12rcd13ifvqce0","pricing_plan_id":"cebpf4jnsgd1na2vs0mg"},{"bike_id":"48ad3b37-b967-4539-aa66-854730448abf","system_id":"levelo_inurba_marseille","lat":43.26932,"lon":5.38916,"is_reserved":false,"is_disabled":false,"rental_uris":{"android":"levelo://app?vid=48ad3b37-b967-4539-aa66-854730448abf","ios":"levelo://app?vid=48ad3b37-b967-4539-aa66-854730448abf"},"vehicle_type_id":"4","last_reported":1751703204,"current_range_meters":8400,"station_id":"ce4bhhh2rcd13ifvqfl0","pricing_plan_id":"cebpf4jnsgd1na2vs0mg"},{"bike_id":"571abec9-12fe-4261-907b-5b08f5260cfb","system_id":"levelo_inurba_marseille","lat":43.23152,"lon":5.43715,"is_reserved":false,"is_disabled":false,"rental_uris":{"android":"levelo://app?vid=571abec9-12fe-4261-907b-5b08f5260cfb","ios":"levelo://app?vid=571abec9-12fe-4261-907b-5b08f5260cfb"},"vehicle_type_id":"4","last_reported":1751703204,"current_range_meters":8400,"station_id":"ce4bhmp2rcd13ifvqgog","pricing_plan_id":"cebpf4jnsgd1na2vs0mg"},{"bike_id":"0c4b7fdb-b39e-49b3-a2b0-ae3d0f43e89d","system_id":"levelo_inurba_marseille","lat":43.329117,"lon":5.40603,"is_reserved":false,"is_disabled":false,"rental_uris":{"android":"levelo://app?vid=0c4b7fdb-b39e-49b3-a2b0-ae3d0f43e89d","ios":"levelo://app?vid=0c4b7fdb-b39e-49b3-a2b0-ae3d0f43e89d"},"vehicle_type_id":"4","last_reported":1751703204,"current_range_meters":8800,"station_id":"","pricing_plan_id":"cebpf4jnsgd1na2vs0mg"},{"bike_id":"97de0065-3604-43c2-8c35-f3c481cf0347","system_id":"levelo_inurba_marseille","lat":43.32369,"lon":5.38877,"is_reserved":false,"is_disabled":false,"rental_uris":{"android":"levelo://app?vid=97de0065-3604-43c2-8c35-f3c481cf0347","ios":"levelo://app?vid=97de0065-3604-43c2-8c35-f3c481cf0347"},"vehicle_type_id":"4","last_reported":1751703204,"current_range_meters":8800,"station_id":"ce4bhqp2rcd13ifvqhog","pricing_plan_id":"cebpf4jnsgd1na2vs0mg"},{"bike_id":"6917bed5-c21f-48c3-870d-5408dab99803","system_id":"levelo_inurba_marseille","lat":43.29685,"lon":5.36878,"is_reserved":false,"is_disabled":false,"rental_uris":{"android":"levelo://app?vid=6917bed5-c21f-48c3-870d-5408dab99803","ios":"levelo://app?vid=6917bed5-c21f-48c3-870d-5408dab99803"},"vehicle_type_id":"4","last_reported":1751703204,"current_range_meters":9200,"station_id":"","pricing_plan_id":"cebpf4jnsgd1na2vs0mg"},{"bike_id":"37041179-6712-4893-832c-80719560134f","system_id":"levelo_inurba_marseille","lat":43.314921,"lon":5.373022,"is_reserved":false,"is_disabled":false,"rental_uris":{"android":"levelo://app?vid=37041179-6712-4893-832c-80719560134f","ios":"levelo://app?vid=37041179-6712-4893-832c-80719560134f"},"vehicle_type_id":"4","last_reported":1751703204,"current_range_meters":9200,"station_id":"ce4bgt12rcd13ifvqcd0","pricing_plan_id":"cebpf4jnsgd1na2vs0mg"},{"bike_id":"42ec6e55-17eb-4757-a545-17c99c4a0169","system_id":"levelo_inurba_marseille","lat":43.28353,"lon":5.38116,"is_reserved":false,"is_disabled":false,"rental_uris":{"android":"levelo://app?vid=42ec6e55-17eb-4757-a545-17c99c4a0169","ios":"levelo://app?vid=42ec6e55-17eb-4757-a545-17c99c4a0169"},"vehicle_type_id":"4","last_reported":1751703204,"current_range_meters":9200,"station_id":"ce4bh412rcd13ifvqdr0","pricing_plan_id":"cebpf4jnsgd1na2vs0mg"},{"bike_id":"149c88ef-b75d-4a6b-b819-11821adadb7b","system_id":"levelo_inurba_marseille","lat":43.24381,"lon":5.37063,"is_reserved":false,"is_disabled":false,"rental_uris":{"android":"levelo://app?vid=149c88ef-b75d-4a6b-b819-11821adadb7b","ios":"levelo://app?vid=149c88ef-b75d-4a6b-b819-11821adadb7b"},"vehicle_type_id":"4","last_reported":1751703204,"current_range_meters":9200,"station_id":"ce4bhhh2rcd13ifvqfk0","pricing_plan_id":"cebpf4jnsgd1na2vs0mg"},{"bike_id":"2eeb3ca3-8183-439f-bc75-2133399922c1","system_id":"levelo_inurba_marseille","lat":43.31116,"lon":5.37788,"is_reserved":false,"is_disabled":false,"rental_uris":{"android":"levelo://app?vid=2eeb3ca3-8183-439f-bc75-2133399922c1","ios":"levelo://app?vid=2eeb3ca3-8183-439f-bc75-2133399922c1"},"vehicle_type_id":"4","last_reported":1751703204,"current_range_meters":10000,"station_id":"ce4bgt92rcd13ifvqcg0","pricing_plan_id":"cebpf4jnsgd1na2vs0mg"},{"bike_id":"5dd5d451-1b9b-43b3-b4bc-7c47be453a3e","system_id":"levelo_inurba_marseille","lat":43.30948,"lon":5.39036,"is_reserved":false,"is_disabled":false,"rental_uris":{"android":"levelo://app?vid=5dd5d451-1b9b-43b3-b4bc-7c47be453a3e","ios":"levelo://app?vid=5dd5d451-1b9b-43b3-b4bc-7c47be453a3e"},"vehicle_type_id":"4","last_reported":1751703204,"current_range_meters":10000,"station_id":"ce4bgup2rcd13ifvqco0","pricing_plan_id":"cebpf4jnsgd1na2vs0mg"},{"bike_id":"1c8ab180-05fd-405f-9922-b2b2c2d5142f","system_id":"levelo_inurba_marseille","lat":43.337918,"lon":5.381267,"is_reserved":false,"is_disabled":false,"rental_uris":{"android":"levelo://app?vid=1c8ab180-05fd-405f-9922-b2b2c2d5142f","ios":"levelo://app?vid=1c8ab180-05fd-405f-9922-b2b2c2d5142f"},"vehicle_type_id":"4","last_reported":1751703204,"current_range_meters":10800,"station_id":"","pricing_plan_id":"cebpf4jnsgd1na2vs0mg"},{"bike_id":"b26fae72-751e-4090-a9c4-76ff5de1ad66","system_id":"levelo_inurba_marseille","lat":43.332559,"lon":5.380395,"is_reserved":false,"is_disabled":false,"rental_uris":{"android":"levelo://app?vid=b26fae72-751e-4090-a9c4-76ff5de1ad66","ios":"levelo://app?vid=b26fae72-751e-4090-a9c4-76ff5de1ad66"},"vehicle_type_id":"4","last_reported":1751703204,"current_range_meters":10800,"station_id":"","pricing_plan_id":"cebpf4jnsgd1na2vs0mg"},{"bike_id":"6b0a1fd8-d9c6-42b7-8aee-05d9231cf95a","system_id":"levelo_inurba_marseille","lat":43.292128,"lon":5.400042,"is_reserved":false,"is_disabled":false,"rental_uris":{"android":"levelo://app?vid=6b0a1fd8-d9c6-42b7-8aee-05d9231cf95a","ios":"levelo://app?vid=6b0a1fd8-d9c6-42b7-8aee-05d9231cf95a"},"vehicle_type_id":"4","last_reported":1751703204,"current_range_meters":10800,"station_id":"","pricing_plan_id":"cebpf4jnsgd1na2vs0mg"},{"bike_id":"4c5a3de5-5d51-4be2-867a-1ec801bcc945","system_id":"levelo_inurba_marseille","lat":43.313514,"lon":5.38508,"is_reserved":false,"is_disabled":false,"rental_uris":{"android":"levelo://app?vid=4c5a3de5-5d51-4be2-867a-1ec801bcc945","ios":"levelo://app?vid=4c5a3de5-5d51-4be2-867a-1ec801bcc945"},"vehicle_type_id":"4","last_reported":1751703204,"current_range_meters":10800,"station_id":"ce4bgt92rcd13ifvqcf0","pricing_plan_id":"cebpf4jnsgd1na2vs0mg"},{"bike_id":"c7728615-6fd3-416f-a0ba-13bc07d57c89","system_id":"levelo_inurba_marseille","lat":43.306655,"lon":5.400789,"is_reserved":false,"is_disabled":false,"rental_uris":{"android":"levelo://app?vid=c7728615-6fd3-416f-a0ba-13bc07d57c89","ios":"levelo://app?vid=c7728615-6fd3-416f-a0ba-13bc07d57c89"},"vehicle_type_id":"4","last_reported":1751703204,"current_range_meters":10800,"station_id":"ce4bh112rcd13ifvqda0","pricing_plan_id":"cebpf4jnsgd1na2vs0mg"},{"bike_id":"f528a27f-1151-4076-8c08-c456d187dd99","system_id":"levelo_inurba_marseille","lat":43.28719,"lon":5.37947,"is_reserved":false,"is_disabled":false,"rental_uris":{"android":"levelo://app?vid=f528a27f-1151-4076-8c08-c456d187dd99","ios":"levelo://app?vid=f528a27f-1151-4076-8c08-c456d187dd99"},"vehicle_type_id":"4","last_reported":1751703204,"current_range_meters":10800,"station_id":"ce4bh9p2rcd13ifvqec0","pricing_plan_id":"cebpf4jnsgd1na2vs0mg"},{"bike_id":"a7055120-8269-43dd-9f5c-b6ab7a57ba20","system_id":"levelo_inurba_marseille","lat":43.341403,"lon":5.409045,"is_reserved":false,"is_disabled":false,"rental_uris":{"android":"levelo://app?vid=a7055120-8269-43dd-9f5c-b6ab7a57ba20","ios":"levelo://app?vid=a7055120-8269-43dd-9f5c-b6ab7a57ba20"},"vehicle_type_id":"4","last_reported":1751703204,"current_range_meters":10800,"station_id":"ce4bhqh2rcd13ifvqhlg","pricing_plan_id":"cebpf4jnsgd1na2vs0mg"},{"bike_id":"bf16840f-2e0f-47eb-8d30-3dc4199df254","system_id":"levelo_inurba_marseille","lat":43.31765,"lon":5.39015,"is_reserved":false,"is_disabled":false,"rental_uris":{"android":"levelo://app?vid=bf16840f-2e0f-47eb-8d30-3dc4199df254","ios":"levelo://app?vid=bf16840f-2e0f-47eb-8d30-3dc4199df254"},"vehicle_type_id":"4","last_reported":1751703204,"current_range_meters":10800,"station_id":"ce4bhqp2rcd13ifvqhng","pricing_plan_id":"cebpf4jnsgd1na2vs0mg"},{"bike_id":"76d127a6-3385-47a2-9e3a-490d1d976c59","system_id":"levelo_inurba_marseille","lat":43.311699,"lon":5.382361,"is_reserved":false,"is_disabled":false,"rental_uris":{"android":"levelo://app?vid=76d127a6-3385-47a2-9e3a-490d1d976c59","ios":"levelo://app?vid=76d127a6-3385-47a2-9e3a-490d1d976c59"},"vehicle_type_id":"4","last_reported":1751703204,"current_range_meters":11200,"station_id":"","pricing_plan_id":"cebpf4jnsgd1na2vs0mg"},{"bike_id":"69c2280d-9883-47db-99f2-c073a6babae6","system_id":"levelo_inurba_marseille","lat":43.3086,"lon":5.37039,"is_reserved":false,"is_disabled":false,"rental_uris":{"android":"levelo://app?vid=69c2280d-9883-47db-99f2-c073a6babae6","ios":"levelo://app?vid=69c2280d-9883-47db-99f2-c073a6babae6"},"vehicle_type_id":"4","last_reported":1751703204,"current_range_meters":11600,"station_id":"","pricing_plan_id":"cebpf4jnsgd1na2vs0mg"},{"bike_id":"695ba698-1054-47b2-9229-8be114776363","system_id":"levelo_inurba_marseille","lat":43.257195,"lon":5.411003,"is_reserved":false,"is_disabled":false,"rental_uris":{"android":"levelo://app?vid=695ba698-1054-47b2-9229-8be114776363","ios":"levelo://app?vid=695ba698-1054-47b2-9229-8be114776363"},"vehicle_type_id":"4","last_reported":1751703204,"current_range_meters":11600,"station_id":"ce4bhkp2rcd13ifvqgd0","pricing_plan_id":"cebpf4jnsgd1na2vs0mg"},{"bike_id":"93231530-e254-490c-b418-f2ae68525929","system_id":"levelo_inurba_marseille","lat":43.32488,"lon":5.36555,"is_reserved":false,"is_disabled":false,"rental_uris":{"android":"levelo://app?vid=93231530-e254-490c-b418-f2ae68525929","ios":"levelo://app?vid=93231530-e254-490c-b418-f2ae68525929"},"vehicle_type_id":"4","last_reported":1751703204,"current_range_meters":11600,"station_id":"ce4bhs12rcd13ifvqhvg","pricing_plan_id":"cebpf4jnsgd1na2vs0mg"},{"bike_id":"4b8da722-ee9e-48a4-a5e5-3a8a10364708","system_id":"levelo_inurba_marseille","lat":43.31207,"lon":5.37812,"is_reserved":false,"is_disabled":false,"rental_uris":{"android":"levelo://app?vid=4b8da722-ee9e-48a4-a5e5-3a8a10364708","ios":"levelo://app?vid=4b8da722-ee9e-48a4-a5e5-3a8a10364708"},"vehicle_type_id":"4","last_reported":1751703204,"current_range_meters":12000,"station_id":"","pricing_plan_id":"cebpf4jnsgd1na2vs0mg"},{"bike_id":"f95da7d1-2d0d-4430-a97e-1f9c7a061d8c","system_id":"levelo_inurba_marseille","lat":43.301316,"lon":5.397515,"is_reserved":false,"is_disabled":false,"rental_uris":{"android":"levelo://app?vid=f95da7d1-2d0d-4430-a97e-1f9c7a061d8c","ios":"levelo://app?vid=f95da7d1-2d0d-4430-a97e-1f9c7a061d8c"},"vehicle_type_id":"4","last_reported":1751703204,"current_range_meters":12000,"station_id":"ce4bh392rcd13ifvqdl0","pricing_plan_id":"cebpf4jnsgd1na2vs0mg"},{"bike_id":"fb3ecb71-57be-4019-bf6b-b91df5f51489","system_id":"levelo_inurba_marseille","lat":43.262218,"lon":5.374398,"is_reserved":false,"is_disabled":false,"rental_uris":{"android":"levelo://app?vid=fb3ecb71-57be-4019-bf6b-b91df5f51489","ios":"levelo://app?vid=fb3ecb71-57be-4019-bf6b-b91df5f51489"},"vehicle_type_id":"4","last_reported":1751703204,"current_range_meters":12000,"station_id":"ce4bhgp2rcd13ifvqfc0","pricing_plan_id":"cebpf4jnsgd1na2vs0mg"},{"bike_id":"2fa4db94-27cf-47dc-a2ac-ccbeeb2058c3","system_id":"levelo_inurba_marseille","lat":43.250213,"lon":5.38919,"is_reserved":false,"is_disabled":false,"rental_uris":{"android":"levelo://app?vid=2fa4db94-27cf-47dc-a2ac-ccbeeb2058c3","ios":"levelo://app?vid=2fa4db94-27cf-47dc-a2ac-ccbeeb2058c3"},"vehicle_type_id":"4","last_reported":1751703204,"current_range_meters":12000,"station_id":"ce4bhgp2rcd13ifvqfd0","pricing_plan_id":"cebpf4jnsgd1na2vs0mg"},{"bike_id":"8540eae3-ead3-4b83-ba8b-6b7654e615e1","system_id":"levelo_inurba_marseille","lat":43.2815,"lon":5.42633,"is_reserved":false,"is_disabled":false,"rental_uris":{"android":"levelo://app?vid=8540eae3-ead3-4b83-ba8b-6b7654e615e1","ios":"levelo://app?vid=8540eae3-ead3-4b83-ba8b-6b7654e615e1"},"vehicle_type_id":"4","last_reported":1751703204,"current_range_meters":12000,"station_id":"ce4bhnh2rcd13ifvqgug","pricing_plan_id":"cebpf4jnsgd1na2vs0mg"},{"bike_id":"4db45513-e520-4598-82fa-5809d80d4f3d","system_id":"levelo_inurba_marseille","lat":43.280986,"lon":5.354799,"is_reserved":false,"is_disabled":false,"rental_uris":{"android":"levelo://app?vid=4db45513-e520-4598-82fa-5809d80d4f3d","ios":"levelo://app?vid=4db45513-e520-4598-82fa-5809d80d4f3d"},"vehicle_type_id":"4","last_reported":1751703204,"current_range_meters":12400,"station_id":"","pricing_plan_id":"cebpf4jnsgd1na2vs0mg"},{"bike_id":"8c7b5457-b790-4ceb-8535-d321af702702","system_id":"levelo_inurba_marseille","lat":43.31256,"lon":5.40164,"is_reserved":false,"is_disabled":false,"rental_uris":{"android":"levelo://app?vid=8c7b5457-b790-4ceb-8535-d321af702702","ios":"levelo://app?vid=8c7b5457-b790-4ceb-8535-d321af702702"},"vehicle_type_id":"4","last_reported":1751703204,"current_range_meters":12400,"station_id":"ce4bh092rcd13ifvqd30","pricing_plan_id":"cebpf4jnsgd1na2vs0mg"},{"bike_id":"f5de7370-6b3b-4819-a8fd-1546035ea2e5","system_id":"levelo_inurba_marseille","lat":43.29806,"lon":5.40397,"is_reserved":false,"is_disabled":false,"rental_uris":{"android":"levelo://app?vid=f5de7370-6b3b-4819-a8fd-1546035ea2e5","ios":"levelo://app?vid=f5de7370-6b3b-4819-a8fd-1546035ea2e5"},"vehicle_type_id":"4","last_reported":1751703204,"current_range_meters":12400,"station_id":"ce4bh112rcd13ifvqd90","pricing_plan_id":"cebpf4jnsgd1na2vs0mg"},{"bike_id":"13705a1f-572a-4d78-852d-b25a56577d2e","system_id":"levelo_inurba_marseille","lat":43.28463,"lon":5.359,"is_reserved":false,"is_disabled":false,"rental_uris":{"android":"levelo://app?vid=13705a1f-572a-4d78-852d-b25a56577d2e","ios":"levelo://app?vid=13705a1f-572a-4d78-852d-b25a56577d2e"},"vehicle_type_id":"4","last_reported":1751703204,"current_range_meters":12400,"station_id":"ce4bhah2rcd13ifvqei0","pricing_plan_id":"cebpf4jnsgd1na2vs0mg"},{"bike_id":"ef086af5-e34f-4e4b-b345-7e3a952273cd","system_id":"levelo_inurba_marseille","lat":43.2315,"lon":5.43716,"is_reserved":false,"is_disabled":false,"rental_uris":{"android":"levelo://app?vid=ef086af5-e34f-4e4b-b345-7e3a952273cd","ios":"levelo://app?vid=ef086af5-e34f-4e4b-b345-7e3a952273cd"},"vehicle_type_id":"4","last_reported":1751703204,"current_range_meters":12400,"station_id":"ce4bhmp2rcd13ifvqgog","pricing_plan_id":"cebpf4jnsgd1na2vs0mg"},{"bike_id":"04edf994-7a6f-42bd-bdb9-6db229bd33ae","system_id":"levelo_inurba_marseille","lat":43.29556,"lon":5.42264,"is_reserved":false,"is_disabled":false,"rental_uris":{"android":"levelo://app?vid=04edf994-7a6f-42bd-bdb9-6db229bd33ae","ios":"levelo://app?vid=04edf994-7a6f-42bd-bdb9-6db229bd33ae"},"vehicle_type_id":"4","last_reported":1751703204,"current_range_meters":12400,"station_id":"ce4bhph2rcd13ifvqhdg","pricing_plan_id":"cebpf4jnsgd1na2vs0mg"},{"bike_id":"ea148baa-e3a5-4e1b-bda9-9404458cdd6d","system_id":"levelo_inurba_marseille","lat":43.292746,"lon":5.368551,"is_reserved":false,"is_disabled":false,"rental_uris":{"android":"levelo://app?vid=ea148baa-e3a5-4e1b-bda9-9404458cdd6d","ios":"levelo://app?vid=ea148baa-e3a5-4e1b-bda9-9404458cdd6d"},"vehicle_type_id":"4","last_reported":1751703204,"current_range_meters":12800,"station_id":"","pricing_plan_id":"cebpf4jnsgd1na2vs0mg"},{"bike_id":"f1753d26-8935-4f4b-9e83-1a8f6f412606","system_id":"levelo_inurba_marseille","lat":43.24658,"lon":5.3816,"is_reserved":false,"is_disabled":false,"rental_uris":{"android":"levelo://app?vid=f1753d26-8935-4f4b-9e83-1a8f6f412606","ios":"levelo://app?vid=f1753d26-8935-4f4b-9e83-1a8f6f412606"},"vehicle_type_id":"4","last_reported":1751703204,"current_range_meters":12800,"station_id":"ce4bhih2rcd13ifvqfr0","pricing_plan_id":"cebpf4jnsgd1na2vs0mg"},{"bike_id":"ae16f5e0-7344-47e5-bfdf-f837fbd0da34","system_id":"levelo_inurba_marseille","lat":43.32479,"lon":5.3655,"is_reserved":false,"is_disabled":false,"rental_uris":{"android":"levelo://app?vid=ae16f5e0-7344-47e5-bfdf-f837fbd0da34","ios":"levelo://app?vid=ae16f5e0-7344-47e5-bfdf-f837fbd0da34"},"vehicle_type_id":"4","last_reported":1751703204,"current_range_meters":12800,"station_id":"ce4bhs12rcd13ifvqhvg","pricing_plan_id":"cebpf4jnsgd1na2vs0mg"},{"bike_id":"f2f66e3c-48cd-4a6d-8d13-3d1ef47a7396","system_id":"levelo_inurba_marseille","lat":43.23162,"lon":5.355268,"is_reserved":false,"is_disabled":false,"rental_uris":{"android":"levelo://app?vid=f2f66e3c-48cd-4a6d-8d13-3d1ef47a7396","ios":"levelo://app?vid=f2f66e3c-48cd-4a6d-8d13-3d1ef47a7396"},"vehicle_type_id":"4","last_reported":1751703204,"current_range_meters":12800,"station_id":"ce4bhu92rcd13ifvqi70","pricing_plan_id":"cebpf4jnsgd1na2vs0mg"},{"bike_id":"3847022a-5187-4521-af78-80f88fe96595","system_id":"levelo_inurba_marseille","lat":43.21185,"lon":5.35078,"is_reserved":false,"is_disabled":false,"rental_uris":{"android":"levelo://app?vid=3847022a-5187-4521-af78-80f88fe96595","ios":"levelo://app?vid=3847022a-5187-4521-af78-80f88fe96595"},"vehicle_type_id":"4","last_reported":1751703204,"current_range_meters":12800,"station_id":"st_cvj6sg6p6f1abm77japg","pricing_plan_id":"cebpf4jnsgd1na2vs0mg"},{"bike_id":"5e703185-fdaa-4690-8eb4-41e5006e5103","system_id":"levelo_inurba_marseille","lat":43.30373,"lon":5.42492,"is_reserved":false,"is_disabled":false,"rental_uris":{"android":"levelo://app?vid=5e703185-fdaa-4690-8eb4-41e5006e5103","ios":"levelo://app?vid=5e703185-fdaa-4690-8eb4-41e5006e5103"},"vehicle_type_id":"4","last_reported":1751703204,"current_range_meters":13600,"station_id":"ce4bhoh2rcd13ifvqh6g","pricing_plan_id":"cebpf4jnsgd1na2vs0mg"},{"bike_id":"29b19e99-4845-4ee3-b1ee-35721cd36dc7","system_id":"levelo_inurba_marseille","lat":43.231953,"lon":5.355448,"is_reserved":false,"is_disabled":false,"rental_uris":{"android":"levelo://app?vid=29b19e99-4845-4ee3-b1ee-35721cd36dc7","ios":"levelo://app?vid=29b19e99-4845-4ee3-b1ee-35721cd36dc7"},"vehicle_type_id":"4","last_reported":1751703204,"current_range_meters":13600,"station_id":"ce4bhu92rcd13ifvqi70","pricing_plan_id":"cebpf4jnsgd1na2vs0mg"},{"bike_id":"672fc69a-31c0-4b40-a532-4a811d670207","system_id":"levelo_inurba_marseille","lat":43.2119,"lon":5.35066,"is_reserved":false,"is_disabled":false,"rental_uris":{"android":"levelo://app?vid=672fc69a-31c0-4b40-a532-4a811d670207","ios":"levelo://app?vid=672fc69a-31c0-4b40-a532-4a811d670207"},"vehicle_type_id":"4","last_reported":1751703204,"current_range_meters":13600,"station_id":"st_cvj6sg6p6f1abm77japg","pricing_plan_id":"cebpf4jnsgd1na2vs0mg"},{"bike_id":"e98af42e-9d70-4cc5-9468-74e613bccb81","system_id":"levelo_inurba_marseille","lat":43.29843,"lon":5.36278,"is_reserved":false,"is_disabled":false,"rental_uris":{"android":"levelo://app?vid=e98af42e-9d70-4cc5-9468-74e613bccb81","ios":"levelo://app?vid=e98af42e-9d70-4cc5-9468-74e613bccb81"},"vehicle_type_id":"4","last_reported":1751703204,"current_range_meters":14000,"station_id":"ce4bgpp2rcd13ifvqc3g","pricing_plan_id":"cebpf4jnsgd1na2vs0mg"},{"bike_id":"3913ad23-cf89-4f24-8bec-6574be33c73e","system_id":"levelo_inurba_marseille","lat":43.312882,"lon":5.401634,"is_reserved":false,"is_disabled":false,"rental_uris":{"android":"levelo://app?vid=3913ad23-cf89-4f24-8bec-6574be33c73e","ios":"levelo://app?vid=3913ad23-cf89-4f24-8bec-6574be33c73e"},"vehicle_type_id":"4","last_reported":1751703204,"current_range_meters":14400,"station_id":"ce4bh092rcd13ifvqd30","pricing_plan_id":"cebpf4jnsgd1na2vs0mg"},{"bike_id":"c9e016dd-7469-4469-83d4-aae2144382da","system_id":"levelo_inurba_marseille","lat":43.26552,"lon":5.37285,"is_reserved":false,"is_disabled":false,"rental_uris":{"android":"levelo://app?vid=c9e016dd-7469-4469-83d4-aae2144382da","ios":"levelo://app?vid=c9e016dd-7469-4469-83d4-aae2144382da"},"vehicle_type_id":"4","last_reported":1751703204,"current_range_meters":14400,"station_id":"ce4bhg12rcd13ifvqf70","pricing_plan_id":"cebpf4jnsgd1na2vs0mg"},{"bike_id":"152c1a63-d142-48d2-ac8f-dc93b6558a94","system_id":"levelo_inurba_marseille","lat":43.24802,"lon":5.37451,"is_reserved":false,"is_disabled":false,"rental_uris":{"android":"levelo://app?vid=152c1a63-d142-48d2-ac8f-dc93b6558a94","ios":"levelo://app?vid=152c1a63-d142-48d2-ac8f-dc93b6558a94"},"vehicle_type_id":"4","last_reported":1751703204,"current_range_meters":14400,"station_id":"ce4bhgh2rcd13ifvqfb0","pricing_plan_id":"cebpf4jnsgd1na2vs0mg"},{"bike_id":"13d21a2c-849b-4f21-9b0f-55dc62425cbd","system_id":"levelo_inurba_marseille","lat":43.23191,"lon":5.3998,"is_reserved":false,"is_disabled":false,"rental_uris":{"android":"levelo://app?vid=13d21a2c-849b-4f21-9b0f-55dc62425cbd","ios":"levelo://app?vid=13d21a2c-849b-4f21-9b0f-55dc62425cbd"},"vehicle_type_id":"4","last_reported":1751703204,"current_range_meters":14400,"station_id":"ce4bhn12rcd13ifvqgqg","pricing_plan_id":"cebpf4jnsgd1na2vs0mg"},{"bike_id":"5e811c86-824d-4978-918d-a61aa3a543ea","system_id":"levelo_inurba_marseille","lat":43.30415,"lon":5.41287,"is_reserved":false,"is_disabled":false,"rental_uris":{"android":"levelo://app?vid=5e811c86-824d-4978-918d-a61aa3a543ea","ios":"levelo://app?vid=5e811c86-824d-4978-918d-a61aa3a543ea"},"vehicle_type_id":"4","last_reported":1751703204,"current_range_meters":14400,"station_id":"ce4bhop2rcd13ifvqh8g","pricing_plan_id":"cebpf4jnsgd1na2vs0mg"},{"bike_id":"04172de6-fac1-42ca-9ea2-45c409c5f546","system_id":"levelo_inurba_marseille","lat":43.324976,"lon":5.366726,"is_reserved":false,"is_disabled":false,"rental_uris":{"android":"levelo://app?vid=04172de6-fac1-42ca-9ea2-45c409c5f546","ios":"levelo://app?vid=04172de6-fac1-42ca-9ea2-45c409c5f546"},"vehicle_type_id":"4","last_reported":1751703204,"current_range_meters":14400,"station_id":"ce4bhs12rcd13ifvqhvg","pricing_plan_id":"cebpf4jnsgd1na2vs0mg"},{"bike_id":"25d65b54-2483-49ad-9e8c-b4102ded682f","system_id":"levelo_inurba_marseille","lat":43.211904,"lon":5.350714,"is_reserved":false,"is_disabled":false,"rental_uris":{"android":"levelo://app?vid=25d65b54-2483-49ad-9e8c-b4102ded682f","ios":"levelo://app?vid=25d65b54-2483-49ad-9e8c-b4102ded682f"},"vehicle_type_id":"4","last_reported":1751703204,"current_range_meters":14400,"station_id":"st_cvj6sg6p6f1abm77japg","pricing_plan_id":"cebpf4jnsgd1na2vs0mg"},{"bike_id":"5f470112-8139-4343-b082-08a74e0b7074","system_id":"levelo_inurba_marseille","lat":43.211992,"lon":5.350723,"is_reserved":false,"is_disabled":false,"rental_uris":{"android":"levelo://app?vid=5f470112-8139-4343-b082-08a74e0b7074","ios":"levelo://app?vid=5f470112-8139-4343-b082-08a74e0b7074"},"vehicle_type_id":"4","last_reported":1751703204,"current_range_meters":14400,"station_id":"st_cvj6sg6p6f1abm77japg","pricing_plan_id":"cebpf4jnsgd1na2vs0mg"},{"bike_id":"daeee1e5-3b93-44da-8e47-7b24df6d544e","system_id":"levelo_inurba_marseille","lat":43.300024,"lon":5.373586,"is_reserved":false,"is_disabled":false,"rental_uris":{"android":"levelo://app?vid=daeee1e5-3b93-44da-8e47-7b24df6d544e","ios":"levelo://app?vid=daeee1e5-3b93-44da-8e47-7b24df6d544e"},"vehicle_type_id":"4","last_reported":1751703204,"current_range_meters":14800,"station_id":"","pricing_plan_id":"cebpf4jnsgd1na2vs0mg"},{"bike_id":"27b3b26f-62cb-45ea-a54c-6078366a412e","system_id":"levelo_inurba_marseille","lat":43.31481,"lon":5.37292,"is_reserved":false,"is_disabled":false,"rental_uris":{"android":"levelo://app?vid=27b3b26f-62cb-45ea-a54c-6078366a412e","ios":"levelo://app?vid=27b3b26f-62cb-45ea-a54c-6078366a412e"},"vehicle_type_id":"4","last_reported":1751703204,"current_range_meters":14800,"station_id":"ce4bgt12rcd13ifvqcd0","pricing_plan_id":"cebpf4jnsgd1na2vs0mg"},{"bike_id":"3ddbba30-83fc-4406-8b51-decfffba50fc","system_id":"levelo_inurba_marseille","lat":43.25717,"lon":5.41126,"is_reserved":false,"is_disabled":false,"rental_uris":{"android":"levelo://app?vid=3ddbba30-83fc-4406-8b51-decfffba50fc","ios":"levelo://app?vid=3ddbba30-83fc-4406-8b51-decfffba50fc"},"vehicle_type_id":"4","last_reported":1751703204,"current_range_meters":14800,"station_id":"ce4bhkp2rcd13ifvqgd0","pricing_plan_id":"cebpf4jnsgd1na2vs0mg"},{"bike_id":"89c4c171-fa34-44ee-8818-b4f1de745083","system_id":"levelo_inurba_marseille","lat":43.23187,"lon":5.3554,"is_reserved":false,"is_disabled":false,"rental_uris":{"android":"levelo://app?vid=89c4c171-fa34-44ee-8818-b4f1de745083","ios":"levelo://app?vid=89c4c171-fa34-44ee-8818-b4f1de745083"},"vehicle_type_id":"4","last_reported":1751703204,"current_range_meters":14800,"station_id":"ce4bhu92rcd13ifvqi70","pricing_plan_id":"cebpf4jnsgd1na2vs0mg"},{"bike_id":"b1d40197-e49c-4962-8cd8-0babe05d31a6","system_id":"levelo_inurba_marseille","lat":43.21261,"lon":5.35273,"is_reserved":false,"is_disabled":false,"rental_uris":{"android":"levelo://app?vid=b1d40197-e49c-4962-8cd8-0babe05d31a6","ios":"levelo://app?vid=b1d40197-e49c-4962-8cd8-0babe05d31a6"},"vehicle_type_id":"4","last_reported":1751703204,"current_range_meters":15200,"station_id":"","pricing_plan_id":"cebpf4jnsgd1na2vs0mg"},{"bike_id":"f37760c6-ab8b-450e-9ddc-f3de596404e2","system_id":"levelo_inurba_marseille","lat":43.30198,"lon":5.37974,"is_reserved":false,"is_disabled":false,"rental_uris":{"android":"levelo://app?vid=f37760c6-ab8b-450e-9ddc-f3de596404e2","ios":"levelo://app?vid=f37760c6-ab8b-450e-9ddc-f3de596404e2"},"vehicle_type_id":"4","last_reported":1751703204,"current_range_meters":15200,"station_id":"","pricing_plan_id":"cebpf4jnsgd1na2vs0mg"},{"bike_id":"9ce4937e-f70c-40c5-8304-a6e4aa82f427","system_id":"levelo_inurba_marseille","lat":43.30314,"lon":5.4045,"is_reserved":false,"is_disabled":false,"rental_uris":{"android":"levelo://app?vid=9ce4937e-f70c-40c5-8304-a6e4aa82f427","ios":"levelo://app?vid=9ce4937e-f70c-40c5-8304-a6e4aa82f427"},"vehicle_type_id":"4","last_reported":1751703204,"current_range_meters":15200,"station_id":"ce4bh012rcd13ifvqd10","pricing_plan_id":"cebpf4jnsgd1na2vs0mg"},{"bike_id":"e9f184b7-4c52-47df-adfb-be4fdc9c8ed3","system_id":"levelo_inurba_marseille","lat":43.231923,"lon":5.355625,"is_reserved":false,"is_disabled":false,"rental_uris":{"android":"levelo://app?vid=e9f184b7-4c52-47df-adfb-be4fdc9c8ed3","ios":"levelo://app?vid=e9f184b7-4c52-47df-adfb-be4fdc9c8ed3"},"vehicle_type_id":"4","last_reported":1751703204,"current_range_meters":15200,"station_id":"ce4bhu92rcd13ifvqi70","pricing_plan_id":"cebpf4jnsgd1na2vs0mg"},{"bike_id":"ef26d274-58a7-40bc-9cf0-6287718684d4","system_id":"levelo_inurba_marseille","lat":43.30728,"lon":5.42448,"is_reserved":false,"is_disabled":false,"rental_uris":{"android":"levelo://app?vid=ef26d274-58a7-40bc-9cf0-6287718684d4","ios":"levelo://app?vid=ef26d274-58a7-40bc-9cf0-6287718684d4"},"vehicle_type_id":"4","last_reported":1751703204,"current_range_meters":15200,"station_id":"st_cvj6ca6bvosntc0bfgr0","pricing_plan_id":"cebpf4jnsgd1na2vs0mg"},{"bike_id":"e75921b6-f2fa-4d5f-a2d7-6f66e6347c4d","system_id":"levelo_inurba_marseille","lat":43.249843,"lon":5.404392,"is_reserved":false,"is_disabled":false,"rental_uris":{"android":"levelo://app?vid=e75921b6-f2fa-4d5f-a2d7-6f66e6347c4d","ios":"levelo://app?vid=e75921b6-f2fa-4d5f-a2d7-6f66e6347c4d"},"vehicle_type_id":"4","last_reported":1751703204,"current_range_meters":16000,"station_id":"","pricing_plan_id":"cebpf4jnsgd1na2vs0mg"},{"bike_id":"02b71ffd-98ec-4faa-a4ff-9c4f0856d9be","system_id":"levelo_inurba_marseille","lat":43.309336,"lon":5.401603,"is_reserved":false,"is_disabled":false,"rental_uris":{"android":"levelo://app?vid=02b71ffd-98ec-4faa-a4ff-9c4f0856d9be","ios":"levelo://app?vid=02b71ffd-98ec-4faa-a4ff-9c4f0856d9be"},"vehicle_type_id":"4","last_reported":1751703204,"current_range_meters":16000,"station_id":"ce4bgvp2rcd13ifvqct0","pricing_plan_id":"cebpf4jnsgd1na2vs0mg"},{"bike_id":"43b433cf-6050-4ea7-8ddd-7b98c73b8e4a","system_id":"levelo_inurba_marseille","lat":43.23154,"lon":5.43714,"is_reserved":false,"is_disabled":false,"rental_uris":{"android":"levelo://app?vid=43b433cf-6050-4ea7-8ddd-7b98c73b8e4a","ios":"levelo://app?vid=43b433cf-6050-4ea7-8ddd-7b98c73b8e4a"},"vehicle_type_id":"4","last_reported":1751703204,"current_range_meters":16000,"station_id":"ce4bhmp2rcd13ifvqgog","pricing_plan_id":"cebpf4jnsgd1na2vs0mg"},{"bike_id":"85e59ae2-b351-4789-8c40-11e04c4e6808","system_id":"levelo_inurba_marseille","lat":43.23206,"lon":5.355533,"is_reserved":false,"is_disabled":false,"rental_uris":{"android":"levelo://app?vid=85e59ae2-b351-4789-8c40-11e04c4e6808","ios":"levelo://app?vid=85e59ae2-b351-4789-8c40-11e04c4e6808"},"vehicle_type_id":"4","last_reported":1751703204,"current_range_meters":16000,"station_id":"ce4bhu92rcd13ifvqi70","pricing_plan_id":"cebpf4jnsgd1na2vs0mg"},{"bike_id":"8501c7f1-4540-433a-9226-9677bd87b71a","system_id":"levelo_inurba_marseille","lat":43.211906,"lon":5.350737,"is_reserved":false,"is_disabled":false,"rental_uris":{"android":"levelo://app?vid=8501c7f1-4540-433a-9226-9677bd87b71a","ios":"levelo://app?vid=8501c7f1-4540-433a-9226-9677bd87b71a"},"vehicle_type_id":"4","last_reported":1751703204,"current_range_meters":16000,"station_id":"st_cvj6sg6p6f1abm77japg","pricing_plan_id":"cebpf4jnsgd1na2vs0mg"},{"bike_id":"adf1d38d-1f03-40cf-9b57-0a8f15f62b2d","system_id":"levelo_inurba_marseille","lat":43.32942,"lon":5.3639,"is_reserved":false,"is_disabled":false,"rental_uris":{"android":"levelo://app?vid=adf1d38d-1f03-40cf-9b57-0a8f15f62b2d","ios":"levelo://app?vid=adf1d38d-1f03-40cf-9b57-0a8f15f62b2d"},"vehicle_type_id":"4","last_reported":1751703204,"current_range_meters":16400,"station_id":"","pricing_plan_id":"cebpf4jnsgd1na2vs0mg"},{"bike_id":"30a81b26-94f4-40fa-bb2c-058d64e27722","system_id":"levelo_inurba_marseille","lat":43.30239,"lon":5.40109,"is_reserved":false,"is_disabled":false,"rental_uris":{"android":"levelo://app?vid=30a81b26-94f4-40fa-bb2c-058d64e27722","ios":"levelo://app?vid=30a81b26-94f4-40fa-bb2c-058d64e27722"},"vehicle_type_id":"4","last_reported":1751703204,"current_range_meters":16400,"station_id":"ce4bgvh2rcd13ifvqcs0","pricing_plan_id":"cebpf4jnsgd1na2vs0mg"},{"bike_id":"fcbb47f0-480f-4647-b620-44d3e4ef9dc8","system_id":"levelo_inurba_marseille","lat":43.25503,"lon":5.37649,"is_reserved":false,"is_disabled":false,"rental_uris":{"android":"levelo://app?vid=fcbb47f0-480f-4647-b620-44d3e4ef9dc8","ios":"levelo://app?vid=fcbb47f0-480f-4647-b620-44d3e4ef9dc8"},"vehicle_type_id":"4","last_reported":1751703204,"current_range_meters":16400,"station_id":"ce4bhh12rcd13ifvqff0","pricing_plan_id":"cebpf4jnsgd1na2vs0mg"},{"bike_id":"c3fae141-3322-46bb-976b-c85803ceeb5f","system_id":"levelo_inurba_marseille","lat":43.29532,"lon":5.42262,"is_reserved":false,"is_disabled":false,"rental_uris":{"android":"levelo://app?vid=c3fae141-3322-46bb-976b-c85803ceeb5f","ios":"levelo://app?vid=c3fae141-3322-46bb-976b-c85803ceeb5f"},"vehicle_type_id":"4","last_reported":1751703204,"current_range_meters":16400,"station_id":"ce4bhph2rcd13ifvqhdg","pricing_plan_id":"cebpf4jnsgd1na2vs0mg"},{"bike_id":"c5b91b0a-5fc4-4165-b464-20e1a4c673fb","system_id":"levelo_inurba_marseille","lat":43.3235,"lon":5.36737,"is_reserved":false,"is_disabled":false,"rental_uris":{"android":"levelo://app?vid=c5b91b0a-5fc4-4165-b464-20e1a4c673fb","ios":"levelo://app?vid=c5b91b0a-5fc4-4165-b464-20e1a4c673fb"},"vehicle_type_id":"4","last_reported":1751703204,"current_range_meters":16400,"station_id":"ce4bhsh2rcd13ifvqi2g","pricing_plan_id":"cebpf4jnsgd1na2vs0mg"},{"bike_id":"134a6fd1-cb8b-4ade-a0c2-0b22bf7dca76","system_id":"levelo_inurba_marseille","lat":43.21195,"lon":5.350708,"is_reserved":false,"is_disabled":false,"rental_uris":{"android":"levelo://app?vid=134a6fd1-cb8b-4ade-a0c2-0b22bf7dca76","ios":"levelo://app?vid=134a6fd1-cb8b-4ade-a0c2-0b22bf7dca76"},"vehicle_type_id":"4","last_reported":1751703204,"current_range_meters":16400,"station_id":"st_cvj6sg6p6f1abm77japg","pricing_plan_id":"cebpf4jnsgd1na2vs0mg"},{"bike_id":"fe8ee84c-fdfc-40aa-a1c2-6e36409c0740","system_id":"levelo_inurba_marseille","lat":43.268177,"lon":5.390628,"is_reserved":false,"is_disabled":false,"rental_uris":{"android":"levelo://app?vid=fe8ee84c-fdfc-40aa-a1c2-6e36409c0740","ios":"levelo://app?vid=fe8ee84c-fdfc-40aa-a1c2-6e36409c0740"},"vehicle_type_id":"4","last_reported":1751703204,"current_range_meters":16800,"station_id":"","pricing_plan_id":"cebpf4jnsgd1na2vs0mg"},{"bike_id":"3fc62123-78f7-4bfd-9645-67a7412e0768","system_id":"levelo_inurba_marseille","lat":43.2573,"lon":5.41107,"is_reserved":false,"is_disabled":false,"rental_uris":{"android":"levelo://app?vid=3fc62123-78f7-4bfd-9645-67a7412e0768","ios":"levelo://app?vid=3fc62123-78f7-4bfd-9645-67a7412e0768"},"vehicle_type_id":"4","last_reported":1751703204,"current_range_meters":16800,"station_id":"","pricing_plan_id":"cebpf4jnsgd1na2vs0mg"},{"bike_id":"bb4a28ca-bcb8-4241-b0fb-7b24851d517f","system_id":"levelo_inurba_marseille","lat":43.21189,"lon":5.35068,"is_reserved":false,"is_disabled":false,"rental_uris":{"android":"levelo://app?vid=bb4a28ca-bcb8-4241-b0fb-7b24851d517f","ios":"levelo://app?vid=bb4a28ca-bcb8-4241-b0fb-7b24851d517f"},"vehicle_type_id":"4","last_reported":1751703204,"current_range_meters":16800,"station_id":"st_cvj6sg6p6f1abm77japg","pricing_plan_id":"cebpf4jnsgd1na2vs0mg"},{"bike_id":"8a42812b-a6a1-406d-afe6-f3a1f04badd8","system_id":"levelo_inurba_marseille","lat":43.308518,"lon":5.369993,"is_reserved":false,"is_disabled":false,"rental_uris":{"android":"levelo://app?vid=8a42812b-a6a1-406d-afe6-f3a1f04badd8","ios":"levelo://app?vid=8a42812b-a6a1-406d-afe6-f3a1f04badd8"},"vehicle_type_id":"4","last_reported":1751703204,"current_range_meters":17200,"station_id":"","pricing_plan_id":"cebpf4jnsgd1na2vs0mg"},{"bike_id":"856c776b-976c-4e7f-97c1-3dc27b8380dd","system_id":"levelo_inurba_marseille","lat":43.31625,"lon":5.38319,"is_reserved":false,"is_disabled":false,"rental_uris":{"android":"levelo://app?vid=856c776b-976c-4e7f-97c1-3dc27b8380dd","ios":"levelo://app?vid=856c776b-976c-4e7f-97c1-3dc27b8380dd"},"vehicle_type_id":"4","last_reported":1751703204,"current_range_meters":17200,"station_id":"","pricing_plan_id":"cebpf4jnsgd1na2vs0mg"},{"bike_id":"ccf7a193-bfcb-4cdd-8129-01166f6a08b8","system_id":"levelo_inurba_marseille","lat":43.24386,"lon":5.37061,"is_reserved":false,"is_disabled":false,"rental_uris":{"android":"levelo://app?vid=ccf7a193-bfcb-4cdd-8129-01166f6a08b8","ios":"levelo://app?vid=ccf7a193-bfcb-4cdd-8129-01166f6a08b8"},"vehicle_type_id":"4","last_reported":1751703204,"current_range_meters":17200,"station_id":"ce4bhhh2rcd13ifvqfk0","pricing_plan_id":"cebpf4jnsgd1na2vs0mg"},{"bike_id":"4722e57b-148c-4b07-97b3-c47e98a7ccbd","system_id":"levelo_inurba_marseille","lat":43.23175,"lon":5.39994,"is_reserved":false,"is_disabled":false,"rental_uris":{"android":"levelo://app?vid=4722e57b-148c-4b07-97b3-c47e98a7ccbd","ios":"levelo://app?vid=4722e57b-148c-4b07-97b3-c47e98a7ccbd"},"vehicle_type_id":"4","last_reported":1751703204,"current_range_meters":17200,"station_id":"ce4bhn12rcd13ifvqgqg","pricing_plan_id":"cebpf4jnsgd1na2vs0mg"},{"bike_id":"84303959-8cba-4981-9cd0-d7bbd107feff","system_id":"levelo_inurba_marseille","lat":43.30421,"lon":5.41274,"is_reserved":false,"is_disabled":false,"rental_uris":{"android":"levelo://app?vid=84303959-8cba-4981-9cd0-d7bbd107feff","ios":"levelo://app?vid=84303959-8cba-4981-9cd0-d7bbd107feff"},"vehicle_type_id":"4","last_reported":1751703204,"current_range_meters":17200,"station_id":"ce4bhop2rcd13ifvqh8g","pricing_plan_id":"cebpf4jnsgd1na2vs0mg"},{"bike_id":"7d7ca329-d013-418c-84c4-2b0666103eeb","system_id":"levelo_inurba_marseille","lat":43.29889,"lon":5.43651,"is_reserved":false,"is_disabled":false,"rental_uris":{"android":"levelo://app?vid=7d7ca329-d013-418c-84c4-2b0666103eeb","ios":"levelo://app?vid=7d7ca329-d013-418c-84c4-2b0666103eeb"},"vehicle_type_id":"4","last_reported":1751703204,"current_range_meters":17200,"station_id":"ce4bhpp2rcd13ifvqhfg","pricing_plan_id":"cebpf4jnsgd1na2vs0mg"},{"bike_id":"65649ce6-7f39-4a81-afab-6d8bea652e28","system_id":"levelo_inurba_marseille","lat":43.307423,"lon":5.424411,"is_reserved":false,"is_disabled":false,"rental_uris":{"android":"levelo://app?vid=65649ce6-7f39-4a81-afab-6d8bea652e28","ios":"levelo://app?vid=65649ce6-7f39-4a81-afab-6d8bea652e28"},"vehicle_type_id":"4","last_reported":1751703204,"current_range_meters":17200,"station_id":"st_cvj6ca6bvosntc0bfgr0","pricing_plan_id":"cebpf4jnsgd1na2vs0mg"},{"bike_id":"bf24b26e-7f51-4120-9a48-54c87edaa2f7","system_id":"levelo_inurba_marseille","lat":43.2119,"lon":5.35073,"is_reserved":false,"is_disabled":false,"rental_uris":{"android":"levelo://app?vid=bf24b26e-7f51-4120-9a48-54c87edaa2f7","ios":"levelo://app?vid=bf24b26e-7f51-4120-9a48-54c87edaa2f7"},"vehicle_type_id":"4","last_reported":1751703204,"current_range_meters":17200,"station_id":"st_cvj6sg6p6f1abm77japg","pricing_plan_id":"cebpf4jnsgd1na2vs0mg"},{"bike_id":"48057f90-5982-4c97-be57-3e49db721297","system_id":"levelo_inurba_marseille","lat":43.2894,"lon":5.39636,"is_reserved":false,"is_disabled":false,"rental_uris":{"android":"levelo://app?vid=48057f90-5982-4c97-be57-3e49db721297","ios":"levelo://app?vid=48057f90-5982-4c97-be57-3e49db721297"},"vehicle_type_id":"4","last_reported":1751703204,"current_range_meters":17600,"station_id":"ce4bh3h2rcd13ifvqdn0","pricing_plan_id":"cebpf4jnsgd1na2vs0mg"},{"bike_id":"5e4669bd-8536-4919-8da2-15409e182044","system_id":"levelo_inurba_marseille","lat":43.23144,"lon":5.43709,"is_reserved":false,"is_disabled":false,"rental_uris":{"android":"levelo://app?vid=5e4669bd-8536-4919-8da2-15409e182044","ios":"levelo://app?vid=5e4669bd-8536-4919-8da2-15409e182044"},"vehicle_type_id":"4","last_reported":1751703204,"current_range_meters":17600,"station_id":"ce4bhmp2rcd13ifvqgog","pricing_plan_id":"cebpf4jnsgd1na2vs0mg"},{"bike_id":"e449aa29-cae1-4432-9aec-dedc13360b20","system_id":"levelo_inurba_marseille","lat":43.211898,"lon":5.350749,"is_reserved":false,"is_disabled":false,"rental_uris":{"android":"levelo://app?vid=e449aa29-cae1-4432-9aec-dedc13360b20","ios":"levelo://app?vid=e449aa29-cae1-4432-9aec-dedc13360b20"},"vehicle_type_id":"4","last_reported":1751703204,"current_range_meters":17600,"station_id":"st_cvj6sg6p6f1abm77japg","pricing_plan_id":"cebpf4jnsgd1na2vs0mg"},{"bike_id":"a9d9aa16-9bb5-4368-9a27-936d03b15296","system_id":"levelo_inurba_marseille","lat":43.28099,"lon":5.37827,"is_reserved":false,"is_disabled":false,"rental_uris":{"android":"levelo://app?vid=a9d9aa16-9bb5-4368-9a27-936d03b15296","ios":"levelo://app?vid=a9d9aa16-9bb5-4368-9a27-936d03b15296"},"vehicle_type_id":"4","last_reported":1751703204,"current_range_meters":18000,"station_id":"ce4bha12rcd13ifvqee0","pricing_plan_id":"cebpf4jnsgd1na2vs0mg"},{"bike_id":"bc1c1e94-9d10-4c27-84b5-1769883b5e8e","system_id":"levelo_inurba_marseille","lat":43.23154,"lon":5.43713,"is_reserved":false,"is_disabled":false,"rental_uris":{"android":"levelo://app?vid=bc1c1e94-9d10-4c27-84b5-1769883b5e8e","ios":"levelo://app?vid=bc1c1e94-9d10-4c27-84b5-1769883b5e8e"},"vehicle_type_id":"4","last_reported":1751703204,"current_range_meters":18000,"station_id":"ce4bhmp2rcd13ifvqgog","pricing_plan_id":"cebpf4jnsgd1na2vs0mg"},{"bike_id":"f4014af3-6f05-416d-9154-ce76f684dda3","system_id":"levelo_inurba_marseille","lat":43.27489,"lon":5.42447,"is_reserved":false,"is_disabled":false,"rental_uris":{"android":"levelo://app?vid=f4014af3-6f05-416d-9154-ce76f684dda3","ios":"levelo://app?vid=f4014af3-6f05-416d-9154-ce76f684dda3"},"vehicle_type_id":"4","last_reported":1751703204,"current_range_meters":18000,"station_id":"ce4bhn92rcd13ifvqgrg","pricing_plan_id":"cebpf4jnsgd1na2vs0mg"},{"bike_id":"d5ef770d-9759-47e3-b3a5-7d2785ef76db","system_id":"levelo_inurba_marseille","lat":43.32942,"lon":5.39034,"is_reserved":false,"is_disabled":false,"rental_uris":{"android":"levelo://app?vid=d5ef770d-9759-47e3-b3a5-7d2785ef76db","ios":"levelo://app?vid=d5ef770d-9759-47e3-b3a5-7d2785ef76db"},"vehicle_type_id":"4","last_reported":1751703204,"current_range_meters":18800,"station_id":"","pricing_plan_id":"cebpf4jnsgd1na2vs0mg"},{"bike_id":"8b885149-cf7a-4df4-824d-7d686b7d76d4","system_id":"levelo_inurba_marseille","lat":43.28026,"lon":5.40877,"is_reserved":false,"is_disabled":false,"rental_uris":{"android":"levelo://app?vid=8b885149-cf7a-4df4-824d-7d686b7d76d4","ios":"levelo://app?vid=8b885149-cf7a-4df4-824d-7d686b7d76d4"},"vehicle_type_id":"4","last_reported":1751703204,"current_range_meters":18800,"station_id":"","pricing_plan_id":"cebpf4jnsgd1na2vs0mg"},{"bike_id":"a23a1071-9733-4768-bffb-e30ce20e534f","system_id":"levelo_inurba_marseille","lat":43.29578,"lon":5.37508,"is_reserved":false,"is_disabled":false,"rental_uris":{"android":"levelo://app?vid=a23a1071-9733-4768-bffb-e30ce20e534f","ios":"levelo://app?vid=a23a1071-9733-4768-bffb-e30ce20e534f"},"vehicle_type_id":"4","last_reported":1751703204,"current_range_meters":18800,"station_id":"ce4bgh92rcd13ifvqb50","pricing_plan_id":"cebpf4jnsgd1na2vs0mg"},{"bike_id":"aca10992-ef25-48c3-9d6d-514bf2e4351a","system_id":"levelo_inurba_marseille","lat":43.29969,"lon":5.38503,"is_reserved":false,"is_disabled":false,"rental_uris":{"android":"levelo://app?vid=aca10992-ef25-48c3-9d6d-514bf2e4351a","ios":"levelo://app?vid=aca10992-ef25-48c3-9d6d-514bf2e4351a"},"vehicle_type_id":"4","last_reported":1751703204,"current_range_meters":18800,"station_id":"ce4bgj92rcd13ifvqbd0","pricing_plan_id":"cebpf4jnsgd1na2vs0mg"},{"bike_id":"b0d71280-f0f4-45a0-8fe0-8eb72cb944ff","system_id":"levelo_inurba_marseille","lat":43.31127,"lon":5.37775,"is_reserved":false,"is_disabled":false,"rental_uris":{"android":"levelo://app?vid=b0d71280-f0f4-45a0-8fe0-8eb72cb944ff","ios":"levelo://app?vid=b0d71280-f0f4-45a0-8fe0-8eb72cb944ff"},"vehicle_type_id":"4","last_reported":1751703204,"current_range_meters":18800,"station_id":"ce4bgt92rcd13ifvqcg0","pricing_plan_id":"cebpf4jnsgd1na2vs0mg"},{"bike_id":"283fe0ed-0eb5-405b-8867-21111f85c3b1","system_id":"levelo_inurba_marseille","lat":43.31065,"lon":5.38345,"is_reserved":false,"is_disabled":false,"rental_uris":{"android":"levelo://app?vid=283fe0ed-0eb5-405b-8867-21111f85c3b1","ios":"levelo://app?vid=283fe0ed-0eb5-405b-8867-21111f85c3b1"},"vehicle_type_id":"4","last_reported":1751703204,"current_range_meters":18800,"station_id":"ce4bgv92rcd13ifvqcr0","pricing_plan_id":"cebpf4jnsgd1na2vs0mg"},{"bike_id":"2134036e-1c4c-46ec-9219-ae81108a86e9","system_id":"levelo_inurba_marseille","lat":43.26209,"lon":5.37437,"is_reserved":false,"is_disabled":false,"rental_uris":{"android":"levelo://app?vid=2134036e-1c4c-46ec-9219-ae81108a86e9","ios":"levelo://app?vid=2134036e-1c4c-46ec-9219-ae81108a86e9"},"vehicle_type_id":"4","last_reported":1751703204,"current_range_meters":18800,"station_id":"ce4bhgp2rcd13ifvqfc0","pricing_plan_id":"cebpf4jnsgd1na2vs0mg"},{"bike_id":"98aac28d-b860-4179-8d39-1798550d6dac","system_id":"levelo_inurba_marseille","lat":43.21192,"lon":5.3507,"is_reserved":false,"is_disabled":false,"rental_uris":{"android":"levelo://app?vid=98aac28d-b860-4179-8d39-1798550d6dac","ios":"levelo://app?vid=98aac28d-b860-4179-8d39-1798550d6dac"},"vehicle_type_id":"4","last_reported":1751703204,"current_range_meters":18800,"station_id":"st_cvj6sg6p6f1abm77japg","pricing_plan_id":"cebpf4jnsgd1na2vs0mg"},{"bike_id":"655a110d-474d-43b1-a203-d9e462e1a783","system_id":"levelo_inurba_marseille","lat":43.21181,"lon":5.3506,"is_reserved":false,"is_disabled":false,"rental_uris":{"android":"levelo://app?vid=655a110d-474d-43b1-a203-d9e462e1a783","ios":"levelo://app?vid=655a110d-474d-43b1-a203-d9e462e1a783"},"vehicle_type_id":"4","last_reported":1751703204,"current_range_meters":18800,"station_id":"st_cvj6sg6p6f1abm77japg","pricing_plan_id":"cebpf4jnsgd1na2vs0mg"},{"bike_id":"452e8211-4f44-45d0-814a-3e9e25b8c44e","system_id":"levelo_inurba_marseille","lat":43.21192,"lon":5.350734,"is_reserved":false,"is_disabled":false,"rental_uris":{"android":"levelo://app?vid=452e8211-4f44-45d0-814a-3e9e25b8c44e","ios":"levelo://app?vid=452e8211-4f44-45d0-814a-3e9e25b8c44e"},"vehicle_type_id":"4","last_reported":1751703204,"current_range_meters":18800,"station_id":"st_cvj6sg6p6f1abm77japg","pricing_plan_id":"cebpf4jnsgd1na2vs0mg"},{"bike_id":"0f7223ee-118a-4e7e-b9de-7d2675177506","system_id":"levelo_inurba_marseille","lat":43.305233,"lon":5.36518,"is_reserved":false,"is_disabled":false,"rental_uris":{"android":"levelo://app?vid=0f7223ee-118a-4e7e-b9de-7d2675177506","ios":"levelo://app?vid=0f7223ee-118a-4e7e-b9de-7d2675177506"},"vehicle_type_id":"4","last_reported":1751703204,"current_range_meters":19200,"station_id":"","pricing_plan_id":"cebpf4jnsgd1na2vs0mg"},{"bike_id":"ffa11a19-44d9-484d-ad64-7919ce1217ca","system_id":"levelo_inurba_marseille","lat":43.28353,"lon":5.38097,"is_reserved":false,"is_disabled":false,"rental_uris":{"android":"levelo://app?vid=ffa11a19-44d9-484d-ad64-7919ce1217ca","ios":"levelo://app?vid=ffa11a19-44d9-484d-ad64-7919ce1217ca"},"vehicle_type_id":"4","last_reported":1751703204,"current_range_meters":19200,"station_id":"ce4bh412rcd13ifvqdr0","pricing_plan_id":"cebpf4jnsgd1na2vs0mg"},{"bike_id":"30c5f82e-69a5-4464-95de-82bfcc1d606a","system_id":"levelo_inurba_marseille","lat":43.28617,"lon":5.35097,"is_reserved":false,"is_disabled":false,"rental_uris":{"android":"levelo://app?vid=30c5f82e-69a5-4464-95de-82bfcc1d606a","ios":"levelo://app?vid=30c5f82e-69a5-4464-95de-82bfcc1d606a"},"vehicle_type_id":"4","last_reported":1751703204,"current_range_meters":19200,"station_id":"ce4bhch2rcd13ifvqeug","pricing_plan_id":"cebpf4jnsgd1na2vs0mg"},{"bike_id":"dcf20e92-f381-494c-9040-27a039ba03ba","system_id":"levelo_inurba_marseille","lat":43.29944,"lon":5.36546,"is_reserved":false,"is_disabled":false,"rental_uris":{"android":"levelo://app?vid=dcf20e92-f381-494c-9040-27a039ba03ba","ios":"levelo://app?vid=dcf20e92-f381-494c-9040-27a039ba03ba"},"vehicle_type_id":"4","last_reported":1751703204,"current_range_meters":19600,"station_id":"ce4bgm92rcd13ifvqbr0","pricing_plan_id":"cebpf4jnsgd1na2vs0mg"},{"bike_id":"2a360dea-5ad2-42ee-b988-c6b3f55c6549","system_id":"levelo_inurba_marseille","lat":43.30803,"lon":5.38145,"is_reserved":false,"is_disabled":false,"rental_uris":{"android":"levelo://app?vid=2a360dea-5ad2-42ee-b988-c6b3f55c6549","ios":"levelo://app?vid=2a360dea-5ad2-42ee-b988-c6b3f55c6549"},"vehicle_type_id":"4","last_reported":1751703204,"current_range_meters":19600,"station_id":"ce4bgt12rcd13ifvqce0","pricing_plan_id":"cebpf4jnsgd1na2vs0mg"},{"bike_id":"ba02322b-42c6-4f39-aab9-cb5c29c99255","system_id":"levelo_inurba_marseille","lat":43.30108,"lon":5.39866,"is_reserved":false,"is_disabled":false,"rental_uris":{"android":"levelo://app?vid=ba02322b-42c6-4f39-aab9-cb5c29c99255","ios":"levelo://app?vid=ba02322b-42c6-4f39-aab9-cb5c29c99255"},"vehicle_type_id":"4","last_reported":1751703204,"current_range_meters":19600,"station_id":"ce4bh0h2rcd13ifvqd40","pricing_plan_id":"cebpf4jnsgd1na2vs0mg"},{"bike_id":"bd78926f-c263-45c5-82fd-50da9618859e","system_id":"levelo_inurba_marseille","lat":43.288489,"lon":5.39308,"is_reserved":false,"is_disabled":false,"rental_uris":{"android":"levelo://app?vid=bd78926f-c263-45c5-82fd-50da9618859e","ios":"levelo://app?vid=bd78926f-c263-45c5-82fd-50da9618859e"},"vehicle_type_id":"4","last_reported":1751703204,"current_range_meters":19600,"station_id":"ce4bh2p2rcd13ifvqdi0","pricing_plan_id":"cebpf4jnsgd1na2vs0mg"},{"bike_id":"576ade82-954f-4e11-95d3-631aaf619f93","system_id":"levelo_inurba_marseille","lat":43.28346,"lon":5.3811,"is_reserved":false,"is_disabled":false,"rental_uris":{"android":"levelo://app?vid=576ade82-954f-4e11-95d3-631aaf619f93","ios":"levelo://app?vid=576ade82-954f-4e11-95d3-631aaf619f93"},"vehicle_type_id":"4","last_reported":1751703204,"current_range_meters":19600,"station_id":"ce4bh412rcd13ifvqdr0","pricing_plan_id":"cebpf4jnsgd1na2vs0mg"},{"bike_id":"91ac7b32-4c9f-465d-a2ec-4a0aaa47063b","system_id":"levelo_inurba_marseille","lat":43.26208,"lon":5.37444,"is_reserved":false,"is_disabled":false,"rental_uris":{"android":"levelo://app?vid=91ac7b32-4c9f-465d-a2ec-4a0aaa47063b","ios":"levelo://app?vid=91ac7b32-4c9f-465d-a2ec-4a0aaa47063b"},"vehicle_type_id":"4","last_reported":1751703204,"current_range_meters":19600,"station_id":"ce4bhgp2rcd13ifvqfc0","pricing_plan_id":"cebpf4jnsgd1na2vs0mg"},{"bike_id":"c9cd5974-4aec-4dcc-867b-3729129e834c","system_id":"levelo_inurba_marseille","lat":43.23152,"lon":5.43724,"is_reserved":false,"is_disabled":false,"rental_uris":{"android":"levelo://app?vid=c9cd5974-4aec-4dcc-867b-3729129e834c","ios":"levelo://app?vid=c9cd5974-4aec-4dcc-867b-3729129e834c"},"vehicle_type_id":"4","last_reported":1751703204,"current_range_meters":19600,"station_id":"ce4bhmp2rcd13ifvqgog","pricing_plan_id":"cebpf4jnsgd1na2vs0mg"},{"bike_id":"8770c872-ca5b-4910-a2a2-0c981f90691e","system_id":"levelo_inurba_marseille","lat":43.304176,"lon":5.412814,"is_reserved":false,"is_disabled":false,"rental_uris":{"android":"levelo://app?vid=8770c872-ca5b-4910-a2a2-0c981f90691e","ios":"levelo://app?vid=8770c872-ca5b-4910-a2a2-0c981f90691e"},"vehicle_type_id":"4","last_reported":1751703204,"current_range_meters":19600,"station_id":"ce4bhop2rcd13ifvqh8g","pricing_plan_id":"cebpf4jnsgd1na2vs0mg"},{"bike_id":"09cb21a0-3997-440c-82b7-1c9d4bbfaeb7","system_id":"levelo_inurba_marseille","lat":43.330131,"lon":5.390416,"is_reserved":false,"is_disabled":false,"rental_uris":{"android":"levelo://app?vid=09cb21a0-3997-440c-82b7-1c9d4bbfaeb7","ios":"levelo://app?vid=09cb21a0-3997-440c-82b7-1c9d4bbfaeb7"},"vehicle_type_id":"4","last_reported":1751703204,"current_range_meters":19600,"station_id":"ce4bhr92rcd13ifvqhrg","pricing_plan_id":"cebpf4jnsgd1na2vs0mg"},{"bike_id":"30daf87a-5e7d-42b3-ac97-c9dfd23296b5","system_id":"levelo_inurba_marseille","lat":43.32494,"lon":5.36556,"is_reserved":false,"is_disabled":false,"rental_uris":{"android":"levelo://app?vid=30daf87a-5e7d-42b3-ac97-c9dfd23296b5","ios":"levelo://app?vid=30daf87a-5e7d-42b3-ac97-c9dfd23296b5"},"vehicle_type_id":"4","last_reported":1751703204,"current_range_meters":19600,"station_id":"ce4bhs12rcd13ifvqhvg","pricing_plan_id":"cebpf4jnsgd1na2vs0mg"},{"bike_id":"8bf0d992-d2a0-428e-940a-091ee9b7c2a4","system_id":"levelo_inurba_marseille","lat":43.21197,"lon":5.3506,"is_reserved":false,"is_disabled":false,"rental_uris":{"android":"levelo://app?vid=8bf0d992-d2a0-428e-940a-091ee9b7c2a4","ios":"levelo://app?vid=8bf0d992-d2a0-428e-940a-091ee9b7c2a4"},"vehicle_type_id":"4","last_reported":1751703204,"current_range_meters":19600,"station_id":"st_cvj6sg6p6f1abm77japg","pricing_plan_id":"cebpf4jnsgd1na2vs0mg"},{"bike_id":"bbf0e52f-c1d4-4830-a539-8fc4ab580923","system_id":"levelo_inurba_marseille","lat":43.23962,"lon":5.36624,"is_reserved":false,"is_disabled":false,"rental_uris":{"android":"levelo://app?vid=bbf0e52f-c1d4-4830-a539-8fc4ab580923","ios":"levelo://app?vid=bbf0e52f-c1d4-4830-a539-8fc4ab580923"},"vehicle_type_id":"4","last_reported":1751703204,"current_range_meters":20000,"station_id":"ce4bhi12rcd13ifvqfp0","pricing_plan_id":"cebpf4jnsgd1na2vs0mg"},{"bike_id":"84e1c2fa-2460-4466-8768-91aff3d7bbea","system_id":"levelo_inurba_marseille","lat":43.23153,"lon":5.43703,"is_reserved":false,"is_disabled":false,"rental_uris":{"android":"levelo://app?vid=84e1c2fa-2460-4466-8768-91aff3d7bbea","ios":"levelo://app?vid=84e1c2fa-2460-4466-8768-91aff3d7bbea"},"vehicle_type_id":"4","last_reported":1751703204,"current_range_meters":20000,"station_id":"ce4bhmp2rcd13ifvqgog","pricing_plan_id":"cebpf4jnsgd1na2vs0mg"},{"bike_id":"ed4e39d1-3e16-40d8-a89c-f536b7cba98a","system_id":"levelo_inurba_marseille","lat":43.295492,"lon":5.422827,"is_reserved":false,"is_disabled":false,"rental_uris":{"android":"levelo://app?vid=ed4e39d1-3e16-40d8-a89c-f536b7cba98a","ios":"levelo://app?vid=ed4e39d1-3e16-40d8-a89c-f536b7cba98a"},"vehicle_type_id":"4","last_reported":1751703204,"current_range_meters":20000,"station_id":"ce4bhph2rcd13ifvqhdg","pricing_plan_id":"cebpf4jnsgd1na2vs0mg"},{"bike_id":"2e9ecc0a-afc7-4316-ac0c-3ab173435e83","system_id":"levelo_inurba_marseille","lat":43.23194,"lon":5.35538,"is_reserved":false,"is_disabled":false,"rental_uris":{"android":"levelo://app?vid=2e9ecc0a-afc7-4316-ac0c-3ab173435e83","ios":"levelo://app?vid=2e9ecc0a-afc7-4316-ac0c-3ab173435e83"},"vehicle_type_id":"4","last_reported":1751703204,"current_range_meters":20000,"station_id":"ce4bhu92rcd13ifvqi70","pricing_plan_id":"cebpf4jnsgd1na2vs0mg"},{"bike_id":"19e6ae47-b78e-44e7-bb87-e1a69c82962e","system_id":"levelo_inurba_marseille","lat":43.286164,"lon":5.351039,"is_reserved":false,"is_disabled":false,"rental_uris":{"android":"levelo://app?vid=19e6ae47-b78e-44e7-bb87-e1a69c82962e","ios":"levelo://app?vid=19e6ae47-b78e-44e7-bb87-e1a69c82962e"},"vehicle_type_id":"4","last_reported":1751703204,"current_range_meters":20400,"station_id":"ce4bhbh2rcd13ifvqeqg","pricing_plan_id":"cebpf4jnsgd1na2vs0mg"},{"bike_id":"e75acb97-121e-479f-8ab7-bb15ce94228a","system_id":"levelo_inurba_marseille","lat":43.25495,"lon":5.37649,"is_reserved":false,"is_disabled":false,"rental_uris":{"android":"levelo://app?vid=e75acb97-121e-479f-8ab7-bb15ce94228a","ios":"levelo://app?vid=e75acb97-121e-479f-8ab7-bb15ce94228a"},"vehicle_type_id":"4","last_reported":1751703204,"current_range_meters":20400,"station_id":"ce4bhh12rcd13ifvqff0","pricing_plan_id":"cebpf4jnsgd1na2vs0mg"},{"bike_id":"572fd26e-43e4-471b-88d2-9075cdd54c0e","system_id":"levelo_inurba_marseille","lat":43.31112,"lon":5.37759,"is_reserved":false,"is_disabled":false,"rental_uris":{"android":"levelo://app?vid=572fd26e-43e4-471b-88d2-9075cdd54c0e","ios":"levelo://app?vid=572fd26e-43e4-471b-88d2-9075cdd54c0e"},"vehicle_type_id":"4","last_reported":1751703204,"current_range_meters":20800,"station_id":"ce4bgt92rcd13ifvqcg0","pricing_plan_id":"cebpf4jnsgd1na2vs0mg"},{"bike_id":"df4c69f6-9711-49d2-83d2-3d91f7bba0dd","system_id":"levelo_inurba_marseille","lat":43.30928,"lon":5.40144,"is_reserved":false,"is_disabled":false,"rental_uris":{"android":"levelo://app?vid=df4c69f6-9711-49d2-83d2-3d91f7bba0dd","ios":"levelo://app?vid=df4c69f6-9711-49d2-83d2-3d91f7bba0dd"},"vehicle_type_id":"4","last_reported":1751703204,"current_range_meters":20800,"station_id":"ce4bgvp2rcd13ifvqct0","pricing_plan_id":"cebpf4jnsgd1na2vs0mg"},{"bike_id":"27754c04-22a1-41a9-84be-e86b16c62490","system_id":"levelo_inurba_marseille","lat":43.28275,"lon":5.35059,"is_reserved":false,"is_disabled":false,"rental_uris":{"android":"levelo://app?vid=27754c04-22a1-41a9-84be-e86b16c62490","ios":"levelo://app?vid=27754c04-22a1-41a9-84be-e86b16c62490"},"vehicle_type_id":"4","last_reported":1751703204,"current_range_meters":20800,"station_id":"ce4bhbp2rcd13ifvqerg","pricing_plan_id":"cebpf4jnsgd1na2vs0mg"},{"bike_id":"b76d88a9-e9ba-4974-9987-401ff063a439","system_id":"levelo_inurba_marseille","lat":43.26198,"lon":5.37446,"is_reserved":false,"is_disabled":false,"rental_uris":{"android":"levelo://app?vid=b76d88a9-e9ba-4974-9987-401ff063a439","ios":"levelo://app?vid=b76d88a9-e9ba-4974-9987-401ff063a439"},"vehicle_type_id":"4","last_reported":1751703204,"current_range_meters":20800,"station_id":"ce4bhgp2rcd13ifvqfc0","pricing_plan_id":"cebpf4jnsgd1na2vs0mg"},{"bike_id":"64e60c13-71b7-41c7-b390-b1f0621a6112","system_id":"levelo_inurba_marseille","lat":43.24165,"lon":5.36393,"is_reserved":false,"is_disabled":false,"rental_uris":{"android":"levelo://app?vid=64e60c13-71b7-41c7-b390-b1f0621a6112","ios":"levelo://app?vid=64e60c13-71b7-41c7-b390-b1f0621a6112"},"vehicle_type_id":"4","last_reported":1751703204,"current_range_meters":20800,"station_id":"cpo36qri1sfpv3e86is0","pricing_plan_id":"cebpf4jnsgd1na2vs0mg"},{"bike_id":"80955d0f-8669-4c02-b90f-c6fe20790c37","system_id":"levelo_inurba_marseille","lat":43.23183,"lon":5.35052,"is_reserved":false,"is_disabled":false,"rental_uris":{"android":"levelo://app?vid=80955d0f-8669-4c02-b90f-c6fe20790c37","ios":"levelo://app?vid=80955d0f-8669-4c02-b90f-c6fe20790c37"},"vehicle_type_id":"4","last_reported":1751703204,"current_range_meters":21600,"station_id":"","pricing_plan_id":"cebpf4jnsgd1na2vs0mg"},{"bike_id":"3d863711-32d6-4184-997d-754d7661d0a0","system_id":"levelo_inurba_marseille","lat":43.31629,"lon":5.39974,"is_reserved":false,"is_disabled":false,"rental_uris":{"android":"levelo://app?vid=3d863711-32d6-4184-997d-754d7661d0a0","ios":"levelo://app?vid=3d863711-32d6-4184-997d-754d7661d0a0"},"vehicle_type_id":"4","last_reported":1751703204,"current_range_meters":21600,"station_id":"","pricing_plan_id":"cebpf4jnsgd1na2vs0mg"},{"bike_id":"3b22f952-d0bc-4c00-8fd3-7e27b88aea23","system_id":"levelo_inurba_marseille","lat":43.29659,"lon":5.36245,"is_reserved":false,"is_disabled":false,"rental_uris":{"android":"levelo://app?vid=3b22f952-d0bc-4c00-8fd3-7e27b88aea23","ios":"levelo://app?vid=3b22f952-d0bc-4c00-8fd3-7e27b88aea23"},"vehicle_type_id":"4","last_reported":1751703204,"current_range_meters":21600,"station_id":"","pricing_plan_id":"cebpf4jnsgd1na2vs0mg"},{"bike_id":"d5e038d7-f4d6-46c0-9f0d-fd4827bd10fd","system_id":"levelo_inurba_marseille","lat":43.29848,"lon":5.36254,"is_reserved":false,"is_disabled":false,"rental_uris":{"android":"levelo://app?vid=d5e038d7-f4d6-46c0-9f0d-fd4827bd10fd","ios":"levelo://app?vid=d5e038d7-f4d6-46c0-9f0d-fd4827bd10fd"},"vehicle_type_id":"4","last_reported":1751703204,"current_range_meters":21600,"station_id":"ce4bgpp2rcd13ifvqc3g","pricing_plan_id":"cebpf4jnsgd1na2vs0mg"},{"bike_id":"2abb2122-65c4-47c2-bb30-26796bb25c3a","system_id":"levelo_inurba_marseille","lat":43.29848,"lon":5.36289,"is_reserved":false,"is_disabled":false,"rental_uris":{"android":"levelo://app?vid=2abb2122-65c4-47c2-bb30-26796bb25c3a","ios":"levelo://app?vid=2abb2122-65c4-47c2-bb30-26796bb25c3a"},"vehicle_type_id":"4","last_reported":1751703204,"current_range_meters":21600,"station_id":"ce4bgpp2rcd13ifvqc3g","pricing_plan_id":"cebpf4jnsgd1na2vs0mg"},{"bike_id":"294c55ac-c8ae-4f49-bc9e-29d799a8277e","system_id":"levelo_inurba_marseille","lat":43.30533,"lon":5.3653,"is_reserved":false,"is_disabled":false,"rental_uris":{"android":"levelo://app?vid=294c55ac-c8ae-4f49-bc9e-29d799a8277e","ios":"levelo://app?vid=294c55ac-c8ae-4f49-bc9e-29d799a8277e"},"vehicle_type_id":"4","last_reported":1751703204,"current_range_meters":21600,"station_id":"ce4bgs12rcd13ifvqcag","pricing_plan_id":"cebpf4jnsgd1na2vs0mg"},{"bike_id":"f410f790-e5dc-4dce-8bf5-994d09550437","system_id":"levelo_inurba_marseille","lat":43.30775,"lon":5.37638,"is_reserved":false,"is_disabled":false,"rental_uris":{"android":"levelo://app?vid=f410f790-e5dc-4dce-8bf5-994d09550437","ios":"levelo://app?vid=f410f790-e5dc-4dce-8bf5-994d09550437"},"vehicle_type_id":"4","last_reported":1751703204,"current_range_meters":21600,"station_id":"ce4bgv92rcd13ifvqcq0","pricing_plan_id":"cebpf4jnsgd1na2vs0mg"},{"bike_id":"a3243349-e01a-4d9d-a8f8-f0f79ae35020","system_id":"levelo_inurba_marseille","lat":43.24999,"lon":5.38924,"is_reserved":false,"is_disabled":false,"rental_uris":{"android":"levelo://app?vid=a3243349-e01a-4d9d-a8f8-f0f79ae35020","ios":"levelo://app?vid=a3243349-e01a-4d9d-a8f8-f0f79ae35020"},"vehicle_type_id":"4","last_reported":1751703204,"current_range_meters":21600,"station_id":"ce4bhgp2rcd13ifvqfd0","pricing_plan_id":"cebpf4jnsgd1na2vs0mg"},{"bike_id":"d1f9d37d-b429-4583-912e-805cf3889e65","system_id":"levelo_inurba_marseille","lat":43.23192,"lon":5.35558,"is_reserved":false,"is_disabled":false,"rental_uris":{"android":"levelo://app?vid=d1f9d37d-b429-4583-912e-805cf3889e65","ios":"levelo://app?vid=d1f9d37d-b429-4583-912e-805cf3889e65"},"vehicle_type_id":"4","last_reported":1751703204,"current_range_meters":21600,"station_id":"ce4bhu92rcd13ifvqi70","pricing_plan_id":"cebpf4jnsgd1na2vs0mg"},{"bike_id":"b9d005d6-92de-4345-b7d4-b97d214edd45","system_id":"levelo_inurba_marseille","lat":43.29973,"lon":5.38492,"is_reserved":false,"is_disabled":false,"rental_uris":{"android":"levelo://app?vid=b9d005d6-92de-4345-b7d4-b97d214edd45","ios":"levelo://app?vid=b9d005d6-92de-4345-b7d4-b97d214edd45"},"vehicle_type_id":"4","last_reported":1751703204,"current_range_meters":22000,"station_id":"ce4bgj92rcd13ifvqbd0","pricing_plan_id":"cebpf4jnsgd1na2vs0mg"},{"bike_id":"a0455428-5643-4c31-97a7-d01bf071937a","system_id":"levelo_inurba_marseille","lat":43.317474,"lon":5.424049,"is_reserved":false,"is_disabled":false,"rental_uris":{"android":"levelo://app?vid=a0455428-5643-4c31-97a7-d01bf071937a","ios":"levelo://app?vid=a0455428-5643-4c31-97a7-d01bf071937a"},"vehicle_type_id":"4","last_reported":1751703204,"current_range_meters":22000,"station_id":"ce4bhp92rcd13ifvqhbg","pricing_plan_id":"cebpf4jnsgd1na2vs0mg"},{"bike_id":"cc77c888-9da2-42df-aab4-55bd18e3864f","system_id":"levelo_inurba_marseille","lat":43.2954,"lon":5.4227,"is_reserved":false,"is_disabled":false,"rental_uris":{"android":"levelo://app?vid=cc77c888-9da2-42df-aab4-55bd18e3864f","ios":"levelo://app?vid=cc77c888-9da2-42df-aab4-55bd18e3864f"},"vehicle_type_id":"4","last_reported":1751703204,"current_range_meters":22000,"station_id":"ce4bhph2rcd13ifvqhdg","pricing_plan_id":"cebpf4jnsgd1na2vs0mg"},{"bike_id":"7d666b31-deee-4eb2-859e-5467649be3d5","system_id":"levelo_inurba_marseille","lat":43.2861,"lon":5.37064,"is_reserved":false,"is_disabled":false,"rental_uris":{"android":"levelo://app?vid=7d666b31-deee-4eb2-859e-5467649be3d5","ios":"levelo://app?vid=7d666b31-deee-4eb2-859e-5467649be3d5"},"vehicle_type_id":"4","last_reported":1751703204,"current_range_meters":22000,"station_id":"ce4bht12rcd13ifvqi60","pricing_plan_id":"cebpf4jnsgd1na2vs0mg"},{"bike_id":"37f2becd-23f9-4f13-a711-38b8024eeec7","system_id":"levelo_inurba_marseille","lat":43.33768,"lon":5.37516,"is_reserved":false,"is_disabled":false,"rental_uris":{"android":"levelo://app?vid=37f2becd-23f9-4f13-a711-38b8024eeec7","ios":"levelo://app?vid=37f2becd-23f9-4f13-a711-38b8024eeec7"},"vehicle_type_id":"4","last_reported":1751703204,"current_range_meters":22400,"station_id":"","pricing_plan_id":"cebpf4jnsgd1na2vs0mg"},{"bike_id":"320e0afe-82ff-4a1c-8185-217bf4a1cf2a","system_id":"levelo_inurba_marseille","lat":43.298008,"lon":5.40416,"is_reserved":false,"is_disabled":false,"rental_uris":{"android":"levelo://app?vid=320e0afe-82ff-4a1c-8185-217bf4a1cf2a","ios":"levelo://app?vid=320e0afe-82ff-4a1c-8185-217bf4a1cf2a"},"vehicle_type_id":"4","last_reported":1751703204,"current_range_meters":22400,"station_id":"ce4bh112rcd13ifvqd90","pricing_plan_id":"cebpf4jnsgd1na2vs0mg"},{"bike_id":"53b7adb4-9943-4219-81a7-e47cb28d647a","system_id":"levelo_inurba_marseille","lat":43.297955,"lon":5.404082,"is_reserved":false,"is_disabled":false,"rental_uris":{"android":"levelo://app?vid=53b7adb4-9943-4219-81a7-e47cb28d647a","ios":"levelo://app?vid=53b7adb4-9943-4219-81a7-e47cb28d647a"},"vehicle_type_id":"4","last_reported":1751703204,"current_range_meters":22400,"station_id":"ce4bh112rcd13ifvqd90","pricing_plan_id":"cebpf4jnsgd1na2vs0mg"},{"bike_id":"49afcb95-ba52-4fea-bcd8-c14dce8c7f4d","system_id":"levelo_inurba_marseille","lat":43.29216,"lon":5.36051,"is_reserved":false,"is_disabled":false,"rental_uris":{"android":"levelo://app?vid=49afcb95-ba52-4fea-bcd8-c14dce8c7f4d","ios":"levelo://app?vid=49afcb95-ba52-4fea-bcd8-c14dce8c7f4d"},"vehicle_type_id":"4","last_reported":1751703204,"current_range_meters":22400,"station_id":"ce4bhbh2rcd13ifvqeqg","pricing_plan_id":"cebpf4jnsgd1na2vs0mg"},{"bike_id":"054d764b-72a9-4446-a144-e728f552d84d","system_id":"levelo_inurba_marseille","lat":43.28729,"lon":5.39973,"is_reserved":false,"is_disabled":false,"rental_uris":{"android":"levelo://app?vid=054d764b-72a9-4446-a144-e728f552d84d","ios":"levelo://app?vid=054d764b-72a9-4446-a144-e728f552d84d"},"vehicle_type_id":"4","last_reported":1751703204,"current_range_meters":22400,"station_id":"ce4bho92rcd13ifvqh3g","pricing_plan_id":"cebpf4jnsgd1na2vs0mg"},{"bike_id":"025ce75a-0f41-4ade-a418-0e6403595336","system_id":"levelo_inurba_marseille","lat":43.21197,"lon":5.35065,"is_reserved":false,"is_disabled":false,"rental_uris":{"android":"levelo://app?vid=025ce75a-0f41-4ade-a418-0e6403595336","ios":"levelo://app?vid=025ce75a-0f41-4ade-a418-0e6403595336"},"vehicle_type_id":"4","last_reported":1751703204,"current_range_meters":22400,"station_id":"st_cvj6sg6p6f1abm77japg","pricing_plan_id":"cebpf4jnsgd1na2vs0mg"},{"bike_id":"aef2da19-2977-4eaa-9a1d-cfd2b08ce3a1","system_id":"levelo_inurba_marseille","lat":43.2836,"lon":5.41851,"is_reserved":false,"is_disabled":false,"rental_uris":{"android":"levelo://app?vid=aef2da19-2977-4eaa-9a1d-cfd2b08ce3a1","ios":"levelo://app?vid=aef2da19-2977-4eaa-9a1d-cfd2b08ce3a1"},"vehicle_type_id":"4","last_reported":1751703204,"current_range_meters":22800,"station_id":"","pricing_plan_id":"cebpf4jnsgd1na2vs0mg"},{"bike_id":"b9a2d6aa-67f6-49b4-9fc4-9c98316b6617","system_id":"levelo_inurba_marseille","lat":43.232868,"lon":5.399641,"is_reserved":false,"is_disabled":false,"rental_uris":{"android":"levelo://app?vid=b9a2d6aa-67f6-49b4-9fc4-9c98316b6617","ios":"levelo://app?vid=b9a2d6aa-67f6-49b4-9fc4-9c98316b6617"},"vehicle_type_id":"4","last_reported":1751703204,"current_range_meters":22800,"station_id":"","pricing_plan_id":"cebpf4jnsgd1na2vs0mg"},{"bike_id":"00f33d51-43e9-496e-8f97-8329845d191b","system_id":"levelo_inurba_marseille","lat":43.29615,"lon":5.37726,"is_reserved":false,"is_disabled":false,"rental_uris":{"android":"levelo://app?vid=00f33d51-43e9-496e-8f97-8329845d191b","ios":"levelo://app?vid=00f33d51-43e9-496e-8f97-8329845d191b"},"vehicle_type_id":"4","last_reported":1751703204,"current_range_meters":22800,"station_id":"ce4bgi92rcd13ifvqb90","pricing_plan_id":"cebpf4jnsgd1na2vs0mg"},{"bike_id":"f8004ddf-0b70-4f68-8528-9c1d9382731f","system_id":"levelo_inurba_marseille","lat":43.29622,"lon":5.37154,"is_reserved":false,"is_disabled":false,"rental_uris":{"android":"levelo://app?vid=f8004ddf-0b70-4f68-8528-9c1d9382731f","ios":"levelo://app?vid=f8004ddf-0b70-4f68-8528-9c1d9382731f"},"vehicle_type_id":"4","last_reported":1751703204,"current_range_meters":22800,"station_id":"ce4bgnh2rcd13ifvqc0g","pricing_plan_id":"cebpf4jnsgd1na2vs0mg"},{"bike_id":"04c0160d-821f-42ff-8097-b563c3b54159","system_id":"levelo_inurba_marseille","lat":43.29588,"lon":5.36721,"is_reserved":false,"is_disabled":false,"rental_uris":{"android":"levelo://app?vid=04c0160d-821f-42ff-8097-b563c3b54159","ios":"levelo://app?vid=04c0160d-821f-42ff-8097-b563c3b54159"},"vehicle_type_id":"4","last_reported":1751703204,"current_range_meters":22800,"station_id":"ce4bgph2rcd13ifvqc2g","pricing_plan_id":"cebpf4jnsgd1na2vs0mg"},{"bike_id":"aafb8ce6-e3e9-4062-8cc4-aece91a6105d","system_id":"levelo_inurba_marseille","lat":43.31495,"lon":5.372926,"is_reserved":false,"is_disabled":false,"rental_uris":{"android":"levelo://app?vid=aafb8ce6-e3e9-4062-8cc4-aece91a6105d","ios":"levelo://app?vid=aafb8ce6-e3e9-4062-8cc4-aece91a6105d"},"vehicle_type_id":"4","last_reported":1751703204,"current_range_meters":22800,"station_id":"ce4bgt12rcd13ifvqcd0","pricing_plan_id":"cebpf4jnsgd1na2vs0mg"},{"bike_id":"d2bcc1cf-2af1-43c3-9223-1fe477e4c6fa","system_id":"levelo_inurba_marseille","lat":43.2955,"lon":5.4228,"is_reserved":false,"is_disabled":false,"rental_uris":{"android":"levelo://app?vid=d2bcc1cf-2af1-43c3-9223-1fe477e4c6fa","ios":"levelo://app?vid=d2bcc1cf-2af1-43c3-9223-1fe477e4c6fa"},"vehicle_type_id":"4","last_reported":1751703204,"current_range_meters":22800,"station_id":"ce4bhph2rcd13ifvqhdg","pricing_plan_id":"cebpf4jnsgd1na2vs0mg"},{"bike_id":"d0e04904-9db2-4424-bdc3-c864c216422c","system_id":"levelo_inurba_marseille","lat":43.2319,"lon":5.35557,"is_reserved":false,"is_disabled":false,"rental_uris":{"android":"levelo://app?vid=d0e04904-9db2-4424-bdc3-c864c216422c","ios":"levelo://app?vid=d0e04904-9db2-4424-bdc3-c864c216422c"},"vehicle_type_id":"4","last_reported":1751703204,"current_range_meters":22800,"station_id":"ce4bhu92rcd13ifvqi70","pricing_plan_id":"cebpf4jnsgd1na2vs0mg"},{"bike_id":"0624bf7c-bb04-494f-8229-419dbadc5069","system_id":"levelo_inurba_marseille","lat":43.24163,"lon":5.36396,"is_reserved":false,"is_disabled":false,"rental_uris":{"android":"levelo://app?vid=0624bf7c-bb04-494f-8229-419dbadc5069","ios":"levelo://app?vid=0624bf7c-bb04-494f-8229-419dbadc5069"},"vehicle_type_id":"4","last_reported":1751703204,"current_range_meters":22800,"station_id":"cpo36qri1sfpv3e86is0","pricing_plan_id":"cebpf4jnsgd1na2vs0mg"},{"bike_id":"e8d7fcf5-14a0-430b-a247-ddceafd06b95","system_id":"levelo_inurba_marseille","lat":43.225044,"lon":5.347791,"is_reserved":false,"is_disabled":false,"rental_uris":{"android":"levelo://app?vid=e8d7fcf5-14a0-430b-a247-ddceafd06b95","ios":"levelo://app?vid=e8d7fcf5-14a0-430b-a247-ddceafd06b95"},"vehicle_type_id":"4","last_reported":1751703204,"current_range_meters":22800,"station_id":"st_cvj5dfep6f1abm77gieg","pricing_plan_id":"cebpf4jnsgd1na2vs0mg"},{"bike_id":"d0f90c24-dd03-411b-9731-55305f76b7c8","system_id":"levelo_inurba_marseille","lat":43.21189,"lon":5.35064,"is_reserved":false,"is_disabled":false,"rental_uris":{"android":"levelo://app?vid=d0f90c24-dd03-411b-9731-55305f76b7c8","ios":"levelo://app?vid=d0f90c24-dd03-411b-9731-55305f76b7c8"},"vehicle_type_id":"4","last_reported":1751703204,"current_range_meters":22800,"station_id":"st_cvj6sg6p6f1abm77japg","pricing_plan_id":"cebpf4jnsgd1na2vs0mg"},{"bike_id":"fc8d246b-a1e9-4478-95d8-d88fde466a80","system_id":"levelo_inurba_marseille","lat":43.3054,"lon":5.38426,"is_reserved":false,"is_disabled":false,"rental_uris":{"android":"levelo://app?vid=fc8d246b-a1e9-4478-95d8-d88fde466a80","ios":"levelo://app?vid=fc8d246b-a1e9-4478-95d8-d88fde466a80"},"vehicle_type_id":"4","last_reported":1751703204,"current_range_meters":23200,"station_id":"ce4bgg92rcd13ifvqb30","pricing_plan_id":"cebpf4jnsgd1na2vs0mg"},{"bike_id":"bb7fa24f-5bee-4eb8-b1c5-90db0984c6dd","system_id":"levelo_inurba_marseille","lat":43.29845,"lon":5.36286,"is_reserved":false,"is_disabled":false,"rental_uris":{"android":"levelo://app?vid=bb7fa24f-5bee-4eb8-b1c5-90db0984c6dd","ios":"levelo://app?vid=bb7fa24f-5bee-4eb8-b1c5-90db0984c6dd"},"vehicle_type_id":"4","last_reported":1751703204,"current_range_meters":23200,"station_id":"ce4bgpp2rcd13ifvqc3g","pricing_plan_id":"cebpf4jnsgd1na2vs0mg"},{"bike_id":"0d77270e-f839-4b1e-969c-58bf11f3e32a","system_id":"levelo_inurba_marseille","lat":43.289975,"lon":5.356053,"is_reserved":false,"is_disabled":false,"rental_uris":{"android":"levelo://app?vid=0d77270e-f839-4b1e-969c-58bf11f3e32a","ios":"levelo://app?vid=0d77270e-f839-4b1e-969c-58bf11f3e32a"},"vehicle_type_id":"4","last_reported":1751703204,"current_range_meters":23200,"station_id":"ce4bhb92rcd13ifvqen0","pricing_plan_id":"cebpf4jnsgd1na2vs0mg"},{"bike_id":"e113175a-26c2-4709-bd2e-8b90ec8dd3ee","system_id":"levelo_inurba_marseille","lat":43.27497,"lon":5.42442,"is_reserved":false,"is_disabled":false,"rental_uris":{"android":"levelo://app?vid=e113175a-26c2-4709-bd2e-8b90ec8dd3ee","ios":"levelo://app?vid=e113175a-26c2-4709-bd2e-8b90ec8dd3ee"},"vehicle_type_id":"4","last_reported":1751703204,"current_range_meters":23200,"station_id":"ce4bhn92rcd13ifvqgrg","pricing_plan_id":"cebpf4jnsgd1na2vs0mg"},{"bike_id":"4d049d54-a43c-4e38-b4de-cff152aadef2","system_id":"levelo_inurba_marseille","lat":43.28148,"lon":5.426,"is_reserved":false,"is_disabled":false,"rental_uris":{"android":"levelo://app?vid=4d049d54-a43c-4e38-b4de-cff152aadef2","ios":"levelo://app?vid=4d049d54-a43c-4e38-b4de-cff152aadef2"},"vehicle_type_id":"4","last_reported":1751703204,"current_range_meters":23200,"station_id":"ce4bhnh2rcd13ifvqgug","pricing_plan_id":"cebpf4jnsgd1na2vs0mg"},{"bike_id":"b0b38266-1a66-4b37-8e7a-2448926918e0","system_id":"levelo_inurba_marseille","lat":43.23189,"lon":5.35542,"is_reserved":false,"is_disabled":false,"rental_uris":{"android":"levelo://app?vid=b0b38266-1a66-4b37-8e7a-2448926918e0","ios":"levelo://app?vid=b0b38266-1a66-4b37-8e7a-2448926918e0"},"vehicle_type_id":"4","last_reported":1751703204,"current_range_meters":23200,"station_id":"ce4bhu92rcd13ifvqi70","pricing_plan_id":"cebpf4jnsgd1na2vs0mg"},{"bike_id":"33b75f71-f19b-48ee-a4e1-de3315b93538","system_id":"levelo_inurba_marseille","lat":43.26803,"lon":5.40268,"is_reserved":false,"is_disabled":false,"rental_uris":{"android":"levelo://app?vid=33b75f71-f19b-48ee-a4e1-de3315b93538","ios":"levelo://app?vid=33b75f71-f19b-48ee-a4e1-de3315b93538"},"vehicle_type_id":"4","last_reported":1751703204,"current_range_meters":23200,"station_id":"ce501612rcd8frsf0b60","pricing_plan_id":"cebpf4jnsgd1na2vs0mg"},{"bike_id":"068b7fbf-9311-4d44-b3f8-4a3f0a5542cb","system_id":"levelo_inurba_marseille","lat":43.29576,"lon":5.36738,"is_reserved":false,"is_disabled":false,"rental_uris":{"android":"levelo://app?vid=068b7fbf-9311-4d44-b3f8-4a3f0a5542cb","ios":"levelo://app?vid=068b7fbf-9311-4d44-b3f8-4a3f0a5542cb"},"vehicle_type_id":"4","last_reported":1751703204,"current_range_meters":24000,"station_id":"ce4bgph2rcd13ifvqc2g","pricing_plan_id":"cebpf4jnsgd1na2vs0mg"},{"bike_id":"8fda7738-2997-4c9e-aa33-24995f62d353","system_id":"levelo_inurba_marseille","lat":43.298565,"lon":5.403801,"is_reserved":false,"is_disabled":false,"rental_uris":{"android":"levelo://app?vid=8fda7738-2997-4c9e-aa33-24995f62d353","ios":"levelo://app?vid=8fda7738-2997-4c9e-aa33-24995f62d353"},"vehicle_type_id":"4","last_reported":1751703204,"current_range_meters":24000,"station_id":"ce4bh112rcd13ifvqd90","pricing_plan_id":"cebpf4jnsgd1na2vs0mg"},{"bike_id":"f995b376-4d8f-489a-97cc-96191460a45d","system_id":"levelo_inurba_marseille","lat":43.3064,"lon":5.40075,"is_reserved":false,"is_disabled":false,"rental_uris":{"android":"levelo://app?vid=f995b376-4d8f-489a-97cc-96191460a45d","ios":"levelo://app?vid=f995b376-4d8f-489a-97cc-96191460a45d"},"vehicle_type_id":"4","last_reported":1751703204,"current_range_meters":24000,"station_id":"ce4bh112rcd13ifvqda0","pricing_plan_id":"cebpf4jnsgd1na2vs0mg"},{"bike_id":"099e734d-7037-4789-827b-61d4c73886c0","system_id":"levelo_inurba_marseille","lat":43.29206,"lon":5.35759,"is_reserved":false,"is_disabled":false,"rental_uris":{"android":"levelo://app?vid=099e734d-7037-4789-827b-61d4c73886c0","ios":"levelo://app?vid=099e734d-7037-4789-827b-61d4c73886c0"},"vehicle_type_id":"4","last_reported":1751703204,"current_range_meters":24000,"station_id":"ce4bhb12rcd13ifvqel0","pricing_plan_id":"cebpf4jnsgd1na2vs0mg"},{"bike_id":"5757ec47-d6bf-4d43-b1a3-6a4a56fdb979","system_id":"levelo_inurba_marseille","lat":43.26212,"lon":5.37442,"is_reserved":false,"is_disabled":false,"rental_uris":{"android":"levelo://app?vid=5757ec47-d6bf-4d43-b1a3-6a4a56fdb979","ios":"levelo://app?vid=5757ec47-d6bf-4d43-b1a3-6a4a56fdb979"},"vehicle_type_id":"4","last_reported":1751703204,"current_range_meters":24000,"station_id":"ce4bhgp2rcd13ifvqfc0","pricing_plan_id":"cebpf4jnsgd1na2vs0mg"},{"bike_id":"011d8ed3-b535-4e38-8d3b-fe7ee1f8589e","system_id":"levelo_inurba_marseille","lat":43.24395,"lon":5.3704,"is_reserved":false,"is_disabled":false,"rental_uris":{"android":"levelo://app?vid=011d8ed3-b535-4e38-8d3b-fe7ee1f8589e","ios":"levelo://app?vid=011d8ed3-b535-4e38-8d3b-fe7ee1f8589e"},"vehicle_type_id":"4","last_reported":1751703204,"current_range_meters":24000,"station_id":"ce4bhhh2rcd13ifvqfk0","pricing_plan_id":"cebpf4jnsgd1na2vs0mg"},{"bike_id":"881dd2bd-92cd-46ab-8c17-a171e08ed483","system_id":"levelo_inurba_marseille","lat":43.24379,"lon":5.37053,"is_reserved":false,"is_disabled":false,"rental_uris":{"android":"levelo://app?vid=881dd2bd-92cd-46ab-8c17-a171e08ed483","ios":"levelo://app?vid=881dd2bd-92cd-46ab-8c17-a171e08ed483"},"vehicle_type_id":"4","last_reported":1751703204,"current_range_meters":24000,"station_id":"ce4bhhh2rcd13ifvqfk0","pricing_plan_id":"cebpf4jnsgd1na2vs0mg"},{"bike_id":"c1a0df0d-3de9-49b6-b2d3-a3b1805a889f","system_id":"levelo_inurba_marseille","lat":43.246857,"lon":5.38142,"is_reserved":false,"is_disabled":false,"rental_uris":{"android":"levelo://app?vid=c1a0df0d-3de9-49b6-b2d3-a3b1805a889f","ios":"levelo://app?vid=c1a0df0d-3de9-49b6-b2d3-a3b1805a889f"},"vehicle_type_id":"4","last_reported":1751703204,"current_range_meters":24000,"station_id":"ce4bhih2rcd13ifvqfr0","pricing_plan_id":"cebpf4jnsgd1na2vs0mg"},{"bike_id":"a3c84d0e-d4b4-43b8-aea7-cbe432f184c3","system_id":"levelo_inurba_marseille","lat":43.23183,"lon":5.39976,"is_reserved":false,"is_disabled":false,"rental_uris":{"android":"levelo://app?vid=a3c84d0e-d4b4-43b8-aea7-cbe432f184c3","ios":"levelo://app?vid=a3c84d0e-d4b4-43b8-aea7-cbe432f184c3"},"vehicle_type_id":"4","last_reported":1751703204,"current_range_meters":24000,"station_id":"ce4bhn12rcd13ifvqgqg","pricing_plan_id":"cebpf4jnsgd1na2vs0mg"},{"bike_id":"01066fa9-5fee-4274-83ec-f1d5fb0b22af","system_id":"levelo_inurba_marseille","lat":43.31761,"lon":5.39012,"is_reserved":false,"is_disabled":false,"rental_uris":{"android":"levelo://app?vid=01066fa9-5fee-4274-83ec-f1d5fb0b22af","ios":"levelo://app?vid=01066fa9-5fee-4274-83ec-f1d5fb0b22af"},"vehicle_type_id":"4","last_reported":1751703204,"current_range_meters":24000,"station_id":"ce4bhqp2rcd13ifvqhng","pricing_plan_id":"cebpf4jnsgd1na2vs0mg"},{"bike_id":"d31a6c8a-5473-4cb4-abbc-7453dcf6808e","system_id":"levelo_inurba_marseille","lat":43.3372,"lon":5.39185,"is_reserved":false,"is_disabled":false,"rental_uris":{"android":"levelo://app?vid=d31a6c8a-5473-4cb4-abbc-7453dcf6808e","ios":"levelo://app?vid=d31a6c8a-5473-4cb4-abbc-7453dcf6808e"},"vehicle_type_id":"4","last_reported":1751703204,"current_range_meters":24000,"station_id":"ce4bhr92rcd13ifvqhsg","pricing_plan_id":"cebpf4jnsgd1na2vs0mg"},{"bike_id":"721165c1-ef6f-40cc-8d33-af3a7999864b","system_id":"levelo_inurba_marseille","lat":43.326298,"lon":5.378854,"is_reserved":false,"is_disabled":false,"rental_uris":{"android":"levelo://app?vid=721165c1-ef6f-40cc-8d33-af3a7999864b","ios":"levelo://app?vid=721165c1-ef6f-40cc-8d33-af3a7999864b"},"vehicle_type_id":"4","last_reported":1751703204,"current_range_meters":24400,"station_id":"","pricing_plan_id":"cebpf4jnsgd1na2vs0mg"},{"bike_id":"bfe706cf-f66a-4576-a0f5-d804e391ec09","system_id":"levelo_inurba_marseille","lat":43.30162,"lon":5.38072,"is_reserved":false,"is_disabled":false,"rental_uris":{"android":"levelo://app?vid=bfe706cf-f66a-4576-a0f5-d804e391ec09","ios":"levelo://app?vid=bfe706cf-f66a-4576-a0f5-d804e391ec09"},"vehicle_type_id":"4","last_reported":1751703204,"current_range_meters":24400,"station_id":"ce4bgjp2rcd13ifvqbh0","pricing_plan_id":"cebpf4jnsgd1na2vs0mg"},{"bike_id":"adafc90b-265f-4c02-956a-5a968618a1f3","system_id":"levelo_inurba_marseille","lat":43.30828,"lon":5.38156,"is_reserved":false,"is_disabled":false,"rental_uris":{"android":"levelo://app?vid=adafc90b-265f-4c02-956a-5a968618a1f3","ios":"levelo://app?vid=adafc90b-265f-4c02-956a-5a968618a1f3"},"vehicle_type_id":"4","last_reported":1751703204,"current_range_meters":24400,"station_id":"ce4bgt12rcd13ifvqce0","pricing_plan_id":"cebpf4jnsgd1na2vs0mg"},{"bike_id":"d82f3a35-697a-47a8-aec1-38393fdcc5d1","system_id":"levelo_inurba_marseille","lat":43.309326,"lon":5.40151,"is_reserved":false,"is_disabled":false,"rental_uris":{"android":"levelo://app?vid=d82f3a35-697a-47a8-aec1-38393fdcc5d1","ios":"levelo://app?vid=d82f3a35-697a-47a8-aec1-38393fdcc5d1"},"vehicle_type_id":"4","last_reported":1751703204,"current_range_meters":24400,"station_id":"ce4bgvp2rcd13ifvqct0","pricing_plan_id":"cebpf4jnsgd1na2vs0mg"},{"bike_id":"25095eb7-5c13-4e89-a28e-2e3c91b4b472","system_id":"levelo_inurba_marseille","lat":43.3128,"lon":5.40168,"is_reserved":false,"is_disabled":false,"rental_uris":{"android":"levelo://app?vid=25095eb7-5c13-4e89-a28e-2e3c91b4b472","ios":"levelo://app?vid=25095eb7-5c13-4e89-a28e-2e3c91b4b472"},"vehicle_type_id":"4","last_reported":1751703204,"current_range_meters":24400,"station_id":"ce4bh092rcd13ifvqd30","pricing_plan_id":"cebpf4jnsgd1na2vs0mg"},