{"last_updated":1750950674,"ttl":60,"version":"2.2","data":{"bikes":[{"bike_id":"3da29fb8-fc97-44c6-b9ac-31dd456b2fd4","system_id":"levelo_inurba_marseille","lat":43.33771,"lon":5.37424,"is_reserved":false,"is_disabled":true,"rental_uris":{"android":"levelo://app?vid=3da29fb8-fc97-44c6-b9ac-31dd456b2fd4","ios":"levelo://app?vid=3da29fb8-fc97-44c6-b9ac-31dd456b2fd4"},"vehicle_type_id":"4","last_reported":1750950674,"current_range_meters":0,"station_id":"","pricing_plan_id":"cebpf4jnsgd1na2vs0mg"},{"bike_id":"01861ad8-a8d7-4be6-816e-651927c87584","system_id":"levelo_inurba_marseille","lat":43.33751,"lon":5.37456,"is_reserved":false,"is_disabled":true,"rental_uris":{"android":"levelo://app?vid=01861ad8-a8d7-4be6-816e-651927c87584","ios":"levelo://app?vid=01861ad8-a8d7-4be6-816e-651927c87584"},"vehicle_type_id":"4","last_reported":1750950674,"current_range_meters":0,"station_id":"","pricing_plan_id":"cebpf4jnsgd1na2vs0mg"},{"bike_id":"a147e67d-e0b1-425e-bbda-ae9524df353e","system_id":"levelo_inurba_marseille","lat":43.337541,"lon":5.374577,"is_reserved":false,"is_disabled":true,"rental_uris":{"android":"levelo://app?vid=a147e67d-e0b1-425e-bbda-ae9524df353e","ios":"levelo://app?vid=a147e67d-e0b1-425e-bbda-ae9524df353e"},"vehicle_type_id":"4","last_reported":1750950674,"current_range_meters":0,"station_id":"","pricing_plan_id":"cebpf4jnsgd1na2vs0mg"},{"bike_id":"a7883090-0e10-4075-944b-a3cca54bc544","system_id":"levelo_inurba_marseille","lat":43.22502,"lon":5.34768,"is_reserved":false,"is_disabled":true,"rental_uris":{"android":"levelo://app?vid=a7883090-0e10-4075-944b-a3cca54bc544","ios":"levelo://app?vid=a7883090-0e10-4075-944b-a3cca54bc544"},"vehicle_type_id":"4","last_reported":1750950674,"current_range_meters":0,"station_id":"","pricing_plan_id":"cebpf4jnsgd1na2vs0mg"},{"bike_id":"be6544fb-6c1c-4292-b44a-7843b5c7fb9c","system_id":"levelo_inurba_marseille","lat":43.31663,"lon":5.4137,"is_reserved":false,"is_disabled":true,"rental_uris":{"android":"levelo://app?vid=be6544fb-6c1c-4292-b44a-7843b5c7fb9c","ios":"levelo://app?vid=be6544fb-6c1c-4292-b44a-7843b5c7fb9c"},"vehicle_type_id":"4","last_reported":1750950674,"current_range_meters":0,"station_id":"","pricing_plan_id":"cebpf4jnsgd1na2vs0mg"},{"bike_id":"4d064f95-6dcb-4234-9e98-7c70fbb74351","system_id":"levelo_inurba_marseille","lat":43.337444,"lon":5.374475,"is_reserved":false,"is_disabled":true,"rental_uris":{"android":"levelo://app?vid=4d064f95-6dcb-4234-9e98-7c70fbb74351","ios":"levelo://app?vid=4d064f95-6dcb-4234-9e98-7c70fbb74351"},"vehicle_type_id":"4","last_reported":1750950674,"current_range_meters":0,"station_id":"","pricing_plan_id":"cebpf4jnsgd1na2vs0mg"},{"bike_id":"06b961c7-f3ce-4c1c-a618-db74d23ebaea","system_id":"levelo_inurba_marseille","lat":43.288812,"lon":5.378642,"is_reserved":false,"is_disabled":true,"rental_uris":{"android":"levelo://app?vid=06b961c7-f3ce-4c1c-a618-db74d23ebaea","ios":"levelo://app?vid=06b961c7-f3ce-4c1c-a618-db74d23ebaea"},"vehicle_type_id":"4","last_reported":1750950674,"current_range_meters":0,"station_id":"","pricing_plan_id":"cebpf4jnsgd1na2vs0mg"},{"bike_id":"d6609b4f-333b-43c1-9ebe-8726f5e76e88","system_id":"levelo_inurba_marseille","lat":43.337444,"lon":5.374475,"is_reserved":false,"is_disabled":true,"rental_uris":{"android":"levelo://app?vid=d6609b4f-333b-43c1-9ebe-8726f5e76e88","ios":"levelo://app?vid=d6609b4f-333b-43c1-9ebe-8726f5e76e88"},"vehicle_type_id":"4","last_reported":1750950674,"current_range_meters":0,"station_id":"","pricing_plan_id":"cebpf4jnsgd1na2vs0mg"},{"bike_id":"14903f35-1eaf-4a5d-86c3-23007b361999","system_id":"levelo_inurba_marseille","lat":43.27064,"lon":5.42274,"is_reserved":false,"is_disabled":true,"rental_uris":{"android":"levelo://app?vid=14903f35-1eaf-4a5d-86c3-23007b361999","ios":"levelo://app?vid=14903f35-1eaf-4a5d-86c3-23007b361999"},"vehicle_type_id":"4","last_reported":1750950674,"current_range_meters":0,"station_id":"","pricing_plan_id":"cebpf4jnsgd1na2vs0mg"},{"bike_id":"3583f331-6c0b-49be-9913-9dde300034d9","system_id":"levelo_inurba_marseille","lat":43.24621,"lon":5.40207,"is_reserved":false,"is_disabled":true,"rental_uris":{"android":"levelo://app?vid=3583f331-6c0b-49be-9913-9dde300034d9","ios":"levelo://app?vid=3583f331-6c0b-49be-9913-9dde300034d9"},"vehicle_type_id":"4","last_reported":1750950674,"current_range_meters":0,"station_id":"","pricing_plan_id":"cebpf4jnsgd1na2vs0mg"},{"bike_id":"b17b6606-336a-4606-9b65-af139c49de26","system_id":"levelo_inurba_marseille","lat":43.2568,"lon":5.42685,"is_reserved":false,"is_disabled":true,"rental_uris":{"android":"levelo://app?vid=b17b6606-336a-4606-9b65-af139c49de26","ios":"levelo://app?vid=b17b6606-336a-4606-9b65-af139c49de26"},"vehicle_type_id":"4","last_reported":1750950674,"current_range_meters":0,"station_id":"","pricing_plan_id":"cebpf4jnsgd1na2vs0mg"},{"bike_id":"79bf4da0-05ec-4b61-b034-b3a8b163f2e8","system_id":"levelo_inurba_marseille","lat":43.3097,"lon":5.40787,"is_reserved":false,"is_disabled":true,"rental_uris":{"android":"levelo://app?vid=79bf4da0-05ec-4b61-b034-b3a8b163f2e8","ios":"levelo://app?vid=79bf4da0-05ec-4b61-b034-b3a8b163f2e8"},"vehicle_type_id":"4","last_reported":1750950674,"current_range_meters":0,"station_id":"","pricing_plan_id":"cebpf4jnsgd1na2vs0mg"},{"bike_id":"9d3724b1-0dc8-4689-9d6a-55005a9503cb","system_id":"levelo_inurba_marseille","lat":43.286273,"lon":5.42833,"is_reserved":false,"is_disabled":true,"rental_uris":{"android":"levelo://app?vid=9d3724b1-0dc8-4689-9d6a-55005a9503cb","ios":"levelo://app?vid=9d3724b1-0dc8-4689-9d6a-55005a9503cb"},"vehicle_type_id":"4","last_reported":1750950674,"current_range_meters":0,"station_id":"","pricing_plan_id":"cebpf4jnsgd1na2vs0mg"},{"bike_id":"d2efa476-5a17-4705-b8d6-6c781a6c2e2c","system_id":"levelo_inurba_marseille","lat":43.337444,"lon":5.374475,"is_reserved":false,"is_disabled":true,"rental_uris":{"android":"levelo://app?vid=d2efa476-5a17-4705-b8d6-6c781a6c2e2c","ios":"levelo://app?vid=d2efa476-5a17-4705-b8d6-6c781a6c2e2c"},"vehicle_type_id":"4","last_reported":1750950674,"current_range_meters":0,"station_id":"","pricing_plan_id":"cebpf4jnsgd1na2vs0mg"},{"bike_id":"61a43a1d-6446-4d83-9824-a5c42940af66","system_id":"levelo_inurba_marseille","lat":43.29988,"lon":5.38496,"is_reserved":false,"is_disabled":true,"rental_uris":{"android":"levelo://app?vid=61a43a1d-6446-4d83-9824-a5c42940af66","ios":"levelo://app?vid=61a43a1d-6446-4d83-9824-a5c42940af66"},"vehicle_type_id":"4","last_reported":1750950674,"current_range_meters":0,"station_id":"ce4bgj92rcd13ifvqbd0","pricing_plan_id":"cebpf4jnsgd1na2vs0mg"},{"bike_id":"1d8a9373-87a7-49db-adc2-528936e75177","system_id":"levelo_inurba_marseille","lat":43.30649,"lon":5.40096,"is_reserved":false,"is_disabled":true,"rental_uris":{"android":"levelo://app?vid=1d8a9373-87a7-49db-adc2-528936e75177","ios":"levelo://app?vid=1d8a9373-87a7-49db-adc2-528936e75177"},"vehicle_type_id":"4","last_reported":1750950674,"current_range_meters":0,"station_id":"ce4bh112rcd13ifvqda0","pricing_plan_id":"cebpf4jnsgd1na2vs0mg"},{"bike_id":"92ea2bc4-8a08-454b-ae00-89c6acd3bd5a","system_id":"levelo_inurba_marseille","lat":43.284884,"lon":5.384146,"is_reserved":false,"is_disabled":true,"rental_uris":{"android":"levelo://app?vid=92ea2bc4-8a08-454b-ae00-89c6acd3bd5a","ios":"levelo://app?vid=92ea2bc4-8a08-454b-ae00-89c6acd3bd5a"},"vehicle_type_id":"4","last_reported":1750950674,"current_range_meters":0,"station_id":"ce4bh412rcd13ifvqdr0","pricing_plan_id":"cebpf4jnsgd1na2vs0mg"},{"bike_id":"eaee27c6-1336-4cfe-9273-3004bc1cc785","system_id":"levelo_inurba_marseille","lat":43.29004,"lon":5.35618,"is_reserved":false,"is_disabled":true,"rental_uris":{"android":"levelo://app?vid=eaee27c6-1336-4cfe-9273-3004bc1cc785","ios":"levelo://app?vid=eaee27c6-1336-4cfe-9273-3004bc1cc785"},"vehicle_type_id":"4","last_reported":1750950674,"current_range_meters":0,"station_id":"ce4bhb92rcd13ifvqen0","pricing_plan_id":"cebpf4jnsgd1na2vs0mg"},{"bike_id":"551b96a3-a361-4c6a-b5a5-9735dbf1bb94","system_id":"levelo_inurba_marseille","lat":43.29226,"lon":5.36059,"is_reserved":false,"is_disabled":true,"rental_uris":{"android":"levelo://app?vid=551b96a3-a361-4c6a-b5a5-9735dbf1bb94","ios":"levelo://app?vid=551b96a3-a361-4c6a-b5a5-9735dbf1bb94"},"vehicle_type_id":"4","last_reported":1750950674,"current_range_meters":0,"station_id":"ce4bhbh2rcd13ifvqeqg","pricing_plan_id":"cebpf4jnsgd1na2vs0mg"},{"bike_id":"5442ff81-f5e3-47ed-872e-b947cd12775a","system_id":"levelo_inurba_marseille","lat":43.26553,"lon":5.37291,"is_reserved":false,"is_disabled":true,"rental_uris":{"android":"levelo://app?vid=5442ff81-f5e3-47ed-872e-b947cd12775a","ios":"levelo://app?vid=5442ff81-f5e3-47ed-872e-b947cd12775a"},"vehicle_type_id":"4","last_reported":1750950674,"current_range_meters":0,"station_id":"ce4bhg12rcd13ifvqf70","pricing_plan_id":"cebpf4jnsgd1na2vs0mg"},{"bike_id":"76d8dbbb-8390-4bc7-9dfd-e896e467ca7d","system_id":"levelo_inurba_marseille","lat":43.275281,"lon":5.384379,"is_reserved":false,"is_disabled":true,"rental_uris":{"android":"levelo://app?vid=76d8dbbb-8390-4bc7-9dfd-e896e467ca7d","ios":"levelo://app?vid=76d8dbbb-8390-4bc7-9dfd-e896e467ca7d"},"vehicle_type_id":"4","last_reported":1750950674,"current_range_meters":0,"station_id":"ce4bhh92rcd13ifvqfi0","pricing_plan_id":"cebpf4jnsgd1na2vs0mg"},{"bike_id":"01ad2112-1a6e-4e87-a406-3d7338c4ea8c","system_id":"levelo_inurba_marseille","lat":43.23154,"lon":5.43725,"is_reserved":false,"is_disabled":true,"rental_uris":{"android":"levelo://app?vid=01ad2112-1a6e-4e87-a406-3d7338c4ea8c","ios":"levelo://app?vid=01ad2112-1a6e-4e87-a406-3d7338c4ea8c"},"vehicle_type_id":"4","last_reported":1750950674,"current_range_meters":0,"station_id":"ce4bhmp2rcd13ifvqgog","pricing_plan_id":"cebpf4jnsgd1na2vs0mg"},{"bike_id":"8cd70bcf-ac68-4573-82f3-f2de58c6a162","system_id":"levelo_inurba_marseille","lat":43.231833,"lon":5.3999,"is_reserved":false,"is_disabled":true,"rental_uris":{"android":"levelo://app?vid=8cd70bcf-ac68-4573-82f3-f2de58c6a162","ios":"levelo://app?vid=8cd70bcf-ac68-4573-82f3-f2de58c6a162"},"vehicle_type_id":"4","last_reported":1750950674,"current_range_meters":0,"station_id":"ce4bhn12rcd13ifvqgqg","pricing_plan_id":"cebpf4jnsgd1na2vs0mg"},{"bike_id":"3f96b52d-e9fe-41f5-89e8-f487e766a984","system_id":"levelo_inurba_marseille","lat":43.31722,"lon":5.42409,"is_reserved":false,"is_disabled":true,"rental_uris":{"android":"levelo://app?vid=3f96b52d-e9fe-41f5-89e8-f487e766a984","ios":"levelo://app?vid=3f96b52d-e9fe-41f5-89e8-f487e766a984"},"vehicle_type_id":"4","last_reported":1750950674,"current_range_meters":0,"station_id":"ce4bhp92rcd13ifvqhbg","pricing_plan_id":"cebpf4jnsgd1na2vs0mg"},{"bike_id":"332ae6a6-158f-405b-85a5-76529195e56f","system_id":"levelo_inurba_marseille","lat":43.32047,"lon":5.41546,"is_reserved":false,"is_disabled":true,"rental_uris":{"android":"levelo://app?vid=332ae6a6-158f-405b-85a5-76529195e56f","ios":"levelo://app?vid=332ae6a6-158f-405b-85a5-76529195e56f"},"vehicle_type_id":"4","last_reported":1750950674,"current_range_meters":0,"station_id":"ce4bhq92rcd13ifvqhkg","pricing_plan_id":"cebpf4jnsgd1na2vs0mg"},{"bike_id":"916eb3c6-aec2-4e69-9b7e-0afef81e22a8","system_id":"levelo_inurba_marseille","lat":43.26801,"lon":5.40268,"is_reserved":false,"is_disabled":true,"rental_uris":{"android":"levelo://app?vid=916eb3c6-aec2-4e69-9b7e-0afef81e22a8","ios":"levelo://app?vid=916eb3c6-aec2-4e69-9b7e-0afef81e22a8"},"vehicle_type_id":"4","last_reported":1750950674,"current_range_meters":0,"station_id":"ce501612rcd8frsf0b60","pricing_plan_id":"cebpf4jnsgd1na2vs0mg"},{"bike_id":"97c751a0-181a-41fc-bb9d-d5964ec81854","system_id":"levelo_inurba_marseille","lat":43.24166,"lon":5.36391,"is_reserved":false,"is_disabled":true,"rental_uris":{"android":"levelo://app?vid=97c751a0-181a-41fc-bb9d-d5964ec81854","ios":"levelo://app?vid=97c751a0-181a-41fc-bb9d-d5964ec81854"},"vehicle_type_id":"4","last_reported":1750950674,"current_range_meters":0,"station_id":"cpo36qri1sfpv3e86is0","pricing_plan_id":"cebpf4jnsgd1na2vs0mg"},{"bike_id":"c83adf78-14ca-4a80-b94a-16ed5ff617f2","system_id":"levelo_inurba_marseille","lat":43.22518,"lon":5.34779,"is_reserved":false,"is_disabled":true,"rental_uris":{"android":"levelo://app?vid=c83adf78-14ca-4a80-b94a-16ed5ff617f2","ios":"levelo://app?vid=c83adf78-14ca-4a80-b94a-16ed5ff617f2"},"vehicle_type_id":"4","last_reported":1750950674,"current_range_meters":0,"station_id":"st_cvj5dfep6f1abm77gieg","pricing_plan_id":"cebpf4jnsgd1na2vs0mg"},{"bike_id":"014b4968-a0d4-46b4-a7f2-72118e0e4df0","system_id":"levelo_inurba_marseille","lat":43.30647,"lon":5.40104,"is_reserved":false,"is_disabled":true,"rental_uris":{"android":"levelo://app?vid=014b4968-a0d4-46b4-a7f2-72118e0e4df0","ios":"levelo://app?vid=014b4968-a0d4-46b4-a7f2-72118e0e4df0"},"vehicle_type_id":"4","last_reported":1750950674,"current_range_meters":400,"station_id":"ce4bh112rcd13ifvqda0","pricing_plan_id":"cebpf4jnsgd1na2vs0mg"},{"bike_id":"f1d6e8c5-ecae-4c6c-9772-21f860186be7","system_id":"levelo_inurba_marseille","lat":43.28459,"lon":5.3589,"is_reserved":false,"is_disabled":true,"rental_uris":{"android":"levelo://app?vid=f1d6e8c5-ecae-4c6c-9772-21f860186be7","ios":"levelo://app?vid=f1d6e8c5-ecae-4c6c-9772-21f860186be7"},"vehicle_type_id":"4","last_reported":1750950674,"current_range_meters":400,"station_id":"ce4bhah2rcd13ifvqei0","pricing_plan_id":"cebpf4jnsgd1na2vs0mg"},{"bike_id":"75b4dd3d-6c33-4cea-b284-21a35aac4b1f","system_id":"levelo_inurba_marseille","lat":43.294927,"lon":5.386487,"is_reserved":false,"is_disabled":true,"rental_uris":{"android":"levelo://app?vid=75b4dd3d-6c33-4cea-b284-21a35aac4b1f","ios":"levelo://app?vid=75b4dd3d-6c33-4cea-b284-21a35aac4b1f"},"vehicle_type_id":"4","last_reported":1750950674,"current_range_meters":800,"station_id":"","pricing_plan_id":"cebpf4jnsgd1na2vs0mg"},{"bike_id":"494d915e-3422-4793-bce6-1a1e1d171a61","system_id":"levelo_inurba_marseille","lat":43.295715,"lon":5.399735,"is_reserved":false,"is_disabled":true,"rental_uris":{"android":"levelo://app?vid=494d915e-3422-4793-bce6-1a1e1d171a61","ios":"levelo://app?vid=494d915e-3422-4793-bce6-1a1e1d171a61"},"vehicle_type_id":"4","last_reported":1750950674,"current_range_meters":800,"station_id":"ce4bh312rcd13ifvqdj0","pricing_plan_id":"cebpf4jnsgd1na2vs0mg"},{"bike_id":"abee4f27-2532-4b7d-b033-05df193ff8fd","system_id":"levelo_inurba_marseille","lat":43.28933,"lon":5.36396,"is_reserved":false,"is_disabled":true,"rental_uris":{"android":"levelo://app?vid=abee4f27-2532-4b7d-b033-05df193ff8fd","ios":"levelo://app?vid=abee4f27-2532-4b7d-b033-05df193ff8fd"},"vehicle_type_id":"4","last_reported":1750950674,"current_range_meters":800,"station_id":"ce4bhc92rcd13ifvqetg","pricing_plan_id":"cebpf4jnsgd1na2vs0mg"},{"bike_id":"63a24d5e-ac4c-4d13-976e-82697a5077cc","system_id":"levelo_inurba_marseille","lat":43.29905,"lon":5.43665,"is_reserved":false,"is_disabled":true,"rental_uris":{"android":"levelo://app?vid=63a24d5e-ac4c-4d13-976e-82697a5077cc","ios":"levelo://app?vid=63a24d5e-ac4c-4d13-976e-82697a5077cc"},"vehicle_type_id":"4","last_reported":1750950674,"current_range_meters":800,"station_id":"ce4bhpp2rcd13ifvqhfg","pricing_plan_id":"cebpf4jnsgd1na2vs0mg"},{"bike_id":"c0768e0b-12cf-47ec-b934-86a4994e85f7","system_id":"levelo_inurba_marseille","lat":43.26939,"lon":5.40249,"is_reserved":false,"is_disabled":true,"rental_uris":{"android":"levelo://app?vid=c0768e0b-12cf-47ec-b934-86a4994e85f7","ios":"levelo://app?vid=c0768e0b-12cf-47ec-b934-86a4994e85f7"},"vehicle_type_id":"4","last_reported":1750950674,"current_range_meters":800,"station_id":"cjm6bp8fraef2m0cb0m0","pricing_plan_id":"cebpf4jnsgd1na2vs0mg"},{"bike_id":"73c6faff-3c39-4cb7-b04a-8480435d33d7","system_id":"levelo_inurba_marseille","lat":43.29522,"lon":5.39037,"is_reserved":false,"is_disabled":true,"rental_uris":{"android":"levelo://app?vid=73c6faff-3c39-4cb7-b04a-8480435d33d7","ios":"levelo://app?vid=73c6faff-3c39-4cb7-b04a-8480435d33d7"},"vehicle_type_id":"4","last_reported":1750950674,"current_range_meters":1200,"station_id":"ce4bh3p2rcd13ifvqdp0","pricing_plan_id":"cebpf4jnsgd1na2vs0mg"},{"bike_id":"787badc9-bfdc-49a1-b9d6-6f0a92d3ff24","system_id":"levelo_inurba_marseille","lat":43.289872,"lon":5.381566,"is_reserved":false,"is_disabled":true,"rental_uris":{"android":"levelo://app?vid=787badc9-bfdc-49a1-b9d6-6f0a92d3ff24","ios":"levelo://app?vid=787badc9-bfdc-49a1-b9d6-6f0a92d3ff24"},"vehicle_type_id":"4","last_reported":1750950674,"current_range_meters":1200,"station_id":"ce4bh4p2rcd13ifvqe1g","pricing_plan_id":"cebpf4jnsgd1na2vs0mg"},{"bike_id":"2871007f-d002-4ff2-8b96-761803e3eccd","system_id":"levelo_inurba_marseille","lat":43.29028,"lon":5.37575,"is_reserved":false,"is_disabled":true,"rental_uris":{"android":"levelo://app?vid=2871007f-d002-4ff2-8b96-761803e3eccd","ios":"levelo://app?vid=2871007f-d002-4ff2-8b96-761803e3eccd"},"vehicle_type_id":"4","last_reported":1750950674,"current_range_meters":1200,"station_id":"ce4bh692rcd13ifvqe90","pricing_plan_id":"cebpf4jnsgd1na2vs0mg"},{"bike_id":"0b65d52d-6c8b-4ca4-affb-9c6b8929e934","system_id":"levelo_inurba_marseille","lat":43.28898,"lon":5.35822,"is_reserved":false,"is_disabled":true,"rental_uris":{"android":"levelo://app?vid=0b65d52d-6c8b-4ca4-affb-9c6b8929e934","ios":"levelo://app?vid=0b65d52d-6c8b-4ca4-affb-9c6b8929e934"},"vehicle_type_id":"4","last_reported":1750950674,"current_range_meters":1200,"station_id":"ce4bhb12rcd13ifvqem0","pricing_plan_id":"cebpf4jnsgd1na2vs0mg"},{"bike_id":"e62d9ffa-b6b9-4da0-bf3a-ce07ceda6976","system_id":"levelo_inurba_marseille","lat":43.286073,"lon":5.350984,"is_reserved":false,"is_disabled":true,"rental_uris":{"android":"levelo://app?vid=e62d9ffa-b6b9-4da0-bf3a-ce07ceda6976","ios":"levelo://app?vid=e62d9ffa-b6b9-4da0-bf3a-ce07ceda6976"},"vehicle_type_id":"4","last_reported":1750950674,"current_range_meters":1600,"station_id":"ce4bhch2rcd13ifvqeug","pricing_plan_id":"cebpf4jnsgd1na2vs0mg"},{"bike_id":"cde5aba1-3748-4aba-badd-15d3765973e7","system_id":"levelo_inurba_marseille","lat":43.303007,"lon":5.369153,"is_reserved":false,"is_disabled":true,"rental_uris":{"android":"levelo://app?vid=cde5aba1-3748-4aba-badd-15d3765973e7","ios":"levelo://app?vid=cde5aba1-3748-4aba-badd-15d3765973e7"},"vehicle_type_id":"4","last_reported":1750950674,"current_range_meters":2000,"station_id":"ce4bgqh2rcd13ifvqc5g","pricing_plan_id":"cebpf4jnsgd1na2vs0mg"},{"bike_id":"b0380ce7-65d0-43a3-867c-00deb7934d05","system_id":"levelo_inurba_marseille","lat":43.29099,"lon":5.38122,"is_reserved":false,"is_disabled":true,"rental_uris":{"android":"levelo://app?vid=b0380ce7-65d0-43a3-867c-00deb7934d05","ios":"levelo://app?vid=b0380ce7-65d0-43a3-867c-00deb7934d05"},"vehicle_type_id":"4","last_reported":1750950674,"current_range_meters":2000,"station_id":"ce4bh512rcd13ifvqe2g","pricing_plan_id":"cebpf4jnsgd1na2vs0mg"},{"bike_id":"612ae59f-bcbd-466a-95d1-748c7a6491a5","system_id":"levelo_inurba_marseille","lat":43.26498,"lon":5.39551,"is_reserved":false,"is_disabled":true,"rental_uris":{"android":"levelo://app?vid=612ae59f-bcbd-466a-95d1-748c7a6491a5","ios":"levelo://app?vid=612ae59f-bcbd-466a-95d1-748c7a6491a5"},"vehicle_type_id":"4","last_reported":1750950674,"current_range_meters":2000,"station_id":"ce4bhi12rcd13ifvqfq0","pricing_plan_id":"cebpf4jnsgd1na2vs0mg"},{"bike_id":"f55dc1fa-6f98-499d-a253-0ec6e7a8f4da","system_id":"levelo_inurba_marseille","lat":43.22928,"lon":5.35372,"is_reserved":false,"is_disabled":true,"rental_uris":{"android":"levelo://app?vid=f55dc1fa-6f98-499d-a253-0ec6e7a8f4da","ios":"levelo://app?vid=f55dc1fa-6f98-499d-a253-0ec6e7a8f4da"},"vehicle_type_id":"4","last_reported":1750950674,"current_range_meters":2000,"station_id":"cpo3532slgdg3j2ikp40","pricing_plan_id":"cebpf4jnsgd1na2vs0mg"},{"bike_id":"20130694-aae2-46e2-b05f-7880800f7cc4","system_id":"levelo_inurba_marseille","lat":43.29427,"lon":5.39758,"is_reserved":false,"is_disabled":false,"rental_uris":{"android":"levelo://app?vid=20130694-aae2-46e2-b05f-7880800f7cc4","ios":"levelo://app?vid=20130694-aae2-46e2-b05f-7880800f7cc4"},"vehicle_type_id":"4","last_reported":1750950674,"current_range_meters":2800,"station_id":"ce4bh3h2rcd13ifvqdo0","pricing_plan_id":"cebpf4jnsgd1na2vs0mg"},{"bike_id":"77c2b186-868a-4f71-ac4c-5323dd612cc0","system_id":"levelo_inurba_marseille","lat":43.30866,"lon":5.3721,"is_reserved":false,"is_disabled":false,"rental_uris":{"android":"levelo://app?vid=77c2b186-868a-4f71-ac4c-5323dd612cc0","ios":"levelo://app?vid=77c2b186-868a-4f71-ac4c-5323dd612cc0"},"vehicle_type_id":"4","last_reported":1750950674,"current_range_meters":3200,"station_id":"","pricing_plan_id":"cebpf4jnsgd1na2vs0mg"},{"bike_id":"66726186-3194-499f-8bc1-9bca3a8bd1c3","system_id":"levelo_inurba_marseille","lat":43.292943,"lon":5.372527,"is_reserved":false,"is_disabled":false,"rental_uris":{"android":"levelo://app?vid=66726186-3194-499f-8bc1-9bca3a8bd1c3","ios":"levelo://app?vid=66726186-3194-499f-8bc1-9bca3a8bd1c3"},"vehicle_type_id":"4","last_reported":1750950674,"current_range_meters":3200,"station_id":"ce4bgh92rcd13ifvqb40","pricing_plan_id":"cebpf4jnsgd1na2vs0mg"},{"bike_id":"7a4a215f-e0c2-46ac-b63d-05d1a5fcaa46","system_id":"levelo_inurba_marseille","lat":43.29603,"lon":5.37729,"is_reserved":false,"is_disabled":false,"rental_uris":{"android":"levelo://app?vid=7a4a215f-e0c2-46ac-b63d-05d1a5fcaa46","ios":"levelo://app?vid=7a4a215f-e0c2-46ac-b63d-05d1a5fcaa46"},"vehicle_type_id":"4","last_reported":1750950674,"current_range_meters":3200,"station_id":"ce4bgi92rcd13ifvqb90","pricing_plan_id":"cebpf4jnsgd1na2vs0mg"},{"bike_id":"bdb64025-2894-439d-adca-ba578ac0177d","system_id":"levelo_inurba_marseille","lat":43.28406,"lon":5.37516,"is_reserved":false,"is_disabled":false,"rental_uris":{"android":"levelo://app?vid=bdb64025-2894-439d-adca-ba578ac0177d","ios":"levelo://app?vid=bdb64025-2894-439d-adca-ba578ac0177d"},"vehicle_type_id":"4","last_reported":1750950674,"current_range_meters":3200,"station_id":"ce4bh412rcd13ifvqds0","pricing_plan_id":"cebpf4jnsgd1na2vs0mg"},{"bike_id":"2e7f882c-9cf6-4e97-9a0f-407526ed9392","system_id":"levelo_inurba_marseille","lat":43.28418,"lon":5.34975,"is_reserved":false,"is_disabled":false,"rental_uris":{"android":"levelo://app?vid=2e7f882c-9cf6-4e97-9a0f-407526ed9392","ios":"levelo://app?vid=2e7f882c-9cf6-4e97-9a0f-407526ed9392"},"vehicle_type_id":"4","last_reported":1750950674,"current_range_meters":3200,"station_id":"ce4bhbh2rcd13ifvqepg","pricing_plan_id":"cebpf4jnsgd1na2vs0mg"},{"bike_id":"53bf1665-2305-4376-b0c0-36676ee84042","system_id":"levelo_inurba_marseille","lat":43.30884,"lon":5.39633,"is_reserved":false,"is_disabled":false,"rental_uris":{"android":"levelo://app?vid=53bf1665-2305-4376-b0c0-36676ee84042","ios":"levelo://app?vid=53bf1665-2305-4376-b0c0-36676ee84042"},"vehicle_type_id":"4","last_reported":1750950674,"current_range_meters":3600,"station_id":"ce4bh012rcd13ifvqcv0","pricing_plan_id":"cebpf4jnsgd1na2vs0mg"},{"bike_id":"7108ddb9-8d23-4215-9762-4833f0449efc","system_id":"levelo_inurba_marseille","lat":43.32369,"lon":5.38884,"is_reserved":false,"is_disabled":false,"rental_uris":{"android":"levelo://app?vid=7108ddb9-8d23-4215-9762-4833f0449efc","ios":"levelo://app?vid=7108ddb9-8d23-4215-9762-4833f0449efc"},"vehicle_type_id":"4","last_reported":1750950674,"current_range_meters":3600,"station_id":"ce4bhqp2rcd13ifvqhog","pricing_plan_id":"cebpf4jnsgd1na2vs0mg"},{"bike_id":"afed9856-a6ea-4fcb-8d65-b305828efaab","system_id":"levelo_inurba_marseille","lat":43.29961,"lon":5.38488,"is_reserved":false,"is_disabled":false,"rental_uris":{"android":"levelo://app?vid=afed9856-a6ea-4fcb-8d65-b305828efaab","ios":"levelo://app?vid=afed9856-a6ea-4fcb-8d65-b305828efaab"},"vehicle_type_id":"4","last_reported":1750950674,"current_range_meters":4000,"station_id":"ce4bgj92rcd13ifvqbd0","pricing_plan_id":"cebpf4jnsgd1na2vs0mg"},{"bike_id":"9f7239f6-0328-40c0-96a1-ef155c21f7da","system_id":"levelo_inurba_marseille","lat":43.31169,"lon":5.38717,"is_reserved":false,"is_disabled":false,"rental_uris":{"android":"levelo://app?vid=9f7239f6-0328-40c0-96a1-ef155c21f7da","ios":"levelo://app?vid=9f7239f6-0328-40c0-96a1-ef155c21f7da"},"vehicle_type_id":"4","last_reported":1750950674,"current_range_meters":4000,"station_id":"ce4bgv12rcd13ifvqcp0","pricing_plan_id":"cebpf4jnsgd1na2vs0mg"},{"bike_id":"61e27d44-7723-4c9d-ba6c-7c97960d4e39","system_id":"levelo_inurba_marseille","lat":43.28154,"lon":5.42649,"is_reserved":false,"is_disabled":false,"rental_uris":{"android":"levelo://app?vid=61e27d44-7723-4c9d-ba6c-7c97960d4e39","ios":"levelo://app?vid=61e27d44-7723-4c9d-ba6c-7c97960d4e39"},"vehicle_type_id":"4","last_reported":1750950674,"current_range_meters":4000,"station_id":"ce4bhnh2rcd13ifvqgug","pricing_plan_id":"cebpf4jnsgd1na2vs0mg"},{"bike_id":"12d6bfa3-41d5-4c70-8c0c-1da1d9b732da","system_id":"levelo_inurba_marseille","lat":43.27942,"lon":5.41043,"is_reserved":false,"is_disabled":false,"rental_uris":{"android":"levelo://app?vid=12d6bfa3-41d5-4c70-8c0c-1da1d9b732da","ios":"levelo://app?vid=12d6bfa3-41d5-4c70-8c0c-1da1d9b732da"},"vehicle_type_id":"4","last_reported":1750950674,"current_range_meters":4000,"station_id":"ce4bhnp2rcd13ifvqh0g","pricing_plan_id":"cebpf4jnsgd1na2vs0mg"},{"bike_id":"76f70a90-3d64-4614-bcde-6d236d6a87ed","system_id":"levelo_inurba_marseille","lat":43.31732,"lon":5.39001,"is_reserved":false,"is_disabled":false,"rental_uris":{"android":"levelo://app?vid=76f70a90-3d64-4614-bcde-6d236d6a87ed","ios":"levelo://app?vid=76f70a90-3d64-4614-bcde-6d236d6a87ed"},"vehicle_type_id":"4","last_reported":1750950674,"current_range_meters":4000,"station_id":"ce4bhqp2rcd13ifvqhng","pricing_plan_id":"cebpf4jnsgd1na2vs0mg"},{"bike_id":"77a1c230-cdad-4fe2-8ee7-52f0b5ad7442","system_id":"levelo_inurba_marseille","lat":43.29703,"lon":5.38016,"is_reserved":false,"is_disabled":false,"rental_uris":{"android":"levelo://app?vid=77a1c230-cdad-4fe2-8ee7-52f0b5ad7442","ios":"levelo://app?vid=77a1c230-cdad-4fe2-8ee7-52f0b5ad7442"},"vehicle_type_id":"4","last_reported":1750950674,"current_range_meters":4400,"station_id":"","pricing_plan_id":"cebpf4jnsgd1na2vs0mg"},{"bike_id":"dbfb2b4d-f467-42b8-bdec-0c1e515fa89f","system_id":"levelo_inurba_marseille","lat":43.298934,"lon":5.436668,"is_reserved":false,"is_disabled":false,"rental_uris":{"android":"levelo://app?vid=dbfb2b4d-f467-42b8-bdec-0c1e515fa89f","ios":"levelo://app?vid=dbfb2b4d-f467-42b8-bdec-0c1e515fa89f"},"vehicle_type_id":"4","last_reported":1750950674,"current_range_meters":4800,"station_id":"ce4bhpp2rcd13ifvqhfg","pricing_plan_id":"cebpf4jnsgd1na2vs0mg"},{"bike_id":"67a5051a-b32e-408a-8389-c22b54eb81f6","system_id":"levelo_inurba_marseille","lat":43.33031,"lon":5.45582,"is_reserved":false,"is_disabled":false,"rental_uris":{"android":"levelo://app?vid=67a5051a-b32e-408a-8389-c22b54eb81f6","ios":"levelo://app?vid=67a5051a-b32e-408a-8389-c22b54eb81f6"},"vehicle_type_id":"4","last_reported":1750950674,"current_range_meters":5600,"station_id":"","pricing_plan_id":"cebpf4jnsgd1na2vs0mg"},{"bike_id":"efeb3c70-3319-46e5-a8c1-e29db37d8a29","system_id":"levelo_inurba_marseille","lat":43.31497,"lon":5.36707,"is_reserved":false,"is_disabled":false,"rental_uris":{"android":"levelo://app?vid=efeb3c70-3319-46e5-a8c1-e29db37d8a29","ios":"levelo://app?vid=efeb3c70-3319-46e5-a8c1-e29db37d8a29"},"vehicle_type_id":"4","last_reported":1750950674,"current_range_meters":5600,"station_id":"","pricing_plan_id":"cebpf4jnsgd1na2vs0mg"},{"bike_id":"d50570f7-e1bd-47e5-b400-77a93b65851a","system_id":"levelo_inurba_marseille","lat":43.31269,"lon":5.40164,"is_reserved":false,"is_disabled":false,"rental_uris":{"android":"levelo://app?vid=d50570f7-e1bd-47e5-b400-77a93b65851a","ios":"levelo://app?vid=d50570f7-e1bd-47e5-b400-77a93b65851a"},"vehicle_type_id":"4","last_reported":1750950674,"current_range_meters":5600,"station_id":"ce4bh092rcd13ifvqd30","pricing_plan_id":"cebpf4jnsgd1na2vs0mg"},{"bike_id":"8674d91d-56f7-4df3-bb44-16048be79605","system_id":"levelo_inurba_marseille","lat":43.24387,"lon":5.37067,"is_reserved":false,"is_disabled":false,"rental_uris":{"android":"levelo://app?vid=8674d91d-56f7-4df3-bb44-16048be79605","ios":"levelo://app?vid=8674d91d-56f7-4df3-bb44-16048be79605"},"vehicle_type_id":"4","last_reported":1750950674,"current_range_meters":5600,"station_id":"ce4bhhh2rcd13ifvqfk0","pricing_plan_id":"cebpf4jnsgd1na2vs0mg"},{"bike_id":"1c923b92-5ec6-44e9-9741-c8254acfd46f","system_id":"levelo_inurba_marseille","lat":43.25821,"lon":5.39436,"is_reserved":false,"is_disabled":false,"rental_uris":{"android":"levelo://app?vid=1c923b92-5ec6-44e9-9741-c8254acfd46f","ios":"levelo://app?vid=1c923b92-5ec6-44e9-9741-c8254acfd46f"},"vehicle_type_id":"4","last_reported":1750950674,"current_range_meters":5600,"station_id":"ce4bhip2rcd13ifvqft0","pricing_plan_id":"cebpf4jnsgd1na2vs0mg"},{"bike_id":"80f36b7d-0e66-48b0-9956-68b0ff6bd82d","system_id":"levelo_inurba_marseille","lat":43.28679,"lon":5.38669,"is_reserved":false,"is_disabled":false,"rental_uris":{"android":"levelo://app?vid=80f36b7d-0e66-48b0-9956-68b0ff6bd82d","ios":"levelo://app?vid=80f36b7d-0e66-48b0-9956-68b0ff6bd82d"},"vehicle_type_id":"4","last_reported":1750950674,"current_range_meters":6400,"station_id":"ce4bh492rcd13ifvqdug","pricing_plan_id":"cebpf4jnsgd1na2vs0mg"},{"bike_id":"1887e1c8-9f68-49ee-b6b9-3e8a8f34feac","system_id":"levelo_inurba_marseille","lat":43.279013,"lon":5.380146,"is_reserved":false,"is_disabled":false,"rental_uris":{"android":"levelo://app?vid=1887e1c8-9f68-49ee-b6b9-3e8a8f34feac","ios":"levelo://app?vid=1887e1c8-9f68-49ee-b6b9-3e8a8f34feac"},"vehicle_type_id":"4","last_reported":1750950674,"current_range_meters":6400,"station_id":"ce4bhf92rcd13ifvqf50","pricing_plan_id":"cebpf4jnsgd1na2vs0mg"},{"bike_id":"780fc8e9-f3b7-4620-9121-a0e686f6f124","system_id":"levelo_inurba_marseille","lat":43.31323,"lon":5.39712,"is_reserved":false,"is_disabled":false,"rental_uris":{"android":"levelo://app?vid=780fc8e9-f3b7-4620-9121-a0e686f6f124","ios":"levelo://app?vid=780fc8e9-f3b7-4620-9121-a0e686f6f124"},"vehicle_type_id":"4","last_reported":1750950674,"current_range_meters":6800,"station_id":"ce4bgvp2rcd13ifvqcu0","pricing_plan_id":"cebpf4jnsgd1na2vs0mg"},{"bike_id":"35b14479-4a4d-4383-83de-c7fea66894b3","system_id":"levelo_inurba_marseille","lat":43.29906,"lon":5.43677,"is_reserved":false,"is_disabled":false,"rental_uris":{"android":"levelo://app?vid=35b14479-4a4d-4383-83de-c7fea66894b3","ios":"levelo://app?vid=35b14479-4a4d-4383-83de-c7fea66894b3"},"vehicle_type_id":"4","last_reported":1750950674,"current_range_meters":6800,"station_id":"ce4bhpp2rcd13ifvqhfg","pricing_plan_id":"cebpf4jnsgd1na2vs0mg"},{"bike_id":"e0c60333-ba61-4fcf-b36c-972781f216a3","system_id":"levelo_inurba_marseille","lat":43.23976,"lon":5.36624,"is_reserved":false,"is_disabled":false,"rental_uris":{"android":"levelo://app?vid=e0c60333-ba61-4fcf-b36c-972781f216a3","ios":"levelo://app?vid=e0c60333-ba61-4fcf-b36c-972781f216a3"},"vehicle_type_id":"4","last_reported":1750950674,"current_range_meters":7200,"station_id":"ce4bhi12rcd13ifvqfp0","pricing_plan_id":"cebpf4jnsgd1na2vs0mg"},{"bike_id":"ea8e1fff-e288-43ad-8ed7-df045e2a6bad","system_id":"levelo_inurba_marseille","lat":43.28005,"lon":5.40016,"is_reserved":false,"is_disabled":false,"rental_uris":{"android":"levelo://app?vid=ea8e1fff-e288-43ad-8ed7-df045e2a6bad","ios":"levelo://app?vid=ea8e1fff-e288-43ad-8ed7-df045e2a6bad"},"vehicle_type_id":"4","last_reported":1750950674,"current_range_meters":7200,"station_id":"ce4bho92rcd13ifvqh4g","pricing_plan_id":"cebpf4jnsgd1na2vs0mg"},{"bike_id":"85aebb63-1277-49af-91e5-22f2d655e266","system_id":"levelo_inurba_marseille","lat":43.29898,"lon":5.43677,"is_reserved":false,"is_disabled":false,"rental_uris":{"android":"levelo://app?vid=85aebb63-1277-49af-91e5-22f2d655e266","ios":"levelo://app?vid=85aebb63-1277-49af-91e5-22f2d655e266"},"vehicle_type_id":"4","last_reported":1750950674,"current_range_meters":7200,"station_id":"ce4bhpp2rcd13ifvqhfg","pricing_plan_id":"cebpf4jnsgd1na2vs0mg"},{"bike_id":"263497f0-c286-4f74-8de4-232a29ed18ff","system_id":"levelo_inurba_marseille","lat":43.22936,"lon":5.35377,"is_reserved":false,"is_disabled":false,"rental_uris":{"android":"levelo://app?vid=263497f0-c286-4f74-8de4-232a29ed18ff","ios":"levelo://app?vid=263497f0-c286-4f74-8de4-232a29ed18ff"},"vehicle_type_id":"4","last_reported":1750950674,"current_range_meters":7200,"station_id":"cpo3532slgdg3j2ikp40","pricing_plan_id":"cebpf4jnsgd1na2vs0mg"},{"bike_id":"e31dc41a-74b1-4471-8bd1-334e677119d5","system_id":"levelo_inurba_marseille","lat":43.294327,"lon":5.433467,"is_reserved":false,"is_disabled":false,"rental_uris":{"android":"levelo://app?vid=e31dc41a-74b1-4471-8bd1-334e677119d5","ios":"levelo://app?vid=e31dc41a-74b1-4471-8bd1-334e677119d5"},"vehicle_type_id":"4","last_reported":1750950674,"current_range_meters":8000,"station_id":"","pricing_plan_id":"cebpf4jnsgd1na2vs0mg"},{"bike_id":"af112b62-19de-41d4-b8d7-e14d0172315d","system_id":"levelo_inurba_marseille","lat":43.32684,"lon":5.39275,"is_reserved":false,"is_disabled":false,"rental_uris":{"android":"levelo://app?vid=af112b62-19de-41d4-b8d7-e14d0172315d","ios":"levelo://app?vid=af112b62-19de-41d4-b8d7-e14d0172315d"},"vehicle_type_id":"4","last_reported":1750950674,"current_range_meters":8000,"station_id":"","pricing_plan_id":"cebpf4jnsgd1na2vs0mg"},{"bike_id":"4bbd42ea-1129-4fd4-bc45-09ece00f32e2","system_id":"levelo_inurba_marseille","lat":43.28397,"lon":5.35004,"is_reserved":false,"is_disabled":false,"rental_uris":{"android":"levelo://app?vid=4bbd42ea-1129-4fd4-bc45-09ece00f32e2","ios":"levelo://app?vid=4bbd42ea-1129-4fd4-bc45-09ece00f32e2"},"vehicle_type_id":"4","last_reported":1750950674,"current_range_meters":8000,"station_id":"ce4bhbh2rcd13ifvqepg","pricing_plan_id":"cebpf4jnsgd1na2vs0mg"},{"bike_id":"de816bd5-4ae0-4cac-86ff-4420f819eb27","system_id":"levelo_inurba_marseille","lat":43.240642,"lon":5.37732,"is_reserved":false,"is_disabled":false,"rental_uris":{"android":"levelo://app?vid=de816bd5-4ae0-4cac-86ff-4420f819eb27","ios":"levelo://app?vid=de816bd5-4ae0-4cac-86ff-4420f819eb27"},"vehicle_type_id":"4","last_reported":1750950674,"current_range_meters":8000,"station_id":"ce4bhnp2rcd13ifvqgvg","pricing_plan_id":"cebpf4jnsgd1na2vs0mg"},{"bike_id":"5eee8925-0941-460b-a942-18fcb70bac7c","system_id":"levelo_inurba_marseille","lat":43.2723,"lon":5.40028,"is_reserved":false,"is_disabled":false,"rental_uris":{"android":"levelo://app?vid=5eee8925-0941-460b-a942-18fcb70bac7c","ios":"levelo://app?vid=5eee8925-0941-460b-a942-18fcb70bac7c"},"vehicle_type_id":"4","last_reported":1750950674,"current_range_meters":8400,"station_id":"","pricing_plan_id":"cebpf4jnsgd1na2vs0mg"},{"bike_id":"26a14eba-87a9-47b8-9607-30bd0042d428","system_id":"levelo_inurba_marseille","lat":43.31472,"lon":5.39441,"is_reserved":false,"is_disabled":false,"rental_uris":{"android":"levelo://app?vid=26a14eba-87a9-47b8-9607-30bd0042d428","ios":"levelo://app?vid=26a14eba-87a9-47b8-9607-30bd0042d428"},"vehicle_type_id":"4","last_reported":1750950674,"current_range_meters":8400,"station_id":"","pricing_plan_id":"cebpf4jnsgd1na2vs0mg"},{"bike_id":"187b38b2-efb7-47cf-8b82-656b91088717","system_id":"levelo_inurba_marseille","lat":43.2851,"lon":5.36874,"is_reserved":false,"is_disabled":false,"rental_uris":{"android":"levelo://app?vid=187b38b2-efb7-47cf-8b82-656b91088717","ios":"levelo://app?vid=187b38b2-efb7-47cf-8b82-656b91088717"},"vehicle_type_id":"4","last_reported":1750950674,"current_range_meters":8400,"station_id":"","pricing_plan_id":"cebpf4jnsgd1na2vs0mg"},{"bike_id":"ef6dd36f-2cc5-4ac5-b17a-58032c728e14","system_id":"levelo_inurba_marseille","lat":43.301406,"lon":5.387819,"is_reserved":false,"is_disabled":false,"rental_uris":{"android":"levelo://app?vid=ef6dd36f-2cc5-4ac5-b17a-58032c728e14","ios":"levelo://app?vid=ef6dd36f-2cc5-4ac5-b17a-58032c728e14"},"vehicle_type_id":"4","last_reported":1750950674,"current_range_meters":8400,"station_id":"ce4bghh2rcd13ifvqb60","pricing_plan_id":"cebpf4jnsgd1na2vs0mg"},{"bike_id":"52f49230-b4b0-4be3-9963-55a5ceadc3ab","system_id":"levelo_inurba_marseille","lat":43.30796,"lon":5.43535,"is_reserved":false,"is_disabled":false,"rental_uris":{"android":"levelo://app?vid=52f49230-b4b0-4be3-9963-55a5ceadc3ab","ios":"levelo://app?vid=52f49230-b4b0-4be3-9963-55a5ceadc3ab"},"vehicle_type_id":"4","last_reported":1750950674,"current_range_meters":8400,"station_id":"ce4bhph2rcd13ifvqheg","pricing_plan_id":"cebpf4jnsgd1na2vs0mg"},{"bike_id":"9ce852fe-9449-4c16-b29b-642a7abdbbbf","system_id":"levelo_inurba_marseille","lat":43.27401,"lon":5.36199,"is_reserved":false,"is_disabled":false,"rental_uris":{"android":"levelo://app?vid=9ce852fe-9449-4c16-b29b-642a7abdbbbf","ios":"levelo://app?vid=9ce852fe-9449-4c16-b29b-642a7abdbbbf"},"vehicle_type_id":"4","last_reported":1750950674,"current_range_meters":8800,"station_id":"","pricing_plan_id":"cebpf4jnsgd1na2vs0mg"},{"bike_id":"8d7b1984-5e80-47e2-b62c-19e61ca62a1b","system_id":"levelo_inurba_marseille","lat":43.29791,"lon":5.40404,"is_reserved":false,"is_disabled":false,"rental_uris":{"android":"levelo://app?vid=8d7b1984-5e80-47e2-b62c-19e61ca62a1b","ios":"levelo://app?vid=8d7b1984-5e80-47e2-b62c-19e61ca62a1b"},"vehicle_type_id":"4","last_reported":1750950674,"current_range_meters":8800,"station_id":"ce4bh112rcd13ifvqd90","pricing_plan_id":"cebpf4jnsgd1na2vs0mg"},{"bike_id":"b045cd0f-169d-4341-84e0-a1ad3b5443a3","system_id":"levelo_inurba_marseille","lat":43.28628,"lon":5.35093,"is_reserved":false,"is_disabled":false,"rental_uris":{"android":"levelo://app?vid=b045cd0f-169d-4341-84e0-a1ad3b5443a3","ios":"levelo://app?vid=b045cd0f-169d-4341-84e0-a1ad3b5443a3"},"vehicle_type_id":"4","last_reported":1750950674,"current_range_meters":8800,"station_id":"ce4bhch2rcd13ifvqeug","pricing_plan_id":"cebpf4jnsgd1na2vs0mg"},{"bike_id":"1d9c6aa6-5deb-4e4d-8434-d4603c6ec7bd","system_id":"levelo_inurba_marseille","lat":43.23966,"lon":5.36623,"is_reserved":false,"is_disabled":false,"rental_uris":{"android":"levelo://app?vid=1d9c6aa6-5deb-4e4d-8434-d4603c6ec7bd","ios":"levelo://app?vid=1d9c6aa6-5deb-4e4d-8434-d4603c6ec7bd"},"vehicle_type_id":"4","last_reported":1750950674,"current_range_meters":8800,"station_id":"ce4bhi12rcd13ifvqfp0","pricing_plan_id":"cebpf4jnsgd1na2vs0mg"},{"bike_id":"7b20fbf7-7fbf-4de3-bd8f-0bd7e2f1d77f","system_id":"levelo_inurba_marseille","lat":43.29279,"lon":5.36847,"is_reserved":false,"is_disabled":false,"rental_uris":{"android":"levelo://app?vid=7b20fbf7-7fbf-4de3-bd8f-0bd7e2f1d77f","ios":"levelo://app?vid=7b20fbf7-7fbf-4de3-bd8f-0bd7e2f1d77f"},"vehicle_type_id":"4","last_reported":1750950674,"current_range_meters":9200,"station_id":"ce4bhbp2rcd13ifvqesg","pricing_plan_id":"cebpf4jnsgd1na2vs0mg"},{"bike_id":"5c741194-f622-4695-a15d-14837a758d87","system_id":"levelo_inurba_marseille","lat":43.28074,"lon":5.39657,"is_reserved":false,"is_disabled":false,"rental_uris":{"android":"levelo://app?vid=5c741194-f622-4695-a15d-14837a758d87","ios":"levelo://app?vid=5c741194-f622-4695-a15d-14837a758d87"},"vehicle_type_id":"4","last_reported":1750950674,"current_range_meters":9200,"station_id":"ce4bho12rcd13ifvqh2g","pricing_plan_id":"cebpf4jnsgd1na2vs0mg"},{"bike_id":"e2f5b300-4a63-4778-aada-c29a8a0ea1e8","system_id":"levelo_inurba_marseille","lat":43.32789,"lon":5.39176,"is_reserved":false,"is_disabled":false,"rental_uris":{"android":"levelo://app?vid=e2f5b300-4a63-4778-aada-c29a8a0ea1e8","ios":"levelo://app?vid=e2f5b300-4a63-4778-aada-c29a8a0ea1e8"},"vehicle_type_id":"4","last_reported":1750950674,"current_range_meters":9600,"station_id":"","pricing_plan_id":"cebpf4jnsgd1na2vs0mg"},{"bike_id":"4d6658f4-b84c-4066-af22-3348974d22c3","system_id":"levelo_inurba_marseille","lat":43.3111,"lon":5.37751,"is_reserved":false,"is_disabled":false,"rental_uris":{"android":"levelo://app?vid=4d6658f4-b84c-4066-af22-3348974d22c3","ios":"levelo://app?vid=4d6658f4-b84c-4066-af22-3348974d22c3"},"vehicle_type_id":"4","last_reported":1750950674,"current_range_meters":9600,"station_id":"ce4bgt92rcd13ifvqcg0","pricing_plan_id":"cebpf4jnsgd1na2vs0mg"},{"bike_id":"b1e5ccfc-0c7b-43b5-8830-bff084ec37d6","system_id":"levelo_inurba_marseille","lat":43.283828,"lon":5.349998,"is_reserved":false,"is_disabled":false,"rental_uris":{"android":"levelo://app?vid=b1e5ccfc-0c7b-43b5-8830-bff084ec37d6","ios":"levelo://app?vid=b1e5ccfc-0c7b-43b5-8830-bff084ec37d6"},"vehicle_type_id":"4","last_reported":1750950674,"current_range_meters":9600,"station_id":"ce4bhbh2rcd13ifvqepg","pricing_plan_id":"cebpf4jnsgd1na2vs0mg"},{"bike_id":"8af002cd-399c-402a-986b-a862aa12bc7e","system_id":"levelo_inurba_marseille","lat":43.282776,"lon":5.350766,"is_reserved":false,"is_disabled":false,"rental_uris":{"android":"levelo://app?vid=8af002cd-399c-402a-986b-a862aa12bc7e","ios":"levelo://app?vid=8af002cd-399c-402a-986b-a862aa12bc7e"},"vehicle_type_id":"4","last_reported":1750950674,"current_range_meters":9600,"station_id":"ce4bhbp2rcd13ifvqerg","pricing_plan_id":"cebpf4jnsgd1na2vs0mg"},{"bike_id":"b2f65b77-6c4d-463a-b12d-03ec0ed31397","system_id":"levelo_inurba_marseille","lat":43.21748,"lon":5.34603,"is_reserved":false,"is_disabled":false,"rental_uris":{"android":"levelo://app?vid=b2f65b77-6c4d-463a-b12d-03ec0ed31397","ios":"levelo://app?vid=b2f65b77-6c4d-463a-b12d-03ec0ed31397"},"vehicle_type_id":"4","last_reported":1750950674,"current_range_meters":9600,"station_id":"st_cvj6r9ubvosntc0bgbag","pricing_plan_id":"cebpf4jnsgd1na2vs0mg"},{"bike_id":"ca975740-45d9-40a0-bbd1-87567337002a","system_id":"levelo_inurba_marseille","lat":43.27412,"lon":5.36195,"is_reserved":false,"is_disabled":false,"rental_uris":{"android":"levelo://app?vid=ca975740-45d9-40a0-bbd1-87567337002a","ios":"levelo://app?vid=ca975740-45d9-40a0-bbd1-87567337002a"},"vehicle_type_id":"4","last_reported":1750950674,"current_range_meters":10000,"station_id":"","pricing_plan_id":"cebpf4jnsgd1na2vs0mg"},{"bike_id":"1e4387f7-6e76-419a-b97d-cdc2e0a90844","system_id":"levelo_inurba_marseille","lat":43.27304,"lon":5.39082,"is_reserved":false,"is_disabled":false,"rental_uris":{"android":"levelo://app?vid=1e4387f7-6e76-419a-b97d-cdc2e0a90844","ios":"levelo://app?vid=1e4387f7-6e76-419a-b97d-cdc2e0a90844"},"vehicle_type_id":"4","last_reported":1750950674,"current_range_meters":10000,"station_id":"ce4bhgp2rcd13ifvqfe0","pricing_plan_id":"cebpf4jnsgd1na2vs0mg"},{"bike_id":"1c04c8f2-65b5-4e43-830b-5b38714243f6","system_id":"levelo_inurba_marseille","lat":43.33595,"lon":5.41032,"is_reserved":false,"is_disabled":false,"rental_uris":{"android":"levelo://app?vid=1c04c8f2-65b5-4e43-830b-5b38714243f6","ios":"levelo://app?vid=1c04c8f2-65b5-4e43-830b-5b38714243f6"},"vehicle_type_id":"4","last_reported":1750950674,"current_range_meters":10000,"station_id":"ce4bhqh2rcd13ifvqhmg","pricing_plan_id":"cebpf4jnsgd1na2vs0mg"},{"bike_id":"f6ea66d9-a120-487c-a0ab-bdad67c4b5bb","system_id":"levelo_inurba_marseille","lat":43.21748,"lon":5.34604,"is_reserved":false,"is_disabled":false,"rental_uris":{"android":"levelo://app?vid=f6ea66d9-a120-487c-a0ab-bdad67c4b5bb","ios":"levelo://app?vid=f6ea66d9-a120-487c-a0ab-bdad67c4b5bb"},"vehicle_type_id":"4","last_reported":1750950674,"current_range_meters":10000,"station_id":"st_cvj6r9ubvosntc0bgbag","pricing_plan_id":"cebpf4jnsgd1na2vs0mg"},{"bike_id":"347bd77c-407a-4169-b3b2-fa77f9be4559","system_id":"levelo_inurba_marseille","lat":43.3093,"lon":5.36891,"is_reserved":false,"is_disabled":false,"rental_uris":{"android":"levelo://app?vid=347bd77c-407a-4169-b3b2-fa77f9be4559","ios":"levelo://app?vid=347bd77c-407a-4169-b3b2-fa77f9be4559"},"vehicle_type_id":"4","last_reported":1750950674,"current_range_meters":10800,"station_id":"ce4bgn92rcd13ifvqbvg","pricing_plan_id":"cebpf4jnsgd1na2vs0mg"},{"bike_id":"9495299e-2718-4c75-98c3-a8b2a7016fbe","system_id":"levelo_inurba_marseille","lat":43.30798,"lon":5.38161,"is_reserved":false,"is_disabled":false,"rental_uris":{"android":"levelo://app?vid=9495299e-2718-4c75-98c3-a8b2a7016fbe","ios":"levelo://app?vid=9495299e-2718-4c75-98c3-a8b2a7016fbe"},"vehicle_type_id":"4","last_reported":1750950674,"current_range_meters":10800,"station_id":"ce4bgt12rcd13ifvqce0","pricing_plan_id":"cebpf4jnsgd1na2vs0mg"},{"bike_id":"c62457bf-727e-486a-b221-beee912e9230","system_id":"levelo_inurba_marseille","lat":43.284255,"lon":5.349905,"is_reserved":false,"is_disabled":false,"rental_uris":{"android":"levelo://app?vid=c62457bf-727e-486a-b221-beee912e9230","ios":"levelo://app?vid=c62457bf-727e-486a-b221-beee912e9230"},"vehicle_type_id":"4","last_reported":1750950674,"current_range_meters":10800,"station_id":"ce4bhbh2rcd13ifvqepg","pricing_plan_id":"cebpf4jnsgd1na2vs0mg"},{"bike_id":"2c14137c-072a-41f0-be6a-794b418561be","system_id":"levelo_inurba_marseille","lat":43.267809,"lon":5.394208,"is_reserved":false,"is_disabled":false,"rental_uris":{"android":"levelo://app?vid=2c14137c-072a-41f0-be6a-794b418561be","ios":"levelo://app?vid=2c14137c-072a-41f0-be6a-794b418561be"},"vehicle_type_id":"4","last_reported":1750950674,"current_range_meters":10800,"station_id":"ce4bhh12rcd13ifvqfg0","pricing_plan_id":"cebpf4jnsgd1na2vs0mg"},{"bike_id":"def7bf6e-66a4-4890-a35c-872d2bc106dc","system_id":"levelo_inurba_marseille","lat":43.231602,"lon":5.437322,"is_reserved":false,"is_disabled":false,"rental_uris":{"android":"levelo://app?vid=def7bf6e-66a4-4890-a35c-872d2bc106dc","ios":"levelo://app?vid=def7bf6e-66a4-4890-a35c-872d2bc106dc"},"vehicle_type_id":"4","last_reported":1750950674,"current_range_meters":10800,"station_id":"ce4bhmp2rcd13ifvqgog","pricing_plan_id":"cebpf4jnsgd1na2vs0mg"},{"bike_id":"05fd4459-ea0b-4b03-8708-46771b93cbed","system_id":"levelo_inurba_marseille","lat":43.23163,"lon":5.43703,"is_reserved":false,"is_disabled":false,"rental_uris":{"android":"levelo://app?vid=05fd4459-ea0b-4b03-8708-46771b93cbed","ios":"levelo://app?vid=05fd4459-ea0b-4b03-8708-46771b93cbed"},"vehicle_type_id":"4","last_reported":1750950674,"current_range_meters":10800,"station_id":"ce4bhmp2rcd13ifvqgog","pricing_plan_id":"cebpf4jnsgd1na2vs0mg"},{"bike_id":"df4bba25-dd36-4536-8c58-eeafd0ad52fc","system_id":"levelo_inurba_marseille","lat":43.30802,"lon":5.43525,"is_reserved":false,"is_disabled":false,"rental_uris":{"android":"levelo://app?vid=df4bba25-dd36-4536-8c58-eeafd0ad52fc","ios":"levelo://app?vid=df4bba25-dd36-4536-8c58-eeafd0ad52fc"},"vehicle_type_id":"4","last_reported":1750950674,"current_range_meters":10800,"station_id":"ce4bhph2rcd13ifvqheg","pricing_plan_id":"cebpf4jnsgd1na2vs0mg"},{"bike_id":"a9d25cad-d480-4c75-aec5-3969f1a4e6c7","system_id":"levelo_inurba_marseille","lat":43.32944,"lon":5.39042,"is_reserved":false,"is_disabled":false,"rental_uris":{"android":"levelo://app?vid=a9d25cad-d480-4c75-aec5-3969f1a4e6c7","ios":"levelo://app?vid=a9d25cad-d480-4c75-aec5-3969f1a4e6c7"},"vehicle_type_id":"4","last_reported":1750950674,"current_range_meters":11200,"station_id":"","pricing_plan_id":"cebpf4jnsgd1na2vs0mg"},{"bike_id":"60a2bccc-20d3-46f0-b3e8-4c2ce7c48800","system_id":"levelo_inurba_marseille","lat":43.229248,"lon":5.353737,"is_reserved":false,"is_disabled":false,"rental_uris":{"android":"levelo://app?vid=60a2bccc-20d3-46f0-b3e8-4c2ce7c48800","ios":"levelo://app?vid=60a2bccc-20d3-46f0-b3e8-4c2ce7c48800"},"vehicle_type_id":"4","last_reported":1750950674,"current_range_meters":11200,"station_id":"","pricing_plan_id":"cebpf4jnsgd1na2vs0mg"},{"bike_id":"7e31d3d8-634d-4148-91b9-c985475605f1","system_id":"levelo_inurba_marseille","lat":43.31363,"lon":5.36717,"is_reserved":false,"is_disabled":false,"rental_uris":{"android":"levelo://app?vid=7e31d3d8-634d-4148-91b9-c985475605f1","ios":"levelo://app?vid=7e31d3d8-634d-4148-91b9-c985475605f1"},"vehicle_type_id":"4","last_reported":1750950674,"current_range_meters":11200,"station_id":"ce4bgr92rcd13ifvqc6g","pricing_plan_id":"cebpf4jnsgd1na2vs0mg"},{"bike_id":"d9297bcb-258f-4cc8-965a-128f8c5dbf4f","system_id":"levelo_inurba_marseille","lat":43.28621,"lon":5.35098,"is_reserved":false,"is_disabled":false,"rental_uris":{"android":"levelo://app?vid=d9297bcb-258f-4cc8-965a-128f8c5dbf4f","ios":"levelo://app?vid=d9297bcb-258f-4cc8-965a-128f8c5dbf4f"},"vehicle_type_id":"4","last_reported":1750950674,"current_range_meters":11200,"station_id":"ce4bhch2rcd13ifvqeug","pricing_plan_id":"cebpf4jnsgd1na2vs0mg"},{"bike_id":"9c6d5151-aa3e-4b80-804e-2a4a15ec81e5","system_id":"levelo_inurba_marseille","lat":43.31085,"lon":5.42432,"is_reserved":false,"is_disabled":false,"rental_uris":{"android":"levelo://app?vid=9c6d5151-aa3e-4b80-804e-2a4a15ec81e5","ios":"levelo://app?vid=9c6d5151-aa3e-4b80-804e-2a4a15ec81e5"},"vehicle_type_id":"4","last_reported":1750950674,"current_range_meters":11200,"station_id":"ce4bhp92rcd13ifvqhag","pricing_plan_id":"cebpf4jnsgd1na2vs0mg"},{"bike_id":"f47876d7-9c85-474e-92c5-7a242e08b67c","system_id":"levelo_inurba_marseille","lat":43.305627,"lon":5.375457,"is_reserved":false,"is_disabled":false,"rental_uris":{"android":"levelo://app?vid=f47876d7-9c85-474e-92c5-7a242e08b67c","ios":"levelo://app?vid=f47876d7-9c85-474e-92c5-7a242e08b67c"},"vehicle_type_id":"4","last_reported":1750950674,"current_range_meters":11600,"station_id":"","pricing_plan_id":"cebpf4jnsgd1na2vs0mg"},{"bike_id":"7104fbd0-e91a-49dd-ae81-3fc61c9e2085","system_id":"levelo_inurba_marseille","lat":43.30415,"lon":5.41285,"is_reserved":false,"is_disabled":false,"rental_uris":{"android":"levelo://app?vid=7104fbd0-e91a-49dd-ae81-3fc61c9e2085","ios":"levelo://app?vid=7104fbd0-e91a-49dd-ae81-3fc61c9e2085"},"vehicle_type_id":"4","last_reported":1750950674,"current_range_meters":11600,"station_id":"ce4bhop2rcd13ifvqh8g","pricing_plan_id":"cebpf4jnsgd1na2vs0mg"},{"bike_id":"add6291a-dee0-4030-8588-25617391e274","system_id":"levelo_inurba_marseille","lat":43.33602,"lon":5.41028,"is_reserved":false,"is_disabled":false,"rental_uris":{"android":"levelo://app?vid=add6291a-dee0-4030-8588-25617391e274","ios":"levelo://app?vid=add6291a-dee0-4030-8588-25617391e274"},"vehicle_type_id":"4","last_reported":1750950674,"current_range_meters":11600,"station_id":"ce4bhqh2rcd13ifvqhmg","pricing_plan_id":"cebpf4jnsgd1na2vs0mg"},{"bike_id":"fe1e536f-d26d-4693-b98d-b56ff09e03eb","system_id":"levelo_inurba_marseille","lat":43.323546,"lon":5.367507,"is_reserved":false,"is_disabled":false,"rental_uris":{"android":"levelo://app?vid=fe1e536f-d26d-4693-b98d-b56ff09e03eb","ios":"levelo://app?vid=fe1e536f-d26d-4693-b98d-b56ff09e03eb"},"vehicle_type_id":"4","last_reported":1750950674,"current_range_meters":11600,"station_id":"ce4bhsh2rcd13ifvqi2g","pricing_plan_id":"cebpf4jnsgd1na2vs0mg"},{"bike_id":"44d39d1b-4107-4e7c-8dd2-3885369ebaae","system_id":"levelo_inurba_marseille","lat":43.30528,"lon":5.36527,"is_reserved":false,"is_disabled":false,"rental_uris":{"android":"levelo://app?vid=44d39d1b-4107-4e7c-8dd2-3885369ebaae","ios":"levelo://app?vid=44d39d1b-4107-4e7c-8dd2-3885369ebaae"},"vehicle_type_id":"4","last_reported":1750950674,"current_range_meters":12000,"station_id":"ce4bgs12rcd13ifvqcag","pricing_plan_id":"cebpf4jnsgd1na2vs0mg"},{"bike_id":"2e58d1f0-5e65-435c-83e8-21cc66df018f","system_id":"levelo_inurba_marseille","lat":43.26027,"lon":5.3755,"is_reserved":false,"is_disabled":false,"rental_uris":{"android":"levelo://app?vid=2e58d1f0-5e65-435c-83e8-21cc66df018f","ios":"levelo://app?vid=2e58d1f0-5e65-435c-83e8-21cc66df018f"},"vehicle_type_id":"4","last_reported":1750950674,"current_range_meters":12000,"station_id":"ce4bhgh2rcd13ifvqfa0","pricing_plan_id":"cebpf4jnsgd1na2vs0mg"},{"bike_id":"de0f7c2b-5974-4035-a240-8ed367c0e3f3","system_id":"levelo_inurba_marseille","lat":43.31958,"lon":5.37623,"is_reserved":false,"is_disabled":false,"rental_uris":{"android":"levelo://app?vid=de0f7c2b-5974-4035-a240-8ed367c0e3f3","ios":"levelo://app?vid=de0f7c2b-5974-4035-a240-8ed367c0e3f3"},"vehicle_type_id":"4","last_reported":1750950674,"current_range_meters":12400,"station_id":"","pricing_plan_id":"cebpf4jnsgd1na2vs0mg"},{"bike_id":"c38baf72-5417-43bd-8ad2-9f781cc6b81b","system_id":"levelo_inurba_marseille","lat":43.29077,"lon":5.3845,"is_reserved":false,"is_disabled":false,"rental_uris":{"android":"levelo://app?vid=c38baf72-5417-43bd-8ad2-9f781cc6b81b","ios":"levelo://app?vid=c38baf72-5417-43bd-8ad2-9f781cc6b81b"},"vehicle_type_id":"4","last_reported":1750950674,"current_range_meters":12400,"station_id":"","pricing_plan_id":"cebpf4jnsgd1na2vs0mg"},{"bike_id":"5a2f6a10-dda8-473e-a622-37503f9e560d","system_id":"levelo_inurba_marseille","lat":43.30565,"lon":5.36555,"is_reserved":false,"is_disabled":false,"rental_uris":{"android":"levelo://app?vid=5a2f6a10-dda8-473e-a622-37503f9e560d","ios":"levelo://app?vid=5a2f6a10-dda8-473e-a622-37503f9e560d"},"vehicle_type_id":"4","last_reported":1750950674,"current_range_meters":12400,"station_id":"ce4bgs12rcd13ifvqcag","pricing_plan_id":"cebpf4jnsgd1na2vs0mg"},{"bike_id":"5d97ba86-e06d-4a4a-8b00-a18d8279549a","system_id":"levelo_inurba_marseille","lat":43.28432,"lon":5.34992,"is_reserved":false,"is_disabled":false,"rental_uris":{"android":"levelo://app?vid=5d97ba86-e06d-4a4a-8b00-a18d8279549a","ios":"levelo://app?vid=5d97ba86-e06d-4a4a-8b00-a18d8279549a"},"vehicle_type_id":"4","last_reported":1750950674,"current_range_meters":12400,"station_id":"ce4bhbh2rcd13ifvqepg","pricing_plan_id":"cebpf4jnsgd1na2vs0mg"},{"bike_id":"a99aa76c-faa4-4ff8-b7c1-d863d21c7cc4","system_id":"levelo_inurba_marseille","lat":43.28266,"lon":5.35063,"is_reserved":false,"is_disabled":false,"rental_uris":{"android":"levelo://app?vid=a99aa76c-faa4-4ff8-b7c1-d863d21c7cc4","ios":"levelo://app?vid=a99aa76c-faa4-4ff8-b7c1-d863d21c7cc4"},"vehicle_type_id":"4","last_reported":1750950674,"current_range_meters":12400,"station_id":"ce4bhbp2rcd13ifvqerg","pricing_plan_id":"cebpf4jnsgd1na2vs0mg"},{"bike_id":"41b435c3-06a9-4065-bf1a-6814ca0074c7","system_id":"levelo_inurba_marseille","lat":43.26576,"lon":5.37279,"is_reserved":false,"is_disabled":false,"rental_uris":{"android":"levelo://app?vid=41b435c3-06a9-4065-bf1a-6814ca0074c7","ios":"levelo://app?vid=41b435c3-06a9-4065-bf1a-6814ca0074c7"},"vehicle_type_id":"4","last_reported":1750950674,"current_range_meters":12400,"station_id":"ce4bhg12rcd13ifvqf70","pricing_plan_id":"cebpf4jnsgd1na2vs0mg"},{"bike_id":"fce33d1a-bdd4-48e6-9054-13e5b400ab54","system_id":"levelo_inurba_marseille","lat":43.23198,"lon":5.35549,"is_reserved":false,"is_disabled":false,"rental_uris":{"android":"levelo://app?vid=fce33d1a-bdd4-48e6-9054-13e5b400ab54","ios":"levelo://app?vid=fce33d1a-bdd4-48e6-9054-13e5b400ab54"},"vehicle_type_id":"4","last_reported":1750950674,"current_range_meters":12400,"station_id":"ce4bhu92rcd13ifvqi70","pricing_plan_id":"cebpf4jnsgd1na2vs0mg"},{"bike_id":"38f16f08-1410-4cdf-8f45-aec0b2666ce9","system_id":"levelo_inurba_marseille","lat":43.265392,"lon":5.390019,"is_reserved":false,"is_disabled":false,"rental_uris":{"android":"levelo://app?vid=38f16f08-1410-4cdf-8f45-aec0b2666ce9","ios":"levelo://app?vid=38f16f08-1410-4cdf-8f45-aec0b2666ce9"},"vehicle_type_id":"4","last_reported":1750950674,"current_range_meters":12800,"station_id":"ce4bgih2rcd13ifvqba0","pricing_plan_id":"cebpf4jnsgd1na2vs0mg"},{"bike_id":"4b9cc5dd-8dac-4135-bca9-a069e90430d7","system_id":"levelo_inurba_marseille","lat":43.30426,"lon":5.39754,"is_reserved":false,"is_disabled":false,"rental_uris":{"android":"levelo://app?vid=4b9cc5dd-8dac-4135-bca9-a069e90430d7","ios":"levelo://app?vid=4b9cc5dd-8dac-4135-bca9-a069e90430d7"},"vehicle_type_id":"4","last_reported":1750950674,"current_range_meters":12800,"station_id":"ce4bh092rcd13ifvqd20","pricing_plan_id":"cebpf4jnsgd1na2vs0mg"},{"bike_id":"33d0e68c-2e85-4265-82b6-62068b41b7b5","system_id":"levelo_inurba_marseille","lat":43.28355,"lon":5.38105,"is_reserved":false,"is_disabled":false,"rental_uris":{"android":"levelo://app?vid=33d0e68c-2e85-4265-82b6-62068b41b7b5","ios":"levelo://app?vid=33d0e68c-2e85-4265-82b6-62068b41b7b5"},"vehicle_type_id":"4","last_reported":1750950674,"current_range_meters":12800,"station_id":"ce4bh412rcd13ifvqdr0","pricing_plan_id":"cebpf4jnsgd1na2vs0mg"},{"bike_id":"20e862bb-3fc5-44c7-9d80-0e8bcceac300","system_id":"levelo_inurba_marseille","lat":43.28416,"lon":5.34986,"is_reserved":false,"is_disabled":false,"rental_uris":{"android":"levelo://app?vid=20e862bb-3fc5-44c7-9d80-0e8bcceac300","ios":"levelo://app?vid=20e862bb-3fc5-44c7-9d80-0e8bcceac300"},"vehicle_type_id":"4","last_reported":1750950674,"current_range_meters":12800,"station_id":"ce4bhbh2rcd13ifvqepg","pricing_plan_id":"cebpf4jnsgd1na2vs0mg"},{"bike_id":"e4536d2c-61da-440a-b6bf-b1fb4ecd2273","system_id":"levelo_inurba_marseille","lat":43.28263,"lon":5.35065,"is_reserved":false,"is_disabled":false,"rental_uris":{"android":"levelo://app?vid=e4536d2c-61da-440a-b6bf-b1fb4ecd2273","ios":"levelo://app?vid=e4536d2c-61da-440a-b6bf-b1fb4ecd2273"},"vehicle_type_id":"4","last_reported":1750950674,"current_range_meters":12800,"station_id":"ce4bhbp2rcd13ifvqerg","pricing_plan_id":"cebpf4jnsgd1na2vs0mg"},{"bike_id":"6dc764e1-82bc-401e-ab50-ed3241472990","system_id":"levelo_inurba_marseille","lat":43.25585,"lon":5.38246,"is_reserved":false,"is_disabled":false,"rental_uris":{"android":"levelo://app?vid=6dc764e1-82bc-401e-ab50-ed3241472990","ios":"levelo://app?vid=6dc764e1-82bc-401e-ab50-ed3241472990"},"vehicle_type_id":"4","last_reported":1750950674,"current_range_meters":12800,"station_id":"ce4bhih2rcd13ifvqfs0","pricing_plan_id":"cebpf4jnsgd1na2vs0mg"},{"bike_id":"62efc326-ffe8-4fe8-8ffb-201c49b5da90","system_id":"levelo_inurba_marseille","lat":43.2587,"lon":5.39894,"is_reserved":false,"is_disabled":false,"rental_uris":{"android":"levelo://app?vid=62efc326-ffe8-4fe8-8ffb-201c49b5da90","ios":"levelo://app?vid=62efc326-ffe8-4fe8-8ffb-201c49b5da90"},"vehicle_type_id":"4","last_reported":1750950674,"current_range_meters":12800,"station_id":"ce4bhl92rcd13ifvqghg","pricing_plan_id":"cebpf4jnsgd1na2vs0mg"},{"bike_id":"70a87e8b-7ad1-4bdf-b181-5e2fc38709cd","system_id":"levelo_inurba_marseille","lat":43.299,"lon":5.43677,"is_reserved":false,"is_disabled":false,"rental_uris":{"android":"levelo://app?vid=70a87e8b-7ad1-4bdf-b181-5e2fc38709cd","ios":"levelo://app?vid=70a87e8b-7ad1-4bdf-b181-5e2fc38709cd"},"vehicle_type_id":"4","last_reported":1750950674,"current_range_meters":12800,"station_id":"ce4bhpp2rcd13ifvqhfg","pricing_plan_id":"cebpf4jnsgd1na2vs0mg"},{"bike_id":"65bd15ea-7b24-4fa9-8fc8-d1d14e2f8ff4","system_id":"levelo_inurba_marseille","lat":43.2293,"lon":5.35376,"is_reserved":false,"is_disabled":false,"rental_uris":{"android":"levelo://app?vid=65bd15ea-7b24-4fa9-8fc8-d1d14e2f8ff4","ios":"levelo://app?vid=65bd15ea-7b24-4fa9-8fc8-d1d14e2f8ff4"},"vehicle_type_id":"4","last_reported":1750950674,"current_range_meters":12800,"station_id":"cpo3532slgdg3j2ikp40","pricing_plan_id":"cebpf4jnsgd1na2vs0mg"},{"bike_id":"9a1f0e7d-ca49-4ed3-b199-274ca3fc3afe","system_id":"levelo_inurba_marseille","lat":43.27621,"lon":5.36108,"is_reserved":false,"is_disabled":false,"rental_uris":{"android":"levelo://app?vid=9a1f0e7d-ca49-4ed3-b199-274ca3fc3afe","ios":"levelo://app?vid=9a1f0e7d-ca49-4ed3-b199-274ca3fc3afe"},"vehicle_type_id":"4","last_reported":1750950674,"current_range_meters":13600,"station_id":"ce4bgj92rcd13ifvqbe0","pricing_plan_id":"cebpf4jnsgd1na2vs0mg"},{"bike_id":"31345145-dd34-495c-a1ba-982616d9afcc","system_id":"levelo_inurba_marseille","lat":43.26497,"lon":5.3954,"is_reserved":false,"is_disabled":false,"rental_uris":{"android":"levelo://app?vid=31345145-dd34-495c-a1ba-982616d9afcc","ios":"levelo://app?vid=31345145-dd34-495c-a1ba-982616d9afcc"},"vehicle_type_id":"4","last_reported":1750950674,"current_range_meters":13600,"station_id":"ce4bhi12rcd13ifvqfq0","pricing_plan_id":"cebpf4jnsgd1na2vs0mg"},{"bike_id":"98179140-173e-4563-aedd-e7e82214edca","system_id":"levelo_inurba_marseille","lat":43.32365,"lon":5.36758,"is_reserved":false,"is_disabled":false,"rental_uris":{"android":"levelo://app?vid=98179140-173e-4563-aedd-e7e82214edca","ios":"levelo://app?vid=98179140-173e-4563-aedd-e7e82214edca"},"vehicle_type_id":"4","last_reported":1750950674,"current_range_meters":13600,"station_id":"ce4bhsh2rcd13ifvqi2g","pricing_plan_id":"cebpf4jnsgd1na2vs0mg"},{"bike_id":"4b8da722-ee9e-48a4-a5e5-3a8a10364708","system_id":"levelo_inurba_marseille","lat":43.31241,"lon":5.37807,"is_reserved":false,"is_disabled":false,"rental_uris":{"android":"levelo://app?vid=4b8da722-ee9e-48a4-a5e5-3a8a10364708","ios":"levelo://app?vid=4b8da722-ee9e-48a4-a5e5-3a8a10364708"},"vehicle_type_id":"4","last_reported":1750950674,"current_range_meters":14000,"station_id":"","pricing_plan_id":"cebpf4jnsgd1na2vs0mg"},{"bike_id":"b1bc10bb-6dc2-401a-955a-0d8f83b7c4d8","system_id":"levelo_inurba_marseille","lat":43.27378,"lon":5.36243,"is_reserved":false,"is_disabled":false,"rental_uris":{"android":"levelo://app?vid=b1bc10bb-6dc2-401a-955a-0d8f83b7c4d8","ios":"levelo://app?vid=b1bc10bb-6dc2-401a-955a-0d8f83b7c4d8"},"vehicle_type_id":"4","last_reported":1750950674,"current_range_meters":14000,"station_id":"ce4bhbh2rcd13ifvqeo0","pricing_plan_id":"cebpf4jnsgd1na2vs0mg"},{"bike_id":"89e582db-02b5-42e6-9872-fe8503117adf","system_id":"levelo_inurba_marseille","lat":43.27377,"lon":5.36258,"is_reserved":false,"is_disabled":false,"rental_uris":{"android":"levelo://app?vid=89e582db-02b5-42e6-9872-fe8503117adf","ios":"levelo://app?vid=89e582db-02b5-42e6-9872-fe8503117adf"},"vehicle_type_id":"4","last_reported":1750950674,"current_range_meters":14000,"station_id":"ce4bhbh2rcd13ifvqeo0","pricing_plan_id":"cebpf4jnsgd1na2vs0mg"},{"bike_id":"0433d07c-1684-4c8b-a727-7cbeba4c3cb1","system_id":"levelo_inurba_marseille","lat":43.28269,"lon":5.35071,"is_reserved":false,"is_disabled":false,"rental_uris":{"android":"levelo://app?vid=0433d07c-1684-4c8b-a727-7cbeba4c3cb1","ios":"levelo://app?vid=0433d07c-1684-4c8b-a727-7cbeba4c3cb1"},"vehicle_type_id":"4","last_reported":1750950674,"current_range_meters":14000,"station_id":"ce4bhbp2rcd13ifvqerg","pricing_plan_id":"cebpf4jnsgd1na2vs0mg"},{"bike_id":"1da34efb-8ed8-4ec9-9b0f-5e4f9d0e2e52","system_id":"levelo_inurba_marseille","lat":43.27919,"lon":5.39578,"is_reserved":false,"is_disabled":false,"rental_uris":{"android":"levelo://app?vid=1da34efb-8ed8-4ec9-9b0f-5e4f9d0e2e52","ios":"levelo://app?vid=1da34efb-8ed8-4ec9-9b0f-5e4f9d0e2e52"},"vehicle_type_id":"4","last_reported":1750950674,"current_range_meters":14000,"station_id":"ce4bhf92rcd13ifvqf40","pricing_plan_id":"cebpf4jnsgd1na2vs0mg"},{"bike_id":"c394188f-0192-4bd1-a9ce-d3aa40ec049d","system_id":"levelo_inurba_marseille","lat":43.22931,"lon":5.35371,"is_reserved":false,"is_disabled":false,"rental_uris":{"android":"levelo://app?vid=c394188f-0192-4bd1-a9ce-d3aa40ec049d","ios":"levelo://app?vid=c394188f-0192-4bd1-a9ce-d3aa40ec049d"},"vehicle_type_id":"4","last_reported":1750950674,"current_range_meters":14000,"station_id":"cpo3532slgdg3j2ikp40","pricing_plan_id":"cebpf4jnsgd1na2vs0mg"},{"bike_id":"85baa472-0dcc-431c-b769-f17532940231","system_id":"levelo_inurba_marseille","lat":43.24186,"lon":5.36384,"is_reserved":false,"is_disabled":false,"rental_uris":{"android":"levelo://app?vid=85baa472-0dcc-431c-b769-f17532940231","ios":"levelo://app?vid=85baa472-0dcc-431c-b769-f17532940231"},"vehicle_type_id":"4","last_reported":1750950674,"current_range_meters":14000,"station_id":"cpo36qri1sfpv3e86is0","pricing_plan_id":"cebpf4jnsgd1na2vs0mg"},{"bike_id":"ab4451f7-4329-4879-a302-86456409816a","system_id":"levelo_inurba_marseille","lat":43.31165,"lon":5.38715,"is_reserved":false,"is_disabled":false,"rental_uris":{"android":"levelo://app?vid=ab4451f7-4329-4879-a302-86456409816a","ios":"levelo://app?vid=ab4451f7-4329-4879-a302-86456409816a"},"vehicle_type_id":"4","last_reported":1750950674,"current_range_meters":14400,"station_id":"ce4bgv12rcd13ifvqcp0","pricing_plan_id":"cebpf4jnsgd1na2vs0mg"},{"bike_id":"c080e39a-1a38-491a-8eaa-f8195003b685","system_id":"levelo_inurba_marseille","lat":43.28601,"lon":5.35107,"is_reserved":false,"is_disabled":false,"rental_uris":{"android":"levelo://app?vid=c080e39a-1a38-491a-8eaa-f8195003b685","ios":"levelo://app?vid=c080e39a-1a38-491a-8eaa-f8195003b685"},"vehicle_type_id":"4","last_reported":1750950674,"current_range_meters":14400,"station_id":"ce4bhch2rcd13ifvqeug","pricing_plan_id":"cebpf4jnsgd1na2vs0mg"},{"bike_id":"d2541864-294e-4fa8-8ed4-da3902bb58d5","system_id":"levelo_inurba_marseille","lat":43.22934,"lon":5.35375,"is_reserved":false,"is_disabled":false,"rental_uris":{"android":"levelo://app?vid=d2541864-294e-4fa8-8ed4-da3902bb58d5","ios":"levelo://app?vid=d2541864-294e-4fa8-8ed4-da3902bb58d5"},"vehicle_type_id":"4","last_reported":1750950674,"current_range_meters":14400,"station_id":"cpo3532slgdg3j2ikp40","pricing_plan_id":"cebpf4jnsgd1na2vs0mg"},{"bike_id":"86ebd8a7-7d30-43b6-953e-6107b0f77710","system_id":"levelo_inurba_marseille","lat":43.33406,"lon":5.40092,"is_reserved":false,"is_disabled":false,"rental_uris":{"android":"levelo://app?vid=86ebd8a7-7d30-43b6-953e-6107b0f77710","ios":"levelo://app?vid=86ebd8a7-7d30-43b6-953e-6107b0f77710"},"vehicle_type_id":"4","last_reported":1750950674,"current_range_meters":14800,"station_id":"","pricing_plan_id":"cebpf4jnsgd1na2vs0mg"},{"bike_id":"7e39cb1f-42cb-4271-bf14-4bdbd6435359","system_id":"levelo_inurba_marseille","lat":43.30926,"lon":5.40152,"is_reserved":false,"is_disabled":false,"rental_uris":{"android":"levelo://app?vid=7e39cb1f-42cb-4271-bf14-4bdbd6435359","ios":"levelo://app?vid=7e39cb1f-42cb-4271-bf14-4bdbd6435359"},"vehicle_type_id":"4","last_reported":1750950674,"current_range_meters":14800,"station_id":"ce4bgvp2rcd13ifvqct0","pricing_plan_id":"cebpf4jnsgd1na2vs0mg"},{"bike_id":"e51f629a-c372-4506-805e-7b115f58434b","system_id":"levelo_inurba_marseille","lat":43.24387,"lon":5.37059,"is_reserved":false,"is_disabled":false,"rental_uris":{"android":"levelo://app?vid=e51f629a-c372-4506-805e-7b115f58434b","ios":"levelo://app?vid=e51f629a-c372-4506-805e-7b115f58434b"},"vehicle_type_id":"4","last_reported":1750950674,"current_range_meters":14800,"station_id":"ce4bhhh2rcd13ifvqfk0","pricing_plan_id":"cebpf4jnsgd1na2vs0mg"},{"bike_id":"d4744193-852f-4d13-80c0-c01e1c493ff8","system_id":"levelo_inurba_marseille","lat":43.257213,"lon":5.411146,"is_reserved":false,"is_disabled":false,"rental_uris":{"android":"levelo://app?vid=d4744193-852f-4d13-80c0-c01e1c493ff8","ios":"levelo://app?vid=d4744193-852f-4d13-80c0-c01e1c493ff8"},"vehicle_type_id":"4","last_reported":1750950674,"current_range_meters":14800,"station_id":"ce4bhkp2rcd13ifvqgd0","pricing_plan_id":"cebpf4jnsgd1na2vs0mg"},{"bike_id":"a395cb1e-cca8-4dc2-a6ce-af6553a832fd","system_id":"levelo_inurba_marseille","lat":43.28852,"lon":5.39302,"is_reserved":false,"is_disabled":false,"rental_uris":{"android":"levelo://app?vid=a395cb1e-cca8-4dc2-a6ce-af6553a832fd","ios":"levelo://app?vid=a395cb1e-cca8-4dc2-a6ce-af6553a832fd"},"vehicle_type_id":"4","last_reported":1750950674,"current_range_meters":15200,"station_id":"ce4bh2p2rcd13ifvqdi0","pricing_plan_id":"cebpf4jnsgd1na2vs0mg"},{"bike_id":"e7aa47cb-09fd-4fcd-ae2b-338e24a54395","system_id":"levelo_inurba_marseille","lat":43.28278,"lon":5.35073,"is_reserved":false,"is_disabled":false,"rental_uris":{"android":"levelo://app?vid=e7aa47cb-09fd-4fcd-ae2b-338e24a54395","ios":"levelo://app?vid=e7aa47cb-09fd-4fcd-ae2b-338e24a54395"},"vehicle_type_id":"4","last_reported":1750950674,"current_range_meters":15200,"station_id":"ce4bhbp2rcd13ifvqerg","pricing_plan_id":"cebpf4jnsgd1na2vs0mg"},{"bike_id":"069769d6-ff22-4af5-b365-c4988cb7ba67","system_id":"levelo_inurba_marseille","lat":43.28608,"lon":5.35115,"is_reserved":false,"is_disabled":false,"rental_uris":{"android":"levelo://app?vid=069769d6-ff22-4af5-b365-c4988cb7ba67","ios":"levelo://app?vid=069769d6-ff22-4af5-b365-c4988cb7ba67"},"vehicle_type_id":"4","last_reported":1750950674,"current_range_meters":15200,"station_id":"ce4bhch2rcd13ifvqeug","pricing_plan_id":"cebpf4jnsgd1na2vs0mg"},{"bike_id":"2780b8c0-64f5-439b-a450-c62c0b90ed5f","system_id":"levelo_inurba_marseille","lat":43.2293,"lon":5.35379,"is_reserved":false,"is_disabled":false,"rental_uris":{"android":"levelo://app?vid=2780b8c0-64f5-439b-a450-c62c0b90ed5f","ios":"levelo://app?vid=2780b8c0-64f5-439b-a450-c62c0b90ed5f"},"vehicle_type_id":"4","last_reported":1750950674,"current_range_meters":15200,"station_id":"cpo3532slgdg3j2ikp40","pricing_plan_id":"cebpf4jnsgd1na2vs0mg"},{"bike_id":"33ff2acc-5b55-48de-9529-81b3c60dbff0","system_id":"levelo_inurba_marseille","lat":43.30893,"lon":5.37261,"is_reserved":false,"is_disabled":false,"rental_uris":{"android":"levelo://app?vid=33ff2acc-5b55-48de-9529-81b3c60dbff0","ios":"levelo://app?vid=33ff2acc-5b55-48de-9529-81b3c60dbff0"},"vehicle_type_id":"4","last_reported":1750950674,"current_range_meters":16000,"station_id":"","pricing_plan_id":"cebpf4jnsgd1na2vs0mg"},{"bike_id":"022e5287-c649-4072-aa2c-1c9cb318e728","system_id":"levelo_inurba_marseille","lat":43.30537,"lon":5.38429,"is_reserved":false,"is_disabled":false,"rental_uris":{"android":"levelo://app?vid=022e5287-c649-4072-aa2c-1c9cb318e728","ios":"levelo://app?vid=022e5287-c649-4072-aa2c-1c9cb318e728"},"vehicle_type_id":"4","last_reported":1750950674,"current_range_meters":16000,"station_id":"ce4bgg92rcd13ifvqb30","pricing_plan_id":"cebpf4jnsgd1na2vs0mg"},{"bike_id":"03259c9d-92e1-4a35-a78d-f8c138dd71cb","system_id":"levelo_inurba_marseille","lat":43.26197,"lon":5.37455,"is_reserved":false,"is_disabled":false,"rental_uris":{"android":"levelo://app?vid=03259c9d-92e1-4a35-a78d-f8c138dd71cb","ios":"levelo://app?vid=03259c9d-92e1-4a35-a78d-f8c138dd71cb"},"vehicle_type_id":"4","last_reported":1750950674,"current_range_meters":16000,"station_id":"ce4bhgp2rcd13ifvqfc0","pricing_plan_id":"cebpf4jnsgd1na2vs0mg"},{"bike_id":"5347b3ea-8752-4664-bef1-c879a2a6263a","system_id":"levelo_inurba_marseille","lat":43.23144,"lon":5.4372,"is_reserved":false,"is_disabled":false,"rental_uris":{"android":"levelo://app?vid=5347b3ea-8752-4664-bef1-c879a2a6263a","ios":"levelo://app?vid=5347b3ea-8752-4664-bef1-c879a2a6263a"},"vehicle_type_id":"4","last_reported":1750950674,"current_range_meters":16000,"station_id":"ce4bhmp2rcd13ifvqgog","pricing_plan_id":"cebpf4jnsgd1na2vs0mg"},{"bike_id":"ab875138-c754-4b3b-82d7-2da5a11b45cf","system_id":"levelo_inurba_marseille","lat":43.21747,"lon":5.34606,"is_reserved":false,"is_disabled":false,"rental_uris":{"android":"levelo://app?vid=ab875138-c754-4b3b-82d7-2da5a11b45cf","ios":"levelo://app?vid=ab875138-c754-4b3b-82d7-2da5a11b45cf"},"vehicle_type_id":"4","last_reported":1750950674,"current_range_meters":16000,"station_id":"st_cvj6r9ubvosntc0bgbag","pricing_plan_id":"cebpf4jnsgd1na2vs0mg"},{"bike_id":"4c3c424f-b1ed-4956-b3a6-33b993b1496d","system_id":"levelo_inurba_marseille","lat":43.25578,"lon":5.37584,"is_reserved":false,"is_disabled":false,"rental_uris":{"android":"levelo://app?vid=4c3c424f-b1ed-4956-b3a6-33b993b1496d","ios":"levelo://app?vid=4c3c424f-b1ed-4956-b3a6-33b993b1496d"},"vehicle_type_id":"4","last_reported":1750950674,"current_range_meters":16400,"station_id":"","pricing_plan_id":"cebpf4jnsgd1na2vs0mg"},{"bike_id":"520b2c46-2bf1-4fd2-9fca-b32997429572","system_id":"levelo_inurba_marseille","lat":43.28419,"lon":5.34997,"is_reserved":false,"is_disabled":false,"rental_uris":{"android":"levelo://app?vid=520b2c46-2bf1-4fd2-9fca-b32997429572","ios":"levelo://app?vid=520b2c46-2bf1-4fd2-9fca-b32997429572"},"vehicle_type_id":"4","last_reported":1750950674,"current_range_meters":16400,"station_id":"ce4bhbh2rcd13ifvqepg","pricing_plan_id":"cebpf4jnsgd1na2vs0mg"},{"bike_id":"a7c245c0-7f55-4e1a-96c4-a85eea6e919e","system_id":"levelo_inurba_marseille","lat":43.29273,"lon":5.36851,"is_reserved":false,"is_disabled":false,"rental_uris":{"android":"levelo://app?vid=a7c245c0-7f55-4e1a-96c4-a85eea6e919e","ios":"levelo://app?vid=a7c245c0-7f55-4e1a-96c4-a85eea6e919e"},"vehicle_type_id":"4","last_reported":1750950674,"current_range_meters":16400,"station_id":"ce4bhbp2rcd13ifvqesg","pricing_plan_id":"cebpf4jnsgd1na2vs0mg"},{"bike_id":"b0479863-85cf-47e4-b994-727c600daa2b","system_id":"levelo_inurba_marseille","lat":43.28614,"lon":5.35115,"is_reserved":false,"is_disabled":false,"rental_uris":{"android":"levelo://app?vid=b0479863-85cf-47e4-b994-727c600daa2b","ios":"levelo://app?vid=b0479863-85cf-47e4-b994-727c600daa2b"},"vehicle_type_id":"4","last_reported":1750950674,"current_range_meters":16400,"station_id":"ce4bhch2rcd13ifvqeug","pricing_plan_id":"cebpf4jnsgd1na2vs0mg"},{"bike_id":"b6bbb8cf-901f-47ee-a995-6846b7a5317f","system_id":"levelo_inurba_marseille","lat":43.27995,"lon":5.40012,"is_reserved":false,"is_disabled":false,"rental_uris":{"android":"levelo://app?vid=b6bbb8cf-901f-47ee-a995-6846b7a5317f","ios":"levelo://app?vid=b6bbb8cf-901f-47ee-a995-6846b7a5317f"},"vehicle_type_id":"4","last_reported":1750950674,"current_range_meters":16400,"station_id":"ce4bho92rcd13ifvqh4g","pricing_plan_id":"cebpf4jnsgd1na2vs0mg"},{"bike_id":"22ec2c22-2d66-4cee-8ad7-cb2fdf6ef035","system_id":"levelo_inurba_marseille","lat":43.230614,"lon":5.354908,"is_reserved":false,"is_disabled":false,"rental_uris":{"android":"levelo://app?vid=22ec2c22-2d66-4cee-8ad7-cb2fdf6ef035","ios":"levelo://app?vid=22ec2c22-2d66-4cee-8ad7-cb2fdf6ef035"},"vehicle_type_id":"4","last_reported":1750950674,"current_range_meters":16400,"station_id":"cpo3342slgdg3j2ifvpg","pricing_plan_id":"cebpf4jnsgd1na2vs0mg"},{"bike_id":"1a500985-c816-4d83-a038-4a629f10a813","system_id":"levelo_inurba_marseille","lat":43.21196,"lon":5.35074,"is_reserved":false,"is_disabled":false,"rental_uris":{"android":"levelo://app?vid=1a500985-c816-4d83-a038-4a629f10a813","ios":"levelo://app?vid=1a500985-c816-4d83-a038-4a629f10a813"},"vehicle_type_id":"4","last_reported":1750950674,"current_range_meters":16400,"station_id":"st_cvj6sg6p6f1abm77japg","pricing_plan_id":"cebpf4jnsgd1na2vs0mg"},{"bike_id":"46e7b6f3-94f0-4bad-acbf-c5e6d6d585c9","system_id":"levelo_inurba_marseille","lat":43.29868,"lon":5.37481,"is_reserved":false,"is_disabled":false,"rental_uris":{"android":"levelo://app?vid=46e7b6f3-94f0-4bad-acbf-c5e6d6d585c9","ios":"levelo://app?vid=46e7b6f3-94f0-4bad-acbf-c5e6d6d585c9"},"vehicle_type_id":"4","last_reported":1750950674,"current_range_meters":16800,"station_id":"","pricing_plan_id":"cebpf4jnsgd1na2vs0mg"},{"bike_id":"6a2b89c1-f5df-4698-b7f9-6269d99649a9","system_id":"levelo_inurba_marseille","lat":43.30303,"lon":5.36888,"is_reserved":false,"is_disabled":false,"rental_uris":{"android":"levelo://app?vid=6a2b89c1-f5df-4698-b7f9-6269d99649a9","ios":"levelo://app?vid=6a2b89c1-f5df-4698-b7f9-6269d99649a9"},"vehicle_type_id":"4","last_reported":1750950674,"current_range_meters":16800,"station_id":"ce4bgqh2rcd13ifvqc5g","pricing_plan_id":"cebpf4jnsgd1na2vs0mg"},{"bike_id":"00dd56d8-e1b2-4672-bc22-05410cbb86ff","system_id":"levelo_inurba_marseille","lat":43.2826,"lon":5.35094,"is_reserved":false,"is_disabled":false,"rental_uris":{"android":"levelo://app?vid=00dd56d8-e1b2-4672-bc22-05410cbb86ff","ios":"levelo://app?vid=00dd56d8-e1b2-4672-bc22-05410cbb86ff"},"vehicle_type_id":"4","last_reported":1750950674,"current_range_meters":16800,"station_id":"ce4bhbp2rcd13ifvqerg","pricing_plan_id":"cebpf4jnsgd1na2vs0mg"},{"bike_id":"0cbf1982-7f08-4584-a2bd-fd3be90f3672","system_id":"levelo_inurba_marseille","lat":43.28867,"lon":5.358702,"is_reserved":false,"is_disabled":false,"rental_uris":{"android":"levelo://app?vid=0cbf1982-7f08-4584-a2bd-fd3be90f3672","ios":"levelo://app?vid=0cbf1982-7f08-4584-a2bd-fd3be90f3672"},"vehicle_type_id":"4","last_reported":1750950674,"current_range_meters":16800,"station_id":"ce4bhch2rcd13ifvqeug","pricing_plan_id":"cebpf4jnsgd1na2vs0mg"},{"bike_id":"1d55f66e-dd62-48de-89a1-6b40fd865f1e","system_id":"levelo_inurba_marseille","lat":43.26204,"lon":5.37468,"is_reserved":false,"is_disabled":false,"rental_uris":{"android":"levelo://app?vid=1d55f66e-dd62-48de-89a1-6b40fd865f1e","ios":"levelo://app?vid=1d55f66e-dd62-48de-89a1-6b40fd865f1e"},"vehicle_type_id":"4","last_reported":1750950674,"current_range_meters":16800,"station_id":"ce4bhgp2rcd13ifvqfc0","pricing_plan_id":"cebpf4jnsgd1na2vs0mg"},{"bike_id":"2ad8c985-d1ec-4ce0-85b0-a2f74863b534","system_id":"levelo_inurba_marseille","lat":43.26234,"lon":5.37416,"is_reserved":false,"is_disabled":false,"rental_uris":{"android":"levelo://app?vid=2ad8c985-d1ec-4ce0-85b0-a2f74863b534","ios":"levelo://app?vid=2ad8c985-d1ec-4ce0-85b0-a2f74863b534"},"vehicle_type_id":"4","last_reported":1750950674,"current_range_meters":16800,"station_id":"ce4bhgp2rcd13ifvqfc0","pricing_plan_id":"cebpf4jnsgd1na2vs0mg"},{"bike_id":"56b6ebb9-e050-475a-bce8-6c9a6dcc2a70","system_id":"levelo_inurba_marseille","lat":43.21759,"lon":5.34605,"is_reserved":false,"is_disabled":false,"rental_uris":{"android":"levelo://app?vid=56b6ebb9-e050-475a-bce8-6c9a6dcc2a70","ios":"levelo://app?vid=56b6ebb9-e050-475a-bce8-6c9a6dcc2a70"},"vehicle_type_id":"4","last_reported":1750950674,"current_range_meters":16800,"station_id":"st_cvj6r9ubvosntc0bgbag","pricing_plan_id":"cebpf4jnsgd1na2vs0mg"},{"bike_id":"348936c8-7c8d-4b8a-988e-b0a979920804","system_id":"levelo_inurba_marseille","lat":43.21192,"lon":5.35077,"is_reserved":false,"is_disabled":false,"rental_uris":{"android":"levelo://app?vid=348936c8-7c8d-4b8a-988e-b0a979920804","ios":"levelo://app?vid=348936c8-7c8d-4b8a-988e-b0a979920804"},"vehicle_type_id":"4","last_reported":1750950674,"current_range_meters":16800,"station_id":"st_cvj6sg6p6f1abm77japg","pricing_plan_id":"cebpf4jnsgd1na2vs0mg"},{"bike_id":"a670c232-602f-4de4-b4ed-4c22f0a7bbe5","system_id":"levelo_inurba_marseille","lat":43.26205,"lon":5.37451,"is_reserved":false,"is_disabled":false,"rental_uris":{"android":"levelo://app?vid=a670c232-602f-4de4-b4ed-4c22f0a7bbe5","ios":"levelo://app?vid=a670c232-602f-4de4-b4ed-4c22f0a7bbe5"},"vehicle_type_id":"4","last_reported":1750950674,"current_range_meters":17200,"station_id":"ce4bhgp2rcd13ifvqfc0","pricing_plan_id":"cebpf4jnsgd1na2vs0mg"},{"bike_id":"bea1a900-79f8-4426-bd61-7355893a3718","system_id":"levelo_inurba_marseille","lat":43.32355,"lon":5.36754,"is_reserved":false,"is_disabled":false,"rental_uris":{"android":"levelo://app?vid=bea1a900-79f8-4426-bd61-7355893a3718","ios":"levelo://app?vid=bea1a900-79f8-4426-bd61-7355893a3718"},"vehicle_type_id":"4","last_reported":1750950674,"current_range_meters":17200,"station_id":"ce4bhsh2rcd13ifvqi2g","pricing_plan_id":"cebpf4jnsgd1na2vs0mg"},{"bike_id":"f1ff4f78-6d1b-435f-8777-a24085f5b111","system_id":"levelo_inurba_marseille","lat":43.23204,"lon":5.35581,"is_reserved":false,"is_disabled":false,"rental_uris":{"android":"levelo://app?vid=f1ff4f78-6d1b-435f-8777-a24085f5b111","ios":"levelo://app?vid=f1ff4f78-6d1b-435f-8777-a24085f5b111"},"vehicle_type_id":"4","last_reported":1750950674,"current_range_meters":17200,"station_id":"ce4bhu92rcd13ifvqi70","pricing_plan_id":"cebpf4jnsgd1na2vs0mg"},{"bike_id":"393e7375-2320-4a39-adda-b81cf40c9860","system_id":"levelo_inurba_marseille","lat":43.2987,"lon":5.39727,"is_reserved":false,"is_disabled":false,"rental_uris":{"android":"levelo://app?vid=393e7375-2320-4a39-adda-b81cf40c9860","ios":"levelo://app?vid=393e7375-2320-4a39-adda-b81cf40c9860"},"vehicle_type_id":"4","last_reported":1750950674,"current_range_meters":17600,"station_id":"ce4bh0h2rcd13ifvqd50","pricing_plan_id":"cebpf4jnsgd1na2vs0mg"},{"bike_id":"18f75fc3-36d2-4346-ac89-776b0569a53c","system_id":"levelo_inurba_marseille","lat":43.29191,"lon":5.35801,"is_reserved":false,"is_disabled":false,"rental_uris":{"android":"levelo://app?vid=18f75fc3-36d2-4346-ac89-776b0569a53c","ios":"levelo://app?vid=18f75fc3-36d2-4346-ac89-776b0569a53c"},"vehicle_type_id":"4","last_reported":1750950674,"current_range_meters":17600,"station_id":"ce4bhb12rcd13ifvqel0","pricing_plan_id":"cebpf4jnsgd1na2vs0mg"},{"bike_id":"02f9ef03-5487-4eaf-936d-44039451fd6e","system_id":"levelo_inurba_marseille","lat":43.27367,"lon":5.36266,"is_reserved":false,"is_disabled":false,"rental_uris":{"android":"levelo://app?vid=02f9ef03-5487-4eaf-936d-44039451fd6e","ios":"levelo://app?vid=02f9ef03-5487-4eaf-936d-44039451fd6e"},"vehicle_type_id":"4","last_reported":1750950674,"current_range_meters":17600,"station_id":"ce4bhbh2rcd13ifvqeo0","pricing_plan_id":"cebpf4jnsgd1na2vs0mg"},{"bike_id":"c65c7bf3-5825-4298-ac27-d84f6583e13b","system_id":"levelo_inurba_marseille","lat":43.28404,"lon":5.34997,"is_reserved":false,"is_disabled":false,"rental_uris":{"android":"levelo://app?vid=c65c7bf3-5825-4298-ac27-d84f6583e13b","ios":"levelo://app?vid=c65c7bf3-5825-4298-ac27-d84f6583e13b"},"vehicle_type_id":"4","last_reported":1750950674,"current_range_meters":17600,"station_id":"ce4bhbh2rcd13ifvqepg","pricing_plan_id":"cebpf4jnsgd1na2vs0mg"},{"bike_id":"98203873-f063-4eaa-af39-6a6e726addda","system_id":"levelo_inurba_marseille","lat":43.24386,"lon":5.37056,"is_reserved":false,"is_disabled":false,"rental_uris":{"android":"levelo://app?vid=98203873-f063-4eaa-af39-6a6e726addda","ios":"levelo://app?vid=98203873-f063-4eaa-af39-6a6e726addda"},"vehicle_type_id":"4","last_reported":1750950674,"current_range_meters":17600,"station_id":"ce4bhhh2rcd13ifvqfk0","pricing_plan_id":"cebpf4jnsgd1na2vs0mg"},{"bike_id":"5a3dab73-c126-4de6-a97f-f9ca71f0b35f","system_id":"levelo_inurba_marseille","lat":43.21751,"lon":5.34602,"is_reserved":false,"is_disabled":false,"rental_uris":{"android":"levelo://app?vid=5a3dab73-c126-4de6-a97f-f9ca71f0b35f","ios":"levelo://app?vid=5a3dab73-c126-4de6-a97f-f9ca71f0b35f"},"vehicle_type_id":"4","last_reported":1750950674,"current_range_meters":17600,"station_id":"st_cvj6r9ubvosntc0bgbag","pricing_plan_id":"cebpf4jnsgd1na2vs0mg"},{"bike_id":"307719d8-858f-4aa2-9777-bb1fd3e52674","system_id":"levelo_inurba_marseille","lat":43.26245,"lon":5.37072,"is_reserved":false,"is_disabled":false,"rental_uris":{"android":"levelo://app?vid=307719d8-858f-4aa2-9777-bb1fd3e52674","ios":"levelo://app?vid=307719d8-858f-4aa2-9777-bb1fd3e52674"},"vehicle_type_id":"4","last_reported":1750950674,"current_range_meters":18000,"station_id":"","pricing_plan_id":"cebpf4jnsgd1na2vs0mg"},{"bike_id":"d565ec36-c103-42db-b30a-02c479395322","system_id":"levelo_inurba_marseille","lat":43.29566,"lon":5.425,"is_reserved":false,"is_disabled":false,"rental_uris":{"android":"levelo://app?vid=d565ec36-c103-42db-b30a-02c479395322","ios":"levelo://app?vid=d565ec36-c103-42db-b30a-02c479395322"},"vehicle_type_id":"4","last_reported":1750950674,"current_range_meters":18000,"station_id":"","pricing_plan_id":"cebpf4jnsgd1na2vs0mg"},{"bike_id":"c5b4f5f2-f78f-432e-bb47-5a48b7520cfd","system_id":"levelo_inurba_marseille","lat":43.30141,"lon":5.38084,"is_reserved":false,"is_disabled":false,"rental_uris":{"android":"levelo://app?vid=c5b4f5f2-f78f-432e-bb47-5a48b7520cfd","ios":"levelo://app?vid=c5b4f5f2-f78f-432e-bb47-5a48b7520cfd"},"vehicle_type_id":"4","last_reported":1750950674,"current_range_meters":18000,"station_id":"ce4bgjp2rcd13ifvqbh0","pricing_plan_id":"cebpf4jnsgd1na2vs0mg"},{"bike_id":"1e5e8742-f4ad-44db-ba57-408b96f98307","system_id":"levelo_inurba_marseille","lat":43.28411,"lon":5.37503,"is_reserved":false,"is_disabled":false,"rental_uris":{"android":"levelo://app?vid=1e5e8742-f4ad-44db-ba57-408b96f98307","ios":"levelo://app?vid=1e5e8742-f4ad-44db-ba57-408b96f98307"},"vehicle_type_id":"4","last_reported":1750950674,"current_range_meters":18000,"station_id":"ce4bh412rcd13ifvqds0","pricing_plan_id":"cebpf4jnsgd1na2vs0mg"},{"bike_id":"e7655354-7340-4b8f-922f-49d651ad124e","system_id":"levelo_inurba_marseille","lat":43.29168,"lon":5.37136,"is_reserved":false,"is_disabled":false,"rental_uris":{"android":"levelo://app?vid=e7655354-7340-4b8f-922f-49d651ad124e","ios":"levelo://app?vid=e7655354-7340-4b8f-922f-49d651ad124e"},"vehicle_type_id":"4","last_reported":1750950674,"current_range_meters":18000,"station_id":"ce4bha92rcd13ifvqeh0","pricing_plan_id":"cebpf4jnsgd1na2vs0mg"},{"bike_id":"8d78bf36-f1c3-41a4-95fd-e6d4a1c1d57c","system_id":"levelo_inurba_marseille","lat":43.28416,"lon":5.34994,"is_reserved":false,"is_disabled":false,"rental_uris":{"android":"levelo://app?vid=8d78bf36-f1c3-41a4-95fd-e6d4a1c1d57c","ios":"levelo://app?vid=8d78bf36-f1c3-41a4-95fd-e6d4a1c1d57c"},"vehicle_type_id":"4","last_reported":1750950674,"current_range_meters":18000,"station_id":"ce4bhbh2rcd13ifvqepg","pricing_plan_id":"cebpf4jnsgd1na2vs0mg"},{"bike_id":"c9635733-c526-43dc-906b-ca6913b205f2","system_id":"levelo_inurba_marseille","lat":43.28267,"lon":5.35078,"is_reserved":false,"is_disabled":false,"rental_uris":{"android":"levelo://app?vid=c9635733-c526-43dc-906b-ca6913b205f2","ios":"levelo://app?vid=c9635733-c526-43dc-906b-ca6913b205f2"},"vehicle_type_id":"4","last_reported":1750950674,"current_range_meters":18000,"station_id":"ce4bhbp2rcd13ifvqerg","pricing_plan_id":"cebpf4jnsgd1na2vs0mg"},{"bike_id":"3b8f1990-2031-4c39-809a-cd210e64e328","system_id":"levelo_inurba_marseille","lat":43.26029,"lon":5.37548,"is_reserved":false,"is_disabled":false,"rental_uris":{"android":"levelo://app?vid=3b8f1990-2031-4c39-809a-cd210e64e328","ios":"levelo://app?vid=3b8f1990-2031-4c39-809a-cd210e64e328"},"vehicle_type_id":"4","last_reported":1750950674,"current_range_meters":18000,"station_id":"ce4bhgh2rcd13ifvqfa0","pricing_plan_id":"cebpf4jnsgd1na2vs0mg"},{"bike_id":"40b19a43-7568-4070-8cfa-6d78b27578ba","system_id":"levelo_inurba_marseille","lat":43.254751,"lon":5.3765,"is_reserved":false,"is_disabled":false,"rental_uris":{"android":"levelo://app?vid=40b19a43-7568-4070-8cfa-6d78b27578ba","ios":"levelo://app?vid=40b19a43-7568-4070-8cfa-6d78b27578ba"},"vehicle_type_id":"4","last_reported":1750950674,"current_range_meters":18000,"station_id":"ce4bhh12rcd13ifvqff0","pricing_plan_id":"cebpf4jnsgd1na2vs0mg"},{"bike_id":"42268016-593a-4762-906e-c1072a3d873e","system_id":"levelo_inurba_marseille","lat":43.27556,"lon":5.38424,"is_reserved":false,"is_disabled":false,"rental_uris":{"android":"levelo://app?vid=42268016-593a-4762-906e-c1072a3d873e","ios":"levelo://app?vid=42268016-593a-4762-906e-c1072a3d873e"},"vehicle_type_id":"4","last_reported":1750950674,"current_range_meters":18000,"station_id":"ce4bhh92rcd13ifvqfi0","pricing_plan_id":"cebpf4jnsgd1na2vs0mg"},{"bike_id":"81592f15-6026-468e-89ef-5174abc5da6f","system_id":"levelo_inurba_marseille","lat":43.23966,"lon":5.36631,"is_reserved":false,"is_disabled":false,"rental_uris":{"android":"levelo://app?vid=81592f15-6026-468e-89ef-5174abc5da6f","ios":"levelo://app?vid=81592f15-6026-468e-89ef-5174abc5da6f"},"vehicle_type_id":"4","last_reported":1750950674,"current_range_meters":18000,"station_id":"ce4bhi12rcd13ifvqfp0","pricing_plan_id":"cebpf4jnsgd1na2vs0mg"},{"bike_id":"e9be96af-dab1-4335-aee6-b3386f57dfd9","system_id":"levelo_inurba_marseille","lat":43.23183,"lon":5.399817,"is_reserved":false,"is_disabled":false,"rental_uris":{"android":"levelo://app?vid=e9be96af-dab1-4335-aee6-b3386f57dfd9","ios":"levelo://app?vid=e9be96af-dab1-4335-aee6-b3386f57dfd9"},"vehicle_type_id":"4","last_reported":1750950674,"current_range_meters":18000,"station_id":"ce4bhn12rcd13ifvqgqg","pricing_plan_id":"cebpf4jnsgd1na2vs0mg"},{"bike_id":"b48076ac-ed33-46c9-893f-3ebadc5e53d9","system_id":"levelo_inurba_marseille","lat":43.28076,"lon":5.39665,"is_reserved":false,"is_disabled":false,"rental_uris":{"android":"levelo://app?vid=b48076ac-ed33-46c9-893f-3ebadc5e53d9","ios":"levelo://app?vid=b48076ac-ed33-46c9-893f-3ebadc5e53d9"},"vehicle_type_id":"4","last_reported":1750950674,"current_range_meters":18000,"station_id":"ce4bho12rcd13ifvqh2g","pricing_plan_id":"cebpf4jnsgd1na2vs0mg"},{"bike_id":"e449a2c0-ee5d-44c7-a602-628deef64a14","system_id":"levelo_inurba_marseille","lat":43.33743,"lon":5.39178,"is_reserved":false,"is_disabled":false,"rental_uris":{"android":"levelo://app?vid=e449a2c0-ee5d-44c7-a602-628deef64a14","ios":"levelo://app?vid=e449a2c0-ee5d-44c7-a602-628deef64a14"},"vehicle_type_id":"4","last_reported":1750950674,"current_range_meters":18000,"station_id":"ce4bhr92rcd13ifvqhsg","pricing_plan_id":"cebpf4jnsgd1na2vs0mg"},{"bike_id":"5f16334a-3393-41dc-ad34-ab261abba054","system_id":"levelo_inurba_marseille","lat":43.32364,"lon":5.36768,"is_reserved":false,"is_disabled":false,"rental_uris":{"android":"levelo://app?vid=5f16334a-3393-41dc-ad34-ab261abba054","ios":"levelo://app?vid=5f16334a-3393-41dc-ad34-ab261abba054"},"vehicle_type_id":"4","last_reported":1750950674,"current_range_meters":18000,"station_id":"ce4bhsh2rcd13ifvqi2g","pricing_plan_id":"cebpf4jnsgd1na2vs0mg"},{"bike_id":"b404c964-6a6e-4825-8807-5670ff3c69a5","system_id":"levelo_inurba_marseille","lat":43.323631,"lon":5.367633,"is_reserved":false,"is_disabled":false,"rental_uris":{"android":"levelo://app?vid=b404c964-6a6e-4825-8807-5670ff3c69a5","ios":"levelo://app?vid=b404c964-6a6e-4825-8807-5670ff3c69a5"},"vehicle_type_id":"4","last_reported":1750950674,"current_range_meters":18000,"station_id":"ce4bhsh2rcd13ifvqi2g","pricing_plan_id":"cebpf4jnsgd1na2vs0mg"},{"bike_id":"163a5cb6-adba-459d-8d64-a4ea6d58c1bb","system_id":"levelo_inurba_marseille","lat":43.24162,"lon":5.36397,"is_reserved":false,"is_disabled":false,"rental_uris":{"android":"levelo://app?vid=163a5cb6-adba-459d-8d64-a4ea6d58c1bb","ios":"levelo://app?vid=163a5cb6-adba-459d-8d64-a4ea6d58c1bb"},"vehicle_type_id":"4","last_reported":1750950674,"current_range_meters":18000,"station_id":"cpo36qri1sfpv3e86is0","pricing_plan_id":"cebpf4jnsgd1na2vs0mg"},{"bike_id":"9d043ca6-e9d3-4bf0-a898-473de0644f93","system_id":"levelo_inurba_marseille","lat":43.21207,"lon":5.35064,"is_reserved":false,"is_disabled":false,"rental_uris":{"android":"levelo://app?vid=9d043ca6-e9d3-4bf0-a898-473de0644f93","ios":"levelo://app?vid=9d043ca6-e9d3-4bf0-a898-473de0644f93"},"vehicle_type_id":"4","last_reported":1750950674,"current_range_meters":18000,"station_id":"st_cvj6sg6p6f1abm77japg","pricing_plan_id":"cebpf4jnsgd1na2vs0mg"},{"bike_id":"baed99e4-0f68-4cf7-905a-3d42f0312e98","system_id":"levelo_inurba_marseille","lat":43.250004,"lon":5.389368,"is_reserved":false,"is_disabled":false,"rental_uris":{"android":"levelo://app?vid=baed99e4-0f68-4cf7-905a-3d42f0312e98","ios":"levelo://app?vid=baed99e4-0f68-4cf7-905a-3d42f0312e98"},"vehicle_type_id":"4","last_reported":1750950674,"current_range_meters":18800,"station_id":"","pricing_plan_id":"cebpf4jnsgd1na2vs0mg"},{"bike_id":"33e232c9-7d32-4d3a-beae-3ffd552bc5f3","system_id":"levelo_inurba_marseille","lat":43.30893,"lon":5.39652,"is_reserved":false,"is_disabled":false,"rental_uris":{"android":"levelo://app?vid=33e232c9-7d32-4d3a-beae-3ffd552bc5f3","ios":"levelo://app?vid=33e232c9-7d32-4d3a-beae-3ffd552bc5f3"},"vehicle_type_id":"4","last_reported":1750950674,"current_range_meters":18800,"station_id":"ce4bh012rcd13ifvqcv0","pricing_plan_id":"cebpf4jnsgd1na2vs0mg"},{"bike_id":"c1094ec8-d71b-4cfc-bdf3-f2a50978bab6","system_id":"levelo_inurba_marseille","lat":43.29802,"lon":5.40399,"is_reserved":false,"is_disabled":false,"rental_uris":{"android":"levelo://app?vid=c1094ec8-d71b-4cfc-bdf3-f2a50978bab6","ios":"levelo://app?vid=c1094ec8-d71b-4cfc-bdf3-f2a50978bab6"},"vehicle_type_id":"4","last_reported":1750950674,"current_range_meters":18800,"station_id":"ce4bh112rcd13ifvqd90","pricing_plan_id":"cebpf4jnsgd1na2vs0mg"},{"bike_id":"12a6ce51-4857-43fa-839d-7fccaa217ba7","system_id":"levelo_inurba_marseille","lat":43.273794,"lon":5.36261,"is_reserved":false,"is_disabled":false,"rental_uris":{"android":"levelo://app?vid=12a6ce51-4857-43fa-839d-7fccaa217ba7","ios":"levelo://app?vid=12a6ce51-4857-43fa-839d-7fccaa217ba7"},"vehicle_type_id":"4","last_reported":1750950674,"current_range_meters":18800,"station_id":"ce4bhbh2rcd13ifvqeo0","pricing_plan_id":"cebpf4jnsgd1na2vs0mg"},{"bike_id":"e71de2ab-2a23-498c-a879-6766d616307e","system_id":"levelo_inurba_marseille","lat":43.24801,"lon":5.37452,"is_reserved":false,"is_disabled":false,"rental_uris":{"android":"levelo://app?vid=e71de2ab-2a23-498c-a879-6766d616307e","ios":"levelo://app?vid=e71de2ab-2a23-498c-a879-6766d616307e"},"vehicle_type_id":"4","last_reported":1750950674,"current_range_meters":18800,"station_id":"ce4bhgh2rcd13ifvqfb0","pricing_plan_id":"cebpf4jnsgd1na2vs0mg"},{"bike_id":"fbb8b41f-a3a6-49f0-9531-d2e8828e0724","system_id":"levelo_inurba_marseille","lat":43.24806,"lon":5.3746,"is_reserved":false,"is_disabled":false,"rental_uris":{"android":"levelo://app?vid=fbb8b41f-a3a6-49f0-9531-d2e8828e0724","ios":"levelo://app?vid=fbb8b41f-a3a6-49f0-9531-d2e8828e0724"},"vehicle_type_id":"4","last_reported":1750950674,"current_range_meters":18800,"station_id":"ce4bhgh2rcd13ifvqfb0","pricing_plan_id":"cebpf4jnsgd1na2vs0mg"},{"bike_id":"43a1280d-3b23-4250-8dac-644ea0d24e37","system_id":"levelo_inurba_marseille","lat":43.32369,"lon":5.3674,"is_reserved":false,"is_disabled":false,"rental_uris":{"android":"levelo://app?vid=43a1280d-3b23-4250-8dac-644ea0d24e37","ios":"levelo://app?vid=43a1280d-3b23-4250-8dac-644ea0d24e37"},"vehicle_type_id":"4","last_reported":1750950674,"current_range_meters":18800,"station_id":"ce4bhsh2rcd13ifvqi2g","pricing_plan_id":"cebpf4jnsgd1na2vs0mg"},{"bike_id":"2cefe4c4-7926-46e5-9eb5-dc374030f814","system_id":"levelo_inurba_marseille","lat":43.21766,"lon":5.34586,"is_reserved":false,"is_disabled":false,"rental_uris":{"android":"levelo://app?vid=2cefe4c4-7926-46e5-9eb5-dc374030f814","ios":"levelo://app?vid=2cefe4c4-7926-46e5-9eb5-dc374030f814"},"vehicle_type_id":"4","last_reported":1750950674,"current_range_meters":18800,"station_id":"st_cvj6r9ubvosntc0bgbag","pricing_plan_id":"cebpf4jnsgd1na2vs0mg"},{"bike_id":"904141fe-9e98-4493-afb6-75ac795528cf","system_id":"levelo_inurba_marseille","lat":43.21781,"lon":5.34593,"is_reserved":false,"is_disabled":false,"rental_uris":{"android":"levelo://app?vid=904141fe-9e98-4493-afb6-75ac795528cf","ios":"levelo://app?vid=904141fe-9e98-4493-afb6-75ac795528cf"},"vehicle_type_id":"4","last_reported":1750950674,"current_range_meters":18800,"station_id":"st_cvj6r9ubvosntc0bgbag","pricing_plan_id":"cebpf4jnsgd1na2vs0mg"},{"bike_id":"ef6d5a21-1f08-43d7-b584-b9a7d52ce4c8","system_id":"levelo_inurba_marseille","lat":43.28407,"lon":5.34994,"is_reserved":false,"is_disabled":false,"rental_uris":{"android":"levelo://app?vid=ef6d5a21-1f08-43d7-b584-b9a7d52ce4c8","ios":"levelo://app?vid=ef6d5a21-1f08-43d7-b584-b9a7d52ce4c8"},"vehicle_type_id":"4","last_reported":1750950674,"current_range_meters":19200,"station_id":"","pricing_plan_id":"cebpf4jnsgd1na2vs0mg"},{"bike_id":"12ac020f-1fc0-4bb8-b913-127844d6d724","system_id":"levelo_inurba_marseille","lat":43.29004,"lon":5.35615,"is_reserved":false,"is_disabled":false,"rental_uris":{"android":"levelo://app?vid=12ac020f-1fc0-4bb8-b913-127844d6d724","ios":"levelo://app?vid=12ac020f-1fc0-4bb8-b913-127844d6d724"},"vehicle_type_id":"4","last_reported":1750950674,"current_range_meters":19200,"station_id":"ce4bhb92rcd13ifvqen0","pricing_plan_id":"cebpf4jnsgd1na2vs0mg"},{"bike_id":"ea9ac434-f5f0-463f-869d-742629fb9516","system_id":"levelo_inurba_marseille","lat":43.28269,"lon":5.35061,"is_reserved":false,"is_disabled":false,"rental_uris":{"android":"levelo://app?vid=ea9ac434-f5f0-463f-869d-742629fb9516","ios":"levelo://app?vid=ea9ac434-f5f0-463f-869d-742629fb9516"},"vehicle_type_id":"4","last_reported":1750950674,"current_range_meters":19200,"station_id":"ce4bhbp2rcd13ifvqerg","pricing_plan_id":"cebpf4jnsgd1na2vs0mg"},{"bike_id":"99dd48fd-b09e-4b76-b957-04244b2c9e97","system_id":"levelo_inurba_marseille","lat":43.286173,"lon":5.350957,"is_reserved":false,"is_disabled":false,"rental_uris":{"android":"levelo://app?vid=99dd48fd-b09e-4b76-b957-04244b2c9e97","ios":"levelo://app?vid=99dd48fd-b09e-4b76-b957-04244b2c9e97"},"vehicle_type_id":"4","last_reported":1750950674,"current_range_meters":19200,"station_id":"ce4bhch2rcd13ifvqeug","pricing_plan_id":"cebpf4jnsgd1na2vs0mg"},{"bike_id":"3ae87600-ab47-43a5-8fb3-03b85c04b7c1","system_id":"levelo_inurba_marseille","lat":43.2955,"lon":5.42297,"is_reserved":false,"is_disabled":false,"rental_uris":{"android":"levelo://app?vid=3ae87600-ab47-43a5-8fb3-03b85c04b7c1","ios":"levelo://app?vid=3ae87600-ab47-43a5-8fb3-03b85c04b7c1"},"vehicle_type_id":"4","last_reported":1750950674,"current_range_meters":19200,"station_id":"ce4bhph2rcd13ifvqhdg","pricing_plan_id":"cebpf4jnsgd1na2vs0mg"},{"bike_id":"2877fe85-caf1-4207-b43c-7fccceeda704","system_id":"levelo_inurba_marseille","lat":43.2319,"lon":5.35554,"is_reserved":false,"is_disabled":false,"rental_uris":{"android":"levelo://app?vid=2877fe85-caf1-4207-b43c-7fccceeda704","ios":"levelo://app?vid=2877fe85-caf1-4207-b43c-7fccceeda704"},"vehicle_type_id":"4","last_reported":1750950674,"current_range_meters":19200,"station_id":"ce4bhu92rcd13ifvqi70","pricing_plan_id":"cebpf4jnsgd1na2vs0mg"},{"bike_id":"9d8c196d-82ac-45f6-892b-c9baada56e67","system_id":"levelo_inurba_marseille","lat":43.23192,"lon":5.35557,"is_reserved":false,"is_disabled":false,"rental_uris":{"android":"levelo://app?vid=9d8c196d-82ac-45f6-892b-c9baada56e67","ios":"levelo://app?vid=9d8c196d-82ac-45f6-892b-c9baada56e67"},"vehicle_type_id":"4","last_reported":1750950674,"current_range_meters":19200,"station_id":"ce4bhu92rcd13ifvqi70","pricing_plan_id":"cebpf4jnsgd1na2vs0mg"},{"bike_id":"9ba863da-1f56-452a-934c-6476bb3b8659","system_id":"levelo_inurba_marseille","lat":43.23199,"lon":5.35537,"is_reserved":false,"is_disabled":false,"rental_uris":{"android":"levelo://app?vid=9ba863da-1f56-452a-934c-6476bb3b8659","ios":"levelo://app?vid=9ba863da-1f56-452a-934c-6476bb3b8659"},"vehicle_type_id":"4","last_reported":1750950674,"current_range_meters":19200,"station_id":"ce4bhu92rcd13ifvqi70","pricing_plan_id":"cebpf4jnsgd1na2vs0mg"},{"bike_id":"facfcf93-ab85-4d16-b148-8bc9369e6f17","system_id":"levelo_inurba_marseille","lat":43.21186,"lon":5.35069,"is_reserved":false,"is_disabled":false,"rental_uris":{"android":"levelo://app?vid=facfcf93-ab85-4d16-b148-8bc9369e6f17","ios":"levelo://app?vid=facfcf93-ab85-4d16-b148-8bc9369e6f17"},"vehicle_type_id":"4","last_reported":1750950674,"current_range_meters":19200,"station_id":"st_cvj6sg6p6f1abm77japg","pricing_plan_id":"cebpf4jnsgd1na2vs0mg"},{"bike_id":"44452ff5-ae26-4741-950c-445e0dfd7077","system_id":"levelo_inurba_marseille","lat":43.30911,"lon":5.36856,"is_reserved":false,"is_disabled":false,"rental_uris":{"android":"levelo://app?vid=44452ff5-ae26-4741-950c-445e0dfd7077","ios":"levelo://app?vid=44452ff5-ae26-4741-950c-445e0dfd7077"},"vehicle_type_id":"4","last_reported":1750950674,"current_range_meters":19600,"station_id":"ce4bgn92rcd13ifvqbvg","pricing_plan_id":"cebpf4jnsgd1na2vs0mg"},{"bike_id":"19af5439-30e7-4f6b-a462-1f8bed9f5cf3","system_id":"levelo_inurba_marseille","lat":43.28974,"lon":5.37833,"is_reserved":false,"is_disabled":false,"rental_uris":{"android":"levelo://app?vid=19af5439-30e7-4f6b-a462-1f8bed9f5cf3","ios":"levelo://app?vid=19af5439-30e7-4f6b-a462-1f8bed9f5cf3"},"vehicle_type_id":"4","last_reported":1750950674,"current_range_meters":19600,"station_id":"ce4bh9p2rcd13ifvqed0","pricing_plan_id":"cebpf4jnsgd1na2vs0mg"},{"bike_id":"92e793fc-df15-4f7a-9d88-c584e73eb3f8","system_id":"levelo_inurba_marseille","lat":43.282715,"lon":5.350659,"is_reserved":false,"is_disabled":false,"rental_uris":{"android":"levelo://app?vid=92e793fc-df15-4f7a-9d88-c584e73eb3f8","ios":"levelo://app?vid=92e793fc-df15-4f7a-9d88-c584e73eb3f8"},"vehicle_type_id":"4","last_reported":1750950674,"current_range_meters":19600,"station_id":"ce4bhbp2rcd13ifvqerg","pricing_plan_id":"cebpf4jnsgd1na2vs0mg"},{"bike_id":"998a721a-1ac1-4439-9667-23f8d6fa1c5f","system_id":"levelo_inurba_marseille","lat":43.24073,"lon":5.37762,"is_reserved":false,"is_disabled":false,"rental_uris":{"android":"levelo://app?vid=998a721a-1ac1-4439-9667-23f8d6fa1c5f","ios":"levelo://app?vid=998a721a-1ac1-4439-9667-23f8d6fa1c5f"},"vehicle_type_id":"4","last_reported":1750950674,"current_range_meters":19600,"station_id":"ce4bhnp2rcd13ifvqgvg","pricing_plan_id":"cebpf4jnsgd1na2vs0mg"},{"bike_id":"38e422ee-2075-4d39-b8ed-f3b27bbe56fd","system_id":"levelo_inurba_marseille","lat":43.308,"lon":5.43541,"is_reserved":false,"is_disabled":false,"rental_uris":{"android":"levelo://app?vid=38e422ee-2075-4d39-b8ed-f3b27bbe56fd","ios":"levelo://app?vid=38e422ee-2075-4d39-b8ed-f3b27bbe56fd"},