{"last_updated":1722370129,"ttl":30,"version":"2.2","data":{"bikes":[{"bike_id":"763c3ee1-fb98-48d1-99f1-d8fc8e79df3f","system_id":"levelo_inurba_marseille","lat":43.3124,"lon":5.36816,"is_reserved":false,"is_disabled":false,"rental_uris":{"android":"levelo://app?vid=763c3ee1-fb98-48d1-99f1-d8fc8e79df3f","ios":"levelo://app?vid=763c3ee1-fb98-48d1-99f1-d8fc8e79df3f"},"vehicle_type_id":"4","last_reported":1722370129,"current_range_meters":16400,"station_id":"ce4bgl92rcd13ifvqbq0","pricing_plan_id":"cebpf4jnsgd1na2vs0mg"},{"bike_id":"0c204385-009b-48a3-99b5-0e0e0d91b30f","system_id":"levelo_inurba_marseille","lat":43.31234,"lon":5.36819,"is_reserved":false,"is_disabled":false,"rental_uris":{"android":"levelo://app?vid=0c204385-009b-48a3-99b5-0e0e0d91b30f","ios":"levelo://app?vid=0c204385-009b-48a3-99b5-0e0e0d91b30f"},"vehicle_type_id":"4","last_reported":1722370129,"current_range_meters":5600,"station_id":"ce4bgl92rcd13ifvqbq0","pricing_plan_id":"cebpf4jnsgd1na2vs0mg"},{"bike_id":"4ee469e4-bfcb-4490-91af-5ede7ac4c4b9","system_id":"levelo_inurba_marseille","lat":43.312239,"lon":5.368562,"is_reserved":false,"is_disabled":false,"rental_uris":{"android":"levelo://app?vid=4ee469e4-bfcb-4490-91af-5ede7ac4c4b9","ios":"levelo://app?vid=4ee469e4-bfcb-4490-91af-5ede7ac4c4b9"},"vehicle_type_id":"4","last_reported":1722370129,"current_range_meters":0,"station_id":"ce4bgl92rcd13ifvqbq0","pricing_plan_id":"cebpf4jnsgd1na2vs0mg"},{"bike_id":"ee449f03-99d8-4775-acf7-f4263241134d","system_id":"levelo_inurba_marseille","lat":43.31218,"lon":5.36856,"is_reserved":false,"is_disabled":false,"rental_uris":{"android":"levelo://app?vid=ee449f03-99d8-4775-acf7-f4263241134d","ios":"levelo://app?vid=ee449f03-99d8-4775-acf7-f4263241134d"},"vehicle_type_id":"4","last_reported":1722370129,"current_range_meters":6800,"station_id":"ce4bgl92rcd13ifvqbq0","pricing_plan_id":"cebpf4jnsgd1na2vs0mg"},{"bike_id":"f265044a-153e-4f96-b2aa-67d63e5cf0d9","system_id":"levelo_inurba_marseille","lat":43.31232,"lon":5.36901,"is_reserved":false,"is_disabled":false,"rental_uris":{"android":"levelo://app?vid=f265044a-153e-4f96-b2aa-67d63e5cf0d9","ios":"levelo://app?vid=f265044a-153e-4f96-b2aa-67d63e5cf0d9"},"vehicle_type_id":"4","last_reported":1722370129,"current_range_meters":12400,"station_id":"","pricing_plan_id":"cebpf4jnsgd1na2vs0mg"},{"bike_id":"73fc6574-065a-47a7-9ef1-96972fb6c434","system_id":"levelo_inurba_marseille","lat":43.31303,"lon":5.37112,"is_reserved":false,"is_disabled":false,"rental_uris":{"android":"levelo://app?vid=73fc6574-065a-47a7-9ef1-96972fb6c434","ios":"levelo://app?vid=73fc6574-065a-47a7-9ef1-96972fb6c434"},"vehicle_type_id":"4","last_reported":1722370129,"current_range_meters":800,"station_id":"","pricing_plan_id":"cebpf4jnsgd1na2vs0mg"},{"bike_id":"da829e09-b322-4e08-88c7-57c41699f4ad","system_id":"levelo_inurba_marseille","lat":43.31328,"lon":5.37129,"is_reserved":false,"is_disabled":false,"rental_uris":{"android":"levelo://app?vid=da829e09-b322-4e08-88c7-57c41699f4ad","ios":"levelo://app?vid=da829e09-b322-4e08-88c7-57c41699f4ad"},"vehicle_type_id":"4","last_reported":1722370129,"current_range_meters":11600,"station_id":"","pricing_plan_id":"cebpf4jnsgd1na2vs0mg"},{"bike_id":"684e5add-0e3f-400c-a67b-ca69d153b246","system_id":"levelo_inurba_marseille","lat":43.309076,"lon":5.368465,"is_reserved":false,"is_disabled":false,"rental_uris":{"android":"levelo://app?vid=684e5add-0e3f-400c-a67b-ca69d153b246","ios":"levelo://app?vid=684e5add-0e3f-400c-a67b-ca69d153b246"},"vehicle_type_id":"4","last_reported":1722370129,"current_range_meters":4400,"station_id":"ce4bgn92rcd13ifvqbvg","pricing_plan_id":"cebpf4jnsgd1na2vs0mg"},{"bike_id":"e973cee1-42a1-4074-84d9-8b184b6afc71","system_id":"levelo_inurba_marseille","lat":43.309076,"lon":5.368465,"is_reserved":false,"is_disabled":false,"rental_uris":{"android":"levelo://app?vid=e973cee1-42a1-4074-84d9-8b184b6afc71","ios":"levelo://app?vid=e973cee1-42a1-4074-84d9-8b184b6afc71"},"vehicle_type_id":"4","last_reported":1722370129,"current_range_meters":22400,"station_id":"ce4bgn92rcd13ifvqbvg","pricing_plan_id":"cebpf4jnsgd1na2vs0mg"},{"bike_id":"d1fdb53c-c481-43fc-8780-d298b8bab085","system_id":"levelo_inurba_marseille","lat":43.314811,"lon":5.373103,"is_reserved":false,"is_disabled":false,"rental_uris":{"android":"levelo://app?vid=d1fdb53c-c481-43fc-8780-d298b8bab085","ios":"levelo://app?vid=d1fdb53c-c481-43fc-8780-d298b8bab085"},"vehicle_type_id":"4","last_reported":1722370129,"current_range_meters":0,"station_id":"ce4bgt12rcd13ifvqcd0","pricing_plan_id":"cebpf4jnsgd1na2vs0mg"},{"bike_id":"af0abe35-8c3a-48ce-84be-6dfc36afc942","system_id":"levelo_inurba_marseille","lat":43.314811,"lon":5.373103,"is_reserved":false,"is_disabled":false,"rental_uris":{"android":"levelo://app?vid=af0abe35-8c3a-48ce-84be-6dfc36afc942","ios":"levelo://app?vid=af0abe35-8c3a-48ce-84be-6dfc36afc942"},"vehicle_type_id":"4","last_reported":1722370129,"current_range_meters":0,"station_id":"ce4bgt12rcd13ifvqcd0","pricing_plan_id":"cebpf4jnsgd1na2vs0mg"},{"bike_id":"c63f2357-5afd-4654-bf55-76c6a16db491","system_id":"levelo_inurba_marseille","lat":43.314811,"lon":5.373103,"is_reserved":false,"is_disabled":false,"rental_uris":{"android":"levelo://app?vid=c63f2357-5afd-4654-bf55-76c6a16db491","ios":"levelo://app?vid=c63f2357-5afd-4654-bf55-76c6a16db491"},"vehicle_type_id":"4","last_reported":1722370129,"current_range_meters":15600,"station_id":"ce4bgt12rcd13ifvqcd0","pricing_plan_id":"cebpf4jnsgd1na2vs0mg"},{"bike_id":"f2e896fe-be54-4f5c-adeb-37462b09016d","system_id":"levelo_inurba_marseille","lat":43.309039,"lon":5.371797,"is_reserved":false,"is_disabled":false,"rental_uris":{"android":"levelo://app?vid=f2e896fe-be54-4f5c-adeb-37462b09016d","ios":"levelo://app?vid=f2e896fe-be54-4f5c-adeb-37462b09016d"},"vehicle_type_id":"4","last_reported":1722370129,"current_range_meters":27200,"station_id":"ce4bguh2rcd13ifvqckg","pricing_plan_id":"cebpf4jnsgd1na2vs0mg"},{"bike_id":"b6cdb579-237f-4291-828d-f692fafaa93c","system_id":"levelo_inurba_marseille","lat":43.309039,"lon":5.371797,"is_reserved":false,"is_disabled":false,"rental_uris":{"android":"levelo://app?vid=b6cdb579-237f-4291-828d-f692fafaa93c","ios":"levelo://app?vid=b6cdb579-237f-4291-828d-f692fafaa93c"},"vehicle_type_id":"4","last_reported":1722370129,"current_range_meters":4800,"station_id":"ce4bguh2rcd13ifvqckg","pricing_plan_id":"cebpf4jnsgd1na2vs0mg"},{"bike_id":"00aff692-8939-4ebd-8aa8-65ad5d9f7dd6","system_id":"levelo_inurba_marseille","lat":43.309039,"lon":5.371797,"is_reserved":false,"is_disabled":false,"rental_uris":{"android":"levelo://app?vid=00aff692-8939-4ebd-8aa8-65ad5d9f7dd6","ios":"levelo://app?vid=00aff692-8939-4ebd-8aa8-65ad5d9f7dd6"},"vehicle_type_id":"4","last_reported":1722370129,"current_range_meters":7200,"station_id":"ce4bguh2rcd13ifvqckg","pricing_plan_id":"cebpf4jnsgd1na2vs0mg"},{"bike_id":"c6727dca-0b76-4c16-a3fb-9b029584a516","system_id":"levelo_inurba_marseille","lat":43.309039,"lon":5.371797,"is_reserved":false,"is_disabled":false,"rental_uris":{"android":"levelo://app?vid=c6727dca-0b76-4c16-a3fb-9b029584a516","ios":"levelo://app?vid=c6727dca-0b76-4c16-a3fb-9b029584a516"},"vehicle_type_id":"4","last_reported":1722370129,"current_range_meters":1200,"station_id":"ce4bguh2rcd13ifvqckg","pricing_plan_id":"cebpf4jnsgd1na2vs0mg"},{"bike_id":"1dc499d6-97af-4e68-b6e7-7b2106b8b68d","system_id":"levelo_inurba_marseille","lat":43.31706,"lon":5.374067,"is_reserved":false,"is_disabled":false,"rental_uris":{"android":"levelo://app?vid=1dc499d6-97af-4e68-b6e7-7b2106b8b68d","ios":"levelo://app?vid=1dc499d6-97af-4e68-b6e7-7b2106b8b68d"},"vehicle_type_id":"4","last_reported":1722370129,"current_range_meters":0,"station_id":"","pricing_plan_id":"cebpf4jnsgd1na2vs0mg"},{"bike_id":"5f6da98a-1053-4994-88e9-3971de65505c","system_id":"levelo_inurba_marseille","lat":43.30537,"lon":5.367345,"is_reserved":false,"is_disabled":false,"rental_uris":{"android":"levelo://app?vid=5f6da98a-1053-4994-88e9-3971de65505c","ios":"levelo://app?vid=5f6da98a-1053-4994-88e9-3971de65505c"},"vehicle_type_id":"4","last_reported":1722370129,"current_range_meters":12000,"station_id":"ce4bgrp2rcd13ifvqc9g","pricing_plan_id":"cebpf4jnsgd1na2vs0mg"},{"bike_id":"01b249f0-a627-4f7c-b653-2596d1bf40e3","system_id":"levelo_inurba_marseille","lat":43.30546,"lon":5.36556,"is_reserved":false,"is_disabled":false,"rental_uris":{"android":"levelo://app?vid=01b249f0-a627-4f7c-b653-2596d1bf40e3","ios":"levelo://app?vid=01b249f0-a627-4f7c-b653-2596d1bf40e3"},"vehicle_type_id":"4","last_reported":1722370129,"current_range_meters":9200,"station_id":"ce4bgs12rcd13ifvqcag","pricing_plan_id":"cebpf4jnsgd1na2vs0mg"},{"bike_id":"d29ea3e5-6696-41a2-9f9c-95f53fa5a12a","system_id":"levelo_inurba_marseille","lat":43.30537,"lon":5.367345,"is_reserved":false,"is_disabled":false,"rental_uris":{"android":"levelo://app?vid=d29ea3e5-6696-41a2-9f9c-95f53fa5a12a","ios":"levelo://app?vid=d29ea3e5-6696-41a2-9f9c-95f53fa5a12a"},"vehicle_type_id":"4","last_reported":1722370129,"current_range_meters":15600,"station_id":"ce4bgrp2rcd13ifvqc9g","pricing_plan_id":"cebpf4jnsgd1na2vs0mg"},{"bike_id":"41e030a6-8e30-4201-b224-ececb7464baf","system_id":"levelo_inurba_marseille","lat":43.3054,"lon":5.36534,"is_reserved":false,"is_disabled":false,"rental_uris":{"android":"levelo://app?vid=41e030a6-8e30-4201-b224-ececb7464baf","ios":"levelo://app?vid=41e030a6-8e30-4201-b224-ececb7464baf"},"vehicle_type_id":"4","last_reported":1722370129,"current_range_meters":1600,"station_id":"ce4bgs12rcd13ifvqcag","pricing_plan_id":"cebpf4jnsgd1na2vs0mg"},{"bike_id":"90b309c2-1a20-4250-9f70-8504669a939f","system_id":"levelo_inurba_marseille","lat":43.305368,"lon":5.367343,"is_reserved":false,"is_disabled":false,"rental_uris":{"android":"levelo://app?vid=90b309c2-1a20-4250-9f70-8504669a939f","ios":"levelo://app?vid=90b309c2-1a20-4250-9f70-8504669a939f"},"vehicle_type_id":"4","last_reported":1722370129,"current_range_meters":18400,"station_id":"ce4bgrp2rcd13ifvqc9g","pricing_plan_id":"cebpf4jnsgd1na2vs0mg"},{"bike_id":"d78bde82-9ed0-40aa-9d79-3223e5cc461f","system_id":"levelo_inurba_marseille","lat":43.305989,"lon":5.37225,"is_reserved":false,"is_disabled":false,"rental_uris":{"android":"levelo://app?vid=d78bde82-9ed0-40aa-9d79-3223e5cc461f","ios":"levelo://app?vid=d78bde82-9ed0-40aa-9d79-3223e5cc461f"},"vehicle_type_id":"4","last_reported":1722370129,"current_range_meters":24800,"station_id":"ce4bgqh2rcd13ifvqc4g","pricing_plan_id":"cebpf4jnsgd1na2vs0mg"},{"bike_id":"689b76ae-892c-4627-b1cd-0d5536012be9","system_id":"levelo_inurba_marseille","lat":43.305989,"lon":5.37225,"is_reserved":false,"is_disabled":false,"rental_uris":{"android":"levelo://app?vid=689b76ae-892c-4627-b1cd-0d5536012be9","ios":"levelo://app?vid=689b76ae-892c-4627-b1cd-0d5536012be9"},"vehicle_type_id":"4","last_reported":1722370129,"current_range_meters":28400,"station_id":"ce4bgqh2rcd13ifvqc4g","pricing_plan_id":"cebpf4jnsgd1na2vs0mg"},{"bike_id":"83e8a5f7-017b-4487-8e13-5527d6b9cf34","system_id":"levelo_inurba_marseille","lat":43.311131,"lon":5.377651,"is_reserved":false,"is_disabled":false,"rental_uris":{"android":"levelo://app?vid=83e8a5f7-017b-4487-8e13-5527d6b9cf34","ios":"levelo://app?vid=83e8a5f7-017b-4487-8e13-5527d6b9cf34"},"vehicle_type_id":"4","last_reported":1722370129,"current_range_meters":23600,"station_id":"ce4bgt92rcd13ifvqcg0","pricing_plan_id":"cebpf4jnsgd1na2vs0mg"},{"bike_id":"5c2c1864-5ffb-4a21-a00a-3ed9515647e5","system_id":"levelo_inurba_marseille","lat":43.311125,"lon":5.377624,"is_reserved":false,"is_disabled":false,"rental_uris":{"android":"levelo://app?vid=5c2c1864-5ffb-4a21-a00a-3ed9515647e5","ios":"levelo://app?vid=5c2c1864-5ffb-4a21-a00a-3ed9515647e5"},"vehicle_type_id":"4","last_reported":1722370129,"current_range_meters":14800,"station_id":"ce4bgt92rcd13ifvqcg0","pricing_plan_id":"cebpf4jnsgd1na2vs0mg"},{"bike_id":"95d8e728-5e70-48f3-aefb-08fc01518785","system_id":"levelo_inurba_marseille","lat":43.311125,"lon":5.377624,"is_reserved":false,"is_disabled":false,"rental_uris":{"android":"levelo://app?vid=95d8e728-5e70-48f3-aefb-08fc01518785","ios":"levelo://app?vid=95d8e728-5e70-48f3-aefb-08fc01518785"},"vehicle_type_id":"4","last_reported":1722370129,"current_range_meters":0,"station_id":"ce4bgt92rcd13ifvqcg0","pricing_plan_id":"cebpf4jnsgd1na2vs0mg"},{"bike_id":"60e78563-a7bb-432f-8f92-b941d30a3194","system_id":"levelo_inurba_marseille","lat":43.311131,"lon":5.377651,"is_reserved":false,"is_disabled":false,"rental_uris":{"android":"levelo://app?vid=60e78563-a7bb-432f-8f92-b941d30a3194","ios":"levelo://app?vid=60e78563-a7bb-432f-8f92-b941d30a3194"},"vehicle_type_id":"4","last_reported":1722370129,"current_range_meters":14800,"station_id":"ce4bgt92rcd13ifvqcg0","pricing_plan_id":"cebpf4jnsgd1na2vs0mg"},{"bike_id":"1b3e93d5-7d85-4feb-b593-76062d914202","system_id":"levelo_inurba_marseille","lat":43.311131,"lon":5.377651,"is_reserved":false,"is_disabled":false,"rental_uris":{"android":"levelo://app?vid=1b3e93d5-7d85-4feb-b593-76062d914202","ios":"levelo://app?vid=1b3e93d5-7d85-4feb-b593-76062d914202"},"vehicle_type_id":"4","last_reported":1722370129,"current_range_meters":0,"station_id":"ce4bgt92rcd13ifvqcg0","pricing_plan_id":"cebpf4jnsgd1na2vs0mg"},{"bike_id":"9e353760-22a8-480b-8c9e-3689101e0780","system_id":"levelo_inurba_marseille","lat":43.311131,"lon":5.377651,"is_reserved":false,"is_disabled":false,"rental_uris":{"android":"levelo://app?vid=9e353760-22a8-480b-8c9e-3689101e0780","ios":"levelo://app?vid=9e353760-22a8-480b-8c9e-3689101e0780"},"vehicle_type_id":"4","last_reported":1722370129,"current_range_meters":29600,"station_id":"ce4bgt92rcd13ifvqcg0","pricing_plan_id":"cebpf4jnsgd1na2vs0mg"},{"bike_id":"4ff9e3a4-b9ef-4895-b368-3f21ec1ab3bb","system_id":"levelo_inurba_marseille","lat":43.311131,"lon":5.377651,"is_reserved":false,"is_disabled":false,"rental_uris":{"android":"levelo://app?vid=4ff9e3a4-b9ef-4895-b368-3f21ec1ab3bb","ios":"levelo://app?vid=4ff9e3a4-b9ef-4895-b368-3f21ec1ab3bb"},"vehicle_type_id":"4","last_reported":1722370129,"current_range_meters":400,"station_id":"ce4bgt92rcd13ifvqcg0","pricing_plan_id":"cebpf4jnsgd1na2vs0mg"},{"bike_id":"6647a7d6-183a-4736-bf0a-7f5fe24831ad","system_id":"levelo_inurba_marseille","lat":43.307945,"lon":5.376487,"is_reserved":false,"is_disabled":false,"rental_uris":{"android":"levelo://app?vid=6647a7d6-183a-4736-bf0a-7f5fe24831ad","ios":"levelo://app?vid=6647a7d6-183a-4736-bf0a-7f5fe24831ad"},"vehicle_type_id":"4","last_reported":1722370129,"current_range_meters":3600,"station_id":"ce4bgv92rcd13ifvqcq0","pricing_plan_id":"cebpf4jnsgd1na2vs0mg"},{"bike_id":"716c488b-5e61-45ad-a489-8ddf5fe8cfe9","system_id":"levelo_inurba_marseille","lat":43.30783,"lon":5.37648,"is_reserved":false,"is_disabled":false,"rental_uris":{"android":"levelo://app?vid=716c488b-5e61-45ad-a489-8ddf5fe8cfe9","ios":"levelo://app?vid=716c488b-5e61-45ad-a489-8ddf5fe8cfe9"},"vehicle_type_id":"4","last_reported":1722370129,"current_range_meters":1600,"station_id":"ce4bgv92rcd13ifvqcq0","pricing_plan_id":"cebpf4jnsgd1na2vs0mg"},{"bike_id":"471772d7-154c-40d1-8d91-e814fc246250","system_id":"levelo_inurba_marseille","lat":43.307945,"lon":5.376487,"is_reserved":false,"is_disabled":false,"rental_uris":{"android":"levelo://app?vid=471772d7-154c-40d1-8d91-e814fc246250","ios":"levelo://app?vid=471772d7-154c-40d1-8d91-e814fc246250"},"vehicle_type_id":"4","last_reported":1722370129,"current_range_meters":12800,"station_id":"ce4bgv92rcd13ifvqcq0","pricing_plan_id":"cebpf4jnsgd1na2vs0mg"},{"bike_id":"de06134f-eda8-4ae6-b07b-3701656a0920","system_id":"levelo_inurba_marseille","lat":43.317075,"lon":5.377367,"is_reserved":false,"is_disabled":false,"rental_uris":{"android":"levelo://app?vid=de06134f-eda8-4ae6-b07b-3701656a0920","ios":"levelo://app?vid=de06134f-eda8-4ae6-b07b-3701656a0920"},"vehicle_type_id":"4","last_reported":1722370129,"current_range_meters":26000,"station_id":"ce4bgth2rcd13ifvqch0","pricing_plan_id":"cebpf4jnsgd1na2vs0mg"},{"bike_id":"e7ec6e93-d835-4285-852c-975f98a7ab62","system_id":"levelo_inurba_marseille","lat":43.314837,"lon":5.380097,"is_reserved":false,"is_disabled":false,"rental_uris":{"android":"levelo://app?vid=e7ec6e93-d835-4285-852c-975f98a7ab62","ios":"levelo://app?vid=e7ec6e93-d835-4285-852c-975f98a7ab62"},"vehicle_type_id":"4","last_reported":1722370129,"current_range_meters":31200,"station_id":"","pricing_plan_id":"cebpf4jnsgd1na2vs0mg"},{"bike_id":"73f58f22-0d99-4c84-8411-c4f8da74d999","system_id":"levelo_inurba_marseille","lat":43.3028,"lon":5.367621,"is_reserved":false,"is_disabled":false,"rental_uris":{"android":"levelo://app?vid=73f58f22-0d99-4c84-8411-c4f8da74d999","ios":"levelo://app?vid=73f58f22-0d99-4c84-8411-c4f8da74d999"},"vehicle_type_id":"4","last_reported":1722370129,"current_range_meters":0,"station_id":"","pricing_plan_id":"cebpf4jnsgd1na2vs0mg"},{"bike_id":"e2230309-7a84-46f5-9210-e46114ecbc49","system_id":"levelo_inurba_marseille","lat":43.308554,"lon":5.379536,"is_reserved":false,"is_disabled":false,"rental_uris":{"android":"levelo://app?vid=e2230309-7a84-46f5-9210-e46114ecbc49","ios":"levelo://app?vid=e2230309-7a84-46f5-9210-e46114ecbc49"},"vehicle_type_id":"4","last_reported":1722370129,"current_range_meters":13200,"station_id":"","pricing_plan_id":"cebpf4jnsgd1na2vs0mg"},{"bike_id":"ee579bcb-2278-4a07-846b-6664e03e5d7d","system_id":"levelo_inurba_marseille","lat":43.31022,"lon":5.38065,"is_reserved":false,"is_disabled":false,"rental_uris":{"android":"levelo://app?vid=ee579bcb-2278-4a07-846b-6664e03e5d7d","ios":"levelo://app?vid=ee579bcb-2278-4a07-846b-6664e03e5d7d"},"vehicle_type_id":"4","last_reported":1722370129,"current_range_meters":3200,"station_id":"","pricing_plan_id":"cebpf4jnsgd1na2vs0mg"},{"bike_id":"28e421a1-c7a4-497f-af34-7a9c4885e7de","system_id":"levelo_inurba_marseille","lat":43.31415,"lon":5.38097,"is_reserved":false,"is_disabled":false,"rental_uris":{"android":"levelo://app?vid=28e421a1-c7a4-497f-af34-7a9c4885e7de","ios":"levelo://app?vid=28e421a1-c7a4-497f-af34-7a9c4885e7de"},"vehicle_type_id":"4","last_reported":1722370129,"current_range_meters":28000,"station_id":"","pricing_plan_id":"cebpf4jnsgd1na2vs0mg"},{"bike_id":"099b7d03-dc0c-41bf-a7fa-af29a763f335","system_id":"levelo_inurba_marseille","lat":43.301939,"lon":5.366286,"is_reserved":false,"is_disabled":false,"rental_uris":{"android":"levelo://app?vid=099b7d03-dc0c-41bf-a7fa-af29a763f335","ios":"levelo://app?vid=099b7d03-dc0c-41bf-a7fa-af29a763f335"},"vehicle_type_id":"4","last_reported":1722370129,"current_range_meters":25600,"station_id":"ce4bgrh2rcd13ifvqc8g","pricing_plan_id":"cebpf4jnsgd1na2vs0mg"},{"bike_id":"d450dc5c-a241-4b25-b39d-6a8dd463ae75","system_id":"levelo_inurba_marseille","lat":43.3075,"lon":5.37998,"is_reserved":false,"is_disabled":false,"rental_uris":{"android":"levelo://app?vid=d450dc5c-a241-4b25-b39d-6a8dd463ae75","ios":"levelo://app?vid=d450dc5c-a241-4b25-b39d-6a8dd463ae75"},"vehicle_type_id":"4","last_reported":1722370129,"current_range_meters":800,"station_id":"","pricing_plan_id":"cebpf4jnsgd1na2vs0mg"},{"bike_id":"13a1c276-9342-4f93-afa5-d18cc79dceed","system_id":"levelo_inurba_marseille","lat":43.304606,"lon":5.379026,"is_reserved":false,"is_disabled":false,"rental_uris":{"android":"levelo://app?vid=13a1c276-9342-4f93-afa5-d18cc79dceed","ios":"levelo://app?vid=13a1c276-9342-4f93-afa5-d18cc79dceed"},"vehicle_type_id":"4","last_reported":1722370129,"current_range_meters":31200,"station_id":"ce4bgup2rcd13ifvqcn0","pricing_plan_id":"cebpf4jnsgd1na2vs0mg"},{"bike_id":"bbc4a081-5d44-4c70-aca6-ba0be4373e40","system_id":"levelo_inurba_marseille","lat":43.32472,"lon":5.36574,"is_reserved":false,"is_disabled":false,"rental_uris":{"android":"levelo://app?vid=bbc4a081-5d44-4c70-aca6-ba0be4373e40","ios":"levelo://app?vid=bbc4a081-5d44-4c70-aca6-ba0be4373e40"},"vehicle_type_id":"4","last_reported":1722370129,"current_range_meters":22000,"station_id":"ce4bhs12rcd13ifvqhvg","pricing_plan_id":"cebpf4jnsgd1na2vs0mg"},{"bike_id":"b321e5e8-726a-4be3-93c3-ecf6139de53a","system_id":"levelo_inurba_marseille","lat":43.324771,"lon":5.36557,"is_reserved":false,"is_disabled":false,"rental_uris":{"android":"levelo://app?vid=b321e5e8-726a-4be3-93c3-ecf6139de53a","ios":"levelo://app?vid=b321e5e8-726a-4be3-93c3-ecf6139de53a"},"vehicle_type_id":"4","last_reported":1722370129,"current_range_meters":31200,"station_id":"ce4bhs12rcd13ifvqhvg","pricing_plan_id":"cebpf4jnsgd1na2vs0mg"},{"bike_id":"f6891cbe-29af-428a-b87b-69af17da6bf9","system_id":"levelo_inurba_marseille","lat":43.324771,"lon":5.36557,"is_reserved":false,"is_disabled":false,"rental_uris":{"android":"levelo://app?vid=f6891cbe-29af-428a-b87b-69af17da6bf9","ios":"levelo://app?vid=f6891cbe-29af-428a-b87b-69af17da6bf9"},"vehicle_type_id":"4","last_reported":1722370129,"current_range_meters":2400,"station_id":"ce4bhs12rcd13ifvqhvg","pricing_plan_id":"cebpf4jnsgd1na2vs0mg"},{"bike_id":"93eb177f-35a7-4d93-9d3e-c63b3ef6dcce","system_id":"levelo_inurba_marseille","lat":43.31077,"lon":5.38356,"is_reserved":false,"is_disabled":false,"rental_uris":{"android":"levelo://app?vid=93eb177f-35a7-4d93-9d3e-c63b3ef6dcce","ios":"levelo://app?vid=93eb177f-35a7-4d93-9d3e-c63b3ef6dcce"},"vehicle_type_id":"4","last_reported":1722370129,"current_range_meters":11600,"station_id":"ce4bgv92rcd13ifvqcr0","pricing_plan_id":"cebpf4jnsgd1na2vs0mg"},{"bike_id":"5842700e-2c82-4b3c-87cd-5e5bd9649e00","system_id":"levelo_inurba_marseille","lat":43.30143,"lon":5.37413,"is_reserved":false,"is_disabled":false,"rental_uris":{"android":"levelo://app?vid=5842700e-2c82-4b3c-87cd-5e5bd9649e00","ios":"levelo://app?vid=5842700e-2c82-4b3c-87cd-5e5bd9649e00"},"vehicle_type_id":"4","last_reported":1722370129,"current_range_meters":29600,"station_id":"ce4bgs92rcd13ifvqcc0","pricing_plan_id":"cebpf4jnsgd1na2vs0mg"},{"bike_id":"aa124ca0-5a7f-4b02-b2b5-29e1ff2d6881","system_id":"levelo_inurba_marseille","lat":43.30135,"lon":5.374178,"is_reserved":false,"is_disabled":false,"rental_uris":{"android":"levelo://app?vid=aa124ca0-5a7f-4b02-b2b5-29e1ff2d6881","ios":"levelo://app?vid=aa124ca0-5a7f-4b02-b2b5-29e1ff2d6881"},"vehicle_type_id":"4","last_reported":1722370129,"current_range_meters":0,"station_id":"ce4bgs92rcd13ifvqcc0","pricing_plan_id":"cebpf4jnsgd1na2vs0mg"},{"bike_id":"159fd6dc-2ca9-4476-85dd-9d4862e789ff","system_id":"levelo_inurba_marseille","lat":43.313571,"lon":5.384829,"is_reserved":false,"is_disabled":false,"rental_uris":{"android":"levelo://app?vid=159fd6dc-2ca9-4476-85dd-9d4862e789ff","ios":"levelo://app?vid=159fd6dc-2ca9-4476-85dd-9d4862e789ff"},"vehicle_type_id":"4","last_reported":1722370129,"current_range_meters":3600,"station_id":"ce4bgt92rcd13ifvqcf0","pricing_plan_id":"cebpf4jnsgd1na2vs0mg"},{"bike_id":"e9e9c79d-89a8-4077-a166-1f0e1e1c8261","system_id":"levelo_inurba_marseille","lat":43.319935,"lon":5.381699,"is_reserved":false,"is_disabled":false,"rental_uris":{"android":"levelo://app?vid=e9e9c79d-89a8-4077-a166-1f0e1e1c8261","ios":"levelo://app?vid=e9e9c79d-89a8-4077-a166-1f0e1e1c8261"},"vehicle_type_id":"4","last_reported":1722370129,"current_range_meters":7200,"station_id":"ce4bhr12rcd13ifvqhpg","pricing_plan_id":"cebpf4jnsgd1na2vs0mg"},{"bike_id":"da751d6b-47d3-477b-9a50-23aa67cc13ed","system_id":"levelo_inurba_marseille","lat":43.319935,"lon":5.381699,"is_reserved":false,"is_disabled":false,"rental_uris":{"android":"levelo://app?vid=da751d6b-47d3-477b-9a50-23aa67cc13ed","ios":"levelo://app?vid=da751d6b-47d3-477b-9a50-23aa67cc13ed"},"vehicle_type_id":"4","last_reported":1722370129,"current_range_meters":18000,"station_id":"ce4bhr12rcd13ifvqhpg","pricing_plan_id":"cebpf4jnsgd1na2vs0mg"},{"bike_id":"7261269a-3682-4ab9-abb6-87aef7753597","system_id":"levelo_inurba_marseille","lat":43.319935,"lon":5.381699,"is_reserved":false,"is_disabled":false,"rental_uris":{"android":"levelo://app?vid=7261269a-3682-4ab9-abb6-87aef7753597","ios":"levelo://app?vid=7261269a-3682-4ab9-abb6-87aef7753597"},"vehicle_type_id":"4","last_reported":1722370129,"current_range_meters":17600,"station_id":"ce4bhr12rcd13ifvqhpg","pricing_plan_id":"cebpf4jnsgd1na2vs0mg"},{"bike_id":"dda0c59c-4a3b-43ae-8bdb-f48d55190551","system_id":"levelo_inurba_marseille","lat":43.299222,"lon":5.365554,"is_reserved":false,"is_disabled":false,"rental_uris":{"android":"levelo://app?vid=dda0c59c-4a3b-43ae-8bdb-f48d55190551","ios":"levelo://app?vid=dda0c59c-4a3b-43ae-8bdb-f48d55190551"},"vehicle_type_id":"4","last_reported":1722370129,"current_range_meters":27600,"station_id":"ce4bgm92rcd13ifvqbr0","pricing_plan_id":"cebpf4jnsgd1na2vs0mg"},{"bike_id":"f53f3f08-583f-43b8-98b3-5ce277c33310","system_id":"levelo_inurba_marseille","lat":43.299222,"lon":5.365554,"is_reserved":false,"is_disabled":false,"rental_uris":{"android":"levelo://app?vid=f53f3f08-583f-43b8-98b3-5ce277c33310","ios":"levelo://app?vid=f53f3f08-583f-43b8-98b3-5ce277c33310"},"vehicle_type_id":"4","last_reported":1722370129,"current_range_meters":0,"station_id":"ce4bgm92rcd13ifvqbr0","pricing_plan_id":"cebpf4jnsgd1na2vs0mg"},{"bike_id":"0d70ba60-1f56-4d36-84cd-421b38e2d795","system_id":"levelo_inurba_marseille","lat":43.299222,"lon":5.365554,"is_reserved":false,"is_disabled":false,"rental_uris":{"android":"levelo://app?vid=0d70ba60-1f56-4d36-84cd-421b38e2d795","ios":"levelo://app?vid=0d70ba60-1f56-4d36-84cd-421b38e2d795"},"vehicle_type_id":"4","last_reported":1722370129,"current_range_meters":15600,"station_id":"ce4bgm92rcd13ifvqbr0","pricing_plan_id":"cebpf4jnsgd1na2vs0mg"},{"bike_id":"fc6f2f43-0a78-4d34-901d-2eec4567dcb9","system_id":"levelo_inurba_marseille","lat":43.29976,"lon":5.37195,"is_reserved":false,"is_disabled":false,"rental_uris":{"android":"levelo://app?vid=fc6f2f43-0a78-4d34-901d-2eec4567dcb9","ios":"levelo://app?vid=fc6f2f43-0a78-4d34-901d-2eec4567dcb9"},"vehicle_type_id":"4","last_reported":1722370129,"current_range_meters":0,"station_id":"ce4bgr92rcd13ifvqc7g","pricing_plan_id":"cebpf4jnsgd1na2vs0mg"},{"bike_id":"47b011a9-9566-4772-aa59-e8fcb9c98b05","system_id":"levelo_inurba_marseille","lat":43.299222,"lon":5.365554,"is_reserved":false,"is_disabled":false,"rental_uris":{"android":"levelo://app?vid=47b011a9-9566-4772-aa59-e8fcb9c98b05","ios":"levelo://app?vid=47b011a9-9566-4772-aa59-e8fcb9c98b05"},"vehicle_type_id":"4","last_reported":1722370129,"current_range_meters":9600,"station_id":"ce4bgm92rcd13ifvqbr0","pricing_plan_id":"cebpf4jnsgd1na2vs0mg"},{"bike_id":"53670d89-5c99-4fde-a8d5-3e5afd488af1","system_id":"levelo_inurba_marseille","lat":43.305364,"lon":5.384119,"is_reserved":false,"is_disabled":false,"rental_uris":{"android":"levelo://app?vid=53670d89-5c99-4fde-a8d5-3e5afd488af1","ios":"levelo://app?vid=53670d89-5c99-4fde-a8d5-3e5afd488af1"},"vehicle_type_id":"4","last_reported":1722370129,"current_range_meters":6000,"station_id":"ce4bgg92rcd13ifvqb30","pricing_plan_id":"cebpf4jnsgd1na2vs0mg"},{"bike_id":"c105a6cb-79a1-4167-9445-ef6a404a78b4","system_id":"levelo_inurba_marseille","lat":43.311722,"lon":5.387247,"is_reserved":false,"is_disabled":false,"rental_uris":{"android":"levelo://app?vid=c105a6cb-79a1-4167-9445-ef6a404a78b4","ios":"levelo://app?vid=c105a6cb-79a1-4167-9445-ef6a404a78b4"},"vehicle_type_id":"4","last_reported":1722370129,"current_range_meters":27600,"station_id":"ce4bgv12rcd13ifvqcp0","pricing_plan_id":"cebpf4jnsgd1na2vs0mg"},{"bike_id":"b14f0a43-3ce5-413d-8958-18674431e8bc","system_id":"levelo_inurba_marseille","lat":43.31166,"lon":5.38712,"is_reserved":false,"is_disabled":false,"rental_uris":{"android":"levelo://app?vid=b14f0a43-3ce5-413d-8958-18674431e8bc","ios":"levelo://app?vid=b14f0a43-3ce5-413d-8958-18674431e8bc"},"vehicle_type_id":"4","last_reported":1722370129,"current_range_meters":31200,"station_id":"ce4bgv12rcd13ifvqcp0","pricing_plan_id":"cebpf4jnsgd1na2vs0mg"},{"bike_id":"57e34e02-5b82-4468-9dae-f1e0b94a715e","system_id":"levelo_inurba_marseille","lat":43.311773,"lon":5.38715,"is_reserved":false,"is_disabled":false,"rental_uris":{"android":"levelo://app?vid=57e34e02-5b82-4468-9dae-f1e0b94a715e","ios":"levelo://app?vid=57e34e02-5b82-4468-9dae-f1e0b94a715e"},"vehicle_type_id":"4","last_reported":1722370129,"current_range_meters":0,"station_id":"ce4bgv12rcd13ifvqcp0","pricing_plan_id":"cebpf4jnsgd1na2vs0mg"},{"bike_id":"ec5be017-1b46-4eb5-ac73-6d6f8804af3b","system_id":"levelo_inurba_marseille","lat":43.299243,"lon":5.374807,"is_reserved":false,"is_disabled":false,"rental_uris":{"android":"levelo://app?vid=ec5be017-1b46-4eb5-ac73-6d6f8804af3b","ios":"levelo://app?vid=ec5be017-1b46-4eb5-ac73-6d6f8804af3b"},"vehicle_type_id":"4","last_reported":1722370129,"current_range_meters":20000,"station_id":"ce4bgjh2rcd13ifvqbg0","pricing_plan_id":"cebpf4jnsgd1na2vs0mg"},{"bike_id":"a49b0372-43ee-4b5a-9241-e01ad4d86d03","system_id":"levelo_inurba_marseille","lat":43.299243,"lon":5.374807,"is_reserved":false,"is_disabled":false,"rental_uris":{"android":"levelo://app?vid=a49b0372-43ee-4b5a-9241-e01ad4d86d03","ios":"levelo://app?vid=a49b0372-43ee-4b5a-9241-e01ad4d86d03"},"vehicle_type_id":"4","last_reported":1722370129,"current_range_meters":24400,"station_id":"ce4bgjh2rcd13ifvqbg0","pricing_plan_id":"cebpf4jnsgd1na2vs0mg"},{"bike_id":"e467648d-ed8c-4ae1-958a-693d694708ca","system_id":"levelo_inurba_marseille","lat":43.31168,"lon":5.38722,"is_reserved":false,"is_disabled":false,"rental_uris":{"android":"levelo://app?vid=e467648d-ed8c-4ae1-958a-693d694708ca","ios":"levelo://app?vid=e467648d-ed8c-4ae1-958a-693d694708ca"},"vehicle_type_id":"4","last_reported":1722370129,"current_range_meters":22000,"station_id":"ce4bgv12rcd13ifvqcp0","pricing_plan_id":"cebpf4jnsgd1na2vs0mg"},{"bike_id":"86d3680e-2d2a-4618-9df0-a7c8a865088b","system_id":"levelo_inurba_marseille","lat":43.31166,"lon":5.38725,"is_reserved":false,"is_disabled":false,"rental_uris":{"android":"levelo://app?vid=86d3680e-2d2a-4618-9df0-a7c8a865088b","ios":"levelo://app?vid=86d3680e-2d2a-4618-9df0-a7c8a865088b"},"vehicle_type_id":"4","last_reported":1722370129,"current_range_meters":3200,"station_id":"ce4bgv12rcd13ifvqcp0","pricing_plan_id":"cebpf4jnsgd1na2vs0mg"},{"bike_id":"035857d4-44f1-4e3d-83e4-c174611b81f2","system_id":"levelo_inurba_marseille","lat":43.305364,"lon":5.384119,"is_reserved":false,"is_disabled":false,"rental_uris":{"android":"levelo://app?vid=035857d4-44f1-4e3d-83e4-c174611b81f2","ios":"levelo://app?vid=035857d4-44f1-4e3d-83e4-c174611b81f2"},"vehicle_type_id":"4","last_reported":1722370129,"current_range_meters":13200,"station_id":"ce4bgg92rcd13ifvqb30","pricing_plan_id":"cebpf4jnsgd1na2vs0mg"},{"bike_id":"2a5b656f-88fa-4de5-94f1-d423642967f2","system_id":"levelo_inurba_marseille","lat":43.299243,"lon":5.374807,"is_reserved":false,"is_disabled":false,"rental_uris":{"android":"levelo://app?vid=2a5b656f-88fa-4de5-94f1-d423642967f2","ios":"levelo://app?vid=2a5b656f-88fa-4de5-94f1-d423642967f2"},"vehicle_type_id":"4","last_reported":1722370129,"current_range_meters":31600,"station_id":"ce4bgjh2rcd13ifvqbg0","pricing_plan_id":"cebpf4jnsgd1na2vs0mg"},{"bike_id":"6475f70d-348c-4c92-bc31-7d3a2cb26322","system_id":"levelo_inurba_marseille","lat":43.322872,"lon":5.382756,"is_reserved":false,"is_disabled":false,"rental_uris":{"android":"levelo://app?vid=6475f70d-348c-4c92-bc31-7d3a2cb26322","ios":"levelo://app?vid=6475f70d-348c-4c92-bc31-7d3a2cb26322"},"vehicle_type_id":"4","last_reported":1722370129,"current_range_meters":22400,"station_id":"ce4bhr12rcd13ifvqhqg","pricing_plan_id":"cebpf4jnsgd1na2vs0mg"},{"bike_id":"a799cd54-e7e1-4723-a2e3-66468ed89797","system_id":"levelo_inurba_marseille","lat":43.30125,"lon":5.38076,"is_reserved":false,"is_disabled":false,"rental_uris":{"android":"levelo://app?vid=a799cd54-e7e1-4723-a2e3-66468ed89797","ios":"levelo://app?vid=a799cd54-e7e1-4723-a2e3-66468ed89797"},"vehicle_type_id":"4","last_reported":1722370129,"current_range_meters":0,"station_id":"","pricing_plan_id":"cebpf4jnsgd1na2vs0mg"},{"bike_id":"b3ecf209-bede-43aa-8005-965ac6e62433","system_id":"levelo_inurba_marseille","lat":43.3229,"lon":5.38276,"is_reserved":false,"is_disabled":false,"rental_uris":{"android":"levelo://app?vid=b3ecf209-bede-43aa-8005-965ac6e62433","ios":"levelo://app?vid=b3ecf209-bede-43aa-8005-965ac6e62433"},"vehicle_type_id":"4","last_reported":1722370129,"current_range_meters":25600,"station_id":"ce4bhr12rcd13ifvqhqg","pricing_plan_id":"cebpf4jnsgd1na2vs0mg"},{"bike_id":"36514dbc-4d58-4db2-bd52-cb7b248c2226","system_id":"levelo_inurba_marseille","lat":43.322872,"lon":5.382756,"is_reserved":false,"is_disabled":false,"rental_uris":{"android":"levelo://app?vid=36514dbc-4d58-4db2-bd52-cb7b248c2226","ios":"levelo://app?vid=36514dbc-4d58-4db2-bd52-cb7b248c2226"},"vehicle_type_id":"4","last_reported":1722370129,"current_range_meters":12000,"station_id":"ce4bhr12rcd13ifvqhqg","pricing_plan_id":"cebpf4jnsgd1na2vs0mg"},{"bike_id":"0f59a556-7885-40ca-b0c5-239dfa0ca49e","system_id":"levelo_inurba_marseille","lat":43.29709,"lon":5.36614,"is_reserved":false,"is_disabled":false,"rental_uris":{"android":"levelo://app?vid=0f59a556-7885-40ca-b0c5-239dfa0ca49e","ios":"levelo://app?vid=0f59a556-7885-40ca-b0c5-239dfa0ca49e"},"vehicle_type_id":"4","last_reported":1722370129,"current_range_meters":22000,"station_id":"ce4bgn12rcd13ifvqbt0","pricing_plan_id":"cebpf4jnsgd1na2vs0mg"},{"bike_id":"feefa042-5729-495e-8f75-5f7007cf75b6","system_id":"levelo_inurba_marseille","lat":43.297163,"lon":5.365866,"is_reserved":false,"is_disabled":false,"rental_uris":{"android":"levelo://app?vid=feefa042-5729-495e-8f75-5f7007cf75b6","ios":"levelo://app?vid=feefa042-5729-495e-8f75-5f7007cf75b6"},"vehicle_type_id":"4","last_reported":1722370129,"current_range_meters":400,"station_id":"ce4bgn12rcd13ifvqbt0","pricing_plan_id":"cebpf4jnsgd1na2vs0mg"},{"bike_id":"05539ff2-d631-49d2-8fba-2e3f0fa4a148","system_id":"levelo_inurba_marseille","lat":43.297163,"lon":5.365866,"is_reserved":false,"is_disabled":false,"rental_uris":{"android":"levelo://app?vid=05539ff2-d631-49d2-8fba-2e3f0fa4a148","ios":"levelo://app?vid=05539ff2-d631-49d2-8fba-2e3f0fa4a148"},"vehicle_type_id":"4","last_reported":1722370129,"current_range_meters":6000,"station_id":"ce4bgn12rcd13ifvqbt0","pricing_plan_id":"cebpf4jnsgd1na2vs0mg"},{"bike_id":"80f710ab-5151-4208-ad30-2ebed05eb60f","system_id":"levelo_inurba_marseille","lat":43.297163,"lon":5.365866,"is_reserved":false,"is_disabled":false,"rental_uris":{"android":"levelo://app?vid=80f710ab-5151-4208-ad30-2ebed05eb60f","ios":"levelo://app?vid=80f710ab-5151-4208-ad30-2ebed05eb60f"},"vehicle_type_id":"4","last_reported":1722370129,"current_range_meters":22400,"station_id":"ce4bgn12rcd13ifvqbt0","pricing_plan_id":"cebpf4jnsgd1na2vs0mg"},{"bike_id":"f683c663-df34-46fd-8bf6-9b08b4f1c46d","system_id":"levelo_inurba_marseille","lat":43.296935,"lon":5.376544,"is_reserved":false,"is_disabled":false,"rental_uris":{"android":"levelo://app?vid=f683c663-df34-46fd-8bf6-9b08b4f1c46d","ios":"levelo://app?vid=f683c663-df34-46fd-8bf6-9b08b4f1c46d"},"vehicle_type_id":"4","last_reported":1722370129,"current_range_meters":20800,"station_id":"ce4bgkh2rcd13ifvqbl0","pricing_plan_id":"cebpf4jnsgd1na2vs0mg"},{"bike_id":"9266143a-9546-4c26-9e06-b1ecc4abae8a","system_id":"levelo_inurba_marseille","lat":43.300265,"lon":5.382035,"is_reserved":false,"is_disabled":false,"rental_uris":{"android":"levelo://app?vid=9266143a-9546-4c26-9e06-b1ecc4abae8a","ios":"levelo://app?vid=9266143a-9546-4c26-9e06-b1ecc4abae8a"},"vehicle_type_id":"4","last_reported":1722370129,"current_range_meters":5200,"station_id":"","pricing_plan_id":"cebpf4jnsgd1na2vs0mg"},{"bike_id":"6e8b2890-e609-4b52-8941-96dd40e02012","system_id":"levelo_inurba_marseille","lat":43.296129,"lon":5.370777,"is_reserved":false,"is_disabled":false,"rental_uris":{"android":"levelo://app?vid=6e8b2890-e609-4b52-8941-96dd40e02012","ios":"levelo://app?vid=6e8b2890-e609-4b52-8941-96dd40e02012"},"vehicle_type_id":"4","last_reported":1722370129,"current_range_meters":16000,"station_id":"ce4bgnh2rcd13ifvqc0g","pricing_plan_id":"cebpf4jnsgd1na2vs0mg"},{"bike_id":"f37e4011-bf40-4f31-80d2-95d3b3548975","system_id":"levelo_inurba_marseille","lat":43.295833,"lon":5.367475,"is_reserved":false,"is_disabled":false,"rental_uris":{"android":"levelo://app?vid=f37e4011-bf40-4f31-80d2-95d3b3548975","ios":"levelo://app?vid=f37e4011-bf40-4f31-80d2-95d3b3548975"},"vehicle_type_id":"4","last_reported":1722370129,"current_range_meters":10400,"station_id":"ce4bgph2rcd13ifvqc2g","pricing_plan_id":"cebpf4jnsgd1na2vs0mg"},{"bike_id":"911dea02-a8ff-4943-a796-e2b709c458e0","system_id":"levelo_inurba_marseille","lat":43.296129,"lon":5.370777,"is_reserved":false,"is_disabled":false,"rental_uris":{"android":"levelo://app?vid=911dea02-a8ff-4943-a796-e2b709c458e0","ios":"levelo://app?vid=911dea02-a8ff-4943-a796-e2b709c458e0"},"vehicle_type_id":"4","last_reported":1722370129,"current_range_meters":13200,"station_id":"ce4bgnh2rcd13ifvqc0g","pricing_plan_id":"cebpf4jnsgd1na2vs0mg"},{"bike_id":"c48d3032-b898-4205-9720-937404c3da40","system_id":"levelo_inurba_marseille","lat":43.29639,"lon":5.37296,"is_reserved":false,"is_disabled":false,"rental_uris":{"android":"levelo://app?vid=c48d3032-b898-4205-9720-937404c3da40","ios":"levelo://app?vid=c48d3032-b898-4205-9720-937404c3da40"},"vehicle_type_id":"4","last_reported":1722370129,"current_range_meters":13600,"station_id":"","pricing_plan_id":"cebpf4jnsgd1na2vs0mg"},{"bike_id":"2478525c-b119-4dad-baa0-a713d96cad91","system_id":"levelo_inurba_marseille","lat":43.29637,"lon":5.37292,"is_reserved":false,"is_disabled":false,"rental_uris":{"android":"levelo://app?vid=2478525c-b119-4dad-baa0-a713d96cad91","ios":"levelo://app?vid=2478525c-b119-4dad-baa0-a713d96cad91"},"vehicle_type_id":"4","last_reported":1722370129,"current_range_meters":24400,"station_id":"","pricing_plan_id":"cebpf4jnsgd1na2vs0mg"},{"bike_id":"dfdc52c6-9a55-4121-81d9-ac8e24ce8c67","system_id":"levelo_inurba_marseille","lat":43.29573,"lon":5.367355,"is_reserved":false,"is_disabled":false,"rental_uris":{"android":"levelo://app?vid=dfdc52c6-9a55-4121-81d9-ac8e24ce8c67","ios":"levelo://app?vid=dfdc52c6-9a55-4121-81d9-ac8e24ce8c67"},"vehicle_type_id":"4","last_reported":1722370129,"current_range_meters":3200,"station_id":"ce4bgph2rcd13ifvqc2g","pricing_plan_id":"cebpf4jnsgd1na2vs0mg"},{"bike_id":"733516be-e115-497a-befa-798ff8749d95","system_id":"levelo_inurba_marseille","lat":43.309589,"lon":5.390258,"is_reserved":false,"is_disabled":false,"rental_uris":{"android":"levelo://app?vid=733516be-e115-497a-befa-798ff8749d95","ios":"levelo://app?vid=733516be-e115-497a-befa-798ff8749d95"},"vehicle_type_id":"4","last_reported":1722370129,"current_range_meters":28000,"station_id":"ce4bgup2rcd13ifvqco0","pricing_plan_id":"cebpf4jnsgd1na2vs0mg"},{"bike_id":"7f7494ba-ea7f-422a-b402-4ae887d0e21e","system_id":"levelo_inurba_marseille","lat":43.299028,"lon":5.381509,"is_reserved":false,"is_disabled":false,"rental_uris":{"android":"levelo://app?vid=7f7494ba-ea7f-422a-b402-4ae887d0e21e","ios":"levelo://app?vid=7f7494ba-ea7f-422a-b402-4ae887d0e21e"},"vehicle_type_id":"4","last_reported":1722370129,"current_range_meters":14400,"station_id":"ce4bgj12rcd13ifvqbc0","pricing_plan_id":"cebpf4jnsgd1na2vs0mg"},{"bike_id":"93919c4b-573b-4353-8304-bd17cefbc75a","system_id":"levelo_inurba_marseille","lat":43.296921,"lon":5.376579,"is_reserved":false,"is_disabled":false,"rental_uris":{"android":"levelo://app?vid=93919c4b-573b-4353-8304-bd17cefbc75a","ios":"levelo://app?vid=93919c4b-573b-4353-8304-bd17cefbc75a"},"vehicle_type_id":"4","last_reported":1722370129,"current_range_meters":26000,"station_id":"ce4bgkh2rcd13ifvqbl0","pricing_plan_id":"cebpf4jnsgd1na2vs0mg"},{"bike_id":"d0c2237a-03d2-4c59-8c89-aefdba8ae3d3","system_id":"levelo_inurba_marseille","lat":43.299028,"lon":5.381509,"is_reserved":false,"is_disabled":false,"rental_uris":{"android":"levelo://app?vid=d0c2237a-03d2-4c59-8c89-aefdba8ae3d3","ios":"levelo://app?vid=d0c2237a-03d2-4c59-8c89-aefdba8ae3d3"},"vehicle_type_id":"4","last_reported":1722370129,"current_range_meters":23200,"station_id":"ce4bgj12rcd13ifvqbc0","pricing_plan_id":"cebpf4jnsgd1na2vs0mg"},{"bike_id":"05307c09-6ad8-4bc6-9f7b-4e08c903c4f5","system_id":"levelo_inurba_marseille","lat":43.29596,"lon":5.37404,"is_reserved":false,"is_disabled":false,"rental_uris":{"android":"levelo://app?vid=05307c09-6ad8-4bc6-9f7b-4e08c903c4f5","ios":"levelo://app?vid=05307c09-6ad8-4bc6-9f7b-4e08c903c4f5"},"vehicle_type_id":"4","last_reported":1722370129,"current_range_meters":8400,"station_id":"","pricing_plan_id":"cebpf4jnsgd1na2vs0mg"},{"bike_id":"0475ee97-1904-48bf-8504-09a198d0504c","system_id":"levelo_inurba_marseille","lat":43.317557,"lon":5.390173,"is_reserved":false,"is_disabled":false,"rental_uris":{"android":"levelo://app?vid=0475ee97-1904-48bf-8504-09a198d0504c","ios":"levelo://app?vid=0475ee97-1904-48bf-8504-09a198d0504c"},"vehicle_type_id":"4","last_reported":1722370129,"current_range_meters":23200,"station_id":"ce4bhqp2rcd13ifvqhng","pricing_plan_id":"cebpf4jnsgd1na2vs0mg"},{"bike_id":"5277d252-1cde-45da-aa3a-2e5460688b3a","system_id":"levelo_inurba_marseille","lat":43.29631,"lon":5.37712,"is_reserved":false,"is_disabled":false,"rental_uris":{"android":"levelo://app?vid=5277d252-1cde-45da-aa3a-2e5460688b3a","ios":"levelo://app?vid=5277d252-1cde-45da-aa3a-2e5460688b3a"},"vehicle_type_id":"4","last_reported":1722370129,"current_range_meters":0,"station_id":"ce4bgi92rcd13ifvqb90","pricing_plan_id":"cebpf4jnsgd1na2vs0mg"},{"bike_id":"522a9e19-5f0c-4766-bc55-57941467e706","system_id":"levelo_inurba_marseille","lat":43.304274,"lon":5.388873,"is_reserved":false,"is_disabled":false,"rental_uris":{"android":"levelo://app?vid=522a9e19-5f0c-4766-bc55-57941467e706","ios":"levelo://app?vid=522a9e19-5f0c-4766-bc55-57941467e706"},"vehicle_type_id":"4","last_reported":1722370129,"current_range_meters":4000,"station_id":"ce4bgk12rcd13ifvqbi0","pricing_plan_id":"cebpf4jnsgd1na2vs0mg"},{"bike_id":"2352dd96-633e-40fd-9371-5c20986d8ce8","system_id":"levelo_inurba_marseille","lat":43.297855,"lon":5.38102,"is_reserved":false,"is_disabled":false,"rental_uris":{"android":"levelo://app?vid=2352dd96-633e-40fd-9371-5c20986d8ce8","ios":"levelo://app?vid=2352dd96-633e-40fd-9371-5c20986d8ce8"},"vehicle_type_id":"4","last_reported":1722370129,"current_range_meters":4800,"station_id":"ce4bgip2rcd13ifvqbb0","pricing_plan_id":"cebpf4jnsgd1na2vs0mg"},{"bike_id":"a44f28c9-8ddb-4695-9f95-806dde55f373","system_id":"levelo_inurba_marseille","lat":43.295748,"lon":5.37522,"is_reserved":false,"is_disabled":false,"rental_uris":{"android":"levelo://app?vid=a44f28c9-8ddb-4695-9f95-806dde55f373","ios":"levelo://app?vid=a44f28c9-8ddb-4695-9f95-806dde55f373"},"vehicle_type_id":"4","last_reported":1722370129,"current_range_meters":0,"station_id":"ce4bgh92rcd13ifvqb50","pricing_plan_id":"cebpf4jnsgd1na2vs0mg"},{"bike_id":"77eef52d-580f-482c-b8cf-14ebd90e9af8","system_id":"levelo_inurba_marseille","lat":43.299688,"lon":5.384832,"is_reserved":false,"is_disabled":false,"rental_uris":{"android":"levelo://app?vid=77eef52d-580f-482c-b8cf-14ebd90e9af8","ios":"levelo://app?vid=77eef52d-580f-482c-b8cf-14ebd90e9af8"},"vehicle_type_id":"4","last_reported":1722370129,"current_range_meters":3600,"station_id":"","pricing_plan_id":"cebpf4jnsgd1na2vs0mg"},{"bike_id":"0c83c338-a479-48a9-bb79-a8c0873e6600","system_id":"levelo_inurba_marseille","lat":43.29973,"lon":5.38489,"is_reserved":false,"is_disabled":false,"rental_uris":{"android":"levelo://app?vid=0c83c338-a479-48a9-bb79-a8c0873e6600","ios":"levelo://app?vid=0c83c338-a479-48a9-bb79-a8c0873e6600"},"vehicle_type_id":"4","last_reported":1722370129,"current_range_meters":30400,"station_id":"ce4bgj92rcd13ifvqbd0","pricing_plan_id":"cebpf4jnsgd1na2vs0mg"},{"bike_id":"5aea36ce-276a-4462-adcc-7ede9f22c4e7","system_id":"levelo_inurba_marseille","lat":43.29979,"lon":5.38501,"is_reserved":false,"is_disabled":false,"rental_uris":{"android":"levelo://app?vid=5aea36ce-276a-4462-adcc-7ede9f22c4e7","ios":"levelo://app?vid=5aea36ce-276a-4462-adcc-7ede9f22c4e7"},"vehicle_type_id":"4","last_reported":1722370129,"current_range_meters":26000,"station_id":"ce4bgj92rcd13ifvqbd0","pricing_plan_id":"cebpf4jnsgd1na2vs0mg"},{"bike_id":"478cab6d-c27e-49e4-9ab1-e445d6473508","system_id":"levelo_inurba_marseille","lat":43.299717,"lon":5.384845,"is_reserved":false,"is_disabled":false,"rental_uris":{"android":"levelo://app?vid=478cab6d-c27e-49e4-9ab1-e445d6473508","ios":"levelo://app?vid=478cab6d-c27e-49e4-9ab1-e445d6473508"},"vehicle_type_id":"4","last_reported":1722370129,"current_range_meters":12000,"station_id":"ce4bgj92rcd13ifvqbd0","pricing_plan_id":"cebpf4jnsgd1na2vs0mg"},{"bike_id":"288c8ee9-bf65-4ad9-b5fd-77c40d428f81","system_id":"levelo_inurba_marseille","lat":43.29962,"lon":5.38497,"is_reserved":false,"is_disabled":false,"rental_uris":{"android":"levelo://app?vid=288c8ee9-bf65-4ad9-b5fd-77c40d428f81","ios":"levelo://app?vid=288c8ee9-bf65-4ad9-b5fd-77c40d428f81"},"vehicle_type_id":"4","last_reported":1722370129,"current_range_meters":0,"station_id":"","pricing_plan_id":"cebpf4jnsgd1na2vs0mg"},{"bike_id":"56de7316-75dc-4115-b7e0-8753f863c1b9","system_id":"levelo_inurba_marseille","lat":43.304274,"lon":5.388873,"is_reserved":false,"is_disabled":false,"rental_uris":{"android":"levelo://app?vid=56de7316-75dc-4115-b7e0-8753f863c1b9","ios":"levelo://app?vid=56de7316-75dc-4115-b7e0-8753f863c1b9"},"vehicle_type_id":"4","last_reported":1722370129,"current_range_meters":28800,"station_id":"ce4bgk12rcd13ifvqbi0","pricing_plan_id":"cebpf4jnsgd1na2vs0mg"},{"bike_id":"8edea0af-2041-4bea-9b42-98fd449d8029","system_id":"levelo_inurba_marseille","lat":43.304278,"lon":5.388868,"is_reserved":false,"is_disabled":false,"rental_uris":{"android":"levelo://app?vid=8edea0af-2041-4bea-9b42-98fd449d8029","ios":"levelo://app?vid=8edea0af-2041-4bea-9b42-98fd449d8029"},"vehicle_type_id":"4","last_reported":1722370129,"current_range_meters":20400,"station_id":"ce4bgk12rcd13ifvqbi0","pricing_plan_id":"cebpf4jnsgd1na2vs0mg"},{"bike_id":"e4041140-810d-4cea-ba9a-d93cf22f36ac","system_id":"levelo_inurba_marseille","lat":43.32367,"lon":5.388836,"is_reserved":false,"is_disabled":false,"rental_uris":{"android":"levelo://app?vid=e4041140-810d-4cea-ba9a-d93cf22f36ac","ios":"levelo://app?vid=e4041140-810d-4cea-ba9a-d93cf22f36ac"},"vehicle_type_id":"4","last_reported":1722370129,"current_range_meters":9200,"station_id":"ce4bhqp2rcd13ifvqhog","pricing_plan_id":"cebpf4jnsgd1na2vs0mg"},{"bike_id":"04954581-8383-4667-b854-4516a4a98611","system_id":"levelo_inurba_marseille","lat":43.32367,"lon":5.388836,"is_reserved":false,"is_disabled":false,"rental_uris":{"android":"levelo://app?vid=04954581-8383-4667-b854-4516a4a98611","ios":"levelo://app?vid=04954581-8383-4667-b854-4516a4a98611"},"vehicle_type_id":"4","last_reported":1722370129,"current_range_meters":9600,"station_id":"ce4bhqp2rcd13ifvqhog","pricing_plan_id":"cebpf4jnsgd1na2vs0mg"},{"bike_id":"31dbf296-77fb-4938-b664-af172eb1307e","system_id":"levelo_inurba_marseille","lat":43.32367,"lon":5.388836,"is_reserved":false,"is_disabled":false,"rental_uris":{"android":"levelo://app?vid=31dbf296-77fb-4938-b664-af172eb1307e","ios":"levelo://app?vid=31dbf296-77fb-4938-b664-af172eb1307e"},"vehicle_type_id":"4","last_reported":1722370129,"current_range_meters":22800,"station_id":"ce4bhqp2rcd13ifvqhog","pricing_plan_id":"cebpf4jnsgd1na2vs0mg"},{"bike_id":"18c4e825-b38a-4c12-8354-2915ff87e06b","system_id":"levelo_inurba_marseille","lat":43.32367,"lon":5.388836,"is_reserved":false,"is_disabled":false,"rental_uris":{"android":"levelo://app?vid=18c4e825-b38a-4c12-8354-2915ff87e06b","ios":"levelo://app?vid=18c4e825-b38a-4c12-8354-2915ff87e06b"},"vehicle_type_id":"4","last_reported":1722370129,"current_range_meters":19600,"station_id":"ce4bhqp2rcd13ifvqhog","pricing_plan_id":"cebpf4jnsgd1na2vs0mg"},{"bike_id":"93267f59-7a6e-45d3-bffe-3b9f5aa7daa5","system_id":"levelo_inurba_marseille","lat":43.29602,"lon":5.381084,"is_reserved":false,"is_disabled":false,"rental_uris":{"android":"levelo://app?vid=93267f59-7a6e-45d3-bffe-3b9f5aa7daa5","ios":"levelo://app?vid=93267f59-7a6e-45d3-bffe-3b9f5aa7daa5"},"vehicle_type_id":"4","last_reported":1722370129,"current_range_meters":30800,"station_id":"ce4bgl12rcd13ifvqbo0","pricing_plan_id":"cebpf4jnsgd1na2vs0mg"},{"bike_id":"6ab64784-e014-47e7-8920-f7aff06027d8","system_id":"levelo_inurba_marseille","lat":43.29601,"lon":5.381084,"is_reserved":false,"is_disabled":false,"rental_uris":{"android":"levelo://app?vid=6ab64784-e014-47e7-8920-f7aff06027d8","ios":"levelo://app?vid=6ab64784-e014-47e7-8920-f7aff06027d8"},"vehicle_type_id":"4","last_reported":1722370129,"current_range_meters":1200,"station_id":"ce4bgl12rcd13ifvqbo0","pricing_plan_id":"cebpf4jnsgd1na2vs0mg"},{"bike_id":"6e04be64-b8bd-4915-8953-532ff883dfeb","system_id":"levelo_inurba_marseille","lat":43.293259,"lon":5.371586,"is_reserved":false,"is_disabled":false,"rental_uris":{"android":"levelo://app?vid=6e04be64-b8bd-4915-8953-532ff883dfeb","ios":"levelo://app?vid=6e04be64-b8bd-4915-8953-532ff883dfeb"},"vehicle_type_id":"4","last_reported":1722370129,"current_range_meters":3200,"station_id":"ce4bgh92rcd13ifvqb40","pricing_plan_id":"cebpf4jnsgd1na2vs0mg"},{"bike_id":"35607278-5ca4-437e-9f98-e523148b4f23","system_id":"levelo_inurba_marseille","lat":43.29279,"lon":5.36835,"is_reserved":false,"is_disabled":false,"rental_uris":{"android":"levelo://app?vid=35607278-5ca4-437e-9f98-e523148b4f23","ios":"levelo://app?vid=35607278-5ca4-437e-9f98-e523148b4f23"},"vehicle_type_id":"4","last_reported":1722370129,"current_range_meters":0,"station_id":"ce4bhbp2rcd13ifvqesg","pricing_plan_id":"cebpf4jnsgd1na2vs0mg"},{"bike_id":"f2c4c6e9-c47a-4723-9d98-7bc7b123e2e2","system_id":"levelo_inurba_marseille","lat":43.292749,"lon":5.368398,"is_reserved":false,"is_disabled":false,"rental_uris":{"android":"levelo://app?vid=f2c4c6e9-c47a-4723-9d98-7bc7b123e2e2","ios":"levelo://app?vid=f2c4c6e9-c47a-4723-9d98-7bc7b123e2e2"},"vehicle_type_id":"4","last_reported":1722370129,"current_range_meters":0,"station_id":"ce4bhbp2rcd13ifvqesg","pricing_plan_id":"cebpf4jnsgd1na2vs0mg"},{"bike_id":"076335d3-e18e-41ff-b820-4c3005b51842","system_id":"levelo_inurba_marseille","lat":43.290104,"lon":5.356111,"is_reserved":false,"is_disabled":false,"rental_uris":{"android":"levelo://app?vid=076335d3-e18e-41ff-b820-4c3005b51842","ios":"levelo://app?vid=076335d3-e18e-41ff-b820-4c3005b51842"},"vehicle_type_id":"4","last_reported":1722370129,"current_range_meters":8800,"station_id":"ce4bhb92rcd13ifvqen0","pricing_plan_id":"cebpf4jnsgd1na2vs0mg"},{"bike_id":"9624aa9a-d703-41dd-8a75-4e860a8a61ae","system_id":"levelo_inurba_marseille","lat":43.292759,"lon":5.368469,"is_reserved":false,"is_disabled":false,"rental_uris":{"android":"levelo://app?vid=9624aa9a-d703-41dd-8a75-4e860a8a61ae","ios":"levelo://app?vid=9624aa9a-d703-41dd-8a75-4e860a8a61ae"},"vehicle_type_id":"4","last_reported":1722370129,"current_range_meters":0,"station_id":"ce4bhbp2rcd13ifvqesg","pricing_plan_id":"cebpf4jnsgd1na2vs0mg"},{"bike_id":"05a11f1d-c514-4663-8b74-4551b3f74639","system_id":"levelo_inurba_marseille","lat":43.29303,"lon":5.37173,"is_reserved":false,"is_disabled":false,"rental_uris":{"android":"levelo://app?vid=05a11f1d-c514-4663-8b74-4551b3f74639","ios":"levelo://app?vid=05a11f1d-c514-4663-8b74-4551b3f74639"},"vehicle_type_id":"4","last_reported":1722370129,"current_range_meters":0,"station_id":"ce4bgh92rcd13ifvqb40","pricing_plan_id":"cebpf4jnsgd1na2vs0mg"},{"bike_id":"83a5204e-9ffb-4261-bc69-08f2ef774052","system_id":"levelo_inurba_marseille","lat":43.29274,"lon":5.36837,"is_reserved":false,"is_disabled":false,"rental_uris":{"android":"levelo://app?vid=83a5204e-9ffb-4261-bc69-08f2ef774052","ios":"levelo://app?vid=83a5204e-9ffb-4261-bc69-08f2ef774052"},"vehicle_type_id":"4","last_reported":1722370129,"current_range_meters":0,"station_id":"ce4bhbp2rcd13ifvqesg","pricing_plan_id":"cebpf4jnsgd1na2vs0mg"},{"bike_id":"4014a45d-1d89-4de1-9f98-9e1895d3bd14","system_id":"levelo_inurba_marseille","lat":43.292749,"lon":5.368402,"is_reserved":false,"is_disabled":false,"rental_uris":{"android":"levelo://app?vid=4014a45d-1d89-4de1-9f98-9e1895d3bd14","ios":"levelo://app?vid=4014a45d-1d89-4de1-9f98-9e1895d3bd14"},"vehicle_type_id":"4","last_reported":1722370129,"current_range_meters":0,"station_id":"ce4bhbp2rcd13ifvqesg","pricing_plan_id":"cebpf4jnsgd1na2vs0mg"},{"bike_id":"beca8c2f-7322-4620-85c7-f85e81ccf0df","system_id":"levelo_inurba_marseille","lat":43.305994,"lon":5.393687,"is_reserved":false,"is_disabled":false,"rental_uris":{"android":"levelo://app?vid=beca8c2f-7322-4620-85c7-f85e81ccf0df","ios":"levelo://app?vid=beca8c2f-7322-4620-85c7-f85e81ccf0df"},"vehicle_type_id":"4","last_reported":1722370129,"current_range_meters":25200,"station_id":"ce4bh0p2rcd13ifvqd80","pricing_plan_id":"cebpf4jnsgd1na2vs0mg"},{"bike_id":"4f56f087-7831-45cc-baf5-2a70caf29495","system_id":"levelo_inurba_marseille","lat":43.29375,"lon":5.3785,"is_reserved":false,"is_disabled":false,"rental_uris":{"android":"levelo://app?vid=4f56f087-7831-45cc-baf5-2a70caf29495","ios":"levelo://app?vid=4f56f087-7831-45cc-baf5-2a70caf29495"},"vehicle_type_id":"4","last_reported":1722370129,"current_range_meters":0,"station_id":"ce4bgjh2rcd13ifvqbf0","pricing_plan_id":"cebpf4jnsgd1na2vs0mg"},{"bike_id":"724be314-7c04-40d4-96f0-ca7203c4b700","system_id":"levelo_inurba_marseille","lat":43.30297,"lon":5.39217,"is_reserved":false,"is_disabled":false,"rental_uris":{"android":"levelo://app?vid=724be314-7c04-40d4-96f0-ca7203c4b700","ios":"levelo://app?vid=724be314-7c04-40d4-96f0-ca7203c4b700"},"vehicle_type_id":"4","last_reported":1722370129,"current_range_meters":400,"station_id":"ce4bgkh2rcd13ifvqbk0","pricing_plan_id":"cebpf4jnsgd1na2vs0mg"},{"bike_id":"5bef6cd8-bb2a-4a75-8466-b8014bad6618","system_id":"levelo_inurba_marseille","lat":43.30085,"lon":5.390856,"is_reserved":false,"is_disabled":false,"rental_uris":{"android":"levelo://app?vid=5bef6cd8-bb2a-4a75-8466-b8014bad6618","ios":"levelo://app?vid=5bef6cd8-bb2a-4a75-8466-b8014bad6618"},"vehicle_type_id":"4","last_reported":1722370129,"current_range_meters":22400,"station_id":"ce4bh192rcd13ifvqdb0","pricing_plan_id":"cebpf4jnsgd1na2vs0mg"},{"bike_id":"6b9fafc7-75a0-4c31-a9b2-35c12043cc33","system_id":"levelo_inurba_marseille","lat":43.30085,"lon":5.390856,"is_reserved":false,"is_disabled":false,"rental_uris":{"android":"levelo://app?vid=6b9fafc7-75a0-4c31-a9b2-35c12043cc33","ios":"levelo://app?vid=6b9fafc7-75a0-4c31-a9b2-35c12043cc33"},"vehicle_type_id":"4","last_reported":1722370129,"current_range_meters":14800,"station_id":"ce4bh192rcd13ifvqdb0","pricing_plan_id":"cebpf4jnsgd1na2vs0mg"},{"bike_id":"cf7dbfd3-d6ab-4654-a240-6a330df4a2d5","system_id":"levelo_inurba_marseille","lat":43.300852,"lon":5.390859,"is_reserved":false,"is_disabled":false,"rental_uris":{"android":"levelo://app?vid=cf7dbfd3-d6ab-4654-a240-6a330df4a2d5","ios":"levelo://app?vid=cf7dbfd3-d6ab-4654-a240-6a330df4a2d5"},"vehicle_type_id":"4","last_reported":1722370129,"current_range_meters":24000,"station_id":"ce4bh192rcd13ifvqdb0","pricing_plan_id":"cebpf4jnsgd1na2vs0mg"},{"bike_id":"60a6765e-0fe9-4a15-82b8-230bfa9eb72b","system_id":"levelo_inurba_marseille","lat":43.300852,"lon":5.390859,"is_reserved":false,"is_disabled":false,"rental_uris":{"android":"levelo://app?vid=60a6765e-0fe9-4a15-82b8-230bfa9eb72b","ios":"levelo://app?vid=60a6765e-0fe9-4a15-82b8-230bfa9eb72b"},"vehicle_type_id":"4","last_reported":1722370129,"current_range_meters":31200,"station_id":"ce4bh192rcd13ifvqdb0","pricing_plan_id":"cebpf4jnsgd1na2vs0mg"},{"bike_id":"7b262f6d-f275-49d0-bc38-5c6a58276240","system_id":"levelo_inurba_marseille","lat":43.291671,"lon":5.371575,"is_reserved":false,"is_disabled":false,"rental_uris":{"android":"levelo://app?vid=7b262f6d-f275-49d0-bc38-5c6a58276240","ios":"levelo://app?vid=7b262f6d-f275-49d0-bc38-5c6a58276240"},"vehicle_type_id":"4","last_reported":1722370129,"current_range_meters":0,"station_id":"ce4bha92rcd13ifvqeh0","pricing_plan_id":"cebpf4jnsgd1na2vs0mg"},{"bike_id":"29bad35e-28b8-42d2-a9aa-e6883c64384d","system_id":"levelo_inurba_marseille","lat":43.298764,"lon":5.388973,"is_reserved":false,"is_disabled":false,"rental_uris":{"android":"levelo://app?vid=29bad35e-28b8-42d2-a9aa-e6883c64384d","ios":"levelo://app?vid=29bad35e-28b8-42d2-a9aa-e6883c64384d"},"vehicle_type_id":"4","last_reported":1722370129,"current_range_meters":1200,"station_id":"ce4bh392rcd13ifvqdl0","pricing_plan_id":"cebpf4jnsgd1na2vs0mg"},{"bike_id":"b4cf56dc-990b-4607-b39d-a7a8e5e6848f","system_id":"levelo_inurba_marseille","lat":43.298764,"lon":5.388973,"is_reserved":false,"is_disabled":false,"rental_uris":{"android":"levelo://app?vid=b4cf56dc-990b-4607-b39d-a7a8e5e6848f","ios":"levelo://app?vid=b4cf56dc-990b-4607-b39d-a7a8e5e6848f"},"vehicle_type_id":"4","last_reported":1722370129,"current_range_meters":400,"station_id":"ce4bh392rcd13ifvqdl0","pricing_plan_id":"cebpf4jnsgd1na2vs0mg"},{"bike_id":"96725b75-d2f4-4ec2-892f-b6d022fdf5e2","system_id":"levelo_inurba_marseille","lat":43.298764,"lon":5.388973,"is_reserved":false,"is_disabled":false,"rental_uris":{"android":"levelo://app?vid=96725b75-d2f4-4ec2-892f-b6d022fdf5e2","ios":"levelo://app?vid=96725b75-d2f4-4ec2-892f-b6d022fdf5e2"},"vehicle_type_id":"4","last_reported":1722370129,"current_range_meters":12800,"station_id":"ce4bh392rcd13ifvqdl0","pricing_plan_id":"cebpf4jnsgd1na2vs0mg"},{"bike_id":"862dfb6e-0ecf-454d-9a83-e0c339a0932c","system_id":"levelo_inurba_marseille","lat":43.291671,"lon":5.371575,"is_reserved":false,"is_disabled":false,"rental_uris":{"android":"levelo://app?vid=862dfb6e-0ecf-454d-9a83-e0c339a0932c","ios":"levelo://app?vid=862dfb6e-0ecf-454d-9a83-e0c339a0932c"},"vehicle_type_id":"4","last_reported":1722370129,"current_range_meters":8800,"station_id":"ce4bha92rcd13ifvqeh0","pricing_plan_id":"cebpf4jnsgd1na2vs0mg"},{"bike_id":"6f46f80c-050c-4dcd-9e28-cce753ff3b0f","system_id":"levelo_inurba_marseille","lat":43.29879,"lon":5.38913,"is_reserved":false,"is_disabled":false,"rental_uris":{"android":"levelo://app?vid=6f46f80c-050c-4dcd-9e28-cce753ff3b0f","ios":"levelo://app?vid=6f46f80c-050c-4dcd-9e28-cce753ff3b0f"},"vehicle_type_id":"4","last_reported":1722370129,"current_range_meters":29200,"station_id":"ce4bh392rcd13ifvqdl0","pricing_plan_id":"cebpf4jnsgd1na2vs0mg"},{"bike_id":"6ee884eb-c2cd-41be-a9b6-c57b6d13adb7","system_id":"levelo_inurba_marseille","lat":43.309038,"lon":5.396546,"is_reserved":false,"is_disabled":false,"rental_uris":{"android":"levelo://app?vid=6ee884eb-c2cd-41be-a9b6-c57b6d13adb7","ios":"levelo://app?vid=6ee884eb-c2cd-41be-a9b6-c57b6d13adb7"},"vehicle_type_id":"4","last_reported":1722370129,"current_range_meters":31200,"station_id":"ce4bh012rcd13ifvqcv0","pricing_plan_id":"cebpf4jnsgd1na2vs0mg"},{"bike_id":"bc04e16c-8841-461e-b077-c5f43aa0d4fc","system_id":"levelo_inurba_marseille","lat":43.298764,"lon":5.388973,"is_reserved":false,"is_disabled":false,"rental_uris":{"android":"levelo://app?vid=bc04e16c-8841-461e-b077-c5f43aa0d4fc","ios":"levelo://app?vid=bc04e16c-8841-461e-b077-c5f43aa0d4fc"},"vehicle_type_id":"4","last_reported":1722370129,"current_range_meters":27200,"station_id":"ce4bh392rcd13ifvqdl0","pricing_plan_id":"cebpf4jnsgd1na2vs0mg"},{"bike_id":"d0e7bffd-043c-4c0b-9b30-da5bd0923aec","system_id":"levelo_inurba_marseille","lat":43.309038,"lon":5.396546,"is_reserved":false,"is_disabled":false,"rental_uris":{"android":"levelo://app?vid=d0e7bffd-043c-4c0b-9b30-da5bd0923aec","ios":"levelo://app?vid=d0e7bffd-043c-4c0b-9b30-da5bd0923aec"},"vehicle_type_id":"4","last_reported":1722370129,"current_range_meters":30000,"station_id":"ce4bh012rcd13ifvqcv0","pricing_plan_id":"cebpf4jnsgd1na2vs0mg"},{"bike_id":"994a3f10-3531-4bb6-a1ee-b6c87be013ec","system_id":"levelo_inurba_marseille","lat":43.309038,"lon":5.396546,"is_reserved":false,"is_disabled":false,"rental_uris":{"android":"levelo://app?vid=994a3f10-3531-4bb6-a1ee-b6c87be013ec","ios":"levelo://app?vid=994a3f10-3531-4bb6-a1ee-b6c87be013ec"},"vehicle_type_id":"4","last_reported":1722370129,"current_range_meters":8800,"station_id":"ce4bh012rcd13ifvqcv0","pricing_plan_id":"cebpf4jnsgd1na2vs0mg"},{"bike_id":"2262cddc-a361-4ea5-bf96-7c5c76cb266f","system_id":"levelo_inurba_marseille","lat":43.309038,"lon":5.396546,"is_reserved":false,"is_disabled":false,"rental_uris":{"android":"levelo://app?vid=2262cddc-a361-4ea5-bf96-7c5c76cb266f","ios":"levelo://app?vid=2262cddc-a361-4ea5-bf96-7c5c76cb266f"},"vehicle_type_id":"4","last_reported":1722370129,"current_range_meters":31200,"station_id":"ce4bh012rcd13ifvqcv0","pricing_plan_id":"cebpf4jnsgd1na2vs0mg"},{"bike_id":"31f3999f-9283-4f22-ab29-5b9301c49085","system_id":"levelo_inurba_marseille","lat":43.313291,"lon":5.396838,"is_reserved":false,"is_disabled":false,"rental_uris":{"android":"levelo://app?vid=31f3999f-9283-4f22-ab29-5b9301c49085","ios":"levelo://app?vid=31f3999f-9283-4f22-ab29-5b9301c49085"},"vehicle_type_id":"4","last_reported":1722370129,"current_range_meters":31200,"station_id":"ce4bgvp2rcd13ifvqcu0","pricing_plan_id":"cebpf4jnsgd1na2vs0mg"},{"bike_id":"5895450a-8c8b-4399-b6bf-3fc3e352afe9","system_id":"levelo_inurba_marseille","lat":43.309047,"lon":5.396551,"is_reserved":false,"is_disabled":false,"rental_uris":{"android":"levelo://app?vid=5895450a-8c8b-4399-b6bf-3fc3e352afe9","ios":"levelo://app?vid=5895450a-8c8b-4399-b6bf-3fc3e352afe9"},"vehicle_type_id":"4","last_reported":1722370129,"current_range_meters":8000,"station_id":"ce4bh012rcd13ifvqcv0","pricing_plan_id":"cebpf4jnsgd1na2vs0mg"},{"bike_id":"2d1e650c-6313-4b88-95fc-7c7fbbb190bc","system_id":"levelo_inurba_marseille","lat":43.309047,"lon":5.396551,"is_reserved":false,"is_disabled":false,"rental_uris":{"android":"levelo://app?vid=2d1e650c-6313-4b88-95fc-7c7fbbb190bc","ios":"levelo://app?vid=2d1e650c-6313-4b88-95fc-7c7fbbb190bc"},"vehicle_type_id":"4","last_reported":1722370129,"current_range_meters":22400,"station_id":"ce4bh012rcd13ifvqcv0","pricing_plan_id":"cebpf4jnsgd1na2vs0mg"},{"bike_id":"c96d02a5-0628-4954-b2ed-f3481cee250b","system_id":"levelo_inurba_marseille","lat":43.309047,"lon":5.396551,"is_reserved":false,"is_disabled":false,"rental_uris":{"android":"levelo://app?vid=c96d02a5-0628-4954-b2ed-f3481cee250b","ios":"levelo://app?vid=c96d02a5-0628-4954-b2ed-f3481cee250b"},"vehicle_type_id":"4","last_reported":1722370129,"current_range_meters":1600,"station_id":"ce4bh012rcd13ifvqcv0","pricing_plan_id":"cebpf4jnsgd1na2vs0mg"},{"bike_id":"c7571b26-f9d0-4087-a06d-e4f53f6fed46","system_id":"levelo_inurba_marseille","lat":43.29529,"lon":5.385581,"is_reserved":false,"is_disabled":false,"rental_uris":{"android":"levelo://app?vid=c7571b26-f9d0-4087-a06d-e4f53f6fed46","ios":"levelo://app?vid=c7571b26-f9d0-4087-a06d-e4f53f6fed46"},"vehicle_type_id":"4","last_reported":1722370129,"current_range_meters":31200,"station_id":"ce4bgih2rcd13ifvqba0","pricing_plan_id":"cebpf4jnsgd1na2vs0mg"},{"bike_id":"034bc06a-a2a4-4b96-9c91-4946d71edd4e","system_id":"levelo_inurba_marseille","lat":43.309038,"lon":5.396546,"is_reserved":false,"is_disabled":false,"rental_uris":{"android":"levelo://app?vid=034bc06a-a2a4-4b96-9c91-4946d71edd4e","ios":"levelo://app?vid=034bc06a-a2a4-4b96-9c91-4946d71edd4e"},"vehicle_type_id":"4","last_reported":1722370129,"current_range_meters":18400,"station_id":"ce4bh012rcd13ifvqcv0","pricing_plan_id":"cebpf4jnsgd1na2vs0mg"},{"bike_id":"d1e65eaf-989b-4ac7-a4a4-25716e6db3a8","system_id":"levelo_inurba_marseille","lat":43.30876,"lon":5.39662,"is_reserved":false,"is_disabled":false,"rental_uris":{"android":"levelo://app?vid=d1e65eaf-989b-4ac7-a4a4-25716e6db3a8","ios":"levelo://app?vid=d1e65eaf-989b-4ac7-a4a4-25716e6db3a8"},"vehicle_type_id":"4","last_reported":1722370129,"current_range_meters":18800,"station_id":"ce4bh012rcd13ifvqcv0","pricing_plan_id":"cebpf4jnsgd1na2vs0mg"},{"bike_id":"f7a63097-cb0a-4a48-9554-6388f4f94aa6","system_id":"levelo_inurba_marseille","lat":43.29529,"lon":5.385581,"is_reserved":false,"is_disabled":false,"rental_uris":{"android":"levelo://app?vid=f7a63097-cb0a-4a48-9554-6388f4f94aa6","ios":"levelo://app?vid=f7a63097-cb0a-4a48-9554-6388f4f94aa6"},"vehicle_type_id":"4","last_reported":1722370129,"current_range_meters":31200,"station_id":"ce4bgih2rcd13ifvqba0","pricing_plan_id":"cebpf4jnsgd1na2vs0mg"},{"bike_id":"4edfc6e6-76ab-4cb8-bf59-d3556d3d58bb","system_id":"levelo_inurba_marseille","lat":43.29529,"lon":5.385581,"is_reserved":false,"is_disabled":false,"rental_uris":{"android":"levelo://app?vid=4edfc6e6-76ab-4cb8-bf59-d3556d3d58bb","ios":"levelo://app?vid=4edfc6e6-76ab-4cb8-bf59-d3556d3d58bb"},"vehicle_type_id":"4","last_reported":1722370129,"current_range_meters":31200,"station_id":"ce4bgih2rcd13ifvqba0","pricing_plan_id":"cebpf4jnsgd1na2vs0mg"},{"bike_id":"a4111ed4-37ce-401a-8c5e-ac5d6d32b8e4","system_id":"levelo_inurba_marseille","lat":43.29529,"lon":5.385581,"is_reserved":false,"is_disabled":false,"rental_uris":{"android":"levelo://app?vid=a4111ed4-37ce-401a-8c5e-ac5d6d32b8e4","ios":"levelo://app?vid=a4111ed4-37ce-401a-8c5e-ac5d6d32b8e4"},"vehicle_type_id":"4","last_reported":1722370129,"current_range_meters":32000,"station_id":"ce4bgih2rcd13ifvqba0","pricing_plan_id":"cebpf4jnsgd1na2vs0mg"},{"bike_id":"16f183f0-4b2f-4d5f-b8db-6bda669476a1","system_id":"levelo_inurba_marseille","lat":43.29529,"lon":5.385581,"is_reserved":false,"is_disabled":false,"rental_uris":{"android":"levelo://app?vid=16f183f0-4b2f-4d5f-b8db-6bda669476a1","ios":"levelo://app?vid=16f183f0-4b2f-4d5f-b8db-6bda669476a1"},"vehicle_type_id":"4","last_reported":1722370129,"current_range_meters":19600,"station_id":"ce4bgih2rcd13ifvqba0","pricing_plan_id":"cebpf4jnsgd1na2vs0mg"},{"bike_id":"18b0f6a7-fa5e-4d3e-a9b6-85a5412b0520","system_id":"levelo_inurba_marseille","lat":43.29533,"lon":5.38546,"is_reserved":false,"is_disabled":false,"rental_uris":{"android":"levelo://app?vid=18b0f6a7-fa5e-4d3e-a9b6-85a5412b0520","ios":"levelo://app?vid=18b0f6a7-fa5e-4d3e-a9b6-85a5412b0520"},"vehicle_type_id":"4","last_reported":1722370129,"current_range_meters":20400,"station_id":"ce4bgih2rcd13ifvqba0","pricing_plan_id":"cebpf4jnsgd1na2vs0mg"},{"bike_id":"5db9f3c4-aeea-4012-a531-5272382b6018","system_id":"levelo_inurba_marseille","lat":43.29534,"lon":5.38548,"is_reserved":false,"is_disabled":false,"rental_uris":{"android":"levelo://app?vid=5db9f3c4-aeea-4012-a531-5272382b6018","ios":"levelo://app?vid=5db9f3c4-aeea-4012-a531-5272382b6018"},"vehicle_type_id":"4","last_reported":1722370129,"current_range_meters":24400,"station_id":"ce4bgih2rcd13ifvqba0","pricing_plan_id":"cebpf4jnsgd1na2vs0mg"},{"bike_id":"e8e9463e-310a-457c-87dd-397fb3c4fa1e","system_id":"levelo_inurba_marseille","lat":43.29529,"lon":5.385581,"is_reserved":false,"is_disabled":false,"rental_uris":{"android":"levelo://app?vid=e8e9463e-310a-457c-87dd-397fb3c4fa1e","ios":"levelo://app?vid=e8e9463e-310a-457c-87dd-397fb3c4fa1e"},"vehicle_type_id":"4","last_reported":1722370129,"current_range_meters":29200,"station_id":"ce4bgih2rcd13ifvqba0","pricing_plan_id":"cebpf4jnsgd1na2vs0mg"},{"bike_id":"c5328c3a-a271-4921-b068-49febe76265d","system_id":"levelo_inurba_marseille","lat":43.29529,"lon":5.385581,"is_reserved":false,"is_disabled":false,"rental_uris":{"android":"levelo://app?vid=c5328c3a-a271-4921-b068-49febe76265d","ios":"levelo://app?vid=c5328c3a-a271-4921-b068-49febe76265d"},"vehicle_type_id":"4","last_reported":1722370129,"current_range_meters":24400,"station_id":"ce4bgih2rcd13ifvqba0","pricing_plan_id":"cebpf4jnsgd1na2vs0mg"},{"bike_id":"10bddb8d-27c6-4edb-8e80-a9b4c51dc845","system_id":"levelo_inurba_marseille","lat":43.29529,"lon":5.385581,"is_reserved":false,"is_disabled":false,"rental_uris":{"android":"levelo://app?vid=10bddb8d-27c6-4edb-8e80-a9b4c51dc845","ios":"levelo://app?vid=10bddb8d-27c6-4edb-8e80-a9b4c51dc845"},"vehicle_type_id":"4","last_reported":1722370129,"current_range_meters":23200,"station_id":"ce4bgih2rcd13ifvqba0","pricing_plan_id":"cebpf4jnsgd1na2vs0mg"},{"bike_id":"edf3d456-96d6-4af2-b620-ceea9cd2f248","system_id":"levelo_inurba_marseille","lat":43.29529,"lon":5.385581,"is_reserved":false,"is_disabled":false,"rental_uris":{"android":"levelo://app?vid=edf3d456-96d6-4af2-b620-ceea9cd2f248","ios":"levelo://app?vid=edf3d456-96d6-4af2-b620-ceea9cd2f248"},"vehicle_type_id":"4","last_reported":1722370129,"current_range_meters":22400,"station_id":"ce4bgih2rcd13ifvqba0","pricing_plan_id":"cebpf4jnsgd1na2vs0mg"},{"bike_id":"8e3c2a70-688a-4ec8-aa40-fe44f587d3ae","system_id":"levelo_inurba_marseille","lat":43.29523,"lon":5.38552,"is_reserved":false,"is_disabled":false,"rental_uris":{"android":"levelo://app?vid=8e3c2a70-688a-4ec8-aa40-fe44f587d3ae","ios":"levelo://app?vid=8e3c2a70-688a-4ec8-aa40-fe44f587d3ae"},"vehicle_type_id":"4","last_reported":1722370129,"current_range_meters":4400,"station_id":"ce4bgih2rcd13ifvqba0","pricing_plan_id":"cebpf4jnsgd1na2vs0mg"},{"bike_id":"ad4bd68f-baa8-43b5-a961-ee0a7c3801e2","system_id":"levelo_inurba_marseille","lat":43.290779,"lon":5.371482,"is_reserved":false,"is_disabled":false,"rental_uris":{"android":"levelo://app?vid=ad4bd68f-baa8-43b5-a961-ee0a7c3801e2","ios":"levelo://app?vid=ad4bd68f-baa8-43b5-a961-ee0a7c3801e2"},"vehicle_type_id":"4","last_reported":1722370129,"current_range_meters":10800,"station_id":"ce4bh5p2rcd13ifvqe4g","pricing_plan_id":"cebpf4jnsgd1na2vs0mg"},{"bike_id":"18dc39fd-9eec-4c93-826b-66ee6e119366","system_id":"levelo_inurba_marseille","lat":43.302008,"lon":5.394694,"is_reserved":false,"is_disabled":false,"rental_uris":{"android":"levelo://app?vid=18dc39fd-9eec-4c93-826b-66ee6e119366","ios":"levelo://app?vid=18dc39fd-9eec-4c93-826b-66ee6e119366"},"vehicle_type_id":"4","last_reported":1722370129,"current_range_meters":6400,"station_id":"ce4bh0p2rcd13ifvqd70","pricing_plan_id":"cebpf4jnsgd1na2vs0mg"},{"bike_id":"dcf92255-5aea-423d-8c42-0a0d655e1eb9","system_id":"levelo_inurba_marseille","lat":43.289184,"lon":5.366408,"is_reserved":false,"is_disabled":false,"rental_uris":{"android":"levelo://app?vid=dcf92255-5aea-423d-8c42-0a0d655e1eb9","ios":"levelo://app?vid=dcf92255-5aea-423d-8c42-0a0d655e1eb9"},"vehicle_type_id":"4","last_reported":1722370129,"current_range_meters":0,"station_id":"ce4bhap2rcd13ifvqek0","pricing_plan_id":"cebpf4jnsgd1na2vs0mg"},{"bike_id":"810dfdf4-665e-47de-adfd-e5337a6ffb01","system_id":"levelo_inurba_marseille","lat":43.292288,"lon":5.381353,"is_reserved":false,"is_disabled":false,"rental_uris":{"android":"levelo://app?vid=810dfdf4-665e-47de-adfd-e5337a6ffb01","ios":"levelo://app?vid=810dfdf4-665e-47de-adfd-e5337a6ffb01"},"vehicle_type_id":"4","last_reported":1722370129,"current_range_meters":0,"station_id":"","pricing_plan_id":"cebpf4jnsgd1na2vs0mg"},{"bike_id":"46d5e646-be85-4817-9b99-f9cf366e4d86","system_id":"levelo_inurba_marseille","lat":43.294153,"lon":5.386305,"is_reserved":false,"is_disabled":false,"rental_uris":{"android":"levelo://app?vid=46d5e646-be85-4817-9b99-f9cf366e4d86","ios":"levelo://app?vid=46d5e646-be85-4817-9b99-f9cf366e4d86"},"vehicle_type_id":"4","last_reported":1722370129,"current_range_meters":28800,"station_id":"ce4bh2h2rcd13ifvqdh0","pricing_plan_id":"cebpf4jnsgd1na2vs0mg"},{"bike_id":"a14beead-1fb4-4937-a44d-f6a94d0043e9","system_id":"levelo_inurba_marseille","lat":43.294153,"lon":5.386305,"is_reserved":false,"is_disabled":false,"rental_uris":{"android":"levelo://app?vid=a14beead-1fb4-4937-a44d-f6a94d0043e9","ios":"levelo://app?vid=a14beead-1fb4-4937-a44d-f6a94d0043e9"},"vehicle_type_id":"4","last_reported":1722370129,"current_range_meters":10400,"station_id":"ce4bh2h2rcd13ifvqdh0","pricing_plan_id":"cebpf4jnsgd1na2vs0mg"},{"bike_id":"db685dbd-d330-4436-9902-c8ecdd7d043b","system_id":"levelo_inurba_marseille","lat":43.2942,"lon":5.38621,"is_reserved":false,"is_disabled":false,"rental_uris":{"android":"levelo://app?vid=db685dbd-d330-4436-9902-c8ecdd7d043b","ios":"levelo://app?vid=db685dbd-d330-4436-9902-c8ecdd7d043b"},"vehicle_type_id":"4","last_reported":1722370129,"current_range_meters":0,"station_id":"ce4bh2h2rcd13ifvqdh0","pricing_plan_id":"cebpf4jnsgd1na2vs0mg"},{"bike_id":"1e6eac09-66a9-4eb0-ab96-ead43da5da51","system_id":"levelo_inurba_marseille","lat":43.29421,"lon":5.38623,"is_reserved":false,"is_disabled":false,"rental_uris":{"android":"levelo://app?vid=1e6eac09-66a9-4eb0-ab96-ead43da5da51","ios":"levelo://app?vid=1e6eac09-66a9-4eb0-ab96-ead43da5da51"},"vehicle_type_id":"4","last_reported":1722370129,"current_range_meters":0,"station_id":"ce4bh2h2rcd13ifvqdh0","pricing_plan_id":"cebpf4jnsgd1na2vs0mg"},{"bike_id":"48ed950a-c0b4-4158-b2ac-b12c043765d7","system_id":"levelo_inurba_marseille","lat":43.294153,"lon":5.386305,"is_reserved":false,"is_disabled":false,"rental_uris":{"android":"levelo://app?vid=48ed950a-c0b4-4158-b2ac-b12c043765d7","ios":"levelo://app?vid=48ed950a-c0b4-4158-b2ac-b12c043765d7"},"vehicle_type_id":"4","last_reported":1722370129,"current_range_meters":0,"station_id":"ce4bh2h2rcd13ifvqdh0","pricing_plan_id":"cebpf4jnsgd1na2vs0mg"},{"bike_id":"97612e1d-97f1-47b4-8df8-dd0fef4f53d3","system_id":"levelo_inurba_marseille","lat":43.29421,"lon":5.38628,"is_reserved":false,"is_disabled":false,"rental_uris":{"android":"levelo://app?vid=97612e1d-97f1-47b4-8df8-dd0fef4f53d3","ios":"levelo://app?vid=97612e1d-97f1-47b4-8df8-dd0fef4f53d3"},"vehicle_type_id":"4","last_reported":1722370129,"current_range_meters":0,"station_id":"ce4bh2h2rcd13ifvqdh0","pricing_plan_id":"cebpf4jnsgd1na2vs0mg"},{"bike_id":"ef7b4d9a-895a-4a81-9eaf-8d6b6cbc9dd4","system_id":"levelo_inurba_marseille","lat":43.2942,"lon":5.38627,"is_reserved":false,"is_disabled":false,"rental_uris":{"android":"levelo://app?vid=ef7b4d9a-895a-4a81-9eaf-8d6b6cbc9dd4","ios":"levelo://app?vid=ef7b4d9a-895a-4a81-9eaf-8d6b6cbc9dd4"},"vehicle_type_id":"4","last_reported":1722370129,"current_range_meters":0,"station_id":"ce4bh2h2rcd13ifvqdh0","pricing_plan_id":"cebpf4jnsgd1na2vs0mg"},{"bike_id":"9fc09031-39be-4ce6-958f-fc2dbba5fdba","system_id":"levelo_inurba_marseille","lat":43.29416,"lon":5.3862,"is_reserved":false,"is_disabled":false,"rental_uris":{"android":"levelo://app?vid=9fc09031-39be-4ce6-958f-fc2dbba5fdba","ios":"levelo://app?vid=9fc09031-39be-4ce6-958f-fc2dbba5fdba"},"vehicle_type_id":"4","last_reported":1722370129,"current_range_meters":0,"station_id":"ce4bh2h2rcd13ifvqdh0","pricing_plan_id":"cebpf4jnsgd1na2vs0mg"},{"bike_id":"21718a2b-0704-4acd-a6c6-5ba4e112b96a","system_id":"levelo_inurba_marseille","lat":43.294162,"lon":5.386292,"is_reserved":false,"is_disabled":false,"rental_uris":{"android":"levelo://app?vid=21718a2b-0704-4acd-a6c6-5ba4e112b96a","ios":"levelo://app?vid=21718a2b-0704-4acd-a6c6-5ba4e112b96a"},"vehicle_type_id":"4","last_reported":1722370129,"current_range_meters":20400,"station_id":"ce4bh2h2rcd13ifvqdh0","pricing_plan_id":"cebpf4jnsgd1na2vs0mg"},{"bike_id":"9d44dd80-a1a2-48fe-afdd-080cd081b350","system_id":"levelo_inurba_marseille","lat":43.294162,"lon":5.386292,"is_reserved":false,"is_disabled":false,"rental_uris":{"android":"levelo://app?vid=9d44dd80-a1a2-48fe-afdd-080cd081b350","ios":"levelo://app?vid=9d44dd80-a1a2-48fe-afdd-080cd081b350"},"vehicle_type_id":"4","last_reported":1722370129,"current_range_meters":18000,"station_id":"ce4bh2h2rcd13ifvqdh0","pricing_plan_id":"cebpf4jnsgd1na2vs0mg"},{"bike_id":"5de21eea-95ae-4495-ae12-31f4286cd80c","system_id":"levelo_inurba_marseille","lat":43.29417,"lon":5.38625,"is_reserved":false,"is_disabled":false,"rental_uris":{"android":"levelo://app?vid=5de21eea-95ae-4495-ae12-31f4286cd80c","ios":"levelo://app?vid=5de21eea-95ae-4495-ae12-31f4286cd80c"},"vehicle_type_id":"4","last_reported":1722370129,"current_range_meters":4400,"station_id":"ce4bh2h2rcd13ifvqdh0","pricing_plan_id":"cebpf4jnsgd1na2vs0mg"},{"bike_id":"2f6e5f04-f6e1-4aff-8a8c-e18e7a73ed66","system_id":"levelo_inurba_marseille","lat":43.294162,"lon":5.386292,"is_reserved":false,"is_disabled":false,"rental_uris":{"android":"levelo://app?vid=2f6e5f04-f6e1-4aff-8a8c-e18e7a73ed66","ios":"levelo://app?vid=2f6e5f04-f6e1-4aff-8a8c-e18e7a73ed66"},"vehicle_type_id":"4","last_reported":1722370129,"current_range_meters":18800,"station_id":"ce4bh2h2rcd13ifvqdh0","pricing_plan_id":"cebpf4jnsgd1na2vs0mg"},{"bike_id":"5b6ee21d-5bdc-417e-9ed9-83a091ff865d","system_id":"levelo_inurba_marseille","lat":43.294143,"lon":5.386216,"is_reserved":false,"is_disabled":false,"rental_uris":{"android":"levelo://app?vid=5b6ee21d-5bdc-417e-9ed9-83a091ff865d","ios":"levelo://app?vid=5b6ee21d-5bdc-417e-9ed9-83a091ff865d"},"vehicle_type_id":"4","last_reported":1722370129,"current_range_meters":11600,"station_id":"ce4bh2h2rcd13ifvqdh0","pricing_plan_id":"cebpf4jnsgd1na2vs0mg"},{"bike_id":"85a7d1a5-9f12-48cf-9992-cf12f74d759e","system_id":"levelo_inurba_marseille","lat":43.290327,"lon":5.375711,"is_reserved":false,"is_disabled":false,"rental_uris":{"android":"levelo://app?vid=85a7d1a5-9f12-48cf-9992-cf12f74d759e","ios":"levelo://app?vid=85a7d1a5-9f12-48cf-9992-cf12f74d759e"},"vehicle_type_id":"4","last_reported":1722370129,"current_range_meters":1600,"station_id":"ce4bh692rcd13ifvqe90","pricing_plan_id":"cebpf4jnsgd1na2vs0mg"},{"bike_id":"d34e2800-99e8-44fe-bb05-68110f533272","system_id":"levelo_inurba_marseille","lat":43.294153,"lon":5.386305,"is_reserved":false,"is_disabled":false,"rental_uris":{"android":"levelo://app?vid=d34e2800-99e8-44fe-bb05-68110f533272","ios":"levelo://app?vid=d34e2800-99e8-44fe-bb05-68110f533272"},"vehicle_type_id":"4","last_reported":1722370129,"current_range_meters":5200,"station_id":"ce4bh2h2rcd13ifvqdh0","pricing_plan_id":"cebpf4jnsgd1na2vs0mg"},{"bike_id":"e9413dad-bff1-47db-b03c-eaac8c487587","system_id":"levelo_inurba_marseille","lat":43.29415,"lon":5.38625,"is_reserved":false,"is_disabled":false,"rental_uris":{"android":"levelo://app?vid=e9413dad-bff1-47db-b03c-eaac8c487587","ios":"levelo://app?vid=e9413dad-bff1-47db-b03c-eaac8c487587"},"vehicle_type_id":"4","last_reported":1722370129,"current_range_meters":10800,"station_id":"ce4bh2h2rcd13ifvqdh0","pricing_plan_id":"cebpf4jnsgd1na2vs0mg"},{"bike_id":"bb675882-4075-4d9d-9167-738d78627ed8","system_id":"levelo_inurba_marseille","lat":43.29415,"lon":5.38627,"is_reserved":false,"is_disabled":false,"rental_uris":{"android":"levelo://app?vid=bb675882-4075-4d9d-9167-738d78627ed8","ios":"levelo://app?vid=bb675882-4075-4d9d-9167-738d78627ed8"},"vehicle_type_id":"4","last_reported":1722370129,"current_range_meters":2800,"station_id":"ce4bh2h2rcd13ifvqdh0","pricing_plan_id":"cebpf4jnsgd1na2vs0mg"},{"bike_id":"33c1b846-d07e-4455-88f8-8323d8ec770f","system_id":"levelo_inurba_marseille","lat":43.29414,"lon":5.38628,"is_reserved":false,"is_disabled":false,"rental_uris":{"android":"levelo://app?vid=33c1b846-d07e-4455-88f8-8323d8ec770f","ios":"levelo://app?vid=33c1b846-d07e-4455-88f8-8323d8ec770f"},"vehicle_type_id":"4","last_reported":1722370129,"current_range_meters":3200,"station_id":"ce4bh2h2rcd13ifvqdh0","pricing_plan_id":"cebpf4jnsgd1na2vs0mg"},{"bike_id":"3ea82959-fa49-4f99-8889-41655943bb29","system_id":"levelo_inurba_marseille","lat":43.294153,"lon":5.386305,"is_reserved":false,"is_disabled":false,"rental_uris":{"android":"levelo://app?vid=3ea82959-fa49-4f99-8889-41655943bb29","ios":"levelo://app?vid=3ea82959-fa49-4f99-8889-41655943bb29"},"vehicle_type_id":"4","last_reported":1722370129,"current_range_meters":16400,"station_id":"ce4bh2h2rcd13ifvqdh0","pricing_plan_id":"cebpf4jnsgd1na2vs0mg"},{"bike_id":"56e12bc3-8b53-4dcb-b79c-91221f23bcc2","system_id":"levelo_inurba_marseille","lat":43.29415,"lon":5.38632,"is_reserved":false,"is_disabled":false,"rental_uris":{"android":"levelo://app?vid=56e12bc3-8b53-4dcb-b79c-91221f23bcc2","ios":"levelo://app?vid=56e12bc3-8b53-4dcb-b79c-91221f23bcc2"},"vehicle_type_id":"4","last_reported":1722370129,"current_range_meters":28000,"station_id":"ce4bh2h2rcd13ifvqdh0","pricing_plan_id":"cebpf4jnsgd1na2vs0mg"},{"bike_id":"911f8d93-6173-481c-8484-1c3f235672ec","system_id":"levelo_inurba_marseille","lat":43.294162,"lon":5.386292,"is_reserved":false,"is_disabled":false,"rental_uris":{"android":"levelo://app?vid=911f8d93-6173-481c-8484-1c3f235672ec","ios":"levelo://app?vid=911f8d93-6173-481c-8484-1c3f235672ec"},"vehicle_type_id":"4","last_reported":1722370129,"current_range_meters":1600,"station_id":"ce4bh2h2rcd13ifvqdh0","pricing_plan_id":"cebpf4jnsgd1na2vs0mg"},{"bike_id":"60e37a94-46ed-40e0-bd70-cdd1b028e934","system_id":"levelo_inurba_marseille","lat":43.29412,"lon":5.38632,"is_reserved":false,"is_disabled":false,"rental_uris":{"android":"levelo://app?vid=60e37a94-46ed-40e0-bd70-cdd1b028e934","ios":"levelo://app?vid=60e37a94-46ed-40e0-bd70-cdd1b028e934"},"vehicle_type_id":"4","last_reported":1722370129,"current_range_meters":6800,"station_id":"ce4bh2h2rcd13ifvqdh0","pricing_plan_id":"cebpf4jnsgd1na2vs0mg"},{"bike_id":"cf129c39-5ad2-40d1-9cc4-4eaccd2a60ec","system_id":"levelo_inurba_marseille","lat":43.28936,"lon":5.36633,"is_reserved":false,"is_disabled":false,"rental_uris":{"android":"levelo://app?vid=cf129c39-5ad2-40d1-9cc4-4eaccd2a60ec","ios":"levelo://app?vid=cf129c39-5ad2-40d1-9cc4-4eaccd2a60ec"},"vehicle_type_id":"4","last_reported":1722370129,"current_range_meters":0,"station_id":"ce4bhap2rcd13ifvqek0","pricing_plan_id":"cebpf4jnsgd1na2vs0mg"},{"bike_id":"e7fe6e33-e2b2-47d1-885b-a1201ffc0cdd","system_id":"levelo_inurba_marseille","lat":43.28935,"lon":5.36629,"is_reserved":false,"is_disabled":false,"rental_uris":{"android":"levelo://app?vid=e7fe6e33-e2b2-47d1-885b-a1201ffc0cdd","ios":"levelo://app?vid=e7fe6e33-e2b2-47d1-885b-a1201ffc0cdd"},"vehicle_type_id":"4","last_reported":1722370129,"current_range_meters":6400,"station_id":"ce4bhap2rcd13ifvqek0","pricing_plan_id":"cebpf4jnsgd1na2vs0mg"},{"bike_id":"b20faf10-e0e5-4b29-bd19-189c4ced55c2","system_id":"levelo_inurba_marseille","lat":43.289184,"lon":5.366408,"is_reserved":false,"is_disabled":false,"rental_uris":{"android":"levelo://app?vid=b20faf10-e0e5-4b29-bd19-189c4ced55c2","ios":"levelo://app?vid=b20faf10-e0e5-4b29-bd19-189c4ced55c2"},"vehicle_type_id":"4","last_reported":1722370129,"current_range_meters":0,"station_id":"ce4bhap2rcd13ifvqek0","pricing_plan_id":"cebpf4jnsgd1na2vs0mg"},{"bike_id":"4b7e6b2d-5ad7-4d3b-94a1-79f44d2ad0f2","system_id":"levelo_inurba_marseille","lat":43.28929,"lon":5.36635,"is_reserved":false,"is_disabled":false,"rental_uris":{"android":"levelo://app?vid=4b7e6b2d-5ad7-4d3b-94a1-79f44d2ad0f2","ios":"levelo://app?vid=4b7e6b2d-5ad7-4d3b-94a1-79f44d2ad0f2"},"vehicle_type_id":"4","last_reported":1722370129,"current_range_meters":0,"station_id":"ce4bhap2rcd13ifvqek0","pricing_plan_id":"cebpf4jnsgd1na2vs0mg"},{"bike_id":"f2a663ab-5f4c-40a0-8558-f48003c3751e","system_id":"levelo_inurba_marseille","lat":43.292644,"lon":5.384257,"is_reserved":false,"is_disabled":false,"rental_uris":{"android":"levelo://app?vid=f2a663ab-5f4c-40a0-8558-f48003c3751e","ios":"levelo://app?vid=f2a663ab-5f4c-40a0-8558-f48003c3751e"},"vehicle_type_id":"4","last_reported":1722370129,"current_range_meters":0,"station_id":"ce4bh692rcd13ifvqea0","pricing_plan_id":"cebpf4jnsgd1na2vs0mg"},{"bike_id":"d58d62b8-2a06-411c-b16e-50d51c969b36","system_id":"levelo_inurba_marseille","lat":43.3043,"lon":5.397389,"is_reserved":false,"is_disabled":false,"rental_uris":{"android":"levelo://app?vid=d58d62b8-2a06-411c-b16e-50d51c969b36","ios":"levelo://app?vid=d58d62b8-2a06-411c-b16e-50d51c969b36"},"vehicle_type_id":"4","last_reported":1722370129,"current_range_meters":0,"station_id":"ce4bh092rcd13ifvqd20","pricing_plan_id":"cebpf4jnsgd1na2vs0mg"},{"bike_id":"7c1b0594-0e75-41b7-b678-8070975cbdb2","system_id":"levelo_inurba_marseille","lat":43.292644,"lon":5.384257,"is_reserved":false,"is_disabled":false,"rental_uris":{"android":"levelo://app?vid=7c1b0594-0e75-41b7-b678-8070975cbdb2","ios":"levelo://app?vid=7c1b0594-0e75-41b7-b678-8070975cbdb2"},"vehicle_type_id":"4","last_reported":1722370129,"current_range_meters":14000,"station_id":"ce4bh692rcd13ifvqea0","pricing_plan_id":"cebpf4jnsgd1na2vs0mg"},{"bike_id":"81bfaf58-00d0-4b83-831c-1aac20b2eba7","system_id":"levelo_inurba_marseille","lat":43.292665,"lon":5.384345,"is_reserved":false,"is_disabled":false,"rental_uris":{"android":"levelo://app?vid=81bfaf58-00d0-4b83-831c-1aac20b2eba7","ios":"levelo://app?vid=81bfaf58-00d0-4b83-831c-1aac20b2eba7"},"vehicle_type_id":"4","last_reported":1722370129,"current_range_meters":0,"station_id":"ce4bh692rcd13ifvqea0","pricing_plan_id":"cebpf4jnsgd1na2vs0mg"},{"bike_id":"6fc899ed-bbd4-45e4-9441-95142ab7cb9f","system_id":"levelo_inurba_marseille","lat":43.292644,"lon":5.384257,"is_reserved":false,"is_disabled":false,"rental_uris":{"android":"levelo://app?vid=6fc899ed-bbd4-45e4-9441-95142ab7cb9f","ios":"levelo://app?vid=6fc899ed-bbd4-45e4-9441-95142ab7cb9f"},"vehicle_type_id":"4","last_reported":1722370129,"current_range_meters":0,"station_id":"ce4bh692rcd13ifvqea0","pricing_plan_id":"cebpf4jnsgd1na2vs0mg"},{"bike_id":"6e0049bc-e3c3-4491-80fd-48a8f571e282","system_id":"levelo_inurba_marseille","lat":43.292642,"lon":5.384482,"is_reserved":false,"is_disabled":false,"rental_uris":{"android":"levelo://app?vid=6e0049bc-e3c3-4491-80fd-48a8f571e282","ios":"levelo://app?vid=6e0049bc-e3c3-4491-80fd-48a8f571e282"},"vehicle_type_id":"4","last_reported":1722370129,"current_range_meters":0,"station_id":"ce4bh692rcd13ifvqea0","pricing_plan_id":"cebpf4jnsgd1na2vs0mg"},{"bike_id":"af013149-19cc-45a6-9a8f-67aa352960b3","system_id":"levelo_inurba_marseille","lat":43.292644,"lon":5.384257,"is_reserved":false,"is_disabled":false,"rental_uris":{"android":"levelo://app?vid=af013149-19cc-45a6-9a8f-67aa352960b3","ios":"levelo://app?vid=af013149-19cc-45a6-9a8f-67aa352960b3"},"vehicle_type_id":"4","last_reported":1722370129,"current_range_meters":10000,"station_id":"ce4bh692rcd13ifvqea0","pricing_plan_id":"cebpf4jnsgd1na2vs0mg"},{"bike_id":"de11b0dd-85c0-45ab-ae21-3d61f8982126","system_id":"levelo_inurba_marseille","lat":43.292644,"lon":5.384257,"is_reserved":false,"is_disabled":false,"rental_uris":{"android":"levelo://app?vid=de11b0dd-85c0-45ab-ae21-3d61f8982126","ios":"levelo://app?vid=de11b0dd-85c0-45ab-ae21-3d61f8982126"},"vehicle_type_id":"4","last_reported":1722370129,"current_range_meters":0,"station_id":"ce4bh692rcd13ifvqea0","pricing_plan_id":"cebpf4jnsgd1na2vs0mg"},{"bike_id":"f0376498-8029-43e6-befe-a689228276f8","system_id":"levelo_inurba_marseille","lat":43.292644,"lon":5.384257,"is_reserved":false,"is_disabled":false,"rental_uris":{"android":"levelo://app?vid=f0376498-8029-43e6-befe-a689228276f8","ios":"levelo://app?vid=f0376498-8029-43e6-befe-a689228276f8"},"vehicle_type_id":"4","last_reported":1722370129,"current_range_meters":14000,"station_id":"ce4bh692rcd13ifvqea0","pricing_plan_id":"cebpf4jnsgd1na2vs0mg"},{"bike_id":"04887ab0-ffcd-4b43-9e33-d127f9b7778a","system_id":"levelo_inurba_marseille","lat":43.292644,"lon":5.384257,"is_reserved":false,"is_disabled":false,"rental_uris":{"android":"levelo://app?vid=04887ab0-ffcd-4b43-9e33-d127f9b7778a","ios":"levelo://app?vid=04887ab0-ffcd-4b43-9e33-d127f9b7778a"},"vehicle_type_id":"4","last_reported":1722370129,"current_range_meters":800,"station_id":"ce4bh692rcd13ifvqea0","pricing_plan_id":"cebpf4jnsgd1na2vs0mg"},{"bike_id":"4d53df5b-4374-4f15-87cf-2856be9b6037","system_id":"levelo_inurba_marseille","lat":43.2926,"lon":5.38458,"is_reserved":false,"is_disabled":false,"rental_uris":{"android":"levelo://app?vid=4d53df5b-4374-4f15-87cf-2856be9b6037","ios":"levelo://app?vid=4d53df5b-4374-4f15-87cf-2856be9b6037"},"vehicle_type_id":"4","last_reported":1722370129,"current_range_meters":0,"station_id":"ce4bh692rcd13ifvqea0","pricing_plan_id":"cebpf4jnsgd1na2vs0mg"},{"bike_id":"74b58e89-5fa2-4f69-8d69-8801674e6cb1","system_id":"levelo_inurba_marseille","lat":43.291897,"lon":5.383009,"is_reserved":false,"is_disabled":false,"rental_uris":{"android":"levelo://app?vid=74b58e89-5fa2-4f69-8d69-8801674e6cb1","ios":"levelo://app?vid=74b58e89-5fa2-4f69-8d69-8801674e6cb1"},"vehicle_type_id":"4","last_reported":1722370129,"current_range_meters":18400,"station_id":"ce4bhap2rcd13ifvqek0","pricing_plan_id":"cebpf4jnsgd1na2vs0mg"},{"bike_id":"677568cc-905b-49df-8411-2dfc17eef815","system_id":"levelo_inurba_marseille","lat":43.290103,"lon":5.356114,"is_reserved":false,"is_disabled":false,"rental_uris":{"android":"levelo://app?vid=677568cc-905b-49df-8411-2dfc17eef815","ios":"levelo://app?vid=677568cc-905b-49df-8411-2dfc17eef815"},"vehicle_type_id":"4","last_reported":1722370129,"current_range_meters":0,"station_id":"ce4bhb92rcd13ifvqen0","pricing_plan_id":"cebpf4jnsgd1na2vs0mg"},{"bike_id":"34ebd16b-7e22-444b-a327-cf4c07628d04","system_id":"levelo_inurba_marseille","lat":43.290104,"lon":5.356111,"is_reserved":false,"is_disabled":false,"rental_uris":{"android":"levelo://app?vid=34ebd16b-7e22-444b-a327-cf4c07628d04","ios":"levelo://app?vid=34ebd16b-7e22-444b-a327-cf4c07628d04"},"vehicle_type_id":"4","last_reported":1722370129,"current_range_meters":3600,"station_id":"ce4bhb92rcd13ifvqen0","pricing_plan_id":"cebpf4jnsgd1na2vs0mg"},{"bike_id":"c430714b-3728-4d2c-9a13-f5e67dd2d974","system_id":"levelo_inurba_marseille","lat":43.290995,"lon":5.381361,"is_reserved":false,"is_disabled":false,"rental_uris":{"android":"levelo://app?vid=c430714b-3728-4d2c-9a13-f5e67dd2d974","ios":"levelo://app?vid=c430714b-3728-4d2c-9a13-f5e67dd2d974"},"vehicle_type_id":"4","last_reported":1722370129,"current_range_meters":26400,"station_id":"ce4bh512rcd13ifvqe2g","pricing_plan_id":"cebpf4jnsgd1na2vs0mg"},{"bike_id":"3c2e6669-fbbd-4828-a70e-3aa803c08562","system_id":"levelo_inurba_marseille","lat":43.29003,"lon":5.35613,"is_reserved":false,"is_disabled":false,"rental_uris":{"android":"levelo://app?vid=3c2e6669-fbbd-4828-a70e-3aa803c08562","ios":"levelo://app?vid=3c2e6669-fbbd-4828-a70e-3aa803c08562"},"vehicle_type_id":"4","last_reported":1722370129,"current_range_meters":0,"station_id":"ce4bhb92rcd13ifvqen0","pricing_plan_id":"cebpf4jnsgd1na2vs0mg"},{"bike_id":"5a362801-e454-45e2-9138-3912da3b086e","system_id":"levelo_inurba_marseille","lat":43.298681,"lon":5.397225,"is_reserved":false,"is_disabled":false,"rental_uris":{"android":"levelo://app?vid=5a362801-e454-45e2-9138-3912da3b086e","ios":"levelo://app?vid=5a362801-e454-45e2-9138-3912da3b086e"},"vehicle_type_id":"4","last_reported":1722370129,"current_range_meters":4400,"station_id":"ce4bh0h2rcd13ifvqd50","pricing_plan_id":"cebpf4jnsgd1na2vs0mg"},{"bike_id":"c9d6c946-4712-47fc-b5e8-5fd76381b3e3","system_id":"levelo_inurba_marseille","lat":43.290995,"lon":5.381361,"is_reserved":false,"is_disabled":false,"rental_uris":{"android":"levelo://app?vid=c9d6c946-4712-47fc-b5e8-5fd76381b3e3","ios":"levelo://app?vid=c9d6c946-4712-47fc-b5e8-5fd76381b3e3"},"vehicle_type_id":"4","last_reported":1722370129,"current_range_meters":2000,"station_id":"ce4bh512rcd13ifvqe2g","pricing_plan_id":"cebpf4jnsgd1na2vs0mg"},{"bike_id":"927f26bc-e892-4197-b043-135e5fbf1640","system_id":"levelo_inurba_marseille","lat":43.290995,"lon":5.381361,"is_reserved":false,"is_disabled":false,"rental_uris":{"android":"levelo://app?vid=927f26bc-e892-4197-b043-135e5fbf1640","ios":"levelo://app?vid=927f26bc-e892-4197-b043-135e5fbf1640"},"vehicle_type_id":"4","last_reported":1722370129,"current_range_meters":0,"station_id":"ce4bh512rcd13ifvqe2g","pricing_plan_id":"cebpf4jnsgd1na2vs0mg"},{"bike_id":"be9ba03c-ef1e-466f-87dc-6e905d643ddd","system_id":"levelo_inurba_marseille","lat":43.289741,"lon":5.378306,"is_reserved":false,"is_disabled":false,"rental_uris":{"android":"levelo://app?vid=be9ba03c-ef1e-466f-87dc-6e905d643ddd","ios":"levelo://app?vid=be9ba03c-ef1e-466f-87dc-6e905d643ddd"},"vehicle_type_id":"4","last_reported":1722370129,"current_range_meters":25200,"station_id":"ce4bh9p2rcd13ifvqed0","pricing_plan_id":"cebpf4jnsgd1na2vs0mg"},{"bike_id":"12f7cf4d-f10e-43ea-b38d-db7ed6a33c11","system_id":"levelo_inurba_marseille","lat":43.28977,"lon":5.37836,"is_reserved":false,"is_disabled":false,"rental_uris":{"android":"levelo://app?vid=12f7cf4d-f10e-43ea-b38d-db7ed6a33c11","ios":"levelo://app?vid=12f7cf4d-f10e-43ea-b38d-db7ed6a33c11"},"vehicle_type_id":"4","last_reported":1722370129,"current_range_meters":0,"station_id":"ce4bh9p2rcd13ifvqed0","pricing_plan_id":"cebpf4jnsgd1na2vs0mg"},{"bike_id":"c2722970-e4ae-4c8b-b98e-17f9638ee476","system_id":"levelo_inurba_marseille","lat":43.330442,"lon":5.389148,"is_reserved":false,"is_disabled":false,"rental_uris":{"android":"levelo://app?vid=c2722970-e4ae-4c8b-b98e-17f9638ee476","ios":"levelo://app?vid=c2722970-e4ae-4c8b-b98e-17f9638ee476"},"vehicle_type_id":"4","last_reported":1722370129,"current_range_meters":9200,"station_id":"ce4bhr92rcd13ifvqhrg","pricing_plan_id":"cebpf4jnsgd1na2vs0mg"},{"bike_id":"e9d0f8fd-9120-49f2-83ee-a4cb6a1a1fd9","system_id":"levelo_inurba_marseille","lat":43.330442,"lon":5.389148,"is_reserved":false,"is_disabled":false,"rental_uris":{"android":"levelo://app?vid=e9d0f8fd-9120-49f2-83ee-a4cb6a1a1fd9","ios":"levelo://app?vid=e9d0f8fd-9120-49f2-83ee-a4cb6a1a1fd9"},"vehicle_type_id":"4","last_reported":1722370129,"current_range_meters":27200,"station_id":"ce4bhr92rcd13ifvqhrg","pricing_plan_id":"cebpf4jnsgd1na2vs0mg"},{"bike_id":"bc35442b-5c09-49ac-b08b-19159871b6c8","system_id":"levelo_inurba_marseille","lat":43.295169,"lon":5.390426,"is_reserved":false,"is_disabled":false,"rental_uris":{"android":"levelo://app?vid=bc35442b-5c09-49ac-b08b-19159871b6c8","ios":"levelo://app?vid=bc35442b-5c09-49ac-b08b-19159871b6c8"},"vehicle_type_id":"4","last_reported":1722370129,"current_range_meters":2400,"station_id":"ce4bh3p2rcd13ifvqdp0","pricing_plan_id":"cebpf4jnsgd1na2vs0mg"},{"bike_id":"897d5ebe-3255-48ee-a413-c75ef239412a","system_id":"levelo_inurba_marseille","lat":43.330442,"lon":5.389148,"is_reserved":false,"is_disabled":false,"rental_uris":{"android":"levelo://app?vid=897d5ebe-3255-48ee-a413-c75ef239412a","ios":"levelo://app?vid=897d5ebe-3255-48ee-a413-c75ef239412a"},"vehicle_type_id":"4","last_reported":1722370129,"current_range_meters":24400,"station_id":"ce4bhr92rcd13ifvqhrg","pricing_plan_id":"cebpf4jnsgd1na2vs0mg"},{"bike_id":"8a869fa2-5b11-409b-b612-743c4f6c79c2","system_id":"levelo_inurba_marseille","lat":43.28973,"lon":5.3783,"is_reserved":false,"is_disabled":false,"rental_uris":{"android":"levelo://app?vid=8a869fa2-5b11-409b-b612-743c4f6c79c2","ios":"levelo://app?vid=8a869fa2-5b11-409b-b612-743c4f6c79c2"},"vehicle_type_id":"4","last_reported":1722370129,"current_range_meters":0,"station_id":"ce4bh9p2rcd13ifvqed0","pricing_plan_id":"cebpf4jnsgd1na2vs0mg"},{"bike_id":"54e049cf-863f-4bde-a063-94b151ca9f39","system_id":"levelo_inurba_marseille","lat":43.295169,"lon":5.390426,"is_reserved":false,"is_disabled":false,"rental_uris":{"android":"levelo://app?vid=54e049cf-863f-4bde-a063-94b151ca9f39","ios":"levelo://app?vid=54e049cf-863f-4bde-a063-94b151ca9f39"},"vehicle_type_id":"4","last_reported":1722370129,"current_range_meters":28000,"station_id":"ce4bh3p2rcd13ifvqdp0","pricing_plan_id":"cebpf4jnsgd1na2vs0mg"},{"bike_id":"24f1e426-cb28-4569-84f0-7921072a2aa7","system_id":"levelo_inurba_marseille","lat":43.330442,"lon":5.389148,"is_reserved":false,"is_disabled":false,"rental_uris":{"android":"levelo://app?vid=24f1e426-cb28-4569-84f0-7921072a2aa7","ios":"levelo://app?vid=24f1e426-cb28-4569-84f0-7921072a2aa7"},"vehicle_type_id":"4","last_reported":1722370129,"current_range_meters":31200,"station_id":"ce4bhr92rcd13ifvqhrg","pricing_plan_id":"cebpf4jnsgd1na2vs0mg"},{"bike_id":"e92a95a8-e18c-41a5-ab49-3cbc33e431aa","system_id":"levelo_inurba_marseille","lat":43.295169,"lon":5.390426,"is_reserved":false,"is_disabled":false,"rental_uris":{"android":"levelo://app?vid=e92a95a8-e18c-41a5-ab49-3cbc33e431aa","ios":"levelo://app?vid=e92a95a8-e18c-41a5-ab49-3cbc33e431aa"},"vehicle_type_id":"4","last_reported":1722370129,"current_range_meters":31200,"station_id":"ce4bh3p2rcd13ifvqdp0","pricing_plan_id":"cebpf4jnsgd1na2vs0mg"},{"bike_id":"21683504-029f-4462-bc41-550bd77485d2","system_id":"levelo_inurba_marseille","lat":43.29517,"lon":5.39037,"is_reserved":false,"is_disabled":false,"rental_uris":{"android":"levelo://app?vid=21683504-029f-4462-bc41-550bd77485d2","ios":"levelo://app?vid=21683504-029f-4462-bc41-550bd77485d2"},"vehicle_type_id":"4","last_reported":1722370129,"current_range_meters":0,"station_id":"ce4bh3p2rcd13ifvqdp0","pricing_plan_id":"cebpf4jnsgd1na2vs0mg"},{"bike_id":"51337f66-661d-4e2e-bd66-4ffc6d660bda","system_id":"levelo_inurba_marseille","lat":43.295169,"lon":5.390426,"is_reserved":false,"is_disabled":false,"rental_uris":{"android":"levelo://app?vid=51337f66-661d-4e2e-bd66-4ffc6d660bda","ios":"levelo://app?vid=51337f66-661d-4e2e-bd66-4ffc6d660bda"},"vehicle_type_id":"4","last_reported":1722370129,"current_range_meters":31200,"station_id":"ce4bh3p2rcd13ifvqdp0","pricing_plan_id":"cebpf4jnsgd1na2vs0mg"},{"bike_id":"879a1e6a-cbfd-4947-96a5-d76416c7d9c8","system_id":"levelo_inurba_marseille","lat":43.295169,"lon":5.390426,"is_reserved":false,"is_disabled":false,"rental_uris":{"android":"levelo://app?vid=879a1e6a-cbfd-4947-96a5-d76416c7d9c8","ios":"levelo://app?vid=879a1e6a-cbfd-4947-96a5-d76416c7d9c8"},"vehicle_type_id":"4","last_reported":1722370129,"current_range_meters":19200,"station_id":"ce4bh3p2rcd13ifvqdp0","pricing_plan_id":"cebpf4jnsgd1na2vs0mg"},{"bike_id":"c06f1585-5f9a-4b33-8595-ed56e8ffc9cf","system_id":"levelo_inurba_marseille","lat":43.295177,"lon":5.390423,"is_reserved":false,"is_disabled":false,"rental_uris":{"android":"levelo://app?vid=c06f1585-5f9a-4b33-8595-ed56e8ffc9cf","ios":"levelo://app?vid=c06f1585-5f9a-4b33-8595-ed56e8ffc9cf"},"vehicle_type_id":"4","last_reported":1722370129,"current_range_meters":1600,"station_id":"ce4bh3p2rcd13ifvqdp0","pricing_plan_id":"cebpf4jnsgd1na2vs0mg"},{"bike_id":"840dc451-77f1-4dde-8564-f2276a730d9a","system_id":"levelo_inurba_marseille","lat":43.29518,"lon":5.39051,"is_reserved":false,"is_disabled":false,"rental_uris":{"android":"levelo://app?vid=840dc451-77f1-4dde-8564-f2276a730d9a","ios":"levelo://app?vid=840dc451-77f1-4dde-8564-f2276a730d9a"},"vehicle_type_id":"4","last_reported":1722370129,"current_range_meters":9200,"station_id":"ce4bh3p2rcd13ifvqdp0","pricing_plan_id":"cebpf4jnsgd1na2vs0mg"},{"bike_id":"89c29d56-debb-4cf2-8969-28db3239aee9","system_id":"levelo_inurba_marseille","lat":43.29514,"lon":5.39046,"is_reserved":false,"is_disabled":false,"rental_uris":{"android":"levelo://app?vid=89c29d56-debb-4cf2-8969-28db3239aee9","ios":"levelo://app?vid=89c29d56-debb-4cf2-8969-28db3239aee9"},"vehicle_type_id":"4","last_reported":1722370129,"current_range_meters":0,"station_id":"ce4bh3p2rcd13ifvqdp0","pricing_plan_id":"cebpf4jnsgd1na2vs0mg"},{"bike_id":"e46f8768-d860-42f0-844d-afad23df2cd8","system_id":"levelo_inurba_marseille","lat":43.33024,"lon":5.39089,"is_reserved":false,"is_disabled":false,"rental_uris":{"android":"levelo://app?vid=e46f8768-d860-42f0-844d-afad23df2cd8","ios":"levelo://app?vid=e46f8768-d860-42f0-844d-afad23df2cd8"},"vehicle_type_id":"4","last_reported":1722370129,"current_range_meters":12800,"station_id":"ce4bhr92rcd13ifvqhrg","pricing_plan_id":"cebpf4jnsgd1na2vs0mg"},{"bike_id":"f4cdf6f8-59cc-4926-bbd3-bf830cd7e7b6","system_id":"levelo_inurba_marseille","lat":43.29016,"lon":5.38139,"is_reserved":false,"is_disabled":false,"rental_uris":{"android":"levelo://app?vid=f4cdf6f8-59cc-4926-bbd3-bf830cd7e7b6","ios":"levelo://app?vid=f4cdf6f8-59cc-4926-bbd3-bf830cd7e7b6"},"vehicle_type_id":"4","last_reported":1722370129,"current_range_meters":28800,"station_id":"ce4bh4p2rcd13ifvqe1g","pricing_plan_id":"cebpf4jnsgd1na2vs0mg"},{"bike_id":"6c3d69eb-88a5-44d4-becb-9b11a1dbff4f","system_id":"levelo_inurba_marseille","lat":43.28856,"lon":5.358371,"is_reserved":false,"is_disabled":false,"rental_uris":{"android":"levelo://app?vid=6c3d69eb-88a5-44d4-becb-9b11a1dbff4f","ios":"levelo://app?vid=6c3d69eb-88a5-44d4-becb-9b11a1dbff4f"},"vehicle_type_id":"4","last_reported":1722370129,"current_range_meters":25200,"station_id":"ce4bhb12rcd13ifvqem0","pricing_plan_id":"cebpf4jnsgd1na2vs0mg"},