{"last_updated":1725394147,"ttl":30,"version":"2.2","data":{"bikes":[{"bike_id":"d047a927-e572-48e0-a45e-512e93bd4c01","system_id":"levelo_inurba_marseille","lat":43.31341,"lon":5.367098,"is_reserved":false,"is_disabled":false,"rental_uris":{"android":"levelo://app?vid=d047a927-e572-48e0-a45e-512e93bd4c01","ios":"levelo://app?vid=d047a927-e572-48e0-a45e-512e93bd4c01"},"vehicle_type_id":"4","last_reported":1725394147,"current_range_meters":400,"station_id":"ce4bgr92rcd13ifvqc6g","pricing_plan_id":"cebpf4jnsgd1na2vs0mg"},{"bike_id":"460809d4-1be4-44de-9f37-f63dad52e703","system_id":"levelo_inurba_marseille","lat":43.312239,"lon":5.368562,"is_reserved":false,"is_disabled":false,"rental_uris":{"android":"levelo://app?vid=460809d4-1be4-44de-9f37-f63dad52e703","ios":"levelo://app?vid=460809d4-1be4-44de-9f37-f63dad52e703"},"vehicle_type_id":"4","last_reported":1725394147,"current_range_meters":12400,"station_id":"ce4bgl92rcd13ifvqbq0","pricing_plan_id":"cebpf4jnsgd1na2vs0mg"},{"bike_id":"bf2bd764-32ef-41ec-a299-16ce078271af","system_id":"levelo_inurba_marseille","lat":43.312239,"lon":5.368562,"is_reserved":false,"is_disabled":false,"rental_uris":{"android":"levelo://app?vid=bf2bd764-32ef-41ec-a299-16ce078271af","ios":"levelo://app?vid=bf2bd764-32ef-41ec-a299-16ce078271af"},"vehicle_type_id":"4","last_reported":1725394147,"current_range_meters":9600,"station_id":"ce4bgl92rcd13ifvqbq0","pricing_plan_id":"cebpf4jnsgd1na2vs0mg"},{"bike_id":"c7f2940d-11a6-4236-a10a-3cf4e021b15f","system_id":"levelo_inurba_marseille","lat":43.312239,"lon":5.368562,"is_reserved":false,"is_disabled":false,"rental_uris":{"android":"levelo://app?vid=c7f2940d-11a6-4236-a10a-3cf4e021b15f","ios":"levelo://app?vid=c7f2940d-11a6-4236-a10a-3cf4e021b15f"},"vehicle_type_id":"4","last_reported":1725394147,"current_range_meters":1200,"station_id":"ce4bgl92rcd13ifvqbq0","pricing_plan_id":"cebpf4jnsgd1na2vs0mg"},{"bike_id":"144bc483-4507-4886-8df3-22d6e007b6ed","system_id":"levelo_inurba_marseille","lat":43.31218,"lon":5.36853,"is_reserved":false,"is_disabled":false,"rental_uris":{"android":"levelo://app?vid=144bc483-4507-4886-8df3-22d6e007b6ed","ios":"levelo://app?vid=144bc483-4507-4886-8df3-22d6e007b6ed"},"vehicle_type_id":"4","last_reported":1725394147,"current_range_meters":7200,"station_id":"ce4bgl92rcd13ifvqbq0","pricing_plan_id":"cebpf4jnsgd1na2vs0mg"},{"bike_id":"aec22138-cb9d-4f71-a91b-7e8c61630170","system_id":"levelo_inurba_marseille","lat":43.312239,"lon":5.368562,"is_reserved":false,"is_disabled":false,"rental_uris":{"android":"levelo://app?vid=aec22138-cb9d-4f71-a91b-7e8c61630170","ios":"levelo://app?vid=aec22138-cb9d-4f71-a91b-7e8c61630170"},"vehicle_type_id":"4","last_reported":1725394147,"current_range_meters":5600,"station_id":"ce4bgl92rcd13ifvqbq0","pricing_plan_id":"cebpf4jnsgd1na2vs0mg"},{"bike_id":"8ff6c4ed-64c6-4faf-8582-226d8d05713c","system_id":"levelo_inurba_marseille","lat":43.314811,"lon":5.373103,"is_reserved":false,"is_disabled":false,"rental_uris":{"android":"levelo://app?vid=8ff6c4ed-64c6-4faf-8582-226d8d05713c","ios":"levelo://app?vid=8ff6c4ed-64c6-4faf-8582-226d8d05713c"},"vehicle_type_id":"4","last_reported":1725394147,"current_range_meters":27600,"station_id":"ce4bgt12rcd13ifvqcd0","pricing_plan_id":"cebpf4jnsgd1na2vs0mg"},{"bike_id":"3c9dcae7-e19c-4cce-b0d3-55598ef80aab","system_id":"levelo_inurba_marseille","lat":43.314811,"lon":5.373103,"is_reserved":false,"is_disabled":false,"rental_uris":{"android":"levelo://app?vid=3c9dcae7-e19c-4cce-b0d3-55598ef80aab","ios":"levelo://app?vid=3c9dcae7-e19c-4cce-b0d3-55598ef80aab"},"vehicle_type_id":"4","last_reported":1725394147,"current_range_meters":6400,"station_id":"ce4bgt12rcd13ifvqcd0","pricing_plan_id":"cebpf4jnsgd1na2vs0mg"},{"bike_id":"5ee53d5b-7c3e-45a8-86f7-4728afd6e68c","system_id":"levelo_inurba_marseille","lat":43.314811,"lon":5.373103,"is_reserved":false,"is_disabled":false,"rental_uris":{"android":"levelo://app?vid=5ee53d5b-7c3e-45a8-86f7-4728afd6e68c","ios":"levelo://app?vid=5ee53d5b-7c3e-45a8-86f7-4728afd6e68c"},"vehicle_type_id":"4","last_reported":1725394147,"current_range_meters":23600,"station_id":"ce4bgt12rcd13ifvqcd0","pricing_plan_id":"cebpf4jnsgd1na2vs0mg"},{"bike_id":"6f05855e-413d-4380-95b1-44bc136cb728","system_id":"levelo_inurba_marseille","lat":43.314811,"lon":5.373103,"is_reserved":false,"is_disabled":false,"rental_uris":{"android":"levelo://app?vid=6f05855e-413d-4380-95b1-44bc136cb728","ios":"levelo://app?vid=6f05855e-413d-4380-95b1-44bc136cb728"},"vehicle_type_id":"4","last_reported":1725394147,"current_range_meters":5600,"station_id":"ce4bgt12rcd13ifvqcd0","pricing_plan_id":"cebpf4jnsgd1na2vs0mg"},{"bike_id":"225e5c4a-6a17-4cc2-987b-614b505286aa","system_id":"levelo_inurba_marseille","lat":43.314811,"lon":5.373103,"is_reserved":false,"is_disabled":false,"rental_uris":{"android":"levelo://app?vid=225e5c4a-6a17-4cc2-987b-614b505286aa","ios":"levelo://app?vid=225e5c4a-6a17-4cc2-987b-614b505286aa"},"vehicle_type_id":"4","last_reported":1725394147,"current_range_meters":20800,"station_id":"ce4bgt12rcd13ifvqcd0","pricing_plan_id":"cebpf4jnsgd1na2vs0mg"},{"bike_id":"dee6175e-cd0d-4691-a44c-a092974e28b5","system_id":"levelo_inurba_marseille","lat":43.31814,"lon":5.369471,"is_reserved":false,"is_disabled":false,"rental_uris":{"android":"levelo://app?vid=dee6175e-cd0d-4691-a44c-a092974e28b5","ios":"levelo://app?vid=dee6175e-cd0d-4691-a44c-a092974e28b5"},"vehicle_type_id":"4","last_reported":1725394147,"current_range_meters":6400,"station_id":"","pricing_plan_id":"cebpf4jnsgd1na2vs0mg"},{"bike_id":"0e72dfec-b26f-464e-88c2-561f33b19c5d","system_id":"levelo_inurba_marseille","lat":43.30555,"lon":5.36706,"is_reserved":false,"is_disabled":false,"rental_uris":{"android":"levelo://app?vid=0e72dfec-b26f-464e-88c2-561f33b19c5d","ios":"levelo://app?vid=0e72dfec-b26f-464e-88c2-561f33b19c5d"},"vehicle_type_id":"4","last_reported":1725394147,"current_range_meters":29600,"station_id":"ce4bgrp2rcd13ifvqc9g","pricing_plan_id":"cebpf4jnsgd1na2vs0mg"},{"bike_id":"06a53273-3ff1-4c5d-b967-1fcf475d4564","system_id":"levelo_inurba_marseille","lat":43.30544,"lon":5.36547,"is_reserved":false,"is_disabled":false,"rental_uris":{"android":"levelo://app?vid=06a53273-3ff1-4c5d-b967-1fcf475d4564","ios":"levelo://app?vid=06a53273-3ff1-4c5d-b967-1fcf475d4564"},"vehicle_type_id":"4","last_reported":1725394147,"current_range_meters":26400,"station_id":"ce4bgs12rcd13ifvqcag","pricing_plan_id":"cebpf4jnsgd1na2vs0mg"},{"bike_id":"ba6b6eba-d00f-40b5-9a90-3859983ad3f8","system_id":"levelo_inurba_marseille","lat":43.305989,"lon":5.37225,"is_reserved":false,"is_disabled":false,"rental_uris":{"android":"levelo://app?vid=ba6b6eba-d00f-40b5-9a90-3859983ad3f8","ios":"levelo://app?vid=ba6b6eba-d00f-40b5-9a90-3859983ad3f8"},"vehicle_type_id":"4","last_reported":1725394147,"current_range_meters":12400,"station_id":"ce4bgqh2rcd13ifvqc4g","pricing_plan_id":"cebpf4jnsgd1na2vs0mg"},{"bike_id":"15f11827-2ea6-4c73-a235-5bbce3aedafb","system_id":"levelo_inurba_marseille","lat":43.305989,"lon":5.37225,"is_reserved":false,"is_disabled":false,"rental_uris":{"android":"levelo://app?vid=15f11827-2ea6-4c73-a235-5bbce3aedafb","ios":"levelo://app?vid=15f11827-2ea6-4c73-a235-5bbce3aedafb"},"vehicle_type_id":"4","last_reported":1725394147,"current_range_meters":10800,"station_id":"ce4bgqh2rcd13ifvqc4g","pricing_plan_id":"cebpf4jnsgd1na2vs0mg"},{"bike_id":"abcc5620-2db8-42f3-9dc5-c95b476a53b5","system_id":"levelo_inurba_marseille","lat":43.31031,"lon":5.37711,"is_reserved":false,"is_disabled":false,"rental_uris":{"android":"levelo://app?vid=abcc5620-2db8-42f3-9dc5-c95b476a53b5","ios":"levelo://app?vid=abcc5620-2db8-42f3-9dc5-c95b476a53b5"},"vehicle_type_id":"4","last_reported":1725394147,"current_range_meters":19600,"station_id":"","pricing_plan_id":"cebpf4jnsgd1na2vs0mg"},{"bike_id":"08bf5e0f-2a66-4d02-a7c7-7ad9dd56a143","system_id":"levelo_inurba_marseille","lat":43.305989,"lon":5.37225,"is_reserved":false,"is_disabled":false,"rental_uris":{"android":"levelo://app?vid=08bf5e0f-2a66-4d02-a7c7-7ad9dd56a143","ios":"levelo://app?vid=08bf5e0f-2a66-4d02-a7c7-7ad9dd56a143"},"vehicle_type_id":"4","last_reported":1725394147,"current_range_meters":29600,"station_id":"ce4bgqh2rcd13ifvqc4g","pricing_plan_id":"cebpf4jnsgd1na2vs0mg"},{"bike_id":"df9bcc44-93f7-49ea-a9be-2d423d7edd31","system_id":"levelo_inurba_marseille","lat":43.311125,"lon":5.377624,"is_reserved":false,"is_disabled":false,"rental_uris":{"android":"levelo://app?vid=df9bcc44-93f7-49ea-a9be-2d423d7edd31","ios":"levelo://app?vid=df9bcc44-93f7-49ea-a9be-2d423d7edd31"},"vehicle_type_id":"4","last_reported":1725394147,"current_range_meters":400,"station_id":"ce4bgt92rcd13ifvqcg0","pricing_plan_id":"cebpf4jnsgd1na2vs0mg"},{"bike_id":"2de28d11-9fac-44e2-858b-75f7cf19c036","system_id":"levelo_inurba_marseille","lat":43.311131,"lon":5.377651,"is_reserved":false,"is_disabled":false,"rental_uris":{"android":"levelo://app?vid=2de28d11-9fac-44e2-858b-75f7cf19c036","ios":"levelo://app?vid=2de28d11-9fac-44e2-858b-75f7cf19c036"},"vehicle_type_id":"4","last_reported":1725394147,"current_range_meters":13200,"station_id":"ce4bgt92rcd13ifvqcg0","pricing_plan_id":"cebpf4jnsgd1na2vs0mg"},{"bike_id":"ca72b864-4715-4bc9-b705-c310de77ac1f","system_id":"levelo_inurba_marseille","lat":43.311131,"lon":5.377651,"is_reserved":false,"is_disabled":false,"rental_uris":{"android":"levelo://app?vid=ca72b864-4715-4bc9-b705-c310de77ac1f","ios":"levelo://app?vid=ca72b864-4715-4bc9-b705-c310de77ac1f"},"vehicle_type_id":"4","last_reported":1725394147,"current_range_meters":0,"station_id":"ce4bgt92rcd13ifvqcg0","pricing_plan_id":"cebpf4jnsgd1na2vs0mg"},{"bike_id":"f9cf74e7-69b6-4f8d-a506-feb28a805438","system_id":"levelo_inurba_marseille","lat":43.307945,"lon":5.376487,"is_reserved":false,"is_disabled":false,"rental_uris":{"android":"levelo://app?vid=f9cf74e7-69b6-4f8d-a506-feb28a805438","ios":"levelo://app?vid=f9cf74e7-69b6-4f8d-a506-feb28a805438"},"vehicle_type_id":"4","last_reported":1725394147,"current_range_meters":11600,"station_id":"ce4bgv92rcd13ifvqcq0","pricing_plan_id":"cebpf4jnsgd1na2vs0mg"},{"bike_id":"9c327a20-65e6-4cf7-8165-169bb977067e","system_id":"levelo_inurba_marseille","lat":43.301396,"lon":5.387812,"is_reserved":false,"is_disabled":false,"rental_uris":{"android":"levelo://app?vid=9c327a20-65e6-4cf7-8165-169bb977067e","ios":"levelo://app?vid=9c327a20-65e6-4cf7-8165-169bb977067e"},"vehicle_type_id":"4","last_reported":1725394147,"current_range_meters":11600,"station_id":"ce4bghh2rcd13ifvqb60","pricing_plan_id":"cebpf4jnsgd1na2vs0mg"},{"bike_id":"72ddf095-cb6b-40e1-a633-a1a2d16f85f8","system_id":"levelo_inurba_marseille","lat":43.308012,"lon":5.381511,"is_reserved":false,"is_disabled":false,"rental_uris":{"android":"levelo://app?vid=72ddf095-cb6b-40e1-a633-a1a2d16f85f8","ios":"levelo://app?vid=72ddf095-cb6b-40e1-a633-a1a2d16f85f8"},"vehicle_type_id":"4","last_reported":1725394147,"current_range_meters":11200,"station_id":"ce4bgt12rcd13ifvqce0","pricing_plan_id":"cebpf4jnsgd1na2vs0mg"},{"bike_id":"e23688ba-992d-4d09-8b37-6421a819f30b","system_id":"levelo_inurba_marseille","lat":43.30304,"lon":5.368987,"is_reserved":false,"is_disabled":false,"rental_uris":{"android":"levelo://app?vid=e23688ba-992d-4d09-8b37-6421a819f30b","ios":"levelo://app?vid=e23688ba-992d-4d09-8b37-6421a819f30b"},"vehicle_type_id":"4","last_reported":1725394147,"current_range_meters":15600,"station_id":"ce4bgqh2rcd13ifvqc5g","pricing_plan_id":"cebpf4jnsgd1na2vs0mg"},{"bike_id":"c3cbcac7-b4cb-4927-a581-3028bac720e8","system_id":"levelo_inurba_marseille","lat":43.30304,"lon":5.368987,"is_reserved":false,"is_disabled":false,"rental_uris":{"android":"levelo://app?vid=c3cbcac7-b4cb-4927-a581-3028bac720e8","ios":"levelo://app?vid=c3cbcac7-b4cb-4927-a581-3028bac720e8"},"vehicle_type_id":"4","last_reported":1725394147,"current_range_meters":32000,"station_id":"ce4bgqh2rcd13ifvqc5g","pricing_plan_id":"cebpf4jnsgd1na2vs0mg"},{"bike_id":"42e721d6-e250-41d5-abb8-d779f754ed8e","system_id":"levelo_inurba_marseille","lat":43.30304,"lon":5.368987,"is_reserved":false,"is_disabled":false,"rental_uris":{"android":"levelo://app?vid=42e721d6-e250-41d5-abb8-d779f754ed8e","ios":"levelo://app?vid=42e721d6-e250-41d5-abb8-d779f754ed8e"},"vehicle_type_id":"4","last_reported":1725394147,"current_range_meters":15200,"station_id":"ce4bgqh2rcd13ifvqc5g","pricing_plan_id":"cebpf4jnsgd1na2vs0mg"},{"bike_id":"5f9eb528-e6af-4252-a8b8-f21f27f8fccd","system_id":"levelo_inurba_marseille","lat":43.315289,"lon":5.380349,"is_reserved":false,"is_disabled":false,"rental_uris":{"android":"levelo://app?vid=5f9eb528-e6af-4252-a8b8-f21f27f8fccd","ios":"levelo://app?vid=5f9eb528-e6af-4252-a8b8-f21f27f8fccd"},"vehicle_type_id":"4","last_reported":1725394147,"current_range_meters":4400,"station_id":"ce4bhsp2rcd13ifvqi50","pricing_plan_id":"cebpf4jnsgd1na2vs0mg"},{"bike_id":"695c6ca7-c248-4a47-ab86-5654fedeb619","system_id":"levelo_inurba_marseille","lat":43.31522,"lon":5.3804,"is_reserved":false,"is_disabled":false,"rental_uris":{"android":"levelo://app?vid=695c6ca7-c248-4a47-ab86-5654fedeb619","ios":"levelo://app?vid=695c6ca7-c248-4a47-ab86-5654fedeb619"},"vehicle_type_id":"4","last_reported":1725394147,"current_range_meters":2400,"station_id":"ce4bhsp2rcd13ifvqi50","pricing_plan_id":"cebpf4jnsgd1na2vs0mg"},{"bike_id":"7fcde847-f022-4e3b-a5c2-395e54c5c637","system_id":"levelo_inurba_marseille","lat":43.31062,"lon":5.38131,"is_reserved":false,"is_disabled":false,"rental_uris":{"android":"levelo://app?vid=7fcde847-f022-4e3b-a5c2-395e54c5c637","ios":"levelo://app?vid=7fcde847-f022-4e3b-a5c2-395e54c5c637"},"vehicle_type_id":"4","last_reported":1725394147,"current_range_meters":12000,"station_id":"","pricing_plan_id":"cebpf4jnsgd1na2vs0mg"},{"bike_id":"e8e71965-0a71-4311-b978-463b1ff43a31","system_id":"levelo_inurba_marseille","lat":43.30786,"lon":5.3801,"is_reserved":false,"is_disabled":false,"rental_uris":{"android":"levelo://app?vid=e8e71965-0a71-4311-b978-463b1ff43a31","ios":"levelo://app?vid=e8e71965-0a71-4311-b978-463b1ff43a31"},"vehicle_type_id":"4","last_reported":1725394147,"current_range_meters":1200,"station_id":"","pricing_plan_id":"cebpf4jnsgd1na2vs0mg"},{"bike_id":"bd9ba47a-0aa9-4486-9c61-9967d42835be","system_id":"levelo_inurba_marseille","lat":43.301939,"lon":5.366286,"is_reserved":false,"is_disabled":false,"rental_uris":{"android":"levelo://app?vid=bd9ba47a-0aa9-4486-9c61-9967d42835be","ios":"levelo://app?vid=bd9ba47a-0aa9-4486-9c61-9967d42835be"},"vehicle_type_id":"4","last_reported":1725394147,"current_range_meters":8400,"station_id":"ce4bgrh2rcd13ifvqc8g","pricing_plan_id":"cebpf4jnsgd1na2vs0mg"},{"bike_id":"770d7892-348e-41d8-87f7-6ab5a15db314","system_id":"levelo_inurba_marseille","lat":43.308012,"lon":5.381511,"is_reserved":false,"is_disabled":false,"rental_uris":{"android":"levelo://app?vid=770d7892-348e-41d8-87f7-6ab5a15db314","ios":"levelo://app?vid=770d7892-348e-41d8-87f7-6ab5a15db314"},"vehicle_type_id":"4","last_reported":1725394147,"current_range_meters":0,"station_id":"ce4bgt12rcd13ifvqce0","pricing_plan_id":"cebpf4jnsgd1na2vs0mg"},{"bike_id":"f0b31727-9475-4edf-bb6d-d2ab8dc30c4c","system_id":"levelo_inurba_marseille","lat":43.308012,"lon":5.381511,"is_reserved":false,"is_disabled":false,"rental_uris":{"android":"levelo://app?vid=f0b31727-9475-4edf-bb6d-d2ab8dc30c4c","ios":"levelo://app?vid=f0b31727-9475-4edf-bb6d-d2ab8dc30c4c"},"vehicle_type_id":"4","last_reported":1725394147,"current_range_meters":30400,"station_id":"ce4bgt12rcd13ifvqce0","pricing_plan_id":"cebpf4jnsgd1na2vs0mg"},{"bike_id":"9cb4adad-f5d8-4eba-9040-5ee8847625ef","system_id":"levelo_inurba_marseille","lat":43.308012,"lon":5.381511,"is_reserved":false,"is_disabled":false,"rental_uris":{"android":"levelo://app?vid=9cb4adad-f5d8-4eba-9040-5ee8847625ef","ios":"levelo://app?vid=9cb4adad-f5d8-4eba-9040-5ee8847625ef"},"vehicle_type_id":"4","last_reported":1725394147,"current_range_meters":0,"station_id":"ce4bgt12rcd13ifvqce0","pricing_plan_id":"cebpf4jnsgd1na2vs0mg"},{"bike_id":"b60ba5b2-85de-46fb-a8fd-8ff3115fb699","system_id":"levelo_inurba_marseille","lat":43.32473,"lon":5.3657,"is_reserved":false,"is_disabled":false,"rental_uris":{"android":"levelo://app?vid=b60ba5b2-85de-46fb-a8fd-8ff3115fb699","ios":"levelo://app?vid=b60ba5b2-85de-46fb-a8fd-8ff3115fb699"},"vehicle_type_id":"4","last_reported":1725394147,"current_range_meters":0,"station_id":"ce4bhs12rcd13ifvqhvg","pricing_plan_id":"cebpf4jnsgd1na2vs0mg"},{"bike_id":"512a47b2-f81e-413e-95e4-2cec10ab2844","system_id":"levelo_inurba_marseille","lat":43.308012,"lon":5.381511,"is_reserved":false,"is_disabled":false,"rental_uris":{"android":"levelo://app?vid=512a47b2-f81e-413e-95e4-2cec10ab2844","ios":"levelo://app?vid=512a47b2-f81e-413e-95e4-2cec10ab2844"},"vehicle_type_id":"4","last_reported":1725394147,"current_range_meters":27200,"station_id":"ce4bgt12rcd13ifvqce0","pricing_plan_id":"cebpf4jnsgd1na2vs0mg"},{"bike_id":"c10f8811-fd8d-4542-bec3-0f30c15e532e","system_id":"levelo_inurba_marseille","lat":43.310804,"lon":5.38359,"is_reserved":false,"is_disabled":false,"rental_uris":{"android":"levelo://app?vid=c10f8811-fd8d-4542-bec3-0f30c15e532e","ios":"levelo://app?vid=c10f8811-fd8d-4542-bec3-0f30c15e532e"},"vehicle_type_id":"4","last_reported":1725394147,"current_range_meters":6800,"station_id":"ce4bgv92rcd13ifvqcr0","pricing_plan_id":"cebpf4jnsgd1na2vs0mg"},{"bike_id":"4b479cd7-36b6-49d7-b600-2bdd31ebf73e","system_id":"levelo_inurba_marseille","lat":43.31069,"lon":5.38361,"is_reserved":false,"is_disabled":false,"rental_uris":{"android":"levelo://app?vid=4b479cd7-36b6-49d7-b600-2bdd31ebf73e","ios":"levelo://app?vid=4b479cd7-36b6-49d7-b600-2bdd31ebf73e"},"vehicle_type_id":"4","last_reported":1725394147,"current_range_meters":23200,"station_id":"ce4bgv92rcd13ifvqcr0","pricing_plan_id":"cebpf4jnsgd1na2vs0mg"},{"bike_id":"2da78797-af1d-4b5d-a88e-ed2c809add67","system_id":"levelo_inurba_marseille","lat":43.31068,"lon":5.38369,"is_reserved":false,"is_disabled":false,"rental_uris":{"android":"levelo://app?vid=2da78797-af1d-4b5d-a88e-ed2c809add67","ios":"levelo://app?vid=2da78797-af1d-4b5d-a88e-ed2c809add67"},"vehicle_type_id":"4","last_reported":1725394147,"current_range_meters":24400,"station_id":"ce4bgv92rcd13ifvqcr0","pricing_plan_id":"cebpf4jnsgd1na2vs0mg"},{"bike_id":"fedadb82-e030-4853-9aa4-21517c373a1f","system_id":"levelo_inurba_marseille","lat":43.302784,"lon":5.377158,"is_reserved":false,"is_disabled":false,"rental_uris":{"android":"levelo://app?vid=fedadb82-e030-4853-9aa4-21517c373a1f","ios":"levelo://app?vid=fedadb82-e030-4853-9aa4-21517c373a1f"},"vehicle_type_id":"4","last_reported":1725394147,"current_range_meters":25600,"station_id":"ce4bguh2rcd13ifvqcj0","pricing_plan_id":"cebpf4jnsgd1na2vs0mg"},{"bike_id":"6240613f-32ae-49d0-ac14-6fcd92dc8bdf","system_id":"levelo_inurba_marseille","lat":43.32517,"lon":5.36801,"is_reserved":false,"is_disabled":false,"rental_uris":{"android":"levelo://app?vid=6240613f-32ae-49d0-ac14-6fcd92dc8bdf","ios":"levelo://app?vid=6240613f-32ae-49d0-ac14-6fcd92dc8bdf"},"vehicle_type_id":"4","last_reported":1725394147,"current_range_meters":16400,"station_id":"","pricing_plan_id":"cebpf4jnsgd1na2vs0mg"},{"bike_id":"447c2960-9865-4313-a59e-72cc0168797d","system_id":"levelo_inurba_marseille","lat":43.302784,"lon":5.377158,"is_reserved":false,"is_disabled":false,"rental_uris":{"android":"levelo://app?vid=447c2960-9865-4313-a59e-72cc0168797d","ios":"levelo://app?vid=447c2960-9865-4313-a59e-72cc0168797d"},"vehicle_type_id":"4","last_reported":1725394147,"current_range_meters":7600,"station_id":"ce4bguh2rcd13ifvqcj0","pricing_plan_id":"cebpf4jnsgd1na2vs0mg"},{"bike_id":"14361f0b-4067-444d-b46a-b38bf3ebbed5","system_id":"levelo_inurba_marseille","lat":43.301429,"lon":5.37413,"is_reserved":false,"is_disabled":false,"rental_uris":{"android":"levelo://app?vid=14361f0b-4067-444d-b46a-b38bf3ebbed5","ios":"levelo://app?vid=14361f0b-4067-444d-b46a-b38bf3ebbed5"},"vehicle_type_id":"4","last_reported":1725394147,"current_range_meters":4000,"station_id":"ce4bgs92rcd13ifvqcc0","pricing_plan_id":"cebpf4jnsgd1na2vs0mg"},{"bike_id":"cb25a724-edfa-469d-8b2f-e5f9d99eb261","system_id":"levelo_inurba_marseille","lat":43.301297,"lon":5.374267,"is_reserved":false,"is_disabled":false,"rental_uris":{"android":"levelo://app?vid=cb25a724-edfa-469d-8b2f-e5f9d99eb261","ios":"levelo://app?vid=cb25a724-edfa-469d-8b2f-e5f9d99eb261"},"vehicle_type_id":"4","last_reported":1725394147,"current_range_meters":8400,"station_id":"ce4bgs92rcd13ifvqcc0","pricing_plan_id":"cebpf4jnsgd1na2vs0mg"},{"bike_id":"b3f4448e-8923-48a1-820c-a5a8746ea50f","system_id":"levelo_inurba_marseille","lat":43.319935,"lon":5.381699,"is_reserved":false,"is_disabled":false,"rental_uris":{"android":"levelo://app?vid=b3f4448e-8923-48a1-820c-a5a8746ea50f","ios":"levelo://app?vid=b3f4448e-8923-48a1-820c-a5a8746ea50f"},"vehicle_type_id":"4","last_reported":1725394147,"current_range_meters":2800,"station_id":"ce4bhr12rcd13ifvqhpg","pricing_plan_id":"cebpf4jnsgd1na2vs0mg"},{"bike_id":"7bc38d31-0ad8-460f-875d-0f087792d8c5","system_id":"levelo_inurba_marseille","lat":43.319935,"lon":5.381699,"is_reserved":false,"is_disabled":false,"rental_uris":{"android":"levelo://app?vid=7bc38d31-0ad8-460f-875d-0f087792d8c5","ios":"levelo://app?vid=7bc38d31-0ad8-460f-875d-0f087792d8c5"},"vehicle_type_id":"4","last_reported":1725394147,"current_range_meters":21600,"station_id":"ce4bhr12rcd13ifvqhpg","pricing_plan_id":"cebpf4jnsgd1na2vs0mg"},{"bike_id":"9d1f9dda-f249-4342-ba73-04de3aa35790","system_id":"levelo_inurba_marseille","lat":43.319935,"lon":5.381699,"is_reserved":false,"is_disabled":false,"rental_uris":{"android":"levelo://app?vid=9d1f9dda-f249-4342-ba73-04de3aa35790","ios":"levelo://app?vid=9d1f9dda-f249-4342-ba73-04de3aa35790"},"vehicle_type_id":"4","last_reported":1725394147,"current_range_meters":15600,"station_id":"ce4bhr12rcd13ifvqhpg","pricing_plan_id":"cebpf4jnsgd1na2vs0mg"},{"bike_id":"4d287a3b-cd82-4af6-b894-3b75e68cd051","system_id":"levelo_inurba_marseille","lat":43.319935,"lon":5.381699,"is_reserved":false,"is_disabled":false,"rental_uris":{"android":"levelo://app?vid=4d287a3b-cd82-4af6-b894-3b75e68cd051","ios":"levelo://app?vid=4d287a3b-cd82-4af6-b894-3b75e68cd051"},"vehicle_type_id":"4","last_reported":1725394147,"current_range_meters":12800,"station_id":"ce4bhr12rcd13ifvqhpg","pricing_plan_id":"cebpf4jnsgd1na2vs0mg"},{"bike_id":"73b7bb94-e63e-4c38-925e-ecb12e985904","system_id":"levelo_inurba_marseille","lat":43.313571,"lon":5.384829,"is_reserved":false,"is_disabled":false,"rental_uris":{"android":"levelo://app?vid=73b7bb94-e63e-4c38-925e-ecb12e985904","ios":"levelo://app?vid=73b7bb94-e63e-4c38-925e-ecb12e985904"},"vehicle_type_id":"4","last_reported":1725394147,"current_range_meters":17200,"station_id":"ce4bgt92rcd13ifvqcf0","pricing_plan_id":"cebpf4jnsgd1na2vs0mg"},{"bike_id":"501a7196-857d-4488-bf26-27ea70254034","system_id":"levelo_inurba_marseille","lat":43.313571,"lon":5.384829,"is_reserved":false,"is_disabled":false,"rental_uris":{"android":"levelo://app?vid=501a7196-857d-4488-bf26-27ea70254034","ios":"levelo://app?vid=501a7196-857d-4488-bf26-27ea70254034"},"vehicle_type_id":"4","last_reported":1725394147,"current_range_meters":20800,"station_id":"ce4bgt92rcd13ifvqcf0","pricing_plan_id":"cebpf4jnsgd1na2vs0mg"},{"bike_id":"ba8db203-b6e3-46b2-a2d6-fea9c1642521","system_id":"levelo_inurba_marseille","lat":43.313571,"lon":5.384829,"is_reserved":false,"is_disabled":false,"rental_uris":{"android":"levelo://app?vid=ba8db203-b6e3-46b2-a2d6-fea9c1642521","ios":"levelo://app?vid=ba8db203-b6e3-46b2-a2d6-fea9c1642521"},"vehicle_type_id":"4","last_reported":1725394147,"current_range_meters":20000,"station_id":"ce4bgt92rcd13ifvqcf0","pricing_plan_id":"cebpf4jnsgd1na2vs0mg"},{"bike_id":"7f1181f1-02f7-42a1-bc22-bf62d4a27914","system_id":"levelo_inurba_marseille","lat":43.313571,"lon":5.384829,"is_reserved":false,"is_disabled":false,"rental_uris":{"android":"levelo://app?vid=7f1181f1-02f7-42a1-bc22-bf62d4a27914","ios":"levelo://app?vid=7f1181f1-02f7-42a1-bc22-bf62d4a27914"},"vehicle_type_id":"4","last_reported":1725394147,"current_range_meters":8400,"station_id":"ce4bgt92rcd13ifvqcf0","pricing_plan_id":"cebpf4jnsgd1na2vs0mg"},{"bike_id":"2709a0df-fa27-4426-a613-15c817196894","system_id":"levelo_inurba_marseille","lat":43.313571,"lon":5.384829,"is_reserved":false,"is_disabled":false,"rental_uris":{"android":"levelo://app?vid=2709a0df-fa27-4426-a613-15c817196894","ios":"levelo://app?vid=2709a0df-fa27-4426-a613-15c817196894"},"vehicle_type_id":"4","last_reported":1725394147,"current_range_meters":14800,"station_id":"ce4bgt92rcd13ifvqcf0","pricing_plan_id":"cebpf4jnsgd1na2vs0mg"},{"bike_id":"0670917c-65b0-44c3-adf2-fba3d391933b","system_id":"levelo_inurba_marseille","lat":43.313571,"lon":5.384829,"is_reserved":false,"is_disabled":false,"rental_uris":{"android":"levelo://app?vid=0670917c-65b0-44c3-adf2-fba3d391933b","ios":"levelo://app?vid=0670917c-65b0-44c3-adf2-fba3d391933b"},"vehicle_type_id":"4","last_reported":1725394147,"current_range_meters":24400,"station_id":"ce4bgt92rcd13ifvqcf0","pricing_plan_id":"cebpf4jnsgd1na2vs0mg"},{"bike_id":"d195ea1c-f01f-4c14-b9c7-6f14a7ebabfb","system_id":"levelo_inurba_marseille","lat":43.313571,"lon":5.384829,"is_reserved":false,"is_disabled":false,"rental_uris":{"android":"levelo://app?vid=d195ea1c-f01f-4c14-b9c7-6f14a7ebabfb","ios":"levelo://app?vid=d195ea1c-f01f-4c14-b9c7-6f14a7ebabfb"},"vehicle_type_id":"4","last_reported":1725394147,"current_range_meters":27200,"station_id":"ce4bgt92rcd13ifvqcf0","pricing_plan_id":"cebpf4jnsgd1na2vs0mg"},{"bike_id":"d49d593d-26c7-4ac5-8433-7e565cccfffd","system_id":"levelo_inurba_marseille","lat":43.299222,"lon":5.365554,"is_reserved":false,"is_disabled":false,"rental_uris":{"android":"levelo://app?vid=d49d593d-26c7-4ac5-8433-7e565cccfffd","ios":"levelo://app?vid=d49d593d-26c7-4ac5-8433-7e565cccfffd"},"vehicle_type_id":"4","last_reported":1725394147,"current_range_meters":14400,"station_id":"ce4bgm92rcd13ifvqbr0","pricing_plan_id":"cebpf4jnsgd1na2vs0mg"},{"bike_id":"01635766-a32b-4b14-a9b3-d03e165c1e53","system_id":"levelo_inurba_marseille","lat":43.299724,"lon":5.371829,"is_reserved":false,"is_disabled":false,"rental_uris":{"android":"levelo://app?vid=01635766-a32b-4b14-a9b3-d03e165c1e53","ios":"levelo://app?vid=01635766-a32b-4b14-a9b3-d03e165c1e53"},"vehicle_type_id":"4","last_reported":1725394147,"current_range_meters":26400,"station_id":"ce4bgr92rcd13ifvqc7g","pricing_plan_id":"cebpf4jnsgd1na2vs0mg"},{"bike_id":"0d9f7bb5-fc57-4b26-8d8a-7f1f37af541a","system_id":"levelo_inurba_marseille","lat":43.299222,"lon":5.365554,"is_reserved":false,"is_disabled":false,"rental_uris":{"android":"levelo://app?vid=0d9f7bb5-fc57-4b26-8d8a-7f1f37af541a","ios":"levelo://app?vid=0d9f7bb5-fc57-4b26-8d8a-7f1f37af541a"},"vehicle_type_id":"4","last_reported":1725394147,"current_range_meters":5600,"station_id":"ce4bgm92rcd13ifvqbr0","pricing_plan_id":"cebpf4jnsgd1na2vs0mg"},{"bike_id":"b05a3fe5-1524-4c3a-bb09-142a84e2ca56","system_id":"levelo_inurba_marseille","lat":43.32014,"lon":5.38241,"is_reserved":false,"is_disabled":false,"rental_uris":{"android":"levelo://app?vid=b05a3fe5-1524-4c3a-bb09-142a84e2ca56","ios":"levelo://app?vid=b05a3fe5-1524-4c3a-bb09-142a84e2ca56"},"vehicle_type_id":"4","last_reported":1725394147,"current_range_meters":9200,"station_id":"","pricing_plan_id":"cebpf4jnsgd1na2vs0mg"},{"bike_id":"ebf52843-4e99-4409-9732-6ebe192ede14","system_id":"levelo_inurba_marseille","lat":43.298433,"lon":5.362774,"is_reserved":false,"is_disabled":false,"rental_uris":{"android":"levelo://app?vid=ebf52843-4e99-4409-9732-6ebe192ede14","ios":"levelo://app?vid=ebf52843-4e99-4409-9732-6ebe192ede14"},"vehicle_type_id":"4","last_reported":1725394147,"current_range_meters":1200,"station_id":"ce4bgpp2rcd13ifvqc3g","pricing_plan_id":"cebpf4jnsgd1na2vs0mg"},{"bike_id":"9d7660e1-fadb-4c3e-946e-927a7b5805e7","system_id":"levelo_inurba_marseille","lat":43.305364,"lon":5.384119,"is_reserved":false,"is_disabled":false,"rental_uris":{"android":"levelo://app?vid=9d7660e1-fadb-4c3e-946e-927a7b5805e7","ios":"levelo://app?vid=9d7660e1-fadb-4c3e-946e-927a7b5805e7"},"vehicle_type_id":"4","last_reported":1725394147,"current_range_meters":6400,"station_id":"ce4bgg92rcd13ifvqb30","pricing_plan_id":"cebpf4jnsgd1na2vs0mg"},{"bike_id":"180f6bfd-a6e0-4cf0-883e-151bb80eddd0","system_id":"levelo_inurba_marseille","lat":43.305364,"lon":5.384119,"is_reserved":false,"is_disabled":false,"rental_uris":{"android":"levelo://app?vid=180f6bfd-a6e0-4cf0-883e-151bb80eddd0","ios":"levelo://app?vid=180f6bfd-a6e0-4cf0-883e-151bb80eddd0"},"vehicle_type_id":"4","last_reported":1725394147,"current_range_meters":22400,"station_id":"ce4bgg92rcd13ifvqb30","pricing_plan_id":"cebpf4jnsgd1na2vs0mg"},{"bike_id":"78602548-bae1-4a1a-8e8c-b1d9404bd07a","system_id":"levelo_inurba_marseille","lat":43.311722,"lon":5.387247,"is_reserved":false,"is_disabled":false,"rental_uris":{"android":"levelo://app?vid=78602548-bae1-4a1a-8e8c-b1d9404bd07a","ios":"levelo://app?vid=78602548-bae1-4a1a-8e8c-b1d9404bd07a"},"vehicle_type_id":"4","last_reported":1725394147,"current_range_meters":7600,"station_id":"ce4bgv12rcd13ifvqcp0","pricing_plan_id":"cebpf4jnsgd1na2vs0mg"},{"bike_id":"ea5b5d29-3304-4a26-84b3-5878ae3f7011","system_id":"levelo_inurba_marseille","lat":43.311722,"lon":5.387247,"is_reserved":false,"is_disabled":false,"rental_uris":{"android":"levelo://app?vid=ea5b5d29-3304-4a26-84b3-5878ae3f7011","ios":"levelo://app?vid=ea5b5d29-3304-4a26-84b3-5878ae3f7011"},"vehicle_type_id":"4","last_reported":1725394147,"current_range_meters":5200,"station_id":"ce4bgv12rcd13ifvqcp0","pricing_plan_id":"cebpf4jnsgd1na2vs0mg"},{"bike_id":"af62ce95-4dee-424a-960e-370887ea77b6","system_id":"levelo_inurba_marseille","lat":43.311722,"lon":5.387247,"is_reserved":false,"is_disabled":false,"rental_uris":{"android":"levelo://app?vid=af62ce95-4dee-424a-960e-370887ea77b6","ios":"levelo://app?vid=af62ce95-4dee-424a-960e-370887ea77b6"},"vehicle_type_id":"4","last_reported":1725394147,"current_range_meters":26400,"station_id":"ce4bgv12rcd13ifvqcp0","pricing_plan_id":"cebpf4jnsgd1na2vs0mg"},{"bike_id":"b0632ebe-6d7d-47d0-94a9-4b565191c6f2","system_id":"levelo_inurba_marseille","lat":43.305364,"lon":5.384119,"is_reserved":false,"is_disabled":false,"rental_uris":{"android":"levelo://app?vid=b0632ebe-6d7d-47d0-94a9-4b565191c6f2","ios":"levelo://app?vid=b0632ebe-6d7d-47d0-94a9-4b565191c6f2"},"vehicle_type_id":"4","last_reported":1725394147,"current_range_meters":25600,"station_id":"ce4bgg92rcd13ifvqb30","pricing_plan_id":"cebpf4jnsgd1na2vs0mg"},{"bike_id":"3ea865cc-49d4-4c71-81aa-f05e0749c436","system_id":"levelo_inurba_marseille","lat":43.299243,"lon":5.374807,"is_reserved":false,"is_disabled":false,"rental_uris":{"android":"levelo://app?vid=3ea865cc-49d4-4c71-81aa-f05e0749c436","ios":"levelo://app?vid=3ea865cc-49d4-4c71-81aa-f05e0749c436"},"vehicle_type_id":"4","last_reported":1725394147,"current_range_meters":4000,"station_id":"ce4bgjh2rcd13ifvqbg0","pricing_plan_id":"cebpf4jnsgd1na2vs0mg"},{"bike_id":"1508a26c-9ee2-4c95-9144-dca8c5f7e882","system_id":"levelo_inurba_marseille","lat":43.311722,"lon":5.387247,"is_reserved":false,"is_disabled":false,"rental_uris":{"android":"levelo://app?vid=1508a26c-9ee2-4c95-9144-dca8c5f7e882","ios":"levelo://app?vid=1508a26c-9ee2-4c95-9144-dca8c5f7e882"},"vehicle_type_id":"4","last_reported":1725394147,"current_range_meters":31200,"station_id":"ce4bgv12rcd13ifvqcp0","pricing_plan_id":"cebpf4jnsgd1na2vs0mg"},{"bike_id":"6dbe3e01-6e7a-44e0-a214-8e73f8a9877b","system_id":"levelo_inurba_marseille","lat":43.311722,"lon":5.387247,"is_reserved":false,"is_disabled":false,"rental_uris":{"android":"levelo://app?vid=6dbe3e01-6e7a-44e0-a214-8e73f8a9877b","ios":"levelo://app?vid=6dbe3e01-6e7a-44e0-a214-8e73f8a9877b"},"vehicle_type_id":"4","last_reported":1725394147,"current_range_meters":21600,"station_id":"ce4bgv12rcd13ifvqcp0","pricing_plan_id":"cebpf4jnsgd1na2vs0mg"},{"bike_id":"8bf4890f-4e6c-4089-ac2b-a0f8055a48ca","system_id":"levelo_inurba_marseille","lat":43.31165,"lon":5.3873,"is_reserved":false,"is_disabled":false,"rental_uris":{"android":"levelo://app?vid=8bf4890f-4e6c-4089-ac2b-a0f8055a48ca","ios":"levelo://app?vid=8bf4890f-4e6c-4089-ac2b-a0f8055a48ca"},"vehicle_type_id":"4","last_reported":1725394147,"current_range_meters":22000,"station_id":"ce4bgv12rcd13ifvqcp0","pricing_plan_id":"cebpf4jnsgd1na2vs0mg"},{"bike_id":"7fd074fc-4908-45a7-8ca8-1407cbf6b5fc","system_id":"levelo_inurba_marseille","lat":43.301417,"lon":5.3809,"is_reserved":false,"is_disabled":false,"rental_uris":{"android":"levelo://app?vid=7fd074fc-4908-45a7-8ca8-1407cbf6b5fc","ios":"levelo://app?vid=7fd074fc-4908-45a7-8ca8-1407cbf6b5fc"},"vehicle_type_id":"4","last_reported":1725394147,"current_range_meters":14000,"station_id":"ce4bgjp2rcd13ifvqbh0","pricing_plan_id":"cebpf4jnsgd1na2vs0mg"},{"bike_id":"211ec2d6-418d-4fe9-9bc2-21deee631dd5","system_id":"levelo_inurba_marseille","lat":43.30147,"lon":5.38104,"is_reserved":false,"is_disabled":false,"rental_uris":{"android":"levelo://app?vid=211ec2d6-418d-4fe9-9bc2-21deee631dd5","ios":"levelo://app?vid=211ec2d6-418d-4fe9-9bc2-21deee631dd5"},"vehicle_type_id":"4","last_reported":1725394147,"current_range_meters":28000,"station_id":"ce4bgjp2rcd13ifvqbh0","pricing_plan_id":"cebpf4jnsgd1na2vs0mg"},{"bike_id":"63dff1f4-0ea8-48f5-836d-405b25247089","system_id":"levelo_inurba_marseille","lat":43.301417,"lon":5.3809,"is_reserved":false,"is_disabled":false,"rental_uris":{"android":"levelo://app?vid=63dff1f4-0ea8-48f5-836d-405b25247089","ios":"levelo://app?vid=63dff1f4-0ea8-48f5-836d-405b25247089"},"vehicle_type_id":"4","last_reported":1725394147,"current_range_meters":19600,"station_id":"ce4bgjp2rcd13ifvqbh0","pricing_plan_id":"cebpf4jnsgd1na2vs0mg"},{"bike_id":"06176ceb-5e51-466d-940c-d7d17e8e5307","system_id":"levelo_inurba_marseille","lat":43.322872,"lon":5.382756,"is_reserved":false,"is_disabled":false,"rental_uris":{"android":"levelo://app?vid=06176ceb-5e51-466d-940c-d7d17e8e5307","ios":"levelo://app?vid=06176ceb-5e51-466d-940c-d7d17e8e5307"},"vehicle_type_id":"4","last_reported":1725394147,"current_range_meters":28400,"station_id":"ce4bhr12rcd13ifvqhqg","pricing_plan_id":"cebpf4jnsgd1na2vs0mg"},{"bike_id":"ffacd024-e22c-4c18-9c3b-f53d79c851fe","system_id":"levelo_inurba_marseille","lat":43.322872,"lon":5.382756,"is_reserved":false,"is_disabled":false,"rental_uris":{"android":"levelo://app?vid=ffacd024-e22c-4c18-9c3b-f53d79c851fe","ios":"levelo://app?vid=ffacd024-e22c-4c18-9c3b-f53d79c851fe"},"vehicle_type_id":"4","last_reported":1725394147,"current_range_meters":11600,"station_id":"ce4bhr12rcd13ifvqhqg","pricing_plan_id":"cebpf4jnsgd1na2vs0mg"},{"bike_id":"3301428e-72a9-4d22-8559-74f34a4287b4","system_id":"levelo_inurba_marseille","lat":43.322872,"lon":5.382756,"is_reserved":false,"is_disabled":false,"rental_uris":{"android":"levelo://app?vid=3301428e-72a9-4d22-8559-74f34a4287b4","ios":"levelo://app?vid=3301428e-72a9-4d22-8559-74f34a4287b4"},"vehicle_type_id":"4","last_reported":1725394147,"current_range_meters":28400,"station_id":"ce4bhr12rcd13ifvqhqg","pricing_plan_id":"cebpf4jnsgd1na2vs0mg"},{"bike_id":"b48b98c5-a714-4a71-b726-b8dac6297c30","system_id":"levelo_inurba_marseille","lat":43.297163,"lon":5.365866,"is_reserved":false,"is_disabled":false,"rental_uris":{"android":"levelo://app?vid=b48b98c5-a714-4a71-b726-b8dac6297c30","ios":"levelo://app?vid=b48b98c5-a714-4a71-b726-b8dac6297c30"},"vehicle_type_id":"4","last_reported":1725394147,"current_range_meters":21600,"station_id":"ce4bgn12rcd13ifvqbt0","pricing_plan_id":"cebpf4jnsgd1na2vs0mg"},{"bike_id":"b79fa6ff-6874-491e-ad94-2ba6bd81afd9","system_id":"levelo_inurba_marseille","lat":43.32875,"lon":5.36531,"is_reserved":false,"is_disabled":false,"rental_uris":{"android":"levelo://app?vid=b79fa6ff-6874-491e-ad94-2ba6bd81afd9","ios":"levelo://app?vid=b79fa6ff-6874-491e-ad94-2ba6bd81afd9"},"vehicle_type_id":"4","last_reported":1725394147,"current_range_meters":0,"station_id":"","pricing_plan_id":"cebpf4jnsgd1na2vs0mg"},{"bike_id":"8a8887de-5c7d-4b1c-91b2-78e9c920b48d","system_id":"levelo_inurba_marseille","lat":43.2968,"lon":5.37291,"is_reserved":false,"is_disabled":false,"rental_uris":{"android":"levelo://app?vid=8a8887de-5c7d-4b1c-91b2-78e9c920b48d","ios":"levelo://app?vid=8a8887de-5c7d-4b1c-91b2-78e9c920b48d"},"vehicle_type_id":"4","last_reported":1725394147,"current_range_meters":30400,"station_id":"ce4bgk12rcd13ifvqbj0","pricing_plan_id":"cebpf4jnsgd1na2vs0mg"},{"bike_id":"52fb6cb2-164b-4999-9b06-cc255cc8b259","system_id":"levelo_inurba_marseille","lat":43.303527,"lon":5.385784,"is_reserved":false,"is_disabled":false,"rental_uris":{"android":"levelo://app?vid=52fb6cb2-164b-4999-9b06-cc255cc8b259","ios":"levelo://app?vid=52fb6cb2-164b-4999-9b06-cc255cc8b259"},"vehicle_type_id":"4","last_reported":1725394147,"current_range_meters":22400,"station_id":"","pricing_plan_id":"cebpf4jnsgd1na2vs0mg"},{"bike_id":"eb9123bd-ada1-4c3a-8273-9f0aad9fea71","system_id":"levelo_inurba_marseille","lat":43.309589,"lon":5.390258,"is_reserved":false,"is_disabled":false,"rental_uris":{"android":"levelo://app?vid=eb9123bd-ada1-4c3a-8273-9f0aad9fea71","ios":"levelo://app?vid=eb9123bd-ada1-4c3a-8273-9f0aad9fea71"},"vehicle_type_id":"4","last_reported":1725394147,"current_range_meters":9200,"station_id":"ce4bgup2rcd13ifvqco0","pricing_plan_id":"cebpf4jnsgd1na2vs0mg"},{"bike_id":"656c48c4-6f53-4612-82ec-39547e9dc790","system_id":"levelo_inurba_marseille","lat":43.30981,"lon":5.39034,"is_reserved":false,"is_disabled":false,"rental_uris":{"android":"levelo://app?vid=656c48c4-6f53-4612-82ec-39547e9dc790","ios":"levelo://app?vid=656c48c4-6f53-4612-82ec-39547e9dc790"},"vehicle_type_id":"4","last_reported":1725394147,"current_range_meters":31200,"station_id":"ce4bgup2rcd13ifvqco0","pricing_plan_id":"cebpf4jnsgd1na2vs0mg"},{"bike_id":"b4d1a8ef-f361-4198-8a11-e2bf7866e15e","system_id":"levelo_inurba_marseille","lat":43.309589,"lon":5.390258,"is_reserved":false,"is_disabled":false,"rental_uris":{"android":"levelo://app?vid=b4d1a8ef-f361-4198-8a11-e2bf7866e15e","ios":"levelo://app?vid=b4d1a8ef-f361-4198-8a11-e2bf7866e15e"},"vehicle_type_id":"4","last_reported":1725394147,"current_range_meters":4400,"station_id":"ce4bgup2rcd13ifvqco0","pricing_plan_id":"cebpf4jnsgd1na2vs0mg"},{"bike_id":"af309443-3f98-4cb2-9c6c-dba5174734bd","system_id":"levelo_inurba_marseille","lat":43.29904,"lon":5.38145,"is_reserved":false,"is_disabled":false,"rental_uris":{"android":"levelo://app?vid=af309443-3f98-4cb2-9c6c-dba5174734bd","ios":"levelo://app?vid=af309443-3f98-4cb2-9c6c-dba5174734bd"},"vehicle_type_id":"4","last_reported":1725394147,"current_range_meters":5600,"station_id":"ce4bgj12rcd13ifvqbc0","pricing_plan_id":"cebpf4jnsgd1na2vs0mg"},{"bike_id":"f637e150-3abb-44c1-b803-fc9b7e2de3c7","system_id":"levelo_inurba_marseille","lat":43.296921,"lon":5.376579,"is_reserved":false,"is_disabled":false,"rental_uris":{"android":"levelo://app?vid=f637e150-3abb-44c1-b803-fc9b7e2de3c7","ios":"levelo://app?vid=f637e150-3abb-44c1-b803-fc9b7e2de3c7"},"vehicle_type_id":"4","last_reported":1725394147,"current_range_meters":22400,"station_id":"ce4bgkh2rcd13ifvqbl0","pricing_plan_id":"cebpf4jnsgd1na2vs0mg"},{"bike_id":"729cc2ee-0b1b-4165-98f9-0284d0fb2736","system_id":"levelo_inurba_marseille","lat":43.309589,"lon":5.390258,"is_reserved":false,"is_disabled":false,"rental_uris":{"android":"levelo://app?vid=729cc2ee-0b1b-4165-98f9-0284d0fb2736","ios":"levelo://app?vid=729cc2ee-0b1b-4165-98f9-0284d0fb2736"},"vehicle_type_id":"4","last_reported":1725394147,"current_range_meters":31200,"station_id":"ce4bgup2rcd13ifvqco0","pricing_plan_id":"cebpf4jnsgd1na2vs0mg"},{"bike_id":"93e09e08-feca-48e0-a289-541e2d6277e7","system_id":"levelo_inurba_marseille","lat":43.296921,"lon":5.376579,"is_reserved":false,"is_disabled":false,"rental_uris":{"android":"levelo://app?vid=93e09e08-feca-48e0-a289-541e2d6277e7","ios":"levelo://app?vid=93e09e08-feca-48e0-a289-541e2d6277e7"},"vehicle_type_id":"4","last_reported":1725394147,"current_range_meters":18000,"station_id":"ce4bgkh2rcd13ifvqbl0","pricing_plan_id":"cebpf4jnsgd1na2vs0mg"},{"bike_id":"c9e3b1c1-21f4-4eb0-9215-d848517fb8d6","system_id":"levelo_inurba_marseille","lat":43.309589,"lon":5.390258,"is_reserved":false,"is_disabled":false,"rental_uris":{"android":"levelo://app?vid=c9e3b1c1-21f4-4eb0-9215-d848517fb8d6","ios":"levelo://app?vid=c9e3b1c1-21f4-4eb0-9215-d848517fb8d6"},"vehicle_type_id":"4","last_reported":1725394147,"current_range_meters":31200,"station_id":"ce4bgup2rcd13ifvqco0","pricing_plan_id":"cebpf4jnsgd1na2vs0mg"},{"bike_id":"a26b8354-14d1-4810-b72a-b5d5617ac526","system_id":"levelo_inurba_marseille","lat":43.317557,"lon":5.390173,"is_reserved":false,"is_disabled":false,"rental_uris":{"android":"levelo://app?vid=a26b8354-14d1-4810-b72a-b5d5617ac526","ios":"levelo://app?vid=a26b8354-14d1-4810-b72a-b5d5617ac526"},"vehicle_type_id":"4","last_reported":1725394147,"current_range_meters":8000,"station_id":"ce4bhqp2rcd13ifvqhng","pricing_plan_id":"cebpf4jnsgd1na2vs0mg"},{"bike_id":"e6588140-5c2c-4a8e-b146-b43d9d478d42","system_id":"levelo_inurba_marseille","lat":43.317557,"lon":5.390173,"is_reserved":false,"is_disabled":false,"rental_uris":{"android":"levelo://app?vid=e6588140-5c2c-4a8e-b146-b43d9d478d42","ios":"levelo://app?vid=e6588140-5c2c-4a8e-b146-b43d9d478d42"},"vehicle_type_id":"4","last_reported":1725394147,"current_range_meters":10800,"station_id":"ce4bhqp2rcd13ifvqhng","pricing_plan_id":"cebpf4jnsgd1na2vs0mg"},{"bike_id":"a664035d-f783-447d-abd3-f088ff5ef2c4","system_id":"levelo_inurba_marseille","lat":43.317557,"lon":5.390173,"is_reserved":false,"is_disabled":false,"rental_uris":{"android":"levelo://app?vid=a664035d-f783-447d-abd3-f088ff5ef2c4","ios":"levelo://app?vid=a664035d-f783-447d-abd3-f088ff5ef2c4"},"vehicle_type_id":"4","last_reported":1725394147,"current_range_meters":16800,"station_id":"ce4bhqp2rcd13ifvqhng","pricing_plan_id":"cebpf4jnsgd1na2vs0mg"},{"bike_id":"10f69fe8-7773-460f-8cbc-84d5043d302b","system_id":"levelo_inurba_marseille","lat":43.322731,"lon":5.386974,"is_reserved":false,"is_disabled":false,"rental_uris":{"android":"levelo://app?vid=10f69fe8-7773-460f-8cbc-84d5043d302b","ios":"levelo://app?vid=10f69fe8-7773-460f-8cbc-84d5043d302b"},"vehicle_type_id":"4","last_reported":1725394147,"current_range_meters":29200,"station_id":"","pricing_plan_id":"cebpf4jnsgd1na2vs0mg"},{"bike_id":"d7808497-2ce5-41d2-a2a0-2cfe0163b1be","system_id":"levelo_inurba_marseille","lat":43.298037,"lon":5.381066,"is_reserved":false,"is_disabled":false,"rental_uris":{"android":"levelo://app?vid=d7808497-2ce5-41d2-a2a0-2cfe0163b1be","ios":"levelo://app?vid=d7808497-2ce5-41d2-a2a0-2cfe0163b1be"},"vehicle_type_id":"4","last_reported":1725394147,"current_range_meters":6400,"station_id":"ce4bgip2rcd13ifvqbb0","pricing_plan_id":"cebpf4jnsgd1na2vs0mg"},{"bike_id":"8a2ff497-7c22-4470-baee-5a32c09ebcf0","system_id":"levelo_inurba_marseille","lat":43.29793,"lon":5.38098,"is_reserved":false,"is_disabled":false,"rental_uris":{"android":"levelo://app?vid=8a2ff497-7c22-4470-baee-5a32c09ebcf0","ios":"levelo://app?vid=8a2ff497-7c22-4470-baee-5a32c09ebcf0"},"vehicle_type_id":"4","last_reported":1725394147,"current_range_meters":0,"station_id":"ce4bgip2rcd13ifvqbb0","pricing_plan_id":"cebpf4jnsgd1na2vs0mg"},{"bike_id":"156acffe-6a65-46cd-82ee-1c3bc18a30ea","system_id":"levelo_inurba_marseille","lat":43.304274,"lon":5.388873,"is_reserved":false,"is_disabled":false,"rental_uris":{"android":"levelo://app?vid=156acffe-6a65-46cd-82ee-1c3bc18a30ea","ios":"levelo://app?vid=156acffe-6a65-46cd-82ee-1c3bc18a30ea"},"vehicle_type_id":"4","last_reported":1725394147,"current_range_meters":14000,"station_id":"ce4bgk12rcd13ifvqbi0","pricing_plan_id":"cebpf4jnsgd1na2vs0mg"},{"bike_id":"e5b5745c-6cc0-4574-ba5c-5cfe72849f9a","system_id":"levelo_inurba_marseille","lat":43.304274,"lon":5.388873,"is_reserved":false,"is_disabled":false,"rental_uris":{"android":"levelo://app?vid=e5b5745c-6cc0-4574-ba5c-5cfe72849f9a","ios":"levelo://app?vid=e5b5745c-6cc0-4574-ba5c-5cfe72849f9a"},"vehicle_type_id":"4","last_reported":1725394147,"current_range_meters":1200,"station_id":"ce4bgk12rcd13ifvqbi0","pricing_plan_id":"cebpf4jnsgd1na2vs0mg"},{"bike_id":"2f56befa-1c16-42b8-bb0a-cc00d68c34e1","system_id":"levelo_inurba_marseille","lat":43.304278,"lon":5.388868,"is_reserved":false,"is_disabled":false,"rental_uris":{"android":"levelo://app?vid=2f56befa-1c16-42b8-bb0a-cc00d68c34e1","ios":"levelo://app?vid=2f56befa-1c16-42b8-bb0a-cc00d68c34e1"},"vehicle_type_id":"4","last_reported":1725394147,"current_range_meters":13200,"station_id":"ce4bgk12rcd13ifvqbi0","pricing_plan_id":"cebpf4jnsgd1na2vs0mg"},{"bike_id":"d518ea1a-6252-4704-bfc8-554073e854e9","system_id":"levelo_inurba_marseille","lat":43.295748,"lon":5.37522,"is_reserved":false,"is_disabled":false,"rental_uris":{"android":"levelo://app?vid=d518ea1a-6252-4704-bfc8-554073e854e9","ios":"levelo://app?vid=d518ea1a-6252-4704-bfc8-554073e854e9"},"vehicle_type_id":"4","last_reported":1725394147,"current_range_meters":0,"station_id":"ce4bgh92rcd13ifvqb50","pricing_plan_id":"cebpf4jnsgd1na2vs0mg"},{"bike_id":"56bab783-152d-41fb-93f1-ceabb05129c5","system_id":"levelo_inurba_marseille","lat":43.304505,"lon":5.389413,"is_reserved":false,"is_disabled":false,"rental_uris":{"android":"levelo://app?vid=56bab783-152d-41fb-93f1-ceabb05129c5","ios":"levelo://app?vid=56bab783-152d-41fb-93f1-ceabb05129c5"},"vehicle_type_id":"4","last_reported":1725394147,"current_range_meters":0,"station_id":"ce4bgk12rcd13ifvqbi0","pricing_plan_id":"cebpf4jnsgd1na2vs0mg"},{"bike_id":"346347fa-eeed-45ff-8322-2074b12daed4","system_id":"levelo_inurba_marseille","lat":43.301396,"lon":5.387812,"is_reserved":false,"is_disabled":false,"rental_uris":{"android":"levelo://app?vid=346347fa-eeed-45ff-8322-2074b12daed4","ios":"levelo://app?vid=346347fa-eeed-45ff-8322-2074b12daed4"},"vehicle_type_id":"4","last_reported":1725394147,"current_range_meters":3600,"station_id":"ce4bghh2rcd13ifvqb60","pricing_plan_id":"cebpf4jnsgd1na2vs0mg"},{"bike_id":"9cab18d3-85d6-45f1-9b7f-7e4090f13e1a","system_id":"levelo_inurba_marseille","lat":43.301396,"lon":5.387812,"is_reserved":false,"is_disabled":false,"rental_uris":{"android":"levelo://app?vid=9cab18d3-85d6-45f1-9b7f-7e4090f13e1a","ios":"levelo://app?vid=9cab18d3-85d6-45f1-9b7f-7e4090f13e1a"},"vehicle_type_id":"4","last_reported":1725394147,"current_range_meters":18000,"station_id":"ce4bghh2rcd13ifvqb60","pricing_plan_id":"cebpf4jnsgd1na2vs0mg"},{"bike_id":"8f4e765b-3f12-4153-afda-477f6d073e51","system_id":"levelo_inurba_marseille","lat":43.29599,"lon":5.3811,"is_reserved":false,"is_disabled":false,"rental_uris":{"android":"levelo://app?vid=8f4e765b-3f12-4153-afda-477f6d073e51","ios":"levelo://app?vid=8f4e765b-3f12-4153-afda-477f6d073e51"},"vehicle_type_id":"4","last_reported":1725394147,"current_range_meters":4000,"station_id":"ce4bgl12rcd13ifvqbo0","pricing_plan_id":"cebpf4jnsgd1na2vs0mg"},{"bike_id":"b607c3cd-cd29-4cb2-aece-ad44aa840e23","system_id":"levelo_inurba_marseille","lat":43.29591,"lon":5.38094,"is_reserved":false,"is_disabled":false,"rental_uris":{"android":"levelo://app?vid=b607c3cd-cd29-4cb2-aece-ad44aa840e23","ios":"levelo://app?vid=b607c3cd-cd29-4cb2-aece-ad44aa840e23"},"vehicle_type_id":"4","last_reported":1725394147,"current_range_meters":0,"station_id":"ce4bgl12rcd13ifvqbo0","pricing_plan_id":"cebpf4jnsgd1na2vs0mg"},{"bike_id":"5a06737d-1c21-4cac-b025-1723cb3aee38","system_id":"levelo_inurba_marseille","lat":43.29602,"lon":5.381084,"is_reserved":false,"is_disabled":false,"rental_uris":{"android":"levelo://app?vid=5a06737d-1c21-4cac-b025-1723cb3aee38","ios":"levelo://app?vid=5a06737d-1c21-4cac-b025-1723cb3aee38"},"vehicle_type_id":"4","last_reported":1725394147,"current_range_meters":19200,"station_id":"ce4bgl12rcd13ifvqbo0","pricing_plan_id":"cebpf4jnsgd1na2vs0mg"},{"bike_id":"862a83b4-0f25-493f-aff6-0e7bdceeadf8","system_id":"levelo_inurba_marseille","lat":43.29602,"lon":5.381084,"is_reserved":false,"is_disabled":false,"rental_uris":{"android":"levelo://app?vid=862a83b4-0f25-493f-aff6-0e7bdceeadf8","ios":"levelo://app?vid=862a83b4-0f25-493f-aff6-0e7bdceeadf8"},"vehicle_type_id":"4","last_reported":1725394147,"current_range_meters":12800,"station_id":"ce4bgl12rcd13ifvqbo0","pricing_plan_id":"cebpf4jnsgd1na2vs0mg"},{"bike_id":"e392dd9c-56c3-47c2-b23f-9bd2db60b582","system_id":"levelo_inurba_marseille","lat":43.322132,"lon":5.390979,"is_reserved":false,"is_disabled":false,"rental_uris":{"android":"levelo://app?vid=e392dd9c-56c3-47c2-b23f-9bd2db60b582","ios":"levelo://app?vid=e392dd9c-56c3-47c2-b23f-9bd2db60b582"},"vehicle_type_id":"4","last_reported":1725394147,"current_range_meters":29200,"station_id":"","pricing_plan_id":"cebpf4jnsgd1na2vs0mg"},{"bike_id":"37118cc0-9705-44cd-8e6f-e2c2fb6f5bb1","system_id":"levelo_inurba_marseille","lat":43.293259,"lon":5.371586,"is_reserved":false,"is_disabled":false,"rental_uris":{"android":"levelo://app?vid=37118cc0-9705-44cd-8e6f-e2c2fb6f5bb1","ios":"levelo://app?vid=37118cc0-9705-44cd-8e6f-e2c2fb6f5bb1"},"vehicle_type_id":"4","last_reported":1725394147,"current_range_meters":12400,"station_id":"ce4bgh92rcd13ifvqb40","pricing_plan_id":"cebpf4jnsgd1na2vs0mg"},{"bike_id":"c5e960d2-8278-44e6-a013-5da8f0f07cd8","system_id":"levelo_inurba_marseille","lat":43.292749,"lon":5.368402,"is_reserved":false,"is_disabled":false,"rental_uris":{"android":"levelo://app?vid=c5e960d2-8278-44e6-a013-5da8f0f07cd8","ios":"levelo://app?vid=c5e960d2-8278-44e6-a013-5da8f0f07cd8"},"vehicle_type_id":"4","last_reported":1725394147,"current_range_meters":0,"station_id":"ce4bhbp2rcd13ifvqesg","pricing_plan_id":"cebpf4jnsgd1na2vs0mg"},{"bike_id":"9e654b9d-d547-4a5c-9c1e-401e20753eaf","system_id":"levelo_inurba_marseille","lat":43.29268,"lon":5.36841,"is_reserved":false,"is_disabled":false,"rental_uris":{"android":"levelo://app?vid=9e654b9d-d547-4a5c-9c1e-401e20753eaf","ios":"levelo://app?vid=9e654b9d-d547-4a5c-9c1e-401e20753eaf"},"vehicle_type_id":"4","last_reported":1725394147,"current_range_meters":8800,"station_id":"ce4bhbp2rcd13ifvqesg","pricing_plan_id":"cebpf4jnsgd1na2vs0mg"},{"bike_id":"f4d8e7c2-0090-48c2-a989-3596d31463a1","system_id":"levelo_inurba_marseille","lat":43.292749,"lon":5.368402,"is_reserved":false,"is_disabled":false,"rental_uris":{"android":"levelo://app?vid=f4d8e7c2-0090-48c2-a989-3596d31463a1","ios":"levelo://app?vid=f4d8e7c2-0090-48c2-a989-3596d31463a1"},"vehicle_type_id":"4","last_reported":1725394147,"current_range_meters":30800,"station_id":"ce4bhbp2rcd13ifvqesg","pricing_plan_id":"cebpf4jnsgd1na2vs0mg"},{"bike_id":"0477cbbc-fd27-4be9-8a6f-f2731702071d","system_id":"levelo_inurba_marseille","lat":43.29734,"lon":5.3854,"is_reserved":false,"is_disabled":false,"rental_uris":{"android":"levelo://app?vid=0477cbbc-fd27-4be9-8a6f-f2731702071d","ios":"levelo://app?vid=0477cbbc-fd27-4be9-8a6f-f2731702071d"},"vehicle_type_id":"4","last_reported":1725394147,"current_range_meters":0,"station_id":"","pricing_plan_id":"cebpf4jnsgd1na2vs0mg"},{"bike_id":"f385fbfc-c9fa-4540-a70e-f5cd1bfe0027","system_id":"levelo_inurba_marseille","lat":43.29304,"lon":5.37451,"is_reserved":false,"is_disabled":false,"rental_uris":{"android":"levelo://app?vid=f385fbfc-c9fa-4540-a70e-f5cd1bfe0027","ios":"levelo://app?vid=f385fbfc-c9fa-4540-a70e-f5cd1bfe0027"},"vehicle_type_id":"4","last_reported":1725394147,"current_range_meters":0,"station_id":"ce4bgi12rcd13ifvqb70","pricing_plan_id":"cebpf4jnsgd1na2vs0mg"},{"bike_id":"e266584d-c8e9-443f-9845-fdbd7f2dcd24","system_id":"levelo_inurba_marseille","lat":43.305994,"lon":5.393687,"is_reserved":false,"is_disabled":false,"rental_uris":{"android":"levelo://app?vid=e266584d-c8e9-443f-9845-fdbd7f2dcd24","ios":"levelo://app?vid=e266584d-c8e9-443f-9845-fdbd7f2dcd24"},"vehicle_type_id":"4","last_reported":1725394147,"current_range_meters":14400,"station_id":"ce4bh0p2rcd13ifvqd80","pricing_plan_id":"cebpf4jnsgd1na2vs0mg"},{"bike_id":"f99d839e-b698-444f-9b7d-b4b779222106","system_id":"levelo_inurba_marseille","lat":43.305994,"lon":5.393687,"is_reserved":false,"is_disabled":false,"rental_uris":{"android":"levelo://app?vid=f99d839e-b698-444f-9b7d-b4b779222106","ios":"levelo://app?vid=f99d839e-b698-444f-9b7d-b4b779222106"},"vehicle_type_id":"4","last_reported":1725394147,"current_range_meters":7600,"station_id":"ce4bh0p2rcd13ifvqd80","pricing_plan_id":"cebpf4jnsgd1na2vs0mg"},{"bike_id":"bff7fdf0-8474-4766-94fb-2833072ea4e0","system_id":"levelo_inurba_marseille","lat":43.305994,"lon":5.393687,"is_reserved":false,"is_disabled":false,"rental_uris":{"android":"levelo://app?vid=bff7fdf0-8474-4766-94fb-2833072ea4e0","ios":"levelo://app?vid=bff7fdf0-8474-4766-94fb-2833072ea4e0"},"vehicle_type_id":"4","last_reported":1725394147,"current_range_meters":10800,"station_id":"ce4bh0p2rcd13ifvqd80","pricing_plan_id":"cebpf4jnsgd1na2vs0mg"},{"bike_id":"3e161b88-cf11-4167-bb24-e4522ddd0f87","system_id":"levelo_inurba_marseille","lat":43.305994,"lon":5.393687,"is_reserved":false,"is_disabled":false,"rental_uris":{"android":"levelo://app?vid=3e161b88-cf11-4167-bb24-e4522ddd0f87","ios":"levelo://app?vid=3e161b88-cf11-4167-bb24-e4522ddd0f87"},"vehicle_type_id":"4","last_reported":1725394147,"current_range_meters":28400,"station_id":"ce4bh0p2rcd13ifvqd80","pricing_plan_id":"cebpf4jnsgd1na2vs0mg"},{"bike_id":"4c3aa1f6-ae82-449a-8265-c2b16fe0d3d9","system_id":"levelo_inurba_marseille","lat":43.30595,"lon":5.39361,"is_reserved":false,"is_disabled":false,"rental_uris":{"android":"levelo://app?vid=4c3aa1f6-ae82-449a-8265-c2b16fe0d3d9","ios":"levelo://app?vid=4c3aa1f6-ae82-449a-8265-c2b16fe0d3d9"},"vehicle_type_id":"4","last_reported":1725394147,"current_range_meters":4000,"station_id":"ce4bh0p2rcd13ifvqd80","pricing_plan_id":"cebpf4jnsgd1na2vs0mg"},{"bike_id":"03c6c84a-f895-4c15-9cef-d955c47196f4","system_id":"levelo_inurba_marseille","lat":43.305994,"lon":5.393687,"is_reserved":false,"is_disabled":false,"rental_uris":{"android":"levelo://app?vid=03c6c84a-f895-4c15-9cef-d955c47196f4","ios":"levelo://app?vid=03c6c84a-f895-4c15-9cef-d955c47196f4"},"vehicle_type_id":"4","last_reported":1725394147,"current_range_meters":2400,"station_id":"ce4bh0p2rcd13ifvqd80","pricing_plan_id":"cebpf4jnsgd1na2vs0mg"},{"bike_id":"e036f26a-065e-4451-89ac-1b6229470cb0","system_id":"levelo_inurba_marseille","lat":43.305994,"lon":5.393687,"is_reserved":false,"is_disabled":false,"rental_uris":{"android":"levelo://app?vid=e036f26a-065e-4451-89ac-1b6229470cb0","ios":"levelo://app?vid=e036f26a-065e-4451-89ac-1b6229470cb0"},"vehicle_type_id":"4","last_reported":1725394147,"current_range_meters":800,"station_id":"ce4bh0p2rcd13ifvqd80","pricing_plan_id":"cebpf4jnsgd1na2vs0mg"},{"bike_id":"0b58fe17-492c-450a-9eed-a1355dad78a6","system_id":"levelo_inurba_marseille","lat":43.303002,"lon":5.392142,"is_reserved":false,"is_disabled":false,"rental_uris":{"android":"levelo://app?vid=0b58fe17-492c-450a-9eed-a1355dad78a6","ios":"levelo://app?vid=0b58fe17-492c-450a-9eed-a1355dad78a6"},"vehicle_type_id":"4","last_reported":1725394147,"current_range_meters":28000,"station_id":"ce4bgkh2rcd13ifvqbk0","pricing_plan_id":"cebpf4jnsgd1na2vs0mg"},{"bike_id":"f2b61339-1f30-497c-8011-b7066e23ccd4","system_id":"levelo_inurba_marseille","lat":43.303002,"lon":5.392142,"is_reserved":false,"is_disabled":false,"rental_uris":{"android":"levelo://app?vid=f2b61339-1f30-497c-8011-b7066e23ccd4","ios":"levelo://app?vid=f2b61339-1f30-497c-8011-b7066e23ccd4"},"vehicle_type_id":"4","last_reported":1725394147,"current_range_meters":8000,"station_id":"ce4bgkh2rcd13ifvqbk0","pricing_plan_id":"cebpf4jnsgd1na2vs0mg"},{"bike_id":"3ec7c7d5-399a-42bf-ad3d-62b54eec478b","system_id":"levelo_inurba_marseille","lat":43.303002,"lon":5.392142,"is_reserved":false,"is_disabled":false,"rental_uris":{"android":"levelo://app?vid=3ec7c7d5-399a-42bf-ad3d-62b54eec478b","ios":"levelo://app?vid=3ec7c7d5-399a-42bf-ad3d-62b54eec478b"},"vehicle_type_id":"4","last_reported":1725394147,"current_range_meters":13200,"station_id":"ce4bgkh2rcd13ifvqbk0","pricing_plan_id":"cebpf4jnsgd1na2vs0mg"},{"bike_id":"d171c2f7-bec4-4014-978c-15e15d90e92f","system_id":"levelo_inurba_marseille","lat":43.302992,"lon":5.392136,"is_reserved":false,"is_disabled":false,"rental_uris":{"android":"levelo://app?vid=d171c2f7-bec4-4014-978c-15e15d90e92f","ios":"levelo://app?vid=d171c2f7-bec4-4014-978c-15e15d90e92f"},"vehicle_type_id":"4","last_reported":1725394147,"current_range_meters":31200,"station_id":"ce4bgkh2rcd13ifvqbk0","pricing_plan_id":"cebpf4jnsgd1na2vs0mg"},{"bike_id":"5c8e941c-6316-43d8-87b5-9c41564a0493","system_id":"levelo_inurba_marseille","lat":43.2936,"lon":5.37835,"is_reserved":false,"is_disabled":false,"rental_uris":{"android":"levelo://app?vid=5c8e941c-6316-43d8-87b5-9c41564a0493","ios":"levelo://app?vid=5c8e941c-6316-43d8-87b5-9c41564a0493"},"vehicle_type_id":"4","last_reported":1725394147,"current_range_meters":18000,"station_id":"ce4bgjh2rcd13ifvqbf0","pricing_plan_id":"cebpf4jnsgd1na2vs0mg"},{"bike_id":"b0791d08-086c-4a49-839e-191c6f007967","system_id":"levelo_inurba_marseille","lat":43.300852,"lon":5.390859,"is_reserved":false,"is_disabled":false,"rental_uris":{"android":"levelo://app?vid=b0791d08-086c-4a49-839e-191c6f007967","ios":"levelo://app?vid=b0791d08-086c-4a49-839e-191c6f007967"},"vehicle_type_id":"4","last_reported":1725394147,"current_range_meters":31200,"station_id":"ce4bh192rcd13ifvqdb0","pricing_plan_id":"cebpf4jnsgd1na2vs0mg"},{"bike_id":"d6626baf-a1dc-41a9-bba2-6ca57f347bd8","system_id":"levelo_inurba_marseille","lat":43.30085,"lon":5.390856,"is_reserved":false,"is_disabled":false,"rental_uris":{"android":"levelo://app?vid=d6626baf-a1dc-41a9-bba2-6ca57f347bd8","ios":"levelo://app?vid=d6626baf-a1dc-41a9-bba2-6ca57f347bd8"},"vehicle_type_id":"4","last_reported":1725394147,"current_range_meters":26000,"station_id":"ce4bh192rcd13ifvqdb0","pricing_plan_id":"cebpf4jnsgd1na2vs0mg"},{"bike_id":"d3db359b-c20c-4bf3-bb37-a5410db2f7f9","system_id":"levelo_inurba_marseille","lat":43.300852,"lon":5.390859,"is_reserved":false,"is_disabled":false,"rental_uris":{"android":"levelo://app?vid=d3db359b-c20c-4bf3-bb37-a5410db2f7f9","ios":"levelo://app?vid=d3db359b-c20c-4bf3-bb37-a5410db2f7f9"},"vehicle_type_id":"4","last_reported":1725394147,"current_range_meters":31200,"station_id":"ce4bh192rcd13ifvqdb0","pricing_plan_id":"cebpf4jnsgd1na2vs0mg"},{"bike_id":"59b43048-16ff-4052-a090-dc168e9000f5","system_id":"levelo_inurba_marseille","lat":43.33373,"lon":5.366402,"is_reserved":false,"is_disabled":false,"rental_uris":{"android":"levelo://app?vid=59b43048-16ff-4052-a090-dc168e9000f5","ios":"levelo://app?vid=59b43048-16ff-4052-a090-dc168e9000f5"},"vehicle_type_id":"4","last_reported":1725394147,"current_range_meters":22000,"station_id":"","pricing_plan_id":"cebpf4jnsgd1na2vs0mg"},{"bike_id":"ff72aa79-c6e2-4586-8dc4-268b897ec350","system_id":"levelo_inurba_marseille","lat":43.30088,"lon":5.39077,"is_reserved":false,"is_disabled":false,"rental_uris":{"android":"levelo://app?vid=ff72aa79-c6e2-4586-8dc4-268b897ec350","ios":"levelo://app?vid=ff72aa79-c6e2-4586-8dc4-268b897ec350"},"vehicle_type_id":"4","last_reported":1725394147,"current_range_meters":28400,"station_id":"ce4bh192rcd13ifvqdb0","pricing_plan_id":"cebpf4jnsgd1na2vs0mg"},{"bike_id":"1a418398-3482-45ed-9857-d4e7f42d97db","system_id":"levelo_inurba_marseille","lat":43.300852,"lon":5.390859,"is_reserved":false,"is_disabled":false,"rental_uris":{"android":"levelo://app?vid=1a418398-3482-45ed-9857-d4e7f42d97db","ios":"levelo://app?vid=1a418398-3482-45ed-9857-d4e7f42d97db"},"vehicle_type_id":"4","last_reported":1725394147,"current_range_meters":29600,"station_id":"ce4bh192rcd13ifvqdb0","pricing_plan_id":"cebpf4jnsgd1na2vs0mg"},{"bike_id":"6056586c-dca5-4189-87f2-f8197de04624","system_id":"levelo_inurba_marseille","lat":43.30087,"lon":5.39079,"is_reserved":false,"is_disabled":false,"rental_uris":{"android":"levelo://app?vid=6056586c-dca5-4189-87f2-f8197de04624","ios":"levelo://app?vid=6056586c-dca5-4189-87f2-f8197de04624"},"vehicle_type_id":"4","last_reported":1725394147,"current_range_meters":24000,"station_id":"ce4bh192rcd13ifvqdb0","pricing_plan_id":"cebpf4jnsgd1na2vs0mg"},{"bike_id":"b6b657f6-a44c-486a-afa7-439bebc319fb","system_id":"levelo_inurba_marseille","lat":43.2922,"lon":5.36056,"is_reserved":false,"is_disabled":false,"rental_uris":{"android":"levelo://app?vid=b6b657f6-a44c-486a-afa7-439bebc319fb","ios":"levelo://app?vid=b6b657f6-a44c-486a-afa7-439bebc319fb"},"vehicle_type_id":"4","last_reported":1725394147,"current_range_meters":0,"station_id":"ce4bhbh2rcd13ifvqeqg","pricing_plan_id":"cebpf4jnsgd1na2vs0mg"},{"bike_id":"d788c3b0-7469-4b31-8c32-3fcdf77d93b7","system_id":"levelo_inurba_marseille","lat":43.300852,"lon":5.390859,"is_reserved":false,"is_disabled":false,"rental_uris":{"android":"levelo://app?vid=d788c3b0-7469-4b31-8c32-3fcdf77d93b7","ios":"levelo://app?vid=d788c3b0-7469-4b31-8c32-3fcdf77d93b7"},"vehicle_type_id":"4","last_reported":1725394147,"current_range_meters":31200,"station_id":"ce4bh192rcd13ifvqdb0","pricing_plan_id":"cebpf4jnsgd1na2vs0mg"},{"bike_id":"ec3e79fb-655a-42c3-ab25-dc662356c81e","system_id":"levelo_inurba_marseille","lat":43.31369,"lon":5.39599,"is_reserved":false,"is_disabled":false,"rental_uris":{"android":"levelo://app?vid=ec3e79fb-655a-42c3-ab25-dc662356c81e","ios":"levelo://app?vid=ec3e79fb-655a-42c3-ab25-dc662356c81e"},"vehicle_type_id":"4","last_reported":1725394147,"current_range_meters":27600,"station_id":"","pricing_plan_id":"cebpf4jnsgd1na2vs0mg"},{"bike_id":"2f689d8a-2b08-4871-9f6c-78f1eeb3566f","system_id":"levelo_inurba_marseille","lat":43.313291,"lon":5.396838,"is_reserved":false,"is_disabled":false,"rental_uris":{"android":"levelo://app?vid=2f689d8a-2b08-4871-9f6c-78f1eeb3566f","ios":"levelo://app?vid=2f689d8a-2b08-4871-9f6c-78f1eeb3566f"},"vehicle_type_id":"4","last_reported":1725394147,"current_range_meters":1600,"station_id":"ce4bgvp2rcd13ifvqcu0","pricing_plan_id":"cebpf4jnsgd1na2vs0mg"},{"bike_id":"0ce2b6ee-4953-4b0d-af00-f906e88857a0","system_id":"levelo_inurba_marseille","lat":43.298787,"lon":5.3891,"is_reserved":false,"is_disabled":false,"rental_uris":{"android":"levelo://app?vid=0ce2b6ee-4953-4b0d-af00-f906e88857a0","ios":"levelo://app?vid=0ce2b6ee-4953-4b0d-af00-f906e88857a0"},"vehicle_type_id":"4","last_reported":1725394147,"current_range_meters":17200,"station_id":"ce4bh392rcd13ifvqdl0","pricing_plan_id":"cebpf4jnsgd1na2vs0mg"},{"bike_id":"f3bba668-a573-43d4-a987-fd92f31a85ba","system_id":"levelo_inurba_marseille","lat":43.298732,"lon":5.389037,"is_reserved":false,"is_disabled":false,"rental_uris":{"android":"levelo://app?vid=f3bba668-a573-43d4-a987-fd92f31a85ba","ios":"levelo://app?vid=f3bba668-a573-43d4-a987-fd92f31a85ba"},"vehicle_type_id":"4","last_reported":1725394147,"current_range_meters":6400,"station_id":"ce4bh392rcd13ifvqdl0","pricing_plan_id":"cebpf4jnsgd1na2vs0mg"},{"bike_id":"ac1db90e-2555-46bf-a73b-130da8921de3","system_id":"levelo_inurba_marseille","lat":43.29875,"lon":5.38911,"is_reserved":false,"is_disabled":false,"rental_uris":{"android":"levelo://app?vid=ac1db90e-2555-46bf-a73b-130da8921de3","ios":"levelo://app?vid=ac1db90e-2555-46bf-a73b-130da8921de3"},"vehicle_type_id":"4","last_reported":1725394147,"current_range_meters":6400,"station_id":"ce4bh392rcd13ifvqdl0","pricing_plan_id":"cebpf4jnsgd1na2vs0mg"},{"bike_id":"717c5740-3784-4d00-8ed1-95f56c81417f","system_id":"levelo_inurba_marseille","lat":43.29876,"lon":5.38913,"is_reserved":false,"is_disabled":false,"rental_uris":{"android":"levelo://app?vid=717c5740-3784-4d00-8ed1-95f56c81417f","ios":"levelo://app?vid=717c5740-3784-4d00-8ed1-95f56c81417f"},"vehicle_type_id":"4","last_reported":1725394147,"current_range_meters":0,"station_id":"ce4bh392rcd13ifvqdl0","pricing_plan_id":"cebpf4jnsgd1na2vs0mg"},{"bike_id":"6714e5a4-1e69-4c05-b326-7ed955b44408","system_id":"levelo_inurba_marseille","lat":43.29874,"lon":5.38912,"is_reserved":false,"is_disabled":false,"rental_uris":{"android":"levelo://app?vid=6714e5a4-1e69-4c05-b326-7ed955b44408","ios":"levelo://app?vid=6714e5a4-1e69-4c05-b326-7ed955b44408"},"vehicle_type_id":"4","last_reported":1725394147,"current_range_meters":15200,"station_id":"ce4bh392rcd13ifvqdl0","pricing_plan_id":"cebpf4jnsgd1na2vs0mg"},{"bike_id":"210eed7b-7a65-464c-93c9-50cef9f2b145","system_id":"levelo_inurba_marseille","lat":43.29865,"lon":5.38909,"is_reserved":false,"is_disabled":false,"rental_uris":{"android":"levelo://app?vid=210eed7b-7a65-464c-93c9-50cef9f2b145","ios":"levelo://app?vid=210eed7b-7a65-464c-93c9-50cef9f2b145"},"vehicle_type_id":"4","last_reported":1725394147,"current_range_meters":31200,"station_id":"ce4bh392rcd13ifvqdl0","pricing_plan_id":"cebpf4jnsgd1na2vs0mg"},{"bike_id":"8d0f04a0-bc6e-4637-9b94-a093c580c955","system_id":"levelo_inurba_marseille","lat":43.29159,"lon":5.371568,"is_reserved":false,"is_disabled":false,"rental_uris":{"android":"levelo://app?vid=8d0f04a0-bc6e-4637-9b94-a093c580c955","ios":"levelo://app?vid=8d0f04a0-bc6e-4637-9b94-a093c580c955"},"vehicle_type_id":"4","last_reported":1725394147,"current_range_meters":0,"station_id":"ce4bha92rcd13ifvqeh0","pricing_plan_id":"cebpf4jnsgd1na2vs0mg"},{"bike_id":"bb6717fd-f0d0-46ff-b1cc-692d613966b7","system_id":"levelo_inurba_marseille","lat":43.291675,"lon":5.371583,"is_reserved":false,"is_disabled":false,"rental_uris":{"android":"levelo://app?vid=bb6717fd-f0d0-46ff-b1cc-692d613966b7","ios":"levelo://app?vid=bb6717fd-f0d0-46ff-b1cc-692d613966b7"},"vehicle_type_id":"4","last_reported":1725394147,"current_range_meters":24400,"station_id":"ce4bha92rcd13ifvqeh0","pricing_plan_id":"cebpf4jnsgd1na2vs0mg"},{"bike_id":"45e6f1f0-dbdb-419e-af6d-e68fe4cec662","system_id":"levelo_inurba_marseille","lat":43.29866,"lon":5.38918,"is_reserved":false,"is_disabled":false,"rental_uris":{"android":"levelo://app?vid=45e6f1f0-dbdb-419e-af6d-e68fe4cec662","ios":"levelo://app?vid=45e6f1f0-dbdb-419e-af6d-e68fe4cec662"},"vehicle_type_id":"4","last_reported":1725394147,"current_range_meters":20400,"station_id":"ce4bh392rcd13ifvqdl0","pricing_plan_id":"cebpf4jnsgd1na2vs0mg"},{"bike_id":"8d66c69e-a21b-4d5b-ab86-15fac69b0022","system_id":"levelo_inurba_marseille","lat":43.29864,"lon":5.38918,"is_reserved":false,"is_disabled":false,"rental_uris":{"android":"levelo://app?vid=8d66c69e-a21b-4d5b-ab86-15fac69b0022","ios":"levelo://app?vid=8d66c69e-a21b-4d5b-ab86-15fac69b0022"},"vehicle_type_id":"4","last_reported":1725394147,"current_range_meters":30800,"station_id":"ce4bh392rcd13ifvqdl0","pricing_plan_id":"cebpf4jnsgd1na2vs0mg"},{"bike_id":"e8edcfe6-aa37-4813-8a47-04267830c304","system_id":"levelo_inurba_marseille","lat":43.309047,"lon":5.396551,"is_reserved":false,"is_disabled":false,"rental_uris":{"android":"levelo://app?vid=e8edcfe6-aa37-4813-8a47-04267830c304","ios":"levelo://app?vid=e8edcfe6-aa37-4813-8a47-04267830c304"},"vehicle_type_id":"4","last_reported":1725394147,"current_range_meters":3600,"station_id":"ce4bh012rcd13ifvqcv0","pricing_plan_id":"cebpf4jnsgd1na2vs0mg"},{"bike_id":"d6832bc2-7b5d-4534-b54f-4986494bb0b9","system_id":"levelo_inurba_marseille","lat":43.309038,"lon":5.396546,"is_reserved":false,"is_disabled":false,"rental_uris":{"android":"levelo://app?vid=d6832bc2-7b5d-4534-b54f-4986494bb0b9","ios":"levelo://app?vid=d6832bc2-7b5d-4534-b54f-4986494bb0b9"},"vehicle_type_id":"4","last_reported":1725394147,"current_range_meters":31200,"station_id":"ce4bh012rcd13ifvqcv0","pricing_plan_id":"cebpf4jnsgd1na2vs0mg"},{"bike_id":"8fab10c6-98aa-4ca0-ae44-e4980d2883c4","system_id":"levelo_inurba_marseille","lat":43.309047,"lon":5.396551,"is_reserved":false,"is_disabled":false,"rental_uris":{"android":"levelo://app?vid=8fab10c6-98aa-4ca0-ae44-e4980d2883c4","ios":"levelo://app?vid=8fab10c6-98aa-4ca0-ae44-e4980d2883c4"},"vehicle_type_id":"4","last_reported":1725394147,"current_range_meters":16000,"station_id":"ce4bh012rcd13ifvqcv0","pricing_plan_id":"cebpf4jnsgd1na2vs0mg"},{"bike_id":"6af3a7e2-60de-4047-ba21-99c8b025480d","system_id":"levelo_inurba_marseille","lat":43.30882,"lon":5.39643,"is_reserved":false,"is_disabled":false,"rental_uris":{"android":"levelo://app?vid=6af3a7e2-60de-4047-ba21-99c8b025480d","ios":"levelo://app?vid=6af3a7e2-60de-4047-ba21-99c8b025480d"},"vehicle_type_id":"4","last_reported":1725394147,"current_range_meters":31200,"station_id":"ce4bh012rcd13ifvqcv0","pricing_plan_id":"cebpf4jnsgd1na2vs0mg"},{"bike_id":"4638853a-3aca-4926-8e70-f216630149df","system_id":"levelo_inurba_marseille","lat":43.3088,"lon":5.39643,"is_reserved":false,"is_disabled":false,"rental_uris":{"android":"levelo://app?vid=4638853a-3aca-4926-8e70-f216630149df","ios":"levelo://app?vid=4638853a-3aca-4926-8e70-f216630149df"},"vehicle_type_id":"4","last_reported":1725394147,"current_range_meters":30800,"station_id":"ce4bh012rcd13ifvqcv0","pricing_plan_id":"cebpf4jnsgd1na2vs0mg"},{"bike_id":"f7539413-4f3e-45d9-8f61-a909e5d057d4","system_id":"levelo_inurba_marseille","lat":43.30884,"lon":5.39645,"is_reserved":false,"is_disabled":false,"rental_uris":{"android":"levelo://app?vid=f7539413-4f3e-45d9-8f61-a909e5d057d4","ios":"levelo://app?vid=f7539413-4f3e-45d9-8f61-a909e5d057d4"},"vehicle_type_id":"4","last_reported":1725394147,"current_range_meters":30400,"station_id":"ce4bh012rcd13ifvqcv0","pricing_plan_id":"cebpf4jnsgd1na2vs0mg"},{"bike_id":"88943d3b-88e6-483e-8331-29876561b20f","system_id":"levelo_inurba_marseille","lat":43.309038,"lon":5.396546,"is_reserved":false,"is_disabled":false,"rental_uris":{"android":"levelo://app?vid=88943d3b-88e6-483e-8331-29876561b20f","ios":"levelo://app?vid=88943d3b-88e6-483e-8331-29876561b20f"},"vehicle_type_id":"4","last_reported":1725394147,"current_range_meters":31200,"station_id":"ce4bh012rcd13ifvqcv0","pricing_plan_id":"cebpf4jnsgd1na2vs0mg"},{"bike_id":"adcedc91-c133-462a-ba0d-1815dd18363d","system_id":"levelo_inurba_marseille","lat":43.30878,"lon":5.39647,"is_reserved":false,"is_disabled":false,"rental_uris":{"android":"levelo://app?vid=adcedc91-c133-462a-ba0d-1815dd18363d","ios":"levelo://app?vid=adcedc91-c133-462a-ba0d-1815dd18363d"},"vehicle_type_id":"4","last_reported":1725394147,"current_range_meters":28000,"station_id":"ce4bh012rcd13ifvqcv0","pricing_plan_id":"cebpf4jnsgd1na2vs0mg"},{"bike_id":"134cd32f-a0d7-4b04-86ee-5ea826b0be4e","system_id":"levelo_inurba_marseille","lat":43.313291,"lon":5.396838,"is_reserved":false,"is_disabled":false,"rental_uris":{"android":"levelo://app?vid=134cd32f-a0d7-4b04-86ee-5ea826b0be4e","ios":"levelo://app?vid=134cd32f-a0d7-4b04-86ee-5ea826b0be4e"},"vehicle_type_id":"4","last_reported":1725394147,"current_range_meters":20800,"station_id":"ce4bgvp2rcd13ifvqcu0","pricing_plan_id":"cebpf4jnsgd1na2vs0mg"},{"bike_id":"1449b037-2fd3-4a13-adb9-51ebdfe67d80","system_id":"levelo_inurba_marseille","lat":43.30884,"lon":5.3965,"is_reserved":false,"is_disabled":false,"rental_uris":{"android":"levelo://app?vid=1449b037-2fd3-4a13-adb9-51ebdfe67d80","ios":"levelo://app?vid=1449b037-2fd3-4a13-adb9-51ebdfe67d80"},"vehicle_type_id":"4","last_reported":1725394147,"current_range_meters":31200,"station_id":"ce4bh012rcd13ifvqcv0","pricing_plan_id":"cebpf4jnsgd1na2vs0mg"},{"bike_id":"bce50e60-b8db-416b-8d73-0dd104accff8","system_id":"levelo_inurba_marseille","lat":43.309038,"lon":5.396546,"is_reserved":false,"is_disabled":false,"rental_uris":{"android":"levelo://app?vid=bce50e60-b8db-416b-8d73-0dd104accff8","ios":"levelo://app?vid=bce50e60-b8db-416b-8d73-0dd104accff8"},"vehicle_type_id":"4","last_reported":1725394147,"current_range_meters":23600,"station_id":"ce4bh012rcd13ifvqcv0","pricing_plan_id":"cebpf4jnsgd1na2vs0mg"},{"bike_id":"cd2d29fa-ea18-4045-84b6-def07e14dfcc","system_id":"levelo_inurba_marseille","lat":43.309047,"lon":5.396551,"is_reserved":false,"is_disabled":false,"rental_uris":{"android":"levelo://app?vid=cd2d29fa-ea18-4045-84b6-def07e14dfcc","ios":"levelo://app?vid=cd2d29fa-ea18-4045-84b6-def07e14dfcc"},"vehicle_type_id":"4","last_reported":1725394147,"current_range_meters":31200,"station_id":"ce4bh012rcd13ifvqcv0","pricing_plan_id":"cebpf4jnsgd1na2vs0mg"},{"bike_id":"9f772f4f-4e7a-4504-9e0a-d0234eb8a480","system_id":"levelo_inurba_marseille","lat":43.309047,"lon":5.396551,"is_reserved":false,"is_disabled":false,"rental_uris":{"android":"levelo://app?vid=9f772f4f-4e7a-4504-9e0a-d0234eb8a480","ios":"levelo://app?vid=9f772f4f-4e7a-4504-9e0a-d0234eb8a480"},"vehicle_type_id":"4","last_reported":1725394147,"current_range_meters":3200,"station_id":"ce4bh012rcd13ifvqcv0","pricing_plan_id":"cebpf4jnsgd1na2vs0mg"},{"bike_id":"ba37b8bc-50e8-416e-bc5c-5d2cd0a416aa","system_id":"levelo_inurba_marseille","lat":43.3088,"lon":5.39653,"is_reserved":false,"is_disabled":false,"rental_uris":{"android":"levelo://app?vid=ba37b8bc-50e8-416e-bc5c-5d2cd0a416aa","ios":"levelo://app?vid=ba37b8bc-50e8-416e-bc5c-5d2cd0a416aa"},"vehicle_type_id":"4","last_reported":1725394147,"current_range_meters":2800,"station_id":"ce4bh012rcd13ifvqcv0","pricing_plan_id":"cebpf4jnsgd1na2vs0mg"},{"bike_id":"fa07158f-e9de-47a7-a21f-de43fa4ce748","system_id":"levelo_inurba_marseille","lat":43.313291,"lon":5.396838,"is_reserved":false,"is_disabled":false,"rental_uris":{"android":"levelo://app?vid=fa07158f-e9de-47a7-a21f-de43fa4ce748","ios":"levelo://app?vid=fa07158f-e9de-47a7-a21f-de43fa4ce748"},"vehicle_type_id":"4","last_reported":1725394147,"current_range_meters":400,"station_id":"ce4bgvp2rcd13ifvqcu0","pricing_plan_id":"cebpf4jnsgd1na2vs0mg"},{"bike_id":"93d9cfdc-8f58-4227-ade5-b0e222b8aefb","system_id":"levelo_inurba_marseille","lat":43.313291,"lon":5.396838,"is_reserved":false,"is_disabled":false,"rental_uris":{"android":"levelo://app?vid=93d9cfdc-8f58-4227-ade5-b0e222b8aefb","ios":"levelo://app?vid=93d9cfdc-8f58-4227-ade5-b0e222b8aefb"},"vehicle_type_id":"4","last_reported":1725394147,"current_range_meters":31600,"station_id":"ce4bgvp2rcd13ifvqcu0","pricing_plan_id":"cebpf4jnsgd1na2vs0mg"},{"bike_id":"04be60dc-b02a-4362-af40-5d22011bb714","system_id":"levelo_inurba_marseille","lat":43.309038,"lon":5.396546,"is_reserved":false,"is_disabled":false,"rental_uris":{"android":"levelo://app?vid=04be60dc-b02a-4362-af40-5d22011bb714","ios":"levelo://app?vid=04be60dc-b02a-4362-af40-5d22011bb714"},"vehicle_type_id":"4","last_reported":1725394147,"current_range_meters":10000,"station_id":"ce4bh012rcd13ifvqcv0","pricing_plan_id":"cebpf4jnsgd1na2vs0mg"},{"bike_id":"f6994089-df94-4666-a2ff-985412e6bbf5","system_id":"levelo_inurba_marseille","lat":43.30882,"lon":5.39659,"is_reserved":false,"is_disabled":false,"rental_uris":{"android":"levelo://app?vid=f6994089-df94-4666-a2ff-985412e6bbf5","ios":"levelo://app?vid=f6994089-df94-4666-a2ff-985412e6bbf5"},"vehicle_type_id":"4","last_reported":1725394147,"current_range_meters":14800,"station_id":"ce4bh012rcd13ifvqcv0","pricing_plan_id":"cebpf4jnsgd1na2vs0mg"},{"bike_id":"3136e32b-0e78-43d4-a7d9-debf6e98ac6f","system_id":"levelo_inurba_marseille","lat":43.29529,"lon":5.385581,"is_reserved":false,"is_disabled":false,"rental_uris":{"android":"levelo://app?vid=3136e32b-0e78-43d4-a7d9-debf6e98ac6f","ios":"levelo://app?vid=3136e32b-0e78-43d4-a7d9-debf6e98ac6f"},"vehicle_type_id":"4","last_reported":1725394147,"current_range_meters":17200,"station_id":"ce4bgih2rcd13ifvqba0","pricing_plan_id":"cebpf4jnsgd1na2vs0mg"},{"bike_id":"f70db88c-21ae-422c-988d-37c0034560f0","system_id":"levelo_inurba_marseille","lat":43.290779,"lon":5.371482,"is_reserved":false,"is_disabled":false,"rental_uris":{"android":"levelo://app?vid=f70db88c-21ae-422c-988d-37c0034560f0","ios":"levelo://app?vid=f70db88c-21ae-422c-988d-37c0034560f0"},"vehicle_type_id":"4","last_reported":1725394147,"current_range_meters":1600,"station_id":"ce4bh5p2rcd13ifvqe4g","pricing_plan_id":"cebpf4jnsgd1na2vs0mg"},{"bike_id":"b9582c9b-93eb-44e0-964b-906567305782","system_id":"levelo_inurba_marseille","lat":43.290779,"lon":5.371482,"is_reserved":false,"is_disabled":false,"rental_uris":{"android":"levelo://app?vid=b9582c9b-93eb-44e0-964b-906567305782","ios":"levelo://app?vid=b9582c9b-93eb-44e0-964b-906567305782"},"vehicle_type_id":"4","last_reported":1725394147,"current_range_meters":1200,"station_id":"ce4bh5p2rcd13ifvqe4g","pricing_plan_id":"cebpf4jnsgd1na2vs0mg"},{"bike_id":"f9411472-dd42-42c0-a0f8-9ceb74a4e077","system_id":"levelo_inurba_marseille","lat":43.302008,"lon":5.394694,"is_reserved":false,"is_disabled":false,"rental_uris":{"android":"levelo://app?vid=f9411472-dd42-42c0-a0f8-9ceb74a4e077","ios":"levelo://app?vid=f9411472-dd42-42c0-a0f8-9ceb74a4e077"},"vehicle_type_id":"4","last_reported":1725394147,"current_range_meters":25200,"station_id":"ce4bh0p2rcd13ifvqd70","pricing_plan_id":"cebpf4jnsgd1na2vs0mg"},{"bike_id":"2c08a62b-bb93-4f66-af8a-bc3afdc1a8ca","system_id":"levelo_inurba_marseille","lat":43.302008,"lon":5.394694,"is_reserved":false,"is_disabled":false,"rental_uris":{"android":"levelo://app?vid=2c08a62b-bb93-4f66-af8a-bc3afdc1a8ca","ios":"levelo://app?vid=2c08a62b-bb93-4f66-af8a-bc3afdc1a8ca"},"vehicle_type_id":"4","last_reported":1725394147,"current_range_meters":16000,"station_id":"ce4bh0p2rcd13ifvqd70","pricing_plan_id":"cebpf4jnsgd1na2vs0mg"},{"bike_id":"068b7748-3cfb-4d75-be76-66d017138d8e","system_id":"levelo_inurba_marseille","lat":43.302008,"lon":5.394694,"is_reserved":false,"is_disabled":false,"rental_uris":{"android":"levelo://app?vid=068b7748-3cfb-4d75-be76-66d017138d8e","ios":"levelo://app?vid=068b7748-3cfb-4d75-be76-66d017138d8e"},"vehicle_type_id":"4","last_reported":1725394147,"current_range_meters":12800,"station_id":"ce4bh0p2rcd13ifvqd70","pricing_plan_id":"cebpf4jnsgd1na2vs0mg"},{"bike_id":"d82a0120-c1a5-4311-a112-2a51f4766479","system_id":"levelo_inurba_marseille","lat":43.29419,"lon":5.38626,"is_reserved":false,"is_disabled":false,"rental_uris":{"android":"levelo://app?vid=d82a0120-c1a5-4311-a112-2a51f4766479","ios":"levelo://app?vid=d82a0120-c1a5-4311-a112-2a51f4766479"},"vehicle_type_id":"4","last_reported":1725394147,"current_range_meters":0,"station_id":"ce4bh2h2rcd13ifvqdh0","pricing_plan_id":"cebpf4jnsgd1na2vs0mg"},{"bike_id":"7323798d-9fb9-4088-8987-8217380b0bba","system_id":"levelo_inurba_marseille","lat":43.294153,"lon":5.386305,"is_reserved":false,"is_disabled":false,"rental_uris":{"android":"levelo://app?vid=7323798d-9fb9-4088-8987-8217380b0bba","ios":"levelo://app?vid=7323798d-9fb9-4088-8987-8217380b0bba"},"vehicle_type_id":"4","last_reported":1725394147,"current_range_meters":26000,"station_id":"ce4bh2h2rcd13ifvqdh0","pricing_plan_id":"cebpf4jnsgd1na2vs0mg"},{"bike_id":"3807bcf7-cadd-49c8-976b-a51a19d22261","system_id":"levelo_inurba_marseille","lat":43.29417,"lon":5.38626,"is_reserved":false,"is_disabled":false,"rental_uris":{"android":"levelo://app?vid=3807bcf7-cadd-49c8-976b-a51a19d22261","ios":"levelo://app?vid=3807bcf7-cadd-49c8-976b-a51a19d22261"},"vehicle_type_id":"4","last_reported":1725394147,"current_range_meters":0,"station_id":"ce4bh2h2rcd13ifvqdh0","pricing_plan_id":"cebpf4jnsgd1na2vs0mg"},{"bike_id":"e1992ab4-90ed-48fe-a47e-ea70fc5aea5e","system_id":"levelo_inurba_marseille","lat":43.294153,"lon":5.386305,"is_reserved":false,"is_disabled":false,"rental_uris":{"android":"levelo://app?vid=e1992ab4-90ed-48fe-a47e-ea70fc5aea5e","ios":"levelo://app?vid=e1992ab4-90ed-48fe-a47e-ea70fc5aea5e"},"vehicle_type_id":"4","last_reported":1725394147,"current_range_meters":0,"station_id":"ce4bh2h2rcd13ifvqdh0","pricing_plan_id":"cebpf4jnsgd1na2vs0mg"},{"bike_id":"4c9233c8-9efb-4b7b-8377-4c6b1d2a2af4","system_id":"levelo_inurba_marseille","lat":43.294162,"lon":5.386292,"is_reserved":false,"is_disabled":false,"rental_uris":{"android":"levelo://app?vid=4c9233c8-9efb-4b7b-8377-4c6b1d2a2af4","ios":"levelo://app?vid=4c9233c8-9efb-4b7b-8377-4c6b1d2a2af4"},"vehicle_type_id":"4","last_reported":1725394147,"current_range_meters":18800,"station_id":"ce4bh2h2rcd13ifvqdh0","pricing_plan_id":"cebpf4jnsgd1na2vs0mg"},{"bike_id":"4caea2df-94cb-4461-ae49-87cf3d02d299","system_id":"levelo_inurba_marseille","lat":43.28933,"lon":5.36643,"is_reserved":false,"is_disabled":false,"rental_uris":{"android":"levelo://app?vid=4caea2df-94cb-4461-ae49-87cf3d02d299","ios":"levelo://app?vid=4caea2df-94cb-4461-ae49-87cf3d02d299"},"vehicle_type_id":"4","last_reported":1725394147,"current_range_meters":0,"station_id":"ce4bhap2rcd13ifvqek0","pricing_plan_id":"cebpf4jnsgd1na2vs0mg"},{"bike_id":"c6336e1a-e0ed-46f1-b8bf-08f32a34b691","system_id":"levelo_inurba_marseille","lat":43.289184,"lon":5.366408,"is_reserved":false,"is_disabled":false,"rental_uris":{"android":"levelo://app?vid=c6336e1a-e0ed-46f1-b8bf-08f32a34b691","ios":"levelo://app?vid=c6336e1a-e0ed-46f1-b8bf-08f32a34b691"},"vehicle_type_id":"4","last_reported":1725394147,"current_range_meters":24800,"station_id":"ce4bhap2rcd13ifvqek0","pricing_plan_id":"cebpf4jnsgd1na2vs0mg"},{"bike_id":"6b097b94-9955-45bf-b0dc-93cb650cd248","system_id":"levelo_inurba_marseille","lat":43.289328,"lon":5.36392,"is_reserved":false,"is_disabled":false,"rental_uris":{"android":"levelo://app?vid=6b097b94-9955-45bf-b0dc-93cb650cd248","ios":"levelo://app?vid=6b097b94-9955-45bf-b0dc-93cb650cd248"},"vehicle_type_id":"4","last_reported":1725394147,"current_range_meters":0,"station_id":"ce4bhc92rcd13ifvqetg","pricing_plan_id":"cebpf4jnsgd1na2vs0mg"},{"bike_id":"565f8d48-7969-4ed2-becc-3c08f564ce30","system_id":"levelo_inurba_marseille","lat":43.289468,"lon":5.363719,"is_reserved":false,"is_disabled":false,"rental_uris":{"android":"levelo://app?vid=565f8d48-7969-4ed2-becc-3c08f564ce30","ios":"levelo://app?vid=565f8d48-7969-4ed2-becc-3c08f564ce30"},"vehicle_type_id":"4","last_reported":1725394147,"current_range_meters":0,"station_id":"ce4bhc92rcd13ifvqetg","pricing_plan_id":"cebpf4jnsgd1na2vs0mg"},{"bike_id":"6a4463ca-fc9e-4d05-a3ad-4cb5bad4610e","system_id":"levelo_inurba_marseille","lat":43.28929,"lon":5.36389,"is_reserved":false,"is_disabled":false,"rental_uris":{"android":"levelo://app?vid=6a4463ca-fc9e-4d05-a3ad-4cb5bad4610e","ios":"levelo://app?vid=6a4463ca-fc9e-4d05-a3ad-4cb5bad4610e"},"vehicle_type_id":"4","last_reported":1725394147,"current_range_meters":0,"station_id":"ce4bhc92rcd13ifvqetg","pricing_plan_id":"cebpf4jnsgd1na2vs0mg"},{"bike_id":"39fd6872-6dee-4a95-83fb-713cea1e240e","system_id":"levelo_inurba_marseille","lat":43.29266,"lon":5.38447,"is_reserved":false,"is_disabled":false,"rental_uris":{"android":"levelo://app?vid=39fd6872-6dee-4a95-83fb-713cea1e240e","ios":"levelo://app?vid=39fd6872-6dee-4a95-83fb-713cea1e240e"},"vehicle_type_id":"4","last_reported":1725394147,"current_range_meters":30400,"station_id":"ce4bh692rcd13ifvqea0","pricing_plan_id":"cebpf4jnsgd1na2vs0mg"},{"bike_id":"4fead632-18ab-4ec3-b90c-7179ef5d6ca3","system_id":"levelo_inurba_marseille","lat":43.2926,"lon":5.38434,"is_reserved":false,"is_disabled":false,"rental_uris":{"android":"levelo://app?vid=4fead632-18ab-4ec3-b90c-7179ef5d6ca3","ios":"levelo://app?vid=4fead632-18ab-4ec3-b90c-7179ef5d6ca3"},"vehicle_type_id":"4","last_reported":1725394147,"current_range_meters":30800,"station_id":"ce4bh692rcd13ifvqea0","pricing_plan_id":"cebpf4jnsgd1na2vs0mg"},{"bike_id":"30fa39a0-e95a-4241-96ec-df1fe261b6af","system_id":"levelo_inurba_marseille","lat":43.304274,"lon":5.397513,"is_reserved":false,"is_disabled":false,"rental_uris":{"android":"levelo://app?vid=30fa39a0-e95a-4241-96ec-df1fe261b6af","ios":"levelo://app?vid=30fa39a0-e95a-4241-96ec-df1fe261b6af"},"vehicle_type_id":"4","last_reported":1725394147,"current_range_meters":0,"station_id":"ce4bh092rcd13ifvqd20","pricing_plan_id":"cebpf4jnsgd1na2vs0mg"},{"bike_id":"631bf9ae-68d0-498e-ad7a-d0a998e3446b","system_id":"levelo_inurba_marseille","lat":43.292642,"lon":5.384254,"is_reserved":false,"is_disabled":false,"rental_uris":{"android":"levelo://app?vid=631bf9ae-68d0-498e-ad7a-d0a998e3446b","ios":"levelo://app?vid=631bf9ae-68d0-498e-ad7a-d0a998e3446b"},"vehicle_type_id":"4","last_reported":1725394147,"current_range_meters":31200,"station_id":"ce4bh692rcd13ifvqea0","pricing_plan_id":"cebpf4jnsgd1na2vs0mg"},{"bike_id":"8db4dba1-30f1-45ed-8854-5444f581ec5f","system_id":"levelo_inurba_marseille","lat":43.292642,"lon":5.384254,"is_reserved":false,"is_disabled":false,"rental_uris":{"android":"levelo://app?vid=8db4dba1-30f1-45ed-8854-5444f581ec5f","ios":"levelo://app?vid=8db4dba1-30f1-45ed-8854-5444f581ec5f"},"vehicle_type_id":"4","last_reported":1725394147,"current_range_meters":31200,"station_id":"ce4bh692rcd13ifvqea0","pricing_plan_id":"cebpf4jnsgd1na2vs0mg"},{"bike_id":"0efe7cea-c133-4be4-a7f1-c238f17a7f32","system_id":"levelo_inurba_marseille","lat":43.292644,"lon":5.384257,"is_reserved":false,"is_disabled":false,"rental_uris":{"android":"levelo://app?vid=0efe7cea-c133-4be4-a7f1-c238f17a7f32","ios":"levelo://app?vid=0efe7cea-c133-4be4-a7f1-c238f17a7f32"},"vehicle_type_id":"4","last_reported":1725394147,"current_range_meters":24000,"station_id":"ce4bh692rcd13ifvqea0","pricing_plan_id":"cebpf4jnsgd1na2vs0mg"},{"bike_id":"6bdeac11-1987-4f55-bf13-b0e95a9aa2ec","system_id":"levelo_inurba_marseille","lat":43.29261,"lon":5.38446,"is_reserved":false,"is_disabled":false,"rental_uris":{"android":"levelo://app?vid=6bdeac11-1987-4f55-bf13-b0e95a9aa2ec","ios":"levelo://app?vid=6bdeac11-1987-4f55-bf13-b0e95a9aa2ec"},"vehicle_type_id":"4","last_reported":1725394147,"current_range_meters":8000,"station_id":"ce4bh692rcd13ifvqea0","pricing_plan_id":"cebpf4jnsgd1na2vs0mg"},{"bike_id":"8f24e009-6931-4b05-9333-78198f927a21","system_id":"levelo_inurba_marseille","lat":43.292644,"lon":5.384257,"is_reserved":false,"is_disabled":false,"rental_uris":{"android":"levelo://app?vid=8f24e009-6931-4b05-9333-78198f927a21","ios":"levelo://app?vid=8f24e009-6931-4b05-9333-78198f927a21"},"vehicle_type_id":"4","last_reported":1725394147,"current_range_meters":20000,"station_id":"ce4bh692rcd13ifvqea0","pricing_plan_id":"cebpf4jnsgd1na2vs0mg"},{"bike_id":"0a9a8ef0-2f4d-4bb8-ace9-7afe376f83bd","system_id":"levelo_inurba_marseille","lat":43.29252,"lon":5.38441,"is_reserved":false,"is_disabled":false,"rental_uris":{"android":"levelo://app?vid=0a9a8ef0-2f4d-4bb8-ace9-7afe376f83bd","ios":"levelo://app?vid=0a9a8ef0-2f4d-4bb8-ace9-7afe376f83bd"},"vehicle_type_id":"4","last_reported":1725394147,"current_range_meters":31200,"station_id":"ce4bh692rcd13ifvqea0","pricing_plan_id":"cebpf4jnsgd1na2vs0mg"},{"bike_id":"bb4d64ed-5bb8-4ff4-8883-1357f35f4240","system_id":"levelo_inurba_marseille","lat":43.292644,"lon":5.384257,"is_reserved":false,"is_disabled":false,"rental_uris":{"android":"levelo://app?vid=bb4d64ed-5bb8-4ff4-8883-1357f35f4240","ios":"levelo://app?vid=bb4d64ed-5bb8-4ff4-8883-1357f35f4240"},"vehicle_type_id":"4","last_reported":1725394147,"current_range_meters":31200,"station_id":"ce4bh692rcd13ifvqea0","pricing_plan_id":"cebpf4jnsgd1na2vs0mg"},{"bike_id":"29f27db1-9919-47ba-b18e-8c6dc2c57f0e","system_id":"levelo_inurba_marseille","lat":43.29251,"lon":5.38449,"is_reserved":false,"is_disabled":false,"rental_uris":{"android":"levelo://app?vid=29f27db1-9919-47ba-b18e-8c6dc2c57f0e","ios":"levelo://app?vid=29f27db1-9919-47ba-b18e-8c6dc2c57f0e"},"vehicle_type_id":"4","last_reported":1725394147,"current_range_meters":21600,"station_id":"ce4bh692rcd13ifvqea0","pricing_plan_id":"cebpf4jnsgd1na2vs0mg"},{"bike_id":"c32c9fc7-15a2-4952-8f6b-ae080659d317","system_id":"levelo_inurba_marseille","lat":43.29253,"lon":5.38454,"is_reserved":false,"is_disabled":false,"rental_uris":{"android":"levelo://app?vid=c32c9fc7-15a2-4952-8f6b-ae080659d317","ios":"levelo://app?vid=c32c9fc7-15a2-4952-8f6b-ae080659d317"},"vehicle_type_id":"4","last_reported":1725394147,"current_range_meters":30800,"station_id":"ce4bh692rcd13ifvqea0","pricing_plan_id":"cebpf4jnsgd1na2vs0mg"},{"bike_id":"d9b4a0d6-a011-4f94-bb6a-246948221b9b","system_id":"levelo_inurba_marseille","lat":43.290104,"lon":5.356111,"is_reserved":false,"is_disabled":false,"rental_uris":{"android":"levelo://app?vid=d9b4a0d6-a011-4f94-bb6a-246948221b9b","ios":"levelo://app?vid=d9b4a0d6-a011-4f94-bb6a-246948221b9b"},"vehicle_type_id":"4","last_reported":1725394147,"current_range_meters":1600,"station_id":"ce4bhb92rcd13ifvqen0","pricing_plan_id":"cebpf4jnsgd1na2vs0mg"},{"bike_id":"ebecbaa5-b68b-4a58-8409-4060ad4a2095","system_id":"levelo_inurba_marseille","lat":43.29003,"lon":5.35616,"is_reserved":false,"is_disabled":false,"rental_uris":{"android":"levelo://app?vid=ebecbaa5-b68b-4a58-8409-4060ad4a2095","ios":"levelo://app?vid=ebecbaa5-b68b-4a58-8409-4060ad4a2095"},"vehicle_type_id":"4","last_reported":1725394147,"current_range_meters":0,"station_id":"ce4bhb92rcd13ifvqen0","pricing_plan_id":"cebpf4jnsgd1na2vs0mg"},{"bike_id":"6ed8dedb-b8ad-4c83-a8b8-6f23a2f17bdd","system_id":"levelo_inurba_marseille","lat":43.295169,"lon":5.390426,"is_reserved":false,"is_disabled":false,"rental_uris":{"android":"levelo://app?vid=6ed8dedb-b8ad-4c83-a8b8-6f23a2f17bdd","ios":"levelo://app?vid=6ed8dedb-b8ad-4c83-a8b8-6f23a2f17bdd"},"vehicle_type_id":"4","last_reported":1725394147,"current_range_meters":7600,"station_id":"ce4bh3p2rcd13ifvqdp0","pricing_plan_id":"cebpf4jnsgd1na2vs0mg"},{"bike_id":"ba52c3ad-8f95-4efe-a47e-b59cb2bd4abc","system_id":"levelo_inurba_marseille","lat":43.290995,"lon":5.381361,"is_reserved":false,"is_disabled":false,"rental_uris":{"android":"levelo://app?vid=ba52c3ad-8f95-4efe-a47e-b59cb2bd4abc","ios":"levelo://app?vid=ba52c3ad-8f95-4efe-a47e-b59cb2bd4abc"},"vehicle_type_id":"4","last_reported":1725394147,"current_range_meters":0,"station_id":"ce4bh512rcd13ifvqe2g","pricing_plan_id":"cebpf4jnsgd1na2vs0mg"},{"bike_id":"4de89a41-fb12-4005-becb-0fb84c1f5d82","system_id":"levelo_inurba_marseille","lat":43.290995,"lon":5.381361,"is_reserved":false,"is_disabled":false,"rental_uris":{"android":"levelo://app?vid=4de89a41-fb12-4005-becb-0fb84c1f5d82","ios":"levelo://app?vid=4de89a41-fb12-4005-becb-0fb84c1f5d82"},"vehicle_type_id":"4","last_reported":1725394147,"current_range_meters":30800,"station_id":"ce4bh512rcd13ifvqe2g","pricing_plan_id":"cebpf4jnsgd1na2vs0mg"},{"bike_id":"fcb124d9-466c-4964-999b-6012d3746737","system_id":"levelo_inurba_marseille","lat":43.297807,"lon":5.393533,"is_reserved":false,"is_disabled":false,"rental_uris":{"android":"levelo://app?vid=fcb124d9-466c-4964-999b-6012d3746737","ios":"levelo://app?vid=fcb124d9-466c-4964-999b-6012d3746737"},"vehicle_type_id":"4","last_reported":1725394147,"current_range_meters":4000,"station_id":"chh1huq6cuj3fo74tm60","pricing_plan_id":"cebpf4jnsgd1na2vs0mg"},{"bike_id":"1fc20af2-8341-4a60-93a5-ea3786f4d8da","system_id":"levelo_inurba_marseille","lat":43.297815,"lon":5.393548,"is_reserved":false,"is_disabled":false,"rental_uris":{"android":"levelo://app?vid=1fc20af2-8341-4a60-93a5-ea3786f4d8da","ios":"levelo://app?vid=1fc20af2-8341-4a60-93a5-ea3786f4d8da"},"vehicle_type_id":"4","last_reported":1725394147,"current_range_meters":29600,"station_id":"chh1huq6cuj3fo74tm60","pricing_plan_id":"cebpf4jnsgd1na2vs0mg"},{"bike_id":"b4bff844-a740-44b6-baf1-5bbcf26a1728","system_id":"levelo_inurba_marseille","lat":43.297807,"lon":5.393533,"is_reserved":false,"is_disabled":false,"rental_uris":{"android":"levelo://app?vid=b4bff844-a740-44b6-baf1-5bbcf26a1728","ios":"levelo://app?vid=b4bff844-a740-44b6-baf1-5bbcf26a1728"},"vehicle_type_id":"4","last_reported":1725394147,"current_range_meters":2000,"station_id":"chh1huq6cuj3fo74tm60","pricing_plan_id":"cebpf4jnsgd1na2vs0mg"},{"bike_id":"6c6db034-443d-4b7f-9591-1420e946f806","system_id":"levelo_inurba_marseille","lat":43.297807,"lon":5.393533,"is_reserved":false,"is_disabled":false,"rental_uris":{"android":"levelo://app?vid=6c6db034-443d-4b7f-9591-1420e946f806","ios":"levelo://app?vid=6c6db034-443d-4b7f-9591-1420e946f806"},"vehicle_type_id":"4","last_reported":1725394147,"current_range_meters":11200,"station_id":"chh1huq6cuj3fo74tm60","pricing_plan_id":"cebpf4jnsgd1na2vs0mg"},{"bike_id":"1bb5b037-81e6-4a60-afb9-20390877666d","system_id":"levelo_inurba_marseille","lat":43.297815,"lon":5.393548,"is_reserved":false,"is_disabled":false,"rental_uris":{"android":"levelo://app?vid=1bb5b037-81e6-4a60-afb9-20390877666d","ios":"levelo://app?vid=1bb5b037-81e6-4a60-afb9-20390877666d"},"vehicle_type_id":"4","last_reported":1725394147,"current_range_meters":8400,"station_id":"chh1huq6cuj3fo74tm60","pricing_plan_id":"cebpf4jnsgd1na2vs0mg"},{"bike_id":"8809d182-783e-44ee-9bdd-8f43883e818a","system_id":"levelo_inurba_marseille","lat":43.297807,"lon":5.393533,"is_reserved":false,"is_disabled":false,"rental_uris":{"android":"levelo://app?vid=8809d182-783e-44ee-9bdd-8f43883e818a","ios":"levelo://app?vid=8809d182-783e-44ee-9bdd-8f43883e818a"},"vehicle_type_id":"4","last_reported":1725394147,"current_range_meters":22400,"station_id":"chh1huq6cuj3fo74tm60","pricing_plan_id":"cebpf4jnsgd1na2vs0mg"},{"bike_id":"7fe62fa3-5122-469c-920c-403e75d112d8","system_id":"levelo_inurba_marseille","lat":43.295169,"lon":5.390426,"is_reserved":false,"is_disabled":false,"rental_uris":{"android":"levelo://app?vid=7fe62fa3-5122-469c-920c-403e75d112d8","ios":"levelo://app?vid=7fe62fa3-5122-469c-920c-403e75d112d8"},"vehicle_type_id":"4","last_reported":1725394147,"current_range_meters":0,"station_id":"ce4bh3p2rcd13ifvqdp0","pricing_plan_id":"cebpf4jnsgd1na2vs0mg"},{"bike_id":"53bf981e-1304-4133-975f-223277d8eda2","system_id":"levelo_inurba_marseille","lat":43.3302,"lon":5.39041,"is_reserved":false,"is_disabled":false,"rental_uris":{"android":"levelo://app?vid=53bf981e-1304-4133-975f-223277d8eda2","ios":"levelo://app?vid=53bf981e-1304-4133-975f-223277d8eda2"},"vehicle_type_id":"4","last_reported":1725394147,"current_range_meters":13600,"station_id":"ce4bhr92rcd13ifvqhrg","pricing_plan_id":"cebpf4jnsgd1na2vs0mg"},{"bike_id":"f3a5f9e9-2ebe-4ddf-96fb-a79c925a691c","system_id":"levelo_inurba_marseille","lat":43.297807,"lon":5.393533,"is_reserved":false,"is_disabled":false,"rental_uris":{"android":"levelo://app?vid=f3a5f9e9-2ebe-4ddf-96fb-a79c925a691c","ios":"levelo://app?vid=f3a5f9e9-2ebe-4ddf-96fb-a79c925a691c"},"vehicle_type_id":"4","last_reported":1725394147,"current_range_meters":27600,"station_id":"chh1huq6cuj3fo74tm60","pricing_plan_id":"cebpf4jnsgd1na2vs0mg"},{"bike_id":"90f45e91-48a8-4156-9692-888515543217","system_id":"levelo_inurba_marseille","lat":43.33019,"lon":5.39044,"is_reserved":false,"is_disabled":false,"rental_uris":{"android":"levelo://app?vid=90f45e91-48a8-4156-9692-888515543217","ios":"levelo://app?vid=90f45e91-48a8-4156-9692-888515543217"},"vehicle_type_id":"4","last_reported":1725394147,"current_range_meters":0,"station_id":"ce4bhr92rcd13ifvqhrg","pricing_plan_id":"cebpf4jnsgd1na2vs0mg"},{"bike_id":"c29e3bf2-5385-4e1d-8dd7-eeaac68d094a","system_id":"levelo_inurba_marseille","lat":43.330442,"lon":5.389148,"is_reserved":false,"is_disabled":false,"rental_uris":{"android":"levelo://app?vid=c29e3bf2-5385-4e1d-8dd7-eeaac68d094a","ios":"levelo://app?vid=c29e3bf2-5385-4e1d-8dd7-eeaac68d094a"},"vehicle_type_id":"4","last_reported":1725394147,"current_range_meters":30400,"station_id":"ce4bhr92rcd13ifvqhrg","pricing_plan_id":"cebpf4jnsgd1na2vs0mg"},{"bike_id":"c18e60b8-7595-4f2d-8d8e-a1ace6058ca6","system_id":"levelo_inurba_marseille","lat":43.330442,"lon":5.389148,"is_reserved":false,"is_disabled":false,"rental_uris":{"android":"levelo://app?vid=c18e60b8-7595-4f2d-8d8e-a1ace6058ca6","ios":"levelo://app?vid=c18e60b8-7595-4f2d-8d8e-a1ace6058ca6"},"vehicle_type_id":"4","last_reported":1725394147,"current_range_meters":2800,"station_id":"ce4bhr92rcd13ifvqhrg","pricing_plan_id":"cebpf4jnsgd1na2vs0mg"},{"bike_id":"18eb9aae-ff29-4437-be4e-08bda318464b","system_id":"levelo_inurba_marseille","lat":43.33022,"lon":5.39041,"is_reserved":false,"is_disabled":false,"rental_uris":{"android":"levelo://app?vid=18eb9aae-ff29-4437-be4e-08bda318464b","ios":"levelo://app?vid=18eb9aae-ff29-4437-be4e-08bda318464b"},"vehicle_type_id":"4","last_reported":1725394147,"current_range_meters":13200,"station_id":"ce4bhr92rcd13ifvqhrg","pricing_plan_id":"cebpf4jnsgd1na2vs0mg"},{"bike_id":"6a3154b7-6f19-455d-b739-b37587da3804","system_id":"levelo_inurba_marseille","lat":43.33021,"lon":5.39043,"is_reserved":false,"is_disabled":false,"rental_uris":{"android":"levelo://app?vid=6a3154b7-6f19-455d-b739-b37587da3804","ios":"levelo://app?vid=6a3154b7-6f19-455d-b739-b37587da3804"},"vehicle_type_id":"4","last_reported":1725394147,"current_range_meters":0,"station_id":"ce4bhr92rcd13ifvqhrg","pricing_plan_id":"cebpf4jnsgd1na2vs0mg"},{"bike_id":"c0f227a3-bb15-4a74-a84f-da66aab9d208","system_id":"levelo_inurba_marseille","lat":43.295169,"lon":5.390426,"is_reserved":false,"is_disabled":false,"rental_uris":{"android":"levelo://app?vid=c0f227a3-bb15-4a74-a84f-da66aab9d208","ios":"levelo://app?vid=c0f227a3-bb15-4a74-a84f-da66aab9d208"},"vehicle_type_id":"4","last_reported":1725394147,"current_range_meters":28400,"station_id":"ce4bh3p2rcd13ifvqdp0","pricing_plan_id":"cebpf4jnsgd1na2vs0mg"},{"bike_id":"46bd723f-f193-4ef0-b1ab-95127dacdbea","system_id":"levelo_inurba_marseille","lat":43.2952,"lon":5.39033,"is_reserved":false,"is_disabled":false,"rental_uris":{"android":"levelo://app?vid=46bd723f-f193-4ef0-b1ab-95127dacdbea","ios":"levelo://app?vid=46bd723f-f193-4ef0-b1ab-95127dacdbea"},"vehicle_type_id":"4","last_reported":1725394147,"current_range_meters":0,"station_id":"ce4bh3p2rcd13ifvqdp0","pricing_plan_id":"cebpf4jnsgd1na2vs0mg"},{"bike_id":"07b12100-dd1d-45e8-b866-1a2f1e35e248","system_id":"levelo_inurba_marseille","lat":43.330442,"lon":5.389148,"is_reserved":false,"is_disabled":false,"rental_uris":{"android":"levelo://app?vid=07b12100-dd1d-45e8-b866-1a2f1e35e248","ios":"levelo://app?vid=07b12100-dd1d-45e8-b866-1a2f1e35e248"},"vehicle_type_id":"4","last_reported":1725394147,"current_range_meters":3600,"station_id":"ce4bhr92rcd13ifvqhrg","pricing_plan_id":"cebpf4jnsgd1na2vs0mg"},{"bike_id":"8fdf04be-17bb-4859-ab6a-fab8179c53be","system_id":"levelo_inurba_marseille","lat":43.330442,"lon":5.389148,"is_reserved":false,"is_disabled":false,"rental_uris":{"android":"levelo://app?vid=8fdf04be-17bb-4859-ab6a-fab8179c53be","ios":"levelo://app?vid=8fdf04be-17bb-4859-ab6a-fab8179c53be"},"vehicle_type_id":"4","last_reported":1725394147,"current_range_meters":24800,"station_id":"ce4bhr92rcd13ifvqhrg","pricing_plan_id":"cebpf4jnsgd1na2vs0mg"},{"bike_id":"7a0154e3-71e8-4b1f-8672-34a5f6073907","system_id":"levelo_inurba_marseille","lat":43.29173,"lon":5.38454,"is_reserved":false,"is_disabled":false,"rental_uris":{"android":"levelo://app?vid=7a0154e3-71e8-4b1f-8672-34a5f6073907","ios":"levelo://app?vid=7a0154e3-71e8-4b1f-8672-34a5f6073907"},"vehicle_type_id":"4","last_reported":1725394147,"current_range_meters":11200,"station_id":"","pricing_plan_id":"cebpf4jnsgd1na2vs0mg"},{"bike_id":"2539930c-781e-49de-ba01-adfa52500642","system_id":"levelo_inurba_marseille","lat":43.295169,"lon":5.390426,"is_reserved":false,"is_disabled":false,"rental_uris":{"android":"levelo://app?vid=2539930c-781e-49de-ba01-adfa52500642","ios":"levelo://app?vid=2539930c-781e-49de-ba01-adfa52500642"},"vehicle_type_id":"4","last_reported":1725394147,"current_range_meters":31200,"station_id":"ce4bh3p2rcd13ifvqdp0","pricing_plan_id":"cebpf4jnsgd1na2vs0mg"},{"bike_id":"2e44c541-57b6-4d22-9eb4-2a58ce69385e","system_id":"levelo_inurba_marseille","lat":43.295169,"lon":5.390426,"is_reserved":false,"is_disabled":false,"rental_uris":{"android":"levelo://app?vid=2e44c541-57b6-4d22-9eb4-2a58ce69385e","ios":"levelo://app?vid=2e44c541-57b6-4d22-9eb4-2a58ce69385e"},"vehicle_type_id":"4","last_reported":1725394147,"current_range_meters":7600,"station_id":"ce4bh3p2rcd13ifvqdp0","pricing_plan_id":"cebpf4jnsgd1na2vs0mg"},{"bike_id":"edd42b2c-2743-4474-a9f8-4e91a843d033","system_id":"levelo_inurba_marseille","lat":43.310672,"lon":5.400862,"is_reserved":false,"is_disabled":false,"rental_uris":{"android":"levelo://app?vid=edd42b2c-2743-4474-a9f8-4e91a843d033","ios":"levelo://app?vid=edd42b2c-2743-4474-a9f8-4e91a843d033"},"vehicle_type_id":"4","last_reported":1725394147,"current_range_meters":19600,"station_id":"","pricing_plan_id":"cebpf4jnsgd1na2vs0mg"},