{"last_updated":1719245356,"ttl":30,"version":"2.2","data":{"bikes":[{"bike_id":"4fde33e4-62f7-4f09-9b8f-d543348a70f1","system_id":"levelo_inurba_marseille","lat":43.312239,"lon":5.368562,"is_reserved":false,"is_disabled":false,"rental_uris":{"android":"levelo://app?vid=4fde33e4-62f7-4f09-9b8f-d543348a70f1","ios":"levelo://app?vid=4fde33e4-62f7-4f09-9b8f-d543348a70f1"},"vehicle_type_id":"4","last_reported":1719245356,"current_range_meters":19200,"station_id":"ce4bgl92rcd13ifvqbq0","pricing_plan_id":"cebpf4jnsgd1na2vs0mg"},{"bike_id":"8b827483-c0f3-44b4-925e-60b8124e18e0","system_id":"levelo_inurba_marseille","lat":43.312239,"lon":5.368562,"is_reserved":false,"is_disabled":false,"rental_uris":{"android":"levelo://app?vid=8b827483-c0f3-44b4-925e-60b8124e18e0","ios":"levelo://app?vid=8b827483-c0f3-44b4-925e-60b8124e18e0"},"vehicle_type_id":"4","last_reported":1719245356,"current_range_meters":22000,"station_id":"ce4bgl92rcd13ifvqbq0","pricing_plan_id":"cebpf4jnsgd1na2vs0mg"},{"bike_id":"a6011aa9-ac0c-4ec7-9d8a-eb31ea0229f1","system_id":"levelo_inurba_marseille","lat":43.31486,"lon":5.37275,"is_reserved":false,"is_disabled":false,"rental_uris":{"android":"levelo://app?vid=a6011aa9-ac0c-4ec7-9d8a-eb31ea0229f1","ios":"levelo://app?vid=a6011aa9-ac0c-4ec7-9d8a-eb31ea0229f1"},"vehicle_type_id":"4","last_reported":1719245356,"current_range_meters":6800,"station_id":"ce4bgt12rcd13ifvqcd0","pricing_plan_id":"cebpf4jnsgd1na2vs0mg"},{"bike_id":"37b59653-5e47-4960-977f-fa2d6890987c","system_id":"levelo_inurba_marseille","lat":43.315,"lon":5.37306,"is_reserved":false,"is_disabled":false,"rental_uris":{"android":"levelo://app?vid=37b59653-5e47-4960-977f-fa2d6890987c","ios":"levelo://app?vid=37b59653-5e47-4960-977f-fa2d6890987c"},"vehicle_type_id":"4","last_reported":1719245356,"current_range_meters":29200,"station_id":"ce4bgt12rcd13ifvqcd0","pricing_plan_id":"cebpf4jnsgd1na2vs0mg"},{"bike_id":"3e6229a9-daa1-4e8e-b7ec-60b28f97252f","system_id":"levelo_inurba_marseille","lat":43.31452,"lon":5.373706,"is_reserved":false,"is_disabled":false,"rental_uris":{"android":"levelo://app?vid=3e6229a9-daa1-4e8e-b7ec-60b28f97252f","ios":"levelo://app?vid=3e6229a9-daa1-4e8e-b7ec-60b28f97252f"},"vehicle_type_id":"4","last_reported":1719245356,"current_range_meters":2400,"station_id":"ce4bgt12rcd13ifvqcd0","pricing_plan_id":"cebpf4jnsgd1na2vs0mg"},{"bike_id":"77460ccb-960a-4153-8783-e0a172f31a95","system_id":"levelo_inurba_marseille","lat":43.314513,"lon":5.373723,"is_reserved":false,"is_disabled":false,"rental_uris":{"android":"levelo://app?vid=77460ccb-960a-4153-8783-e0a172f31a95","ios":"levelo://app?vid=77460ccb-960a-4153-8783-e0a172f31a95"},"vehicle_type_id":"4","last_reported":1719245356,"current_range_meters":6000,"station_id":"","pricing_plan_id":"cebpf4jnsgd1na2vs0mg"},{"bike_id":"b117062d-5934-4794-9dfa-3a62ccffe4fa","system_id":"levelo_inurba_marseille","lat":43.309039,"lon":5.371797,"is_reserved":false,"is_disabled":false,"rental_uris":{"android":"levelo://app?vid=b117062d-5934-4794-9dfa-3a62ccffe4fa","ios":"levelo://app?vid=b117062d-5934-4794-9dfa-3a62ccffe4fa"},"vehicle_type_id":"4","last_reported":1719245356,"current_range_meters":0,"station_id":"ce4bguh2rcd13ifvqckg","pricing_plan_id":"cebpf4jnsgd1na2vs0mg"},{"bike_id":"d74d496a-a267-4f58-b9d3-4f468f416945","system_id":"levelo_inurba_marseille","lat":43.30536,"lon":5.36654,"is_reserved":false,"is_disabled":false,"rental_uris":{"android":"levelo://app?vid=d74d496a-a267-4f58-b9d3-4f468f416945","ios":"levelo://app?vid=d74d496a-a267-4f58-b9d3-4f468f416945"},"vehicle_type_id":"4","last_reported":1719245356,"current_range_meters":20800,"station_id":"","pricing_plan_id":"cebpf4jnsgd1na2vs0mg"},{"bike_id":"d3439a81-b45a-4f9b-94bf-26c6d432b110","system_id":"levelo_inurba_marseille","lat":43.3053,"lon":5.36655,"is_reserved":false,"is_disabled":false,"rental_uris":{"android":"levelo://app?vid=d3439a81-b45a-4f9b-94bf-26c6d432b110","ios":"levelo://app?vid=d3439a81-b45a-4f9b-94bf-26c6d432b110"},"vehicle_type_id":"4","last_reported":1719245356,"current_range_meters":0,"station_id":"","pricing_plan_id":"cebpf4jnsgd1na2vs0mg"},{"bike_id":"4f9b4749-8f37-43ae-9df1-0ec7cc3b89e6","system_id":"levelo_inurba_marseille","lat":43.305276,"lon":5.365829,"is_reserved":false,"is_disabled":false,"rental_uris":{"android":"levelo://app?vid=4f9b4749-8f37-43ae-9df1-0ec7cc3b89e6","ios":"levelo://app?vid=4f9b4749-8f37-43ae-9df1-0ec7cc3b89e6"},"vehicle_type_id":"4","last_reported":1719245356,"current_range_meters":30000,"station_id":"ce4bgs12rcd13ifvqcag","pricing_plan_id":"cebpf4jnsgd1na2vs0mg"},{"bike_id":"cb81d902-842c-4104-90cb-875ddb39ee7f","system_id":"levelo_inurba_marseille","lat":43.30523,"lon":5.3665,"is_reserved":false,"is_disabled":false,"rental_uris":{"android":"levelo://app?vid=cb81d902-842c-4104-90cb-875ddb39ee7f","ios":"levelo://app?vid=cb81d902-842c-4104-90cb-875ddb39ee7f"},"vehicle_type_id":"4","last_reported":1719245356,"current_range_meters":13600,"station_id":"","pricing_plan_id":"cebpf4jnsgd1na2vs0mg"},{"bike_id":"42eb4fbd-7861-44f8-aef2-5944ed0d0b0c","system_id":"levelo_inurba_marseille","lat":43.311125,"lon":5.377624,"is_reserved":false,"is_disabled":false,"rental_uris":{"android":"levelo://app?vid=42eb4fbd-7861-44f8-aef2-5944ed0d0b0c","ios":"levelo://app?vid=42eb4fbd-7861-44f8-aef2-5944ed0d0b0c"},"vehicle_type_id":"4","last_reported":1719245356,"current_range_meters":1600,"station_id":"ce4bgt92rcd13ifvqcg0","pricing_plan_id":"cebpf4jnsgd1na2vs0mg"},{"bike_id":"3c270a87-1222-44d8-921d-176955071808","system_id":"levelo_inurba_marseille","lat":43.311125,"lon":5.377624,"is_reserved":false,"is_disabled":false,"rental_uris":{"android":"levelo://app?vid=3c270a87-1222-44d8-921d-176955071808","ios":"levelo://app?vid=3c270a87-1222-44d8-921d-176955071808"},"vehicle_type_id":"4","last_reported":1719245356,"current_range_meters":28000,"station_id":"ce4bgt92rcd13ifvqcg0","pricing_plan_id":"cebpf4jnsgd1na2vs0mg"},{"bike_id":"35f8f984-7069-4df5-8a01-0309da419390","system_id":"levelo_inurba_marseille","lat":43.311125,"lon":5.377624,"is_reserved":false,"is_disabled":false,"rental_uris":{"android":"levelo://app?vid=35f8f984-7069-4df5-8a01-0309da419390","ios":"levelo://app?vid=35f8f984-7069-4df5-8a01-0309da419390"},"vehicle_type_id":"4","last_reported":1719245356,"current_range_meters":24400,"station_id":"ce4bgt92rcd13ifvqcg0","pricing_plan_id":"cebpf4jnsgd1na2vs0mg"},{"bike_id":"9e5075ae-0da4-42de-aac0-d00efde575bc","system_id":"levelo_inurba_marseille","lat":43.315289,"lon":5.380349,"is_reserved":false,"is_disabled":false,"rental_uris":{"android":"levelo://app?vid=9e5075ae-0da4-42de-aac0-d00efde575bc","ios":"levelo://app?vid=9e5075ae-0da4-42de-aac0-d00efde575bc"},"vehicle_type_id":"4","last_reported":1719245356,"current_range_meters":10400,"station_id":"ce4bhsp2rcd13ifvqi50","pricing_plan_id":"cebpf4jnsgd1na2vs0mg"},{"bike_id":"f1ef07f5-4dca-4a0b-9662-62247599944b","system_id":"levelo_inurba_marseille","lat":43.315293,"lon":5.380349,"is_reserved":false,"is_disabled":false,"rental_uris":{"android":"levelo://app?vid=f1ef07f5-4dca-4a0b-9662-62247599944b","ios":"levelo://app?vid=f1ef07f5-4dca-4a0b-9662-62247599944b"},"vehicle_type_id":"4","last_reported":1719245356,"current_range_meters":2000,"station_id":"ce4bhsp2rcd13ifvqi50","pricing_plan_id":"cebpf4jnsgd1na2vs0mg"},{"bike_id":"4f4e5d87-3471-4284-94d7-ccb2cb8520ce","system_id":"levelo_inurba_marseille","lat":43.30215,"lon":5.36582,"is_reserved":false,"is_disabled":false,"rental_uris":{"android":"levelo://app?vid=4f4e5d87-3471-4284-94d7-ccb2cb8520ce","ios":"levelo://app?vid=4f4e5d87-3471-4284-94d7-ccb2cb8520ce"},"vehicle_type_id":"4","last_reported":1719245356,"current_range_meters":13200,"station_id":"","pricing_plan_id":"cebpf4jnsgd1na2vs0mg"},{"bike_id":"84b9a0ae-7b74-4312-b016-043307907b56","system_id":"levelo_inurba_marseille","lat":43.304606,"lon":5.379026,"is_reserved":false,"is_disabled":false,"rental_uris":{"android":"levelo://app?vid=84b9a0ae-7b74-4312-b016-043307907b56","ios":"levelo://app?vid=84b9a0ae-7b74-4312-b016-043307907b56"},"vehicle_type_id":"4","last_reported":1719245356,"current_range_meters":0,"station_id":"ce4bgup2rcd13ifvqcn0","pricing_plan_id":"cebpf4jnsgd1na2vs0mg"},{"bike_id":"8b845e27-1ae4-4b31-b82a-f25d9fdf885a","system_id":"levelo_inurba_marseille","lat":43.324771,"lon":5.36557,"is_reserved":false,"is_disabled":false,"rental_uris":{"android":"levelo://app?vid=8b845e27-1ae4-4b31-b82a-f25d9fdf885a","ios":"levelo://app?vid=8b845e27-1ae4-4b31-b82a-f25d9fdf885a"},"vehicle_type_id":"4","last_reported":1719245356,"current_range_meters":7200,"station_id":"ce4bhs12rcd13ifvqhvg","pricing_plan_id":"cebpf4jnsgd1na2vs0mg"},{"bike_id":"9339bcc0-cc27-4575-a3ca-12d4af9ccd00","system_id":"levelo_inurba_marseille","lat":43.324771,"lon":5.36557,"is_reserved":false,"is_disabled":false,"rental_uris":{"android":"levelo://app?vid=9339bcc0-cc27-4575-a3ca-12d4af9ccd00","ios":"levelo://app?vid=9339bcc0-cc27-4575-a3ca-12d4af9ccd00"},"vehicle_type_id":"4","last_reported":1719245356,"current_range_meters":0,"station_id":"ce4bhs12rcd13ifvqhvg","pricing_plan_id":"cebpf4jnsgd1na2vs0mg"},{"bike_id":"ced0a363-d32c-4cfa-84cc-3b2d5e8560a9","system_id":"levelo_inurba_marseille","lat":43.324771,"lon":5.36557,"is_reserved":false,"is_disabled":false,"rental_uris":{"android":"levelo://app?vid=ced0a363-d32c-4cfa-84cc-3b2d5e8560a9","ios":"levelo://app?vid=ced0a363-d32c-4cfa-84cc-3b2d5e8560a9"},"vehicle_type_id":"4","last_reported":1719245356,"current_range_meters":12000,"station_id":"ce4bhs12rcd13ifvqhvg","pricing_plan_id":"cebpf4jnsgd1na2vs0mg"},{"bike_id":"6cf9c681-3a95-4985-85e6-64551920ad2f","system_id":"levelo_inurba_marseille","lat":43.324771,"lon":5.36557,"is_reserved":false,"is_disabled":false,"rental_uris":{"android":"levelo://app?vid=6cf9c681-3a95-4985-85e6-64551920ad2f","ios":"levelo://app?vid=6cf9c681-3a95-4985-85e6-64551920ad2f"},"vehicle_type_id":"4","last_reported":1719245356,"current_range_meters":9600,"station_id":"ce4bhs12rcd13ifvqhvg","pricing_plan_id":"cebpf4jnsgd1na2vs0mg"},{"bike_id":"f55ee702-4712-47a2-9d7a-4d7fc8adffe8","system_id":"levelo_inurba_marseille","lat":43.32492,"lon":5.36566,"is_reserved":false,"is_disabled":false,"rental_uris":{"android":"levelo://app?vid=f55ee702-4712-47a2-9d7a-4d7fc8adffe8","ios":"levelo://app?vid=f55ee702-4712-47a2-9d7a-4d7fc8adffe8"},"vehicle_type_id":"4","last_reported":1719245356,"current_range_meters":3200,"station_id":"ce4bhs12rcd13ifvqhvg","pricing_plan_id":"cebpf4jnsgd1na2vs0mg"},{"bike_id":"34c7c95c-783b-4986-82f4-e7a99cbb4eda","system_id":"levelo_inurba_marseille","lat":43.30143,"lon":5.37413,"is_reserved":false,"is_disabled":false,"rental_uris":{"android":"levelo://app?vid=34c7c95c-783b-4986-82f4-e7a99cbb4eda","ios":"levelo://app?vid=34c7c95c-783b-4986-82f4-e7a99cbb4eda"},"vehicle_type_id":"4","last_reported":1719245356,"current_range_meters":7200,"station_id":"ce4bgs92rcd13ifvqcc0","pricing_plan_id":"cebpf4jnsgd1na2vs0mg"},{"bike_id":"061f5196-e6de-49ea-b378-d30663fceb42","system_id":"levelo_inurba_marseille","lat":43.319935,"lon":5.381699,"is_reserved":false,"is_disabled":false,"rental_uris":{"android":"levelo://app?vid=061f5196-e6de-49ea-b378-d30663fceb42","ios":"levelo://app?vid=061f5196-e6de-49ea-b378-d30663fceb42"},"vehicle_type_id":"4","last_reported":1719245356,"current_range_meters":17200,"station_id":"ce4bhr12rcd13ifvqhpg","pricing_plan_id":"cebpf4jnsgd1na2vs0mg"},{"bike_id":"c28a89c6-0629-406a-ada9-9bfbd22c5109","system_id":"levelo_inurba_marseille","lat":43.319935,"lon":5.381699,"is_reserved":false,"is_disabled":false,"rental_uris":{"android":"levelo://app?vid=c28a89c6-0629-406a-ada9-9bfbd22c5109","ios":"levelo://app?vid=c28a89c6-0629-406a-ada9-9bfbd22c5109"},"vehicle_type_id":"4","last_reported":1719245356,"current_range_meters":28000,"station_id":"ce4bhr12rcd13ifvqhpg","pricing_plan_id":"cebpf4jnsgd1na2vs0mg"},{"bike_id":"efc89ca3-0cfd-4ed1-b6dd-d223db604025","system_id":"levelo_inurba_marseille","lat":43.212766,"lon":5.353409,"is_reserved":false,"is_disabled":false,"rental_uris":{"android":"levelo://app?vid=efc89ca3-0cfd-4ed1-b6dd-d223db604025","ios":"levelo://app?vid=efc89ca3-0cfd-4ed1-b6dd-d223db604025"},"vehicle_type_id":"4","last_reported":1719245356,"current_range_meters":0,"station_id":"","pricing_plan_id":"cebpf4jnsgd1na2vs0mg"},{"bike_id":"87c1a9b6-7c91-4661-bee6-0fcb509f8584","system_id":"levelo_inurba_marseille","lat":43.30477,"lon":5.38234,"is_reserved":false,"is_disabled":false,"rental_uris":{"android":"levelo://app?vid=87c1a9b6-7c91-4661-bee6-0fcb509f8584","ios":"levelo://app?vid=87c1a9b6-7c91-4661-bee6-0fcb509f8584"},"vehicle_type_id":"4","last_reported":1719245356,"current_range_meters":14800,"station_id":"","pricing_plan_id":"cebpf4jnsgd1na2vs0mg"},{"bike_id":"c08db25d-12e4-4eda-8598-b89146388e8e","system_id":"levelo_inurba_marseille","lat":43.305364,"lon":5.384119,"is_reserved":false,"is_disabled":false,"rental_uris":{"android":"levelo://app?vid=c08db25d-12e4-4eda-8598-b89146388e8e","ios":"levelo://app?vid=c08db25d-12e4-4eda-8598-b89146388e8e"},"vehicle_type_id":"4","last_reported":1719245356,"current_range_meters":400,"station_id":"ce4bgg92rcd13ifvqb30","pricing_plan_id":"cebpf4jnsgd1na2vs0mg"},{"bike_id":"408288e1-e5f5-4cae-b20f-ce115468dc34","system_id":"levelo_inurba_marseille","lat":43.298433,"lon":5.362774,"is_reserved":false,"is_disabled":false,"rental_uris":{"android":"levelo://app?vid=408288e1-e5f5-4cae-b20f-ce115468dc34","ios":"levelo://app?vid=408288e1-e5f5-4cae-b20f-ce115468dc34"},"vehicle_type_id":"4","last_reported":1719245356,"current_range_meters":26400,"station_id":"ce4bgpp2rcd13ifvqc3g","pricing_plan_id":"cebpf4jnsgd1na2vs0mg"},{"bike_id":"40c61b71-877a-4ff8-bb39-cd8cbad60bb4","system_id":"levelo_inurba_marseille","lat":43.30943,"lon":5.38637,"is_reserved":false,"is_disabled":false,"rental_uris":{"android":"levelo://app?vid=40c61b71-877a-4ff8-bb39-cd8cbad60bb4","ios":"levelo://app?vid=40c61b71-877a-4ff8-bb39-cd8cbad60bb4"},"vehicle_type_id":"4","last_reported":1719245356,"current_range_meters":26000,"station_id":"","pricing_plan_id":"cebpf4jnsgd1na2vs0mg"},{"bike_id":"812ab629-141f-4eec-b75e-967dd2032e54","system_id":"levelo_inurba_marseille","lat":43.298433,"lon":5.362774,"is_reserved":false,"is_disabled":false,"rental_uris":{"android":"levelo://app?vid=812ab629-141f-4eec-b75e-967dd2032e54","ios":"levelo://app?vid=812ab629-141f-4eec-b75e-967dd2032e54"},"vehicle_type_id":"4","last_reported":1719245356,"current_range_meters":21200,"station_id":"ce4bgpp2rcd13ifvqc3g","pricing_plan_id":"cebpf4jnsgd1na2vs0mg"},{"bike_id":"07e4bf58-6d25-41fe-9c6c-b8964336dd53","system_id":"levelo_inurba_marseille","lat":43.29845,"lon":5.36263,"is_reserved":false,"is_disabled":false,"rental_uris":{"android":"levelo://app?vid=07e4bf58-6d25-41fe-9c6c-b8964336dd53","ios":"levelo://app?vid=07e4bf58-6d25-41fe-9c6c-b8964336dd53"},"vehicle_type_id":"4","last_reported":1719245356,"current_range_meters":12800,"station_id":"ce4bgpp2rcd13ifvqc3g","pricing_plan_id":"cebpf4jnsgd1na2vs0mg"},{"bike_id":"1661421f-75fd-442f-9e38-68bcd2bfb09a","system_id":"levelo_inurba_marseille","lat":43.299243,"lon":5.37481,"is_reserved":false,"is_disabled":false,"rental_uris":{"android":"levelo://app?vid=1661421f-75fd-442f-9e38-68bcd2bfb09a","ios":"levelo://app?vid=1661421f-75fd-442f-9e38-68bcd2bfb09a"},"vehicle_type_id":"4","last_reported":1719245356,"current_range_meters":21600,"station_id":"ce4bgjh2rcd13ifvqbg0","pricing_plan_id":"cebpf4jnsgd1na2vs0mg"},{"bike_id":"3d45fa9a-a797-47ae-8920-e572a1ef622d","system_id":"levelo_inurba_marseille","lat":43.299243,"lon":5.37481,"is_reserved":false,"is_disabled":false,"rental_uris":{"android":"levelo://app?vid=3d45fa9a-a797-47ae-8920-e572a1ef622d","ios":"levelo://app?vid=3d45fa9a-a797-47ae-8920-e572a1ef622d"},"vehicle_type_id":"4","last_reported":1719245356,"current_range_meters":8000,"station_id":"ce4bgjh2rcd13ifvqbg0","pricing_plan_id":"cebpf4jnsgd1na2vs0mg"},{"bike_id":"de15eb35-9a72-4513-b9b1-9d70e26e4f8e","system_id":"levelo_inurba_marseille","lat":43.322872,"lon":5.382756,"is_reserved":false,"is_disabled":false,"rental_uris":{"android":"levelo://app?vid=de15eb35-9a72-4513-b9b1-9d70e26e4f8e","ios":"levelo://app?vid=de15eb35-9a72-4513-b9b1-9d70e26e4f8e"},"vehicle_type_id":"4","last_reported":1719245356,"current_range_meters":30400,"station_id":"ce4bhr12rcd13ifvqhqg","pricing_plan_id":"cebpf4jnsgd1na2vs0mg"},{"bike_id":"cdd80cad-798d-4d47-a526-7ae149bfe247","system_id":"levelo_inurba_marseille","lat":43.322872,"lon":5.382756,"is_reserved":false,"is_disabled":false,"rental_uris":{"android":"levelo://app?vid=cdd80cad-798d-4d47-a526-7ae149bfe247","ios":"levelo://app?vid=cdd80cad-798d-4d47-a526-7ae149bfe247"},"vehicle_type_id":"4","last_reported":1719245356,"current_range_meters":11200,"station_id":"ce4bhr12rcd13ifvqhqg","pricing_plan_id":"cebpf4jnsgd1na2vs0mg"},{"bike_id":"05b83076-1300-46c1-a976-3085970b2823","system_id":"levelo_inurba_marseille","lat":43.297163,"lon":5.365866,"is_reserved":false,"is_disabled":false,"rental_uris":{"android":"levelo://app?vid=05b83076-1300-46c1-a976-3085970b2823","ios":"levelo://app?vid=05b83076-1300-46c1-a976-3085970b2823"},"vehicle_type_id":"4","last_reported":1719245356,"current_range_meters":0,"station_id":"ce4bgn12rcd13ifvqbt0","pricing_plan_id":"cebpf4jnsgd1na2vs0mg"},{"bike_id":"c067aab4-744a-4972-b9b8-e24650f71b3e","system_id":"levelo_inurba_marseille","lat":43.29706,"lon":5.36618,"is_reserved":false,"is_disabled":false,"rental_uris":{"android":"levelo://app?vid=c067aab4-744a-4972-b9b8-e24650f71b3e","ios":"levelo://app?vid=c067aab4-744a-4972-b9b8-e24650f71b3e"},"vehicle_type_id":"4","last_reported":1719245356,"current_range_meters":0,"station_id":"ce4bgn12rcd13ifvqbt0","pricing_plan_id":"cebpf4jnsgd1na2vs0mg"},{"bike_id":"bfec5599-ed18-457e-a7fd-03e080621a5a","system_id":"levelo_inurba_marseille","lat":43.296129,"lon":5.370777,"is_reserved":false,"is_disabled":false,"rental_uris":{"android":"levelo://app?vid=bfec5599-ed18-457e-a7fd-03e080621a5a","ios":"levelo://app?vid=bfec5599-ed18-457e-a7fd-03e080621a5a"},"vehicle_type_id":"4","last_reported":1719245356,"current_range_meters":0,"station_id":"ce4bgnh2rcd13ifvqc0g","pricing_plan_id":"cebpf4jnsgd1na2vs0mg"},{"bike_id":"a47745f5-b58b-40cc-a167-ed5c09c4cc1b","system_id":"levelo_inurba_marseille","lat":43.299028,"lon":5.381509,"is_reserved":false,"is_disabled":false,"rental_uris":{"android":"levelo://app?vid=a47745f5-b58b-40cc-a167-ed5c09c4cc1b","ios":"levelo://app?vid=a47745f5-b58b-40cc-a167-ed5c09c4cc1b"},"vehicle_type_id":"4","last_reported":1719245356,"current_range_meters":0,"station_id":"ce4bgj12rcd13ifvqbc0","pricing_plan_id":"cebpf4jnsgd1na2vs0mg"},{"bike_id":"7b092b32-2be3-4285-a34b-34e97fae7be3","system_id":"levelo_inurba_marseille","lat":43.29906,"lon":5.38141,"is_reserved":false,"is_disabled":false,"rental_uris":{"android":"levelo://app?vid=7b092b32-2be3-4285-a34b-34e97fae7be3","ios":"levelo://app?vid=7b092b32-2be3-4285-a34b-34e97fae7be3"},"vehicle_type_id":"4","last_reported":1719245356,"current_range_meters":18400,"station_id":"ce4bgj12rcd13ifvqbc0","pricing_plan_id":"cebpf4jnsgd1na2vs0mg"},{"bike_id":"a39e56e4-0e5d-4bea-b3a7-66145b2a83cc","system_id":"levelo_inurba_marseille","lat":43.309589,"lon":5.390258,"is_reserved":false,"is_disabled":false,"rental_uris":{"android":"levelo://app?vid=a39e56e4-0e5d-4bea-b3a7-66145b2a83cc","ios":"levelo://app?vid=a39e56e4-0e5d-4bea-b3a7-66145b2a83cc"},"vehicle_type_id":"4","last_reported":1719245356,"current_range_meters":26000,"station_id":"ce4bgup2rcd13ifvqco0","pricing_plan_id":"cebpf4jnsgd1na2vs0mg"},{"bike_id":"9eb74ee6-df37-4fbd-944a-36b98a608b16","system_id":"levelo_inurba_marseille","lat":43.296935,"lon":5.376544,"is_reserved":false,"is_disabled":false,"rental_uris":{"android":"levelo://app?vid=9eb74ee6-df37-4fbd-944a-36b98a608b16","ios":"levelo://app?vid=9eb74ee6-df37-4fbd-944a-36b98a608b16"},"vehicle_type_id":"4","last_reported":1719245356,"current_range_meters":27600,"station_id":"ce4bgkh2rcd13ifvqbl0","pricing_plan_id":"cebpf4jnsgd1na2vs0mg"},{"bike_id":"b13b69af-7a42-4121-83ff-ee3f154bc9ad","system_id":"levelo_inurba_marseille","lat":43.317557,"lon":5.390173,"is_reserved":false,"is_disabled":false,"rental_uris":{"android":"levelo://app?vid=b13b69af-7a42-4121-83ff-ee3f154bc9ad","ios":"levelo://app?vid=b13b69af-7a42-4121-83ff-ee3f154bc9ad"},"vehicle_type_id":"4","last_reported":1719245356,"current_range_meters":5200,"station_id":"ce4bhqp2rcd13ifvqhng","pricing_plan_id":"cebpf4jnsgd1na2vs0mg"},{"bike_id":"03e25e2c-24ae-4f84-95a1-34c45eb8dd4f","system_id":"levelo_inurba_marseille","lat":43.298037,"lon":5.381066,"is_reserved":false,"is_disabled":false,"rental_uris":{"android":"levelo://app?vid=03e25e2c-24ae-4f84-95a1-34c45eb8dd4f","ios":"levelo://app?vid=03e25e2c-24ae-4f84-95a1-34c45eb8dd4f"},"vehicle_type_id":"4","last_reported":1719245356,"current_range_meters":22400,"station_id":"ce4bgip2rcd13ifvqbb0","pricing_plan_id":"cebpf4jnsgd1na2vs0mg"},{"bike_id":"ebdb03d7-69d2-4868-8f15-e70b13a3ef1b","system_id":"levelo_inurba_marseille","lat":43.304274,"lon":5.388873,"is_reserved":false,"is_disabled":false,"rental_uris":{"android":"levelo://app?vid=ebdb03d7-69d2-4868-8f15-e70b13a3ef1b","ios":"levelo://app?vid=ebdb03d7-69d2-4868-8f15-e70b13a3ef1b"},"vehicle_type_id":"4","last_reported":1719245356,"current_range_meters":31600,"station_id":"ce4bgk12rcd13ifvqbi0","pricing_plan_id":"cebpf4jnsgd1na2vs0mg"},{"bike_id":"7416e093-5b79-4ed2-8d05-d0cf03727856","system_id":"levelo_inurba_marseille","lat":43.29567,"lon":5.37508,"is_reserved":false,"is_disabled":false,"rental_uris":{"android":"levelo://app?vid=7416e093-5b79-4ed2-8d05-d0cf03727856","ios":"levelo://app?vid=7416e093-5b79-4ed2-8d05-d0cf03727856"},"vehicle_type_id":"4","last_reported":1719245356,"current_range_meters":0,"station_id":"ce4bgh92rcd13ifvqb50","pricing_plan_id":"cebpf4jnsgd1na2vs0mg"},{"bike_id":"1767881b-9f3f-4255-a8ad-cdd4f96b3cf3","system_id":"levelo_inurba_marseille","lat":43.30433,"lon":5.38894,"is_reserved":false,"is_disabled":false,"rental_uris":{"android":"levelo://app?vid=1767881b-9f3f-4255-a8ad-cdd4f96b3cf3","ios":"levelo://app?vid=1767881b-9f3f-4255-a8ad-cdd4f96b3cf3"},"vehicle_type_id":"4","last_reported":1719245356,"current_range_meters":0,"station_id":"ce4bgk12rcd13ifvqbi0","pricing_plan_id":"cebpf4jnsgd1na2vs0mg"},{"bike_id":"a43ec2ef-7a45-4289-94c1-276dcbd7a159","system_id":"levelo_inurba_marseille","lat":43.302105,"lon":5.388168,"is_reserved":false,"is_disabled":false,"rental_uris":{"android":"levelo://app?vid=a43ec2ef-7a45-4289-94c1-276dcbd7a159","ios":"levelo://app?vid=a43ec2ef-7a45-4289-94c1-276dcbd7a159"},"vehicle_type_id":"4","last_reported":1719245356,"current_range_meters":20800,"station_id":"","pricing_plan_id":"cebpf4jnsgd1na2vs0mg"},{"bike_id":"a90725d7-93c6-41f6-a68a-141871cba3f7","system_id":"levelo_inurba_marseille","lat":43.29602,"lon":5.381084,"is_reserved":false,"is_disabled":false,"rental_uris":{"android":"levelo://app?vid=a90725d7-93c6-41f6-a68a-141871cba3f7","ios":"levelo://app?vid=a90725d7-93c6-41f6-a68a-141871cba3f7"},"vehicle_type_id":"4","last_reported":1719245356,"current_range_meters":3200,"station_id":"ce4bgl12rcd13ifvqbo0","pricing_plan_id":"cebpf4jnsgd1na2vs0mg"},{"bike_id":"8d8668bf-5d89-404a-b00e-fe3c3a4f8fed","system_id":"levelo_inurba_marseille","lat":43.29602,"lon":5.381084,"is_reserved":false,"is_disabled":false,"rental_uris":{"android":"levelo://app?vid=8d8668bf-5d89-404a-b00e-fe3c3a4f8fed","ios":"levelo://app?vid=8d8668bf-5d89-404a-b00e-fe3c3a4f8fed"},"vehicle_type_id":"4","last_reported":1719245356,"current_range_meters":18000,"station_id":"ce4bgl12rcd13ifvqbo0","pricing_plan_id":"cebpf4jnsgd1na2vs0mg"},{"bike_id":"f677470e-219b-4de0-acd0-6fff2a9ea935","system_id":"levelo_inurba_marseille","lat":43.29309,"lon":5.3697,"is_reserved":false,"is_disabled":false,"rental_uris":{"android":"levelo://app?vid=f677470e-219b-4de0-acd0-6fff2a9ea935","ios":"levelo://app?vid=f677470e-219b-4de0-acd0-6fff2a9ea935"},"vehicle_type_id":"4","last_reported":1719245356,"current_range_meters":22400,"station_id":"","pricing_plan_id":"cebpf4jnsgd1na2vs0mg"},{"bike_id":"109c596d-427d-40c7-9e19-0afa1de7a719","system_id":"levelo_inurba_marseille","lat":43.29309,"lon":5.36972,"is_reserved":false,"is_disabled":false,"rental_uris":{"android":"levelo://app?vid=109c596d-427d-40c7-9e19-0afa1de7a719","ios":"levelo://app?vid=109c596d-427d-40c7-9e19-0afa1de7a719"},"vehicle_type_id":"4","last_reported":1719245356,"current_range_meters":0,"station_id":"","pricing_plan_id":"cebpf4jnsgd1na2vs0mg"},{"bike_id":"e0733fe0-a493-4e23-969c-e0ca2cd4dc60","system_id":"levelo_inurba_marseille","lat":43.292749,"lon":5.368402,"is_reserved":false,"is_disabled":false,"rental_uris":{"android":"levelo://app?vid=e0733fe0-a493-4e23-969c-e0ca2cd4dc60","ios":"levelo://app?vid=e0733fe0-a493-4e23-969c-e0ca2cd4dc60"},"vehicle_type_id":"4","last_reported":1719245356,"current_range_meters":25600,"station_id":"ce4bhbp2rcd13ifvqesg","pricing_plan_id":"cebpf4jnsgd1na2vs0mg"},{"bike_id":"9c3999ba-6f46-4907-9543-a56d585c7202","system_id":"levelo_inurba_marseille","lat":43.292749,"lon":5.368402,"is_reserved":false,"is_disabled":false,"rental_uris":{"android":"levelo://app?vid=9c3999ba-6f46-4907-9543-a56d585c7202","ios":"levelo://app?vid=9c3999ba-6f46-4907-9543-a56d585c7202"},"vehicle_type_id":"4","last_reported":1719245356,"current_range_meters":31200,"station_id":"ce4bhbp2rcd13ifvqesg","pricing_plan_id":"cebpf4jnsgd1na2vs0mg"},{"bike_id":"83e6aa48-8761-4bc0-8594-c68f94665bf7","system_id":"levelo_inurba_marseille","lat":43.29303,"lon":5.37463,"is_reserved":false,"is_disabled":false,"rental_uris":{"android":"levelo://app?vid=83e6aa48-8761-4bc0-8594-c68f94665bf7","ios":"levelo://app?vid=83e6aa48-8761-4bc0-8594-c68f94665bf7"},"vehicle_type_id":"4","last_reported":1719245356,"current_range_meters":0,"station_id":"ce4bgi12rcd13ifvqb70","pricing_plan_id":"cebpf4jnsgd1na2vs0mg"},{"bike_id":"bf888784-b5cc-4e2e-9e25-09ba124cb023","system_id":"levelo_inurba_marseille","lat":43.30306,"lon":5.39206,"is_reserved":false,"is_disabled":false,"rental_uris":{"android":"levelo://app?vid=bf888784-b5cc-4e2e-9e25-09ba124cb023","ios":"levelo://app?vid=bf888784-b5cc-4e2e-9e25-09ba124cb023"},"vehicle_type_id":"4","last_reported":1719245356,"current_range_meters":0,"station_id":"ce4bgkh2rcd13ifvqbk0","pricing_plan_id":"cebpf4jnsgd1na2vs0mg"},{"bike_id":"c0174015-8c60-41f4-bacf-7d817e486eb5","system_id":"levelo_inurba_marseille","lat":43.30306,"lon":5.39211,"is_reserved":false,"is_disabled":false,"rental_uris":{"android":"levelo://app?vid=c0174015-8c60-41f4-bacf-7d817e486eb5","ios":"levelo://app?vid=c0174015-8c60-41f4-bacf-7d817e486eb5"},"vehicle_type_id":"4","last_reported":1719245356,"current_range_meters":0,"station_id":"ce4bgkh2rcd13ifvqbk0","pricing_plan_id":"cebpf4jnsgd1na2vs0mg"},{"bike_id":"f6ac26ad-a540-4449-af20-2571ad4291fd","system_id":"levelo_inurba_marseille","lat":43.302992,"lon":5.392136,"is_reserved":false,"is_disabled":false,"rental_uris":{"android":"levelo://app?vid=f6ac26ad-a540-4449-af20-2571ad4291fd","ios":"levelo://app?vid=f6ac26ad-a540-4449-af20-2571ad4291fd"},"vehicle_type_id":"4","last_reported":1719245356,"current_range_meters":2000,"station_id":"ce4bgkh2rcd13ifvqbk0","pricing_plan_id":"cebpf4jnsgd1na2vs0mg"},{"bike_id":"01bb883f-a950-4977-8598-50d85e2c9f1c","system_id":"levelo_inurba_marseille","lat":43.29379,"lon":5.37852,"is_reserved":false,"is_disabled":false,"rental_uris":{"android":"levelo://app?vid=01bb883f-a950-4977-8598-50d85e2c9f1c","ios":"levelo://app?vid=01bb883f-a950-4977-8598-50d85e2c9f1c"},"vehicle_type_id":"4","last_reported":1719245356,"current_range_meters":12800,"station_id":"ce4bgjh2rcd13ifvqbf0","pricing_plan_id":"cebpf4jnsgd1na2vs0mg"},{"bike_id":"3a021433-9fd2-45f7-9bbc-abcba6ed8ed3","system_id":"levelo_inurba_marseille","lat":43.30296,"lon":5.39216,"is_reserved":false,"is_disabled":false,"rental_uris":{"android":"levelo://app?vid=3a021433-9fd2-45f7-9bbc-abcba6ed8ed3","ios":"levelo://app?vid=3a021433-9fd2-45f7-9bbc-abcba6ed8ed3"},"vehicle_type_id":"4","last_reported":1719245356,"current_range_meters":0,"station_id":"ce4bgkh2rcd13ifvqbk0","pricing_plan_id":"cebpf4jnsgd1na2vs0mg"},{"bike_id":"5cd908dc-316f-4c2e-848a-15bc679c3876","system_id":"levelo_inurba_marseille","lat":43.30085,"lon":5.390856,"is_reserved":false,"is_disabled":false,"rental_uris":{"android":"levelo://app?vid=5cd908dc-316f-4c2e-848a-15bc679c3876","ios":"levelo://app?vid=5cd908dc-316f-4c2e-848a-15bc679c3876"},"vehicle_type_id":"4","last_reported":1719245356,"current_range_meters":29600,"station_id":"ce4bh192rcd13ifvqdb0","pricing_plan_id":"cebpf4jnsgd1na2vs0mg"},{"bike_id":"2d0a5b45-3e74-4831-b27e-8cfe59ce416f","system_id":"levelo_inurba_marseille","lat":43.30085,"lon":5.390856,"is_reserved":false,"is_disabled":false,"rental_uris":{"android":"levelo://app?vid=2d0a5b45-3e74-4831-b27e-8cfe59ce416f","ios":"levelo://app?vid=2d0a5b45-3e74-4831-b27e-8cfe59ce416f"},"vehicle_type_id":"4","last_reported":1719245356,"current_range_meters":7200,"station_id":"ce4bh192rcd13ifvqdb0","pricing_plan_id":"cebpf4jnsgd1na2vs0mg"},{"bike_id":"bad1353a-3540-4e16-8f81-c4064c20f1d6","system_id":"levelo_inurba_marseille","lat":43.2926,"lon":5.3762,"is_reserved":false,"is_disabled":false,"rental_uris":{"android":"levelo://app?vid=bad1353a-3540-4e16-8f81-c4064c20f1d6","ios":"levelo://app?vid=bad1353a-3540-4e16-8f81-c4064c20f1d6"},"vehicle_type_id":"4","last_reported":1719245356,"current_range_meters":0,"station_id":"","pricing_plan_id":"cebpf4jnsgd1na2vs0mg"},{"bike_id":"5c20bc65-b53b-4c79-8b18-999005b3d683","system_id":"levelo_inurba_marseille","lat":43.298764,"lon":5.388973,"is_reserved":false,"is_disabled":false,"rental_uris":{"android":"levelo://app?vid=5c20bc65-b53b-4c79-8b18-999005b3d683","ios":"levelo://app?vid=5c20bc65-b53b-4c79-8b18-999005b3d683"},"vehicle_type_id":"4","last_reported":1719245356,"current_range_meters":15200,"station_id":"ce4bh392rcd13ifvqdl0","pricing_plan_id":"cebpf4jnsgd1na2vs0mg"},{"bike_id":"4c6d9180-ae04-41aa-ae28-697cdb8918aa","system_id":"levelo_inurba_marseille","lat":43.291675,"lon":5.371583,"is_reserved":false,"is_disabled":false,"rental_uris":{"android":"levelo://app?vid=4c6d9180-ae04-41aa-ae28-697cdb8918aa","ios":"levelo://app?vid=4c6d9180-ae04-41aa-ae28-697cdb8918aa"},"vehicle_type_id":"4","last_reported":1719245356,"current_range_meters":6400,"station_id":"ce4bha92rcd13ifvqeh0","pricing_plan_id":"cebpf4jnsgd1na2vs0mg"},{"bike_id":"8ecdb498-04b1-4118-aaf8-e101e246964a","system_id":"levelo_inurba_marseille","lat":43.33201,"lon":5.38085,"is_reserved":false,"is_disabled":false,"rental_uris":{"android":"levelo://app?vid=8ecdb498-04b1-4118-aaf8-e101e246964a","ios":"levelo://app?vid=8ecdb498-04b1-4118-aaf8-e101e246964a"},"vehicle_type_id":"4","last_reported":1719245356,"current_range_meters":0,"station_id":"","pricing_plan_id":"cebpf4jnsgd1na2vs0mg"},{"bike_id":"eee34a1e-39fa-44c4-bc2b-feda6795f782","system_id":"levelo_inurba_marseille","lat":43.313291,"lon":5.396838,"is_reserved":false,"is_disabled":false,"rental_uris":{"android":"levelo://app?vid=eee34a1e-39fa-44c4-bc2b-feda6795f782","ios":"levelo://app?vid=eee34a1e-39fa-44c4-bc2b-feda6795f782"},"vehicle_type_id":"4","last_reported":1719245356,"current_range_meters":15600,"station_id":"ce4bgvp2rcd13ifvqcu0","pricing_plan_id":"cebpf4jnsgd1na2vs0mg"},{"bike_id":"1179caf8-097c-4423-a5a0-60103ad9f6bf","system_id":"levelo_inurba_marseille","lat":43.313291,"lon":5.396838,"is_reserved":false,"is_disabled":false,"rental_uris":{"android":"levelo://app?vid=1179caf8-097c-4423-a5a0-60103ad9f6bf","ios":"levelo://app?vid=1179caf8-097c-4423-a5a0-60103ad9f6bf"},"vehicle_type_id":"4","last_reported":1719245356,"current_range_meters":2800,"station_id":"ce4bgvp2rcd13ifvqcu0","pricing_plan_id":"cebpf4jnsgd1na2vs0mg"},{"bike_id":"de345759-ef48-43cd-b13a-f055fe5f1476","system_id":"levelo_inurba_marseille","lat":43.313291,"lon":5.396838,"is_reserved":false,"is_disabled":false,"rental_uris":{"android":"levelo://app?vid=de345759-ef48-43cd-b13a-f055fe5f1476","ios":"levelo://app?vid=de345759-ef48-43cd-b13a-f055fe5f1476"},"vehicle_type_id":"4","last_reported":1719245356,"current_range_meters":400,"station_id":"ce4bgvp2rcd13ifvqcu0","pricing_plan_id":"cebpf4jnsgd1na2vs0mg"},{"bike_id":"fc092268-5dbe-452f-abdb-79e4839b02fa","system_id":"levelo_inurba_marseille","lat":43.313291,"lon":5.396838,"is_reserved":false,"is_disabled":false,"rental_uris":{"android":"levelo://app?vid=fc092268-5dbe-452f-abdb-79e4839b02fa","ios":"levelo://app?vid=fc092268-5dbe-452f-abdb-79e4839b02fa"},"vehicle_type_id":"4","last_reported":1719245356,"current_range_meters":28800,"station_id":"ce4bgvp2rcd13ifvqcu0","pricing_plan_id":"cebpf4jnsgd1na2vs0mg"},{"bike_id":"81b4d5e6-1842-4ee3-8da9-6ad0850f56ec","system_id":"levelo_inurba_marseille","lat":43.309047,"lon":5.396551,"is_reserved":false,"is_disabled":false,"rental_uris":{"android":"levelo://app?vid=81b4d5e6-1842-4ee3-8da9-6ad0850f56ec","ios":"levelo://app?vid=81b4d5e6-1842-4ee3-8da9-6ad0850f56ec"},"vehicle_type_id":"4","last_reported":1719245356,"current_range_meters":4000,"station_id":"ce4bh012rcd13ifvqcv0","pricing_plan_id":"cebpf4jnsgd1na2vs0mg"},{"bike_id":"e376b2fc-34a4-4963-b433-da351336e851","system_id":"levelo_inurba_marseille","lat":43.309047,"lon":5.396551,"is_reserved":false,"is_disabled":false,"rental_uris":{"android":"levelo://app?vid=e376b2fc-34a4-4963-b433-da351336e851","ios":"levelo://app?vid=e376b2fc-34a4-4963-b433-da351336e851"},"vehicle_type_id":"4","last_reported":1719245356,"current_range_meters":2400,"station_id":"ce4bh012rcd13ifvqcv0","pricing_plan_id":"cebpf4jnsgd1na2vs0mg"},{"bike_id":"1b6a55d5-46ef-4a2a-99ad-809948626faa","system_id":"levelo_inurba_marseille","lat":43.313291,"lon":5.396838,"is_reserved":false,"is_disabled":false,"rental_uris":{"android":"levelo://app?vid=1b6a55d5-46ef-4a2a-99ad-809948626faa","ios":"levelo://app?vid=1b6a55d5-46ef-4a2a-99ad-809948626faa"},"vehicle_type_id":"4","last_reported":1719245356,"current_range_meters":9200,"station_id":"ce4bgvp2rcd13ifvqcu0","pricing_plan_id":"cebpf4jnsgd1na2vs0mg"},{"bike_id":"f090f30a-f2da-4cce-a029-a3b078febb25","system_id":"levelo_inurba_marseille","lat":43.29529,"lon":5.385581,"is_reserved":false,"is_disabled":false,"rental_uris":{"android":"levelo://app?vid=f090f30a-f2da-4cce-a029-a3b078febb25","ios":"levelo://app?vid=f090f30a-f2da-4cce-a029-a3b078febb25"},"vehicle_type_id":"4","last_reported":1719245356,"current_range_meters":22000,"station_id":"ce4bgih2rcd13ifvqba0","pricing_plan_id":"cebpf4jnsgd1na2vs0mg"},{"bike_id":"462de214-a963-48cd-b7a9-75ee43e0b91c","system_id":"levelo_inurba_marseille","lat":43.29529,"lon":5.385581,"is_reserved":false,"is_disabled":false,"rental_uris":{"android":"levelo://app?vid=462de214-a963-48cd-b7a9-75ee43e0b91c","ios":"levelo://app?vid=462de214-a963-48cd-b7a9-75ee43e0b91c"},"vehicle_type_id":"4","last_reported":1719245356,"current_range_meters":4400,"station_id":"ce4bgih2rcd13ifvqba0","pricing_plan_id":"cebpf4jnsgd1na2vs0mg"},{"bike_id":"cf90dc61-ae84-4bf6-87a4-e096dbf3aaa7","system_id":"levelo_inurba_marseille","lat":43.29529,"lon":5.385581,"is_reserved":false,"is_disabled":false,"rental_uris":{"android":"levelo://app?vid=cf90dc61-ae84-4bf6-87a4-e096dbf3aaa7","ios":"levelo://app?vid=cf90dc61-ae84-4bf6-87a4-e096dbf3aaa7"},"vehicle_type_id":"4","last_reported":1719245356,"current_range_meters":0,"station_id":"ce4bgih2rcd13ifvqba0","pricing_plan_id":"cebpf4jnsgd1na2vs0mg"},{"bike_id":"4ca947a5-20fa-4558-9afc-abd0683230f9","system_id":"levelo_inurba_marseille","lat":43.29529,"lon":5.385581,"is_reserved":false,"is_disabled":false,"rental_uris":{"android":"levelo://app?vid=4ca947a5-20fa-4558-9afc-abd0683230f9","ios":"levelo://app?vid=4ca947a5-20fa-4558-9afc-abd0683230f9"},"vehicle_type_id":"4","last_reported":1719245356,"current_range_meters":1600,"station_id":"ce4bgih2rcd13ifvqba0","pricing_plan_id":"cebpf4jnsgd1na2vs0mg"},{"bike_id":"b3131fb5-12ca-4fc5-82e9-f59adcbbe563","system_id":"levelo_inurba_marseille","lat":43.290624,"lon":5.359245,"is_reserved":false,"is_disabled":false,"rental_uris":{"android":"levelo://app?vid=b3131fb5-12ca-4fc5-82e9-f59adcbbe563","ios":"levelo://app?vid=b3131fb5-12ca-4fc5-82e9-f59adcbbe563"},"vehicle_type_id":"4","last_reported":1719245356,"current_range_meters":19200,"station_id":"ce4bha92rcd13ifvqeg0","pricing_plan_id":"cebpf4jnsgd1na2vs0mg"},{"bike_id":"4b5d621b-5adb-42eb-851d-478b94737b26","system_id":"levelo_inurba_marseille","lat":43.302008,"lon":5.394694,"is_reserved":false,"is_disabled":false,"rental_uris":{"android":"levelo://app?vid=4b5d621b-5adb-42eb-851d-478b94737b26","ios":"levelo://app?vid=4b5d621b-5adb-42eb-851d-478b94737b26"},"vehicle_type_id":"4","last_reported":1719245356,"current_range_meters":6800,"station_id":"ce4bh0p2rcd13ifvqd70","pricing_plan_id":"cebpf4jnsgd1na2vs0mg"},{"bike_id":"2b9edeb0-3d66-4c05-81ee-8f756cd951e9","system_id":"levelo_inurba_marseille","lat":43.302008,"lon":5.394694,"is_reserved":false,"is_disabled":false,"rental_uris":{"android":"levelo://app?vid=2b9edeb0-3d66-4c05-81ee-8f756cd951e9","ios":"levelo://app?vid=2b9edeb0-3d66-4c05-81ee-8f756cd951e9"},"vehicle_type_id":"4","last_reported":1719245356,"current_range_meters":7200,"station_id":"ce4bh0p2rcd13ifvqd70","pricing_plan_id":"cebpf4jnsgd1na2vs0mg"},{"bike_id":"49f77af1-c6f1-4ee0-ab03-2f98270aafe1","system_id":"levelo_inurba_marseille","lat":43.30214,"lon":5.39466,"is_reserved":false,"is_disabled":false,"rental_uris":{"android":"levelo://app?vid=49f77af1-c6f1-4ee0-ab03-2f98270aafe1","ios":"levelo://app?vid=49f77af1-c6f1-4ee0-ab03-2f98270aafe1"},"vehicle_type_id":"4","last_reported":1719245356,"current_range_meters":26000,"station_id":"ce4bh0p2rcd13ifvqd70","pricing_plan_id":"cebpf4jnsgd1na2vs0mg"},{"bike_id":"46192092-979c-4beb-9525-d7c8aef43e1e","system_id":"levelo_inurba_marseille","lat":43.302008,"lon":5.394694,"is_reserved":false,"is_disabled":false,"rental_uris":{"android":"levelo://app?vid=46192092-979c-4beb-9525-d7c8aef43e1e","ios":"levelo://app?vid=46192092-979c-4beb-9525-d7c8aef43e1e"},"vehicle_type_id":"4","last_reported":1719245356,"current_range_meters":8000,"station_id":"ce4bh0p2rcd13ifvqd70","pricing_plan_id":"cebpf4jnsgd1na2vs0mg"},{"bike_id":"00d5aa7a-035e-4168-ba8a-454eaa5688b5","system_id":"levelo_inurba_marseille","lat":43.30209,"lon":5.39467,"is_reserved":false,"is_disabled":false,"rental_uris":{"android":"levelo://app?vid=00d5aa7a-035e-4168-ba8a-454eaa5688b5","ios":"levelo://app?vid=00d5aa7a-035e-4168-ba8a-454eaa5688b5"},"vehicle_type_id":"4","last_reported":1719245356,"current_range_meters":28800,"station_id":"ce4bh0p2rcd13ifvqd70","pricing_plan_id":"cebpf4jnsgd1na2vs0mg"},{"bike_id":"0d3e3083-403c-46e2-aef9-d9cc8af2d5e7","system_id":"levelo_inurba_marseille","lat":43.302008,"lon":5.394694,"is_reserved":false,"is_disabled":false,"rental_uris":{"android":"levelo://app?vid=0d3e3083-403c-46e2-aef9-d9cc8af2d5e7","ios":"levelo://app?vid=0d3e3083-403c-46e2-aef9-d9cc8af2d5e7"},"vehicle_type_id":"4","last_reported":1719245356,"current_range_meters":3600,"station_id":"ce4bh0p2rcd13ifvqd70","pricing_plan_id":"cebpf4jnsgd1na2vs0mg"},{"bike_id":"9612d2f7-e6ad-4461-ae76-91fb23311f2a","system_id":"levelo_inurba_marseille","lat":43.302008,"lon":5.394694,"is_reserved":false,"is_disabled":false,"rental_uris":{"android":"levelo://app?vid=9612d2f7-e6ad-4461-ae76-91fb23311f2a","ios":"levelo://app?vid=9612d2f7-e6ad-4461-ae76-91fb23311f2a"},"vehicle_type_id":"4","last_reported":1719245356,"current_range_meters":1600,"station_id":"ce4bh0p2rcd13ifvqd70","pricing_plan_id":"cebpf4jnsgd1na2vs0mg"},{"bike_id":"2b2e1fd2-c82f-455f-ac67-75f0a1c1651e","system_id":"levelo_inurba_marseille","lat":43.290624,"lon":5.359245,"is_reserved":false,"is_disabled":false,"rental_uris":{"android":"levelo://app?vid=2b2e1fd2-c82f-455f-ac67-75f0a1c1651e","ios":"levelo://app?vid=2b2e1fd2-c82f-455f-ac67-75f0a1c1651e"},"vehicle_type_id":"4","last_reported":1719245356,"current_range_meters":2400,"station_id":"ce4bha92rcd13ifvqeg0","pricing_plan_id":"cebpf4jnsgd1na2vs0mg"},{"bike_id":"8c470c78-e38e-45f2-904d-5d4eb2b05ea3","system_id":"levelo_inurba_marseille","lat":43.30588,"lon":5.39734,"is_reserved":false,"is_disabled":false,"rental_uris":{"android":"levelo://app?vid=8c470c78-e38e-45f2-904d-5d4eb2b05ea3","ios":"levelo://app?vid=8c470c78-e38e-45f2-904d-5d4eb2b05ea3"},"vehicle_type_id":"4","last_reported":1719245356,"current_range_meters":2000,"station_id":"","pricing_plan_id":"cebpf4jnsgd1na2vs0mg"},{"bike_id":"b99543f7-409c-43b3-a243-38e6e6aa3ab5","system_id":"levelo_inurba_marseille","lat":43.294153,"lon":5.386305,"is_reserved":false,"is_disabled":false,"rental_uris":{"android":"levelo://app?vid=b99543f7-409c-43b3-a243-38e6e6aa3ab5","ios":"levelo://app?vid=b99543f7-409c-43b3-a243-38e6e6aa3ab5"},"vehicle_type_id":"4","last_reported":1719245356,"current_range_meters":0,"station_id":"ce4bh2h2rcd13ifvqdh0","pricing_plan_id":"cebpf4jnsgd1na2vs0mg"},{"bike_id":"45f1d7c7-05bd-4cfb-8589-1730afe90c98","system_id":"levelo_inurba_marseille","lat":43.294153,"lon":5.386305,"is_reserved":false,"is_disabled":false,"rental_uris":{"android":"levelo://app?vid=45f1d7c7-05bd-4cfb-8589-1730afe90c98","ios":"levelo://app?vid=45f1d7c7-05bd-4cfb-8589-1730afe90c98"},"vehicle_type_id":"4","last_reported":1719245356,"current_range_meters":0,"station_id":"ce4bh2h2rcd13ifvqdh0","pricing_plan_id":"cebpf4jnsgd1na2vs0mg"},{"bike_id":"747b732e-1cbb-48aa-ba59-b09cf590e772","system_id":"levelo_inurba_marseille","lat":43.294153,"lon":5.386305,"is_reserved":false,"is_disabled":false,"rental_uris":{"android":"levelo://app?vid=747b732e-1cbb-48aa-ba59-b09cf590e772","ios":"levelo://app?vid=747b732e-1cbb-48aa-ba59-b09cf590e772"},"vehicle_type_id":"4","last_reported":1719245356,"current_range_meters":14000,"station_id":"ce4bh2h2rcd13ifvqdh0","pricing_plan_id":"cebpf4jnsgd1na2vs0mg"},{"bike_id":"6004ac15-8731-41de-b05a-b5fc4c9c106b","system_id":"levelo_inurba_marseille","lat":43.294162,"lon":5.386292,"is_reserved":false,"is_disabled":false,"rental_uris":{"android":"levelo://app?vid=6004ac15-8731-41de-b05a-b5fc4c9c106b","ios":"levelo://app?vid=6004ac15-8731-41de-b05a-b5fc4c9c106b"},"vehicle_type_id":"4","last_reported":1719245356,"current_range_meters":7200,"station_id":"ce4bh2h2rcd13ifvqdh0","pricing_plan_id":"cebpf4jnsgd1na2vs0mg"},{"bike_id":"26e2f8ec-f953-4d4b-bffd-5694378b67fa","system_id":"levelo_inurba_marseille","lat":43.29417,"lon":5.38625,"is_reserved":false,"is_disabled":false,"rental_uris":{"android":"levelo://app?vid=26e2f8ec-f953-4d4b-bffd-5694378b67fa","ios":"levelo://app?vid=26e2f8ec-f953-4d4b-bffd-5694378b67fa"},"vehicle_type_id":"4","last_reported":1719245356,"current_range_meters":2800,"station_id":"ce4bh2h2rcd13ifvqdh0","pricing_plan_id":"cebpf4jnsgd1na2vs0mg"},{"bike_id":"d639ec98-ed59-4190-97b7-a277b1c1c65d","system_id":"levelo_inurba_marseille","lat":43.29417,"lon":5.386253,"is_reserved":false,"is_disabled":false,"rental_uris":{"android":"levelo://app?vid=d639ec98-ed59-4190-97b7-a277b1c1c65d","ios":"levelo://app?vid=d639ec98-ed59-4190-97b7-a277b1c1c65d"},"vehicle_type_id":"4","last_reported":1719245356,"current_range_meters":8800,"station_id":"ce4bh2h2rcd13ifvqdh0","pricing_plan_id":"cebpf4jnsgd1na2vs0mg"},{"bike_id":"072decb9-62f2-4cd2-af20-4d67b15fc122","system_id":"levelo_inurba_marseille","lat":43.29416,"lon":5.38628,"is_reserved":false,"is_disabled":false,"rental_uris":{"android":"levelo://app?vid=072decb9-62f2-4cd2-af20-4d67b15fc122","ios":"levelo://app?vid=072decb9-62f2-4cd2-af20-4d67b15fc122"},"vehicle_type_id":"4","last_reported":1719245356,"current_range_meters":20400,"station_id":"ce4bh2h2rcd13ifvqdh0","pricing_plan_id":"cebpf4jnsgd1na2vs0mg"},{"bike_id":"d826fbc8-ed1c-453c-9471-2cf7d2ff56c4","system_id":"levelo_inurba_marseille","lat":43.294153,"lon":5.386305,"is_reserved":false,"is_disabled":false,"rental_uris":{"android":"levelo://app?vid=d826fbc8-ed1c-453c-9471-2cf7d2ff56c4","ios":"levelo://app?vid=d826fbc8-ed1c-453c-9471-2cf7d2ff56c4"},"vehicle_type_id":"4","last_reported":1719245356,"current_range_meters":4400,"station_id":"ce4bh2h2rcd13ifvqdh0","pricing_plan_id":"cebpf4jnsgd1na2vs0mg"},{"bike_id":"64459df0-9fc2-491e-878c-0df672f295c8","system_id":"levelo_inurba_marseille","lat":43.289184,"lon":5.366408,"is_reserved":false,"is_disabled":false,"rental_uris":{"android":"levelo://app?vid=64459df0-9fc2-491e-878c-0df672f295c8","ios":"levelo://app?vid=64459df0-9fc2-491e-878c-0df672f295c8"},"vehicle_type_id":"4","last_reported":1719245356,"current_range_meters":6000,"station_id":"ce4bhap2rcd13ifvqek0","pricing_plan_id":"cebpf4jnsgd1na2vs0mg"},{"bike_id":"ad8b309f-8350-405f-88d3-768a5cb52c18","system_id":"levelo_inurba_marseille","lat":43.292642,"lon":5.384254,"is_reserved":false,"is_disabled":false,"rental_uris":{"android":"levelo://app?vid=ad8b309f-8350-405f-88d3-768a5cb52c18","ios":"levelo://app?vid=ad8b309f-8350-405f-88d3-768a5cb52c18"},"vehicle_type_id":"4","last_reported":1719245356,"current_range_meters":0,"station_id":"ce4bh692rcd13ifvqea0","pricing_plan_id":"cebpf4jnsgd1na2vs0mg"},{"bike_id":"312d5051-4cae-472c-b1ad-2d78d36a68b0","system_id":"levelo_inurba_marseille","lat":43.292682,"lon":5.384331,"is_reserved":false,"is_disabled":false,"rental_uris":{"android":"levelo://app?vid=312d5051-4cae-472c-b1ad-2d78d36a68b0","ios":"levelo://app?vid=312d5051-4cae-472c-b1ad-2d78d36a68b0"},"vehicle_type_id":"4","last_reported":1719245356,"current_range_meters":6400,"station_id":"","pricing_plan_id":"cebpf4jnsgd1na2vs0mg"},{"bike_id":"cbf4c855-f8ec-4282-a253-3009344c91ab","system_id":"levelo_inurba_marseille","lat":43.29263,"lon":5.38439,"is_reserved":false,"is_disabled":false,"rental_uris":{"android":"levelo://app?vid=cbf4c855-f8ec-4282-a253-3009344c91ab","ios":"levelo://app?vid=cbf4c855-f8ec-4282-a253-3009344c91ab"},"vehicle_type_id":"4","last_reported":1719245356,"current_range_meters":11200,"station_id":"ce4bh692rcd13ifvqea0","pricing_plan_id":"cebpf4jnsgd1na2vs0mg"},{"bike_id":"9fcc0cba-2ae4-43a8-a0ff-22949d5974ce","system_id":"levelo_inurba_marseille","lat":43.292642,"lon":5.384254,"is_reserved":false,"is_disabled":false,"rental_uris":{"android":"levelo://app?vid=9fcc0cba-2ae4-43a8-a0ff-22949d5974ce","ios":"levelo://app?vid=9fcc0cba-2ae4-43a8-a0ff-22949d5974ce"},"vehicle_type_id":"4","last_reported":1719245356,"current_range_meters":25600,"station_id":"ce4bh692rcd13ifvqea0","pricing_plan_id":"cebpf4jnsgd1na2vs0mg"},{"bike_id":"9ee15a57-7e76-46c2-b494-d0c4a501d9d2","system_id":"levelo_inurba_marseille","lat":43.292642,"lon":5.384254,"is_reserved":false,"is_disabled":false,"rental_uris":{"android":"levelo://app?vid=9ee15a57-7e76-46c2-b494-d0c4a501d9d2","ios":"levelo://app?vid=9ee15a57-7e76-46c2-b494-d0c4a501d9d2"},"vehicle_type_id":"4","last_reported":1719245356,"current_range_meters":4400,"station_id":"ce4bh692rcd13ifvqea0","pricing_plan_id":"cebpf4jnsgd1na2vs0mg"},{"bike_id":"26d91661-e18c-4417-827a-38d7aabb61bd","system_id":"levelo_inurba_marseille","lat":43.290995,"lon":5.381361,"is_reserved":false,"is_disabled":false,"rental_uris":{"android":"levelo://app?vid=26d91661-e18c-4417-827a-38d7aabb61bd","ios":"levelo://app?vid=26d91661-e18c-4417-827a-38d7aabb61bd"},"vehicle_type_id":"4","last_reported":1719245356,"current_range_meters":0,"station_id":"ce4bh512rcd13ifvqe2g","pricing_plan_id":"cebpf4jnsgd1na2vs0mg"},{"bike_id":"98318918-0dbe-4a49-8bdb-b1116ab66855","system_id":"levelo_inurba_marseille","lat":43.290103,"lon":5.356114,"is_reserved":false,"is_disabled":false,"rental_uris":{"android":"levelo://app?vid=98318918-0dbe-4a49-8bdb-b1116ab66855","ios":"levelo://app?vid=98318918-0dbe-4a49-8bdb-b1116ab66855"},"vehicle_type_id":"4","last_reported":1719245356,"current_range_meters":0,"station_id":"ce4bhb92rcd13ifvqen0","pricing_plan_id":"cebpf4jnsgd1na2vs0mg"},{"bike_id":"7733fd13-b3fe-4025-b09e-be152dd2058b","system_id":"levelo_inurba_marseille","lat":43.290104,"lon":5.356111,"is_reserved":false,"is_disabled":false,"rental_uris":{"android":"levelo://app?vid=7733fd13-b3fe-4025-b09e-be152dd2058b","ios":"levelo://app?vid=7733fd13-b3fe-4025-b09e-be152dd2058b"},"vehicle_type_id":"4","last_reported":1719245356,"current_range_meters":31200,"station_id":"ce4bhb92rcd13ifvqen0","pricing_plan_id":"cebpf4jnsgd1na2vs0mg"},{"bike_id":"9c299a4b-0d1d-4844-ba8f-30ebdf875adf","system_id":"levelo_inurba_marseille","lat":43.290104,"lon":5.356111,"is_reserved":false,"is_disabled":false,"rental_uris":{"android":"levelo://app?vid=9c299a4b-0d1d-4844-ba8f-30ebdf875adf","ios":"levelo://app?vid=9c299a4b-0d1d-4844-ba8f-30ebdf875adf"},"vehicle_type_id":"4","last_reported":1719245356,"current_range_meters":4800,"station_id":"ce4bhb92rcd13ifvqen0","pricing_plan_id":"cebpf4jnsgd1na2vs0mg"},{"bike_id":"ae2002ef-7bf4-4695-a616-08c54cd49dee","system_id":"levelo_inurba_marseille","lat":43.290103,"lon":5.356114,"is_reserved":false,"is_disabled":false,"rental_uris":{"android":"levelo://app?vid=ae2002ef-7bf4-4695-a616-08c54cd49dee","ios":"levelo://app?vid=ae2002ef-7bf4-4695-a616-08c54cd49dee"},"vehicle_type_id":"4","last_reported":1719245356,"current_range_meters":0,"station_id":"ce4bhb92rcd13ifvqen0","pricing_plan_id":"cebpf4jnsgd1na2vs0mg"},{"bike_id":"b27824a7-cefa-4b57-a9de-4bd04e7ccb20","system_id":"levelo_inurba_marseille","lat":43.290104,"lon":5.356111,"is_reserved":false,"is_disabled":false,"rental_uris":{"android":"levelo://app?vid=b27824a7-cefa-4b57-a9de-4bd04e7ccb20","ios":"levelo://app?vid=b27824a7-cefa-4b57-a9de-4bd04e7ccb20"},"vehicle_type_id":"4","last_reported":1719245356,"current_range_meters":13600,"station_id":"ce4bhb92rcd13ifvqen0","pricing_plan_id":"cebpf4jnsgd1na2vs0mg"},{"bike_id":"b92a3f86-c982-4bab-b930-dc3b8ce9e587","system_id":"levelo_inurba_marseille","lat":43.290103,"lon":5.356114,"is_reserved":false,"is_disabled":false,"rental_uris":{"android":"levelo://app?vid=b92a3f86-c982-4bab-b930-dc3b8ce9e587","ios":"levelo://app?vid=b92a3f86-c982-4bab-b930-dc3b8ce9e587"},"vehicle_type_id":"4","last_reported":1719245356,"current_range_meters":0,"station_id":"ce4bhb92rcd13ifvqen0","pricing_plan_id":"cebpf4jnsgd1na2vs0mg"},{"bike_id":"1c1d7a06-3d2d-44d9-87c3-6738ac26ab11","system_id":"levelo_inurba_marseille","lat":43.290277,"lon":5.379461,"is_reserved":false,"is_disabled":false,"rental_uris":{"android":"levelo://app?vid=1c1d7a06-3d2d-44d9-87c3-6738ac26ab11","ios":"levelo://app?vid=1c1d7a06-3d2d-44d9-87c3-6738ac26ab11"},"vehicle_type_id":"4","last_reported":1719245356,"current_range_meters":800,"station_id":"","pricing_plan_id":"cebpf4jnsgd1na2vs0mg"},{"bike_id":"f5121fa3-445a-41d7-b292-c0baf5daad95","system_id":"levelo_inurba_marseille","lat":43.289743,"lon":5.378304,"is_reserved":false,"is_disabled":false,"rental_uris":{"android":"levelo://app?vid=f5121fa3-445a-41d7-b292-c0baf5daad95","ios":"levelo://app?vid=f5121fa3-445a-41d7-b292-c0baf5daad95"},"vehicle_type_id":"4","last_reported":1719245356,"current_range_meters":13600,"station_id":"ce4bh9p2rcd13ifvqed0","pricing_plan_id":"cebpf4jnsgd1na2vs0mg"},{"bike_id":"8f07fab1-aecb-4794-803a-7f66e2e14b37","system_id":"levelo_inurba_marseille","lat":43.330442,"lon":5.389148,"is_reserved":false,"is_disabled":false,"rental_uris":{"android":"levelo://app?vid=8f07fab1-aecb-4794-803a-7f66e2e14b37","ios":"levelo://app?vid=8f07fab1-aecb-4794-803a-7f66e2e14b37"},"vehicle_type_id":"4","last_reported":1719245356,"current_range_meters":30800,"station_id":"ce4bhr92rcd13ifvqhrg","pricing_plan_id":"cebpf4jnsgd1na2vs0mg"},{"bike_id":"92f506b4-3cd0-4722-a19f-eab621ccd242","system_id":"levelo_inurba_marseille","lat":43.289743,"lon":5.378304,"is_reserved":false,"is_disabled":false,"rental_uris":{"android":"levelo://app?vid=92f506b4-3cd0-4722-a19f-eab621ccd242","ios":"levelo://app?vid=92f506b4-3cd0-4722-a19f-eab621ccd242"},"vehicle_type_id":"4","last_reported":1719245356,"current_range_meters":10400,"station_id":"ce4bh9p2rcd13ifvqed0","pricing_plan_id":"cebpf4jnsgd1na2vs0mg"},{"bike_id":"bc373b7d-04cb-4d3f-8b20-800b89af9a0b","system_id":"levelo_inurba_marseille","lat":43.29525,"lon":5.39028,"is_reserved":false,"is_disabled":false,"rental_uris":{"android":"levelo://app?vid=bc373b7d-04cb-4d3f-8b20-800b89af9a0b","ios":"levelo://app?vid=bc373b7d-04cb-4d3f-8b20-800b89af9a0b"},"vehicle_type_id":"4","last_reported":1719245356,"current_range_meters":0,"station_id":"ce4bh3p2rcd13ifvqdp0","pricing_plan_id":"cebpf4jnsgd1na2vs0mg"},{"bike_id":"9fa70608-159f-40f8-aec6-ac35b41dbb22","system_id":"levelo_inurba_marseille","lat":43.330223,"lon":5.390363,"is_reserved":false,"is_disabled":false,"rental_uris":{"android":"levelo://app?vid=9fa70608-159f-40f8-aec6-ac35b41dbb22","ios":"levelo://app?vid=9fa70608-159f-40f8-aec6-ac35b41dbb22"},"vehicle_type_id":"4","last_reported":1719245356,"current_range_meters":2400,"station_id":"ce4bhr92rcd13ifvqhrg","pricing_plan_id":"cebpf4jnsgd1na2vs0mg"},{"bike_id":"72ae703c-30a1-4c2c-8ae5-583754212e83","system_id":"levelo_inurba_marseille","lat":43.289743,"lon":5.378304,"is_reserved":false,"is_disabled":false,"rental_uris":{"android":"levelo://app?vid=72ae703c-30a1-4c2c-8ae5-583754212e83","ios":"levelo://app?vid=72ae703c-30a1-4c2c-8ae5-583754212e83"},"vehicle_type_id":"4","last_reported":1719245356,"current_range_meters":15200,"station_id":"ce4bh9p2rcd13ifvqed0","pricing_plan_id":"cebpf4jnsgd1na2vs0mg"},{"bike_id":"8bda701e-30ac-4f8d-ba15-a3d02136d116","system_id":"levelo_inurba_marseille","lat":43.295169,"lon":5.390426,"is_reserved":false,"is_disabled":false,"rental_uris":{"android":"levelo://app?vid=8bda701e-30ac-4f8d-ba15-a3d02136d116","ios":"levelo://app?vid=8bda701e-30ac-4f8d-ba15-a3d02136d116"},"vehicle_type_id":"4","last_reported":1719245356,"current_range_meters":28000,"station_id":"ce4bh3p2rcd13ifvqdp0","pricing_plan_id":"cebpf4jnsgd1na2vs0mg"},{"bike_id":"95aaf7e0-353a-450b-9989-16544e53ded3","system_id":"levelo_inurba_marseille","lat":43.295169,"lon":5.390426,"is_reserved":false,"is_disabled":false,"rental_uris":{"android":"levelo://app?vid=95aaf7e0-353a-450b-9989-16544e53ded3","ios":"levelo://app?vid=95aaf7e0-353a-450b-9989-16544e53ded3"},"vehicle_type_id":"4","last_reported":1719245356,"current_range_meters":15200,"station_id":"ce4bh3p2rcd13ifvqdp0","pricing_plan_id":"cebpf4jnsgd1na2vs0mg"},{"bike_id":"12cf949f-3465-4f4f-8372-76f042148ddb","system_id":"levelo_inurba_marseille","lat":43.33025,"lon":5.39038,"is_reserved":false,"is_disabled":false,"rental_uris":{"android":"levelo://app?vid=12cf949f-3465-4f4f-8372-76f042148ddb","ios":"levelo://app?vid=12cf949f-3465-4f4f-8372-76f042148ddb"},"vehicle_type_id":"4","last_reported":1719245356,"current_range_meters":1200,"station_id":"ce4bhr92rcd13ifvqhrg","pricing_plan_id":"cebpf4jnsgd1na2vs0mg"},{"bike_id":"ce8c545b-cf3e-4220-80fd-e2c8b3361185","system_id":"levelo_inurba_marseille","lat":43.2897,"lon":5.37847,"is_reserved":false,"is_disabled":false,"rental_uris":{"android":"levelo://app?vid=ce8c545b-cf3e-4220-80fd-e2c8b3361185","ios":"levelo://app?vid=ce8c545b-cf3e-4220-80fd-e2c8b3361185"},"vehicle_type_id":"4","last_reported":1719245356,"current_range_meters":0,"station_id":"ce4bh9p2rcd13ifvqed0","pricing_plan_id":"cebpf4jnsgd1na2vs0mg"},{"bike_id":"13b513b1-bdbc-4e42-926c-7de10abfff63","system_id":"levelo_inurba_marseille","lat":43.29515,"lon":5.39045,"is_reserved":false,"is_disabled":false,"rental_uris":{"android":"levelo://app?vid=13b513b1-bdbc-4e42-926c-7de10abfff63","ios":"levelo://app?vid=13b513b1-bdbc-4e42-926c-7de10abfff63"},"vehicle_type_id":"4","last_reported":1719245356,"current_range_meters":9200,"station_id":"ce4bh3p2rcd13ifvqdp0","pricing_plan_id":"cebpf4jnsgd1na2vs0mg"},{"bike_id":"8cccceca-a8c1-4d88-bd9d-9c8e0602a941","system_id":"levelo_inurba_marseille","lat":43.28856,"lon":5.358371,"is_reserved":false,"is_disabled":false,"rental_uris":{"android":"levelo://app?vid=8cccceca-a8c1-4d88-bd9d-9c8e0602a941","ios":"levelo://app?vid=8cccceca-a8c1-4d88-bd9d-9c8e0602a941"},"vehicle_type_id":"4","last_reported":1719245356,"current_range_meters":9200,"station_id":"ce4bhb12rcd13ifvqem0","pricing_plan_id":"cebpf4jnsgd1na2vs0mg"},{"bike_id":"529a4ae9-735e-4cfc-9526-ed69375d565b","system_id":"levelo_inurba_marseille","lat":43.28856,"lon":5.358371,"is_reserved":false,"is_disabled":false,"rental_uris":{"android":"levelo://app?vid=529a4ae9-735e-4cfc-9526-ed69375d565b","ios":"levelo://app?vid=529a4ae9-735e-4cfc-9526-ed69375d565b"},"vehicle_type_id":"4","last_reported":1719245356,"current_range_meters":11600,"station_id":"ce4bhb12rcd13ifvqem0","pricing_plan_id":"cebpf4jnsgd1na2vs0mg"},{"bike_id":"bd9a6c26-2db3-4e30-92c7-c85ae97147aa","system_id":"levelo_inurba_marseille","lat":43.33739,"lon":5.37469,"is_reserved":false,"is_disabled":false,"rental_uris":{"android":"levelo://app?vid=bd9a6c26-2db3-4e30-92c7-c85ae97147aa","ios":"levelo://app?vid=bd9a6c26-2db3-4e30-92c7-c85ae97147aa"},"vehicle_type_id":"0","last_reported":1719245356,"current_range_meters":30000,"station_id":"","pricing_plan_id":"cebpf4jnsgd1na2vs0mg"},{"bike_id":"11da98ef-d0c3-43c2-a7e4-890f2c23ccbc","system_id":"levelo_inurba_marseille","lat":43.33741,"lon":5.37465,"is_reserved":false,"is_disabled":false,"rental_uris":{"android":"levelo://app?vid=11da98ef-d0c3-43c2-a7e4-890f2c23ccbc","ios":"levelo://app?vid=11da98ef-d0c3-43c2-a7e4-890f2c23ccbc"},"vehicle_type_id":"0","last_reported":1719245356,"current_range_meters":21200,"station_id":"","pricing_plan_id":"cebpf4jnsgd1na2vs0mg"},{"bike_id":"bb65fb70-df82-47d8-b27f-438620895501","system_id":"levelo_inurba_marseille","lat":43.33741,"lon":5.374713,"is_reserved":false,"is_disabled":false,"rental_uris":{"android":"levelo://app?vid=bb65fb70-df82-47d8-b27f-438620895501","ios":"levelo://app?vid=bb65fb70-df82-47d8-b27f-438620895501"},"vehicle_type_id":"0","last_reported":1719245356,"current_range_meters":22400,"station_id":"","pricing_plan_id":"cebpf4jnsgd1na2vs0mg"},{"bike_id":"2a0fb516-a307-4861-b129-104556c40f00","system_id":"levelo_inurba_marseille","lat":43.33742,"lon":5.374695,"is_reserved":false,"is_disabled":false,"rental_uris":{"android":"levelo://app?vid=2a0fb516-a307-4861-b129-104556c40f00","ios":"levelo://app?vid=2a0fb516-a307-4861-b129-104556c40f00"},"vehicle_type_id":"0","last_reported":1719245356,"current_range_meters":19200,"station_id":"","pricing_plan_id":"cebpf4jnsgd1na2vs0mg"},{"bike_id":"bf709b1a-1e81-4c69-a36a-dfef45d67fee","system_id":"levelo_inurba_marseille","lat":43.337447,"lon":5.374648,"is_reserved":false,"is_disabled":false,"rental_uris":{"android":"levelo://app?vid=bf709b1a-1e81-4c69-a36a-dfef45d67fee","ios":"levelo://app?vid=bf709b1a-1e81-4c69-a36a-dfef45d67fee"},"vehicle_type_id":"0","last_reported":1719245356,"current_range_meters":27600,"station_id":"","pricing_plan_id":"cebpf4jnsgd1na2vs0mg"},{"bike_id":"aa527c2c-31a5-479b-bfbe-daae0d9bb514","system_id":"levelo_inurba_marseille","lat":43.33744,"lon":5.37469,"is_reserved":false,"is_disabled":false,"rental_uris":{"android":"levelo://app?vid=aa527c2c-31a5-479b-bfbe-daae0d9bb514","ios":"levelo://app?vid=aa527c2c-31a5-479b-bfbe-daae0d9bb514"},"vehicle_type_id":"0","last_reported":1719245356,"current_range_meters":18000,"station_id":"","pricing_plan_id":"cebpf4jnsgd1na2vs0mg"},{"bike_id":"cbff8e2e-87ad-4d9e-a09d-9b1fba1c0aeb","system_id":"levelo_inurba_marseille","lat":43.337435,"lon":5.37473,"is_reserved":false,"is_disabled":false,"rental_uris":{"android":"levelo://app?vid=cbff8e2e-87ad-4d9e-a09d-9b1fba1c0aeb","ios":"levelo://app?vid=cbff8e2e-87ad-4d9e-a09d-9b1fba1c0aeb"},"vehicle_type_id":"0","last_reported":1719245356,"current_range_meters":28000,"station_id":"","pricing_plan_id":"cebpf4jnsgd1na2vs0mg"},{"bike_id":"c3ddbe4a-157d-4893-acf1-f1f626a65d21","system_id":"levelo_inurba_marseille","lat":43.33744,"lon":5.374715,"is_reserved":false,"is_disabled":false,"rental_uris":{"android":"levelo://app?vid=c3ddbe4a-157d-4893-acf1-f1f626a65d21","ios":"levelo://app?vid=c3ddbe4a-157d-4893-acf1-f1f626a65d21"},"vehicle_type_id":"0","last_reported":1719245356,"current_range_meters":19200,"station_id":"","pricing_plan_id":"cebpf4jnsgd1na2vs0mg"},{"bike_id":"985eda3a-8205-4c72-8b0d-a44593dd15b5","system_id":"levelo_inurba_marseille","lat":43.337436,"lon":5.374752,"is_reserved":false,"is_disabled":false,"rental_uris":{"android":"levelo://app?vid=985eda3a-8205-4c72-8b0d-a44593dd15b5","ios":"levelo://app?vid=985eda3a-8205-4c72-8b0d-a44593dd15b5"},"vehicle_type_id":"0","last_reported":1719245356,"current_range_meters":21600,"station_id":"","pricing_plan_id":"cebpf4jnsgd1na2vs0mg"},{"bike_id":"8043cc8a-f702-4e45-9523-d56dfd7ee432","system_id":"levelo_inurba_marseille","lat":43.337448,"lon":5.374708,"is_reserved":false,"is_disabled":false,"rental_uris":{"android":"levelo://app?vid=8043cc8a-f702-4e45-9523-d56dfd7ee432","ios":"levelo://app?vid=8043cc8a-f702-4e45-9523-d56dfd7ee432"},"vehicle_type_id":"0","last_reported":1719245356,"current_range_meters":27600,"station_id":"","pricing_plan_id":"cebpf4jnsgd1na2vs0mg"},{"bike_id":"9b81675f-44cd-4cbe-9733-2d36a516d8f7","system_id":"levelo_inurba_marseille","lat":43.33746,"lon":5.3747,"is_reserved":false,"is_disabled":false,"rental_uris":{"android":"levelo://app?vid=9b81675f-44cd-4cbe-9733-2d36a516d8f7","ios":"levelo://app?vid=9b81675f-44cd-4cbe-9733-2d36a516d8f7"},"vehicle_type_id":"0","last_reported":1719245356,"current_range_meters":28000,"station_id":"","pricing_plan_id":"cebpf4jnsgd1na2vs0mg"},{"bike_id":"c25a3696-e1cc-43ba-8656-23d4a118ee2e","system_id":"levelo_inurba_marseille","lat":43.337483,"lon":5.374688,"is_reserved":false,"is_disabled":false,"rental_uris":{"android":"levelo://app?vid=c25a3696-e1cc-43ba-8656-23d4a118ee2e","ios":"levelo://app?vid=c25a3696-e1cc-43ba-8656-23d4a118ee2e"},"vehicle_type_id":"0","last_reported":1719245356,"current_range_meters":28400,"station_id":"","pricing_plan_id":"cebpf4jnsgd1na2vs0mg"},{"bike_id":"f867320b-b3ee-4d44-8ef3-37d72db21942","system_id":"levelo_inurba_marseille","lat":43.33754,"lon":5.37456,"is_reserved":false,"is_disabled":false,"rental_uris":{"android":"levelo://app?vid=f867320b-b3ee-4d44-8ef3-37d72db21942","ios":"levelo://app?vid=f867320b-b3ee-4d44-8ef3-37d72db21942"},"vehicle_type_id":"4","last_reported":1719245356,"current_range_meters":30000,"station_id":"","pricing_plan_id":"cebpf4jnsgd1na2vs0mg"},{"bike_id":"9f74e9db-8021-4dd1-ba9b-29ff1c3cf81d","system_id":"levelo_inurba_marseille","lat":43.312609,"lon":5.401662,"is_reserved":false,"is_disabled":false,"rental_uris":{"android":"levelo://app?vid=9f74e9db-8021-4dd1-ba9b-29ff1c3cf81d","ios":"levelo://app?vid=9f74e9db-8021-4dd1-ba9b-29ff1c3cf81d"},"vehicle_type_id":"4","last_reported":1719245356,"current_range_meters":400,"station_id":"ce4bh092rcd13ifvqd30","pricing_plan_id":"cebpf4jnsgd1na2vs0mg"},{"bike_id":"ec447a24-9da2-4c52-915d-8fa13bab15a5","system_id":"levelo_inurba_marseille","lat":43.301117,"lon":5.398795,"is_reserved":false,"is_disabled":false,"rental_uris":{"android":"levelo://app?vid=ec447a24-9da2-4c52-915d-8fa13bab15a5","ios":"levelo://app?vid=ec447a24-9da2-4c52-915d-8fa13bab15a5"},"vehicle_type_id":"4","last_reported":1719245356,"current_range_meters":11600,"station_id":"ce4bh0h2rcd13ifvqd40","pricing_plan_id":"cebpf4jnsgd1na2vs0mg"},{"bike_id":"975876c7-ca64-4a58-854d-1edc6c5c8998","system_id":"levelo_inurba_marseille","lat":43.309371,"lon":5.401449,"is_reserved":false,"is_disabled":false,"rental_uris":{"android":"levelo://app?vid=975876c7-ca64-4a58-854d-1edc6c5c8998","ios":"levelo://app?vid=975876c7-ca64-4a58-854d-1edc6c5c8998"},"vehicle_type_id":"4","last_reported":1719245356,"current_range_meters":13200,"station_id":"ce4bgvp2rcd13ifvqct0","pricing_plan_id":"cebpf4jnsgd1na2vs0mg"},{"bike_id":"871a866f-8c5b-4faa-a826-bf7d48d3f1a9","system_id":"levelo_inurba_marseille","lat":43.301117,"lon":5.398795,"is_reserved":false,"is_disabled":false,"rental_uris":{"android":"levelo://app?vid=871a866f-8c5b-4faa-a826-bf7d48d3f1a9","ios":"levelo://app?vid=871a866f-8c5b-4faa-a826-bf7d48d3f1a9"},"vehicle_type_id":"4","last_reported":1719245356,"current_range_meters":18800,"station_id":"ce4bh0h2rcd13ifvqd40","pricing_plan_id":"cebpf4jnsgd1na2vs0mg"},{"bike_id":"168a745b-3c3b-4a39-b4c6-4038803fae3b","system_id":"levelo_inurba_marseille","lat":43.301117,"lon":5.398795,"is_reserved":false,"is_disabled":false,"rental_uris":{"android":"levelo://app?vid=168a745b-3c3b-4a39-b4c6-4038803fae3b","ios":"levelo://app?vid=168a745b-3c3b-4a39-b4c6-4038803fae3b"},"vehicle_type_id":"4","last_reported":1719245356,"current_range_meters":4000,"station_id":"ce4bh0h2rcd13ifvqd40","pricing_plan_id":"cebpf4jnsgd1na2vs0mg"},{"bike_id":"3ac6b716-ff97-4744-a060-bf719ca809f6","system_id":"levelo_inurba_marseille","lat":43.286593,"lon":5.363346,"is_reserved":false,"is_disabled":false,"rental_uris":{"android":"levelo://app?vid=3ac6b716-ff97-4744-a060-bf719ca809f6","ios":"levelo://app?vid=3ac6b716-ff97-4744-a060-bf719ca809f6"},"vehicle_type_id":"4","last_reported":1719245356,"current_range_meters":800,"station_id":"ce4bhah2rcd13ifvqej0","pricing_plan_id":"cebpf4jnsgd1na2vs0mg"},{"bike_id":"5c9c7a63-332d-4e67-b168-050d796262a4","system_id":"levelo_inurba_marseille","lat":43.298681,"lon":5.397225,"is_reserved":false,"is_disabled":false,"rental_uris":{"android":"levelo://app?vid=5c9c7a63-332d-4e67-b168-050d796262a4","ios":"levelo://app?vid=5c9c7a63-332d-4e67-b168-050d796262a4"},"vehicle_type_id":"4","last_reported":1719245356,"current_range_meters":2400,"station_id":"ce4bh0h2rcd13ifvqd50","pricing_plan_id":"cebpf4jnsgd1na2vs0mg"},{"bike_id":"0cc9be50-0b12-4593-8dea-ccf1a3763ac5","system_id":"levelo_inurba_marseille","lat":43.298681,"lon":5.397225,"is_reserved":false,"is_disabled":false,"rental_uris":{"android":"levelo://app?vid=0cc9be50-0b12-4593-8dea-ccf1a3763ac5","ios":"levelo://app?vid=0cc9be50-0b12-4593-8dea-ccf1a3763ac5"},"vehicle_type_id":"4","last_reported":1719245356,"current_range_meters":21200,"station_id":"ce4bh0h2rcd13ifvqd50","pricing_plan_id":"cebpf4jnsgd1na2vs0mg"},{"bike_id":"cecfa074-58de-43d4-a626-1759a36d9211","system_id":"levelo_inurba_marseille","lat":43.286961,"lon":5.373785,"is_reserved":false,"is_disabled":false,"rental_uris":{"android":"levelo://app?vid=cecfa074-58de-43d4-a626-1759a36d9211","ios":"levelo://app?vid=cecfa074-58de-43d4-a626-1759a36d9211"},"vehicle_type_id":"4","last_reported":1719245356,"current_range_meters":23600,"station_id":"ce4bh3p2rcd13ifvqdq0","pricing_plan_id":"cebpf4jnsgd1na2vs0mg"},{"bike_id":"12e1ad71-e2bf-4038-b457-0ead8ce15263","system_id":"levelo_inurba_marseille","lat":43.298681,"lon":5.397225,"is_reserved":false,"is_disabled":false,"rental_uris":{"android":"levelo://app?vid=12e1ad71-e2bf-4038-b457-0ead8ce15263","ios":"levelo://app?vid=12e1ad71-e2bf-4038-b457-0ead8ce15263"},"vehicle_type_id":"4","last_reported":1719245356,"current_range_meters":28400,"station_id":"ce4bh0h2rcd13ifvqd50","pricing_plan_id":"cebpf4jnsgd1na2vs0mg"},{"bike_id":"5c857390-5c87-435b-b31e-a7aa73c25def","system_id":"levelo_inurba_marseille","lat":43.298681,"lon":5.397225,"is_reserved":false,"is_disabled":false,"rental_uris":{"android":"levelo://app?vid=5c857390-5c87-435b-b31e-a7aa73c25def","ios":"levelo://app?vid=5c857390-5c87-435b-b31e-a7aa73c25def"},"vehicle_type_id":"4","last_reported":1719245356,"current_range_meters":0,"station_id":"ce4bh0h2rcd13ifvqd50","pricing_plan_id":"cebpf4jnsgd1na2vs0mg"},{"bike_id":"2b7ee010-c54d-4e8b-9822-098f08548bfb","system_id":"levelo_inurba_marseille","lat":43.295196,"lon":5.39397,"is_reserved":false,"is_disabled":false,"rental_uris":{"android":"levelo://app?vid=2b7ee010-c54d-4e8b-9822-098f08548bfb","ios":"levelo://app?vid=2b7ee010-c54d-4e8b-9822-098f08548bfb"},"vehicle_type_id":"4","last_reported":1719245356,"current_range_meters":28400,"station_id":"ce4bh292rcd13ifvqdf0","pricing_plan_id":"cebpf4jnsgd1na2vs0mg"},{"bike_id":"e17949b9-7eec-4451-81fd-be12aa461495","system_id":"levelo_inurba_marseille","lat":43.295194,"lon":5.39397,"is_reserved":false,"is_disabled":false,"rental_uris":{"android":"levelo://app?vid=e17949b9-7eec-4451-81fd-be12aa461495","ios":"levelo://app?vid=e17949b9-7eec-4451-81fd-be12aa461495"},"vehicle_type_id":"4","last_reported":1719245356,"current_range_meters":26400,"station_id":"ce4bh292rcd13ifvqdf0","pricing_plan_id":"cebpf4jnsgd1na2vs0mg"},{"bike_id":"68bd14bc-2bac-49df-909f-e27bebde1def","system_id":"levelo_inurba_marseille","lat":43.295196,"lon":5.39397,"is_reserved":false,"is_disabled":false,"rental_uris":{"android":"levelo://app?vid=68bd14bc-2bac-49df-909f-e27bebde1def","ios":"levelo://app?vid=68bd14bc-2bac-49df-909f-e27bebde1def"},"vehicle_type_id":"4","last_reported":1719245356,"current_range_meters":8400,"station_id":"ce4bh292rcd13ifvqdf0","pricing_plan_id":"cebpf4jnsgd1na2vs0mg"},{"bike_id":"3b9607cf-e1fa-4ea7-b487-b463ffd79cca","system_id":"levelo_inurba_marseille","lat":43.295194,"lon":5.39397,"is_reserved":false,"is_disabled":false,"rental_uris":{"android":"levelo://app?vid=3b9607cf-e1fa-4ea7-b487-b463ffd79cca","ios":"levelo://app?vid=3b9607cf-e1fa-4ea7-b487-b463ffd79cca"},"vehicle_type_id":"4","last_reported":1719245356,"current_range_meters":400,"station_id":"ce4bh292rcd13ifvqdf0","pricing_plan_id":"cebpf4jnsgd1na2vs0mg"},{"bike_id":"17e1b724-2eb8-4de7-a5d2-317f009c105b","system_id":"levelo_inurba_marseille","lat":43.28928,"lon":5.3839,"is_reserved":false,"is_disabled":false,"rental_uris":{"android":"levelo://app?vid=17e1b724-2eb8-4de7-a5d2-317f009c105b","ios":"levelo://app?vid=17e1b724-2eb8-4de7-a5d2-317f009c105b"},"vehicle_type_id":"4","last_reported":1719245356,"current_range_meters":14800,"station_id":"ce4bh612rcd13ifvqe6g","pricing_plan_id":"cebpf4jnsgd1na2vs0mg"},{"bike_id":"fa7f57a9-dfd8-4708-9c50-7bf1c8357cf7","system_id":"levelo_inurba_marseille","lat":43.290345,"lon":5.38646,"is_reserved":false,"is_disabled":false,"rental_uris":{"android":"levelo://app?vid=fa7f57a9-dfd8-4708-9c50-7bf1c8357cf7","ios":"levelo://app?vid=fa7f57a9-dfd8-4708-9c50-7bf1c8357cf7"},"vehicle_type_id":"4","last_reported":1719245356,"current_range_meters":28400,"station_id":"ce4bh4p2rcd13ifvqe0g","pricing_plan_id":"cebpf4jnsgd1na2vs0mg"},{"bike_id":"85c882d1-e9ba-45ef-b746-f6d9150a209a","system_id":"levelo_inurba_marseille","lat":43.316828,"lon":5.404723,"is_reserved":false,"is_disabled":false,"rental_uris":{"android":"levelo://app?vid=85c882d1-e9ba-45ef-b746-f6d9150a209a","ios":"levelo://app?vid=85c882d1-e9ba-45ef-b746-f6d9150a209a"},"vehicle_type_id":"4","last_reported":1719245356,"current_range_meters":18000,"station_id":"ce4bh012rcd13ifvqd00","pricing_plan_id":"cebpf4jnsgd1na2vs0mg"},{"bike_id":"bdf7b204-8901-495a-a921-8b79b2c9b922","system_id":"levelo_inurba_marseille","lat":43.289093,"lon":5.387527,"is_reserved":false,"is_disabled":false,"rental_uris":{"android":"levelo://app?vid=bdf7b204-8901-495a-a921-8b79b2c9b922","ios":"levelo://app?vid=bdf7b204-8901-495a-a921-8b79b2c9b922"},"vehicle_type_id":"4","last_reported":1719245356,"current_range_meters":0,"station_id":"","pricing_plan_id":"cebpf4jnsgd1na2vs0mg"},{"bike_id":"2e4c4747-b853-465a-86d7-a6175d8f7335","system_id":"levelo_inurba_marseille","lat":43.305994,"lon":5.393687,"is_reserved":false,"is_disabled":false,"rental_uris":{"android":"levelo://app?vid=2e4c4747-b853-465a-86d7-a6175d8f7335","ios":"levelo://app?vid=2e4c4747-b853-465a-86d7-a6175d8f7335"},"vehicle_type_id":"4","last_reported":1719245356,"current_range_meters":4800,"station_id":"ce4bh0p2rcd13ifvqd80","pricing_plan_id":"cebpf4jnsgd1na2vs0mg"},{"bike_id":"cf8a4edb-23a9-4ba3-b521-6cd729532610","system_id":"levelo_inurba_marseille","lat":43.291994,"lon":5.392907,"is_reserved":false,"is_disabled":false,"rental_uris":{"android":"levelo://app?vid=cf8a4edb-23a9-4ba3-b521-6cd729532610","ios":"levelo://app?vid=cf8a4edb-23a9-4ba3-b521-6cd729532610"},"vehicle_type_id":"4","last_reported":1719245356,"current_range_meters":18000,"station_id":"ce4bh192rcd13ifvqdd0","pricing_plan_id":"cebpf4jnsgd1na2vs0mg"},{"bike_id":"36c9a740-9aad-481e-af81-c6b7a333e25d","system_id":"levelo_inurba_marseille","lat":43.291994,"lon":5.392907,"is_reserved":false,"is_disabled":false,"rental_uris":{"android":"levelo://app?vid=36c9a740-9aad-481e-af81-c6b7a333e25d","ios":"levelo://app?vid=36c9a740-9aad-481e-af81-c6b7a333e25d"},"vehicle_type_id":"4","last_reported":1719245356,"current_range_meters":8400,"station_id":"ce4bh192rcd13ifvqdd0","pricing_plan_id":"cebpf4jnsgd1na2vs0mg"},{"bike_id":"8793c985-8efe-413f-87e5-ff7a44c6e157","system_id":"levelo_inurba_marseille","lat":43.291994,"lon":5.392907,"is_reserved":false,"is_disabled":false,"rental_uris":{"android":"levelo://app?vid=8793c985-8efe-413f-87e5-ff7a44c6e157","ios":"levelo://app?vid=8793c985-8efe-413f-87e5-ff7a44c6e157"},"vehicle_type_id":"4","last_reported":1719245356,"current_range_meters":800,"station_id":"ce4bh192rcd13ifvqdd0","pricing_plan_id":"cebpf4jnsgd1na2vs0mg"},{"bike_id":"862e5bd8-cc1c-459f-812f-7de5d9e039b9","system_id":"levelo_inurba_marseille","lat":43.29157,"lon":5.39326,"is_reserved":false,"is_disabled":false,"rental_uris":{"android":"levelo://app?vid=862e5bd8-cc1c-459f-812f-7de5d9e039b9","ios":"levelo://app?vid=862e5bd8-cc1c-459f-812f-7de5d9e039b9"},"vehicle_type_id":"4","last_reported":1719245356,"current_range_meters":13200,"station_id":"","pricing_plan_id":"cebpf4jnsgd1na2vs0mg"},{"bike_id":"cd8031f2-1fe7-46b1-98f7-c4413a4edb0e","system_id":"levelo_inurba_marseille","lat":43.294314,"lon":5.397498,"is_reserved":false,"is_disabled":false,"rental_uris":{"android":"levelo://app?vid=cd8031f2-1fe7-46b1-98f7-c4413a4edb0e","ios":"levelo://app?vid=cd8031f2-1fe7-46b1-98f7-c4413a4edb0e"},"vehicle_type_id":"4","last_reported":1719245356,"current_range_meters":25600,"station_id":"ce4bh3h2rcd13ifvqdo0","pricing_plan_id":"cebpf4jnsgd1na2vs0mg"},{"bike_id":"34374cfd-aa72-4737-9f1f-94f7e2a6252b","system_id":"levelo_inurba_marseille","lat":43.294314,"lon":5.397498,"is_reserved":false,"is_disabled":false,"rental_uris":{"android":"levelo://app?vid=34374cfd-aa72-4737-9f1f-94f7e2a6252b","ios":"levelo://app?vid=34374cfd-aa72-4737-9f1f-94f7e2a6252b"},"vehicle_type_id":"4","last_reported":1719245356,"current_range_meters":5200,"station_id":"ce4bh3h2rcd13ifvqdo0","pricing_plan_id":"cebpf4jnsgd1na2vs0mg"},{"bike_id":"64ff4084-b666-43db-a301-a710179f1adb","system_id":"levelo_inurba_marseille","lat":43.294314,"lon":5.397498,"is_reserved":false,"is_disabled":false,"rental_uris":{"android":"levelo://app?vid=64ff4084-b666-43db-a301-a710179f1adb","ios":"levelo://app?vid=64ff4084-b666-43db-a301-a710179f1adb"},"vehicle_type_id":"4","last_reported":1719245356,"current_range_meters":25200,"station_id":"ce4bh3h2rcd13ifvqdo0","pricing_plan_id":"cebpf4jnsgd1na2vs0mg"},{"bike_id":"931ff012-1eb3-4415-9863-b2909b6a7b99","system_id":"levelo_inurba_marseille","lat":43.28624,"lon":5.35105,"is_reserved":false,"is_disabled":false,"rental_uris":{"android":"levelo://app?vid=931ff012-1eb3-4415-9863-b2909b6a7b99","ios":"levelo://app?vid=931ff012-1eb3-4415-9863-b2909b6a7b99"},"vehicle_type_id":"4","last_reported":1719245356,"current_range_meters":15600,"station_id":"ce4bhch2rcd13ifvqeug","pricing_plan_id":"cebpf4jnsgd1na2vs0mg"},{"bike_id":"5633dbc7-2d40-4558-aa8b-6c0a95acc659","system_id":"levelo_inurba_marseille","lat":43.28621,"lon":5.35106,"is_reserved":false,"is_disabled":false,"rental_uris":{"android":"levelo://app?vid=5633dbc7-2d40-4558-aa8b-6c0a95acc659","ios":"levelo://app?vid=5633dbc7-2d40-4558-aa8b-6c0a95acc659"},"vehicle_type_id":"4","last_reported":1719245356,"current_range_meters":19600,"station_id":"ce4bhch2rcd13ifvqeug","pricing_plan_id":"cebpf4jnsgd1na2vs0mg"},{"bike_id":"34f2075c-3a97-4ec2-a39c-6a8effd88b7e","system_id":"levelo_inurba_marseille","lat":43.28621,"lon":5.35096,"is_reserved":false,"is_disabled":false,"rental_uris":{"android":"levelo://app?vid=34f2075c-3a97-4ec2-a39c-6a8effd88b7e","ios":"levelo://app?vid=34f2075c-3a97-4ec2-a39c-6a8effd88b7e"},"vehicle_type_id":"4","last_reported":1719245356,"current_range_meters":20800,"station_id":"ce4bhch2rcd13ifvqeug","pricing_plan_id":"cebpf4jnsgd1na2vs0mg"},{"bike_id":"d1f097b6-5b9b-4ddc-a10b-8df36f875906","system_id":"levelo_inurba_marseille","lat":43.28617,"lon":5.35104,"is_reserved":false,"is_disabled":false,"rental_uris":{"android":"levelo://app?vid=d1f097b6-5b9b-4ddc-a10b-8df36f875906","ios":"levelo://app?vid=d1f097b6-5b9b-4ddc-a10b-8df36f875906"},"vehicle_type_id":"4","last_reported":1719245356,"current_range_meters":23600,"station_id":"ce4bhch2rcd13ifvqeug","pricing_plan_id":"cebpf4jnsgd1na2vs0mg"},{"bike_id":"2bee6d0c-221c-40f1-9ff6-16e3df609f3c","system_id":"levelo_inurba_marseille","lat":43.28615,"lon":5.35106,"is_reserved":false,"is_disabled":false,"rental_uris":{"android":"levelo://app?vid=2bee6d0c-221c-40f1-9ff6-16e3df609f3c","ios":"levelo://app?vid=2bee6d0c-221c-40f1-9ff6-16e3df609f3c"},"vehicle_type_id":"4","last_reported":1719245356,"current_range_meters":16800,"station_id":"ce4bhch2rcd13ifvqeug","pricing_plan_id":"cebpf4jnsgd1na2vs0mg"},{"bike_id":"818af404-92e5-4658-b458-eb3ca1df7c78","system_id":"levelo_inurba_marseille","lat":43.28614,"lon":5.35107,"is_reserved":false,"is_disabled":false,"rental_uris":{"android":"levelo://app?vid=818af404-92e5-4658-b458-eb3ca1df7c78","ios":"levelo://app?vid=818af404-92e5-4658-b458-eb3ca1df7c78"},"vehicle_type_id":"4","last_reported":1719245356,"current_range_meters":17600,"station_id":"ce4bhch2rcd13ifvqeug","pricing_plan_id":"cebpf4jnsgd1na2vs0mg"},{"bike_id":"47c1e2b9-0f0a-4b68-aecd-7cfa25d66aaf","system_id":"levelo_inurba_marseille","lat":43.285848,"lon":5.350787,"is_reserved":false,"is_disabled":false,"rental_uris":{"android":"levelo://app?vid=47c1e2b9-0f0a-4b68-aecd-7cfa25d66aaf","ios":"levelo://app?vid=47c1e2b9-0f0a-4b68-aecd-7cfa25d66aaf"},"vehicle_type_id":"4","last_reported":1719245356,"current_range_meters":16000,"station_id":"ce4bhch2rcd13ifvqeug","pricing_plan_id":"cebpf4jnsgd1na2vs0mg"},{"bike_id":"638ba26e-2c1a-400c-869d-9bbd18fef354","system_id":"levelo_inurba_marseille","lat":43.285856,"lon":5.350771,"is_reserved":false,"is_disabled":false,"rental_uris":{"android":"levelo://app?vid=638ba26e-2c1a-400c-869d-9bbd18fef354","ios":"levelo://app?vid=638ba26e-2c1a-400c-869d-9bbd18fef354"},"vehicle_type_id":"4","last_reported":1719245356,"current_range_meters":29600,"station_id":"ce4bhch2rcd13ifvqeug","pricing_plan_id":"cebpf4jnsgd1na2vs0mg"},{"bike_id":"a14282be-f672-4489-ba87-36c2233e4dd2","system_id":"levelo_inurba_marseille","lat":43.28867,"lon":5.38922,"is_reserved":false,"is_disabled":false,"rental_uris":{"android":"levelo://app?vid=a14282be-f672-4489-ba87-36c2233e4dd2","ios":"levelo://app?vid=a14282be-f672-4489-ba87-36c2233e4dd2"},"vehicle_type_id":"4","last_reported":1719245356,"current_range_meters":23200,"station_id":"","pricing_plan_id":"cebpf4jnsgd1na2vs0mg"},{"bike_id":"e31de19e-0c01-4023-b4a4-ccb615192e69","system_id":"levelo_inurba_marseille","lat":43.283998,"lon":5.375062,"is_reserved":false,"is_disabled":false,"rental_uris":{"android":"levelo://app?vid=e31de19e-0c01-4023-b4a4-ccb615192e69","ios":"levelo://app?vid=e31de19e-0c01-4023-b4a4-ccb615192e69"},"vehicle_type_id":"4","last_reported":1719245356,"current_range_meters":12400,"station_id":"ce4bh412rcd13ifvqds0","pricing_plan_id":"cebpf4jnsgd1na2vs0mg"},{"bike_id":"99fc27da-6734-4990-82f1-030ebf1c7306","system_id":"levelo_inurba_marseille","lat":43.283998,"lon":5.375062,"is_reserved":false,"is_disabled":false,"rental_uris":{"android":"levelo://app?vid=99fc27da-6734-4990-82f1-030ebf1c7306","ios":"levelo://app?vid=99fc27da-6734-4990-82f1-030ebf1c7306"},"vehicle_type_id":"4","last_reported":1719245356,"current_range_meters":18400,"station_id":"ce4bh412rcd13ifvqds0","pricing_plan_id":"cebpf4jnsgd1na2vs0mg"},{"bike_id":"03c6583a-d296-4d4e-996e-bcded489a0d7","system_id":"levelo_inurba_marseille","lat":43.295713,"lon":5.399639,"is_reserved":false,"is_disabled":false,"rental_uris":{"android":"levelo://app?vid=03c6583a-d296-4d4e-996e-bcded489a0d7","ios":"levelo://app?vid=03c6583a-d296-4d4e-996e-bcded489a0d7"},"vehicle_type_id":"4","last_reported":1719245356,"current_range_meters":22400,"station_id":"ce4bh312rcd13ifvqdj0","pricing_plan_id":"cebpf4jnsgd1na2vs0mg"},{"bike_id":"61a627e1-8d60-4338-a179-658097a2457e","system_id":"levelo_inurba_marseille","lat":43.283998,"lon":5.375062,"is_reserved":false,"is_disabled":false,"rental_uris":{"android":"levelo://app?vid=61a627e1-8d60-4338-a179-658097a2457e","ios":"levelo://app?vid=61a627e1-8d60-4338-a179-658097a2457e"},"vehicle_type_id":"4","last_reported":1719245356,"current_range_meters":6800,"station_id":"ce4bh412rcd13ifvqds0","pricing_plan_id":"cebpf4jnsgd1na2vs0mg"},{"bike_id":"ee6439a9-0550-4557-b2ef-ce1d2a8e8c73","system_id":"levelo_inurba_marseille","lat":43.283998,"lon":5.375062,"is_reserved":false,"is_disabled":false,"rental_uris":{"android":"levelo://app?vid=ee6439a9-0550-4557-b2ef-ce1d2a8e8c73","ios":"levelo://app?vid=ee6439a9-0550-4557-b2ef-ce1d2a8e8c73"},"vehicle_type_id":"4","last_reported":1719245356,"current_range_meters":31200,"station_id":"ce4bh412rcd13ifvqds0","pricing_plan_id":"cebpf4jnsgd1na2vs0mg"},{"bike_id":"aac834dd-a180-463f-9d45-c64c580a1373","system_id":"levelo_inurba_marseille","lat":43.286595,"lon":5.386795,"is_reserved":false,"is_disabled":false,"rental_uris":{"android":"levelo://app?vid=aac834dd-a180-463f-9d45-c64c580a1373","ios":"levelo://app?vid=aac834dd-a180-463f-9d45-c64c580a1373"},"vehicle_type_id":"4","last_reported":1719245356,"current_range_meters":0,"station_id":"ce4bh492rcd13ifvqdug","pricing_plan_id":"cebpf4jnsgd1na2vs0mg"},{"bike_id":"bf7b8cd3-dc78-4ee6-b732-2af05c3abac2","system_id":"levelo_inurba_marseille","lat":43.286595,"lon":5.386795,"is_reserved":false,"is_disabled":false,"rental_uris":{"android":"levelo://app?vid=bf7b8cd3-dc78-4ee6-b732-2af05c3abac2","ios":"levelo://app?vid=bf7b8cd3-dc78-4ee6-b732-2af05c3abac2"},"vehicle_type_id":"4","last_reported":1719245356,"current_range_meters":400,"station_id":"ce4bh492rcd13ifvqdug","pricing_plan_id":"cebpf4jnsgd1na2vs0mg"},{"bike_id":"c10cd693-5216-44fb-a01e-5eff5013ff08","system_id":"levelo_inurba_marseille","lat":43.319179,"lon":5.407725,"is_reserved":false,"is_disabled":false,"rental_uris":{"android":"levelo://app?vid=c10cd693-5216-44fb-a01e-5eff5013ff08","ios":"levelo://app?vid=c10cd693-5216-44fb-a01e-5eff5013ff08"},"vehicle_type_id":"4","last_reported":1719245356,"current_range_meters":10400,"station_id":"ce4bhq12rcd13ifvqhig","pricing_plan_id":"cebpf4jnsgd1na2vs0mg"},{"bike_id":"04af83af-c9a8-44ba-9fde-4b7a8138a3dc","system_id":"levelo_inurba_marseille","lat":43.323464,"lon":5.406297,"is_reserved":false,"is_disabled":false,"rental_uris":{"android":"levelo://app?vid=04af83af-c9a8-44ba-9fde-4b7a8138a3dc","ios":"levelo://app?vid=04af83af-c9a8-44ba-9fde-4b7a8138a3dc"},"vehicle_type_id":"4","last_reported":1719245356,"current_range_meters":23200,"station_id":"ce4bhq92rcd13ifvqhjg","pricing_plan_id":"cebpf4jnsgd1na2vs0mg"},{"bike_id":"08edc4a1-b076-4cb7-95cb-65201d455f84","system_id":"levelo_inurba_marseille","lat":43.288497,"lon":5.393089,"is_reserved":false,"is_disabled":false,"rental_uris":{"android":"levelo://app?vid=08edc4a1-b076-4cb7-95cb-65201d455f84","ios":"levelo://app?vid=08edc4a1-b076-4cb7-95cb-65201d455f84"},"vehicle_type_id":"4","last_reported":1719245356,"current_range_meters":8000,"station_id":"ce4bh2p2rcd13ifvqdi0","pricing_plan_id":"cebpf4jnsgd1na2vs0mg"},{"bike_id":"97714de8-882b-4122-aaf5-dcdce52c27a0","system_id":"levelo_inurba_marseille","lat":43.2849,"lon":5.38549,"is_reserved":false,"is_disabled":false,"rental_uris":{"android":"levelo://app?vid=97714de8-882b-4122-aaf5-dcdce52c27a0","ios":"levelo://app?vid=97714de8-882b-4122-aaf5-dcdce52c27a0"},"vehicle_type_id":"4","last_reported":1719245356,"current_range_meters":0,"station_id":"ce4bh8p2rcd13ifvqeb0","pricing_plan_id":"cebpf4jnsgd1na2vs0mg"},{"bike_id":"6261df30-65b2-497d-a7ca-66e0fe10ac35","system_id":"levelo_inurba_marseille","lat":43.28434,"lon":5.34999,"is_reserved":false,"is_disabled":false,"rental_uris":{"android":"levelo://app?vid=6261df30-65b2-497d-a7ca-66e0fe10ac35","ios":"levelo://app?vid=6261df30-65b2-497d-a7ca-66e0fe10ac35"},"vehicle_type_id":"4","last_reported":1719245356,"current_range_meters":30800,"station_id":"ce4bhbh2rcd13ifvqepg","pricing_plan_id":"cebpf4jnsgd1na2vs0mg"},{"bike_id":"7a6b78f6-869f-4fa9-8df8-618df650e390","system_id":"levelo_inurba_marseille","lat":43.284214,"lon":5.349706,"is_reserved":false,"is_disabled":false,"rental_uris":{"android":"levelo://app?vid=7a6b78f6-869f-4fa9-8df8-618df650e390","ios":"levelo://app?vid=7a6b78f6-869f-4fa9-8df8-618df650e390"},"vehicle_type_id":"4","last_reported":1719245356,"current_range_meters":18800,"station_id":"ce4bhbh2rcd13ifvqepg","pricing_plan_id":"cebpf4jnsgd1na2vs0mg"},{"bike_id":"b08987e2-312b-4608-9896-cfbfdb9f741a","system_id":"levelo_inurba_marseille","lat":43.284304,"lon":5.349983,"is_reserved":false,"is_disabled":false,"rental_uris":{"android":"levelo://app?vid=b08987e2-312b-4608-9896-cfbfdb9f741a","ios":"levelo://app?vid=b08987e2-312b-4608-9896-cfbfdb9f741a"},"vehicle_type_id":"4","last_reported":1719245356,"current_range_meters":6400,"station_id":"ce4bhbh2rcd13ifvqepg","pricing_plan_id":"cebpf4jnsgd1na2vs0mg"},{"bike_id":"d1581586-f763-4d73-9f63-7e16251214d6","system_id":"levelo_inurba_marseille","lat":43.28428,"lon":5.35005,"is_reserved":false,"is_disabled":false,"rental_uris":{"android":"levelo://app?vid=d1581586-f763-4d73-9f63-7e16251214d6","ios":"levelo://app?vid=d1581586-f763-4d73-9f63-7e16251214d6"},"vehicle_type_id":"4","last_reported":1719245356,"current_range_meters":28000,"station_id":"ce4bhbh2rcd13ifvqepg","pricing_plan_id":"cebpf4jnsgd1na2vs0mg"},{"bike_id":"d8343602-5fce-48d2-be32-6f1db3e5570b","system_id":"levelo_inurba_marseille","lat":43.284277,"lon":5.350025,"is_reserved":false,"is_disabled":false,"rental_uris":{"android":"levelo://app?vid=d8343602-5fce-48d2-be32-6f1db3e5570b","ios":"levelo://app?vid=d8343602-5fce-48d2-be32-6f1db3e5570b"},"vehicle_type_id":"4","last_reported":1719245356,"current_range_meters":10800,"station_id":"ce4bhbh2rcd13ifvqepg","pricing_plan_id":"cebpf4jnsgd1na2vs0mg"},{"bike_id":"ad5aa5b2-ef87-4065-a97c-d6865fa5f96c","system_id":"levelo_inurba_marseille","lat":43.284214,"lon":5.349706,"is_reserved":false,"is_disabled":false,"rental_uris":{"android":"levelo://app?vid=ad5aa5b2-ef87-4065-a97c-d6865fa5f96c","ios":"levelo://app?vid=ad5aa5b2-ef87-4065-a97c-d6865fa5f96c"},"vehicle_type_id":"4","last_reported":1719245356,"current_range_meters":30400,"station_id":"ce4bhbh2rcd13ifvqepg","pricing_plan_id":"cebpf4jnsgd1na2vs0mg"},{"bike_id":"28761dc2-c3e2-4105-ad39-2b45f9cf9ec1","system_id":"levelo_inurba_marseille","lat":43.28427,"lon":5.35002,"is_reserved":false,"is_disabled":false,"rental_uris":{"android":"levelo://app?vid=28761dc2-c3e2-4105-ad39-2b45f9cf9ec1","ios":"levelo://app?vid=28761dc2-c3e2-4105-ad39-2b45f9cf9ec1"},"vehicle_type_id":"4","last_reported":1719245356,"current_range_meters":24000,"station_id":"ce4bhbh2rcd13ifvqepg","pricing_plan_id":"cebpf4jnsgd1na2vs0mg"},{"bike_id":"92e6bd99-503f-4781-9162-5307fedf76ca","system_id":"levelo_inurba_marseille","lat":43.284214,"lon":5.349706,"is_reserved":false,"is_disabled":false,"rental_uris":{"android":"levelo://app?vid=92e6bd99-503f-4781-9162-5307fedf76ca","ios":"levelo://app?vid=92e6bd99-503f-4781-9162-5307fedf76ca"},"vehicle_type_id":"4","last_reported":1719245356,"current_range_meters":12800,"station_id":"ce4bhbh2rcd13ifvqepg","pricing_plan_id":"cebpf4jnsgd1na2vs0mg"},{"bike_id":"47d33492-79c0-46a1-b2a8-9d9100154933","system_id":"levelo_inurba_marseille","lat":43.284776,"lon":5.385603,"is_reserved":false,"is_disabled":false,"rental_uris":{"android":"levelo://app?vid=47d33492-79c0-46a1-b2a8-9d9100154933","ios":"levelo://app?vid=47d33492-79c0-46a1-b2a8-9d9100154933"},"vehicle_type_id":"4","last_reported":1719245356,"current_range_meters":26800,"station_id":"ce4bh8p2rcd13ifvqeb0","pricing_plan_id":"cebpf4jnsgd1na2vs0mg"},{"bike_id":"717fae56-a0d1-4d49-8310-1b0eb2cc5dd6","system_id":"levelo_inurba_marseille","lat":43.284217,"lon":5.349697,"is_reserved":false,"is_disabled":false,"rental_uris":{"android":"levelo://app?vid=717fae56-a0d1-4d49-8310-1b0eb2cc5dd6","ios":"levelo://app?vid=717fae56-a0d1-4d49-8310-1b0eb2cc5dd6"},"vehicle_type_id":"4","last_reported":1719245356,"current_range_meters":23200,"station_id":"ce4bhbh2rcd13ifvqepg","pricing_plan_id":"cebpf4jnsgd1na2vs0mg"},{"bike_id":"407fcde9-2b2e-475a-bf14-e5f1f0dd46b7","system_id":"levelo_inurba_marseille","lat":43.284219,"lon":5.3497,"is_reserved":false,"is_disabled":false,"rental_uris":{"android":"levelo://app?vid=407fcde9-2b2e-475a-bf14-e5f1f0dd46b7","ios":"levelo://app?vid=407fcde9-2b2e-475a-bf14-e5f1f0dd46b7"},"vehicle_type_id":"4","last_reported":1719245356,"current_range_meters":21200,"station_id":"ce4bhbh2rcd13ifvqepg","pricing_plan_id":"cebpf4jnsgd1na2vs0mg"},{"bike_id":"3bfefc30-0173-4904-9229-95c8d2e60a20","system_id":"levelo_inurba_marseille","lat":43.28426,"lon":5.349967,"is_reserved":false,"is_disabled":false,"rental_uris":{"android":"levelo://app?vid=3bfefc30-0173-4904-9229-95c8d2e60a20","ios":"levelo://app?vid=3bfefc30-0173-4904-9229-95c8d2e60a20"},"vehicle_type_id":"4","last_reported":1719245356,"current_range_meters":10000,"station_id":"ce4bhbh2rcd13ifvqepg","pricing_plan_id":"cebpf4jnsgd1na2vs0mg"},{"bike_id":"82b8fab5-4b10-4ce7-9846-08cb2e45da0d","system_id":"levelo_inurba_marseille","lat":43.284217,"lon":5.349697,"is_reserved":false,"is_disabled":false,"rental_uris":{"android":"levelo://app?vid=82b8fab5-4b10-4ce7-9846-08cb2e45da0d","ios":"levelo://app?vid=82b8fab5-4b10-4ce7-9846-08cb2e45da0d"},"vehicle_type_id":"4","last_reported":1719245356,"current_range_meters":29600,"station_id":"ce4bhbh2rcd13ifvqepg","pricing_plan_id":"cebpf4jnsgd1na2vs0mg"},{"bike_id":"2f41134a-50c6-47ee-b163-9054ce605318","system_id":"levelo_inurba_marseille","lat":43.28426,"lon":5.349943,"is_reserved":false,"is_disabled":false,"rental_uris":{"android":"levelo://app?vid=2f41134a-50c6-47ee-b163-9054ce605318","ios":"levelo://app?vid=2f41134a-50c6-47ee-b163-9054ce605318"},"vehicle_type_id":"4","last_reported":1719245356,"current_range_meters":10800,"station_id":"ce4bhbh2rcd13ifvqepg","pricing_plan_id":"cebpf4jnsgd1na2vs0mg"},{"bike_id":"6e5a389f-79b2-41c7-8fee-5917103c94a5","system_id":"levelo_inurba_marseille","lat":43.284252,"lon":5.349951,"is_reserved":false,"is_disabled":false,"rental_uris":{"android":"levelo://app?vid=6e5a389f-79b2-41c7-8fee-5917103c94a5","ios":"levelo://app?vid=6e5a389f-79b2-41c7-8fee-5917103c94a5"},"vehicle_type_id":"4","last_reported":1719245356,"current_range_meters":31200,"station_id":"ce4bhbh2rcd13ifvqepg","pricing_plan_id":"cebpf4jnsgd1na2vs0mg"},{"bike_id":"28529686-90a7-43a0-b855-db47425338ba","system_id":"levelo_inurba_marseille","lat":43.28422,"lon":5.349978,"is_reserved":false,"is_disabled":false,"rental_uris":{"android":"levelo://app?vid=28529686-90a7-43a0-b855-db47425338ba","ios":"levelo://app?vid=28529686-90a7-43a0-b855-db47425338ba"},"vehicle_type_id":"4","last_reported":1719245356,"current_range_meters":17200,"station_id":"ce4bhbh2rcd13ifvqepg","pricing_plan_id":"cebpf4jnsgd1na2vs0mg"},{"bike_id":"1d028968-6409-4134-bdfd-228bad3a98bf","system_id":"levelo_inurba_marseille","lat":43.284214,"lon":5.349706,"is_reserved":false,"is_disabled":false,"rental_uris":{"android":"levelo://app?vid=1d028968-6409-4134-bdfd-228bad3a98bf","ios":"levelo://app?vid=1d028968-6409-4134-bdfd-228bad3a98bf"},"vehicle_type_id":"4","last_reported":1719245356,"current_range_meters":31200,"station_id":"ce4bhbh2rcd13ifvqepg","pricing_plan_id":"cebpf4jnsgd1na2vs0mg"},{"bike_id":"e37859c9-a92c-48ab-a4cf-e748edb07589","system_id":"levelo_inurba_marseille","lat":43.28419,"lon":5.350003,"is_reserved":false,"is_disabled":false,"rental_uris":{"android":"levelo://app?vid=e37859c9-a92c-48ab-a4cf-e748edb07589","ios":"levelo://app?vid=e37859c9-a92c-48ab-a4cf-e748edb07589"},"vehicle_type_id":"4","last_reported":1719245356,"current_range_meters":9200,"station_id":"ce4bhbh2rcd13ifvqepg","pricing_plan_id":"cebpf4jnsgd1na2vs0mg"},{"bike_id":"7ed7d00d-4d0a-468b-bc36-edc1227f5fd3","system_id":"levelo_inurba_marseille","lat":43.28417,"lon":5.34998,"is_reserved":false,"is_disabled":false,"rental_uris":{"android":"levelo://app?vid=7ed7d00d-4d0a-468b-bc36-edc1227f5fd3","ios":"levelo://app?vid=7ed7d00d-4d0a-468b-bc36-edc1227f5fd3"},"vehicle_type_id":"4","last_reported":1719245356,"current_range_meters":30400,"station_id":"ce4bhbh2rcd13ifvqepg","pricing_plan_id":"cebpf4jnsgd1na2vs0mg"},{"bike_id":"2116a0b9-20fa-460c-ad27-db8a5d26b9a3","system_id":"levelo_inurba_marseille","lat":43.283498,"lon":5.380948,"is_reserved":false,"is_disabled":false,"rental_uris":{"android":"levelo://app?vid=2116a0b9-20fa-460c-ad27-db8a5d26b9a3","ios":"levelo://app?vid=2116a0b9-20fa-460c-ad27-db8a5d26b9a3"},"vehicle_type_id":"4","last_reported":1719245356,"current_range_meters":1200,"station_id":"ce4bh412rcd13ifvqdr0","pricing_plan_id":"cebpf4jnsgd1na2vs0mg"},{"bike_id":"c14dad49-36c9-473a-a157-edde3f3876e3","system_id":"levelo_inurba_marseille","lat":43.28415,"lon":5.34987,"is_reserved":false,"is_disabled":false,"rental_uris":{"android":"levelo://app?vid=c14dad49-36c9-473a-a157-edde3f3876e3","ios":"levelo://app?vid=c14dad49-36c9-473a-a157-edde3f3876e3"},"vehicle_type_id":"4","last_reported":1719245356,"current_range_meters":22800,"station_id":"ce4bhbh2rcd13ifvqepg","pricing_plan_id":"cebpf4jnsgd1na2vs0mg"},{"bike_id":"8f97e860-562a-4dd5-9ce9-9bc3a86867d4","system_id":"levelo_inurba_marseille","lat":43.28417,"lon":5.34979,"is_reserved":false,"is_disabled":false,"rental_uris":{"android":"levelo://app?vid=8f97e860-562a-4dd5-9ce9-9bc3a86867d4","ios":"levelo://app?vid=8f97e860-562a-4dd5-9ce9-9bc3a86867d4"},"vehicle_type_id":"4","last_reported":1719245356,"current_range_meters":16800,"station_id":"ce4bhbh2rcd13ifvqepg","pricing_plan_id":"cebpf4jnsgd1na2vs0mg"},{"bike_id":"1344607e-7b9e-43e0-9e62-8fe89cdcca8a","system_id":"levelo_inurba_marseille","lat":43.28416,"lon":5.34976,"is_reserved":false,"is_disabled":false,"rental_uris":{"android":"levelo://app?vid=1344607e-7b9e-43e0-9e62-8fe89cdcca8a","ios":"levelo://app?vid=1344607e-7b9e-43e0-9e62-8fe89cdcca8a"},"vehicle_type_id":"4","last_reported":1719245356,"current_range_meters":5200,"station_id":"ce4bhbh2rcd13ifvqepg","pricing_plan_id":"cebpf4jnsgd1na2vs0mg"},{"bike_id":"ea249a50-7be4-4c49-b82d-911afcbedfac","system_id":"levelo_inurba_marseille","lat":43.28412,"lon":5.34978,"is_reserved":false,"is_disabled":false,"rental_uris":{"android":"levelo://app?vid=ea249a50-7be4-4c49-b82d-911afcbedfac","ios":"levelo://app?vid=ea249a50-7be4-4c49-b82d-911afcbedfac"},"vehicle_type_id":"4","last_reported":1719245356,"current_range_meters":26000,"station_id":"ce4bhbh2rcd13ifvqepg","pricing_plan_id":"cebpf4jnsgd1na2vs0mg"},{"bike_id":"01626ff1-4056-438c-bd64-fc943bb5cf42","system_id":"levelo_inurba_marseille","lat":43.283498,"lon":5.380948,"is_reserved":false,"is_disabled":false,"rental_uris":{"android":"levelo://app?vid=01626ff1-4056-438c-bd64-fc943bb5cf42","ios":"levelo://app?vid=01626ff1-4056-438c-bd64-fc943bb5cf42"},"vehicle_type_id":"4","last_reported":1719245356,"current_range_meters":11200,"station_id":"ce4bh412rcd13ifvqdr0","pricing_plan_id":"cebpf4jnsgd1na2vs0mg"},{"bike_id":"72344283-1f36-4ec3-91cb-f57da53ae181","system_id":"levelo_inurba_marseille","lat":43.289363,"lon":5.396322,"is_reserved":false,"is_disabled":false,"rental_uris":{"android":"levelo://app?vid=72344283-1f36-4ec3-91cb-f57da53ae181","ios":"levelo://app?vid=72344283-1f36-4ec3-91cb-f57da53ae181"},"vehicle_type_id":"4","last_reported":1719245356,"current_range_meters":4800,"station_id":"ce4bh3h2rcd13ifvqdn0","pricing_plan_id":"cebpf4jnsgd1na2vs0mg"},{"bike_id":"0c8ab13c-27b0-42d5-850f-19e5f095e2cb","system_id":"levelo_inurba_marseille","lat":43.29388,"lon":5.40185,"is_reserved":false,"is_disabled":false,"rental_uris":{"android":"levelo://app?vid=0c8ab13c-27b0-42d5-850f-19e5f095e2cb","ios":"levelo://app?vid=0c8ab13c-27b0-42d5-850f-19e5f095e2cb"},"vehicle_type_id":"4","last_reported":1719245356,"current_range_meters":31200,"station_id":"","pricing_plan_id":"cebpf4jnsgd1na2vs0mg"},{"bike_id":"8f15face-a879-4274-b8f8-712db23a9a4e","system_id":"levelo_inurba_marseille","lat":43.292724,"lon":5.401131,"is_reserved":false,"is_disabled":false,"rental_uris":{"android":"levelo://app?vid=8f15face-a879-4274-b8f8-712db23a9a4e","ios":"levelo://app?vid=8f15face-a879-4274-b8f8-712db23a9a4e"},"vehicle_type_id":"4","last_reported":1719245356,"current_range_meters":3200,"station_id":"ce4bh312rcd13ifvqdk0","pricing_plan_id":"cebpf4jnsgd1na2vs0mg"},{"bike_id":"ddbfa66a-9e81-4f5e-9c0a-39cc22926b67","system_id":"levelo_inurba_marseille","lat":43.282744,"lon":5.350533,"is_reserved":false,"is_disabled":false,"rental_uris":{"android":"levelo://app?vid=ddbfa66a-9e81-4f5e-9c0a-39cc22926b67","ios":"levelo://app?vid=ddbfa66a-9e81-4f5e-9c0a-39cc22926b67"},"vehicle_type_id":"4","last_reported":1719245356,"current_range_meters":0,"station_id":"ce4bhbp2rcd13ifvqerg","pricing_plan_id":"cebpf4jnsgd1na2vs0mg"},{"bike_id":"28dbd22c-9cc6-45d1-9c28-b5e8437e38e0","system_id":"levelo_inurba_marseille","lat":43.282744,"lon":5.350533,"is_reserved":false,"is_disabled":false,"rental_uris":{"android":"levelo://app?vid=28dbd22c-9cc6-45d1-9c28-b5e8437e38e0","ios":"levelo://app?vid=28dbd22c-9cc6-45d1-9c28-b5e8437e38e0"},"vehicle_type_id":"4","last_reported":1719245356,"current_range_meters":26400,"station_id":"ce4bhbp2rcd13ifvqerg","pricing_plan_id":"cebpf4jnsgd1na2vs0mg"},{"bike_id":"a8529ec3-1975-4efd-be0d-3a12303044d8","system_id":"levelo_inurba_marseille","lat":43.282744,"lon":5.350533,"is_reserved":false,"is_disabled":false,"rental_uris":{"android":"levelo://app?vid=a8529ec3-1975-4efd-be0d-3a12303044d8","ios":"levelo://app?vid=a8529ec3-1975-4efd-be0d-3a12303044d8"},"vehicle_type_id":"4","last_reported":1719245356,"current_range_meters":7200,"station_id":"ce4bhbp2rcd13ifvqerg","pricing_plan_id":"cebpf4jnsgd1na2vs0mg"},{"bike_id":"a5196f47-0ea7-472a-9038-23d05b34e651","system_id":"levelo_inurba_marseille","lat":43.283502,"lon":5.386471,"is_reserved":false,"is_disabled":false,"rental_uris":{"android":"levelo://app?vid=a5196f47-0ea7-472a-9038-23d05b34e651","ios":"levelo://app?vid=a5196f47-0ea7-472a-9038-23d05b34e651"},"vehicle_type_id":"4","last_reported":1719245356,"current_range_meters":17200,"station_id":"ce4bh492rcd13ifvqdvg","pricing_plan_id":"cebpf4jnsgd1na2vs0mg"},{"bike_id":"e3c7d9dc-e276-4684-9078-776321cf4894","system_id":"levelo_inurba_marseille","lat":43.282744,"lon":5.350533,"is_reserved":false,"is_disabled":false,"rental_uris":{"android":"levelo://app?vid=e3c7d9dc-e276-4684-9078-776321cf4894","ios":"levelo://app?vid=e3c7d9dc-e276-4684-9078-776321cf4894"},"vehicle_type_id":"4","last_reported":1719245356,"current_range_meters":20000,"station_id":"ce4bhbp2rcd13ifvqerg","pricing_plan_id":"cebpf4jnsgd1na2vs0mg"},{"bike_id":"d312115c-6bec-4e5a-b3eb-217691dd5a75","system_id":"levelo_inurba_marseille","lat":43.28271,"lon":5.35058,"is_reserved":false,"is_disabled":false,"rental_uris":{"android":"levelo://app?vid=d312115c-6bec-4e5a-b3eb-217691dd5a75","ios":"levelo://app?vid=d312115c-6bec-4e5a-b3eb-217691dd5a75"},"vehicle_type_id":"4","last_reported":1719245356,"current_range_meters":16800,"station_id":"ce4bhbp2rcd13ifvqerg","pricing_plan_id":"cebpf4jnsgd1na2vs0mg"},{"bike_id":"4c409523-56bb-4f2a-8078-9866089b0a24","system_id":"levelo_inurba_marseille","lat":43.28268,"lon":5.35061,"is_reserved":false,"is_disabled":false,"rental_uris":{"android":"levelo://app?vid=4c409523-56bb-4f2a-8078-9866089b0a24","ios":"levelo://app?vid=4c409523-56bb-4f2a-8078-9866089b0a24"},"vehicle_type_id":"4","last_reported":1719245356,"current_range_meters":800,"station_id":"ce4bhbp2rcd13ifvqerg","pricing_plan_id":"cebpf4jnsgd1na2vs0mg"},{"bike_id":"ea9966c7-6429-4969-aa18-d4626317987d","system_id":"levelo_inurba_marseille","lat":43.28264,"lon":5.35072,"is_reserved":false,"is_disabled":false,"rental_uris":{"android":"levelo://app?vid=ea9966c7-6429-4969-aa18-d4626317987d","ios":"levelo://app?vid=ea9966c7-6429-4969-aa18-d4626317987d"},