{"last_updated":1748409043,"ttl":60,"version":"2.2","data":{"bikes":[{"bike_id":"fc56555b-396d-4667-b896-0ad86036e39e","system_id":"levelo_inurba_marseille","lat":43.25918,"lon":5.38023,"is_reserved":false,"is_disabled":false,"rental_uris":{"android":"levelo://app?vid=fc56555b-396d-4667-b896-0ad86036e39e","ios":"levelo://app?vid=fc56555b-396d-4667-b896-0ad86036e39e"},"vehicle_type_id":"4","last_reported":1748409043,"current_range_meters":2800,"station_id":"","pricing_plan_id":"cebpf4jnsgd1na2vs0mg"},{"bike_id":"4b36678c-bba4-4c34-9c08-e03c8db196a6","system_id":"levelo_inurba_marseille","lat":43.287004,"lon":5.373929,"is_reserved":false,"is_disabled":false,"rental_uris":{"android":"levelo://app?vid=4b36678c-bba4-4c34-9c08-e03c8db196a6","ios":"levelo://app?vid=4b36678c-bba4-4c34-9c08-e03c8db196a6"},"vehicle_type_id":"4","last_reported":1748409043,"current_range_meters":2800,"station_id":"ce4bh3p2rcd13ifvqdq0","pricing_plan_id":"cebpf4jnsgd1na2vs0mg"},{"bike_id":"adba12e7-5206-46f0-b5ae-d736cc8dba7d","system_id":"levelo_inurba_marseille","lat":43.276614,"lon":5.388795,"is_reserved":false,"is_disabled":true,"rental_uris":{"android":"levelo://app?vid=adba12e7-5206-46f0-b5ae-d736cc8dba7d","ios":"levelo://app?vid=adba12e7-5206-46f0-b5ae-d736cc8dba7d"},"vehicle_type_id":"4","last_reported":1748409043,"current_range_meters":2800,"station_id":"ce4bhgp2rcd13ifvqfe0","pricing_plan_id":"cebpf4jnsgd1na2vs0mg"},{"bike_id":"fd908bdf-5d81-4122-b313-442572d15912","system_id":"levelo_inurba_marseille","lat":43.29517,"lon":5.39425,"is_reserved":false,"is_disabled":true,"rental_uris":{"android":"levelo://app?vid=fd908bdf-5d81-4122-b313-442572d15912","ios":"levelo://app?vid=fd908bdf-5d81-4122-b313-442572d15912"},"vehicle_type_id":"4","last_reported":1748409043,"current_range_meters":3200,"station_id":"ce4bh292rcd13ifvqdf0","pricing_plan_id":"cebpf4jnsgd1na2vs0mg"},{"bike_id":"2d393347-525f-40cd-8bc8-636e6636ef28","system_id":"levelo_inurba_marseille","lat":43.262302,"lon":5.404582,"is_reserved":false,"is_disabled":false,"rental_uris":{"android":"levelo://app?vid=2d393347-525f-40cd-8bc8-636e6636ef28","ios":"levelo://app?vid=2d393347-525f-40cd-8bc8-636e6636ef28"},"vehicle_type_id":"4","last_reported":1748409043,"current_range_meters":3200,"station_id":"ce4bhmh2rcd13ifvqgmg","pricing_plan_id":"cebpf4jnsgd1na2vs0mg"},{"bike_id":"f758a755-0ae0-4542-831c-2c86b7828236","system_id":"levelo_inurba_marseille","lat":43.270488,"lon":5.402654,"is_reserved":false,"is_disabled":false,"rental_uris":{"android":"levelo://app?vid=f758a755-0ae0-4542-831c-2c86b7828236","ios":"levelo://app?vid=f758a755-0ae0-4542-831c-2c86b7828236"},"vehicle_type_id":"4","last_reported":1748409043,"current_range_meters":3200,"station_id":"ce4bhk92rcd13ifvqgc0","pricing_plan_id":"cebpf4jnsgd1na2vs0mg"},{"bike_id":"069da931-ad7a-46e7-83f2-3e021650a079","system_id":"levelo_inurba_marseille","lat":43.28704,"lon":5.4,"is_reserved":false,"is_disabled":true,"rental_uris":{"android":"levelo://app?vid=069da931-ad7a-46e7-83f2-3e021650a079","ios":"levelo://app?vid=069da931-ad7a-46e7-83f2-3e021650a079"},"vehicle_type_id":"4","last_reported":1748409043,"current_range_meters":3200,"station_id":"ce4bho92rcd13ifvqh3g","pricing_plan_id":"cebpf4jnsgd1na2vs0mg"},{"bike_id":"da65d91d-801e-4ed3-aae5-38bce5ff6ca6","system_id":"levelo_inurba_marseille","lat":43.310658,"lon":5.383529,"is_reserved":false,"is_disabled":false,"rental_uris":{"android":"levelo://app?vid=da65d91d-801e-4ed3-aae5-38bce5ff6ca6","ios":"levelo://app?vid=da65d91d-801e-4ed3-aae5-38bce5ff6ca6"},"vehicle_type_id":"4","last_reported":1748409043,"current_range_meters":3200,"station_id":"ce4bgv92rcd13ifvqcr0","pricing_plan_id":"cebpf4jnsgd1na2vs0mg"},{"bike_id":"8e1e3d14-39e1-40c6-a572-79984978bd7d","system_id":"levelo_inurba_marseille","lat":43.22501,"lon":5.34785,"is_reserved":false,"is_disabled":false,"rental_uris":{"android":"levelo://app?vid=8e1e3d14-39e1-40c6-a572-79984978bd7d","ios":"levelo://app?vid=8e1e3d14-39e1-40c6-a572-79984978bd7d"},"vehicle_type_id":"4","last_reported":1748409043,"current_range_meters":3600,"station_id":"","pricing_plan_id":"cebpf4jnsgd1na2vs0mg"},{"bike_id":"ebc7cf5b-5342-434b-a191-b9ae5bdb48dc","system_id":"levelo_inurba_marseille","lat":43.27077,"lon":5.42282,"is_reserved":false,"is_disabled":false,"rental_uris":{"android":"levelo://app?vid=ebc7cf5b-5342-434b-a191-b9ae5bdb48dc","ios":"levelo://app?vid=ebc7cf5b-5342-434b-a191-b9ae5bdb48dc"},"vehicle_type_id":"4","last_reported":1748409043,"current_range_meters":0,"station_id":"ce4bhk92rcd13ifvqgb0","pricing_plan_id":"cebpf4jnsgd1na2vs0mg"},{"bike_id":"9ec64bde-3f51-4fe9-9a8a-9fb64d20884a","system_id":"levelo_inurba_marseille","lat":43.26208,"lon":5.37444,"is_reserved":false,"is_disabled":false,"rental_uris":{"android":"levelo://app?vid=9ec64bde-3f51-4fe9-9a8a-9fb64d20884a","ios":"levelo://app?vid=9ec64bde-3f51-4fe9-9a8a-9fb64d20884a"},"vehicle_type_id":"4","last_reported":1748409043,"current_range_meters":3600,"station_id":"ce4bhgp2rcd13ifvqfc0","pricing_plan_id":"cebpf4jnsgd1na2vs0mg"},{"bike_id":"2f50dc5b-dd1a-4fd7-b3a4-bca2ea8883de","system_id":"levelo_inurba_marseille","lat":43.319943,"lon":5.381429,"is_reserved":false,"is_disabled":false,"rental_uris":{"android":"levelo://app?vid=2f50dc5b-dd1a-4fd7-b3a4-bca2ea8883de","ios":"levelo://app?vid=2f50dc5b-dd1a-4fd7-b3a4-bca2ea8883de"},"vehicle_type_id":"4","last_reported":1748409043,"current_range_meters":3600,"station_id":"ce4bhr12rcd13ifvqhpg","pricing_plan_id":"cebpf4jnsgd1na2vs0mg"},{"bike_id":"87b8ee4c-fa01-47cc-a362-ca90e16bee98","system_id":"levelo_inurba_marseille","lat":43.30346,"lon":5.40435,"is_reserved":false,"is_disabled":false,"rental_uris":{"android":"levelo://app?vid=87b8ee4c-fa01-47cc-a362-ca90e16bee98","ios":"levelo://app?vid=87b8ee4c-fa01-47cc-a362-ca90e16bee98"},"vehicle_type_id":"4","last_reported":1748409043,"current_range_meters":4000,"station_id":"ce4bh012rcd13ifvqd10","pricing_plan_id":"cebpf4jnsgd1na2vs0mg"},{"bike_id":"73f138f2-14d8-4ce4-aa98-7c07ec00d12a","system_id":"levelo_inurba_marseille","lat":43.28333,"lon":5.38088,"is_reserved":false,"is_disabled":false,"rental_uris":{"android":"levelo://app?vid=73f138f2-14d8-4ce4-aa98-7c07ec00d12a","ios":"levelo://app?vid=73f138f2-14d8-4ce4-aa98-7c07ec00d12a"},"vehicle_type_id":"4","last_reported":1748409043,"current_range_meters":4400,"station_id":"ce4bh412rcd13ifvqdr0","pricing_plan_id":"cebpf4jnsgd1na2vs0mg"},{"bike_id":"3ec21973-a1d7-4ca4-be49-3fc654fc1ac2","system_id":"levelo_inurba_marseille","lat":43.26796,"lon":5.40273,"is_reserved":false,"is_disabled":false,"rental_uris":{"android":"levelo://app?vid=3ec21973-a1d7-4ca4-be49-3fc654fc1ac2","ios":"levelo://app?vid=3ec21973-a1d7-4ca4-be49-3fc654fc1ac2"},"vehicle_type_id":"4","last_reported":1748409043,"current_range_meters":4400,"station_id":"ce501612rcd8frsf0b60","pricing_plan_id":"cebpf4jnsgd1na2vs0mg"},{"bike_id":"f2f2c857-6ce7-4f18-9462-4e16197878f1","system_id":"levelo_inurba_marseille","lat":43.31673,"lon":5.37781,"is_reserved":false,"is_disabled":false,"rental_uris":{"android":"levelo://app?vid=f2f2c857-6ce7-4f18-9462-4e16197878f1","ios":"levelo://app?vid=f2f2c857-6ce7-4f18-9462-4e16197878f1"},"vehicle_type_id":"4","last_reported":1748409043,"current_range_meters":4800,"station_id":"","pricing_plan_id":"cebpf4jnsgd1na2vs0mg"},{"bike_id":"c2b0a191-bf31-4e89-8dc5-11d646e535b1","system_id":"levelo_inurba_marseille","lat":43.254969,"lon":5.37649,"is_reserved":false,"is_disabled":false,"rental_uris":{"android":"levelo://app?vid=c2b0a191-bf31-4e89-8dc5-11d646e535b1","ios":"levelo://app?vid=c2b0a191-bf31-4e89-8dc5-11d646e535b1"},"vehicle_type_id":"4","last_reported":1748409043,"current_range_meters":4800,"station_id":"","pricing_plan_id":"cebpf4jnsgd1na2vs0mg"},{"bike_id":"1a0998e5-8bb9-474f-a827-53cad24c9e8f","system_id":"levelo_inurba_marseille","lat":43.32036,"lon":5.44959,"is_reserved":false,"is_disabled":false,"rental_uris":{"android":"levelo://app?vid=1a0998e5-8bb9-474f-a827-53cad24c9e8f","ios":"levelo://app?vid=1a0998e5-8bb9-474f-a827-53cad24c9e8f"},"vehicle_type_id":"4","last_reported":1748409043,"current_range_meters":5600,"station_id":"","pricing_plan_id":"cebpf4jnsgd1na2vs0mg"},{"bike_id":"ca39f4ef-0212-44c3-b77e-5ab03fae5e5a","system_id":"levelo_inurba_marseille","lat":43.302415,"lon":5.400592,"is_reserved":false,"is_disabled":false,"rental_uris":{"android":"levelo://app?vid=ca39f4ef-0212-44c3-b77e-5ab03fae5e5a","ios":"levelo://app?vid=ca39f4ef-0212-44c3-b77e-5ab03fae5e5a"},"vehicle_type_id":"4","last_reported":1748409043,"current_range_meters":5600,"station_id":"ce4bgvh2rcd13ifvqcs0","pricing_plan_id":"cebpf4jnsgd1na2vs0mg"},{"bike_id":"507e72b9-2648-4d53-a3bc-aa45c2198a2e","system_id":"levelo_inurba_marseille","lat":43.30663,"lon":5.40095,"is_reserved":false,"is_disabled":true,"rental_uris":{"android":"levelo://app?vid=507e72b9-2648-4d53-a3bc-aa45c2198a2e","ios":"levelo://app?vid=507e72b9-2648-4d53-a3bc-aa45c2198a2e"},"vehicle_type_id":"4","last_reported":1748409043,"current_range_meters":6000,"station_id":"ce4bh112rcd13ifvqda0","pricing_plan_id":"cebpf4jnsgd1na2vs0mg"},{"bike_id":"2badb821-2859-4b8d-9b1a-9dfbe62ae729","system_id":"levelo_inurba_marseille","lat":43.303176,"lon":5.404463,"is_reserved":false,"is_disabled":false,"rental_uris":{"android":"levelo://app?vid=2badb821-2859-4b8d-9b1a-9dfbe62ae729","ios":"levelo://app?vid=2badb821-2859-4b8d-9b1a-9dfbe62ae729"},"vehicle_type_id":"4","last_reported":1748409043,"current_range_meters":6000,"station_id":"ce4bh012rcd13ifvqd10","pricing_plan_id":"cebpf4jnsgd1na2vs0mg"},{"bike_id":"ebea8428-788f-4a09-9234-58d5e2b61806","system_id":"levelo_inurba_marseille","lat":43.29585,"lon":5.36741,"is_reserved":false,"is_disabled":false,"rental_uris":{"android":"levelo://app?vid=ebea8428-788f-4a09-9234-58d5e2b61806","ios":"levelo://app?vid=ebea8428-788f-4a09-9234-58d5e2b61806"},"vehicle_type_id":"4","last_reported":1748409043,"current_range_meters":6000,"station_id":"ce4bgph2rcd13ifvqc2g","pricing_plan_id":"cebpf4jnsgd1na2vs0mg"},{"bike_id":"ae6e6868-2635-4f49-b7c1-b03759c58ec7","system_id":"levelo_inurba_marseille","lat":43.272989,"lon":5.416086,"is_reserved":false,"is_disabled":false,"rental_uris":{"android":"levelo://app?vid=ae6e6868-2635-4f49-b7c1-b03759c58ec7","ios":"levelo://app?vid=ae6e6868-2635-4f49-b7c1-b03759c58ec7"},"vehicle_type_id":"4","last_reported":1748409043,"current_range_meters":6000,"station_id":"","pricing_plan_id":"cebpf4jnsgd1na2vs0mg"},{"bike_id":"e9822bf6-601d-4e3b-a97c-5d51f2fe51a3","system_id":"levelo_inurba_marseille","lat":43.26389,"lon":5.37794,"is_reserved":false,"is_disabled":false,"rental_uris":{"android":"levelo://app?vid=e9822bf6-601d-4e3b-a97c-5d51f2fe51a3","ios":"levelo://app?vid=e9822bf6-601d-4e3b-a97c-5d51f2fe51a3"},"vehicle_type_id":"4","last_reported":1748409043,"current_range_meters":6000,"station_id":"","pricing_plan_id":"cebpf4jnsgd1na2vs0mg"},{"bike_id":"765a5150-62da-407f-a255-c32151d126c4","system_id":"levelo_inurba_marseille","lat":43.288571,"lon":5.358441,"is_reserved":false,"is_disabled":true,"rental_uris":{"android":"levelo://app?vid=765a5150-62da-407f-a255-c32151d126c4","ios":"levelo://app?vid=765a5150-62da-407f-a255-c32151d126c4"},"vehicle_type_id":"4","last_reported":1748409043,"current_range_meters":6000,"station_id":"ce4bhb12rcd13ifvqem0","pricing_plan_id":"cebpf4jnsgd1na2vs0mg"},{"bike_id":"2621921b-742a-4cef-8fb9-86afebf4ef48","system_id":"levelo_inurba_marseille","lat":43.26803,"lon":5.40201,"is_reserved":false,"is_disabled":false,"rental_uris":{"android":"levelo://app?vid=2621921b-742a-4cef-8fb9-86afebf4ef48","ios":"levelo://app?vid=2621921b-742a-4cef-8fb9-86afebf4ef48"},"vehicle_type_id":"4","last_reported":1748409043,"current_range_meters":6000,"station_id":"ce501612rcd8frsf0b60","pricing_plan_id":"cebpf4jnsgd1na2vs0mg"},{"bike_id":"a7bcb1f1-7682-4d43-a695-1c800fa5f5e8","system_id":"levelo_inurba_marseille","lat":43.28711,"lon":5.37397,"is_reserved":false,"is_disabled":false,"rental_uris":{"android":"levelo://app?vid=a7bcb1f1-7682-4d43-a695-1c800fa5f5e8","ios":"levelo://app?vid=a7bcb1f1-7682-4d43-a695-1c800fa5f5e8"},"vehicle_type_id":"4","last_reported":1748409043,"current_range_meters":6000,"station_id":"ce4bh3p2rcd13ifvqdq0","pricing_plan_id":"cebpf4jnsgd1na2vs0mg"},{"bike_id":"143c2ab4-f42c-444a-976a-2bc9c3850a17","system_id":"levelo_inurba_marseille","lat":43.30224,"lon":5.39468,"is_reserved":false,"is_disabled":false,"rental_uris":{"android":"levelo://app?vid=143c2ab4-f42c-444a-976a-2bc9c3850a17","ios":"levelo://app?vid=143c2ab4-f42c-444a-976a-2bc9c3850a17"},"vehicle_type_id":"4","last_reported":1748409043,"current_range_meters":6000,"station_id":"ce4bh0p2rcd13ifvqd70","pricing_plan_id":"cebpf4jnsgd1na2vs0mg"},{"bike_id":"a382f3df-edfa-456b-8f81-d62e49146343","system_id":"levelo_inurba_marseille","lat":43.30886,"lon":5.39628,"is_reserved":false,"is_disabled":false,"rental_uris":{"android":"levelo://app?vid=a382f3df-edfa-456b-8f81-d62e49146343","ios":"levelo://app?vid=a382f3df-edfa-456b-8f81-d62e49146343"},"vehicle_type_id":"4","last_reported":1748409043,"current_range_meters":6400,"station_id":"ce4bh012rcd13ifvqcv0","pricing_plan_id":"cebpf4jnsgd1na2vs0mg"},{"bike_id":"ee617531-7300-4958-baa3-db4f90ad5721","system_id":"levelo_inurba_marseille","lat":43.258214,"lon":5.394329,"is_reserved":false,"is_disabled":false,"rental_uris":{"android":"levelo://app?vid=ee617531-7300-4958-baa3-db4f90ad5721","ios":"levelo://app?vid=ee617531-7300-4958-baa3-db4f90ad5721"},"vehicle_type_id":"4","last_reported":1748409043,"current_range_meters":6400,"station_id":"ce4bhip2rcd13ifvqft0","pricing_plan_id":"cebpf4jnsgd1na2vs0mg"},{"bike_id":"8ac2acc6-b767-4c1c-bcde-982458034c88","system_id":"levelo_inurba_marseille","lat":43.311932,"lon":5.416271,"is_reserved":false,"is_disabled":false,"rental_uris":{"android":"levelo://app?vid=8ac2acc6-b767-4c1c-bcde-982458034c88","ios":"levelo://app?vid=8ac2acc6-b767-4c1c-bcde-982458034c88"},"vehicle_type_id":"4","last_reported":1748409043,"current_range_meters":6400,"station_id":"","pricing_plan_id":"cebpf4jnsgd1na2vs0mg"},{"bike_id":"2ec9bbcc-6279-4ac4-a806-1279010ba65b","system_id":"levelo_inurba_marseille","lat":43.24996,"lon":5.38969,"is_reserved":false,"is_disabled":false,"rental_uris":{"android":"levelo://app?vid=2ec9bbcc-6279-4ac4-a806-1279010ba65b","ios":"levelo://app?vid=2ec9bbcc-6279-4ac4-a806-1279010ba65b"},"vehicle_type_id":"4","last_reported":1748409043,"current_range_meters":6400,"station_id":"ce4bhgp2rcd13ifvqfd0","pricing_plan_id":"cebpf4jnsgd1na2vs0mg"},{"bike_id":"9ccbac86-38e4-4ddf-a8ae-e8e6aad748d0","system_id":"levelo_inurba_marseille","lat":43.30413,"lon":5.41288,"is_reserved":false,"is_disabled":true,"rental_uris":{"android":"levelo://app?vid=9ccbac86-38e4-4ddf-a8ae-e8e6aad748d0","ios":"levelo://app?vid=9ccbac86-38e4-4ddf-a8ae-e8e6aad748d0"},"vehicle_type_id":"4","last_reported":1748409043,"current_range_meters":6400,"station_id":"ce4bhop2rcd13ifvqh8g","pricing_plan_id":"cebpf4jnsgd1na2vs0mg"},{"bike_id":"41f3a81a-1f9a-499b-95e6-feb508389a33","system_id":"levelo_inurba_marseille","lat":43.30557,"lon":5.39319,"is_reserved":false,"is_disabled":false,"rental_uris":{"android":"levelo://app?vid=41f3a81a-1f9a-499b-95e6-feb508389a33","ios":"levelo://app?vid=41f3a81a-1f9a-499b-95e6-feb508389a33"},"vehicle_type_id":"4","last_reported":1748409043,"current_range_meters":6400,"station_id":"ce4bh0p2rcd13ifvqd80","pricing_plan_id":"cebpf4jnsgd1na2vs0mg"},{"bike_id":"a29a2708-797f-4e9a-9f1a-17352bf6f3db","system_id":"levelo_inurba_marseille","lat":43.27362,"lon":5.39115,"is_reserved":false,"is_disabled":true,"rental_uris":{"android":"levelo://app?vid=a29a2708-797f-4e9a-9f1a-17352bf6f3db","ios":"levelo://app?vid=a29a2708-797f-4e9a-9f1a-17352bf6f3db"},"vehicle_type_id":"4","last_reported":1748409043,"current_range_meters":6400,"station_id":"","pricing_plan_id":"cebpf4jnsgd1na2vs0mg"},{"bike_id":"23de4052-cb46-4e48-b89a-1c15238ad9fd","system_id":"levelo_inurba_marseille","lat":43.29518,"lon":5.37496,"is_reserved":false,"is_disabled":false,"rental_uris":{"android":"levelo://app?vid=23de4052-cb46-4e48-b89a-1c15238ad9fd","ios":"levelo://app?vid=23de4052-cb46-4e48-b89a-1c15238ad9fd"},"vehicle_type_id":"4","last_reported":1748409043,"current_range_meters":6400,"station_id":"ce4bgkp2rcd13ifvqbmg","pricing_plan_id":"cebpf4jnsgd1na2vs0mg"},{"bike_id":"61102199-8f5b-4b88-8d5b-5ea241266078","system_id":"levelo_inurba_marseille","lat":43.292563,"lon":5.408989,"is_reserved":false,"is_disabled":false,"rental_uris":{"android":"levelo://app?vid=61102199-8f5b-4b88-8d5b-5ea241266078","ios":"levelo://app?vid=61102199-8f5b-4b88-8d5b-5ea241266078"},"vehicle_type_id":"4","last_reported":1748409043,"current_range_meters":6400,"station_id":"ce4bh192rcd13ifvqdc0","pricing_plan_id":"cebpf4jnsgd1na2vs0mg"},{"bike_id":"4366209f-542f-4ffd-8ff1-3fdbaaffc9ae","system_id":"levelo_inurba_marseille","lat":43.31065,"lon":5.38375,"is_reserved":false,"is_disabled":false,"rental_uris":{"android":"levelo://app?vid=4366209f-542f-4ffd-8ff1-3fdbaaffc9ae","ios":"levelo://app?vid=4366209f-542f-4ffd-8ff1-3fdbaaffc9ae"},"vehicle_type_id":"4","last_reported":1748409043,"current_range_meters":6800,"station_id":"ce4bgv92rcd13ifvqcr0","pricing_plan_id":"cebpf4jnsgd1na2vs0mg"},{"bike_id":"c698dd58-c091-48d8-94f5-37450fb5f29f","system_id":"levelo_inurba_marseille","lat":43.309573,"lon":5.390363,"is_reserved":false,"is_disabled":false,"rental_uris":{"android":"levelo://app?vid=c698dd58-c091-48d8-94f5-37450fb5f29f","ios":"levelo://app?vid=c698dd58-c091-48d8-94f5-37450fb5f29f"},"vehicle_type_id":"4","last_reported":1748409043,"current_range_meters":6800,"station_id":"ce4bgup2rcd13ifvqco0","pricing_plan_id":"cebpf4jnsgd1na2vs0mg"},{"bike_id":"9946121a-e441-4db9-b342-d50b7a06f604","system_id":"levelo_inurba_marseille","lat":43.317024,"lon":5.377749,"is_reserved":false,"is_disabled":false,"rental_uris":{"android":"levelo://app?vid=9946121a-e441-4db9-b342-d50b7a06f604","ios":"levelo://app?vid=9946121a-e441-4db9-b342-d50b7a06f604"},"vehicle_type_id":"4","last_reported":1748409043,"current_range_meters":6800,"station_id":"ce4bgth2rcd13ifvqch0","pricing_plan_id":"cebpf4jnsgd1na2vs0mg"},{"bike_id":"34763314-403b-4c55-abdc-859ee08cb61a","system_id":"levelo_inurba_marseille","lat":43.30461,"lon":5.37912,"is_reserved":false,"is_disabled":false,"rental_uris":{"android":"levelo://app?vid=34763314-403b-4c55-abdc-859ee08cb61a","ios":"levelo://app?vid=34763314-403b-4c55-abdc-859ee08cb61a"},"vehicle_type_id":"4","last_reported":1748409043,"current_range_meters":6800,"station_id":"ce4bgup2rcd13ifvqcn0","pricing_plan_id":"cebpf4jnsgd1na2vs0mg"},{"bike_id":"5f9c5496-3174-456b-b61e-c7aee3362f7a","system_id":"levelo_inurba_marseille","lat":43.291922,"lon":5.393154,"is_reserved":false,"is_disabled":false,"rental_uris":{"android":"levelo://app?vid=5f9c5496-3174-456b-b61e-c7aee3362f7a","ios":"levelo://app?vid=5f9c5496-3174-456b-b61e-c7aee3362f7a"},"vehicle_type_id":"4","last_reported":1748409043,"current_range_meters":6800,"station_id":"ce4bh192rcd13ifvqdd0","pricing_plan_id":"cebpf4jnsgd1na2vs0mg"},{"bike_id":"ceb81090-b40e-47dd-bc35-8598d269ef58","system_id":"levelo_inurba_marseille","lat":43.26641,"lon":5.38433,"is_reserved":false,"is_disabled":false,"rental_uris":{"android":"levelo://app?vid=ceb81090-b40e-47dd-bc35-8598d269ef58","ios":"levelo://app?vid=ceb81090-b40e-47dd-bc35-8598d269ef58"},"vehicle_type_id":"4","last_reported":1748409043,"current_range_meters":7200,"station_id":"","pricing_plan_id":"cebpf4jnsgd1na2vs0mg"},{"bike_id":"025226b6-a6c8-456c-acb5-2494f335f577","system_id":"levelo_inurba_marseille","lat":43.32674,"lon":5.40974,"is_reserved":false,"is_disabled":false,"rental_uris":{"android":"levelo://app?vid=025226b6-a6c8-456c-acb5-2494f335f577","ios":"levelo://app?vid=025226b6-a6c8-456c-acb5-2494f335f577"},"vehicle_type_id":"4","last_reported":1748409043,"current_range_meters":7200,"station_id":"ce4bhpp2rcd13ifvqhgg","pricing_plan_id":"cebpf4jnsgd1na2vs0mg"},{"bike_id":"c0e8dbd5-9ec0-46b4-9176-6ba6be298f0d","system_id":"levelo_inurba_marseille","lat":43.270746,"lon":5.422824,"is_reserved":false,"is_disabled":false,"rental_uris":{"android":"levelo://app?vid=c0e8dbd5-9ec0-46b4-9176-6ba6be298f0d","ios":"levelo://app?vid=c0e8dbd5-9ec0-46b4-9176-6ba6be298f0d"},"vehicle_type_id":"4","last_reported":1748409043,"current_range_meters":7200,"station_id":"ce4bhk92rcd13ifvqgb0","pricing_plan_id":"cebpf4jnsgd1na2vs0mg"},{"bike_id":"760bcd8b-a4e0-4b4e-bedb-6462d7843576","system_id":"levelo_inurba_marseille","lat":43.292569,"lon":5.368511,"is_reserved":false,"is_disabled":true,"rental_uris":{"android":"levelo://app?vid=760bcd8b-a4e0-4b4e-bedb-6462d7843576","ios":"levelo://app?vid=760bcd8b-a4e0-4b4e-bedb-6462d7843576"},"vehicle_type_id":"4","last_reported":1748409043,"current_range_meters":7200,"station_id":"ce4bhbp2rcd13ifvqesg","pricing_plan_id":"cebpf4jnsgd1na2vs0mg"},{"bike_id":"2deb837f-60f5-41e9-9613-f643799ee2cc","system_id":"levelo_inurba_marseille","lat":43.24537,"lon":5.39514,"is_reserved":false,"is_disabled":false,"rental_uris":{"android":"levelo://app?vid=2deb837f-60f5-41e9-9613-f643799ee2cc","ios":"levelo://app?vid=2deb837f-60f5-41e9-9613-f643799ee2cc"},"vehicle_type_id":"4","last_reported":1748409043,"current_range_meters":7200,"station_id":"ce4bhlp2rcd13ifvqgjg","pricing_plan_id":"cebpf4jnsgd1na2vs0mg"},{"bike_id":"0a3ef987-84c3-4749-8364-35366df6e26b","system_id":"levelo_inurba_marseille","lat":43.28565,"lon":5.39481,"is_reserved":false,"is_disabled":false,"rental_uris":{"android":"levelo://app?vid=0a3ef987-84c3-4749-8364-35366df6e26b","ios":"levelo://app?vid=0a3ef987-84c3-4749-8364-35366df6e26b"},"vehicle_type_id":"4","last_reported":1748409043,"current_range_meters":7200,"station_id":"ce4bh292rcd13ifvqdg0","pricing_plan_id":"cebpf4jnsgd1na2vs0mg"},{"bike_id":"db5fc6cf-a2ce-4388-aeec-6b1457e20626","system_id":"levelo_inurba_marseille","lat":43.30815,"lon":5.38145,"is_reserved":false,"is_disabled":false,"rental_uris":{"android":"levelo://app?vid=db5fc6cf-a2ce-4388-aeec-6b1457e20626","ios":"levelo://app?vid=db5fc6cf-a2ce-4388-aeec-6b1457e20626"},"vehicle_type_id":"4","last_reported":1748409043,"current_range_meters":7200,"station_id":"ce4bgt12rcd13ifvqce0","pricing_plan_id":"cebpf4jnsgd1na2vs0mg"},{"bike_id":"ecec0dbe-0ccb-470d-bc6b-7e71f374730a","system_id":"levelo_inurba_marseille","lat":43.239604,"lon":5.36628,"is_reserved":false,"is_disabled":false,"rental_uris":{"android":"levelo://app?vid=ecec0dbe-0ccb-470d-bc6b-7e71f374730a","ios":"levelo://app?vid=ecec0dbe-0ccb-470d-bc6b-7e71f374730a"},"vehicle_type_id":"4","last_reported":1748409043,"current_range_meters":7200,"station_id":"ce4bhi12rcd13ifvqfp0","pricing_plan_id":"cebpf4jnsgd1na2vs0mg"},{"bike_id":"7e823e3b-1b92-4735-8533-dc1341b80eaf","system_id":"levelo_inurba_marseille","lat":43.230493,"lon":5.354972,"is_reserved":false,"is_disabled":true,"rental_uris":{"android":"levelo://app?vid=7e823e3b-1b92-4735-8533-dc1341b80eaf","ios":"levelo://app?vid=7e823e3b-1b92-4735-8533-dc1341b80eaf"},"vehicle_type_id":"4","last_reported":1748409043,"current_range_meters":7200,"station_id":"cpo3342slgdg3j2ifvpg","pricing_plan_id":"cebpf4jnsgd1na2vs0mg"},{"bike_id":"c2f75e22-6fed-4646-a5c2-8cb463b122f4","system_id":"levelo_inurba_marseille","lat":43.32291,"lon":5.37647,"is_reserved":false,"is_disabled":false,"rental_uris":{"android":"levelo://app?vid=c2f75e22-6fed-4646-a5c2-8cb463b122f4","ios":"levelo://app?vid=c2f75e22-6fed-4646-a5c2-8cb463b122f4"},"vehicle_type_id":"4","last_reported":1748409043,"current_range_meters":7200,"station_id":"","pricing_plan_id":"cebpf4jnsgd1na2vs0mg"},{"bike_id":"ce243f79-97e1-4d08-8264-3b8fc271bfb9","system_id":"levelo_inurba_marseille","lat":43.31361,"lon":5.36709,"is_reserved":false,"is_disabled":false,"rental_uris":{"android":"levelo://app?vid=ce243f79-97e1-4d08-8264-3b8fc271bfb9","ios":"levelo://app?vid=ce243f79-97e1-4d08-8264-3b8fc271bfb9"},"vehicle_type_id":"4","last_reported":1748409043,"current_range_meters":7200,"station_id":"ce4bgr92rcd13ifvqc6g","pricing_plan_id":"cebpf4jnsgd1na2vs0mg"},{"bike_id":"0f606be2-f029-415a-82ed-4cb4eff755f6","system_id":"levelo_inurba_marseille","lat":43.30794,"lon":5.38139,"is_reserved":false,"is_disabled":false,"rental_uris":{"android":"levelo://app?vid=0f606be2-f029-415a-82ed-4cb4eff755f6","ios":"levelo://app?vid=0f606be2-f029-415a-82ed-4cb4eff755f6"},"vehicle_type_id":"4","last_reported":1748409043,"current_range_meters":8000,"station_id":"ce4bgt12rcd13ifvqce0","pricing_plan_id":"cebpf4jnsgd1na2vs0mg"},{"bike_id":"1e554509-568d-4da0-be2c-33eb861263ab","system_id":"levelo_inurba_marseille","lat":43.29965,"lon":5.41321,"is_reserved":false,"is_disabled":false,"rental_uris":{"android":"levelo://app?vid=1e554509-568d-4da0-be2c-33eb861263ab","ios":"levelo://app?vid=1e554509-568d-4da0-be2c-33eb861263ab"},"vehicle_type_id":"4","last_reported":1748409043,"current_range_meters":8000,"station_id":"ce4bhp12rcd13ifvqh9g","pricing_plan_id":"cebpf4jnsgd1na2vs0mg"},{"bike_id":"e6c65de3-7d92-4979-809c-6677188473c0","system_id":"levelo_inurba_marseille","lat":43.337598,"lon":5.374632,"is_reserved":false,"is_disabled":false,"rental_uris":{"android":"levelo://app?vid=e6c65de3-7d92-4979-809c-6677188473c0","ios":"levelo://app?vid=e6c65de3-7d92-4979-809c-6677188473c0"},"vehicle_type_id":"4","last_reported":1748409043,"current_range_meters":8000,"station_id":"","pricing_plan_id":"cebpf4jnsgd1na2vs0mg"},{"bike_id":"f4dd589b-5b58-470a-a2c9-9de3a4398e71","system_id":"levelo_inurba_marseille","lat":43.22915,"lon":5.35376,"is_reserved":false,"is_disabled":false,"rental_uris":{"android":"levelo://app?vid=f4dd589b-5b58-470a-a2c9-9de3a4398e71","ios":"levelo://app?vid=f4dd589b-5b58-470a-a2c9-9de3a4398e71"},"vehicle_type_id":"4","last_reported":1748409043,"current_range_meters":8000,"station_id":"cpo3532slgdg3j2ikp40","pricing_plan_id":"cebpf4jnsgd1na2vs0mg"},{"bike_id":"8a8da44b-f0bc-49bf-a97a-1dee19c6a572","system_id":"levelo_inurba_marseille","lat":43.23179,"lon":5.35552,"is_reserved":false,"is_disabled":false,"rental_uris":{"android":"levelo://app?vid=8a8da44b-f0bc-49bf-a97a-1dee19c6a572","ios":"levelo://app?vid=8a8da44b-f0bc-49bf-a97a-1dee19c6a572"},"vehicle_type_id":"4","last_reported":1748409043,"current_range_meters":8000,"station_id":"ce4bhu92rcd13ifvqi70","pricing_plan_id":"cebpf4jnsgd1na2vs0mg"},{"bike_id":"ede9773a-3bb5-49a2-af67-a49560b3e7e3","system_id":"levelo_inurba_marseille","lat":43.30665,"lon":5.4009,"is_reserved":false,"is_disabled":false,"rental_uris":{"android":"levelo://app?vid=ede9773a-3bb5-49a2-af67-a49560b3e7e3","ios":"levelo://app?vid=ede9773a-3bb5-49a2-af67-a49560b3e7e3"},"vehicle_type_id":"4","last_reported":1748409043,"current_range_meters":8000,"station_id":"ce4bh112rcd13ifvqda0","pricing_plan_id":"cebpf4jnsgd1na2vs0mg"},{"bike_id":"67e29cd5-d452-4bd4-9cb2-e00f2c46695e","system_id":"levelo_inurba_marseille","lat":43.32058,"lon":5.41533,"is_reserved":false,"is_disabled":false,"rental_uris":{"android":"levelo://app?vid=67e29cd5-d452-4bd4-9cb2-e00f2c46695e","ios":"levelo://app?vid=67e29cd5-d452-4bd4-9cb2-e00f2c46695e"},"vehicle_type_id":"4","last_reported":1748409043,"current_range_meters":8000,"station_id":"ce4bhq92rcd13ifvqhkg","pricing_plan_id":"cebpf4jnsgd1na2vs0mg"},{"bike_id":"543be11a-7fbe-4912-a6c0-a92b89d4636a","system_id":"levelo_inurba_marseille","lat":43.30648,"lon":5.40078,"is_reserved":false,"is_disabled":false,"rental_uris":{"android":"levelo://app?vid=543be11a-7fbe-4912-a6c0-a92b89d4636a","ios":"levelo://app?vid=543be11a-7fbe-4912-a6c0-a92b89d4636a"},"vehicle_type_id":"4","last_reported":1748409043,"current_range_meters":8400,"station_id":"ce4bh112rcd13ifvqda0","pricing_plan_id":"cebpf4jnsgd1na2vs0mg"},{"bike_id":"6ef27e84-462a-46f9-afe5-e09b209cc7f0","system_id":"levelo_inurba_marseille","lat":43.331163,"lon":5.362069,"is_reserved":false,"is_disabled":false,"rental_uris":{"android":"levelo://app?vid=6ef27e84-462a-46f9-afe5-e09b209cc7f0","ios":"levelo://app?vid=6ef27e84-462a-46f9-afe5-e09b209cc7f0"},"vehicle_type_id":"4","last_reported":1748409043,"current_range_meters":8400,"station_id":"","pricing_plan_id":"cebpf4jnsgd1na2vs0mg"},{"bike_id":"226e8884-45e8-4155-9023-6b9c578286c2","system_id":"levelo_inurba_marseille","lat":43.3056,"lon":5.37196,"is_reserved":false,"is_disabled":true,"rental_uris":{"android":"levelo://app?vid=226e8884-45e8-4155-9023-6b9c578286c2","ios":"levelo://app?vid=226e8884-45e8-4155-9023-6b9c578286c2"},"vehicle_type_id":"4","last_reported":1748409043,"current_range_meters":8400,"station_id":"","pricing_plan_id":"cebpf4jnsgd1na2vs0mg"},{"bike_id":"630e3090-df9f-4e61-a2d8-b2bbefd032a0","system_id":"levelo_inurba_marseille","lat":43.24625,"lon":5.39291,"is_reserved":false,"is_disabled":false,"rental_uris":{"android":"levelo://app?vid=630e3090-df9f-4e61-a2d8-b2bbefd032a0","ios":"levelo://app?vid=630e3090-df9f-4e61-a2d8-b2bbefd032a0"},"vehicle_type_id":"4","last_reported":1748409043,"current_range_meters":8400,"station_id":"","pricing_plan_id":"cebpf4jnsgd1na2vs0mg"},{"bike_id":"7e2d13cd-01ed-48be-a1b4-1756640f6409","system_id":"levelo_inurba_marseille","lat":43.30941,"lon":5.39023,"is_reserved":false,"is_disabled":true,"rental_uris":{"android":"levelo://app?vid=7e2d13cd-01ed-48be-a1b4-1756640f6409","ios":"levelo://app?vid=7e2d13cd-01ed-48be-a1b4-1756640f6409"},"vehicle_type_id":"4","last_reported":1748409043,"current_range_meters":8400,"station_id":"ce4bgup2rcd13ifvqco0","pricing_plan_id":"cebpf4jnsgd1na2vs0mg"},{"bike_id":"1c4d626c-93ab-41b9-815e-96048904b577","system_id":"levelo_inurba_marseille","lat":43.24048,"lon":5.3779,"is_reserved":false,"is_disabled":false,"rental_uris":{"android":"levelo://app?vid=1c4d626c-93ab-41b9-815e-96048904b577","ios":"levelo://app?vid=1c4d626c-93ab-41b9-815e-96048904b577"},"vehicle_type_id":"4","last_reported":1748409043,"current_range_meters":8400,"station_id":"ce4bhnp2rcd13ifvqgvg","pricing_plan_id":"cebpf4jnsgd1na2vs0mg"},{"bike_id":"bc7e556b-5270-4da4-b345-eef5c20dc266","system_id":"levelo_inurba_marseille","lat":43.30471,"lon":5.37905,"is_reserved":false,"is_disabled":false,"rental_uris":{"android":"levelo://app?vid=bc7e556b-5270-4da4-b345-eef5c20dc266","ios":"levelo://app?vid=bc7e556b-5270-4da4-b345-eef5c20dc266"},"vehicle_type_id":"4","last_reported":1748409043,"current_range_meters":8400,"station_id":"ce4bgup2rcd13ifvqcn0","pricing_plan_id":"cebpf4jnsgd1na2vs0mg"},{"bike_id":"a3ac0e4d-492d-457a-8b5d-3ba549ed986d","system_id":"levelo_inurba_marseille","lat":43.294524,"lon":5.397512,"is_reserved":false,"is_disabled":false,"rental_uris":{"android":"levelo://app?vid=a3ac0e4d-492d-457a-8b5d-3ba549ed986d","ios":"levelo://app?vid=a3ac0e4d-492d-457a-8b5d-3ba549ed986d"},"vehicle_type_id":"4","last_reported":1748409043,"current_range_meters":8800,"station_id":"ce4bh3h2rcd13ifvqdo0","pricing_plan_id":"cebpf4jnsgd1na2vs0mg"},{"bike_id":"b32614ad-8db0-4347-b4d2-2e88c18e1ef6","system_id":"levelo_inurba_marseille","lat":43.31111,"lon":5.37763,"is_reserved":false,"is_disabled":false,"rental_uris":{"android":"levelo://app?vid=b32614ad-8db0-4347-b4d2-2e88c18e1ef6","ios":"levelo://app?vid=b32614ad-8db0-4347-b4d2-2e88c18e1ef6"},"vehicle_type_id":"4","last_reported":1748409043,"current_range_meters":8800,"station_id":"ce4bgt92rcd13ifvqcg0","pricing_plan_id":"cebpf4jnsgd1na2vs0mg"},{"bike_id":"31eb1c1c-c5a5-4f60-aaa0-7dd8c371696a","system_id":"levelo_inurba_marseille","lat":43.279394,"lon":5.410473,"is_reserved":false,"is_disabled":true,"rental_uris":{"android":"levelo://app?vid=31eb1c1c-c5a5-4f60-aaa0-7dd8c371696a","ios":"levelo://app?vid=31eb1c1c-c5a5-4f60-aaa0-7dd8c371696a"},"vehicle_type_id":"4","last_reported":1748409043,"current_range_meters":8800,"station_id":"ce4bhnp2rcd13ifvqh0g","pricing_plan_id":"cebpf4jnsgd1na2vs0mg"},{"bike_id":"f0d83b53-4594-4033-afb0-0d9b1a402851","system_id":"levelo_inurba_marseille","lat":43.31042,"lon":5.37793,"is_reserved":false,"is_disabled":false,"rental_uris":{"android":"levelo://app?vid=f0d83b53-4594-4033-afb0-0d9b1a402851","ios":"levelo://app?vid=f0d83b53-4594-4033-afb0-0d9b1a402851"},"vehicle_type_id":"4","last_reported":1748409043,"current_range_meters":8800,"station_id":"","pricing_plan_id":"cebpf4jnsgd1na2vs0mg"},{"bike_id":"8895786b-db23-4228-aba4-b0769c4cb004","system_id":"levelo_inurba_marseille","lat":43.31976,"lon":5.38158,"is_reserved":false,"is_disabled":false,"rental_uris":{"android":"levelo://app?vid=8895786b-db23-4228-aba4-b0769c4cb004","ios":"levelo://app?vid=8895786b-db23-4228-aba4-b0769c4cb004"},"vehicle_type_id":"4","last_reported":1748409043,"current_range_meters":8800,"station_id":"ce4bhr12rcd13ifvqhpg","pricing_plan_id":"cebpf4jnsgd1na2vs0mg"},{"bike_id":"3a257052-2ee4-4d33-9e33-3926dfd10810","system_id":"levelo_inurba_marseille","lat":43.310656,"lon":5.383521,"is_reserved":false,"is_disabled":false,"rental_uris":{"android":"levelo://app?vid=3a257052-2ee4-4d33-9e33-3926dfd10810","ios":"levelo://app?vid=3a257052-2ee4-4d33-9e33-3926dfd10810"},"vehicle_type_id":"4","last_reported":1748409043,"current_range_meters":8800,"station_id":"ce4bgv92rcd13ifvqcr0","pricing_plan_id":"cebpf4jnsgd1na2vs0mg"},{"bike_id":"436d70fa-07c2-41b1-9b01-3bed2b522ce2","system_id":"levelo_inurba_marseille","lat":43.303787,"lon":5.424903,"is_reserved":false,"is_disabled":false,"rental_uris":{"android":"levelo://app?vid=436d70fa-07c2-41b1-9b01-3bed2b522ce2","ios":"levelo://app?vid=436d70fa-07c2-41b1-9b01-3bed2b522ce2"},"vehicle_type_id":"4","last_reported":1748409043,"current_range_meters":8800,"station_id":"ce4bhoh2rcd13ifvqh6g","pricing_plan_id":"cebpf4jnsgd1na2vs0mg"},{"bike_id":"5c29a350-f368-474d-9c37-db39342a3756","system_id":"levelo_inurba_marseille","lat":43.31728,"lon":5.3778,"is_reserved":false,"is_disabled":false,"rental_uris":{"android":"levelo://app?vid=5c29a350-f368-474d-9c37-db39342a3756","ios":"levelo://app?vid=5c29a350-f368-474d-9c37-db39342a3756"},"vehicle_type_id":"4","last_reported":1748409043,"current_range_meters":8800,"station_id":"ce4bgth2rcd13ifvqch0","pricing_plan_id":"cebpf4jnsgd1na2vs0mg"},{"bike_id":"f689d449-d0ec-464c-9319-de295e0a037a","system_id":"levelo_inurba_marseille","lat":43.239598,"lon":5.366297,"is_reserved":false,"is_disabled":true,"rental_uris":{"android":"levelo://app?vid=f689d449-d0ec-464c-9319-de295e0a037a","ios":"levelo://app?vid=f689d449-d0ec-464c-9319-de295e0a037a"},"vehicle_type_id":"4","last_reported":1748409043,"current_range_meters":8800,"station_id":"ce4bhi12rcd13ifvqfp0","pricing_plan_id":"cebpf4jnsgd1na2vs0mg"},{"bike_id":"54f42461-ad93-4cd0-87b6-f2c3877f5489","system_id":"levelo_inurba_marseille","lat":43.27985,"lon":5.41666,"is_reserved":false,"is_disabled":false,"rental_uris":{"android":"levelo://app?vid=54f42461-ad93-4cd0-87b6-f2c3877f5489","ios":"levelo://app?vid=54f42461-ad93-4cd0-87b6-f2c3877f5489"},"vehicle_type_id":"4","last_reported":1748409043,"current_range_meters":8800,"station_id":"ce4bho12rcd13ifvqh1g","pricing_plan_id":"cebpf4jnsgd1na2vs0mg"},{"bike_id":"2a046dee-b3af-48c9-9659-b7d30ba20af5","system_id":"levelo_inurba_marseille","lat":43.2434,"lon":5.37991,"is_reserved":false,"is_disabled":false,"rental_uris":{"android":"levelo://app?vid=2a046dee-b3af-48c9-9659-b7d30ba20af5","ios":"levelo://app?vid=2a046dee-b3af-48c9-9659-b7d30ba20af5"},"vehicle_type_id":"4","last_reported":1748409043,"current_range_meters":8800,"station_id":"","pricing_plan_id":"cebpf4jnsgd1na2vs0mg"},{"bike_id":"92c20333-f1be-4048-8f1a-30fdeff2a990","system_id":"levelo_inurba_marseille","lat":43.3303,"lon":5.39035,"is_reserved":false,"is_disabled":false,"rental_uris":{"android":"levelo://app?vid=92c20333-f1be-4048-8f1a-30fdeff2a990","ios":"levelo://app?vid=92c20333-f1be-4048-8f1a-30fdeff2a990"},"vehicle_type_id":"4","last_reported":1748409043,"current_range_meters":8800,"station_id":"ce4bhr92rcd13ifvqhrg","pricing_plan_id":"cebpf4jnsgd1na2vs0mg"},{"bike_id":"7a65e3be-209f-451a-8d0f-734d6f59b819","system_id":"levelo_inurba_marseille","lat":43.29495,"lon":5.39486,"is_reserved":false,"is_disabled":false,"rental_uris":{"android":"levelo://app?vid=7a65e3be-209f-451a-8d0f-734d6f59b819","ios":"levelo://app?vid=7a65e3be-209f-451a-8d0f-734d6f59b819"},"vehicle_type_id":"4","last_reported":1748409043,"current_range_meters":9200,"station_id":"","pricing_plan_id":"cebpf4jnsgd1na2vs0mg"},{"bike_id":"0e7a1463-a322-4d31-811e-e317647a58f9","system_id":"levelo_inurba_marseille","lat":43.306477,"lon":5.400746,"is_reserved":false,"is_disabled":false,"rental_uris":{"android":"levelo://app?vid=0e7a1463-a322-4d31-811e-e317647a58f9","ios":"levelo://app?vid=0e7a1463-a322-4d31-811e-e317647a58f9"},"vehicle_type_id":"4","last_reported":1748409043,"current_range_meters":9200,"station_id":"ce4bh112rcd13ifvqda0","pricing_plan_id":"cebpf4jnsgd1na2vs0mg"},{"bike_id":"a3a1e2f8-c082-4657-9cf8-ceb282e14a71","system_id":"levelo_inurba_marseille","lat":43.23193,"lon":5.39991,"is_reserved":false,"is_disabled":false,"rental_uris":{"android":"levelo://app?vid=a3a1e2f8-c082-4657-9cf8-ceb282e14a71","ios":"levelo://app?vid=a3a1e2f8-c082-4657-9cf8-ceb282e14a71"},"vehicle_type_id":"4","last_reported":1748409043,"current_range_meters":9200,"station_id":"ce4bhn12rcd13ifvqgqg","pricing_plan_id":"cebpf4jnsgd1na2vs0mg"},{"bike_id":"7aada5ca-e1c3-4b6b-b301-a25ef474274f","system_id":"levelo_inurba_marseille","lat":43.2396,"lon":5.36644,"is_reserved":false,"is_disabled":false,"rental_uris":{"android":"levelo://app?vid=7aada5ca-e1c3-4b6b-b301-a25ef474274f","ios":"levelo://app?vid=7aada5ca-e1c3-4b6b-b301-a25ef474274f"},"vehicle_type_id":"4","last_reported":1748409043,"current_range_meters":9200,"station_id":"ce4bhi12rcd13ifvqfp0","pricing_plan_id":"cebpf4jnsgd1na2vs0mg"},{"bike_id":"b739c376-f33a-42b8-8eff-1fe4940cc855","system_id":"levelo_inurba_marseille","lat":43.292518,"lon":5.384418,"is_reserved":false,"is_disabled":true,"rental_uris":{"android":"levelo://app?vid=b739c376-f33a-42b8-8eff-1fe4940cc855","ios":"levelo://app?vid=b739c376-f33a-42b8-8eff-1fe4940cc855"},"vehicle_type_id":"4","last_reported":1748409043,"current_range_meters":9200,"station_id":"ce4bh692rcd13ifvqea0","pricing_plan_id":"cebpf4jnsgd1na2vs0mg"},{"bike_id":"f785b9f1-d49c-4c68-aebd-35bb02ec172e","system_id":"levelo_inurba_marseille","lat":43.307977,"lon":5.381545,"is_reserved":false,"is_disabled":false,"rental_uris":{"android":"levelo://app?vid=f785b9f1-d49c-4c68-aebd-35bb02ec172e","ios":"levelo://app?vid=f785b9f1-d49c-4c68-aebd-35bb02ec172e"},"vehicle_type_id":"4","last_reported":1748409043,"current_range_meters":9200,"station_id":"ce4bgt12rcd13ifvqce0","pricing_plan_id":"cebpf4jnsgd1na2vs0mg"},{"bike_id":"d536e74a-a90f-4368-9fd1-1f34b8180491","system_id":"levelo_inurba_marseille","lat":43.302075,"lon":5.394678,"is_reserved":false,"is_disabled":false,"rental_uris":{"android":"levelo://app?vid=d536e74a-a90f-4368-9fd1-1f34b8180491","ios":"levelo://app?vid=d536e74a-a90f-4368-9fd1-1f34b8180491"},"vehicle_type_id":"4","last_reported":1748409043,"current_range_meters":9600,"station_id":"ce4bh0p2rcd13ifvqd70","pricing_plan_id":"cebpf4jnsgd1na2vs0mg"},{"bike_id":"27b98b60-9b65-40d7-b266-79d4a12fa059","system_id":"levelo_inurba_marseille","lat":43.30637,"lon":5.37235,"is_reserved":false,"is_disabled":false,"rental_uris":{"android":"levelo://app?vid=27b98b60-9b65-40d7-b266-79d4a12fa059","ios":"levelo://app?vid=27b98b60-9b65-40d7-b266-79d4a12fa059"},"vehicle_type_id":"4","last_reported":1748409043,"current_range_meters":9600,"station_id":"ce4bgqh2rcd13ifvqc4g","pricing_plan_id":"cebpf4jnsgd1na2vs0mg"},{"bike_id":"e00dfda0-368f-45d7-9c55-0565d001cd35","system_id":"levelo_inurba_marseille","lat":43.305956,"lon":5.39354,"is_reserved":false,"is_disabled":false,"rental_uris":{"android":"levelo://app?vid=e00dfda0-368f-45d7-9c55-0565d001cd35","ios":"levelo://app?vid=e00dfda0-368f-45d7-9c55-0565d001cd35"},"vehicle_type_id":"4","last_reported":1748409043,"current_range_meters":9600,"station_id":"ce4bh0p2rcd13ifvqd80","pricing_plan_id":"cebpf4jnsgd1na2vs0mg"},{"bike_id":"95248387-2056-4069-8be3-268c0a86bffe","system_id":"levelo_inurba_marseille","lat":43.25862,"lon":5.39909,"is_reserved":false,"is_disabled":false,"rental_uris":{"android":"levelo://app?vid=95248387-2056-4069-8be3-268c0a86bffe","ios":"levelo://app?vid=95248387-2056-4069-8be3-268c0a86bffe"},"vehicle_type_id":"4","last_reported":1748409043,"current_range_meters":9600,"station_id":"ce4bhl92rcd13ifvqghg","pricing_plan_id":"cebpf4jnsgd1na2vs0mg"},{"bike_id":"1a6da69f-1ddb-4eb0-99d5-b8d7dbfa3b64","system_id":"levelo_inurba_marseille","lat":43.280716,"lon":5.396606,"is_reserved":false,"is_disabled":false,"rental_uris":{"android":"levelo://app?vid=1a6da69f-1ddb-4eb0-99d5-b8d7dbfa3b64","ios":"levelo://app?vid=1a6da69f-1ddb-4eb0-99d5-b8d7dbfa3b64"},"vehicle_type_id":"4","last_reported":1748409043,"current_range_meters":9600,"station_id":"ce4bho12rcd13ifvqh2g","pricing_plan_id":"cebpf4jnsgd1na2vs0mg"},{"bike_id":"ca7cf12f-fbf8-41d1-9b30-458282c0dc29","system_id":"levelo_inurba_marseille","lat":43.297948,"lon":5.393428,"is_reserved":false,"is_disabled":false,"rental_uris":{"android":"levelo://app?vid=ca7cf12f-fbf8-41d1-9b30-458282c0dc29","ios":"levelo://app?vid=ca7cf12f-fbf8-41d1-9b30-458282c0dc29"},"vehicle_type_id":"4","last_reported":1748409043,"current_range_meters":9600,"station_id":"chh1huq6cuj3fo74tm60","pricing_plan_id":"cebpf4jnsgd1na2vs0mg"},{"bike_id":"24cfad0d-71d0-43ea-8447-3b796d58b84b","system_id":"levelo_inurba_marseille","lat":43.270521,"lon":5.402611,"is_reserved":false,"is_disabled":false,"rental_uris":{"android":"levelo://app?vid=24cfad0d-71d0-43ea-8447-3b796d58b84b","ios":"levelo://app?vid=24cfad0d-71d0-43ea-8447-3b796d58b84b"},"vehicle_type_id":"4","last_reported":1748409043,"current_range_meters":9600,"station_id":"ce4bhk92rcd13ifvqgc0","pricing_plan_id":"cebpf4jnsgd1na2vs0mg"},{"bike_id":"086db649-d8a7-4996-b50f-1dba37294b53","system_id":"levelo_inurba_marseille","lat":43.30893,"lon":5.39633,"is_reserved":false,"is_disabled":false,"rental_uris":{"android":"levelo://app?vid=086db649-d8a7-4996-b50f-1dba37294b53","ios":"levelo://app?vid=086db649-d8a7-4996-b50f-1dba37294b53"},"vehicle_type_id":"4","last_reported":1748409043,"current_range_meters":10000,"station_id":"ce4bh012rcd13ifvqcv0","pricing_plan_id":"cebpf4jnsgd1na2vs0mg"},{"bike_id":"0b9389ac-f857-4d87-84d8-daa4d96080d9","system_id":"levelo_inurba_marseille","lat":43.31773,"lon":5.39016,"is_reserved":false,"is_disabled":false,"rental_uris":{"android":"levelo://app?vid=0b9389ac-f857-4d87-84d8-daa4d96080d9","ios":"levelo://app?vid=0b9389ac-f857-4d87-84d8-daa4d96080d9"},"vehicle_type_id":"4","last_reported":1748409043,"current_range_meters":10000,"station_id":"ce4bhqp2rcd13ifvqhng","pricing_plan_id":"cebpf4jnsgd1na2vs0mg"},{"bike_id":"728762e1-832c-432a-a711-202feb3c897b","system_id":"levelo_inurba_marseille","lat":43.30874,"lon":5.3963,"is_reserved":false,"is_disabled":false,"rental_uris":{"android":"levelo://app?vid=728762e1-832c-432a-a711-202feb3c897b","ios":"levelo://app?vid=728762e1-832c-432a-a711-202feb3c897b"},"vehicle_type_id":"4","last_reported":1748409043,"current_range_meters":10000,"station_id":"ce4bh012rcd13ifvqcv0","pricing_plan_id":"cebpf4jnsgd1na2vs0mg"},{"bike_id":"c7b41e44-7942-4d64-b50f-31010a03e2d7","system_id":"levelo_inurba_marseille","lat":43.30151,"lon":5.38111,"is_reserved":false,"is_disabled":false,"rental_uris":{"android":"levelo://app?vid=c7b41e44-7942-4d64-b50f-31010a03e2d7","ios":"levelo://app?vid=c7b41e44-7942-4d64-b50f-31010a03e2d7"},"vehicle_type_id":"4","last_reported":1748409043,"current_range_meters":10000,"station_id":"ce4bgjp2rcd13ifvqbh0","pricing_plan_id":"cebpf4jnsgd1na2vs0mg"},{"bike_id":"b22310cf-e533-4fa9-8f4f-61171f82f011","system_id":"levelo_inurba_marseille","lat":43.3042,"lon":5.39746,"is_reserved":false,"is_disabled":false,"rental_uris":{"android":"levelo://app?vid=b22310cf-e533-4fa9-8f4f-61171f82f011","ios":"levelo://app?vid=b22310cf-e533-4fa9-8f4f-61171f82f011"},"vehicle_type_id":"4","last_reported":1748409043,"current_range_meters":10000,"station_id":"ce4bh092rcd13ifvqd20","pricing_plan_id":"cebpf4jnsgd1na2vs0mg"},{"bike_id":"6a2eb3d1-8421-4db2-9c25-13e15f56bb41","system_id":"levelo_inurba_marseille","lat":43.30952,"lon":5.40166,"is_reserved":false,"is_disabled":false,"rental_uris":{"android":"levelo://app?vid=6a2eb3d1-8421-4db2-9c25-13e15f56bb41","ios":"levelo://app?vid=6a2eb3d1-8421-4db2-9c25-13e15f56bb41"},"vehicle_type_id":"4","last_reported":1748409043,"current_range_meters":10000,"station_id":"ce4bgvp2rcd13ifvqct0","pricing_plan_id":"cebpf4jnsgd1na2vs0mg"},{"bike_id":"58c565ec-4152-4033-9b18-66babf3bc18f","system_id":"levelo_inurba_marseille","lat":43.306074,"lon":5.372158,"is_reserved":false,"is_disabled":false,"rental_uris":{"android":"levelo://app?vid=58c565ec-4152-4033-9b18-66babf3bc18f","ios":"levelo://app?vid=58c565ec-4152-4033-9b18-66babf3bc18f"},"vehicle_type_id":"4","last_reported":1748409043,"current_range_meters":10000,"station_id":"ce4bgqh2rcd13ifvqc4g","pricing_plan_id":"cebpf4jnsgd1na2vs0mg"},{"bike_id":"d210ed15-0cab-4985-be76-61173c3a81e4","system_id":"levelo_inurba_marseille","lat":43.28778,"lon":5.36119,"is_reserved":false,"is_disabled":true,"rental_uris":{"android":"levelo://app?vid=d210ed15-0cab-4985-be76-61173c3a81e4","ios":"levelo://app?vid=d210ed15-0cab-4985-be76-61173c3a81e4"},"vehicle_type_id":"4","last_reported":1748409043,"current_range_meters":10000,"station_id":"","pricing_plan_id":"cebpf4jnsgd1na2vs0mg"},{"bike_id":"83229224-589e-4c50-a778-c0c522497500","system_id":"levelo_inurba_marseille","lat":43.24161,"lon":5.39718,"is_reserved":false,"is_disabled":false,"rental_uris":{"android":"levelo://app?vid=83229224-589e-4c50-a778-c0c522497500","ios":"levelo://app?vid=83229224-589e-4c50-a778-c0c522497500"},"vehicle_type_id":"4","last_reported":1748409043,"current_range_meters":10000,"station_id":"ce4bhn12rcd13ifvqgpg","pricing_plan_id":"cebpf4jnsgd1na2vs0mg"},{"bike_id":"631b6ae3-17f3-4938-bfbf-bb37bcf89617","system_id":"levelo_inurba_marseille","lat":43.29248,"lon":5.40925,"is_reserved":false,"is_disabled":false,"rental_uris":{"android":"levelo://app?vid=631b6ae3-17f3-4938-bfbf-bb37bcf89617","ios":"levelo://app?vid=631b6ae3-17f3-4938-bfbf-bb37bcf89617"},"vehicle_type_id":"4","last_reported":1748409043,"current_range_meters":10000,"station_id":"ce4bh192rcd13ifvqdc0","pricing_plan_id":"cebpf4jnsgd1na2vs0mg"},{"bike_id":"0750c5bc-16dd-493b-9a98-03792500952e","system_id":"levelo_inurba_marseille","lat":43.31071,"lon":5.383509,"is_reserved":false,"is_disabled":false,"rental_uris":{"android":"levelo://app?vid=0750c5bc-16dd-493b-9a98-03792500952e","ios":"levelo://app?vid=0750c5bc-16dd-493b-9a98-03792500952e"},"vehicle_type_id":"4","last_reported":1748409043,"current_range_meters":10000,"station_id":"ce4bgv92rcd13ifvqcr0","pricing_plan_id":"cebpf4jnsgd1na2vs0mg"},{"bike_id":"f757d16f-10d1-46fd-97c8-e7926b6602c0","system_id":"levelo_inurba_marseille","lat":43.308825,"lon":5.396353,"is_reserved":false,"is_disabled":false,"rental_uris":{"android":"levelo://app?vid=f757d16f-10d1-46fd-97c8-e7926b6602c0","ios":"levelo://app?vid=f757d16f-10d1-46fd-97c8-e7926b6602c0"},"vehicle_type_id":"4","last_reported":1748409043,"current_range_meters":10800,"station_id":"ce4bh012rcd13ifvqcv0","pricing_plan_id":"cebpf4jnsgd1na2vs0mg"},{"bike_id":"18f379c0-cd6a-4d28-94be-da5478774af1","system_id":"levelo_inurba_marseille","lat":43.2902,"lon":5.35919,"is_reserved":false,"is_disabled":true,"rental_uris":{"android":"levelo://app?vid=18f379c0-cd6a-4d28-94be-da5478774af1","ios":"levelo://app?vid=18f379c0-cd6a-4d28-94be-da5478774af1"},"vehicle_type_id":"4","last_reported":1748409043,"current_range_meters":10800,"station_id":"ce4bha92rcd13ifvqeg0","pricing_plan_id":"cebpf4jnsgd1na2vs0mg"},{"bike_id":"5ad0faef-897d-4c19-b2e4-979327720bd4","system_id":"levelo_inurba_marseille","lat":43.2509,"lon":5.39518,"is_reserved":false,"is_disabled":false,"rental_uris":{"android":"levelo://app?vid=5ad0faef-897d-4c19-b2e4-979327720bd4","ios":"levelo://app?vid=5ad0faef-897d-4c19-b2e4-979327720bd4"},"vehicle_type_id":"4","last_reported":1748409043,"current_range_meters":10800,"station_id":"ce4bhm12rcd13ifvqgkg","pricing_plan_id":"cebpf4jnsgd1na2vs0mg"},{"bike_id":"41b68268-8357-4aa4-959d-53c0b7113280","system_id":"levelo_inurba_marseille","lat":43.302502,"lon":5.400684,"is_reserved":false,"is_disabled":false,"rental_uris":{"android":"levelo://app?vid=41b68268-8357-4aa4-959d-53c0b7113280","ios":"levelo://app?vid=41b68268-8357-4aa4-959d-53c0b7113280"},"vehicle_type_id":"4","last_reported":1748409043,"current_range_meters":10800,"station_id":"ce4bgvh2rcd13ifvqcs0","pricing_plan_id":"cebpf4jnsgd1na2vs0mg"},{"bike_id":"4f400036-3840-49c8-9932-b6aa5ab45ce0","system_id":"levelo_inurba_marseille","lat":43.30951,"lon":5.40142,"is_reserved":false,"is_disabled":false,"rental_uris":{"android":"levelo://app?vid=4f400036-3840-49c8-9932-b6aa5ab45ce0","ios":"levelo://app?vid=4f400036-3840-49c8-9932-b6aa5ab45ce0"},"vehicle_type_id":"4","last_reported":1748409043,"current_range_meters":10800,"station_id":"ce4bgvp2rcd13ifvqct0","pricing_plan_id":"cebpf4jnsgd1na2vs0mg"},{"bike_id":"6530cb0d-cf31-4e4a-ab23-cc7b4720c169","system_id":"levelo_inurba_marseille","lat":43.31096,"lon":5.37776,"is_reserved":false,"is_disabled":false,"rental_uris":{"android":"levelo://app?vid=6530cb0d-cf31-4e4a-ab23-cc7b4720c169","ios":"levelo://app?vid=6530cb0d-cf31-4e4a-ab23-cc7b4720c169"},"vehicle_type_id":"4","last_reported":1748409043,"current_range_meters":10800,"station_id":"ce4bgt92rcd13ifvqcg0","pricing_plan_id":"cebpf4jnsgd1na2vs0mg"},{"bike_id":"cc391400-7d4c-4261-8004-e9968eddac7e","system_id":"levelo_inurba_marseille","lat":43.2902,"lon":5.37559,"is_reserved":false,"is_disabled":true,"rental_uris":{"android":"levelo://app?vid=cc391400-7d4c-4261-8004-e9968eddac7e","ios":"levelo://app?vid=cc391400-7d4c-4261-8004-e9968eddac7e"},"vehicle_type_id":"4","last_reported":1748409043,"current_range_meters":10800,"station_id":"ce4bh692rcd13ifvqe90","pricing_plan_id":"cebpf4jnsgd1na2vs0mg"},{"bike_id":"1e9cfdb7-6b8a-4441-9f46-98e85a4be5d9","system_id":"levelo_inurba_marseille","lat":43.23145,"lon":5.43731,"is_reserved":false,"is_disabled":false,"rental_uris":{"android":"levelo://app?vid=1e9cfdb7-6b8a-4441-9f46-98e85a4be5d9","ios":"levelo://app?vid=1e9cfdb7-6b8a-4441-9f46-98e85a4be5d9"},"vehicle_type_id":"4","last_reported":1748409043,"current_range_meters":10800,"station_id":"ce4bhmp2rcd13ifvqgog","pricing_plan_id":"cebpf4jnsgd1na2vs0mg"},{"bike_id":"f0ecbad3-5c56-4efa-84f0-9f2a84b7774d","system_id":"levelo_inurba_marseille","lat":43.32235,"lon":5.38438,"is_reserved":false,"is_disabled":false,"rental_uris":{"android":"levelo://app?vid=f0ecbad3-5c56-4efa-84f0-9f2a84b7774d","ios":"levelo://app?vid=f0ecbad3-5c56-4efa-84f0-9f2a84b7774d"},"vehicle_type_id":"4","last_reported":1748409043,"current_range_meters":10800,"station_id":"","pricing_plan_id":"cebpf4jnsgd1na2vs0mg"},{"bike_id":"bc21eb6e-8700-42e4-b2d6-274ccd1bac81","system_id":"levelo_inurba_marseille","lat":43.289669,"lon":5.378344,"is_reserved":false,"is_disabled":true,"rental_uris":{"android":"levelo://app?vid=bc21eb6e-8700-42e4-b2d6-274ccd1bac81","ios":"levelo://app?vid=bc21eb6e-8700-42e4-b2d6-274ccd1bac81"},"vehicle_type_id":"4","last_reported":1748409043,"current_range_meters":10800,"station_id":"ce4bh9p2rcd13ifvqed0","pricing_plan_id":"cebpf4jnsgd1na2vs0mg"},{"bike_id":"37d1376c-dfa1-4e03-8541-7bea54bb6ea8","system_id":"levelo_inurba_marseille","lat":43.3116,"lon":5.38729,"is_reserved":false,"is_disabled":false,"rental_uris":{"android":"levelo://app?vid=37d1376c-dfa1-4e03-8541-7bea54bb6ea8","ios":"levelo://app?vid=37d1376c-dfa1-4e03-8541-7bea54bb6ea8"},"vehicle_type_id":"4","last_reported":1748409043,"current_range_meters":10800,"station_id":"ce4bgv12rcd13ifvqcp0","pricing_plan_id":"cebpf4jnsgd1na2vs0mg"},{"bike_id":"834a0232-d7de-4c17-90e8-aa8227913570","system_id":"levelo_inurba_marseille","lat":43.291926,"lon":5.393203,"is_reserved":false,"is_disabled":false,"rental_uris":{"android":"levelo://app?vid=834a0232-d7de-4c17-90e8-aa8227913570","ios":"levelo://app?vid=834a0232-d7de-4c17-90e8-aa8227913570"},"vehicle_type_id":"4","last_reported":1748409043,"current_range_meters":10800,"station_id":"ce4bh192rcd13ifvqdd0","pricing_plan_id":"cebpf4jnsgd1na2vs0mg"},{"bike_id":"9ae8cfd0-969f-4b0e-860c-ce7b2bc9c96b","system_id":"levelo_inurba_marseille","lat":43.29835,"lon":5.36269,"is_reserved":false,"is_disabled":false,"rental_uris":{"android":"levelo://app?vid=9ae8cfd0-969f-4b0e-860c-ce7b2bc9c96b","ios":"levelo://app?vid=9ae8cfd0-969f-4b0e-860c-ce7b2bc9c96b"},"vehicle_type_id":"4","last_reported":1748409043,"current_range_meters":11200,"station_id":"ce4bgpp2rcd13ifvqc3g","pricing_plan_id":"cebpf4jnsgd1na2vs0mg"},{"bike_id":"9ed94f34-a328-46fc-b201-bade39dda6d1","system_id":"levelo_inurba_marseille","lat":43.25018,"lon":5.38919,"is_reserved":false,"is_disabled":false,"rental_uris":{"android":"levelo://app?vid=9ed94f34-a328-46fc-b201-bade39dda6d1","ios":"levelo://app?vid=9ed94f34-a328-46fc-b201-bade39dda6d1"},"vehicle_type_id":"4","last_reported":1748409043,"current_range_meters":11200,"station_id":"ce4bhgp2rcd13ifvqfd0","pricing_plan_id":"cebpf4jnsgd1na2vs0mg"},{"bike_id":"c49b70de-4adb-4cfc-8307-bdc53758104f","system_id":"levelo_inurba_marseille","lat":43.23213,"lon":5.35552,"is_reserved":false,"is_disabled":false,"rental_uris":{"android":"levelo://app?vid=c49b70de-4adb-4cfc-8307-bdc53758104f","ios":"levelo://app?vid=c49b70de-4adb-4cfc-8307-bdc53758104f"},"vehicle_type_id":"4","last_reported":1748409043,"current_range_meters":11200,"station_id":"ce4bhu92rcd13ifvqi70","pricing_plan_id":"cebpf4jnsgd1na2vs0mg"},{"bike_id":"8b8f4ddc-5f2d-41ad-9613-91a528fd4361","system_id":"levelo_inurba_marseille","lat":43.22931,"lon":5.35385,"is_reserved":false,"is_disabled":false,"rental_uris":{"android":"levelo://app?vid=8b8f4ddc-5f2d-41ad-9613-91a528fd4361","ios":"levelo://app?vid=8b8f4ddc-5f2d-41ad-9613-91a528fd4361"},"vehicle_type_id":"4","last_reported":1748409043,"current_range_meters":11200,"station_id":"cpo3532slgdg3j2ikp40","pricing_plan_id":"cebpf4jnsgd1na2vs0mg"},{"bike_id":"9457a377-3567-464b-b191-f8d2ccbd3d31","system_id":"levelo_inurba_marseille","lat":43.316976,"lon":5.404544,"is_reserved":false,"is_disabled":false,"rental_uris":{"android":"levelo://app?vid=9457a377-3567-464b-b191-f8d2ccbd3d31","ios":"levelo://app?vid=9457a377-3567-464b-b191-f8d2ccbd3d31"},"vehicle_type_id":"4","last_reported":1748409043,"current_range_meters":11200,"station_id":"ce4bh012rcd13ifvqd00","pricing_plan_id":"cebpf4jnsgd1na2vs0mg"},{"bike_id":"5a621852-4b0d-47fa-9514-efb82e08741c","system_id":"levelo_inurba_marseille","lat":43.337538,"lon":5.374544,"is_reserved":false,"is_disabled":true,"rental_uris":{"android":"levelo://app?vid=5a621852-4b0d-47fa-9514-efb82e08741c","ios":"levelo://app?vid=5a621852-4b0d-47fa-9514-efb82e08741c"},"vehicle_type_id":"4","last_reported":1748409043,"current_range_meters":11600,"station_id":"","pricing_plan_id":"cebpf4jnsgd1na2vs0mg"},{"bike_id":"fd3b8926-9732-4665-beec-b59272be973b","system_id":"levelo_inurba_marseille","lat":43.311764,"lon":5.401988,"is_reserved":false,"is_disabled":false,"rental_uris":{"android":"levelo://app?vid=fd3b8926-9732-4665-beec-b59272be973b","ios":"levelo://app?vid=fd3b8926-9732-4665-beec-b59272be973b"},"vehicle_type_id":"4","last_reported":1748409043,"current_range_meters":11600,"station_id":"","pricing_plan_id":"cebpf4jnsgd1na2vs0mg"},{"bike_id":"4d0c00c9-e4d0-431f-a1c5-7230b860d4b9","system_id":"levelo_inurba_marseille","lat":43.28728,"lon":5.36082,"is_reserved":false,"is_disabled":false,"rental_uris":{"android":"levelo://app?vid=4d0c00c9-e4d0-431f-a1c5-7230b860d4b9","ios":"levelo://app?vid=4d0c00c9-e4d0-431f-a1c5-7230b860d4b9"},"vehicle_type_id":"4","last_reported":1748409043,"current_range_meters":11600,"station_id":"cki0cbj6b192h4jlfktg","pricing_plan_id":"cebpf4jnsgd1na2vs0mg"},{"bike_id":"f7fbc1d9-af64-4aef-9eba-8165d0aadc07","system_id":"levelo_inurba_marseille","lat":43.309276,"lon":5.401772,"is_reserved":false,"is_disabled":false,"rental_uris":{"android":"levelo://app?vid=f7fbc1d9-af64-4aef-9eba-8165d0aadc07","ios":"levelo://app?vid=f7fbc1d9-af64-4aef-9eba-8165d0aadc07"},"vehicle_type_id":"4","last_reported":1748409043,"current_range_meters":11600,"station_id":"ce4bgvp2rcd13ifvqct0","pricing_plan_id":"cebpf4jnsgd1na2vs0mg"},{"bike_id":"d2fa8e77-9f90-45e1-a835-7464576f03ac","system_id":"levelo_inurba_marseille","lat":43.31667,"lon":5.40495,"is_reserved":false,"is_disabled":false,"rental_uris":{"android":"levelo://app?vid=d2fa8e77-9f90-45e1-a835-7464576f03ac","ios":"levelo://app?vid=d2fa8e77-9f90-45e1-a835-7464576f03ac"},"vehicle_type_id":"4","last_reported":1748409043,"current_range_meters":11600,"station_id":"ce4bh012rcd13ifvqd00","pricing_plan_id":"cebpf4jnsgd1na2vs0mg"},{"bike_id":"16325869-b0b1-4ea6-b5e0-4206964d490a","system_id":"levelo_inurba_marseille","lat":43.26037,"lon":5.41741,"is_reserved":false,"is_disabled":false,"rental_uris":{"android":"levelo://app?vid=16325869-b0b1-4ea6-b5e0-4206964d490a","ios":"levelo://app?vid=16325869-b0b1-4ea6-b5e0-4206964d490a"},"vehicle_type_id":"4","last_reported":1748409043,"current_range_meters":11600,"station_id":"","pricing_plan_id":"cebpf4jnsgd1na2vs0mg"},{"bike_id":"074fb115-96d2-44f4-8992-2fdac5bf8cd8","system_id":"levelo_inurba_marseille","lat":43.30938,"lon":5.4018,"is_reserved":false,"is_disabled":false,"rental_uris":{"android":"levelo://app?vid=074fb115-96d2-44f4-8992-2fdac5bf8cd8","ios":"levelo://app?vid=074fb115-96d2-44f4-8992-2fdac5bf8cd8"},"vehicle_type_id":"4","last_reported":1748409043,"current_range_meters":12000,"station_id":"ce4bgvp2rcd13ifvqct0","pricing_plan_id":"cebpf4jnsgd1na2vs0mg"},{"bike_id":"34c6f0fc-a825-460a-874b-f9afa9305de8","system_id":"levelo_inurba_marseille","lat":43.30603,"lon":5.37256,"is_reserved":false,"is_disabled":false,"rental_uris":{"android":"levelo://app?vid=34c6f0fc-a825-460a-874b-f9afa9305de8","ios":"levelo://app?vid=34c6f0fc-a825-460a-874b-f9afa9305de8"},"vehicle_type_id":"4","last_reported":1748409043,"current_range_meters":12000,"station_id":"ce4bgqh2rcd13ifvqc4g","pricing_plan_id":"cebpf4jnsgd1na2vs0mg"},{"bike_id":"46f1e1a2-421d-4288-9b19-22918bc7cc7f","system_id":"levelo_inurba_marseille","lat":43.232024,"lon":5.355522,"is_reserved":false,"is_disabled":false,"rental_uris":{"android":"levelo://app?vid=46f1e1a2-421d-4288-9b19-22918bc7cc7f","ios":"levelo://app?vid=46f1e1a2-421d-4288-9b19-22918bc7cc7f"},"vehicle_type_id":"4","last_reported":1748409043,"current_range_meters":12000,"station_id":"ce4bhu92rcd13ifvqi70","pricing_plan_id":"cebpf4jnsgd1na2vs0mg"},{"bike_id":"2ee3c059-c14d-41e1-8070-f754017e275e","system_id":"levelo_inurba_marseille","lat":43.3087,"lon":5.39641,"is_reserved":false,"is_disabled":false,"rental_uris":{"android":"levelo://app?vid=2ee3c059-c14d-41e1-8070-f754017e275e","ios":"levelo://app?vid=2ee3c059-c14d-41e1-8070-f754017e275e"},"vehicle_type_id":"4","last_reported":1748409043,"current_range_meters":12000,"station_id":"ce4bh012rcd13ifvqcv0","pricing_plan_id":"cebpf4jnsgd1na2vs0mg"},{"bike_id":"c9ac9815-cace-4f5a-bc55-391519ae5e1e","system_id":"levelo_inurba_marseille","lat":43.271836,"lon":5.40986,"is_reserved":false,"is_disabled":false,"rental_uris":{"android":"levelo://app?vid=c9ac9815-cace-4f5a-bc55-391519ae5e1e","ios":"levelo://app?vid=c9ac9815-cace-4f5a-bc55-391519ae5e1e"},"vehicle_type_id":"4","last_reported":1748409043,"current_range_meters":12000,"station_id":"ce4bhl12rcd13ifvqgf0","pricing_plan_id":"cebpf4jnsgd1na2vs0mg"},{"bike_id":"7d644362-2701-4137-aac7-822704820d27","system_id":"levelo_inurba_marseille","lat":43.317579,"lon":5.390236,"is_reserved":false,"is_disabled":true,"rental_uris":{"android":"levelo://app?vid=7d644362-2701-4137-aac7-822704820d27","ios":"levelo://app?vid=7d644362-2701-4137-aac7-822704820d27"},"vehicle_type_id":"4","last_reported":1748409043,"current_range_meters":12000,"station_id":"ce4bhqp2rcd13ifvqhng","pricing_plan_id":"cebpf4jnsgd1na2vs0mg"},{"bike_id":"71c3c26b-dbd0-45d0-80eb-41fe0433ad32","system_id":"levelo_inurba_marseille","lat":43.31062,"lon":5.3839,"is_reserved":false,"is_disabled":false,"rental_uris":{"android":"levelo://app?vid=71c3c26b-dbd0-45d0-80eb-41fe0433ad32","ios":"levelo://app?vid=71c3c26b-dbd0-45d0-80eb-41fe0433ad32"},"vehicle_type_id":"4","last_reported":1748409043,"current_range_meters":12400,"station_id":"ce4bgv92rcd13ifvqcr0","pricing_plan_id":"cebpf4jnsgd1na2vs0mg"},{"bike_id":"1d9aa0a3-8d94-496c-8645-8bc9aba995f5","system_id":"levelo_inurba_marseille","lat":43.29258,"lon":5.40169,"is_reserved":false,"is_disabled":false,"rental_uris":{"android":"levelo://app?vid=1d9aa0a3-8d94-496c-8645-8bc9aba995f5","ios":"levelo://app?vid=1d9aa0a3-8d94-496c-8645-8bc9aba995f5"},"vehicle_type_id":"4","last_reported":1748409043,"current_range_meters":12400,"station_id":"ce4bh312rcd13ifvqdk0","pricing_plan_id":"cebpf4jnsgd1na2vs0mg"},{"bike_id":"0dec8d3f-3677-4923-9cd0-fd48007bde70","system_id":"levelo_inurba_marseille","lat":43.30181,"lon":5.36619,"is_reserved":false,"is_disabled":false,"rental_uris":{"android":"levelo://app?vid=0dec8d3f-3677-4923-9cd0-fd48007bde70","ios":"levelo://app?vid=0dec8d3f-3677-4923-9cd0-fd48007bde70"},"vehicle_type_id":"4","last_reported":1748409043,"current_range_meters":12400,"station_id":"ce4bgrh2rcd13ifvqc8g","pricing_plan_id":"cebpf4jnsgd1na2vs0mg"},{"bike_id":"07ab72bd-9298-45dd-8184-52d45380b58d","system_id":"levelo_inurba_marseille","lat":43.280739,"lon":5.396519,"is_reserved":false,"is_disabled":false,"rental_uris":{"android":"levelo://app?vid=07ab72bd-9298-45dd-8184-52d45380b58d","ios":"levelo://app?vid=07ab72bd-9298-45dd-8184-52d45380b58d"},"vehicle_type_id":"4","last_reported":1748409043,"current_range_meters":12400,"station_id":"ce4bho12rcd13ifvqh2g","pricing_plan_id":"cebpf4jnsgd1na2vs0mg"},{"bike_id":"aeb17350-5d00-44be-8ef5-7401b4326230","system_id":"levelo_inurba_marseille","lat":43.24545,"lon":5.3955,"is_reserved":false,"is_disabled":false,"rental_uris":{"android":"levelo://app?vid=aeb17350-5d00-44be-8ef5-7401b4326230","ios":"levelo://app?vid=aeb17350-5d00-44be-8ef5-7401b4326230"},"vehicle_type_id":"4","last_reported":1748409043,"current_range_meters":12400,"station_id":"ce4bhlp2rcd13ifvqgjg","pricing_plan_id":"cebpf4jnsgd1na2vs0mg"},{"bike_id":"47583335-9e10-4931-b076-003bea66dc0e","system_id":"levelo_inurba_marseille","lat":43.28207,"lon":5.390614,"is_reserved":false,"is_disabled":false,"rental_uris":{"android":"levelo://app?vid=47583335-9e10-4931-b076-003bea66dc0e","ios":"levelo://app?vid=47583335-9e10-4931-b076-003bea66dc0e"},"vehicle_type_id":"4","last_reported":1748409043,"current_range_meters":12400,"station_id":"","pricing_plan_id":"cebpf4jnsgd1na2vs0mg"},{"bike_id":"b9feece3-8db7-4d9c-b5c4-3d592ac61b90","system_id":"levelo_inurba_marseille","lat":43.291848,"lon":5.358085,"is_reserved":false,"is_disabled":true,"rental_uris":{"android":"levelo://app?vid=b9feece3-8db7-4d9c-b5c4-3d592ac61b90","ios":"levelo://app?vid=b9feece3-8db7-4d9c-b5c4-3d592ac61b90"},"vehicle_type_id":"4","last_reported":1748409043,"current_range_meters":12400,"station_id":"","pricing_plan_id":"cebpf4jnsgd1na2vs0mg"},{"bike_id":"45b9d172-e6f6-4d55-9940-10facafe02aa","system_id":"levelo_inurba_marseille","lat":43.30433,"lon":5.39743,"is_reserved":false,"is_disabled":false,"rental_uris":{"android":"levelo://app?vid=45b9d172-e6f6-4d55-9940-10facafe02aa","ios":"levelo://app?vid=45b9d172-e6f6-4d55-9940-10facafe02aa"},"vehicle_type_id":"4","last_reported":1748409043,"current_range_meters":12800,"station_id":"ce4bh092rcd13ifvqd20","pricing_plan_id":"cebpf4jnsgd1na2vs0mg"},{"bike_id":"134c70cc-46f1-414c-ba60-b99ba2b4a992","system_id":"levelo_inurba_marseille","lat":43.34815,"lon":5.351133,"is_reserved":false,"is_disabled":false,"rental_uris":{"android":"levelo://app?vid=134c70cc-46f1-414c-ba60-b99ba2b4a992","ios":"levelo://app?vid=134c70cc-46f1-414c-ba60-b99ba2b4a992"},"vehicle_type_id":"4","last_reported":1748409043,"current_range_meters":12800,"station_id":"","pricing_plan_id":"cebpf4jnsgd1na2vs0mg"},{"bike_id":"66ce27fa-93cf-4af2-b68b-f853af9cec83","system_id":"levelo_inurba_marseille","lat":43.295066,"lon":5.374448,"is_reserved":false,"is_disabled":false,"rental_uris":{"android":"levelo://app?vid=66ce27fa-93cf-4af2-b68b-f853af9cec83","ios":"levelo://app?vid=66ce27fa-93cf-4af2-b68b-f853af9cec83"},"vehicle_type_id":"4","last_reported":1748409043,"current_range_meters":13600,"station_id":"ce4bgh92rcd13ifvqb50","pricing_plan_id":"cebpf4jnsgd1na2vs0mg"},{"bike_id":"25fe1924-4408-4709-a1de-804f3412a784","system_id":"levelo_inurba_marseille","lat":43.31368,"lon":5.36726,"is_reserved":false,"is_disabled":false,"rental_uris":{"android":"levelo://app?vid=25fe1924-4408-4709-a1de-804f3412a784","ios":"levelo://app?vid=25fe1924-4408-4709-a1de-804f3412a784"},"vehicle_type_id":"4","last_reported":1748409043,"current_range_meters":13600,"station_id":"ce4bgr92rcd13ifvqc6g","pricing_plan_id":"cebpf4jnsgd1na2vs0mg"},{"bike_id":"c2c25dd5-dc71-4aa2-a4d5-1ae79422659b","system_id":"levelo_inurba_marseille","lat":43.282033,"lon":5.390647,"is_reserved":false,"is_disabled":false,"rental_uris":{"android":"levelo://app?vid=c2c25dd5-dc71-4aa2-a4d5-1ae79422659b","ios":"levelo://app?vid=c2c25dd5-dc71-4aa2-a4d5-1ae79422659b"},"vehicle_type_id":"4","last_reported":1748409043,"current_range_meters":13600,"station_id":"","pricing_plan_id":"cebpf4jnsgd1na2vs0mg"},{"bike_id":"337093e3-183f-4792-9f97-1abd7f6a32f1","system_id":"levelo_inurba_marseille","lat":43.27289,"lon":5.40072,"is_reserved":false,"is_disabled":false,"rental_uris":{"android":"levelo://app?vid=337093e3-183f-4792-9f97-1abd7f6a32f1","ios":"levelo://app?vid=337093e3-183f-4792-9f97-1abd7f6a32f1"},"vehicle_type_id":"4","last_reported":1748409043,"current_range_meters":14000,"station_id":"","pricing_plan_id":"cebpf4jnsgd1na2vs0mg"},{"bike_id":"f17b5f1b-722c-492d-a6a6-635d0fc8540a","system_id":"levelo_inurba_marseille","lat":43.3041,"lon":5.39768,"is_reserved":false,"is_disabled":false,"rental_uris":{"android":"levelo://app?vid=f17b5f1b-722c-492d-a6a6-635d0fc8540a","ios":"levelo://app?vid=f17b5f1b-722c-492d-a6a6-635d0fc8540a"},"vehicle_type_id":"4","last_reported":1748409043,"current_range_meters":14000,"station_id":"ce4bh092rcd13ifvqd20","pricing_plan_id":"cebpf4jnsgd1na2vs0mg"},{"bike_id":"2a529e4a-98c3-4022-8fed-d80a6b40c232","system_id":"levelo_inurba_marseille","lat":43.2454,"lon":5.3954,"is_reserved":false,"is_disabled":false,"rental_uris":{"android":"levelo://app?vid=2a529e4a-98c3-4022-8fed-d80a6b40c232","ios":"levelo://app?vid=2a529e4a-98c3-4022-8fed-d80a6b40c232"},"vehicle_type_id":"4","last_reported":1748409043,"current_range_meters":14000,"station_id":"ce4bhlp2rcd13ifvqgjg","pricing_plan_id":"cebpf4jnsgd1na2vs0mg"},{"bike_id":"cca40936-2e2e-4cae-9baf-eec8f3341b59","system_id":"levelo_inurba_marseille","lat":43.3066,"lon":5.40081,"is_reserved":false,"is_disabled":false,"rental_uris":{"android":"levelo://app?vid=cca40936-2e2e-4cae-9baf-eec8f3341b59","ios":"levelo://app?vid=cca40936-2e2e-4cae-9baf-eec8f3341b59"},"vehicle_type_id":"4","last_reported":1748409043,"current_range_meters":14000,"station_id":"ce4bh112rcd13ifvqda0","pricing_plan_id":"cebpf4jnsgd1na2vs0mg"},{"bike_id":"5b71d762-ff7f-46b3-a906-4507d388dbfe","system_id":"levelo_inurba_marseille","lat":43.29867,"lon":5.3973,"is_reserved":false,"is_disabled":true,"rental_uris":{"android":"levelo://app?vid=5b71d762-ff7f-46b3-a906-4507d388dbfe","ios":"levelo://app?vid=5b71d762-ff7f-46b3-a906-4507d388dbfe"},"vehicle_type_id":"4","last_reported":1748409043,"current_range_meters":14400,"station_id":"ce4bh0h2rcd13ifvqd50","pricing_plan_id":"cebpf4jnsgd1na2vs0mg"},{"bike_id":"9d261c87-a2b3-4a62-884c-13fffe97a760","system_id":"levelo_inurba_marseille","lat":43.309268,"lon":5.401624,"is_reserved":false,"is_disabled":false,"rental_uris":{"android":"levelo://app?vid=9d261c87-a2b3-4a62-884c-13fffe97a760","ios":"levelo://app?vid=9d261c87-a2b3-4a62-884c-13fffe97a760"},"vehicle_type_id":"4","last_reported":1748409043,"current_range_meters":14400,"station_id":"ce4bgvp2rcd13ifvqct0","pricing_plan_id":"cebpf4jnsgd1na2vs0mg"},{"bike_id":"46ea35f2-33ac-4c5f-9a27-c944e9b6fb6a","system_id":"levelo_inurba_marseille","lat":43.30599,"lon":5.39352,"is_reserved":false,"is_disabled":false,"rental_uris":{"android":"levelo://app?vid=46ea35f2-33ac-4c5f-9a27-c944e9b6fb6a","ios":"levelo://app?vid=46ea35f2-33ac-4c5f-9a27-c944e9b6fb6a"},"vehicle_type_id":"4","last_reported":1748409043,"current_range_meters":14400,"station_id":"ce4bh0p2rcd13ifvqd80","pricing_plan_id":"cebpf4jnsgd1na2vs0mg"},{"bike_id":"964e93a9-8735-4d6e-9095-3e84919651d8","system_id":"levelo_inurba_marseille","lat":43.29964,"lon":5.41343,"is_reserved":false,"is_disabled":false,"rental_uris":{"android":"levelo://app?vid=964e93a9-8735-4d6e-9095-3e84919651d8","ios":"levelo://app?vid=964e93a9-8735-4d6e-9095-3e84919651d8"},"vehicle_type_id":"4","last_reported":1748409043,"current_range_meters":14400,"station_id":"ce4bhp12rcd13ifvqh9g","pricing_plan_id":"cebpf4jnsgd1na2vs0mg"},{"bike_id":"750d9e45-bbfa-48c7-98ea-fdd51751dc8b","system_id":"levelo_inurba_marseille","lat":43.239624,"lon":5.366344,"is_reserved":false,"is_disabled":false,"rental_uris":{"android":"levelo://app?vid=750d9e45-bbfa-48c7-98ea-fdd51751dc8b","ios":"levelo://app?vid=750d9e45-bbfa-48c7-98ea-fdd51751dc8b"},"vehicle_type_id":"4","last_reported":1748409043,"current_range_meters":14400,"station_id":"ce4bhi12rcd13ifvqfp0","pricing_plan_id":"cebpf4jnsgd1na2vs0mg"},{"bike_id":"8cb48e60-19aa-4fb9-8708-4e4a56b04ded","system_id":"levelo_inurba_marseille","lat":43.254852,"lon":5.376701,"is_reserved":false,"is_disabled":true,"rental_uris":{"android":"levelo://app?vid=8cb48e60-19aa-4fb9-8708-4e4a56b04ded","ios":"levelo://app?vid=8cb48e60-19aa-4fb9-8708-4e4a56b04ded"},"vehicle_type_id":"4","last_reported":1748409043,"current_range_meters":14400,"station_id":"ce4bhh12rcd13ifvqff0","pricing_plan_id":"cebpf4jnsgd1na2vs0mg"},{"bike_id":"e736686f-625a-4d9a-a7d4-f55f37278fdb","system_id":"levelo_inurba_marseille","lat":43.294146,"lon":5.386105,"is_reserved":false,"is_disabled":true,"rental_uris":{"android":"levelo://app?vid=e736686f-625a-4d9a-a7d4-f55f37278fdb","ios":"levelo://app?vid=e736686f-625a-4d9a-a7d4-f55f37278fdb"},"vehicle_type_id":"4","last_reported":1748409043,"current_range_meters":14400,"station_id":"ce4bh2h2rcd13ifvqdh0","pricing_plan_id":"cebpf4jnsgd1na2vs0mg"},{"bike_id":"24f3e3d5-b921-4756-97bd-883483154b22","system_id":"levelo_inurba_marseille","lat":43.322836,"lon":5.382828,"is_reserved":false,"is_disabled":false,"rental_uris":{"android":"levelo://app?vid=24f3e3d5-b921-4756-97bd-883483154b22","ios":"levelo://app?vid=24f3e3d5-b921-4756-97bd-883483154b22"},"vehicle_type_id":"4","last_reported":1748409043,"current_range_meters":14400,"station_id":"ce4bhr12rcd13ifvqhqg","pricing_plan_id":"cebpf4jnsgd1na2vs0mg"},{"bike_id":"c06fca89-0053-4526-bf0e-39603aea1bf2","system_id":"levelo_inurba_marseille","lat":43.33021,"lon":5.39025,"is_reserved":false,"is_disabled":false,"rental_uris":{"android":"levelo://app?vid=c06fca89-0053-4526-bf0e-39603aea1bf2","ios":"levelo://app?vid=c06fca89-0053-4526-bf0e-39603aea1bf2"},"vehicle_type_id":"4","last_reported":1748409043,"current_range_meters":14800,"station_id":"ce4bhr92rcd13ifvqhrg","pricing_plan_id":"cebpf4jnsgd1na2vs0mg"},{"bike_id":"825274f2-35c2-43a3-ab4e-e6978ea7f406","system_id":"levelo_inurba_marseille","lat":43.302086,"lon":5.394734,"is_reserved":false,"is_disabled":false,"rental_uris":{"android":"levelo://app?vid=825274f2-35c2-43a3-ab4e-e6978ea7f406","ios":"levelo://app?vid=825274f2-35c2-43a3-ab4e-e6978ea7f406"},"vehicle_type_id":"4","last_reported":1748409043,"current_range_meters":14800,"station_id":"ce4bh0p2rcd13ifvqd70","pricing_plan_id":"cebpf4jnsgd1na2vs0mg"},{"bike_id":"81073b57-ac04-480f-afb6-2528a984f711","system_id":"levelo_inurba_marseille","lat":43.286985,"lon":5.399982,"is_reserved":false,"is_disabled":false,"rental_uris":{"android":"levelo://app?vid=81073b57-ac04-480f-afb6-2528a984f711","ios":"levelo://app?vid=81073b57-ac04-480f-afb6-2528a984f711"},"vehicle_type_id":"4","last_reported":1748409043,"current_range_meters":14800,"station_id":"ce4bho92rcd13ifvqh3g","pricing_plan_id":"cebpf4jnsgd1na2vs0mg"},{"bike_id":"1fed5cf7-13b7-4dc4-814e-e55c1b74556e","system_id":"levelo_inurba_marseille","lat":43.292634,"lon":5.401247,"is_reserved":false,"is_disabled":true,"rental_uris":{"android":"levelo://app?vid=1fed5cf7-13b7-4dc4-814e-e55c1b74556e","ios":"levelo://app?vid=1fed5cf7-13b7-4dc4-814e-e55c1b74556e"},"vehicle_type_id":"4","last_reported":1748409043,"current_range_meters":14800,"station_id":"ce4bh312rcd13ifvqdk0","pricing_plan_id":"cebpf4jnsgd1na2vs0mg"},{"bike_id":"beeca1d2-d65c-44fe-8ce6-7afce205f53e","system_id":"levelo_inurba_marseille","lat":43.308904,"lon":5.396253,"is_reserved":false,"is_disabled":false,"rental_uris":{"android":"levelo://app?vid=beeca1d2-d65c-44fe-8ce6-7afce205f53e","ios":"levelo://app?vid=beeca1d2-d65c-44fe-8ce6-7afce205f53e"},"vehicle_type_id":"4","last_reported":1748409043,"current_range_meters":14800,"station_id":"ce4bh012rcd13ifvqcv0","pricing_plan_id":"cebpf4jnsgd1na2vs0mg"},{"bike_id":"bedbbb34-82aa-4a56-8ecf-72e3100f83ac","system_id":"levelo_inurba_marseille","lat":43.302548,"lon":5.389056,"is_reserved":false,"is_disabled":false,"rental_uris":{"android":"levelo://app?vid=bedbbb34-82aa-4a56-8ecf-72e3100f83ac","ios":"levelo://app?vid=bedbbb34-82aa-4a56-8ecf-72e3100f83ac"},"vehicle_type_id":"4","last_reported":1748409043,"current_range_meters":14800,"station_id":"","pricing_plan_id":"cebpf4jnsgd1na2vs0mg"},{"bike_id":"6ebb6dd7-e028-471a-a254-2363923c0cd9","system_id":"levelo_inurba_marseille","lat":43.32127,"lon":5.36797,"is_reserved":false,"is_disabled":false,"rental_uris":{"android":"levelo://app?vid=6ebb6dd7-e028-471a-a254-2363923c0cd9","ios":"levelo://app?vid=6ebb6dd7-e028-471a-a254-2363923c0cd9"},"vehicle_type_id":"4","last_reported":1748409043,"current_range_meters":15200,"station_id":"ce4bhrh2rcd13ifvqhug","pricing_plan_id":"cebpf4jnsgd1na2vs0mg"},{"bike_id":"45c941a7-9562-4778-ae0c-86ddbaf5a628","system_id":"levelo_inurba_marseille","lat":43.24536,"lon":5.39521,"is_reserved":false,"is_disabled":false,"rental_uris":{"android":"levelo://app?vid=45c941a7-9562-4778-ae0c-86ddbaf5a628","ios":"levelo://app?vid=45c941a7-9562-4778-ae0c-86ddbaf5a628"},"vehicle_type_id":"4","last_reported":1748409043,"current_range_meters":15200,"station_id":"ce4bhlp2rcd13ifvqgjg","pricing_plan_id":"cebpf4jnsgd1na2vs0mg"},{"bike_id":"d01fd10d-97de-46e9-a203-18a45159f308","system_id":"levelo_inurba_marseille","lat":43.23182,"lon":5.39993,"is_reserved":false,"is_disabled":false,"rental_uris":{"android":"levelo://app?vid=d01fd10d-97de-46e9-a203-18a45159f308","ios":"levelo://app?vid=d01fd10d-97de-46e9-a203-18a45159f308"},"vehicle_type_id":"4","last_reported":1748409043,"current_range_meters":15200,"station_id":"ce4bhn12rcd13ifvqgqg","pricing_plan_id":"cebpf4jnsgd1na2vs0mg"},{"bike_id":"ed3ce463-8108-462a-b16b-760e2671d87c","system_id":"levelo_inurba_marseille","lat":43.25069,"lon":5.3951,"is_reserved":false,"is_disabled":false,"rental_uris":{"android":"levelo://app?vid=ed3ce463-8108-462a-b16b-760e2671d87c","ios":"levelo://app?vid=ed3ce463-8108-462a-b16b-760e2671d87c"},"vehicle_type_id":"4","last_reported":1748409043,"current_range_meters":15200,"station_id":"ce4bhm12rcd13ifvqgkg","pricing_plan_id":"cebpf4jnsgd1na2vs0mg"},{"bike_id":"41ef7262-a9d2-42e7-8a32-491b4b65ae25","system_id":"levelo_inurba_marseille","lat":43.276721,"lon":5.389279,"is_reserved":false,"is_disabled":true,"rental_uris":{"android":"levelo://app?vid=41ef7262-a9d2-42e7-8a32-491b4b65ae25","ios":"levelo://app?vid=41ef7262-a9d2-42e7-8a32-491b4b65ae25"},"vehicle_type_id":"4","last_reported":1748409043,"current_range_meters":16000,"station_id":"ce4bhi12rcd13ifvqfo0","pricing_plan_id":"cebpf4jnsgd1na2vs0mg"},{"bike_id":"a89651c3-d534-4bfc-8af7-fb20a1998c60","system_id":"levelo_inurba_marseille","lat":43.30874,"lon":5.3964,"is_reserved":false,"is_disabled":false,"rental_uris":{"android":"levelo://app?vid=a89651c3-d534-4bfc-8af7-fb20a1998c60","ios":"levelo://app?vid=a89651c3-d534-4bfc-8af7-fb20a1998c60"},"vehicle_type_id":"4","last_reported":1748409043,"current_range_meters":16000,"station_id":"ce4bh012rcd13ifvqcv0","pricing_plan_id":"cebpf4jnsgd1na2vs0mg"},{"bike_id":"349e7297-179d-46aa-af73-d0772f15795a","system_id":"levelo_inurba_marseille","lat":43.29971,"lon":5.38395,"is_reserved":false,"is_disabled":false,"rental_uris":{"android":"levelo://app?vid=349e7297-179d-46aa-af73-d0772f15795a","ios":"levelo://app?vid=349e7297-179d-46aa-af73-d0772f15795a"},"vehicle_type_id":"4","last_reported":1748409043,"current_range_meters":16000,"station_id":"","pricing_plan_id":"cebpf4jnsgd1na2vs0mg"},{"bike_id":"3b07f020-3d8e-47eb-b723-de46e817e2a3","system_id":"levelo_inurba_marseille","lat":43.297396,"lon":5.383595,"is_reserved":false,"is_disabled":false,"rental_uris":{"android":"levelo://app?vid=3b07f020-3d8e-47eb-b723-de46e817e2a3","ios":"levelo://app?vid=3b07f020-3d8e-47eb-b723-de46e817e2a3"},"vehicle_type_id":"4","last_reported":1748409043,"current_range_meters":16000,"station_id":"","pricing_plan_id":"cebpf4jnsgd1na2vs0mg"},{"bike_id":"3865b0a2-6909-4ea2-b648-0ed5dd91b7a2","system_id":"levelo_inurba_marseille","lat":43.22531,"lon":5.34773,"is_reserved":false,"is_disabled":false,"rental_uris":{"android":"levelo://app?vid=3865b0a2-6909-4ea2-b648-0ed5dd91b7a2","ios":"levelo://app?vid=3865b0a2-6909-4ea2-b648-0ed5dd91b7a2"},"vehicle_type_id":"4","last_reported":1748409043,"current_range_meters":16000,"station_id":"","pricing_plan_id":"cebpf4jnsgd1na2vs0mg"},{"bike_id":"7adbd369-f684-4c09-90a5-6bbf2f150346","system_id":"levelo_inurba_marseille","lat":43.32093,"lon":5.36793,"is_reserved":false,"is_disabled":false,"rental_uris":{"android":"levelo://app?vid=7adbd369-f684-4c09-90a5-6bbf2f150346","ios":"levelo://app?vid=7adbd369-f684-4c09-90a5-6bbf2f150346"},"vehicle_type_id":"4","last_reported":1748409043,"current_range_meters":16000,"station_id":"ce4bhrh2rcd13ifvqhug","pricing_plan_id":"cebpf4jnsgd1na2vs0mg"},{"bike_id":"7907d746-b302-43bb-9f17-838fe24ab47b","system_id":"levelo_inurba_marseille","lat":43.23171,"lon":5.40005,"is_reserved":false,"is_disabled":false,"rental_uris":{"android":"levelo://app?vid=7907d746-b302-43bb-9f17-838fe24ab47b","ios":"levelo://app?vid=7907d746-b302-43bb-9f17-838fe24ab47b"},"vehicle_type_id":"4","last_reported":1748409043,"current_range_meters":16400,"station_id":"ce4bhn12rcd13ifvqgqg","pricing_plan_id":"cebpf4jnsgd1na2vs0mg"},{"bike_id":"798b4dd9-09fd-4939-a396-5d8278d045a8","system_id":"levelo_inurba_marseille","lat":43.282163,"lon":5.390539,"is_reserved":false,"is_disabled":false,"rental_uris":{"android":"levelo://app?vid=798b4dd9-09fd-4939-a396-5d8278d045a8","ios":"levelo://app?vid=798b4dd9-09fd-4939-a396-5d8278d045a8"},"vehicle_type_id":"4","last_reported":1748409043,"current_range_meters":16400,"station_id":"","pricing_plan_id":"cebpf4jnsgd1na2vs0mg"},{"bike_id":"54635bce-faa1-4993-90e6-78c7ecd6050a","system_id":"levelo_inurba_marseille","lat":43.30234,"lon":5.36614,"is_reserved":false,"is_disabled":true,"rental_uris":{"android":"levelo://app?vid=54635bce-faa1-4993-90e6-78c7ecd6050a","ios":"levelo://app?vid=54635bce-faa1-4993-90e6-78c7ecd6050a"},"vehicle_type_id":"4","last_reported":1748409043,"current_range_meters":16400,"station_id":"ce4bgrh2rcd13ifvqc8g","pricing_plan_id":"cebpf4jnsgd1na2vs0mg"},{"bike_id":"88f0b25b-9fcb-4934-ae2a-80fd3f534b8a","system_id":"levelo_inurba_marseille","lat":43.30205,"lon":5.36642,"is_reserved":false,"is_disabled":true,"rental_uris":{"android":"levelo://app?vid=88f0b25b-9fcb-4934-ae2a-80fd3f534b8a","ios":"levelo://app?vid=88f0b25b-9fcb-4934-ae2a-80fd3f534b8a"},"vehicle_type_id":"4","last_reported":1748409043,"current_range_meters":16400,"station_id":"ce4bgrh2rcd13ifvqc8g","pricing_plan_id":"cebpf4jnsgd1na2vs0mg"},{"bike_id":"33552088-6818-4954-941a-294624f883f8","system_id":"levelo_inurba_marseille","lat":43.286967,"lon":5.399948,"is_reserved":false,"is_disabled":false,"rental_uris":{"android":"levelo://app?vid=33552088-6818-4954-941a-294624f883f8","ios":"levelo://app?vid=33552088-6818-4954-941a-294624f883f8"},"vehicle_type_id":"4","last_reported":1748409043,"current_range_meters":16400,"station_id":"ce4bho92rcd13ifvqh3g","pricing_plan_id":"cebpf4jnsgd1na2vs0mg"},{"bike_id":"ef77543b-22de-44af-930a-38e7dfe2d4e6","system_id":"levelo_inurba_marseille","lat":43.231838,"lon":5.400083,"is_reserved":false,"is_disabled":false,"rental_uris":{"android":"levelo://app?vid=ef77543b-22de-44af-930a-38e7dfe2d4e6","ios":"levelo://app?vid=ef77543b-22de-44af-930a-38e7dfe2d4e6"},"vehicle_type_id":"4","last_reported":1748409043,"current_range_meters":16400,"station_id":"ce4bhn12rcd13ifvqgqg","pricing_plan_id":"cebpf4jnsgd1na2vs0mg"},{"bike_id":"0b46610b-39a3-4aec-92dd-2b8e6db69efd","system_id":"levelo_inurba_marseille","lat":43.28754,"lon":5.3609,"is_reserved":false,"is_disabled":false,"rental_uris":{"android":"levelo://app?vid=0b46610b-39a3-4aec-92dd-2b8e6db69efd","ios":"levelo://app?vid=0b46610b-39a3-4aec-92dd-2b8e6db69efd"},"vehicle_type_id":"4","last_reported":1748409043,"current_range_meters":16400,"station_id":"cki0cbj6b192h4jlfktg","pricing_plan_id":"cebpf4jnsgd1na2vs0mg"},{"bike_id":"fcb789d7-3cf7-430a-a366-a3a6c6977f44","system_id":"levelo_inurba_marseille","lat":43.31065,"lon":5.383487,"is_reserved":false,"is_disabled":false,"rental_uris":{"android":"levelo://app?vid=fcb789d7-3cf7-430a-a366-a3a6c6977f44","ios":"levelo://app?vid=fcb789d7-3cf7-430a-a366-a3a6c6977f44"},"vehicle_type_id":"4","last_reported":1748409043,"current_range_meters":16400,"station_id":"ce4bgv92rcd13ifvqcr0","pricing_plan_id":"cebpf4jnsgd1na2vs0mg"},{"bike_id":"feb728f6-ff7e-49c3-867c-23f9d42cae4f","system_id":"levelo_inurba_marseille","lat":43.29536,"lon":5.40042,"is_reserved":false,"is_disabled":false,"rental_uris":{"android":"levelo://app?vid=feb728f6-ff7e-49c3-867c-23f9d42cae4f","ios":"levelo://app?vid=feb728f6-ff7e-49c3-867c-23f9d42cae4f"},"vehicle_type_id":"4","last_reported":1748409043,"current_range_meters":16400,"station_id":"","pricing_plan_id":"cebpf4jnsgd1na2vs0mg"},{"bike_id":"ff8f28bc-f6fd-4682-9705-5ce355ece96b","system_id":"levelo_inurba_marseille","lat":43.302582,"lon":5.400849,"is_reserved":false,"is_disabled":false,"rental_uris":{"android":"levelo://app?vid=ff8f28bc-f6fd-4682-9705-5ce355ece96b","ios":"levelo://app?vid=ff8f28bc-f6fd-4682-9705-5ce355ece96b"},"vehicle_type_id":"4","last_reported":1748409043,"current_range_meters":16400,"station_id":"ce4bgvh2rcd13ifvqcs0","pricing_plan_id":"cebpf4jnsgd1na2vs0mg"},{"bike_id":"2db64c20-41f0-4675-9c15-f65502dac08f","system_id":"levelo_inurba_marseille","lat":43.28366,"lon":5.38619,"is_reserved":false,"is_disabled":false,"rental_uris":{"android":"levelo://app?vid=2db64c20-41f0-4675-9c15-f65502dac08f","ios":"levelo://app?vid=2db64c20-41f0-4675-9c15-f65502dac08f"},"vehicle_type_id":"4","last_reported":1748409043,"current_range_meters":16400,"station_id":"ce4bh492rcd13ifvqdvg","pricing_plan_id":"cebpf4jnsgd1na2vs0mg"},{"bike_id":"8d43a499-90c2-4c59-a4b4-a02a46725fe4","system_id":"levelo_inurba_marseille","lat":43.3413,"lon":5.40935,"is_reserved":false,"is_disabled":false,"rental_uris":{"android":"levelo://app?vid=8d43a499-90c2-4c59-a4b4-a02a46725fe4","ios":"levelo://app?vid=8d43a499-90c2-4c59-a4b4-a02a46725fe4"},"vehicle_type_id":"4","last_reported":1748409043,"current_range_meters":16400,"station_id":"ce4bhqh2rcd13ifvqhlg","pricing_plan_id":"cebpf4jnsgd1na2vs0mg"},{"bike_id":"eec255ab-7881-41de-a248-bdcd941fadb7","system_id":"levelo_inurba_marseille","lat":43.24544,"lon":5.39526,"is_reserved":false,"is_disabled":false,"rental_uris":{"android":"levelo://app?vid=eec255ab-7881-41de-a248-bdcd941fadb7","ios":"levelo://app?vid=eec255ab-7881-41de-a248-bdcd941fadb7"},"vehicle_type_id":"4","last_reported":1748409043,"current_range_meters":16400,"station_id":"ce4bhlp2rcd13ifvqgjg","pricing_plan_id":"cebpf4jnsgd1na2vs0mg"},{"bike_id":"2c08af6d-e6dd-47bf-abe3-3c0981a41b80","system_id":"levelo_inurba_marseille","lat":43.3032,"lon":5.40471,"is_reserved":false,"is_disabled":false,"rental_uris":{"android":"levelo://app?vid=2c08af6d-e6dd-47bf-abe3-3c0981a41b80","ios":"levelo://app?vid=2c08af6d-e6dd-47bf-abe3-3c0981a41b80"},"vehicle_type_id":"4","last_reported":1748409043,"current_range_meters":16800,"station_id":"ce4bh012rcd13ifvqd10","pricing_plan_id":"cebpf4jnsgd1na2vs0mg"},{"bike_id":"f11c8c21-8746-4ccc-b8b9-45ae12e44444","system_id":"levelo_inurba_marseille","lat":43.28706,"lon":5.37407,"is_reserved":false,"is_disabled":true,"rental_uris":{"android":"levelo://app?vid=f11c8c21-8746-4ccc-b8b9-45ae12e44444","ios":"levelo://app?vid=f11c8c21-8746-4ccc-b8b9-45ae12e44444"},"vehicle_type_id":"4","last_reported":1748409043,"current_range_meters":16800,"station_id":"ce4bh3p2rcd13ifvqdq0","pricing_plan_id":"cebpf4jnsgd1na2vs0mg"},{"bike_id":"57316597-9a7e-4ecc-9b19-7bc22bad6c89","system_id":"levelo_inurba_marseille","lat":43.245424,"lon":5.395392,"is_reserved":false,"is_disabled":false,"rental_uris":{"android":"levelo://app?vid=57316597-9a7e-4ecc-9b19-7bc22bad6c89","ios":"levelo://app?vid=57316597-9a7e-4ecc-9b19-7bc22bad6c89"},"vehicle_type_id":"4","last_reported":1748409043,"current_range_meters":16800,"station_id":"ce4bhlp2rcd13ifvqgjg","pricing_plan_id":"cebpf4jnsgd1na2vs0mg"},{"bike_id":"a75488c8-d532-4e3d-b0ec-8fe9fa4659f5","system_id":"levelo_inurba_marseille","lat":43.28578,"lon":5.37088,"is_reserved":false,"is_disabled":false,"rental_uris":{"android":"levelo://app?vid=a75488c8-d532-4e3d-b0ec-8fe9fa4659f5","ios":"levelo://app?vid=a75488c8-d532-4e3d-b0ec-8fe9fa4659f5"},"vehicle_type_id":"4","last_reported":1748409043,"current_range_meters":16800,"station_id":"ce4bht12rcd13ifvqi60","pricing_plan_id":"cebpf4jnsgd1na2vs0mg"},{"bike_id":"68189fd1-9866-4843-94ef-6d114f110fbd","system_id":"levelo_inurba_marseille","lat":43.282033,"lon":5.390633,"is_reserved":false,"is_disabled":false,"rental_uris":{"android":"levelo://app?vid=68189fd1-9866-4843-94ef-6d114f110fbd","ios":"levelo://app?vid=68189fd1-9866-4843-94ef-6d114f110fbd"},"vehicle_type_id":"4","last_reported":1748409043,"current_range_meters":16800,"station_id":"","pricing_plan_id":"cebpf4jnsgd1na2vs0mg"},{"bike_id":"21784756-8695-4b10-acb4-14da7bc97e18","system_id":"levelo_inurba_marseille","lat":43.28221,"lon":5.39049,"is_reserved":false,"is_disabled":false,"rental_uris":{"android":"levelo://app?vid=21784756-8695-4b10-acb4-14da7bc97e18","ios":"levelo://app?vid=21784756-8695-4b10-acb4-14da7bc97e18"},"vehicle_type_id":"4","last_reported":1748409043,"current_range_meters":17200,"station_id":"","pricing_plan_id":"cebpf4jnsgd1na2vs0mg"},{"bike_id":"6e03d725-3cfa-43f3-bc85-25e79658c350","system_id":"levelo_inurba_marseille","lat":43.27826,"lon":5.40731,"is_reserved":false,"is_disabled":false,"rental_uris":{"android":"levelo://app?vid=6e03d725-3cfa-43f3-bc85-25e79658c350","ios":"levelo://app?vid=6e03d725-3cfa-43f3-bc85-25e79658c350"},"vehicle_type_id":"4","last_reported":1748409043,"current_range_meters":17200,"station_id":"ce4bhnh2rcd13ifvqgtg","pricing_plan_id":"cebpf4jnsgd1na2vs0mg"},{"bike_id":"03eed578-bb19-48fc-b5c7-10358efea5d8","system_id":"levelo_inurba_marseille","lat":43.30361,"lon":5.39799,"is_reserved":false,"is_disabled":false,"rental_uris":{"android":"levelo://app?vid=03eed578-bb19-48fc-b5c7-10358efea5d8","ios":"levelo://app?vid=03eed578-bb19-48fc-b5c7-10358efea5d8"},"vehicle_type_id":"4","last_reported":1748409043,"current_range_meters":17200,"station_id":"ce4bh092rcd13ifvqd20","pricing_plan_id":"cebpf4jnsgd1na2vs0mg"},{"bike_id":"812036af-fdef-40d2-95dc-3b0652a632c7","system_id":"levelo_inurba_marseille","lat":43.2844,"lon":5.37504,"is_reserved":false,"is_disabled":false,"rental_uris":{"android":"levelo://app?vid=812036af-fdef-40d2-95dc-3b0652a632c7","ios":"levelo://app?vid=812036af-fdef-40d2-95dc-3b0652a632c7"},"vehicle_type_id":"4","last_reported":1748409043,"current_range_meters":17200,"station_id":"ce4bh412rcd13ifvqds0","pricing_plan_id":"cebpf4jnsgd1na2vs0mg"},{"bike_id":"b2e483d1-8417-49fc-b5d5-da2183f79552","system_id":"levelo_inurba_marseille","lat":43.217486,"lon":5.346084,"is_reserved":false,"is_disabled":false,"rental_uris":{"android":"levelo://app?vid=b2e483d1-8417-49fc-b5d5-da2183f79552","ios":"levelo://app?vid=b2e483d1-8417-49fc-b5d5-da2183f79552"},"vehicle_type_id":"4","last_reported":1748409043,"current_range_meters":17200,"station_id":"st_cvj6r9ubvosntc0bgbag","pricing_plan_id":"cebpf4jnsgd1na2vs0mg"},{"bike_id":"9f96c977-918e-4d59-937c-78e2d60493ee","system_id":"levelo_inurba_marseille","lat":43.27274,"lon":5.41062,"is_reserved":false,"is_disabled":false,"rental_uris":{"android":"levelo://app?vid=9f96c977-918e-4d59-937c-78e2d60493ee","ios":"levelo://app?vid=9f96c977-918e-4d59-937c-78e2d60493ee"},"vehicle_type_id":"4","last_reported":1748409043,"current_range_meters":17200,"station_id":"","pricing_plan_id":"cebpf4jnsgd1na2vs0mg"},{"bike_id":"db0c8ab0-b70e-4a0e-a90b-773b708de0de","system_id":"levelo_inurba_marseille","lat":43.295246,"lon":5.374967,"is_reserved":false,"is_disabled":true,"rental_uris":{"android":"levelo://app?vid=db0c8ab0-b70e-4a0e-a90b-773b708de0de","ios":"levelo://app?vid=db0c8ab0-b70e-4a0e-a90b-773b708de0de"},"vehicle_type_id":"4","last_reported":1748409043,"current_range_meters":17200,"station_id":"ce4bgkp2rcd13ifvqbmg","pricing_plan_id":"cebpf4jnsgd1na2vs0mg"},{"bike_id":"f44edfce-7f89-4ad7-a7ff-c30b290bcdf4","system_id":"levelo_inurba_marseille","lat":43.299693,"lon":5.385094,"is_reserved":false,"is_disabled":true,"rental_uris":{"android":"levelo://app?vid=f44edfce-7f89-4ad7-a7ff-c30b290bcdf4","ios":"levelo://app?vid=f44edfce-7f89-4ad7-a7ff-c30b290bcdf4"},"vehicle_type_id":"4","last_reported":1748409043,"current_range_meters":17200,"station_id":"ce4bgj92rcd13ifvqbd0","pricing_plan_id":"cebpf4jnsgd1na2vs0mg"},{"bike_id":"149d5f07-5b78-45fa-9056-90e6990ced65","system_id":"levelo_inurba_marseille","lat":43.285694,"lon":5.394972,"is_reserved":false,"is_disabled":false,"rental_uris":{"android":"levelo://app?vid=149d5f07-5b78-45fa-9056-90e6990ced65","ios":"levelo://app?vid=149d5f07-5b78-45fa-9056-90e6990ced65"},"vehicle_type_id":"4","last_reported":1748409043,"current_range_meters":17200,"station_id":"ce4bh292rcd13ifvqdg0","pricing_plan_id":"cebpf4jnsgd1na2vs0mg"},{"bike_id":"39a043e6-fc15-4a52-9fda-ec07dffbe013","system_id":"levelo_inurba_marseille","lat":43.34328,"lon":5.34812,"is_reserved":false,"is_disabled":false,"rental_uris":{"android":"levelo://app?vid=39a043e6-fc15-4a52-9fda-ec07dffbe013","ios":"levelo://app?vid=39a043e6-fc15-4a52-9fda-ec07dffbe013"},"vehicle_type_id":"4","last_reported":1748409043,"current_range_meters":17600,"station_id":"","pricing_plan_id":"cebpf4jnsgd1na2vs0mg"},{"bike_id":"e0443725-aaeb-40bd-baf9-93faa6973dc9","system_id":"levelo_inurba_marseille","lat":43.25378,"lon":5.41698,"is_reserved":false,"is_disabled":false,"rental_uris":{"android":"levelo://app?vid=e0443725-aaeb-40bd-baf9-93faa6973dc9","ios":"levelo://app?vid=e0443725-aaeb-40bd-baf9-93faa6973dc9"},"vehicle_type_id":"4","last_reported":1748409043,"current_range_meters":17600,"station_id":"","pricing_plan_id":"cebpf4jnsgd1na2vs0mg"},{"bike_id":"a480806e-9514-4154-85b3-2f5f9baca26f","system_id":"levelo_inurba_marseille","lat":43.282,"lon":5.39062,"is_reserved":false,"is_disabled":false,"rental_uris":{"android":"levelo://app?vid=a480806e-9514-4154-85b3-2f5f9baca26f","ios":"levelo://app?vid=a480806e-9514-4154-85b3-2f5f9baca26f"},"vehicle_type_id":"4","last_reported":1748409043,"current_range_meters":17600,"station_id":"","pricing_plan_id":"cebpf4jnsgd1na2vs0mg"},{"bike_id":"b755083e-3707-4f05-b4c4-98be3ff74df3","system_id":"levelo_inurba_marseille","lat":43.30941,"lon":5.40176,"is_reserved":false,"is_disabled":false,"rental_uris":{"android":"levelo://app?vid=b755083e-3707-4f05-b4c4-98be3ff74df3","ios":"levelo://app?vid=b755083e-3707-4f05-b4c4-98be3ff74df3"},"vehicle_type_id":"4","last_reported":1748409043,"current_range_meters":17600,"station_id":"ce4bgvp2rcd13ifvqct0","pricing_plan_id":"cebpf4jnsgd1na2vs0mg"},{"bike_id":"f59e389b-33f3-4a89-9e07-391b47c0e3c7","system_id":"levelo_inurba_marseille","lat":43.30119,"lon":5.39868,"is_reserved":false,"is_disabled":false,"rental_uris":{"android":"levelo://app?vid=f59e389b-33f3-4a89-9e07-391b47c0e3c7","ios":"levelo://app?vid=f59e389b-33f3-4a89-9e07-391b47c0e3c7"},"vehicle_type_id":"4","last_reported":1748409043,"current_range_meters":17600,"station_id":"ce4bh0h2rcd13ifvqd40","pricing_plan_id":"cebpf4jnsgd1na2vs0mg"},{"bike_id":"df798438-3540-4bc4-99dd-2243555b9ece","system_id":"levelo_inurba_marseille","lat":43.2904,"lon":5.35896,"is_reserved":false,"is_disabled":false,"rental_uris":{"android":"levelo://app?vid=df798438-3540-4bc4-99dd-2243555b9ece","ios":"levelo://app?vid=df798438-3540-4bc4-99dd-2243555b9ece"},"vehicle_type_id":"4","last_reported":1748409043,"current_range_meters":17600,"station_id":"","pricing_plan_id":"cebpf4jnsgd1na2vs0mg"},{"bike_id":"7988a9b9-ede0-4f0b-8ec2-f1603f01cb15","system_id":"levelo_inurba_marseille","lat":43.3088,"lon":5.3965,"is_reserved":false,"is_disabled":false,"rental_uris":{"android":"levelo://app?vid=7988a9b9-ede0-4f0b-8ec2-f1603f01cb15","ios":"levelo://app?vid=7988a9b9-ede0-4f0b-8ec2-f1603f01cb15"},"vehicle_type_id":"4","last_reported":1748409043,"current_range_meters":17600,"station_id":"ce4bh012rcd13ifvqcv0","pricing_plan_id":"cebpf4jnsgd1na2vs0mg"},{"bike_id":"58e50726-299d-4923-905f-f7f097694996","system_id":"levelo_inurba_marseille","lat":43.25077,"lon":5.39517,"is_reserved":false,"is_disabled":false,"rental_uris":{"android":"levelo://app?vid=58e50726-299d-4923-905f-f7f097694996","ios":"levelo://app?vid=58e50726-299d-4923-905f-f7f097694996"},"vehicle_type_id":"4","last_reported":1748409043,"current_range_meters":17600,"station_id":"ce4bhm12rcd13ifvqgkg","pricing_plan_id":"cebpf4jnsgd1na2vs0mg"},{"bike_id":"449443f5-265d-42c4-b8a5-73695070a54b","system_id":"levelo_inurba_marseille","lat":43.25875,"lon":5.39912,"is_reserved":false,"is_disabled":false,"rental_uris":{"android":"levelo://app?vid=449443f5-265d-42c4-b8a5-73695070a54b","ios":"levelo://app?vid=449443f5-265d-42c4-b8a5-73695070a54b"},"vehicle_type_id":"4","last_reported":1748409043,"current_range_meters":17600,"station_id":"ce4bhl92rcd13ifvqghg","pricing_plan_id":"cebpf4jnsgd1na2vs0mg"},{"bike_id":"729bf32d-a297-4a8a-8ed9-08e94bf819b6","system_id":"levelo_inurba_marseille","lat":43.307351,"lon":5.424375,"is_reserved":false,"is_disabled":false,"rental_uris":{"android":"levelo://app?vid=729bf32d-a297-4a8a-8ed9-08e94bf819b6","ios":"levelo://app?vid=729bf32d-a297-4a8a-8ed9-08e94bf819b6"},"vehicle_type_id":"4","last_reported":1748409043,"current_range_meters":17600,"station_id":"st_cvj6ca6bvosntc0bfgr0","pricing_plan_id":"cebpf4jnsgd1na2vs0mg"},{"bike_id":"dc6971fa-d35f-4d71-8e25-6579263133c8","system_id":"levelo_inurba_marseille","lat":43.31064,"lon":5.38353,"is_reserved":false,"is_disabled":false,"rental_uris":{"android":"levelo://app?vid=dc6971fa-d35f-4d71-8e25-6579263133c8","ios":"levelo://app?vid=dc6971fa-d35f-4d71-8e25-6579263133c8"},"vehicle_type_id":"4","last_reported":1748409043,"current_range_meters":17600,"station_id":"ce4bgv92rcd13ifvqcr0","pricing_plan_id":"cebpf4jnsgd1na2vs0mg"},{"bike_id":"ca260ded-c7c2-47f8-8e09-8a74dcde0f9c","system_id":"levelo_inurba_marseille","lat":43.323214,"lon":5.382958,"is_reserved":false,"is_disabled":false,"rental_uris":{"android":"levelo://app?vid=ca260ded-c7c2-47f8-8e09-8a74dcde0f9c","ios":"levelo://app?vid=ca260ded-c7c2-47f8-8e09-8a74dcde0f9c"},"vehicle_type_id":"4","last_reported":1748409043,"current_range_meters":17600,"station_id":"ce4bhr12rcd13ifvqhqg","pricing_plan_id":"cebpf4jnsgd1na2vs0mg"},{"bike_id":"685c7bde-06a0-4fe2-8939-802b84cf88a0","system_id":"levelo_inurba_marseille","lat":43.23192,"lon":5.39996,"is_reserved":false,"is_disabled":false,"rental_uris":{"android":"levelo://app?vid=685c7bde-06a0-4fe2-8939-802b84cf88a0","ios":"levelo://app?vid=685c7bde-06a0-4fe2-8939-802b84cf88a0"},"vehicle_type_id":"4","last_reported":1748409043,"current_range_meters":18000,"station_id":"ce4bhn12rcd13ifvqgqg","pricing_plan_id":"cebpf4jnsgd1na2vs0mg"},{"bike_id":"61590f09-834e-4eb6-9ba3-616fa85c9926","system_id":"levelo_inurba_marseille","lat":43.30576,"lon":5.3933,"is_reserved":false,"is_disabled":false,"rental_uris":{"android":"levelo://app?vid=61590f09-834e-4eb6-9ba3-616fa85c9926","ios":"levelo://app?vid=61590f09-834e-4eb6-9ba3-616fa85c9926"},"vehicle_type_id":"4","last_reported":1748409043,"current_range_meters":18000,"station_id":"ce4bh0p2rcd13ifvqd80","pricing_plan_id":"cebpf4jnsgd1na2vs0mg"},{"bike_id":"7384b219-4833-4c8b-870f-b3b1f1458eb4","system_id":"levelo_inurba_marseille","lat":43.30664,"lon":5.40059,"is_reserved":false,"is_disabled":false,"rental_uris":{"android":"levelo://app?vid=7384b219-4833-4c8b-870f-b3b1f1458eb4","ios":"levelo://app?vid=7384b219-4833-4c8b-870f-b3b1f1458eb4"},"vehicle_type_id":"4","last_reported":1748409043,"current_range_meters":18000,"station_id":"ce4bh112rcd13ifvqda0","pricing_plan_id":"cebpf4jnsgd1na2vs0mg"},{"bike_id":"72f499a1-cb77-42e0-b03b-7c489f68c2ec","system_id":"levelo_inurba_marseille","lat":43.285404,"lon":5.374572,"is_reserved":false,"is_disabled":false,"rental_uris":{"android":"levelo://app?vid=72f499a1-cb77-42e0-b03b-7c489f68c2ec","ios":"levelo://app?vid=72f499a1-cb77-42e0-b03b-7c489f68c2ec"},"vehicle_type_id":"4","last_reported":1748409043,"current_range_meters":18000,"station_id":"","pricing_plan_id":"cebpf4jnsgd1na2vs0mg"},{"bike_id":"e6090b1a-c643-4be3-b701-e6de06e95351","system_id":"levelo_inurba_marseille","lat":43.28737,"lon":5.36081,"is_reserved":false,"is_disabled":false,"rental_uris":{"android":"levelo://app?vid=e6090b1a-c643-4be3-b701-e6de06e95351","ios":"levelo://app?vid=e6090b1a-c643-4be3-b701-e6de06e95351"},"vehicle_type_id":"4","last_reported":1748409043,"current_range_meters":18000,"station_id":"cki0cbj6b192h4jlfktg","pricing_plan_id":"cebpf4jnsgd1na2vs0mg"},{"bike_id":"693a4751-c6bb-4ca7-ac5b-2b5a6905dd96","system_id":"levelo_inurba_marseille","lat":43.24359,"lon":5.37984,"is_reserved":false,"is_disabled":false,"rental_uris":{"android":"levelo://app?vid=693a4751-c6bb-4ca7-ac5b-2b5a6905dd96","ios":"levelo://app?vid=693a4751-c6bb-4ca7-ac5b-2b5a6905dd96"},"vehicle_type_id":"4","last_reported":1748409043,"current_range_meters":18000,"station_id":"","pricing_plan_id":"cebpf4jnsgd1na2vs0mg"},{"bike_id":"ad5b9106-ec60-4c11-a8ec-64b97a8620ed","system_id":"levelo_inurba_marseille","lat":43.308029,"lon":5.381615,"is_reserved":false,"is_disabled":false,"rental_uris":{"android":"levelo://app?vid=ad5b9106-ec60-4c11-a8ec-64b97a8620ed","ios":"levelo://app?vid=ad5b9106-ec60-4c11-a8ec-64b97a8620ed"},"vehicle_type_id":"4","last_reported":1748409043,"current_range_meters":18000,"station_id":"ce4bgt12rcd13ifvqce0","pricing_plan_id":"cebpf4jnsgd1na2vs0mg"},{"bike_id":"fdabacba-03d4-4143-8295-cf115e9b0c02","system_id":"levelo_inurba_marseille","lat":43.3167,"lon":5.38941,"is_reserved":false,"is_disabled":false,"rental_uris":{"android":"levelo://app?vid=fdabacba-03d4-4143-8295-cf115e9b0c02","ios":"levelo://app?vid=fdabacba-03d4-4143-8295-cf115e9b0c02"},"vehicle_type_id":"4","last_reported":1748409043,"current_range_meters":18000,"station_id":"","pricing_plan_id":"cebpf4jnsgd1na2vs0mg"},{"bike_id":"435d1a1f-35a7-45ad-ad6b-fa7767471b2e","system_id":"levelo_inurba_marseille","lat":43.33036,"lon":5.39058,"is_reserved":false,"is_disabled":false,"rental_uris":{"android":"levelo://app?vid=435d1a1f-35a7-45ad-ad6b-fa7767471b2e","ios":"levelo://app?vid=435d1a1f-35a7-45ad-ad6b-fa7767471b2e"},"vehicle_type_id":"4","last_reported":1748409043,"current_range_meters":18000,"station_id":"ce4bhr92rcd13ifvqhrg","pricing_plan_id":"cebpf4jnsgd1na2vs0mg"},