{"last_updated":1738111474,"ttl":60,"version":"2.2","data":{"bikes":[{"bike_id":"82b7b806-69d8-4ad3-a94e-9d5cf0c89831","system_id":"levelo_inurba_marseille","lat":43.3136,"lon":5.38501,"is_reserved":false,"is_disabled":false,"rental_uris":{"android":"levelo://app?vid=82b7b806-69d8-4ad3-a94e-9d5cf0c89831","ios":"levelo://app?vid=82b7b806-69d8-4ad3-a94e-9d5cf0c89831"},"vehicle_type_id":"4","last_reported":1738111474,"current_range_meters":33200,"station_id":"ce4bgt92rcd13ifvqcf0","pricing_plan_id":"cebpf4jnsgd1na2vs0mg"},{"bike_id":"c98c10ad-2c59-465b-9626-e2f31164a824","system_id":"levelo_inurba_marseille","lat":43.23184,"lon":5.35585,"is_reserved":false,"is_disabled":false,"rental_uris":{"android":"levelo://app?vid=c98c10ad-2c59-465b-9626-e2f31164a824","ios":"levelo://app?vid=c98c10ad-2c59-465b-9626-e2f31164a824"},"vehicle_type_id":"4","last_reported":1738111474,"current_range_meters":27600,"station_id":"ce4bhu92rcd13ifvqi70","pricing_plan_id":"cebpf4jnsgd1na2vs0mg"},{"bike_id":"3ec82c51-eb21-4f03-a714-b26237cd1b2c","system_id":"levelo_inurba_marseille","lat":43.30651,"lon":5.40066,"is_reserved":false,"is_disabled":false,"rental_uris":{"android":"levelo://app?vid=3ec82c51-eb21-4f03-a714-b26237cd1b2c","ios":"levelo://app?vid=3ec82c51-eb21-4f03-a714-b26237cd1b2c"},"vehicle_type_id":"4","last_reported":1738111474,"current_range_meters":34000,"station_id":"ce4bh112rcd13ifvqda0","pricing_plan_id":"cebpf4jnsgd1na2vs0mg"},{"bike_id":"9748ed37-7ad5-4512-a93e-74c6ef3629b0","system_id":"levelo_inurba_marseille","lat":43.28468,"lon":5.3588,"is_reserved":false,"is_disabled":false,"rental_uris":{"android":"levelo://app?vid=9748ed37-7ad5-4512-a93e-74c6ef3629b0","ios":"levelo://app?vid=9748ed37-7ad5-4512-a93e-74c6ef3629b0"},"vehicle_type_id":"4","last_reported":1738111474,"current_range_meters":39200,"station_id":"ce4bhah2rcd13ifvqei0","pricing_plan_id":"cebpf4jnsgd1na2vs0mg"},{"bike_id":"e95ca0ab-7e54-4161-8301-71138155f3b2","system_id":"levelo_inurba_marseille","lat":43.2972,"lon":5.37694,"is_reserved":false,"is_disabled":true,"rental_uris":{"android":"levelo://app?vid=e95ca0ab-7e54-4161-8301-71138155f3b2","ios":"levelo://app?vid=e95ca0ab-7e54-4161-8301-71138155f3b2"},"vehicle_type_id":"4","last_reported":1738111474,"current_range_meters":27200,"station_id":"ce4bgkh2rcd13ifvqbl0","pricing_plan_id":"cebpf4jnsgd1na2vs0mg"},{"bike_id":"7ca46da7-114b-4148-b814-c1482722a748","system_id":"levelo_inurba_marseille","lat":43.27026,"lon":5.4035,"is_reserved":false,"is_disabled":false,"rental_uris":{"android":"levelo://app?vid=7ca46da7-114b-4148-b814-c1482722a748","ios":"levelo://app?vid=7ca46da7-114b-4148-b814-c1482722a748"},"vehicle_type_id":"4","last_reported":1738111474,"current_range_meters":10000,"station_id":"ce4bhk92rcd13ifvqgc0","pricing_plan_id":"cebpf4jnsgd1na2vs0mg"},{"bike_id":"6e0d659d-5a0e-4e21-92fa-770d4be6c514","system_id":"levelo_inurba_marseille","lat":43.31701,"lon":5.37791,"is_reserved":false,"is_disabled":false,"rental_uris":{"android":"levelo://app?vid=6e0d659d-5a0e-4e21-92fa-770d4be6c514","ios":"levelo://app?vid=6e0d659d-5a0e-4e21-92fa-770d4be6c514"},"vehicle_type_id":"4","last_reported":1738111474,"current_range_meters":11600,"station_id":"ce4bgth2rcd13ifvqch0","pricing_plan_id":"cebpf4jnsgd1na2vs0mg"},{"bike_id":"b2358e1a-98e3-4d0f-aa29-2f1be9023c34","system_id":"levelo_inurba_marseille","lat":43.30607,"lon":5.39365,"is_reserved":false,"is_disabled":false,"rental_uris":{"android":"levelo://app?vid=b2358e1a-98e3-4d0f-aa29-2f1be9023c34","ios":"levelo://app?vid=b2358e1a-98e3-4d0f-aa29-2f1be9023c34"},"vehicle_type_id":"4","last_reported":1738111474,"current_range_meters":32400,"station_id":"ce4bh0p2rcd13ifvqd80","pricing_plan_id":"cebpf4jnsgd1na2vs0mg"},{"bike_id":"f7f8117f-03ef-415e-85c6-2eeaf165e4f2","system_id":"levelo_inurba_marseille","lat":43.26227,"lon":5.40437,"is_reserved":false,"is_disabled":true,"rental_uris":{"android":"levelo://app?vid=f7f8117f-03ef-415e-85c6-2eeaf165e4f2","ios":"levelo://app?vid=f7f8117f-03ef-415e-85c6-2eeaf165e4f2"},"vehicle_type_id":"4","last_reported":1738111474,"current_range_meters":30800,"station_id":"ce4bhmh2rcd13ifvqgmg","pricing_plan_id":"cebpf4jnsgd1na2vs0mg"},{"bike_id":"45226d1a-6602-4547-9f5f-cb36e591a81b","system_id":"levelo_inurba_marseille","lat":43.260626,"lon":5.393878,"is_reserved":false,"is_disabled":false,"rental_uris":{"android":"levelo://app?vid=45226d1a-6602-4547-9f5f-cb36e591a81b","ios":"levelo://app?vid=45226d1a-6602-4547-9f5f-cb36e591a81b"},"vehicle_type_id":"4","last_reported":1738111474,"current_range_meters":38000,"station_id":"ce4bhh92rcd13ifvqfj0","pricing_plan_id":"cebpf4jnsgd1na2vs0mg"},{"bike_id":"f7eeff0b-3639-4079-b20d-6264b393d68b","system_id":"levelo_inurba_marseille","lat":43.27802,"lon":5.40704,"is_reserved":false,"is_disabled":false,"rental_uris":{"android":"levelo://app?vid=f7eeff0b-3639-4079-b20d-6264b393d68b","ios":"levelo://app?vid=f7eeff0b-3639-4079-b20d-6264b393d68b"},"vehicle_type_id":"4","last_reported":1738111474,"current_range_meters":28400,"station_id":"ce4bhnh2rcd13ifvqgtg","pricing_plan_id":"cebpf4jnsgd1na2vs0mg"},{"bike_id":"60b94ec1-a2e5-42fc-ad7c-d66b2ada9c44","system_id":"levelo_inurba_marseille","lat":43.23964,"lon":5.36627,"is_reserved":false,"is_disabled":false,"rental_uris":{"android":"levelo://app?vid=60b94ec1-a2e5-42fc-ad7c-d66b2ada9c44","ios":"levelo://app?vid=60b94ec1-a2e5-42fc-ad7c-d66b2ada9c44"},"vehicle_type_id":"4","last_reported":1738111474,"current_range_meters":6400,"station_id":"ce4bhi12rcd13ifvqfp0","pricing_plan_id":"cebpf4jnsgd1na2vs0mg"},{"bike_id":"15a8edd6-9f8c-4776-99d7-7dc1f4f51b93","system_id":"levelo_inurba_marseille","lat":43.30597,"lon":5.37212,"is_reserved":false,"is_disabled":false,"rental_uris":{"android":"levelo://app?vid=15a8edd6-9f8c-4776-99d7-7dc1f4f51b93","ios":"levelo://app?vid=15a8edd6-9f8c-4776-99d7-7dc1f4f51b93"},"vehicle_type_id":"4","last_reported":1738111474,"current_range_meters":38800,"station_id":"ce4bgqh2rcd13ifvqc4g","pricing_plan_id":"cebpf4jnsgd1na2vs0mg"},{"bike_id":"d77faba5-2b0c-430f-ad22-bcf40b90e74c","system_id":"levelo_inurba_marseille","lat":43.27812,"lon":5.40725,"is_reserved":false,"is_disabled":true,"rental_uris":{"android":"levelo://app?vid=d77faba5-2b0c-430f-ad22-bcf40b90e74c","ios":"levelo://app?vid=d77faba5-2b0c-430f-ad22-bcf40b90e74c"},"vehicle_type_id":"4","last_reported":1738111474,"current_range_meters":36800,"station_id":"ce4bhnh2rcd13ifvqgtg","pricing_plan_id":"cebpf4jnsgd1na2vs0mg"},{"bike_id":"c648f063-86bf-4aa0-acf8-600b3ae082a0","system_id":"levelo_inurba_marseille","lat":43.25102,"lon":5.4037,"is_reserved":false,"is_disabled":false,"rental_uris":{"android":"levelo://app?vid=c648f063-86bf-4aa0-acf8-600b3ae082a0","ios":"levelo://app?vid=c648f063-86bf-4aa0-acf8-600b3ae082a0"},"vehicle_type_id":"4","last_reported":1738111474,"current_range_meters":38000,"station_id":"ce4bhlh2rcd13ifvqgig","pricing_plan_id":"cebpf4jnsgd1na2vs0mg"},{"bike_id":"36831e34-0f01-4d86-ac74-c5ae2cf77c12","system_id":"levelo_inurba_marseille","lat":43.3078,"lon":5.3765,"is_reserved":false,"is_disabled":false,"rental_uris":{"android":"levelo://app?vid=36831e34-0f01-4d86-ac74-c5ae2cf77c12","ios":"levelo://app?vid=36831e34-0f01-4d86-ac74-c5ae2cf77c12"},"vehicle_type_id":"4","last_reported":1738111474,"current_range_meters":38800,"station_id":"ce4bgv92rcd13ifvqcq0","pricing_plan_id":"cebpf4jnsgd1na2vs0mg"},{"bike_id":"bc816311-e545-467a-8c6f-58b9a8a65072","system_id":"levelo_inurba_marseille","lat":43.28689,"lon":5.37414,"is_reserved":false,"is_disabled":false,"rental_uris":{"android":"levelo://app?vid=bc816311-e545-467a-8c6f-58b9a8a65072","ios":"levelo://app?vid=bc816311-e545-467a-8c6f-58b9a8a65072"},"vehicle_type_id":"4","last_reported":1738111474,"current_range_meters":28000,"station_id":"ce4bh3p2rcd13ifvqdq0","pricing_plan_id":"cebpf4jnsgd1na2vs0mg"},{"bike_id":"02cef228-7c82-4d63-b29e-7deed950ebd1","system_id":"levelo_inurba_marseille","lat":43.31168,"lon":5.38707,"is_reserved":false,"is_disabled":false,"rental_uris":{"android":"levelo://app?vid=02cef228-7c82-4d63-b29e-7deed950ebd1","ios":"levelo://app?vid=02cef228-7c82-4d63-b29e-7deed950ebd1"},"vehicle_type_id":"4","last_reported":1738111474,"current_range_meters":38800,"station_id":"ce4bgv12rcd13ifvqcp0","pricing_plan_id":"cebpf4jnsgd1na2vs0mg"},{"bike_id":"91f96a85-c841-448e-b26b-4a319342ea96","system_id":"levelo_inurba_marseille","lat":43.29568,"lon":5.3995,"is_reserved":false,"is_disabled":false,"rental_uris":{"android":"levelo://app?vid=91f96a85-c841-448e-b26b-4a319342ea96","ios":"levelo://app?vid=91f96a85-c841-448e-b26b-4a319342ea96"},"vehicle_type_id":"4","last_reported":1738111474,"current_range_meters":38800,"station_id":"ce4bh312rcd13ifvqdj0","pricing_plan_id":"cebpf4jnsgd1na2vs0mg"},{"bike_id":"58e72295-f362-4387-8a27-14a7c991b4f9","system_id":"levelo_inurba_marseille","lat":43.27375,"lon":5.36252,"is_reserved":false,"is_disabled":false,"rental_uris":{"android":"levelo://app?vid=58e72295-f362-4387-8a27-14a7c991b4f9","ios":"levelo://app?vid=58e72295-f362-4387-8a27-14a7c991b4f9"},"vehicle_type_id":"4","last_reported":1738111474,"current_range_meters":36800,"station_id":"ce4bhbh2rcd13ifvqeo0","pricing_plan_id":"cebpf4jnsgd1na2vs0mg"},{"bike_id":"bfe7bbc1-ecb4-402b-afaf-027113b773cc","system_id":"levelo_inurba_marseille","lat":43.31087,"lon":5.38362,"is_reserved":false,"is_disabled":false,"rental_uris":{"android":"levelo://app?vid=bfe7bbc1-ecb4-402b-afaf-027113b773cc","ios":"levelo://app?vid=bfe7bbc1-ecb4-402b-afaf-027113b773cc"},"vehicle_type_id":"4","last_reported":1738111474,"current_range_meters":38000,"station_id":"ce4bgv92rcd13ifvqcr0","pricing_plan_id":"cebpf4jnsgd1na2vs0mg"},{"bike_id":"96c6d005-88bb-4fd6-98f4-0a014c553eb8","system_id":"levelo_inurba_marseille","lat":43.33021,"lon":5.39033,"is_reserved":false,"is_disabled":false,"rental_uris":{"android":"levelo://app?vid=96c6d005-88bb-4fd6-98f4-0a014c553eb8","ios":"levelo://app?vid=96c6d005-88bb-4fd6-98f4-0a014c553eb8"},"vehicle_type_id":"4","last_reported":1738111474,"current_range_meters":38800,"station_id":"ce4bhr92rcd13ifvqhrg","pricing_plan_id":"cebpf4jnsgd1na2vs0mg"},{"bike_id":"5c388708-e3f2-4bbd-88d9-c199a31e81f9","system_id":"levelo_inurba_marseille","lat":43.28706,"lon":5.40002,"is_reserved":false,"is_disabled":true,"rental_uris":{"android":"levelo://app?vid=5c388708-e3f2-4bbd-88d9-c199a31e81f9","ios":"levelo://app?vid=5c388708-e3f2-4bbd-88d9-c199a31e81f9"},"vehicle_type_id":"4","last_reported":1738111474,"current_range_meters":34000,"station_id":"ce4bho92rcd13ifvqh3g","pricing_plan_id":"cebpf4jnsgd1na2vs0mg"},{"bike_id":"4fee5b2c-113a-4e93-8885-ff5a6a124d4d","system_id":"levelo_inurba_marseille","lat":43.27494,"lon":5.42471,"is_reserved":false,"is_disabled":false,"rental_uris":{"android":"levelo://app?vid=4fee5b2c-113a-4e93-8885-ff5a6a124d4d","ios":"levelo://app?vid=4fee5b2c-113a-4e93-8885-ff5a6a124d4d"},"vehicle_type_id":"4","last_reported":1738111474,"current_range_meters":10000,"station_id":"ce4bhn92rcd13ifvqgrg","pricing_plan_id":"cebpf4jnsgd1na2vs0mg"},{"bike_id":"99f052ce-e5d4-4959-9f96-077a48f3f1c5","system_id":"levelo_inurba_marseille","lat":43.27184,"lon":5.40994,"is_reserved":false,"is_disabled":false,"rental_uris":{"android":"levelo://app?vid=99f052ce-e5d4-4959-9f96-077a48f3f1c5","ios":"levelo://app?vid=99f052ce-e5d4-4959-9f96-077a48f3f1c5"},"vehicle_type_id":"4","last_reported":1738111474,"current_range_meters":38800,"station_id":"ce4bhl12rcd13ifvqgf0","pricing_plan_id":"cebpf4jnsgd1na2vs0mg"},{"bike_id":"96908559-caf4-4b5f-b7fb-008ee39ce82e","system_id":"levelo_inurba_marseille","lat":43.25727,"lon":5.41108,"is_reserved":false,"is_disabled":false,"rental_uris":{"android":"levelo://app?vid=96908559-caf4-4b5f-b7fb-008ee39ce82e","ios":"levelo://app?vid=96908559-caf4-4b5f-b7fb-008ee39ce82e"},"vehicle_type_id":"4","last_reported":1738111474,"current_range_meters":29600,"station_id":"ce4bhkp2rcd13ifvqgd0","pricing_plan_id":"cebpf4jnsgd1na2vs0mg"},{"bike_id":"874aea7d-7edc-43cb-8bc9-2175029864ba","system_id":"levelo_inurba_marseille","lat":43.28568,"lon":5.39496,"is_reserved":false,"is_disabled":false,"rental_uris":{"android":"levelo://app?vid=874aea7d-7edc-43cb-8bc9-2175029864ba","ios":"levelo://app?vid=874aea7d-7edc-43cb-8bc9-2175029864ba"},"vehicle_type_id":"4","last_reported":1738111474,"current_range_meters":33200,"station_id":"ce4bh292rcd13ifvqdg0","pricing_plan_id":"cebpf4jnsgd1na2vs0mg"},{"bike_id":"4bc1c7a2-fe02-4a81-9fbf-e5d28633c3f2","system_id":"levelo_inurba_marseille","lat":43.29199,"lon":5.39327,"is_reserved":false,"is_disabled":false,"rental_uris":{"android":"levelo://app?vid=4bc1c7a2-fe02-4a81-9fbf-e5d28633c3f2","ios":"levelo://app?vid=4bc1c7a2-fe02-4a81-9fbf-e5d28633c3f2"},"vehicle_type_id":"4","last_reported":1738111474,"current_range_meters":34800,"station_id":"ce4bh192rcd13ifvqdd0","pricing_plan_id":"cebpf4jnsgd1na2vs0mg"},{"bike_id":"0a35e13e-7ac4-41c5-852f-a143f236e88c","system_id":"levelo_inurba_marseille","lat":43.3096,"lon":5.3904,"is_reserved":false,"is_disabled":false,"rental_uris":{"android":"levelo://app?vid=0a35e13e-7ac4-41c5-852f-a143f236e88c","ios":"levelo://app?vid=0a35e13e-7ac4-41c5-852f-a143f236e88c"},"vehicle_type_id":"4","last_reported":1738111474,"current_range_meters":22800,"station_id":"ce4bgup2rcd13ifvqco0","pricing_plan_id":"cebpf4jnsgd1na2vs0mg"},{"bike_id":"ce67ae32-7450-4c44-96df-497237dc6471","system_id":"levelo_inurba_marseille","lat":43.29926,"lon":5.37446,"is_reserved":false,"is_disabled":false,"rental_uris":{"android":"levelo://app?vid=ce67ae32-7450-4c44-96df-497237dc6471","ios":"levelo://app?vid=ce67ae32-7450-4c44-96df-497237dc6471"},"vehicle_type_id":"4","last_reported":1738111474,"current_range_meters":12000,"station_id":"ce4bgjh2rcd13ifvqbg0","pricing_plan_id":"cebpf4jnsgd1na2vs0mg"},{"bike_id":"c152bb1b-3ed6-4a3e-b006-0b443bfbc2a0","system_id":"levelo_inurba_marseille","lat":43.23196,"lon":5.39978,"is_reserved":false,"is_disabled":false,"rental_uris":{"android":"levelo://app?vid=c152bb1b-3ed6-4a3e-b006-0b443bfbc2a0","ios":"levelo://app?vid=c152bb1b-3ed6-4a3e-b006-0b443bfbc2a0"},"vehicle_type_id":"4","last_reported":1738111474,"current_range_meters":38400,"station_id":"ce4bhn12rcd13ifvqgqg","pricing_plan_id":"cebpf4jnsgd1na2vs0mg"},{"bike_id":"e0e1a9b1-c826-46b6-aaed-fcc1500fd352","system_id":"levelo_inurba_marseille","lat":43.30255,"lon":5.39976,"is_reserved":false,"is_disabled":false,"rental_uris":{"android":"levelo://app?vid=e0e1a9b1-c826-46b6-aaed-fcc1500fd352","ios":"levelo://app?vid=e0e1a9b1-c826-46b6-aaed-fcc1500fd352"},"vehicle_type_id":"4","last_reported":1738111474,"current_range_meters":9600,"station_id":"ce4bgvh2rcd13ifvqcs0","pricing_plan_id":"cebpf4jnsgd1na2vs0mg"},{"bike_id":"4e59fd0a-089e-4c96-90a5-c343717c58e8","system_id":"levelo_inurba_marseille","lat":43.30533,"lon":5.38428,"is_reserved":false,"is_disabled":false,"rental_uris":{"android":"levelo://app?vid=4e59fd0a-089e-4c96-90a5-c343717c58e8","ios":"levelo://app?vid=4e59fd0a-089e-4c96-90a5-c343717c58e8"},"vehicle_type_id":"4","last_reported":1738111474,"current_range_meters":34800,"station_id":"ce4bgg92rcd13ifvqb30","pricing_plan_id":"cebpf4jnsgd1na2vs0mg"},{"bike_id":"25364637-1aab-40b5-913b-73845838954b","system_id":"levelo_inurba_marseille","lat":43.311644,"lon":5.387229,"is_reserved":false,"is_disabled":false,"rental_uris":{"android":"levelo://app?vid=25364637-1aab-40b5-913b-73845838954b","ios":"levelo://app?vid=25364637-1aab-40b5-913b-73845838954b"},"vehicle_type_id":"4","last_reported":1738111474,"current_range_meters":38800,"station_id":"ce4bgv12rcd13ifvqcp0","pricing_plan_id":"cebpf4jnsgd1na2vs0mg"},{"bike_id":"069b705e-258c-450c-88dc-0d2ac3a8269c","system_id":"levelo_inurba_marseille","lat":43.31366,"lon":5.38494,"is_reserved":false,"is_disabled":false,"rental_uris":{"android":"levelo://app?vid=069b705e-258c-450c-88dc-0d2ac3a8269c","ios":"levelo://app?vid=069b705e-258c-450c-88dc-0d2ac3a8269c"},"vehicle_type_id":"4","last_reported":1738111474,"current_range_meters":38400,"station_id":"ce4bgt92rcd13ifvqcf0","pricing_plan_id":"cebpf4jnsgd1na2vs0mg"},{"bike_id":"5d4915e0-4a9f-4c36-821a-8bde58abc3cd","system_id":"levelo_inurba_marseille","lat":43.25108,"lon":5.403292,"is_reserved":false,"is_disabled":true,"rental_uris":{"android":"levelo://app?vid=5d4915e0-4a9f-4c36-821a-8bde58abc3cd","ios":"levelo://app?vid=5d4915e0-4a9f-4c36-821a-8bde58abc3cd"},"vehicle_type_id":"4","last_reported":1738111474,"current_range_meters":12000,"station_id":"ce4bhlh2rcd13ifvqgig","pricing_plan_id":"cebpf4jnsgd1na2vs0mg"},{"bike_id":"19142cc5-99bb-4296-9510-e8fc3ec41c7a","system_id":"levelo_inurba_marseille","lat":43.29014,"lon":5.35615,"is_reserved":false,"is_disabled":false,"rental_uris":{"android":"levelo://app?vid=19142cc5-99bb-4296-9510-e8fc3ec41c7a","ios":"levelo://app?vid=19142cc5-99bb-4296-9510-e8fc3ec41c7a"},"vehicle_type_id":"4","last_reported":1738111474,"current_range_meters":36400,"station_id":"ce4bhb92rcd13ifvqen0","pricing_plan_id":"cebpf4jnsgd1na2vs0mg"},{"bike_id":"75f78423-7bb1-46bc-9291-8f61438106b2","system_id":"levelo_inurba_marseille","lat":43.330214,"lon":5.390326,"is_reserved":false,"is_disabled":false,"rental_uris":{"android":"levelo://app?vid=75f78423-7bb1-46bc-9291-8f61438106b2","ios":"levelo://app?vid=75f78423-7bb1-46bc-9291-8f61438106b2"},"vehicle_type_id":"4","last_reported":1738111474,"current_range_meters":28000,"station_id":"ce4bhr92rcd13ifvqhrg","pricing_plan_id":"cebpf4jnsgd1na2vs0mg"},{"bike_id":"7250d302-ebd9-4a4b-acfe-a6570b70f9c8","system_id":"levelo_inurba_marseille","lat":43.27916,"lon":5.37997,"is_reserved":false,"is_disabled":false,"rental_uris":{"android":"levelo://app?vid=7250d302-ebd9-4a4b-acfe-a6570b70f9c8","ios":"levelo://app?vid=7250d302-ebd9-4a4b-acfe-a6570b70f9c8"},"vehicle_type_id":"4","last_reported":1738111474,"current_range_meters":38800,"station_id":"ce4bhf92rcd13ifvqf50","pricing_plan_id":"cebpf4jnsgd1na2vs0mg"},{"bike_id":"6d7b0dc5-1e27-4819-9cd5-e4a58462c9de","system_id":"levelo_inurba_marseille","lat":43.3235,"lon":5.3889,"is_reserved":false,"is_disabled":false,"rental_uris":{"android":"levelo://app?vid=6d7b0dc5-1e27-4819-9cd5-e4a58462c9de","ios":"levelo://app?vid=6d7b0dc5-1e27-4819-9cd5-e4a58462c9de"},"vehicle_type_id":"4","last_reported":1738111474,"current_range_meters":23200,"station_id":"ce4bhqp2rcd13ifvqhog","pricing_plan_id":"cebpf4jnsgd1na2vs0mg"},{"bike_id":"8906b01c-c546-42d8-8a71-d3e4c23c32f6","system_id":"levelo_inurba_marseille","lat":43.24396,"lon":5.37058,"is_reserved":false,"is_disabled":false,"rental_uris":{"android":"levelo://app?vid=8906b01c-c546-42d8-8a71-d3e4c23c32f6","ios":"levelo://app?vid=8906b01c-c546-42d8-8a71-d3e4c23c32f6"},"vehicle_type_id":"4","last_reported":1738111474,"current_range_meters":38800,"station_id":"ce4bhhh2rcd13ifvqfk0","pricing_plan_id":"cebpf4jnsgd1na2vs0mg"},{"bike_id":"d2bf2b2f-c298-4494-a29d-42d7adfeefa4","system_id":"levelo_inurba_marseille","lat":43.29794,"lon":5.37066,"is_reserved":false,"is_disabled":false,"rental_uris":{"android":"levelo://app?vid=d2bf2b2f-c298-4494-a29d-42d7adfeefa4","ios":"levelo://app?vid=d2bf2b2f-c298-4494-a29d-42d7adfeefa4"},"vehicle_type_id":"4","last_reported":1738111474,"current_range_meters":37600,"station_id":"ce4bgop2rcd13ifvqc1g","pricing_plan_id":"cebpf4jnsgd1na2vs0mg"},{"bike_id":"da7ba8e5-f778-4ede-91e7-c38d6ca8bff8","system_id":"levelo_inurba_marseille","lat":43.28723,"lon":5.36066,"is_reserved":false,"is_disabled":false,"rental_uris":{"android":"levelo://app?vid=da7ba8e5-f778-4ede-91e7-c38d6ca8bff8","ios":"levelo://app?vid=da7ba8e5-f778-4ede-91e7-c38d6ca8bff8"},"vehicle_type_id":"4","last_reported":1738111474,"current_range_meters":15200,"station_id":"cki0cbj6b192h4jlfktg","pricing_plan_id":"cebpf4jnsgd1na2vs0mg"},{"bike_id":"ef661d98-83b5-4f61-9522-4f946e07fe17","system_id":"levelo_inurba_marseille","lat":43.25108,"lon":5.40329,"is_reserved":false,"is_disabled":false,"rental_uris":{"android":"levelo://app?vid=ef661d98-83b5-4f61-9522-4f946e07fe17","ios":"levelo://app?vid=ef661d98-83b5-4f61-9522-4f946e07fe17"},"vehicle_type_id":"4","last_reported":1738111474,"current_range_meters":37600,"station_id":"ce4bhlh2rcd13ifvqgig","pricing_plan_id":"cebpf4jnsgd1na2vs0mg"},{"bike_id":"1d9c2f3c-e7a5-4c5a-a836-c08a3178a384","system_id":"levelo_inurba_marseille","lat":43.27367,"lon":5.36256,"is_reserved":false,"is_disabled":false,"rental_uris":{"android":"levelo://app?vid=1d9c2f3c-e7a5-4c5a-a836-c08a3178a384","ios":"levelo://app?vid=1d9c2f3c-e7a5-4c5a-a836-c08a3178a384"},"vehicle_type_id":"4","last_reported":1738111474,"current_range_meters":38800,"station_id":"ce4bhbh2rcd13ifvqeo0","pricing_plan_id":"cebpf4jnsgd1na2vs0mg"},{"bike_id":"1a6fe4ee-47b3-4bef-b926-70d3b6ba5a8c","system_id":"levelo_inurba_marseille","lat":43.28348,"lon":5.38113,"is_reserved":false,"is_disabled":false,"rental_uris":{"android":"levelo://app?vid=1a6fe4ee-47b3-4bef-b926-70d3b6ba5a8c","ios":"levelo://app?vid=1a6fe4ee-47b3-4bef-b926-70d3b6ba5a8c"},"vehicle_type_id":"4","last_reported":1738111474,"current_range_meters":8800,"station_id":"ce4bh412rcd13ifvqdr0","pricing_plan_id":"cebpf4jnsgd1na2vs0mg"},{"bike_id":"df226aeb-f508-4c7a-9e65-ac5758ec5c58","system_id":"levelo_inurba_marseille","lat":43.286161,"lon":5.350973,"is_reserved":false,"is_disabled":false,"rental_uris":{"android":"levelo://app?vid=df226aeb-f508-4c7a-9e65-ac5758ec5c58","ios":"levelo://app?vid=df226aeb-f508-4c7a-9e65-ac5758ec5c58"},"vehicle_type_id":"4","last_reported":1738111474,"current_range_meters":13600,"station_id":"ce4bhch2rcd13ifvqeug","pricing_plan_id":"cebpf4jnsgd1na2vs0mg"},{"bike_id":"72fe2264-90a7-4e04-8a74-2329dfb09869","system_id":"levelo_inurba_marseille","lat":43.3189,"lon":5.40722,"is_reserved":false,"is_disabled":false,"rental_uris":{"android":"levelo://app?vid=72fe2264-90a7-4e04-8a74-2329dfb09869","ios":"levelo://app?vid=72fe2264-90a7-4e04-8a74-2329dfb09869"},"vehicle_type_id":"4","last_reported":1738111474,"current_range_meters":38400,"station_id":"ce4bhq12rcd13ifvqhig","pricing_plan_id":"cebpf4jnsgd1na2vs0mg"},{"bike_id":"1d3d6cfb-1973-4ef0-b19e-3b4fa3b6b11c","system_id":"levelo_inurba_marseille","lat":43.23963,"lon":5.3664,"is_reserved":false,"is_disabled":false,"rental_uris":{"android":"levelo://app?vid=1d3d6cfb-1973-4ef0-b19e-3b4fa3b6b11c","ios":"levelo://app?vid=1d3d6cfb-1973-4ef0-b19e-3b4fa3b6b11c"},"vehicle_type_id":"4","last_reported":1738111474,"current_range_meters":8800,"station_id":"ce4bhi12rcd13ifvqfp0","pricing_plan_id":"cebpf4jnsgd1na2vs0mg"},{"bike_id":"aa292867-ec34-4f9e-af74-19c1fdf17e9c","system_id":"levelo_inurba_marseille","lat":43.28695,"lon":5.37382,"is_reserved":false,"is_disabled":false,"rental_uris":{"android":"levelo://app?vid=aa292867-ec34-4f9e-af74-19c1fdf17e9c","ios":"levelo://app?vid=aa292867-ec34-4f9e-af74-19c1fdf17e9c"},"vehicle_type_id":"4","last_reported":1738111474,"current_range_meters":38800,"station_id":"ce4bh3p2rcd13ifvqdq0","pricing_plan_id":"cebpf4jnsgd1na2vs0mg"},{"bike_id":"d443175e-c838-4f0e-90a6-eae26a0b1d17","system_id":"levelo_inurba_marseille","lat":43.26952,"lon":5.40257,"is_reserved":false,"is_disabled":false,"rental_uris":{"android":"levelo://app?vid=d443175e-c838-4f0e-90a6-eae26a0b1d17","ios":"levelo://app?vid=d443175e-c838-4f0e-90a6-eae26a0b1d17"},"vehicle_type_id":"4","last_reported":1738111474,"current_range_meters":29600,"station_id":"cjm6bp8fraef2m0cb0m0","pricing_plan_id":"cebpf4jnsgd1na2vs0mg"},{"bike_id":"ab7769da-f316-47cb-89d6-5a54360f22ca","system_id":"levelo_inurba_marseille","lat":43.26931,"lon":5.40249,"is_reserved":false,"is_disabled":false,"rental_uris":{"android":"levelo://app?vid=ab7769da-f316-47cb-89d6-5a54360f22ca","ios":"levelo://app?vid=ab7769da-f316-47cb-89d6-5a54360f22ca"},"vehicle_type_id":"4","last_reported":1738111474,"current_range_meters":37600,"station_id":"cjm6bp8fraef2m0cb0m0","pricing_plan_id":"cebpf4jnsgd1na2vs0mg"},{"bike_id":"17ce0d9c-21b4-475e-bc10-60f978ae3a74","system_id":"levelo_inurba_marseille","lat":43.27498,"lon":5.42459,"is_reserved":false,"is_disabled":false,"rental_uris":{"android":"levelo://app?vid=17ce0d9c-21b4-475e-bc10-60f978ae3a74","ios":"levelo://app?vid=17ce0d9c-21b4-475e-bc10-60f978ae3a74"},"vehicle_type_id":"4","last_reported":1738111474,"current_range_meters":37600,"station_id":"ce4bhn92rcd13ifvqgrg","pricing_plan_id":"cebpf4jnsgd1na2vs0mg"},{"bike_id":"2e41790e-7510-44ab-86b2-1693c47c84ea","system_id":"levelo_inurba_marseille","lat":43.30099,"lon":5.39079,"is_reserved":false,"is_disabled":false,"rental_uris":{"android":"levelo://app?vid=2e41790e-7510-44ab-86b2-1693c47c84ea","ios":"levelo://app?vid=2e41790e-7510-44ab-86b2-1693c47c84ea"},"vehicle_type_id":"4","last_reported":1738111474,"current_range_meters":34000,"station_id":"ce4bh192rcd13ifvqdb0","pricing_plan_id":"cebpf4jnsgd1na2vs0mg"},{"bike_id":"11a70275-d30d-49c3-ba33-697c2572cf5c","system_id":"levelo_inurba_marseille","lat":43.31166,"lon":5.38715,"is_reserved":false,"is_disabled":false,"rental_uris":{"android":"levelo://app?vid=11a70275-d30d-49c3-ba33-697c2572cf5c","ios":"levelo://app?vid=11a70275-d30d-49c3-ba33-697c2572cf5c"},"vehicle_type_id":"4","last_reported":1738111474,"current_range_meters":38800,"station_id":"ce4bgv12rcd13ifvqcp0","pricing_plan_id":"cebpf4jnsgd1na2vs0mg"},{"bike_id":"c8a3a0ed-dff2-4f3c-87dc-2e6b47b1ad28","system_id":"levelo_inurba_marseille","lat":43.337444,"lon":5.374475,"is_reserved":false,"is_disabled":true,"rental_uris":{"android":"levelo://app?vid=c8a3a0ed-dff2-4f3c-87dc-2e6b47b1ad28","ios":"levelo://app?vid=c8a3a0ed-dff2-4f3c-87dc-2e6b47b1ad28"},"vehicle_type_id":"4","last_reported":1738111474,"current_range_meters":3200,"station_id":"","pricing_plan_id":"cebpf4jnsgd1na2vs0mg"},{"bike_id":"7037e7a9-1342-416c-9141-9365a6fb85d9","system_id":"levelo_inurba_marseille","lat":43.30798,"lon":5.38162,"is_reserved":false,"is_disabled":false,"rental_uris":{"android":"levelo://app?vid=7037e7a9-1342-416c-9141-9365a6fb85d9","ios":"levelo://app?vid=7037e7a9-1342-416c-9141-9365a6fb85d9"},"vehicle_type_id":"4","last_reported":1738111474,"current_range_meters":38000,"station_id":"ce4bgt12rcd13ifvqce0","pricing_plan_id":"cebpf4jnsgd1na2vs0mg"},{"bike_id":"061a807c-1db8-46c7-beec-da6308b151ea","system_id":"levelo_inurba_marseille","lat":43.29598,"lon":5.381,"is_reserved":false,"is_disabled":true,"rental_uris":{"android":"levelo://app?vid=061a807c-1db8-46c7-beec-da6308b151ea","ios":"levelo://app?vid=061a807c-1db8-46c7-beec-da6308b151ea"},"vehicle_type_id":"4","last_reported":1738111474,"current_range_meters":30400,"station_id":"ce4bgl12rcd13ifvqbo0","pricing_plan_id":"cebpf4jnsgd1na2vs0mg"},{"bike_id":"d323c514-0964-4830-ab1c-7976c00b8559","system_id":"levelo_inurba_marseille","lat":43.23146,"lon":5.43723,"is_reserved":false,"is_disabled":false,"rental_uris":{"android":"levelo://app?vid=d323c514-0964-4830-ab1c-7976c00b8559","ios":"levelo://app?vid=d323c514-0964-4830-ab1c-7976c00b8559"},"vehicle_type_id":"4","last_reported":1738111474,"current_range_meters":38400,"station_id":"ce4bhmp2rcd13ifvqgog","pricing_plan_id":"cebpf4jnsgd1na2vs0mg"},{"bike_id":"eb1e4ea0-bbbe-45dc-8e9a-c9f54a2dbf77","system_id":"levelo_inurba_marseille","lat":43.288392,"lon":5.358574,"is_reserved":false,"is_disabled":false,"rental_uris":{"android":"levelo://app?vid=eb1e4ea0-bbbe-45dc-8e9a-c9f54a2dbf77","ios":"levelo://app?vid=eb1e4ea0-bbbe-45dc-8e9a-c9f54a2dbf77"},"vehicle_type_id":"4","last_reported":1738111474,"current_range_meters":30800,"station_id":"ce4bhb12rcd13ifvqem0","pricing_plan_id":"cebpf4jnsgd1na2vs0mg"},{"bike_id":"8553c0a6-deb9-456c-9106-193b2eb9bd09","system_id":"levelo_inurba_marseille","lat":43.330233,"lon":5.390418,"is_reserved":false,"is_disabled":false,"rental_uris":{"android":"levelo://app?vid=8553c0a6-deb9-456c-9106-193b2eb9bd09","ios":"levelo://app?vid=8553c0a6-deb9-456c-9106-193b2eb9bd09"},"vehicle_type_id":"4","last_reported":1738111474,"current_range_meters":20400,"station_id":"ce4bhr92rcd13ifvqhrg","pricing_plan_id":"cebpf4jnsgd1na2vs0mg"},{"bike_id":"4d09985f-ba74-40e9-9c49-e4c3c882bc80","system_id":"levelo_inurba_marseille","lat":43.25852,"lon":5.3992,"is_reserved":false,"is_disabled":false,"rental_uris":{"android":"levelo://app?vid=4d09985f-ba74-40e9-9c49-e4c3c882bc80","ios":"levelo://app?vid=4d09985f-ba74-40e9-9c49-e4c3c882bc80"},"vehicle_type_id":"4","last_reported":1738111474,"current_range_meters":38400,"station_id":"ce4bhl92rcd13ifvqghg","pricing_plan_id":"cebpf4jnsgd1na2vs0mg"},{"bike_id":"e055110e-8e50-4402-9b32-8745c1542d21","system_id":"levelo_inurba_marseille","lat":43.23963,"lon":5.36627,"is_reserved":false,"is_disabled":false,"rental_uris":{"android":"levelo://app?vid=e055110e-8e50-4402-9b32-8745c1542d21","ios":"levelo://app?vid=e055110e-8e50-4402-9b32-8745c1542d21"},"vehicle_type_id":"4","last_reported":1738111474,"current_range_meters":38800,"station_id":"ce4bhi12rcd13ifvqfp0","pricing_plan_id":"cebpf4jnsgd1na2vs0mg"},{"bike_id":"fe85483f-b447-45f9-a6fe-387c2f728415","system_id":"levelo_inurba_marseille","lat":43.29185,"lon":5.35797,"is_reserved":false,"is_disabled":false,"rental_uris":{"android":"levelo://app?vid=fe85483f-b447-45f9-a6fe-387c2f728415","ios":"levelo://app?vid=fe85483f-b447-45f9-a6fe-387c2f728415"},"vehicle_type_id":"4","last_reported":1738111474,"current_range_meters":38800,"station_id":"ce4bhb12rcd13ifvqel0","pricing_plan_id":"cebpf4jnsgd1na2vs0mg"},{"bike_id":"99fa3790-0d68-4307-a71b-38d225c09cc4","system_id":"levelo_inurba_marseille","lat":43.31082,"lon":5.37799,"is_reserved":false,"is_disabled":false,"rental_uris":{"android":"levelo://app?vid=99fa3790-0d68-4307-a71b-38d225c09cc4","ios":"levelo://app?vid=99fa3790-0d68-4307-a71b-38d225c09cc4"},"vehicle_type_id":"4","last_reported":1738111474,"current_range_meters":35200,"station_id":"ce4bgt92rcd13ifvqcg0","pricing_plan_id":"cebpf4jnsgd1na2vs0mg"},{"bike_id":"fff6f411-d2ed-4224-887f-e6e7eadfc1b7","system_id":"levelo_inurba_marseille","lat":43.31343,"lon":5.39707,"is_reserved":false,"is_disabled":false,"rental_uris":{"android":"levelo://app?vid=fff6f411-d2ed-4224-887f-e6e7eadfc1b7","ios":"levelo://app?vid=fff6f411-d2ed-4224-887f-e6e7eadfc1b7"},"vehicle_type_id":"4","last_reported":1738111474,"current_range_meters":36000,"station_id":"ce4bgvp2rcd13ifvqcu0","pricing_plan_id":"cebpf4jnsgd1na2vs0mg"},{"bike_id":"a99754b0-533c-4b68-ad89-42118685fbc7","system_id":"levelo_inurba_marseille","lat":43.27991,"lon":5.41659,"is_reserved":false,"is_disabled":true,"rental_uris":{"android":"levelo://app?vid=a99754b0-533c-4b68-ad89-42118685fbc7","ios":"levelo://app?vid=a99754b0-533c-4b68-ad89-42118685fbc7"},"vehicle_type_id":"4","last_reported":1738111474,"current_range_meters":0,"station_id":"ce4bho12rcd13ifvqh1g","pricing_plan_id":"cebpf4jnsgd1na2vs0mg"},{"bike_id":"38809154-7d58-4375-bff8-ff011db40762","system_id":"levelo_inurba_marseille","lat":43.281,"lon":5.37821,"is_reserved":false,"is_disabled":false,"rental_uris":{"android":"levelo://app?vid=38809154-7d58-4375-bff8-ff011db40762","ios":"levelo://app?vid=38809154-7d58-4375-bff8-ff011db40762"},"vehicle_type_id":"4","last_reported":1738111474,"current_range_meters":38800,"station_id":"ce4bha12rcd13ifvqee0","pricing_plan_id":"cebpf4jnsgd1na2vs0mg"},{"bike_id":"5b3233ab-dded-42d1-a805-3278eb23fcd8","system_id":"levelo_inurba_marseille","lat":43.30195,"lon":5.36612,"is_reserved":false,"is_disabled":true,"rental_uris":{"android":"levelo://app?vid=5b3233ab-dded-42d1-a805-3278eb23fcd8","ios":"levelo://app?vid=5b3233ab-dded-42d1-a805-3278eb23fcd8"},"vehicle_type_id":"4","last_reported":1738111474,"current_range_meters":38000,"station_id":"ce4bgrh2rcd13ifvqc8g","pricing_plan_id":"cebpf4jnsgd1na2vs0mg"},{"bike_id":"a217eca2-76bf-464c-aef5-0f63397f1780","system_id":"levelo_inurba_marseille","lat":43.29902,"lon":5.43648,"is_reserved":false,"is_disabled":false,"rental_uris":{"android":"levelo://app?vid=a217eca2-76bf-464c-aef5-0f63397f1780","ios":"levelo://app?vid=a217eca2-76bf-464c-aef5-0f63397f1780"},"vehicle_type_id":"4","last_reported":1738111474,"current_range_meters":17200,"station_id":"ce4bhpp2rcd13ifvqhfg","pricing_plan_id":"cebpf4jnsgd1na2vs0mg"},{"bike_id":"c5c3447d-fcea-41ad-9be6-e320d4514b7c","system_id":"levelo_inurba_marseille","lat":43.29282,"lon":5.40118,"is_reserved":false,"is_disabled":false,"rental_uris":{"android":"levelo://app?vid=c5c3447d-fcea-41ad-9be6-e320d4514b7c","ios":"levelo://app?vid=c5c3447d-fcea-41ad-9be6-e320d4514b7c"},"vehicle_type_id":"4","last_reported":1738111474,"current_range_meters":12000,"station_id":"ce4bh312rcd13ifvqdk0","pricing_plan_id":"cebpf4jnsgd1na2vs0mg"},{"bike_id":"e730b719-c3ce-4703-8a3d-4e97ddcef0b4","system_id":"levelo_inurba_marseille","lat":43.281052,"lon":5.378437,"is_reserved":false,"is_disabled":false,"rental_uris":{"android":"levelo://app?vid=e730b719-c3ce-4703-8a3d-4e97ddcef0b4","ios":"levelo://app?vid=e730b719-c3ce-4703-8a3d-4e97ddcef0b4"},"vehicle_type_id":"4","last_reported":1738111474,"current_range_meters":16400,"station_id":"ce4bha12rcd13ifvqee0","pricing_plan_id":"cebpf4jnsgd1na2vs0mg"},{"bike_id":"9838cc78-2b53-49d3-ae13-82df62c4fd64","system_id":"levelo_inurba_marseille","lat":43.28412,"lon":5.40934,"is_reserved":false,"is_disabled":true,"rental_uris":{"android":"levelo://app?vid=9838cc78-2b53-49d3-ae13-82df62c4fd64","ios":"levelo://app?vid=9838cc78-2b53-49d3-ae13-82df62c4fd64"},"vehicle_type_id":"4","last_reported":1738111474,"current_range_meters":0,"station_id":"","pricing_plan_id":"cebpf4jnsgd1na2vs0mg"},{"bike_id":"11f70921-b04a-4cdd-83e2-24b869bfe246","system_id":"levelo_inurba_marseille","lat":43.28965,"lon":5.37849,"is_reserved":false,"is_disabled":true,"rental_uris":{"android":"levelo://app?vid=11f70921-b04a-4cdd-83e2-24b869bfe246","ios":"levelo://app?vid=11f70921-b04a-4cdd-83e2-24b869bfe246"},"vehicle_type_id":"4","last_reported":1738111474,"current_range_meters":38800,"station_id":"ce4bh9p2rcd13ifvqed0","pricing_plan_id":"cebpf4jnsgd1na2vs0mg"},{"bike_id":"61ac3e69-6b09-41d4-a1b8-84745cc43cb7","system_id":"levelo_inurba_marseille","lat":43.23188,"lon":5.39975,"is_reserved":false,"is_disabled":false,"rental_uris":{"android":"levelo://app?vid=61ac3e69-6b09-41d4-a1b8-84745cc43cb7","ios":"levelo://app?vid=61ac3e69-6b09-41d4-a1b8-84745cc43cb7"},"vehicle_type_id":"4","last_reported":1738111474,"current_range_meters":35200,"station_id":"ce4bhn12rcd13ifvqgqg","pricing_plan_id":"cebpf4jnsgd1na2vs0mg"},{"bike_id":"44d70056-f722-4d8f-80f9-afd89c389591","system_id":"levelo_inurba_marseille","lat":43.33003,"lon":5.39041,"is_reserved":false,"is_disabled":false,"rental_uris":{"android":"levelo://app?vid=44d70056-f722-4d8f-80f9-afd89c389591","ios":"levelo://app?vid=44d70056-f722-4d8f-80f9-afd89c389591"},"vehicle_type_id":"4","last_reported":1738111474,"current_range_meters":19200,"station_id":"ce4bhr92rcd13ifvqhrg","pricing_plan_id":"cebpf4jnsgd1na2vs0mg"},{"bike_id":"cb4b9878-96ef-4892-8d93-336dc7a1cc89","system_id":"levelo_inurba_marseille","lat":43.3403,"lon":5.35375,"is_reserved":false,"is_disabled":false,"rental_uris":{"android":"levelo://app?vid=cb4b9878-96ef-4892-8d93-336dc7a1cc89","ios":"levelo://app?vid=cb4b9878-96ef-4892-8d93-336dc7a1cc89"},"vehicle_type_id":"4","last_reported":1738111474,"current_range_meters":34000,"station_id":"","pricing_plan_id":"cebpf4jnsgd1na2vs0mg"},{"bike_id":"58101d95-a4cf-4bac-9526-961f9b76b2f5","system_id":"levelo_inurba_marseille","lat":43.30799,"lon":5.43512,"is_reserved":false,"is_disabled":false,"rental_uris":{"android":"levelo://app?vid=58101d95-a4cf-4bac-9526-961f9b76b2f5","ios":"levelo://app?vid=58101d95-a4cf-4bac-9526-961f9b76b2f5"},"vehicle_type_id":"4","last_reported":1738111474,"current_range_meters":31200,"station_id":"ce4bhph2rcd13ifvqheg","pricing_plan_id":"cebpf4jnsgd1na2vs0mg"},{"bike_id":"cebc1cc3-2475-48cb-aa41-05d47858d44e","system_id":"levelo_inurba_marseille","lat":43.29909,"lon":5.43676,"is_reserved":false,"is_disabled":false,"rental_uris":{"android":"levelo://app?vid=cebc1cc3-2475-48cb-aa41-05d47858d44e","ios":"levelo://app?vid=cebc1cc3-2475-48cb-aa41-05d47858d44e"},"vehicle_type_id":"4","last_reported":1738111474,"current_range_meters":28400,"station_id":"ce4bhpp2rcd13ifvqhfg","pricing_plan_id":"cebpf4jnsgd1na2vs0mg"},{"bike_id":"9a194f2e-ded9-4724-a6e2-557e89bdfd08","system_id":"levelo_inurba_marseille","lat":43.28105,"lon":5.37833,"is_reserved":false,"is_disabled":false,"rental_uris":{"android":"levelo://app?vid=9a194f2e-ded9-4724-a6e2-557e89bdfd08","ios":"levelo://app?vid=9a194f2e-ded9-4724-a6e2-557e89bdfd08"},"vehicle_type_id":"4","last_reported":1738111474,"current_range_meters":24800,"station_id":"ce4bha12rcd13ifvqee0","pricing_plan_id":"cebpf4jnsgd1na2vs0mg"},{"bike_id":"bdaf3da9-80df-4267-a211-aac531f0b841","system_id":"levelo_inurba_marseille","lat":43.31118,"lon":5.37988,"is_reserved":false,"is_disabled":false,"rental_uris":{"android":"levelo://app?vid=bdaf3da9-80df-4267-a211-aac531f0b841","ios":"levelo://app?vid=bdaf3da9-80df-4267-a211-aac531f0b841"},"vehicle_type_id":"4","last_reported":1738111474,"current_range_meters":16800,"station_id":"","pricing_plan_id":"cebpf4jnsgd1na2vs0mg"},{"bike_id":"8d198b1c-d183-4e75-867d-bee140abe05c","system_id":"levelo_inurba_marseille","lat":43.308405,"lon":5.435266,"is_reserved":false,"is_disabled":false,"rental_uris":{"android":"levelo://app?vid=8d198b1c-d183-4e75-867d-bee140abe05c","ios":"levelo://app?vid=8d198b1c-d183-4e75-867d-bee140abe05c"},"vehicle_type_id":"4","last_reported":1738111474,"current_range_meters":14800,"station_id":"ce4bhph2rcd13ifvqheg","pricing_plan_id":"cebpf4jnsgd1na2vs0mg"},{"bike_id":"c46317a1-6de7-4e5b-b350-03067130afdd","system_id":"levelo_inurba_marseille","lat":43.29973,"lon":5.37167,"is_reserved":false,"is_disabled":false,"rental_uris":{"android":"levelo://app?vid=c46317a1-6de7-4e5b-b350-03067130afdd","ios":"levelo://app?vid=c46317a1-6de7-4e5b-b350-03067130afdd"},"vehicle_type_id":"4","last_reported":1738111474,"current_range_meters":35600,"station_id":"ce4bgr92rcd13ifvqc7g","pricing_plan_id":"cebpf4jnsgd1na2vs0mg"},{"bike_id":"1bd43cf7-915c-4655-8ec8-429536dd8909","system_id":"levelo_inurba_marseille","lat":43.31727,"lon":5.42399,"is_reserved":false,"is_disabled":false,"rental_uris":{"android":"levelo://app?vid=1bd43cf7-915c-4655-8ec8-429536dd8909","ios":"levelo://app?vid=1bd43cf7-915c-4655-8ec8-429536dd8909"},"vehicle_type_id":"4","last_reported":1738111474,"current_range_meters":38000,"station_id":"ce4bhp92rcd13ifvqhbg","pricing_plan_id":"cebpf4jnsgd1na2vs0mg"},{"bike_id":"a139f17a-6da4-4ca3-8efa-772b4954f787","system_id":"levelo_inurba_marseille","lat":43.2656,"lon":5.37285,"is_reserved":false,"is_disabled":true,"rental_uris":{"android":"levelo://app?vid=a139f17a-6da4-4ca3-8efa-772b4954f787","ios":"levelo://app?vid=a139f17a-6da4-4ca3-8efa-772b4954f787"},"vehicle_type_id":"4","last_reported":1738111474,"current_range_meters":1200,"station_id":"ce4bhg12rcd13ifvqf70","pricing_plan_id":"cebpf4jnsgd1na2vs0mg"},{"bike_id":"6077467c-7074-4f45-87db-adb3cf561683","system_id":"levelo_inurba_marseille","lat":43.29426,"lon":5.38607,"is_reserved":false,"is_disabled":true,"rental_uris":{"android":"levelo://app?vid=6077467c-7074-4f45-87db-adb3cf561683","ios":"levelo://app?vid=6077467c-7074-4f45-87db-adb3cf561683"},"vehicle_type_id":"4","last_reported":1738111474,"current_range_meters":22400,"station_id":"ce4bh2h2rcd13ifvqdh0","pricing_plan_id":"cebpf4jnsgd1na2vs0mg"},{"bike_id":"269eea7b-f0ec-4ee8-9140-13cdab06674c","system_id":"levelo_inurba_marseille","lat":43.31072,"lon":5.38343,"is_reserved":false,"is_disabled":false,"rental_uris":{"android":"levelo://app?vid=269eea7b-f0ec-4ee8-9140-13cdab06674c","ios":"levelo://app?vid=269eea7b-f0ec-4ee8-9140-13cdab06674c"},"vehicle_type_id":"4","last_reported":1738111474,"current_range_meters":33600,"station_id":"ce4bgv92rcd13ifvqcr0","pricing_plan_id":"cebpf4jnsgd1na2vs0mg"},{"bike_id":"2e0a8b86-b457-48a0-8577-213b01080398","system_id":"levelo_inurba_marseille","lat":43.23201,"lon":5.35466,"is_reserved":false,"is_disabled":false,"rental_uris":{"android":"levelo://app?vid=2e0a8b86-b457-48a0-8577-213b01080398","ios":"levelo://app?vid=2e0a8b86-b457-48a0-8577-213b01080398"},"vehicle_type_id":"4","last_reported":1738111474,"current_range_meters":38800,"station_id":"ce4bhu92rcd13ifvqi70","pricing_plan_id":"cebpf4jnsgd1na2vs0mg"},{"bike_id":"24f87d2f-7929-4716-b341-70c135de40dd","system_id":"levelo_inurba_marseille","lat":43.30644,"lon":5.40099,"is_reserved":false,"is_disabled":false,"rental_uris":{"android":"levelo://app?vid=24f87d2f-7929-4716-b341-70c135de40dd","ios":"levelo://app?vid=24f87d2f-7929-4716-b341-70c135de40dd"},"vehicle_type_id":"4","last_reported":1738111474,"current_range_meters":33200,"station_id":"ce4bh112rcd13ifvqda0","pricing_plan_id":"cebpf4jnsgd1na2vs0mg"},{"bike_id":"a277d5ba-79dc-4980-ae8c-8d090716a0b3","system_id":"levelo_inurba_marseille","lat":43.27968,"lon":5.38769,"is_reserved":false,"is_disabled":false,"rental_uris":{"android":"levelo://app?vid=a277d5ba-79dc-4980-ae8c-8d090716a0b3","ios":"levelo://app?vid=a277d5ba-79dc-4980-ae8c-8d090716a0b3"},"vehicle_type_id":"4","last_reported":1738111474,"current_range_meters":38800,"station_id":"ce4bhg12rcd13ifvqf80","pricing_plan_id":"cebpf4jnsgd1na2vs0mg"},{"bike_id":"d979d8d2-ec65-47af-9229-e4270aab279a","system_id":"levelo_inurba_marseille","lat":43.23074,"lon":5.35501,"is_reserved":false,"is_disabled":false,"rental_uris":{"android":"levelo://app?vid=d979d8d2-ec65-47af-9229-e4270aab279a","ios":"levelo://app?vid=d979d8d2-ec65-47af-9229-e4270aab279a"},"vehicle_type_id":"4","last_reported":1738111474,"current_range_meters":22000,"station_id":"cpo3342slgdg3j2ifvpg","pricing_plan_id":"cebpf4jnsgd1na2vs0mg"},{"bike_id":"beec82ff-6bac-4064-befa-4bdf4421761b","system_id":"levelo_inurba_marseille","lat":43.31733,"lon":5.42377,"is_reserved":false,"is_disabled":false,"rental_uris":{"android":"levelo://app?vid=beec82ff-6bac-4064-befa-4bdf4421761b","ios":"levelo://app?vid=beec82ff-6bac-4064-befa-4bdf4421761b"},"vehicle_type_id":"4","last_reported":1738111474,"current_range_meters":37600,"station_id":"ce4bhp92rcd13ifvqhbg","pricing_plan_id":"cebpf4jnsgd1na2vs0mg"},{"bike_id":"22d31f87-465c-41a2-9e72-62eb49b5f60f","system_id":"levelo_inurba_marseille","lat":43.309079,"lon":5.368464,"is_reserved":false,"is_disabled":true,"rental_uris":{"android":"levelo://app?vid=22d31f87-465c-41a2-9e72-62eb49b5f60f","ios":"levelo://app?vid=22d31f87-465c-41a2-9e72-62eb49b5f60f"},"vehicle_type_id":"4","last_reported":1738111474,"current_range_meters":38800,"station_id":"ce4bgn92rcd13ifvqbvg","pricing_plan_id":"cebpf4jnsgd1na2vs0mg"},{"bike_id":"09ef4631-2c26-4021-a7ef-2693d10a5543","system_id":"levelo_inurba_marseille","lat":43.29064,"lon":5.37174,"is_reserved":false,"is_disabled":false,"rental_uris":{"android":"levelo://app?vid=09ef4631-2c26-4021-a7ef-2693d10a5543","ios":"levelo://app?vid=09ef4631-2c26-4021-a7ef-2693d10a5543"},"vehicle_type_id":"4","last_reported":1738111474,"current_range_meters":18000,"station_id":"ce4bh5p2rcd13ifvqe4g","pricing_plan_id":"cebpf4jnsgd1na2vs0mg"},{"bike_id":"882ba410-1499-4764-8199-d4f86befc7a6","system_id":"levelo_inurba_marseille","lat":43.27923,"lon":5.39574,"is_reserved":false,"is_disabled":false,"rental_uris":{"android":"levelo://app?vid=882ba410-1499-4764-8199-d4f86befc7a6","ios":"levelo://app?vid=882ba410-1499-4764-8199-d4f86befc7a6"},"vehicle_type_id":"4","last_reported":1738111474,"current_range_meters":34000,"station_id":"ce4bhf92rcd13ifvqf40","pricing_plan_id":"cebpf4jnsgd1na2vs0mg"},{"bike_id":"578abab6-3f8b-4312-b379-5220001ba173","system_id":"levelo_inurba_marseille","lat":43.28709,"lon":5.37956,"is_reserved":false,"is_disabled":false,"rental_uris":{"android":"levelo://app?vid=578abab6-3f8b-4312-b379-5220001ba173","ios":"levelo://app?vid=578abab6-3f8b-4312-b379-5220001ba173"},"vehicle_type_id":"4","last_reported":1738111474,"current_range_meters":37600,"station_id":"ce4bh9p2rcd13ifvqec0","pricing_plan_id":"cebpf4jnsgd1na2vs0mg"},{"bike_id":"c92f3ed1-1832-45b1-95ae-e066a3c304bb","system_id":"levelo_inurba_marseille","lat":43.33005,"lon":5.39029,"is_reserved":false,"is_disabled":false,"rental_uris":{"android":"levelo://app?vid=c92f3ed1-1832-45b1-95ae-e066a3c304bb","ios":"levelo://app?vid=c92f3ed1-1832-45b1-95ae-e066a3c304bb"},"vehicle_type_id":"4","last_reported":1738111474,"current_range_meters":36800,"station_id":"ce4bhr92rcd13ifvqhrg","pricing_plan_id":"cebpf4jnsgd1na2vs0mg"},{"bike_id":"7a460ffa-b85f-4637-b042-663416b3f539","system_id":"levelo_inurba_marseille","lat":43.30886,"lon":5.39641,"is_reserved":false,"is_disabled":false,"rental_uris":{"android":"levelo://app?vid=7a460ffa-b85f-4637-b042-663416b3f539","ios":"levelo://app?vid=7a460ffa-b85f-4637-b042-663416b3f539"},"vehicle_type_id":"4","last_reported":1738111474,"current_range_meters":38800,"station_id":"ce4bh012rcd13ifvqcv0","pricing_plan_id":"cebpf4jnsgd1na2vs0mg"},{"bike_id":"87e38ff3-c8f7-4c54-8bf8-14d771da3e66","system_id":"levelo_inurba_marseille","lat":43.31722,"lon":5.42407,"is_reserved":false,"is_disabled":false,"rental_uris":{"android":"levelo://app?vid=87e38ff3-c8f7-4c54-8bf8-14d771da3e66","ios":"levelo://app?vid=87e38ff3-c8f7-4c54-8bf8-14d771da3e66"},"vehicle_type_id":"4","last_reported":1738111474,"current_range_meters":13600,"station_id":"ce4bhp92rcd13ifvqhbg","pricing_plan_id":"cebpf4jnsgd1na2vs0mg"},{"bike_id":"ae07214e-9684-4bc4-a2a4-c169bbd589c3","system_id":"levelo_inurba_marseille","lat":43.30927,"lon":5.40154,"is_reserved":false,"is_disabled":false,"rental_uris":{"android":"levelo://app?vid=ae07214e-9684-4bc4-a2a4-c169bbd589c3","ios":"levelo://app?vid=ae07214e-9684-4bc4-a2a4-c169bbd589c3"},"vehicle_type_id":"4","last_reported":1738111474,"current_range_meters":38800,"station_id":"ce4bgvp2rcd13ifvqct0","pricing_plan_id":"cebpf4jnsgd1na2vs0mg"},{"bike_id":"75214a19-3086-4aab-8ba6-a177978da634","system_id":"levelo_inurba_marseille","lat":43.29919,"lon":5.43564,"is_reserved":false,"is_disabled":false,"rental_uris":{"android":"levelo://app?vid=75214a19-3086-4aab-8ba6-a177978da634","ios":"levelo://app?vid=75214a19-3086-4aab-8ba6-a177978da634"},"vehicle_type_id":"4","last_reported":1738111474,"current_range_meters":35600,"station_id":"ce4bhpp2rcd13ifvqhfg","pricing_plan_id":"cebpf4jnsgd1na2vs0mg"},{"bike_id":"d8b1c3f9-ff6e-4179-8423-4ba0d2a2af0e","system_id":"levelo_inurba_marseille","lat":43.33738,"lon":5.39183,"is_reserved":false,"is_disabled":false,"rental_uris":{"android":"levelo://app?vid=d8b1c3f9-ff6e-4179-8423-4ba0d2a2af0e","ios":"levelo://app?vid=d8b1c3f9-ff6e-4179-8423-4ba0d2a2af0e"},"vehicle_type_id":"4","last_reported":1738111474,"current_range_meters":38800,"station_id":"ce4bhr92rcd13ifvqhsg","pricing_plan_id":"cebpf4jnsgd1na2vs0mg"},{"bike_id":"ec4e1b41-004b-4ba0-8815-2155424efc7c","system_id":"levelo_inurba_marseille","lat":43.26058,"lon":5.39402,"is_reserved":false,"is_disabled":false,"rental_uris":{"android":"levelo://app?vid=ec4e1b41-004b-4ba0-8815-2155424efc7c","ios":"levelo://app?vid=ec4e1b41-004b-4ba0-8815-2155424efc7c"},"vehicle_type_id":"4","last_reported":1738111474,"current_range_meters":13600,"station_id":"ce4bhh92rcd13ifvqfj0","pricing_plan_id":"cebpf4jnsgd1na2vs0mg"},{"bike_id":"b5409e27-250f-4525-8058-ef21c8db7076","system_id":"levelo_inurba_marseille","lat":43.27375,"lon":5.3624,"is_reserved":false,"is_disabled":false,"rental_uris":{"android":"levelo://app?vid=b5409e27-250f-4525-8058-ef21c8db7076","ios":"levelo://app?vid=b5409e27-250f-4525-8058-ef21c8db7076"},"vehicle_type_id":"4","last_reported":1738111474,"current_range_meters":24000,"station_id":"ce4bhbh2rcd13ifvqeo0","pricing_plan_id":"cebpf4jnsgd1na2vs0mg"},{"bike_id":"ddeeb021-3aa5-4692-ac65-d696b9db8d28","system_id":"levelo_inurba_marseille","lat":43.33018,"lon":5.39062,"is_reserved":false,"is_disabled":false,"rental_uris":{"android":"levelo://app?vid=ddeeb021-3aa5-4692-ac65-d696b9db8d28","ios":"levelo://app?vid=ddeeb021-3aa5-4692-ac65-d696b9db8d28"},"vehicle_type_id":"4","last_reported":1738111474,"current_range_meters":38000,"station_id":"ce4bhr92rcd13ifvqhrg","pricing_plan_id":"cebpf4jnsgd1na2vs0mg"},{"bike_id":"cf7e0791-9a1c-44a4-a4ad-89ae4eea746c","system_id":"levelo_inurba_marseille","lat":43.31317,"lon":5.3971,"is_reserved":false,"is_disabled":false,"rental_uris":{"android":"levelo://app?vid=cf7e0791-9a1c-44a4-a4ad-89ae4eea746c","ios":"levelo://app?vid=cf7e0791-9a1c-44a4-a4ad-89ae4eea746c"},"vehicle_type_id":"4","last_reported":1738111474,"current_range_meters":38800,"station_id":"ce4bgvp2rcd13ifvqcu0","pricing_plan_id":"cebpf4jnsgd1na2vs0mg"},{"bike_id":"e4cefa52-8636-4262-b820-15f515b8e8d5","system_id":"levelo_inurba_marseille","lat":43.29002,"lon":5.35586,"is_reserved":false,"is_disabled":false,"rental_uris":{"android":"levelo://app?vid=e4cefa52-8636-4262-b820-15f515b8e8d5","ios":"levelo://app?vid=e4cefa52-8636-4262-b820-15f515b8e8d5"},"vehicle_type_id":"4","last_reported":1738111474,"current_range_meters":36000,"station_id":"ce4bhb92rcd13ifvqen0","pricing_plan_id":"cebpf4jnsgd1na2vs0mg"},{"bike_id":"df246887-6ea4-401b-b1c5-149bfd21ae45","system_id":"levelo_inurba_marseille","lat":43.31073,"lon":5.401,"is_reserved":false,"is_disabled":false,"rental_uris":{"android":"levelo://app?vid=df246887-6ea4-401b-b1c5-149bfd21ae45","ios":"levelo://app?vid=df246887-6ea4-401b-b1c5-149bfd21ae45"},"vehicle_type_id":"4","last_reported":1738111474,"current_range_meters":17200,"station_id":"","pricing_plan_id":"cebpf4jnsgd1na2vs0mg"},{"bike_id":"3410cb36-a088-4928-bce7-7c3c4aa152ba","system_id":"levelo_inurba_marseille","lat":43.29683,"lon":5.372905,"is_reserved":false,"is_disabled":false,"rental_uris":{"android":"levelo://app?vid=3410cb36-a088-4928-bce7-7c3c4aa152ba","ios":"levelo://app?vid=3410cb36-a088-4928-bce7-7c3c4aa152ba"},"vehicle_type_id":"4","last_reported":1738111474,"current_range_meters":38000,"station_id":"ce4bgk12rcd13ifvqbj0","pricing_plan_id":"cebpf4jnsgd1na2vs0mg"},{"bike_id":"ee1a29b5-bf27-4ed4-80ab-8de86681f638","system_id":"levelo_inurba_marseille","lat":43.28605,"lon":5.35107,"is_reserved":false,"is_disabled":false,"rental_uris":{"android":"levelo://app?vid=ee1a29b5-bf27-4ed4-80ab-8de86681f638","ios":"levelo://app?vid=ee1a29b5-bf27-4ed4-80ab-8de86681f638"},"vehicle_type_id":"4","last_reported":1738111474,"current_range_meters":37600,"station_id":"ce4bhch2rcd13ifvqeug","pricing_plan_id":"cebpf4jnsgd1na2vs0mg"},{"bike_id":"3c9c9088-9c27-4609-bc62-8218c0dc2be8","system_id":"levelo_inurba_marseille","lat":43.23192,"lon":5.3558,"is_reserved":false,"is_disabled":false,"rental_uris":{"android":"levelo://app?vid=3c9c9088-9c27-4609-bc62-8218c0dc2be8","ios":"levelo://app?vid=3c9c9088-9c27-4609-bc62-8218c0dc2be8"},"vehicle_type_id":"4","last_reported":1738111474,"current_range_meters":30800,"station_id":"ce4bhu92rcd13ifvqi70","pricing_plan_id":"cebpf4jnsgd1na2vs0mg"},{"bike_id":"8841e318-08e5-4f99-b8cb-ed847086d135","system_id":"levelo_inurba_marseille","lat":43.294393,"lon":5.397533,"is_reserved":false,"is_disabled":false,"rental_uris":{"android":"levelo://app?vid=8841e318-08e5-4f99-b8cb-ed847086d135","ios":"levelo://app?vid=8841e318-08e5-4f99-b8cb-ed847086d135"},"vehicle_type_id":"4","last_reported":1738111474,"current_range_meters":34000,"station_id":"ce4bh3h2rcd13ifvqdo0","pricing_plan_id":"cebpf4jnsgd1na2vs0mg"},{"bike_id":"1672a0cd-2a68-4581-bf36-fe2b0d644157","system_id":"levelo_inurba_marseille","lat":43.28437,"lon":5.39221,"is_reserved":false,"is_disabled":false,"rental_uris":{"android":"levelo://app?vid=1672a0cd-2a68-4581-bf36-fe2b0d644157","ios":"levelo://app?vid=1672a0cd-2a68-4581-bf36-fe2b0d644157"},"vehicle_type_id":"4","last_reported":1738111474,"current_range_meters":35600,"station_id":"ce4bhoh2rcd13ifvqh5g","pricing_plan_id":"cebpf4jnsgd1na2vs0mg"},{"bike_id":"4421a099-0299-4f7b-9a00-78de9b2dde53","system_id":"levelo_inurba_marseille","lat":43.287035,"lon":5.373949,"is_reserved":false,"is_disabled":false,"rental_uris":{"android":"levelo://app?vid=4421a099-0299-4f7b-9a00-78de9b2dde53","ios":"levelo://app?vid=4421a099-0299-4f7b-9a00-78de9b2dde53"},"vehicle_type_id":"4","last_reported":1738111474,"current_range_meters":35600,"station_id":"ce4bh3p2rcd13ifvqdq0","pricing_plan_id":"cebpf4jnsgd1na2vs0mg"},{"bike_id":"2070f1a1-c99f-41bd-9455-3e94630d9548","system_id":"levelo_inurba_marseille","lat":43.28729,"lon":5.36077,"is_reserved":false,"is_disabled":false,"rental_uris":{"android":"levelo://app?vid=2070f1a1-c99f-41bd-9455-3e94630d9548","ios":"levelo://app?vid=2070f1a1-c99f-41bd-9455-3e94630d9548"},"vehicle_type_id":"4","last_reported":1738111474,"current_range_meters":21600,"station_id":"cki0cbj6b192h4jlfktg","pricing_plan_id":"cebpf4jnsgd1na2vs0mg"},{"bike_id":"15af56a0-50cc-4287-938a-57061c15f0c6","system_id":"levelo_inurba_marseille","lat":43.33006,"lon":5.39036,"is_reserved":false,"is_disabled":false,"rental_uris":{"android":"levelo://app?vid=15af56a0-50cc-4287-938a-57061c15f0c6","ios":"levelo://app?vid=15af56a0-50cc-4287-938a-57061c15f0c6"},"vehicle_type_id":"4","last_reported":1738111474,"current_range_meters":33600,"station_id":"ce4bhr92rcd13ifvqhrg","pricing_plan_id":"cebpf4jnsgd1na2vs0mg"},{"bike_id":"ca9c9b90-ab08-4721-a324-2cac637ff6d9","system_id":"levelo_inurba_marseille","lat":43.30815,"lon":5.38136,"is_reserved":false,"is_disabled":false,"rental_uris":{"android":"levelo://app?vid=ca9c9b90-ab08-4721-a324-2cac637ff6d9","ios":"levelo://app?vid=ca9c9b90-ab08-4721-a324-2cac637ff6d9"},"vehicle_type_id":"4","last_reported":1738111474,"current_range_meters":38000,"station_id":"ce4bgt12rcd13ifvqce0","pricing_plan_id":"cebpf4jnsgd1na2vs0mg"},{"bike_id":"98e4654f-c54a-41fd-833b-eb79f86c76c8","system_id":"levelo_inurba_marseille","lat":43.30336,"lon":5.36856,"is_reserved":false,"is_disabled":false,"rental_uris":{"android":"levelo://app?vid=98e4654f-c54a-41fd-833b-eb79f86c76c8","ios":"levelo://app?vid=98e4654f-c54a-41fd-833b-eb79f86c76c8"},"vehicle_type_id":"4","last_reported":1738111474,"current_range_meters":24000,"station_id":"ce4bgqh2rcd13ifvqc5g","pricing_plan_id":"cebpf4jnsgd1na2vs0mg"},{"bike_id":"7427c665-2cc8-4882-8959-647a0d86024a","system_id":"levelo_inurba_marseille","lat":43.30359,"lon":5.41871,"is_reserved":false,"is_disabled":false,"rental_uris":{"android":"levelo://app?vid=7427c665-2cc8-4882-8959-647a0d86024a","ios":"levelo://app?vid=7427c665-2cc8-4882-8959-647a0d86024a"},"vehicle_type_id":"4","last_reported":1738111474,"current_range_meters":37600,"station_id":"ce4bhop2rcd13ifvqh7g","pricing_plan_id":"cebpf4jnsgd1na2vs0mg"},{"bike_id":"7156cab0-668f-4557-a92c-f351fb294cd4","system_id":"levelo_inurba_marseille","lat":43.24406,"lon":5.37055,"is_reserved":false,"is_disabled":false,"rental_uris":{"android":"levelo://app?vid=7156cab0-668f-4557-a92c-f351fb294cd4","ios":"levelo://app?vid=7156cab0-668f-4557-a92c-f351fb294cd4"},"vehicle_type_id":"4","last_reported":1738111474,"current_range_meters":38800,"station_id":"ce4bhhh2rcd13ifvqfk0","pricing_plan_id":"cebpf4jnsgd1na2vs0mg"},{"bike_id":"53d46465-1c69-4274-9bb5-d6a4feb5e603","system_id":"levelo_inurba_marseille","lat":43.31534,"lon":5.36748,"is_reserved":false,"is_disabled":false,"rental_uris":{"android":"levelo://app?vid=53d46465-1c69-4274-9bb5-d6a4feb5e603","ios":"levelo://app?vid=53d46465-1c69-4274-9bb5-d6a4feb5e603"},"vehicle_type_id":"4","last_reported":1738111474,"current_range_meters":38000,"station_id":"ce4bgr92rcd13ifvqc6g","pricing_plan_id":"cebpf4jnsgd1na2vs0mg"},{"bike_id":"8bd10011-2cfa-4a5d-93cb-01e04119491a","system_id":"levelo_inurba_marseille","lat":43.32366,"lon":5.38877,"is_reserved":false,"is_disabled":false,"rental_uris":{"android":"levelo://app?vid=8bd10011-2cfa-4a5d-93cb-01e04119491a","ios":"levelo://app?vid=8bd10011-2cfa-4a5d-93cb-01e04119491a"},"vehicle_type_id":"4","last_reported":1738111474,"current_range_meters":15200,"station_id":"ce4bhqp2rcd13ifvqhog","pricing_plan_id":"cebpf4jnsgd1na2vs0mg"},{"bike_id":"062acaa4-8533-423f-9d09-91cd05437850","system_id":"levelo_inurba_marseille","lat":43.33001,"lon":5.39037,"is_reserved":false,"is_disabled":false,"rental_uris":{"android":"levelo://app?vid=062acaa4-8533-423f-9d09-91cd05437850","ios":"levelo://app?vid=062acaa4-8533-423f-9d09-91cd05437850"},"vehicle_type_id":"4","last_reported":1738111474,"current_range_meters":8400,"station_id":"ce4bhr92rcd13ifvqhrg","pricing_plan_id":"cebpf4jnsgd1na2vs0mg"},{"bike_id":"0928d7c6-291b-465e-a26d-59a12315b1a9","system_id":"levelo_inurba_marseille","lat":43.31325,"lon":5.39713,"is_reserved":false,"is_disabled":false,"rental_uris":{"android":"levelo://app?vid=0928d7c6-291b-465e-a26d-59a12315b1a9","ios":"levelo://app?vid=0928d7c6-291b-465e-a26d-59a12315b1a9"},"vehicle_type_id":"4","last_reported":1738111474,"current_range_meters":28400,"station_id":"ce4bgvp2rcd13ifvqcu0","pricing_plan_id":"cebpf4jnsgd1na2vs0mg"},{"bike_id":"731da263-a70c-4e1f-9833-f280ab9ff851","system_id":"levelo_inurba_marseille","lat":43.28695,"lon":5.37393,"is_reserved":false,"is_disabled":false,"rental_uris":{"android":"levelo://app?vid=731da263-a70c-4e1f-9833-f280ab9ff851","ios":"levelo://app?vid=731da263-a70c-4e1f-9833-f280ab9ff851"},"vehicle_type_id":"4","last_reported":1738111474,"current_range_meters":38400,"station_id":"ce4bh3p2rcd13ifvqdq0","pricing_plan_id":"cebpf4jnsgd1na2vs0mg"},{"bike_id":"7ec23050-68a3-48af-bada-6b799b815c21","system_id":"levelo_inurba_marseille","lat":43.30594,"lon":5.39357,"is_reserved":false,"is_disabled":false,"rental_uris":{"android":"levelo://app?vid=7ec23050-68a3-48af-bada-6b799b815c21","ios":"levelo://app?vid=7ec23050-68a3-48af-bada-6b799b815c21"},"vehicle_type_id":"4","last_reported":1738111474,"current_range_meters":22400,"station_id":"ce4bh0p2rcd13ifvqd80","pricing_plan_id":"cebpf4jnsgd1na2vs0mg"},{"bike_id":"c004ae54-2ede-4268-b5e6-549048b57c37","system_id":"levelo_inurba_marseille","lat":43.284581,"lon":5.358921,"is_reserved":false,"is_disabled":false,"rental_uris":{"android":"levelo://app?vid=c004ae54-2ede-4268-b5e6-549048b57c37","ios":"levelo://app?vid=c004ae54-2ede-4268-b5e6-549048b57c37"},"vehicle_type_id":"4","last_reported":1738111474,"current_range_meters":38000,"station_id":"ce4bhah2rcd13ifvqei0","pricing_plan_id":"cebpf4jnsgd1na2vs0mg"},{"bike_id":"4055047e-0c4f-4698-b155-f0ccf6649608","system_id":"levelo_inurba_marseille","lat":43.295189,"lon":5.393933,"is_reserved":false,"is_disabled":true,"rental_uris":{"android":"levelo://app?vid=4055047e-0c4f-4698-b155-f0ccf6649608","ios":"levelo://app?vid=4055047e-0c4f-4698-b155-f0ccf6649608"},"vehicle_type_id":"4","last_reported":1738111474,"current_range_meters":28800,"station_id":"ce4bh292rcd13ifvqdf0","pricing_plan_id":"cebpf4jnsgd1na2vs0mg"},{"bike_id":"2256710f-428a-4b6c-afaf-f485da875c48","system_id":"levelo_inurba_marseille","lat":43.28635,"lon":5.35089,"is_reserved":false,"is_disabled":false,"rental_uris":{"android":"levelo://app?vid=2256710f-428a-4b6c-afaf-f485da875c48","ios":"levelo://app?vid=2256710f-428a-4b6c-afaf-f485da875c48"},"vehicle_type_id":"4","last_reported":1738111474,"current_range_meters":12400,"station_id":"ce4bhch2rcd13ifvqeug","pricing_plan_id":"cebpf4jnsgd1na2vs0mg"},{"bike_id":"ab2c796a-c23b-4a3a-9534-777b873d6a05","system_id":"levelo_inurba_marseille","lat":43.24168,"lon":5.36399,"is_reserved":false,"is_disabled":false,"rental_uris":{"android":"levelo://app?vid=ab2c796a-c23b-4a3a-9534-777b873d6a05","ios":"levelo://app?vid=ab2c796a-c23b-4a3a-9534-777b873d6a05"},"vehicle_type_id":"4","last_reported":1738111474,"current_range_meters":18000,"station_id":"cpo36qri1sfpv3e86is0","pricing_plan_id":"cebpf4jnsgd1na2vs0mg"},{"bike_id":"cf14396d-2607-4b74-b464-9bf8d326d05d","system_id":"levelo_inurba_marseille","lat":43.2893,"lon":5.36409,"is_reserved":false,"is_disabled":false,"rental_uris":{"android":"levelo://app?vid=cf14396d-2607-4b74-b464-9bf8d326d05d","ios":"levelo://app?vid=cf14396d-2607-4b74-b464-9bf8d326d05d"},"vehicle_type_id":"4","last_reported":1738111474,"current_range_meters":10800,"station_id":"ce4bhc92rcd13ifvqetg","pricing_plan_id":"cebpf4jnsgd1na2vs0mg"},{"bike_id":"d649c18e-0d3b-494a-b8ac-102dfa9b6b68","system_id":"levelo_inurba_marseille","lat":43.26541,"lon":5.37334,"is_reserved":false,"is_disabled":true,"rental_uris":{"android":"levelo://app?vid=d649c18e-0d3b-494a-b8ac-102dfa9b6b68","ios":"levelo://app?vid=d649c18e-0d3b-494a-b8ac-102dfa9b6b68"},"vehicle_type_id":"4","last_reported":1738111474,"current_range_meters":2000,"station_id":"ce4bhg12rcd13ifvqf70","pricing_plan_id":"cebpf4jnsgd1na2vs0mg"},{"bike_id":"787f4146-d570-4c2c-936b-74f37dc80718","system_id":"levelo_inurba_marseille","lat":43.2582,"lon":5.39424,"is_reserved":false,"is_disabled":false,"rental_uris":{"android":"levelo://app?vid=787f4146-d570-4c2c-936b-74f37dc80718","ios":"levelo://app?vid=787f4146-d570-4c2c-936b-74f37dc80718"},"vehicle_type_id":"4","last_reported":1738111474,"current_range_meters":30400,"station_id":"ce4bhip2rcd13ifvqft0","pricing_plan_id":"cebpf4jnsgd1na2vs0mg"},{"bike_id":"529f1ab7-390e-41c3-9180-30692697770e","system_id":"levelo_inurba_marseille","lat":43.28612,"lon":5.35095,"is_reserved":false,"is_disabled":false,"rental_uris":{"android":"levelo://app?vid=529f1ab7-390e-41c3-9180-30692697770e","ios":"levelo://app?vid=529f1ab7-390e-41c3-9180-30692697770e"},"vehicle_type_id":"4","last_reported":1738111474,"current_range_meters":10800,"station_id":"ce4bhch2rcd13ifvqeug","pricing_plan_id":"cebpf4jnsgd1na2vs0mg"},{"bike_id":"e92aa3e0-b0c4-4db7-a8f9-528211185866","system_id":"levelo_inurba_marseille","lat":43.2997,"lon":5.3719,"is_reserved":false,"is_disabled":false,"rental_uris":{"android":"levelo://app?vid=e92aa3e0-b0c4-4db7-a8f9-528211185866","ios":"levelo://app?vid=e92aa3e0-b0c4-4db7-a8f9-528211185866"},"vehicle_type_id":"4","last_reported":1738111474,"current_range_meters":20400,"station_id":"ce4bgr92rcd13ifvqc7g","pricing_plan_id":"cebpf4jnsgd1na2vs0mg"},{"bike_id":"24d4f5ef-361b-4b35-a071-0fe3b8f26f07","system_id":"levelo_inurba_marseille","lat":43.27493,"lon":5.42451,"is_reserved":false,"is_disabled":false,"rental_uris":{"android":"levelo://app?vid=24d4f5ef-361b-4b35-a071-0fe3b8f26f07","ios":"levelo://app?vid=24d4f5ef-361b-4b35-a071-0fe3b8f26f07"},"vehicle_type_id":"4","last_reported":1738111474,"current_range_meters":38800,"station_id":"ce4bhn92rcd13ifvqgrg","pricing_plan_id":"cebpf4jnsgd1na2vs0mg"},{"bike_id":"db044992-3250-4510-8cf9-faa44eccf4c7","system_id":"levelo_inurba_marseille","lat":43.27951,"lon":5.41027,"is_reserved":false,"is_disabled":false,"rental_uris":{"android":"levelo://app?vid=db044992-3250-4510-8cf9-faa44eccf4c7","ios":"levelo://app?vid=db044992-3250-4510-8cf9-faa44eccf4c7"},"vehicle_type_id":"4","last_reported":1738111474,"current_range_meters":24800,"station_id":"ce4bhnp2rcd13ifvqh0g","pricing_plan_id":"cebpf4jnsgd1na2vs0mg"},{"bike_id":"b539d7ec-8a8e-42db-88da-6134ef5eb529","system_id":"levelo_inurba_marseille","lat":43.29007,"lon":5.35605,"is_reserved":false,"is_disabled":false,"rental_uris":{"android":"levelo://app?vid=b539d7ec-8a8e-42db-88da-6134ef5eb529","ios":"levelo://app?vid=b539d7ec-8a8e-42db-88da-6134ef5eb529"},"vehicle_type_id":"4","last_reported":1738111474,"current_range_meters":29600,"station_id":"ce4bhb92rcd13ifvqen0","pricing_plan_id":"cebpf4jnsgd1na2vs0mg"},{"bike_id":"cbacff53-b569-4358-8d11-4b56096865df","system_id":"levelo_inurba_marseille","lat":43.30793,"lon":5.4354,"is_reserved":false,"is_disabled":false,"rental_uris":{"android":"levelo://app?vid=cbacff53-b569-4358-8d11-4b56096865df","ios":"levelo://app?vid=cbacff53-b569-4358-8d11-4b56096865df"},"vehicle_type_id":"4","last_reported":1738111474,"current_range_meters":17200,"station_id":"ce4bhph2rcd13ifvqheg","pricing_plan_id":"cebpf4jnsgd1na2vs0mg"},{"bike_id":"232f92e6-9ea9-46b5-9569-3e5f1c8e5c58","system_id":"levelo_inurba_marseille","lat":43.30598,"lon":5.39356,"is_reserved":false,"is_disabled":false,"rental_uris":{"android":"levelo://app?vid=232f92e6-9ea9-46b5-9569-3e5f1c8e5c58","ios":"levelo://app?vid=232f92e6-9ea9-46b5-9569-3e5f1c8e5c58"},"vehicle_type_id":"4","last_reported":1738111474,"current_range_meters":36400,"station_id":"ce4bh0p2rcd13ifvqd80","pricing_plan_id":"cebpf4jnsgd1na2vs0mg"},{"bike_id":"aefa3b58-5280-4eb9-97ee-8c130e0aa227","system_id":"levelo_inurba_marseille","lat":43.28003,"lon":5.40014,"is_reserved":false,"is_disabled":false,"rental_uris":{"android":"levelo://app?vid=aefa3b58-5280-4eb9-97ee-8c130e0aa227","ios":"levelo://app?vid=aefa3b58-5280-4eb9-97ee-8c130e0aa227"},"vehicle_type_id":"4","last_reported":1738111474,"current_range_meters":16400,"station_id":"ce4bho92rcd13ifvqh4g","pricing_plan_id":"cebpf4jnsgd1na2vs0mg"},{"bike_id":"65e85316-8a78-4d38-976f-446fcff7dd85","system_id":"levelo_inurba_marseille","lat":43.28855,"lon":5.3583,"is_reserved":false,"is_disabled":false,"rental_uris":{"android":"levelo://app?vid=65e85316-8a78-4d38-976f-446fcff7dd85","ios":"levelo://app?vid=65e85316-8a78-4d38-976f-446fcff7dd85"},"vehicle_type_id":"4","last_reported":1738111474,"current_range_meters":32000,"station_id":"ce4bhb12rcd13ifvqem0","pricing_plan_id":"cebpf4jnsgd1na2vs0mg"},{"bike_id":"16ab1691-8f4e-47c7-b61c-e5f6af4e6a96","system_id":"levelo_inurba_marseille","lat":43.30853,"lon":5.39151,"is_reserved":false,"is_disabled":false,"rental_uris":{"android":"levelo://app?vid=16ab1691-8f4e-47c7-b61c-e5f6af4e6a96","ios":"levelo://app?vid=16ab1691-8f4e-47c7-b61c-e5f6af4e6a96"},"vehicle_type_id":"4","last_reported":1738111474,"current_range_meters":38800,"station_id":"ce4bgup2rcd13ifvqco0","pricing_plan_id":"cebpf4jnsgd1na2vs0mg"},{"bike_id":"3afe2907-14fe-40b0-8ce8-247215ed16c8","system_id":"levelo_inurba_marseille","lat":43.26934,"lon":5.38939,"is_reserved":false,"is_disabled":true,"rental_uris":{"android":"levelo://app?vid=3afe2907-14fe-40b0-8ce8-247215ed16c8","ios":"levelo://app?vid=3afe2907-14fe-40b0-8ce8-247215ed16c8"},"vehicle_type_id":"4","last_reported":1738111474,"current_range_meters":7200,"station_id":"ce4bhhh2rcd13ifvqfl0","pricing_plan_id":"cebpf4jnsgd1na2vs0mg"},{"bike_id":"e8e1f7c6-d773-4c38-bfcc-4a6d773355ce","system_id":"levelo_inurba_marseille","lat":43.22929,"lon":5.35385,"is_reserved":false,"is_disabled":false,"rental_uris":{"android":"levelo://app?vid=e8e1f7c6-d773-4c38-bfcc-4a6d773355ce","ios":"levelo://app?vid=e8e1f7c6-d773-4c38-bfcc-4a6d773355ce"},"vehicle_type_id":"4","last_reported":1738111474,"current_range_meters":38800,"station_id":"cpo3532slgdg3j2ikp40","pricing_plan_id":"cebpf4jnsgd1na2vs0mg"},{"bike_id":"c9a3426c-aefe-417f-9771-85ebcfb06c7e","system_id":"levelo_inurba_marseille","lat":43.23193,"lon":5.35538,"is_reserved":false,"is_disabled":false,"rental_uris":{"android":"levelo://app?vid=c9a3426c-aefe-417f-9771-85ebcfb06c7e","ios":"levelo://app?vid=c9a3426c-aefe-417f-9771-85ebcfb06c7e"},"vehicle_type_id":"4","last_reported":1738111474,"current_range_meters":12800,"station_id":"ce4bhu92rcd13ifvqi70","pricing_plan_id":"cebpf4jnsgd1na2vs0mg"},{"bike_id":"268223ca-31db-4546-9047-31747b5b7246","system_id":"levelo_inurba_marseille","lat":43.27661,"lon":5.38898,"is_reserved":false,"is_disabled":false,"rental_uris":{"android":"levelo://app?vid=268223ca-31db-4546-9047-31747b5b7246","ios":"levelo://app?vid=268223ca-31db-4546-9047-31747b5b7246"},"vehicle_type_id":"4","last_reported":1738111474,"current_range_meters":37600,"station_id":"ce4bhi12rcd13ifvqfo0","pricing_plan_id":"cebpf4jnsgd1na2vs0mg"},{"bike_id":"008b9974-fa0d-4623-839f-98194d116fcb","system_id":"levelo_inurba_marseille","lat":43.269403,"lon":5.402501,"is_reserved":false,"is_disabled":false,"rental_uris":{"android":"levelo://app?vid=008b9974-fa0d-4623-839f-98194d116fcb","ios":"levelo://app?vid=008b9974-fa0d-4623-839f-98194d116fcb"},"vehicle_type_id":"4","last_reported":1738111474,"current_range_meters":27600,"station_id":"cjm6bp8fraef2m0cb0m0","pricing_plan_id":"cebpf4jnsgd1na2vs0mg"},{"bike_id":"cc26c524-9981-41d6-9e25-17cb40d9e550","system_id":"levelo_inurba_marseille","lat":43.24822,"lon":5.37453,"is_reserved":false,"is_disabled":false,"rental_uris":{"android":"levelo://app?vid=cc26c524-9981-41d6-9e25-17cb40d9e550","ios":"levelo://app?vid=cc26c524-9981-41d6-9e25-17cb40d9e550"},"vehicle_type_id":"4","last_reported":1738111474,"current_range_meters":25200,"station_id":"ce4bhgh2rcd13ifvqfb0","pricing_plan_id":"cebpf4jnsgd1na2vs0mg"},{"bike_id":"8b6a2e22-7314-494c-be31-0722e29d3f36","system_id":"levelo_inurba_marseille","lat":43.27993,"lon":5.40006,"is_reserved":false,"is_disabled":true,"rental_uris":{"android":"levelo://app?vid=8b6a2e22-7314-494c-be31-0722e29d3f36","ios":"levelo://app?vid=8b6a2e22-7314-494c-be31-0722e29d3f36"},"vehicle_type_id":"4","last_reported":1738111474,"current_range_meters":6000,"station_id":"ce4bho92rcd13ifvqh4g","pricing_plan_id":"cebpf4jnsgd1na2vs0mg"},{"bike_id":"760d43bb-007a-41b2-bcfb-af38d386d7bb","system_id":"levelo_inurba_marseille","lat":43.29779,"lon":5.39355,"is_reserved":false,"is_disabled":false,"rental_uris":{"android":"levelo://app?vid=760d43bb-007a-41b2-bcfb-af38d386d7bb","ios":"levelo://app?vid=760d43bb-007a-41b2-bcfb-af38d386d7bb"},"vehicle_type_id":"4","last_reported":1738111474,"current_range_meters":38000,"station_id":"chh1huq6cuj3fo74tm60","pricing_plan_id":"cebpf4jnsgd1na2vs0mg"},{"bike_id":"4767cefa-e3bb-4be4-a403-e6435076c93e","system_id":"levelo_inurba_marseille","lat":43.24657,"lon":5.38909,"is_reserved":false,"is_disabled":false,"rental_uris":{"android":"levelo://app?vid=4767cefa-e3bb-4be4-a403-e6435076c93e","ios":"levelo://app?vid=4767cefa-e3bb-4be4-a403-e6435076c93e"},"vehicle_type_id":"4","last_reported":1738111474,"current_range_meters":36800,"station_id":"ce4bhg12rcd13ifvqf60","pricing_plan_id":"cebpf4jnsgd1na2vs0mg"},{"bike_id":"477ef47e-30e8-441f-9bfd-bd651e354bfd","system_id":"levelo_inurba_marseille","lat":43.30184,"lon":5.36607,"is_reserved":false,"is_disabled":false,"rental_uris":{"android":"levelo://app?vid=477ef47e-30e8-441f-9bfd-bd651e354bfd","ios":"levelo://app?vid=477ef47e-30e8-441f-9bfd-bd651e354bfd"},"vehicle_type_id":"4","last_reported":1738111474,"current_range_meters":34800,"station_id":"ce4bgrh2rcd13ifvqc8g","pricing_plan_id":"cebpf4jnsgd1na2vs0mg"},{"bike_id":"dd195832-ff3f-4763-a260-74003ef7ff4c","system_id":"levelo_inurba_marseille","lat":43.2922,"lon":5.36066,"is_reserved":false,"is_disabled":true,"rental_uris":{"android":"levelo://app?vid=dd195832-ff3f-4763-a260-74003ef7ff4c","ios":"levelo://app?vid=dd195832-ff3f-4763-a260-74003ef7ff4c"},"vehicle_type_id":"4","last_reported":1738111474,"current_range_meters":36400,"station_id":"ce4bhbh2rcd13ifvqeqg","pricing_plan_id":"cebpf4jnsgd1na2vs0mg"},{"bike_id":"504dea5b-3c2a-489e-8275-d8db04b04cbd","system_id":"levelo_inurba_marseille","lat":43.28723,"lon":5.38409,"is_reserved":false,"is_disabled":false,"rental_uris":{"android":"levelo://app?vid=504dea5b-3c2a-489e-8275-d8db04b04cbd","ios":"levelo://app?vid=504dea5b-3c2a-489e-8275-d8db04b04cbd"},"vehicle_type_id":"4","last_reported":1738111474,"current_range_meters":36400,"station_id":"","pricing_plan_id":"cebpf4jnsgd1na2vs0mg"},{"bike_id":"ce8d2e7d-9589-48c0-bd6b-cfdf28ff366f","system_id":"levelo_inurba_marseille","lat":43.28701,"lon":5.37399,"is_reserved":false,"is_disabled":false,"rental_uris":{"android":"levelo://app?vid=ce8d2e7d-9589-48c0-bd6b-cfdf28ff366f","ios":"levelo://app?vid=ce8d2e7d-9589-48c0-bd6b-cfdf28ff366f"},"vehicle_type_id":"4","last_reported":1738111474,"current_range_meters":22000,"station_id":"ce4bh3p2rcd13ifvqdq0","pricing_plan_id":"cebpf4jnsgd1na2vs0mg"},{"bike_id":"0ba66904-dc2a-45c6-8746-f6b15ae063ca","system_id":"levelo_inurba_marseille","lat":43.28952,"lon":5.36382,"is_reserved":false,"is_disabled":false,"rental_uris":{"android":"levelo://app?vid=0ba66904-dc2a-45c6-8746-f6b15ae063ca","ios":"levelo://app?vid=0ba66904-dc2a-45c6-8746-f6b15ae063ca"},"vehicle_type_id":"4","last_reported":1738111474,"current_range_meters":38800,"station_id":"ce4bhc92rcd13ifvqetg","pricing_plan_id":"cebpf4jnsgd1na2vs0mg"},{"bike_id":"b6bef37c-07cc-4cdc-973f-1cf1c78f0ee3","system_id":"levelo_inurba_marseille","lat":43.26778,"lon":5.39426,"is_reserved":false,"is_disabled":false,"rental_uris":{"android":"levelo://app?vid=b6bef37c-07cc-4cdc-973f-1cf1c78f0ee3","ios":"levelo://app?vid=b6bef37c-07cc-4cdc-973f-1cf1c78f0ee3"},"vehicle_type_id":"4","last_reported":1738111474,"current_range_meters":38800,"station_id":"ce4bhh12rcd13ifvqfg0","pricing_plan_id":"cebpf4jnsgd1na2vs0mg"},{"bike_id":"8a75c218-745e-4d5a-8531-47bf77bd2d40","system_id":"levelo_inurba_marseille","lat":43.24649,"lon":5.38903,"is_reserved":false,"is_disabled":false,"rental_uris":{"android":"levelo://app?vid=8a75c218-745e-4d5a-8531-47bf77bd2d40","ios":"levelo://app?vid=8a75c218-745e-4d5a-8531-47bf77bd2d40"},"vehicle_type_id":"4","last_reported":1738111474,"current_range_meters":29600,"station_id":"ce4bhg12rcd13ifvqf60","pricing_plan_id":"cebpf4jnsgd1na2vs0mg"},{"bike_id":"71f34f72-d3b7-46a5-9bd4-1fe057b3152f","system_id":"levelo_inurba_marseille","lat":43.229364,"lon":5.353749,"is_reserved":false,"is_disabled":false,"rental_uris":{"android":"levelo://app?vid=71f34f72-d3b7-46a5-9bd4-1fe057b3152f","ios":"levelo://app?vid=71f34f72-d3b7-46a5-9bd4-1fe057b3152f"},"vehicle_type_id":"4","last_reported":1738111474,"current_range_meters":38800,"station_id":"cpo3532slgdg3j2ikp40","pricing_plan_id":"cebpf4jnsgd1na2vs0mg"},{"bike_id":"663d7f52-5c13-42cd-b742-f52b7b599bc5","system_id":"levelo_inurba_marseille","lat":43.29889,"lon":5.39727,"is_reserved":false,"is_disabled":false,"rental_uris":{"android":"levelo://app?vid=663d7f52-5c13-42cd-b742-f52b7b599bc5","ios":"levelo://app?vid=663d7f52-5c13-42cd-b742-f52b7b599bc5"},"vehicle_type_id":"4","last_reported":1738111474,"current_range_meters":17600,"station_id":"ce4bh0h2rcd13ifvqd50","pricing_plan_id":"cebpf4jnsgd1na2vs0mg"},{"bike_id":"20029bdd-9f9c-4ff9-86e4-5ba6ed30f46a","system_id":"levelo_inurba_marseille","lat":43.23151,"lon":5.4371,"is_reserved":false,"is_disabled":true,"rental_uris":{"android":"levelo://app?vid=20029bdd-9f9c-4ff9-86e4-5ba6ed30f46a","ios":"levelo://app?vid=20029bdd-9f9c-4ff9-86e4-5ba6ed30f46a"},"vehicle_type_id":"4","last_reported":1738111474,"current_range_meters":0,"station_id":"ce4bhmp2rcd13ifvqgog","pricing_plan_id":"cebpf4jnsgd1na2vs0mg"},{"bike_id":"a1e9ea9a-e681-4867-9abc-c1bdcd9eed05","system_id":"levelo_inurba_marseille","lat":43.29978,"lon":5.41311,"is_reserved":false,"is_disabled":false,"rental_uris":{"android":"levelo://app?vid=a1e9ea9a-e681-4867-9abc-c1bdcd9eed05","ios":"levelo://app?vid=a1e9ea9a-e681-4867-9abc-c1bdcd9eed05"},"vehicle_type_id":"4","last_reported":1738111474,"current_range_meters":24800,"station_id":"ce4bhp12rcd13ifvqh9g","pricing_plan_id":"cebpf4jnsgd1na2vs0mg"},{"bike_id":"c1709d9f-ce43-4fc8-94d2-255fa0787b9a","system_id":"levelo_inurba_marseille","lat":43.2762,"lon":5.361233,"is_reserved":false,"is_disabled":false,"rental_uris":{"android":"levelo://app?vid=c1709d9f-ce43-4fc8-94d2-255fa0787b9a","ios":"levelo://app?vid=c1709d9f-ce43-4fc8-94d2-255fa0787b9a"},"vehicle_type_id":"4","last_reported":1738111474,"current_range_meters":37600,"station_id":"ce4bgj92rcd13ifvqbe0","pricing_plan_id":"cebpf4jnsgd1na2vs0mg"},{"bike_id":"57a1256c-d2f7-4e70-a036-5e2d08ae6484","system_id":"levelo_inurba_marseille","lat":43.29786,"lon":5.39334,"is_reserved":false,"is_disabled":false,"rental_uris":{"android":"levelo://app?vid=57a1256c-d2f7-4e70-a036-5e2d08ae6484","ios":"levelo://app?vid=57a1256c-d2f7-4e70-a036-5e2d08ae6484"},"vehicle_type_id":"4","last_reported":1738111474,"current_range_meters":27200,"station_id":"chh1huq6cuj3fo74tm60","pricing_plan_id":"cebpf4jnsgd1na2vs0mg"},{"bike_id":"974345af-4158-47d1-a78e-cbee7401fd53","system_id":"levelo_inurba_marseille","lat":43.29,"lon":5.35611,"is_reserved":false,"is_disabled":false,"rental_uris":{"android":"levelo://app?vid=974345af-4158-47d1-a78e-cbee7401fd53","ios":"levelo://app?vid=974345af-4158-47d1-a78e-cbee7401fd53"},"vehicle_type_id":"4","last_reported":1738111474,"current_range_meters":38000,"station_id":"ce4bhb92rcd13ifvqen0","pricing_plan_id":"cebpf4jnsgd1na2vs0mg"},{"bike_id":"01c346e4-7211-4b0a-9252-8b8a59a9b82f","system_id":"levelo_inurba_marseille","lat":43.28848,"lon":5.35829,"is_reserved":false,"is_disabled":true,"rental_uris":{"android":"levelo://app?vid=01c346e4-7211-4b0a-9252-8b8a59a9b82f","ios":"levelo://app?vid=01c346e4-7211-4b0a-9252-8b8a59a9b82f"},"vehicle_type_id":"4","last_reported":1738111474,"current_range_meters":37600,"station_id":"ce4bhb12rcd13ifvqem0","pricing_plan_id":"cebpf4jnsgd1na2vs0mg"},{"bike_id":"aa131021-688b-4847-ab04-704e2cdc2b24","system_id":"levelo_inurba_marseille","lat":43.30468,"lon":5.38208,"is_reserved":false,"is_disabled":false,"rental_uris":{"android":"levelo://app?vid=aa131021-688b-4847-ab04-704e2cdc2b24","ios":"levelo://app?vid=aa131021-688b-4847-ab04-704e2cdc2b24"},"vehicle_type_id":"4","last_reported":1738111474,"current_range_meters":30800,"station_id":"","pricing_plan_id":"cebpf4jnsgd1na2vs0mg"},{"bike_id":"c1132413-fb6f-4b53-ab60-34a0c7b41d69","system_id":"levelo_inurba_marseille","lat":43.29918,"lon":5.37467,"is_reserved":false,"is_disabled":false,"rental_uris":{"android":"levelo://app?vid=c1132413-fb6f-4b53-ab60-34a0c7b41d69","ios":"levelo://app?vid=c1132413-fb6f-4b53-ab60-34a0c7b41d69"},"vehicle_type_id":"4","last_reported":1738111474,"current_range_meters":18000,"station_id":"ce4bgjh2rcd13ifvqbg0","pricing_plan_id":"cebpf4jnsgd1na2vs0mg"},{"bike_id":"3fb74e29-7f1d-4c67-8af5-0bb8332df870","system_id":"levelo_inurba_marseille","lat":43.24398,"lon":5.37053,"is_reserved":false,"is_disabled":false,"rental_uris":{"android":"levelo://app?vid=3fb74e29-7f1d-4c67-8af5-0bb8332df870","ios":"levelo://app?vid=3fb74e29-7f1d-4c67-8af5-0bb8332df870"},"vehicle_type_id":"4","last_reported":1738111474,"current_range_meters":24400,"station_id":"ce4bhhh2rcd13ifvqfk0","pricing_plan_id":"cebpf4jnsgd1na2vs0mg"},{"bike_id":"6543d157-4c86-4954-a20d-5ff1654b92fc","system_id":"levelo_inurba_marseille","lat":43.30207,"lon":5.3661,"is_reserved":false,"is_disabled":false,"rental_uris":{"android":"levelo://app?vid=6543d157-4c86-4954-a20d-5ff1654b92fc","ios":"levelo://app?vid=6543d157-4c86-4954-a20d-5ff1654b92fc"},"vehicle_type_id":"4","last_reported":1738111474,"current_range_meters":36400,"station_id":"ce4bgrh2rcd13ifvqc8g","pricing_plan_id":"cebpf4jnsgd1na2vs0mg"},{"bike_id":"51c8493b-5e44-4e55-8625-0373a8442058","system_id":"levelo_inurba_marseille","lat":43.29851,"lon":5.39753,"is_reserved":false,"is_disabled":false,"rental_uris":{"android":"levelo://app?vid=51c8493b-5e44-4e55-8625-0373a8442058","ios":"levelo://app?vid=51c8493b-5e44-4e55-8625-0373a8442058"},"vehicle_type_id":"4","last_reported":1738111474,"current_range_meters":28800,"station_id":"ce4bh0h2rcd13ifvqd50","pricing_plan_id":"cebpf4jnsgd1na2vs0mg"},{"bike_id":"a1f25abd-5197-4524-ac53-ad8743bef105","system_id":"levelo_inurba_marseille","lat":43.29899,"lon":5.43667,"is_reserved":false,"is_disabled":true,"rental_uris":{"android":"levelo://app?vid=a1f25abd-5197-4524-ac53-ad8743bef105","ios":"levelo://app?vid=a1f25abd-5197-4524-ac53-ad8743bef105"},"vehicle_type_id":"4","last_reported":1738111474,"current_range_meters":36400,"station_id":"ce4bhpp2rcd13ifvqhfg","pricing_plan_id":"cebpf4jnsgd1na2vs0mg"},{"bike_id":"5b4f2f8c-2a9b-4cc2-b6cc-1ff207bf40f1","system_id":"levelo_inurba_marseille","lat":43.30295,"lon":5.37702,"is_reserved":false,"is_disabled":false,"rental_uris":{"android":"levelo://app?vid=5b4f2f8c-2a9b-4cc2-b6cc-1ff207bf40f1","ios":"levelo://app?vid=5b4f2f8c-2a9b-4cc2-b6cc-1ff207bf40f1"},"vehicle_type_id":"4","last_reported":1738111474,"current_range_meters":18000,"station_id":"ce4bguh2rcd13ifvqcj0","pricing_plan_id":"cebpf4jnsgd1na2vs0mg"},{"bike_id":"4365e0ec-5391-441d-b48a-d28d4416b4eb","system_id":"levelo_inurba_marseille","lat":43.26814,"lon":5.40259,"is_reserved":false,"is_disabled":false,"rental_uris":{"android":"levelo://app?vid=4365e0ec-5391-441d-b48a-d28d4416b4eb","ios":"levelo://app?vid=4365e0ec-5391-441d-b48a-d28d4416b4eb"},"vehicle_type_id":"4","last_reported":1738111474,"current_range_meters":8800,"station_id":"ce501612rcd8frsf0b60","pricing_plan_id":"cebpf4jnsgd1na2vs0mg"},{"bike_id":"d2720e1a-503c-493a-a400-fc47b5a1c2f3","system_id":"levelo_inurba_marseille","lat":43.28082,"lon":5.39665,"is_reserved":false,"is_disabled":false,"rental_uris":{"android":"levelo://app?vid=d2720e1a-503c-493a-a400-fc47b5a1c2f3","ios":"levelo://app?vid=d2720e1a-503c-493a-a400-fc47b5a1c2f3"},"vehicle_type_id":"4","last_reported":1738111474,"current_range_meters":27200,"station_id":"ce4bho12rcd13ifvqh2g","pricing_plan_id":"cebpf4jnsgd1na2vs0mg"},{"bike_id":"ff68af14-5554-4f8d-a3de-4549d987f602","system_id":"levelo_inurba_marseille","lat":43.29908,"lon":5.43647,"is_reserved":false,"is_disabled":false,"rental_uris":{"android":"levelo://app?vid=ff68af14-5554-4f8d-a3de-4549d987f602","ios":"levelo://app?vid=ff68af14-5554-4f8d-a3de-4549d987f602"},"vehicle_type_id":"4","last_reported":1738111474,"current_range_meters":33600,"station_id":"ce4bhpp2rcd13ifvqhfg","pricing_plan_id":"cebpf4jnsgd1na2vs0mg"},{"bike_id":"296acca2-a355-4830-bc97-a6939a85f573","system_id":"levelo_inurba_marseille","lat":43.25577,"lon":5.38237,"is_reserved":false,"is_disabled":false,"rental_uris":{"android":"levelo://app?vid=296acca2-a355-4830-bc97-a6939a85f573","ios":"levelo://app?vid=296acca2-a355-4830-bc97-a6939a85f573"},"vehicle_type_id":"4","last_reported":1738111474,"current_range_meters":26000,"station_id":"ce4bhih2rcd13ifvqfs0","pricing_plan_id":"cebpf4jnsgd1na2vs0mg"},{"bike_id":"e2aa4144-f725-4497-81a8-6271243a9220","system_id":"levelo_inurba_marseille","lat":43.28291,"lon":5.40814,"is_reserved":false,"is_disabled":false,"rental_uris":{"android":"levelo://app?vid=e2aa4144-f725-4497-81a8-6271243a9220","ios":"levelo://app?vid=e2aa4144-f725-4497-81a8-6271243a9220"},"vehicle_type_id":"4","last_reported":1738111474,"current_range_meters":28400,"station_id":"","pricing_plan_id":"cebpf4jnsgd1na2vs0mg"},{"bike_id":"3f192397-3dec-4620-af11-30101d502881","system_id":"levelo_inurba_marseille","lat":43.303592,"lon":5.392516,"is_reserved":false,"is_disabled":true,"rental_uris":{"android":"levelo://app?vid=3f192397-3dec-4620-af11-30101d502881","ios":"levelo://app?vid=3f192397-3dec-4620-af11-30101d502881"},"vehicle_type_id":"4","last_reported":1738111474,"current_range_meters":800,"station_id":"","pricing_plan_id":"cebpf4jnsgd1na2vs0mg"},{"bike_id":"918cc4a9-23ce-4eac-a138-5ecbcbbe9bbb","system_id":"levelo_inurba_marseille","lat":43.31356,"lon":5.38502,"is_reserved":false,"is_disabled":false,"rental_uris":{"android":"levelo://app?vid=918cc4a9-23ce-4eac-a138-5ecbcbbe9bbb","ios":"levelo://app?vid=918cc4a9-23ce-4eac-a138-5ecbcbbe9bbb"},"vehicle_type_id":"4","last_reported":1738111474,"current_range_meters":32400,"station_id":"ce4bgt92rcd13ifvqcf0","pricing_plan_id":"cebpf4jnsgd1na2vs0mg"},{"bike_id":"65aa8c00-25dc-49d4-b1cb-c9b1c67ed646","system_id":"levelo_inurba_marseille","lat":43.31078,"lon":5.38339,"is_reserved":false,"is_disabled":false,"rental_uris":{"android":"levelo://app?vid=65aa8c00-25dc-49d4-b1cb-c9b1c67ed646","ios":"levelo://app?vid=65aa8c00-25dc-49d4-b1cb-c9b1c67ed646"},"vehicle_type_id":"4","last_reported":1738111474,"current_range_meters":32800,"station_id":"ce4bgv92rcd13ifvqcr0","pricing_plan_id":"cebpf4jnsgd1na2vs0mg"},{"bike_id":"2a642678-8e8c-47fe-ade5-fae5a2238505","system_id":"levelo_inurba_marseille","lat":43.31893,"lon":5.40719,"is_reserved":false,"is_disabled":false,"rental_uris":{"android":"levelo://app?vid=2a642678-8e8c-47fe-ade5-fae5a2238505","ios":"levelo://app?vid=2a642678-8e8c-47fe-ade5-fae5a2238505"},"vehicle_type_id":"4","last_reported":1738111474,"current_range_meters":38400,"station_id":"ce4bhq12rcd13ifvqhig","pricing_plan_id":"cebpf4jnsgd1na2vs0mg"},{"bike_id":"f6a37afb-46f4-467b-8e7a-93a51698bb2e","system_id":"levelo_inurba_marseille","lat":43.28847,"lon":5.35838,"is_reserved":false,"is_disabled":false,"rental_uris":{"android":"levelo://app?vid=f6a37afb-46f4-467b-8e7a-93a51698bb2e","ios":"levelo://app?vid=f6a37afb-46f4-467b-8e7a-93a51698bb2e"},"vehicle_type_id":"4","last_reported":1738111474,"current_range_meters":26800,"station_id":"ce4bhb12rcd13ifvqem0","pricing_plan_id":"cebpf4jnsgd1na2vs0mg"},{"bike_id":"3d95239f-7aae-4c5a-bf4d-ca1ab46f24f8","system_id":"levelo_inurba_marseille","lat":43.27816,"lon":5.407124,"is_reserved":false,"is_disabled":false,"rental_uris":{"android":"levelo://app?vid=3d95239f-7aae-4c5a-bf4d-ca1ab46f24f8","ios":"levelo://app?vid=3d95239f-7aae-4c5a-bf4d-ca1ab46f24f8"},"vehicle_type_id":"4","last_reported":1738111474,"current_range_meters":29600,"station_id":"ce4bhnh2rcd13ifvqgtg","pricing_plan_id":"cebpf4jnsgd1na2vs0mg"},{"bike_id":"43919733-0116-4bda-953e-fee30a8c550f","system_id":"levelo_inurba_marseille","lat":43.251228,"lon":5.403133,"is_reserved":false,"is_disabled":false,"rental_uris":{"android":"levelo://app?vid=43919733-0116-4bda-953e-fee30a8c550f","ios":"levelo://app?vid=43919733-0116-4bda-953e-fee30a8c550f"},"vehicle_type_id":"4","last_reported":1738111474,"current_range_meters":38800,"station_id":"ce4bhlh2rcd13ifvqgig","pricing_plan_id":"cebpf4jnsgd1na2vs0mg"},{"bike_id":"1950bb0c-c229-48da-bf8b-7159b0d6aead","system_id":"levelo_inurba_marseille","lat":43.28731,"lon":5.36073,"is_reserved":false,"is_disabled":false,"rental_uris":{"android":"levelo://app?vid=1950bb0c-c229-48da-bf8b-7159b0d6aead","ios":"levelo://app?vid=1950bb0c-c229-48da-bf8b-7159b0d6aead"},"vehicle_type_id":"4","last_reported":1738111474,"current_range_meters":20800,"station_id":"cki0cbj6b192h4jlfktg","pricing_plan_id":"cebpf4jnsgd1na2vs0mg"},{"bike_id":"baa76bc6-f0c1-4b5b-a044-5bb9f8eccfd5","system_id":"levelo_inurba_marseille","lat":43.2718,"lon":5.40995,"is_reserved":false,"is_disabled":false,"rental_uris":{"android":"levelo://app?vid=baa76bc6-f0c1-4b5b-a044-5bb9f8eccfd5","ios":"levelo://app?vid=baa76bc6-f0c1-4b5b-a044-5bb9f8eccfd5"},"vehicle_type_id":"4","last_reported":1738111474,"current_range_meters":38000,"station_id":"ce4bhl12rcd13ifvqgf0","pricing_plan_id":"cebpf4jnsgd1na2vs0mg"},{"bike_id":"e3c5a10e-948d-477c-91ce-8c835a7fe362","system_id":"levelo_inurba_marseille","lat":43.28089,"lon":5.39684,"is_reserved":false,"is_disabled":true,"rental_uris":{"android":"levelo://app?vid=e3c5a10e-948d-477c-91ce-8c835a7fe362","ios":"levelo://app?vid=e3c5a10e-948d-477c-91ce-8c835a7fe362"},"vehicle_type_id":"4","last_reported":1738111474,"current_range_meters":0,"station_id":"ce4bho12rcd13ifvqh2g","pricing_plan_id":"cebpf4jnsgd1na2vs0mg"},{"bike_id":"f72a3f63-172e-4d68-99a3-497b4d11c20d","system_id":"levelo_inurba_marseille","lat":43.30423,"lon":5.39757,"is_reserved":false,"is_disabled":false,"rental_uris":{"android":"levelo://app?vid=f72a3f63-172e-4d68-99a3-497b4d11c20d","ios":"levelo://app?vid=f72a3f63-172e-4d68-99a3-497b4d11c20d"},"vehicle_type_id":"4","last_reported":1738111474,"current_range_meters":38800,"station_id":"ce4bh092rcd13ifvqd20","pricing_plan_id":"cebpf4jnsgd1na2vs0mg"},{"bike_id":"7fc34398-d3b8-48de-93ad-2c00907a0510","system_id":"levelo_inurba_marseille","lat":43.25131,"lon":5.40311,"is_reserved":false,"is_disabled":false,"rental_uris":{"android":"levelo://app?vid=7fc34398-d3b8-48de-93ad-2c00907a0510","ios":"levelo://app?vid=7fc34398-d3b8-48de-93ad-2c00907a0510"},"vehicle_type_id":"4","last_reported":1738111474,"current_range_meters":10000,"station_id":"ce4bhlh2rcd13ifvqgig","pricing_plan_id":"cebpf4jnsgd1na2vs0mg"},{"bike_id":"1e7882da-a016-4654-9a16-4361fd531dc2","system_id":"levelo_inurba_marseille","lat":43.2719,"lon":5.40981,"is_reserved":false,"is_disabled":false,"rental_uris":{"android":"levelo://app?vid=1e7882da-a016-4654-9a16-4361fd531dc2","ios":"levelo://app?vid=1e7882da-a016-4654-9a16-4361fd531dc2"},"vehicle_type_id":"4","last_reported":1738111474,"current_range_meters":27200,"station_id":"ce4bhl12rcd13ifvqgf0","pricing_plan_id":"cebpf4jnsgd1na2vs0mg"},{"bike_id":"9f018113-1138-458d-9938-2357ae09399b","system_id":"levelo_inurba_marseille","lat":43.28615,"lon":5.35103,"is_reserved":false,"is_disabled":false,"rental_uris":{"android":"levelo://app?vid=9f018113-1138-458d-9938-2357ae09399b","ios":"levelo://app?vid=9f018113-1138-458d-9938-2357ae09399b"},"vehicle_type_id":"4","last_reported":1738111474,"current_range_meters":36800,"station_id":"ce4bhch2rcd13ifvqeug","pricing_plan_id":"cebpf4jnsgd1na2vs0mg"},{"bike_id":"eca0a71e-7341-4c68-ae26-5f22cbcb2902","system_id":"levelo_inurba_marseille","lat":43.28095,"lon":5.37838,"is_reserved":false,"is_disabled":false,"rental_uris":{"android":"levelo://app?vid=eca0a71e-7341-4c68-ae26-5f22cbcb2902","ios":"levelo://app?vid=eca0a71e-7341-4c68-ae26-5f22cbcb2902"},"vehicle_type_id":"4","last_reported":1738111474,"current_range_meters":38800,"station_id":"ce4bha12rcd13ifvqee0","pricing_plan_id":"cebpf4jnsgd1na2vs0mg"},{"bike_id":"f846d495-effa-4e8f-ae39-f2d7b1fc0ba3","system_id":"levelo_inurba_marseille","lat":43.26801,"lon":5.4026,"is_reserved":false,"is_disabled":false,"rental_uris":{"android":"levelo://app?vid=f846d495-effa-4e8f-ae39-f2d7b1fc0ba3","ios":"levelo://app?vid=f846d495-effa-4e8f-ae39-f2d7b1fc0ba3"},"vehicle_type_id":"4","last_reported":1738111474,"current_range_meters":38800,"station_id":"ce501612rcd8frsf0b60","pricing_plan_id":"cebpf4jnsgd1na2vs0mg"},{"bike_id":"78bc61bf-426e-4c8b-af21-b3b451435e49","system_id":"levelo_inurba_marseille","lat":43.29189,"lon":5.35792,"is_reserved":false,"is_disabled":false,"rental_uris":{"android":"levelo://app?vid=78bc61bf-426e-4c8b-af21-b3b451435e49","ios":"levelo://app?vid=78bc61bf-426e-4c8b-af21-b3b451435e49"},"vehicle_type_id":"4","last_reported":1738111474,"current_range_meters":16400,"station_id":"ce4bhb12rcd13ifvqel0","pricing_plan_id":"cebpf4jnsgd1na2vs0mg"},{"bike_id":"dc7c1c67-58fd-4b23-90e5-a1f21ef47cbc","system_id":"levelo_inurba_marseille","lat":43.29571,"lon":5.36729,"is_reserved":false,"is_disabled":true,"rental_uris":{"android":"levelo://app?vid=dc7c1c67-58fd-4b23-90e5-a1f21ef47cbc","ios":"levelo://app?vid=dc7c1c67-58fd-4b23-90e5-a1f21ef47cbc"},"vehicle_type_id":"4","last_reported":1738111474,"current_range_meters":2800,"station_id":"ce4bgph2rcd13ifvqc2g","pricing_plan_id":"cebpf4jnsgd1na2vs0mg"},{"bike_id":"ddbfe7d0-a6f0-4e27-8c41-b60c2e038dd3","system_id":"levelo_inurba_marseille","lat":43.31536,"lon":5.38036,"is_reserved":false,"is_disabled":false,"rental_uris":{"android":"levelo://app?vid=ddbfe7d0-a6f0-4e27-8c41-b60c2e038dd3","ios":"levelo://app?vid=ddbfe7d0-a6f0-4e27-8c41-b60c2e038dd3"},"vehicle_type_id":"4","last_reported":1738111474,"current_range_meters":38800,"station_id":"ce4bhsp2rcd13ifvqi50","pricing_plan_id":"cebpf4jnsgd1na2vs0mg"},{"bike_id":"d17140bb-de4e-49ae-9887-73cb5726293e","system_id":"levelo_inurba_marseille","lat":43.31158,"lon":5.38725,"is_reserved":false,"is_disabled":false,"rental_uris":{"android":"levelo://app?vid=d17140bb-de4e-49ae-9887-73cb5726293e","ios":"levelo://app?vid=d17140bb-de4e-49ae-9887-73cb5726293e"},"vehicle_type_id":"4","last_reported":1738111474,"current_range_meters":8800,"station_id":"ce4bgv12rcd13ifvqcp0","pricing_plan_id":"cebpf4jnsgd1na2vs0mg"},{"bike_id":"8e3f2c5a-3c65-4a71-bc9b-dd0a582f99d5","system_id":"levelo_inurba_marseille","lat":43.30417,"lon":5.39757,"is_reserved":false,"is_disabled":false,"rental_uris":{"android":"levelo://app?vid=8e3f2c5a-3c65-4a71-bc9b-dd0a582f99d5","ios":"levelo://app?vid=8e3f2c5a-3c65-4a71-bc9b-dd0a582f99d5"},"vehicle_type_id":"4","last_reported":1738111474,"current_range_meters":32800,"station_id":"ce4bh092rcd13ifvqd20","pricing_plan_id":"cebpf4jnsgd1na2vs0mg"},{"bike_id":"f9173de2-2fa5-436f-a76b-3c96bd571284","system_id":"levelo_inurba_marseille","lat":43.29802,"lon":5.40417,"is_reserved":false,"is_disabled":true,"rental_uris":{"android":"levelo://app?vid=f9173de2-2fa5-436f-a76b-3c96bd571284","ios":"levelo://app?vid=f9173de2-2fa5-436f-a76b-3c96bd571284"},"vehicle_type_id":"4","last_reported":1738111474,"current_range_meters":35200,"station_id":"ce4bh112rcd13ifvqd90","pricing_plan_id":"cebpf4jnsgd1na2vs0mg"},{"bike_id":"8f1fc58a-f1e0-4997-82d7-d2e187f0e836","system_id":"levelo_inurba_marseille","lat":43.31077,"lon":5.42435,"is_reserved":false,"is_disabled":false,"rental_uris":{"android":"levelo://app?vid=8f1fc58a-f1e0-4997-82d7-d2e187f0e836","ios":"levelo://app?vid=8f1fc58a-f1e0-4997-82d7-d2e187f0e836"},"vehicle_type_id":"4","last_reported":1738111474,"current_range_meters":39200,"station_id":"ce4bhp92rcd13ifvqhag","pricing_plan_id":"cebpf4jnsgd1na2vs0mg"},{"bike_id":"9783f807-988a-40bd-afb8-3594a5b78e82","system_id":"levelo_inurba_marseille","lat":43.30428,"lon":5.39744,"is_reserved":false,"is_disabled":false,"rental_uris":{"android":"levelo://app?vid=9783f807-988a-40bd-afb8-3594a5b78e82","ios":"levelo://app?vid=9783f807-988a-40bd-afb8-3594a5b78e82"},"vehicle_type_id":"4","last_reported":1738111474,"current_range_meters":28000,"station_id":"ce4bh092rcd13ifvqd20","pricing_plan_id":"cebpf4jnsgd1na2vs0mg"},{"bike_id":"1932502a-a386-4bd4-8041-b68d3b661876","system_id":"levelo_inurba_marseille","lat":43.23193,"lon":5.35551,"is_reserved":false,"is_disabled":false,"rental_uris":{"android":"levelo://app?vid=1932502a-a386-4bd4-8041-b68d3b661876","ios":"levelo://app?vid=1932502a-a386-4bd4-8041-b68d3b661876"},"vehicle_type_id":"4","last_reported":1738111474,"current_range_meters":24000,"station_id":"ce4bhu92rcd13ifvqi70","pricing_plan_id":"cebpf4jnsgd1na2vs0mg"},{"bike_id":"d2f08ce9-194e-43c4-a9f1-3260fde37c7e","system_id":"levelo_inurba_marseille","lat":43.27946,"lon":5.41046,"is_reserved":false,"is_disabled":false,"rental_uris":{"android":"levelo://app?vid=d2f08ce9-194e-43c4-a9f1-3260fde37c7e","ios":"levelo://app?vid=d2f08ce9-194e-43c4-a9f1-3260fde37c7e"},"vehicle_type_id":"4","last_reported":1738111474,"current_range_meters":16000,"station_id":"ce4bhnp2rcd13ifvqh0g","pricing_plan_id":"cebpf4jnsgd1na2vs0mg"},{"bike_id":"dc8d4423-b7e0-4df5-b119-2db33f6482c0","system_id":"levelo_inurba_marseille","lat":43.30188,"lon":5.36619,"is_reserved":false,"is_disabled":false,"rental_uris":{"android":"levelo://app?vid=dc8d4423-b7e0-4df5-b119-2db33f6482c0","ios":"levelo://app?vid=dc8d4423-b7e0-4df5-b119-2db33f6482c0"},"vehicle_type_id":"4","last_reported":1738111474,"current_range_meters":12000,"station_id":"ce4bgrh2rcd13ifvqc8g","pricing_plan_id":"cebpf4jnsgd1na2vs0mg"},{"bike_id":"c71d9a58-79c2-4121-bc4b-958cbabc75f1","system_id":"levelo_inurba_marseille","lat":43.292623,"lon":5.401326,"is_reserved":false,"is_disabled":true,"rental_uris":{"android":"levelo://app?vid=c71d9a58-79c2-4121-bc4b-958cbabc75f1","ios":"levelo://app?vid=c71d9a58-79c2-4121-bc4b-958cbabc75f1"},"vehicle_type_id":"4","last_reported":1738111474,"current_range_meters":5600,"station_id":"ce4bh312rcd13ifvqdk0","pricing_plan_id":"cebpf4jnsgd1na2vs0mg"},{"bike_id":"cd68e35b-e291-4244-8751-8931f1c888e6","system_id":"levelo_inurba_marseille","lat":43.24383,"lon":5.37072,"is_reserved":false,"is_disabled":false,"rental_uris":{"android":"levelo://app?vid=cd68e35b-e291-4244-8751-8931f1c888e6","ios":"levelo://app?vid=cd68e35b-e291-4244-8751-8931f1c888e6"},"vehicle_type_id":"4","last_reported":1738111474,"current_range_meters":16000,"station_id":"ce4bhhh2rcd13ifvqfk0","pricing_plan_id":"cebpf4jnsgd1na2vs0mg"},{"bike_id":"4efc21d0-1ed7-4b14-b806-9fedf9d3c529","system_id":"levelo_inurba_marseille","lat":43.32344,"lon":5.40631,"is_reserved":false,"is_disabled":false,"rental_uris":{"android":"levelo://app?vid=4efc21d0-1ed7-4b14-b806-9fedf9d3c529","ios":"levelo://app?vid=4efc21d0-1ed7-4b14-b806-9fedf9d3c529"},"vehicle_type_id":"4","last_reported":1738111474,"current_range_meters":21600,"station_id":"ce4bhq92rcd13ifvqhjg","pricing_plan_id":"cebpf4jnsgd1na2vs0mg"},{"bike_id":"ae2c8842-6ea5-4914-8b4f-8f46ba50c128","system_id":"levelo_inurba_marseille","lat":43.299166,"lon":5.374766,"is_reserved":false,"is_disabled":false,"rental_uris":{"android":"levelo://app?vid=ae2c8842-6ea5-4914-8b4f-8f46ba50c128","ios":"levelo://app?vid=ae2c8842-6ea5-4914-8b4f-8f46ba50c128"},"vehicle_type_id":"4","last_reported":1738111474,"current_range_meters":30000,"station_id":"ce4bgjh2rcd13ifvqbg0","pricing_plan_id":"cebpf4jnsgd1na2vs0mg"},{"bike_id":"38406c4f-f465-463a-8917-08b734d2865e","system_id":"levelo_inurba_marseille","lat":43.280746,"lon":5.396554,"is_reserved":false,"is_disabled":false,"rental_uris":{"android":"levelo://app?vid=38406c4f-f465-463a-8917-08b734d2865e","ios":"levelo://app?vid=38406c4f-f465-463a-8917-08b734d2865e"},"vehicle_type_id":"4","last_reported":1738111474,"current_range_meters":38400,"station_id":"ce4bho12rcd13ifvqh2g","pricing_plan_id":"cebpf4jnsgd1na2vs0mg"},{"bike_id":"e5171e38-fbd8-48a8-8900-ffeb261a164a","system_id":"levelo_inurba_marseille","lat":43.2866,"lon":5.3636,"is_reserved":false,"is_disabled":false,"rental_uris":{"android":"levelo://app?vid=e5171e38-fbd8-48a8-8900-ffeb261a164a","ios":"levelo://app?vid=e5171e38-fbd8-48a8-8900-ffeb261a164a"},"vehicle_type_id":"4","last_reported":1738111474,"current_range_meters":38800,"station_id":"ce4bhah2rcd13ifvqej0","pricing_plan_id":"cebpf4jnsgd1na2vs0mg"},{"bike_id":"5db1114c-8044-4d39-8b54-bc9610487a91","system_id":"levelo_inurba_marseille","lat":43.313257,"lon":5.396989,"is_reserved":false,"is_disabled":false,"rental_uris":{"android":"levelo://app?vid=5db1114c-8044-4d39-8b54-bc9610487a91","ios":"levelo://app?vid=5db1114c-8044-4d39-8b54-bc9610487a91"},"vehicle_type_id":"4","last_reported":1738111474,"current_range_meters":12000,"station_id":"ce4bgvp2rcd13ifvqcu0","pricing_plan_id":"cebpf4jnsgd1na2vs0mg"},{"bike_id":"c9242e06-810e-49f1-b440-56548629c43f","system_id":"levelo_inurba_marseille","lat":43.28399,"lon":5.37522,"is_reserved":false,"is_disabled":false,"rental_uris":{"android":"levelo://app?vid=c9242e06-810e-49f1-b440-56548629c43f","ios":"levelo://app?vid=c9242e06-810e-49f1-b440-56548629c43f"},"vehicle_type_id":"4","last_reported":1738111474,"current_range_meters":36800,"station_id":"ce4bh412rcd13ifvqds0","pricing_plan_id":"cebpf4jnsgd1na2vs0mg"},{"bike_id":"642c128b-5936-43e1-a3d1-7ce190f71190","system_id":"levelo_inurba_marseille","lat":43.25866,"lon":5.39919,"is_reserved":false,"is_disabled":false,"rental_uris":{"android":"levelo://app?vid=642c128b-5936-43e1-a3d1-7ce190f71190","ios":"levelo://app?vid=642c128b-5936-43e1-a3d1-7ce190f71190"},"vehicle_type_id":"4","last_reported":1738111474,"current_range_meters":38400,"station_id":"ce4bhl92rcd13ifvqghg","pricing_plan_id":"cebpf4jnsgd1na2vs0mg"},{"bike_id":"283c25d8-9fc5-495b-9825-5a72a68442bd","system_id":"levelo_inurba_marseille","lat":43.292537,"lon":5.40912,"is_reserved":false,"is_disabled":true,"rental_uris":{"android":"levelo://app?vid=283c25d8-9fc5-495b-9825-5a72a68442bd","ios":"levelo://app?vid=283c25d8-9fc5-495b-9825-5a72a68442bd"},"vehicle_type_id":"4","last_reported":1738111474,"current_range_meters":38800,"station_id":"ce4bh192rcd13ifvqdc0","pricing_plan_id":"cebpf4jnsgd1na2vs0mg"},{"bike_id":"77f3bf21-63b8-49a8-935c-8a5687b8349a","system_id":"levelo_inurba_marseille","lat":43.32896,"lon":5.39052,"is_reserved":false,"is_disabled":false,"rental_uris":{"android":"levelo://app?vid=77f3bf21-63b8-49a8-935c-8a5687b8349a","ios":"levelo://app?vid=77f3bf21-63b8-49a8-935c-8a5687b8349a"},"vehicle_type_id":"4","last_reported":1738111474,"current_range_meters":16400,"station_id":"","pricing_plan_id":"cebpf4jnsgd1na2vs0mg"},{"bike_id":"e3e26aee-15e1-425c-a48f-db58aa520742","system_id":"levelo_inurba_marseille","lat":43.23068,"lon":5.35506,"is_reserved":false,"is_disabled":false,"rental_uris":{"android":"levelo://app?vid=e3e26aee-15e1-425c-a48f-db58aa520742","ios":"levelo://app?vid=e3e26aee-15e1-425c-a48f-db58aa520742"},"vehicle_type_id":"4","last_reported":1738111474,"current_range_meters":36000,"station_id":"cpo3342slgdg3j2ifvpg","pricing_plan_id":"cebpf4jnsgd1na2vs0mg"},{"bike_id":"566e23ec-1d41-4cca-b6b1-4c286a9b4684","system_id":"levelo_inurba_marseille","lat":43.25729,"lon":5.41099,"is_reserved":false,"is_disabled":false,"rental_uris":{"android":"levelo://app?vid=566e23ec-1d41-4cca-b6b1-4c286a9b4684","ios":"levelo://app?vid=566e23ec-1d41-4cca-b6b1-4c286a9b4684"},"vehicle_type_id":"4","last_reported":1738111474,"current_range_meters":38800,"station_id":"ce4bhkp2rcd13ifvqgd0","pricing_plan_id":"cebpf4jnsgd1na2vs0mg"},