{"last_updated":1745525490,"ttl":60,"version":"2.2","data":{"bikes":[{"bike_id":"6b154b6d-5df3-4c1b-9f15-030552e4b4fc","system_id":"levelo_inurba_marseille","lat":43.30103,"lon":5.39075,"is_reserved":false,"is_disabled":false,"rental_uris":{"android":"levelo://app?vid=6b154b6d-5df3-4c1b-9f15-030552e4b4fc","ios":"levelo://app?vid=6b154b6d-5df3-4c1b-9f15-030552e4b4fc"},"vehicle_type_id":"4","last_reported":1745525490,"current_range_meters":2800,"station_id":"ce4bh192rcd13ifvqdb0","pricing_plan_id":"cebpf4jnsgd1na2vs0mg"},{"bike_id":"1b007faa-283e-4e51-8b44-f1cf0b8f4a46","system_id":"levelo_inurba_marseille","lat":43.27973,"lon":5.41662,"is_reserved":false,"is_disabled":true,"rental_uris":{"android":"levelo://app?vid=1b007faa-283e-4e51-8b44-f1cf0b8f4a46","ios":"levelo://app?vid=1b007faa-283e-4e51-8b44-f1cf0b8f4a46"},"vehicle_type_id":"4","last_reported":1745525490,"current_range_meters":3200,"station_id":"ce4bho12rcd13ifvqh1g","pricing_plan_id":"cebpf4jnsgd1na2vs0mg"},{"bike_id":"1bdb33cb-7ad8-412f-ad22-1694354ff24f","system_id":"levelo_inurba_marseille","lat":43.23181,"lon":5.39994,"is_reserved":false,"is_disabled":false,"rental_uris":{"android":"levelo://app?vid=1bdb33cb-7ad8-412f-ad22-1694354ff24f","ios":"levelo://app?vid=1bdb33cb-7ad8-412f-ad22-1694354ff24f"},"vehicle_type_id":"4","last_reported":1745525490,"current_range_meters":3200,"station_id":"ce4bhn12rcd13ifvqgqg","pricing_plan_id":"cebpf4jnsgd1na2vs0mg"},{"bike_id":"7a07a14c-dc58-4728-bdc3-1aac5596dba1","system_id":"levelo_inurba_marseille","lat":43.34648,"lon":5.34802,"is_reserved":false,"is_disabled":false,"rental_uris":{"android":"levelo://app?vid=7a07a14c-dc58-4728-bdc3-1aac5596dba1","ios":"levelo://app?vid=7a07a14c-dc58-4728-bdc3-1aac5596dba1"},"vehicle_type_id":"4","last_reported":1745525490,"current_range_meters":3200,"station_id":"","pricing_plan_id":"cebpf4jnsgd1na2vs0mg"},{"bike_id":"13d3c49a-277a-4f5e-9e4d-ec4c92c49d8f","system_id":"levelo_inurba_marseille","lat":43.25117,"lon":5.4031,"is_reserved":false,"is_disabled":false,"rental_uris":{"android":"levelo://app?vid=13d3c49a-277a-4f5e-9e4d-ec4c92c49d8f","ios":"levelo://app?vid=13d3c49a-277a-4f5e-9e4d-ec4c92c49d8f"},"vehicle_type_id":"4","last_reported":1745525490,"current_range_meters":3600,"station_id":"ce4bhlh2rcd13ifvqgig","pricing_plan_id":"cebpf4jnsgd1na2vs0mg"},{"bike_id":"ed5e2e18-64d0-491a-970a-f052a5fea769","system_id":"levelo_inurba_marseille","lat":43.2319,"lon":5.39971,"is_reserved":false,"is_disabled":true,"rental_uris":{"android":"levelo://app?vid=ed5e2e18-64d0-491a-970a-f052a5fea769","ios":"levelo://app?vid=ed5e2e18-64d0-491a-970a-f052a5fea769"},"vehicle_type_id":"4","last_reported":1745525490,"current_range_meters":3600,"station_id":"ce4bhn12rcd13ifvqgqg","pricing_plan_id":"cebpf4jnsgd1na2vs0mg"},{"bike_id":"b940bdf2-742d-48e4-9490-5ec9e6e9c7a7","system_id":"levelo_inurba_marseille","lat":43.30356,"lon":5.3649,"is_reserved":false,"is_disabled":false,"rental_uris":{"android":"levelo://app?vid=b940bdf2-742d-48e4-9490-5ec9e6e9c7a7","ios":"levelo://app?vid=b940bdf2-742d-48e4-9490-5ec9e6e9c7a7"},"vehicle_type_id":"4","last_reported":1745525490,"current_range_meters":3600,"station_id":"","pricing_plan_id":"cebpf4jnsgd1na2vs0mg"},{"bike_id":"88e2dd5f-f949-4516-91ed-5a6fdf0bad0b","system_id":"levelo_inurba_marseille","lat":43.25861,"lon":5.3991,"is_reserved":false,"is_disabled":false,"rental_uris":{"android":"levelo://app?vid=88e2dd5f-f949-4516-91ed-5a6fdf0bad0b","ios":"levelo://app?vid=88e2dd5f-f949-4516-91ed-5a6fdf0bad0b"},"vehicle_type_id":"4","last_reported":1745525490,"current_range_meters":4000,"station_id":"ce4bhl92rcd13ifvqghg","pricing_plan_id":"cebpf4jnsgd1na2vs0mg"},{"bike_id":"f361a5ac-b674-4cd9-a300-cf489d277e25","system_id":"levelo_inurba_marseille","lat":43.29682,"lon":5.377,"is_reserved":false,"is_disabled":false,"rental_uris":{"android":"levelo://app?vid=f361a5ac-b674-4cd9-a300-cf489d277e25","ios":"levelo://app?vid=f361a5ac-b674-4cd9-a300-cf489d277e25"},"vehicle_type_id":"4","last_reported":1745525490,"current_range_meters":3600,"station_id":"ce4bgkh2rcd13ifvqbl0","pricing_plan_id":"cebpf4jnsgd1na2vs0mg"},{"bike_id":"f8950817-0a02-49e9-92f0-4b5cfc05319d","system_id":"levelo_inurba_marseille","lat":43.29974,"lon":5.38507,"is_reserved":false,"is_disabled":false,"rental_uris":{"android":"levelo://app?vid=f8950817-0a02-49e9-92f0-4b5cfc05319d","ios":"levelo://app?vid=f8950817-0a02-49e9-92f0-4b5cfc05319d"},"vehicle_type_id":"4","last_reported":1745525490,"current_range_meters":4000,"station_id":"ce4bgj92rcd13ifvqbd0","pricing_plan_id":"cebpf4jnsgd1na2vs0mg"},{"bike_id":"10cb18ca-4cf4-45ca-9db3-742bc615e786","system_id":"levelo_inurba_marseille","lat":43.23618,"lon":5.39185,"is_reserved":false,"is_disabled":false,"rental_uris":{"android":"levelo://app?vid=10cb18ca-4cf4-45ca-9db3-742bc615e786","ios":"levelo://app?vid=10cb18ca-4cf4-45ca-9db3-742bc615e786"},"vehicle_type_id":"4","last_reported":1745525490,"current_range_meters":4400,"station_id":"","pricing_plan_id":"cebpf4jnsgd1na2vs0mg"},{"bike_id":"31729176-23c4-4dce-bcca-4fccac4a4fb7","system_id":"levelo_inurba_marseille","lat":43.27811,"lon":5.40713,"is_reserved":false,"is_disabled":false,"rental_uris":{"android":"levelo://app?vid=31729176-23c4-4dce-bcca-4fccac4a4fb7","ios":"levelo://app?vid=31729176-23c4-4dce-bcca-4fccac4a4fb7"},"vehicle_type_id":"4","last_reported":1745525490,"current_range_meters":4400,"station_id":"ce4bhnh2rcd13ifvqgtg","pricing_plan_id":"cebpf4jnsgd1na2vs0mg"},{"bike_id":"f3f72c8c-8040-4dca-a1db-27b7ef5f5313","system_id":"levelo_inurba_marseille","lat":43.29891,"lon":5.397224,"is_reserved":false,"is_disabled":false,"rental_uris":{"android":"levelo://app?vid=f3f72c8c-8040-4dca-a1db-27b7ef5f5313","ios":"levelo://app?vid=f3f72c8c-8040-4dca-a1db-27b7ef5f5313"},"vehicle_type_id":"4","last_reported":1745525490,"current_range_meters":4400,"station_id":"ce4bh0h2rcd13ifvqd50","pricing_plan_id":"cebpf4jnsgd1na2vs0mg"},{"bike_id":"60231bb4-b9d6-445a-a1cb-858c52896c41","system_id":"levelo_inurba_marseille","lat":43.27683,"lon":5.3888,"is_reserved":false,"is_disabled":false,"rental_uris":{"android":"levelo://app?vid=60231bb4-b9d6-445a-a1cb-858c52896c41","ios":"levelo://app?vid=60231bb4-b9d6-445a-a1cb-858c52896c41"},"vehicle_type_id":"4","last_reported":1745525490,"current_range_meters":4400,"station_id":"ce4bhi12rcd13ifvqfo0","pricing_plan_id":"cebpf4jnsgd1na2vs0mg"},{"bike_id":"3b4be8f4-5dd8-4ec5-85b9-df43d095b0f3","system_id":"levelo_inurba_marseille","lat":43.28628,"lon":5.37064,"is_reserved":false,"is_disabled":false,"rental_uris":{"android":"levelo://app?vid=3b4be8f4-5dd8-4ec5-85b9-df43d095b0f3","ios":"levelo://app?vid=3b4be8f4-5dd8-4ec5-85b9-df43d095b0f3"},"vehicle_type_id":"4","last_reported":1745525490,"current_range_meters":4800,"station_id":"ce4bht12rcd13ifvqi60","pricing_plan_id":"cebpf4jnsgd1na2vs0mg"},{"bike_id":"eab4be93-9b7f-4edd-a940-dd7bbd677ca0","system_id":"levelo_inurba_marseille","lat":43.30102,"lon":5.39079,"is_reserved":false,"is_disabled":true,"rental_uris":{"android":"levelo://app?vid=eab4be93-9b7f-4edd-a940-dd7bbd677ca0","ios":"levelo://app?vid=eab4be93-9b7f-4edd-a940-dd7bbd677ca0"},"vehicle_type_id":"4","last_reported":1745525490,"current_range_meters":4800,"station_id":"ce4bh192rcd13ifvqdb0","pricing_plan_id":"cebpf4jnsgd1na2vs0mg"},{"bike_id":"32d58969-4202-48d0-8cf5-6ae433a9ee32","system_id":"levelo_inurba_marseille","lat":43.28611,"lon":5.3707,"is_reserved":false,"is_disabled":false,"rental_uris":{"android":"levelo://app?vid=32d58969-4202-48d0-8cf5-6ae433a9ee32","ios":"levelo://app?vid=32d58969-4202-48d0-8cf5-6ae433a9ee32"},"vehicle_type_id":"4","last_reported":1745525490,"current_range_meters":4800,"station_id":"ce4bht12rcd13ifvqi60","pricing_plan_id":"cebpf4jnsgd1na2vs0mg"},{"bike_id":"4b2e7729-6c82-45bc-8fe9-3d93ab38b5a5","system_id":"levelo_inurba_marseille","lat":43.23188,"lon":5.39982,"is_reserved":false,"is_disabled":false,"rental_uris":{"android":"levelo://app?vid=4b2e7729-6c82-45bc-8fe9-3d93ab38b5a5","ios":"levelo://app?vid=4b2e7729-6c82-45bc-8fe9-3d93ab38b5a5"},"vehicle_type_id":"4","last_reported":1745525490,"current_range_meters":4800,"station_id":"ce4bhn12rcd13ifvqgqg","pricing_plan_id":"cebpf4jnsgd1na2vs0mg"},{"bike_id":"5b2ab53b-4abe-46b9-ac2a-36d1233fdded","system_id":"levelo_inurba_marseille","lat":43.30798,"lon":5.36876,"is_reserved":false,"is_disabled":false,"rental_uris":{"android":"levelo://app?vid=5b2ab53b-4abe-46b9-ac2a-36d1233fdded","ios":"levelo://app?vid=5b2ab53b-4abe-46b9-ac2a-36d1233fdded"},"vehicle_type_id":"4","last_reported":1745525490,"current_range_meters":4800,"station_id":"","pricing_plan_id":"cebpf4jnsgd1na2vs0mg"},{"bike_id":"0cbaf19c-9c21-46ab-899f-dfcc12db4988","system_id":"levelo_inurba_marseille","lat":43.2318,"lon":5.39982,"is_reserved":false,"is_disabled":false,"rental_uris":{"android":"levelo://app?vid=0cbaf19c-9c21-46ab-899f-dfcc12db4988","ios":"levelo://app?vid=0cbaf19c-9c21-46ab-899f-dfcc12db4988"},"vehicle_type_id":"4","last_reported":1745525490,"current_range_meters":4800,"station_id":"ce4bhn12rcd13ifvqgqg","pricing_plan_id":"cebpf4jnsgd1na2vs0mg"},{"bike_id":"d28bdf39-08e9-4286-b478-fced1227a80e","system_id":"levelo_inurba_marseille","lat":43.246666,"lon":5.381691,"is_reserved":false,"is_disabled":false,"rental_uris":{"android":"levelo://app?vid=d28bdf39-08e9-4286-b478-fced1227a80e","ios":"levelo://app?vid=d28bdf39-08e9-4286-b478-fced1227a80e"},"vehicle_type_id":"4","last_reported":1745525490,"current_range_meters":5600,"station_id":"ce4bhih2rcd13ifvqfr0","pricing_plan_id":"cebpf4jnsgd1na2vs0mg"},{"bike_id":"fe39c9f1-115b-4842-833d-51744c558773","system_id":"levelo_inurba_marseille","lat":43.28501,"lon":5.38446,"is_reserved":false,"is_disabled":true,"rental_uris":{"android":"levelo://app?vid=fe39c9f1-115b-4842-833d-51744c558773","ios":"levelo://app?vid=fe39c9f1-115b-4842-833d-51744c558773"},"vehicle_type_id":"4","last_reported":1745525490,"current_range_meters":5600,"station_id":"ce4bh512rcd13ifvqe3g","pricing_plan_id":"cebpf4jnsgd1na2vs0mg"},{"bike_id":"c80b4906-338a-43d0-8b2c-1767d2950c18","system_id":"levelo_inurba_marseille","lat":43.24166,"lon":5.3973,"is_reserved":false,"is_disabled":false,"rental_uris":{"android":"levelo://app?vid=c80b4906-338a-43d0-8b2c-1767d2950c18","ios":"levelo://app?vid=c80b4906-338a-43d0-8b2c-1767d2950c18"},"vehicle_type_id":"4","last_reported":1745525490,"current_range_meters":5600,"station_id":"ce4bhn12rcd13ifvqgpg","pricing_plan_id":"cebpf4jnsgd1na2vs0mg"},{"bike_id":"bf5cd9f6-63e9-48e2-9dcd-59932b67ee2c","system_id":"levelo_inurba_marseille","lat":43.29836,"lon":5.36271,"is_reserved":false,"is_disabled":false,"rental_uris":{"android":"levelo://app?vid=bf5cd9f6-63e9-48e2-9dcd-59932b67ee2c","ios":"levelo://app?vid=bf5cd9f6-63e9-48e2-9dcd-59932b67ee2c"},"vehicle_type_id":"4","last_reported":1745525490,"current_range_meters":4800,"station_id":"ce4bgpp2rcd13ifvqc3g","pricing_plan_id":"cebpf4jnsgd1na2vs0mg"},{"bike_id":"f10bda02-e1ee-40b0-90ae-ee3e191999b6","system_id":"levelo_inurba_marseille","lat":43.29712,"lon":5.36607,"is_reserved":false,"is_disabled":false,"rental_uris":{"android":"levelo://app?vid=f10bda02-e1ee-40b0-90ae-ee3e191999b6","ios":"levelo://app?vid=f10bda02-e1ee-40b0-90ae-ee3e191999b6"},"vehicle_type_id":"4","last_reported":1745525490,"current_range_meters":5600,"station_id":"ce4bgn12rcd13ifvqbt0","pricing_plan_id":"cebpf4jnsgd1na2vs0mg"},{"bike_id":"83a25991-8139-4373-abef-794208d11b84","system_id":"levelo_inurba_marseille","lat":43.29973,"lon":5.38494,"is_reserved":false,"is_disabled":false,"rental_uris":{"android":"levelo://app?vid=83a25991-8139-4373-abef-794208d11b84","ios":"levelo://app?vid=83a25991-8139-4373-abef-794208d11b84"},"vehicle_type_id":"4","last_reported":1745525490,"current_range_meters":6000,"station_id":"ce4bgj92rcd13ifvqbd0","pricing_plan_id":"cebpf4jnsgd1na2vs0mg"},{"bike_id":"da70d61b-208e-4f5a-8136-fdac79841f35","system_id":"levelo_inurba_marseille","lat":43.28032,"lon":5.36966,"is_reserved":false,"is_disabled":false,"rental_uris":{"android":"levelo://app?vid=da70d61b-208e-4f5a-8136-fdac79841f35","ios":"levelo://app?vid=da70d61b-208e-4f5a-8136-fdac79841f35"},"vehicle_type_id":"4","last_reported":1745525490,"current_range_meters":6000,"station_id":"ce4bha12rcd13ifvqef0","pricing_plan_id":"cebpf4jnsgd1na2vs0mg"},{"bike_id":"13f83723-2b67-4db7-b178-0759a2dff449","system_id":"levelo_inurba_marseille","lat":43.258299,"lon":5.394349,"is_reserved":false,"is_disabled":false,"rental_uris":{"android":"levelo://app?vid=13f83723-2b67-4db7-b178-0759a2dff449","ios":"levelo://app?vid=13f83723-2b67-4db7-b178-0759a2dff449"},"vehicle_type_id":"4","last_reported":1745525490,"current_range_meters":6000,"station_id":"ce4bhip2rcd13ifvqft0","pricing_plan_id":"cebpf4jnsgd1na2vs0mg"},{"bike_id":"1b2d752f-63ca-4bb8-89fe-f58b63403763","system_id":"levelo_inurba_marseille","lat":43.29528,"lon":5.3904,"is_reserved":false,"is_disabled":false,"rental_uris":{"android":"levelo://app?vid=1b2d752f-63ca-4bb8-89fe-f58b63403763","ios":"levelo://app?vid=1b2d752f-63ca-4bb8-89fe-f58b63403763"},"vehicle_type_id":"4","last_reported":1745525490,"current_range_meters":6000,"station_id":"ce4bh3p2rcd13ifvqdp0","pricing_plan_id":"cebpf4jnsgd1na2vs0mg"},{"bike_id":"fa072638-79d4-42b6-a779-d7bc984e3de1","system_id":"levelo_inurba_marseille","lat":43.23189,"lon":5.39981,"is_reserved":false,"is_disabled":false,"rental_uris":{"android":"levelo://app?vid=fa072638-79d4-42b6-a779-d7bc984e3de1","ios":"levelo://app?vid=fa072638-79d4-42b6-a779-d7bc984e3de1"},"vehicle_type_id":"4","last_reported":1745525490,"current_range_meters":6000,"station_id":"ce4bhn12rcd13ifvqgqg","pricing_plan_id":"cebpf4jnsgd1na2vs0mg"},{"bike_id":"e3129ae0-8d50-4e59-bfb0-a229016c8172","system_id":"levelo_inurba_marseille","lat":43.32661,"lon":5.40994,"is_reserved":false,"is_disabled":false,"rental_uris":{"android":"levelo://app?vid=e3129ae0-8d50-4e59-bfb0-a229016c8172","ios":"levelo://app?vid=e3129ae0-8d50-4e59-bfb0-a229016c8172"},"vehicle_type_id":"4","last_reported":1745525490,"current_range_meters":5600,"station_id":"ce4bhpp2rcd13ifvqhgg","pricing_plan_id":"cebpf4jnsgd1na2vs0mg"},{"bike_id":"de73a89e-42fd-4e9b-87c9-765125d69b91","system_id":"levelo_inurba_marseille","lat":43.28412,"lon":5.37516,"is_reserved":false,"is_disabled":false,"rental_uris":{"android":"levelo://app?vid=de73a89e-42fd-4e9b-87c9-765125d69b91","ios":"levelo://app?vid=de73a89e-42fd-4e9b-87c9-765125d69b91"},"vehicle_type_id":"4","last_reported":1745525490,"current_range_meters":6000,"station_id":"ce4bh412rcd13ifvqds0","pricing_plan_id":"cebpf4jnsgd1na2vs0mg"},{"bike_id":"8b4bac15-47d4-4b48-89ad-d28a545e842f","system_id":"levelo_inurba_marseille","lat":43.22925,"lon":5.35393,"is_reserved":false,"is_disabled":false,"rental_uris":{"android":"levelo://app?vid=8b4bac15-47d4-4b48-89ad-d28a545e842f","ios":"levelo://app?vid=8b4bac15-47d4-4b48-89ad-d28a545e842f"},"vehicle_type_id":"4","last_reported":1745525490,"current_range_meters":6000,"station_id":"cpo3532slgdg3j2ikp40","pricing_plan_id":"cebpf4jnsgd1na2vs0mg"},{"bike_id":"4f1f52a1-d61d-47e0-b646-3cf0c0092b7c","system_id":"levelo_inurba_marseille","lat":43.286866,"lon":5.373882,"is_reserved":false,"is_disabled":false,"rental_uris":{"android":"levelo://app?vid=4f1f52a1-d61d-47e0-b646-3cf0c0092b7c","ios":"levelo://app?vid=4f1f52a1-d61d-47e0-b646-3cf0c0092b7c"},"vehicle_type_id":"4","last_reported":1745525490,"current_range_meters":6000,"station_id":"ce4bh3p2rcd13ifvqdq0","pricing_plan_id":"cebpf4jnsgd1na2vs0mg"},{"bike_id":"ba98092f-1f95-4d1b-8c2e-943fbb808d72","system_id":"levelo_inurba_marseille","lat":43.242,"lon":5.39722,"is_reserved":false,"is_disabled":false,"rental_uris":{"android":"levelo://app?vid=ba98092f-1f95-4d1b-8c2e-943fbb808d72","ios":"levelo://app?vid=ba98092f-1f95-4d1b-8c2e-943fbb808d72"},"vehicle_type_id":"4","last_reported":1745525490,"current_range_meters":6000,"station_id":"ce4bhn12rcd13ifvqgpg","pricing_plan_id":"cebpf4jnsgd1na2vs0mg"},{"bike_id":"36cefaa1-1f19-45be-b15c-456bc07c8c57","system_id":"levelo_inurba_marseille","lat":43.27936,"lon":5.4106,"is_reserved":false,"is_disabled":false,"rental_uris":{"android":"levelo://app?vid=36cefaa1-1f19-45be-b15c-456bc07c8c57","ios":"levelo://app?vid=36cefaa1-1f19-45be-b15c-456bc07c8c57"},"vehicle_type_id":"4","last_reported":1745525490,"current_range_meters":6000,"station_id":"ce4bhnp2rcd13ifvqh0g","pricing_plan_id":"cebpf4jnsgd1na2vs0mg"},{"bike_id":"30704823-7a9c-4b12-af5d-93db18bfd3b9","system_id":"levelo_inurba_marseille","lat":43.28818,"lon":5.39968,"is_reserved":false,"is_disabled":false,"rental_uris":{"android":"levelo://app?vid=30704823-7a9c-4b12-af5d-93db18bfd3b9","ios":"levelo://app?vid=30704823-7a9c-4b12-af5d-93db18bfd3b9"},"vehicle_type_id":"4","last_reported":1745525490,"current_range_meters":6000,"station_id":"","pricing_plan_id":"cebpf4jnsgd1na2vs0mg"},{"bike_id":"fed3087f-a5cb-449e-a43e-200233532ee8","system_id":"levelo_inurba_marseille","lat":43.28035,"lon":5.36942,"is_reserved":false,"is_disabled":false,"rental_uris":{"android":"levelo://app?vid=fed3087f-a5cb-449e-a43e-200233532ee8","ios":"levelo://app?vid=fed3087f-a5cb-449e-a43e-200233532ee8"},"vehicle_type_id":"4","last_reported":1745525490,"current_range_meters":6400,"station_id":"ce4bha12rcd13ifvqef0","pricing_plan_id":"cebpf4jnsgd1na2vs0mg"},{"bike_id":"92c3b340-d069-4f1c-b55b-44c52f19597b","system_id":"levelo_inurba_marseille","lat":43.28251,"lon":5.37781,"is_reserved":false,"is_disabled":false,"rental_uris":{"android":"levelo://app?vid=92c3b340-d069-4f1c-b55b-44c52f19597b","ios":"levelo://app?vid=92c3b340-d069-4f1c-b55b-44c52f19597b"},"vehicle_type_id":"4","last_reported":1745525490,"current_range_meters":6800,"station_id":"","pricing_plan_id":"cebpf4jnsgd1na2vs0mg"},{"bike_id":"f6848c26-0ed1-4745-94f4-da96d5c4f89c","system_id":"levelo_inurba_marseille","lat":43.29917,"lon":5.37478,"is_reserved":false,"is_disabled":false,"rental_uris":{"android":"levelo://app?vid=f6848c26-0ed1-4745-94f4-da96d5c4f89c","ios":"levelo://app?vid=f6848c26-0ed1-4745-94f4-da96d5c4f89c"},"vehicle_type_id":"4","last_reported":1745525490,"current_range_meters":6800,"station_id":"ce4bgjh2rcd13ifvqbg0","pricing_plan_id":"cebpf4jnsgd1na2vs0mg"},{"bike_id":"5b16eb17-ed57-4a23-aac2-2c155ee976fc","system_id":"levelo_inurba_marseille","lat":43.2291,"lon":5.35388,"is_reserved":false,"is_disabled":false,"rental_uris":{"android":"levelo://app?vid=5b16eb17-ed57-4a23-aac2-2c155ee976fc","ios":"levelo://app?vid=5b16eb17-ed57-4a23-aac2-2c155ee976fc"},"vehicle_type_id":"4","last_reported":1745525490,"current_range_meters":6800,"station_id":"cpo3532slgdg3j2ikp40","pricing_plan_id":"cebpf4jnsgd1na2vs0mg"},{"bike_id":"d6a6ea69-e648-4466-af0f-c847ecc56db2","system_id":"levelo_inurba_marseille","lat":43.26188,"lon":5.37451,"is_reserved":false,"is_disabled":false,"rental_uris":{"android":"levelo://app?vid=d6a6ea69-e648-4466-af0f-c847ecc56db2","ios":"levelo://app?vid=d6a6ea69-e648-4466-af0f-c847ecc56db2"},"vehicle_type_id":"4","last_reported":1745525490,"current_range_meters":6800,"station_id":"ce4bhgp2rcd13ifvqfc0","pricing_plan_id":"cebpf4jnsgd1na2vs0mg"},{"bike_id":"60ee52f6-3432-4a14-b3b4-c3acf981d864","system_id":"levelo_inurba_marseille","lat":43.2173,"lon":5.34617,"is_reserved":false,"is_disabled":false,"rental_uris":{"android":"levelo://app?vid=60ee52f6-3432-4a14-b3b4-c3acf981d864","ios":"levelo://app?vid=60ee52f6-3432-4a14-b3b4-c3acf981d864"},"vehicle_type_id":"4","last_reported":1745525490,"current_range_meters":7200,"station_id":"st_cvj6r9ubvosntc0bgbag","pricing_plan_id":"cebpf4jnsgd1na2vs0mg"},{"bike_id":"a361f452-0654-4a95-a15d-8f5834af8a8f","system_id":"levelo_inurba_marseille","lat":43.29031,"lon":5.37578,"is_reserved":false,"is_disabled":false,"rental_uris":{"android":"levelo://app?vid=a361f452-0654-4a95-a15d-8f5834af8a8f","ios":"levelo://app?vid=a361f452-0654-4a95-a15d-8f5834af8a8f"},"vehicle_type_id":"4","last_reported":1745525490,"current_range_meters":7200,"station_id":"ce4bh692rcd13ifvqe90","pricing_plan_id":"cebpf4jnsgd1na2vs0mg"},{"bike_id":"dedccb76-0f6e-4365-a6e6-ca0e92e41d57","system_id":"levelo_inurba_marseille","lat":43.30253,"lon":5.40083,"is_reserved":false,"is_disabled":false,"rental_uris":{"android":"levelo://app?vid=dedccb76-0f6e-4365-a6e6-ca0e92e41d57","ios":"levelo://app?vid=dedccb76-0f6e-4365-a6e6-ca0e92e41d57"},"vehicle_type_id":"4","last_reported":1745525490,"current_range_meters":7200,"station_id":"ce4bgvh2rcd13ifvqcs0","pricing_plan_id":"cebpf4jnsgd1na2vs0mg"},{"bike_id":"17c75d3e-1f26-47e8-be26-0f9fadeb00f4","system_id":"levelo_inurba_marseille","lat":43.31074,"lon":5.38358,"is_reserved":false,"is_disabled":false,"rental_uris":{"android":"levelo://app?vid=17c75d3e-1f26-47e8-be26-0f9fadeb00f4","ios":"levelo://app?vid=17c75d3e-1f26-47e8-be26-0f9fadeb00f4"},"vehicle_type_id":"4","last_reported":1745525490,"current_range_meters":7200,"station_id":"ce4bgv92rcd13ifvqcr0","pricing_plan_id":"cebpf4jnsgd1na2vs0mg"},{"bike_id":"04de76c4-a1ad-45bf-9e28-7c78bfcbb5c0","system_id":"levelo_inurba_marseille","lat":43.25182,"lon":5.37422,"is_reserved":false,"is_disabled":false,"rental_uris":{"android":"levelo://app?vid=04de76c4-a1ad-45bf-9e28-7c78bfcbb5c0","ios":"levelo://app?vid=04de76c4-a1ad-45bf-9e28-7c78bfcbb5c0"},"vehicle_type_id":"4","last_reported":1745525490,"current_range_meters":7200,"station_id":"","pricing_plan_id":"cebpf4jnsgd1na2vs0mg"},{"bike_id":"2792111a-ea56-4161-ad59-39c97cef41b2","system_id":"levelo_inurba_marseille","lat":43.30589,"lon":5.37231,"is_reserved":false,"is_disabled":false,"rental_uris":{"android":"levelo://app?vid=2792111a-ea56-4161-ad59-39c97cef41b2","ios":"levelo://app?vid=2792111a-ea56-4161-ad59-39c97cef41b2"},"vehicle_type_id":"4","last_reported":1745525490,"current_range_meters":7200,"station_id":"ce4bgqh2rcd13ifvqc4g","pricing_plan_id":"cebpf4jnsgd1na2vs0mg"},{"bike_id":"8764c801-9cd2-4e78-bbfe-a229706ee676","system_id":"levelo_inurba_marseille","lat":43.29861,"lon":5.38926,"is_reserved":false,"is_disabled":true,"rental_uris":{"android":"levelo://app?vid=8764c801-9cd2-4e78-bbfe-a229706ee676","ios":"levelo://app?vid=8764c801-9cd2-4e78-bbfe-a229706ee676"},"vehicle_type_id":"4","last_reported":1745525490,"current_range_meters":7200,"station_id":"ce4bh392rcd13ifvqdl0","pricing_plan_id":"cebpf4jnsgd1na2vs0mg"},{"bike_id":"07725853-deb8-4620-8e97-921ad42709e1","system_id":"levelo_inurba_marseille","lat":43.31478,"lon":5.37318,"is_reserved":false,"is_disabled":false,"rental_uris":{"android":"levelo://app?vid=07725853-deb8-4620-8e97-921ad42709e1","ios":"levelo://app?vid=07725853-deb8-4620-8e97-921ad42709e1"},"vehicle_type_id":"4","last_reported":1745525490,"current_range_meters":8000,"station_id":"ce4bgt12rcd13ifvqcd0","pricing_plan_id":"cebpf4jnsgd1na2vs0mg"},{"bike_id":"f3ee3891-01c9-4d54-8429-c0f1570b4044","system_id":"levelo_inurba_marseille","lat":43.2465,"lon":5.38891,"is_reserved":false,"is_disabled":false,"rental_uris":{"android":"levelo://app?vid=f3ee3891-01c9-4d54-8429-c0f1570b4044","ios":"levelo://app?vid=f3ee3891-01c9-4d54-8429-c0f1570b4044"},"vehicle_type_id":"4","last_reported":1745525490,"current_range_meters":8000,"station_id":"ce4bhg12rcd13ifvqf60","pricing_plan_id":"cebpf4jnsgd1na2vs0mg"},{"bike_id":"1dc3c7b3-9d16-45c1-92e5-9ab691b47a33","system_id":"levelo_inurba_marseille","lat":43.284729,"lon":5.384183,"is_reserved":false,"is_disabled":false,"rental_uris":{"android":"levelo://app?vid=1dc3c7b3-9d16-45c1-92e5-9ab691b47a33","ios":"levelo://app?vid=1dc3c7b3-9d16-45c1-92e5-9ab691b47a33"},"vehicle_type_id":"4","last_reported":1745525490,"current_range_meters":8000,"station_id":"ce4bgvh2rcd13ifvqcs0","pricing_plan_id":"cebpf4jnsgd1na2vs0mg"},{"bike_id":"240830ee-52db-4f02-b5c4-208a871992d9","system_id":"levelo_inurba_marseille","lat":43.29875,"lon":5.38918,"is_reserved":false,"is_disabled":false,"rental_uris":{"android":"levelo://app?vid=240830ee-52db-4f02-b5c4-208a871992d9","ios":"levelo://app?vid=240830ee-52db-4f02-b5c4-208a871992d9"},"vehicle_type_id":"4","last_reported":1745525490,"current_range_meters":8000,"station_id":"ce4bh392rcd13ifvqdl0","pricing_plan_id":"cebpf4jnsgd1na2vs0mg"},{"bike_id":"cfb4b89f-0f07-4e66-8d5d-eecea72c556a","system_id":"levelo_inurba_marseille","lat":43.29536,"lon":5.38552,"is_reserved":false,"is_disabled":true,"rental_uris":{"android":"levelo://app?vid=cfb4b89f-0f07-4e66-8d5d-eecea72c556a","ios":"levelo://app?vid=cfb4b89f-0f07-4e66-8d5d-eecea72c556a"},"vehicle_type_id":"4","last_reported":1745525490,"current_range_meters":8000,"station_id":"ce4bgih2rcd13ifvqba0","pricing_plan_id":"cebpf4jnsgd1na2vs0mg"},{"bike_id":"a250d8ac-d854-4d12-b433-5b9d1dbbfd4c","system_id":"levelo_inurba_marseille","lat":43.27317,"lon":5.39077,"is_reserved":false,"is_disabled":false,"rental_uris":{"android":"levelo://app?vid=a250d8ac-d854-4d12-b433-5b9d1dbbfd4c","ios":"levelo://app?vid=a250d8ac-d854-4d12-b433-5b9d1dbbfd4c"},"vehicle_type_id":"4","last_reported":1745525490,"current_range_meters":8000,"station_id":"ce4bhgp2rcd13ifvqfe0","pricing_plan_id":"cebpf4jnsgd1na2vs0mg"},{"bike_id":"e82f0eec-d59f-4eeb-be39-0c35a85f6b3e","system_id":"levelo_inurba_marseille","lat":43.2957,"lon":5.39978,"is_reserved":false,"is_disabled":false,"rental_uris":{"android":"levelo://app?vid=e82f0eec-d59f-4eeb-be39-0c35a85f6b3e","ios":"levelo://app?vid=e82f0eec-d59f-4eeb-be39-0c35a85f6b3e"},"vehicle_type_id":"4","last_reported":1745525490,"current_range_meters":8000,"station_id":"ce4bh312rcd13ifvqdj0","pricing_plan_id":"cebpf4jnsgd1na2vs0mg"},{"bike_id":"0f7faeca-f211-4302-91c4-a32916e8a18a","system_id":"levelo_inurba_marseille","lat":43.28035,"lon":5.36955,"is_reserved":false,"is_disabled":false,"rental_uris":{"android":"levelo://app?vid=0f7faeca-f211-4302-91c4-a32916e8a18a","ios":"levelo://app?vid=0f7faeca-f211-4302-91c4-a32916e8a18a"},"vehicle_type_id":"4","last_reported":1745525490,"current_range_meters":8400,"station_id":"ce4bha12rcd13ifvqef0","pricing_plan_id":"cebpf4jnsgd1na2vs0mg"},{"bike_id":"3bc517c9-746e-4dd3-b78d-2b088b91c1f0","system_id":"levelo_inurba_marseille","lat":43.30462,"lon":5.3791,"is_reserved":false,"is_disabled":false,"rental_uris":{"android":"levelo://app?vid=3bc517c9-746e-4dd3-b78d-2b088b91c1f0","ios":"levelo://app?vid=3bc517c9-746e-4dd3-b78d-2b088b91c1f0"},"vehicle_type_id":"4","last_reported":1745525490,"current_range_meters":8400,"station_id":"ce4bgup2rcd13ifvqcn0","pricing_plan_id":"cebpf4jnsgd1na2vs0mg"},{"bike_id":"1e189460-4e9a-4815-8ef0-c087c62ad24d","system_id":"levelo_inurba_marseille","lat":43.25117,"lon":5.40327,"is_reserved":false,"is_disabled":false,"rental_uris":{"android":"levelo://app?vid=1e189460-4e9a-4815-8ef0-c087c62ad24d","ios":"levelo://app?vid=1e189460-4e9a-4815-8ef0-c087c62ad24d"},"vehicle_type_id":"4","last_reported":1745525490,"current_range_meters":8400,"station_id":"ce4bhlh2rcd13ifvqgig","pricing_plan_id":"cebpf4jnsgd1na2vs0mg"},{"bike_id":"c809e593-1244-4f75-a3e8-a979f5d84aac","system_id":"levelo_inurba_marseille","lat":43.27972,"lon":5.38728,"is_reserved":false,"is_disabled":false,"rental_uris":{"android":"levelo://app?vid=c809e593-1244-4f75-a3e8-a979f5d84aac","ios":"levelo://app?vid=c809e593-1244-4f75-a3e8-a979f5d84aac"},"vehicle_type_id":"4","last_reported":1745525490,"current_range_meters":8400,"station_id":"ce4bhg12rcd13ifvqf80","pricing_plan_id":"cebpf4jnsgd1na2vs0mg"},{"bike_id":"b3094e88-ac74-4f57-b096-b0357aadc63b","system_id":"levelo_inurba_marseille","lat":43.23149,"lon":5.43708,"is_reserved":false,"is_disabled":false,"rental_uris":{"android":"levelo://app?vid=b3094e88-ac74-4f57-b096-b0357aadc63b","ios":"levelo://app?vid=b3094e88-ac74-4f57-b096-b0357aadc63b"},"vehicle_type_id":"4","last_reported":1745525490,"current_range_meters":8400,"station_id":"ce4bhmp2rcd13ifvqgog","pricing_plan_id":"cebpf4jnsgd1na2vs0mg"},{"bike_id":"a008f1ff-620c-4136-b82e-a1a04d36a6b4","system_id":"levelo_inurba_marseille","lat":43.29038,"lon":5.36506,"is_reserved":false,"is_disabled":false,"rental_uris":{"android":"levelo://app?vid=a008f1ff-620c-4136-b82e-a1a04d36a6b4","ios":"levelo://app?vid=a008f1ff-620c-4136-b82e-a1a04d36a6b4"},"vehicle_type_id":"4","last_reported":1745525490,"current_range_meters":8400,"station_id":"","pricing_plan_id":"cebpf4jnsgd1na2vs0mg"},{"bike_id":"53de0d7a-29e3-4b0b-be27-82d067ea2668","system_id":"levelo_inurba_marseille","lat":43.317037,"lon":5.37756,"is_reserved":false,"is_disabled":false,"rental_uris":{"android":"levelo://app?vid=53de0d7a-29e3-4b0b-be27-82d067ea2668","ios":"levelo://app?vid=53de0d7a-29e3-4b0b-be27-82d067ea2668"},"vehicle_type_id":"4","last_reported":1745525490,"current_range_meters":8400,"station_id":"ce4bgth2rcd13ifvqch0","pricing_plan_id":"cebpf4jnsgd1na2vs0mg"},{"bike_id":"9ebc61b6-6063-419f-b76e-a01783a5a0db","system_id":"levelo_inurba_marseille","lat":43.24649,"lon":5.38898,"is_reserved":false,"is_disabled":false,"rental_uris":{"android":"levelo://app?vid=9ebc61b6-6063-419f-b76e-a01783a5a0db","ios":"levelo://app?vid=9ebc61b6-6063-419f-b76e-a01783a5a0db"},"vehicle_type_id":"4","last_reported":1745525490,"current_range_meters":8800,"station_id":"ce4bhg12rcd13ifvqf60","pricing_plan_id":"cebpf4jnsgd1na2vs0mg"},{"bike_id":"d081cf4d-bb87-4c40-ae58-40041d3a21d9","system_id":"levelo_inurba_marseille","lat":43.2939,"lon":5.37343,"is_reserved":false,"is_disabled":true,"rental_uris":{"android":"levelo://app?vid=d081cf4d-bb87-4c40-ae58-40041d3a21d9","ios":"levelo://app?vid=d081cf4d-bb87-4c40-ae58-40041d3a21d9"},"vehicle_type_id":"4","last_reported":1745525490,"current_range_meters":8800,"station_id":"","pricing_plan_id":"cebpf4jnsgd1na2vs0mg"},{"bike_id":"e5e6387e-799d-49f8-9caa-4061ff31ee68","system_id":"levelo_inurba_marseille","lat":43.22492,"lon":5.3479,"is_reserved":false,"is_disabled":false,"rental_uris":{"android":"levelo://app?vid=e5e6387e-799d-49f8-9caa-4061ff31ee68","ios":"levelo://app?vid=e5e6387e-799d-49f8-9caa-4061ff31ee68"},"vehicle_type_id":"4","last_reported":1745525490,"current_range_meters":8800,"station_id":"st_cvj5dfep6f1abm77gieg","pricing_plan_id":"cebpf4jnsgd1na2vs0mg"},{"bike_id":"0507518d-66e0-4aec-b83b-9c1eadc0fd20","system_id":"levelo_inurba_marseille","lat":43.29653,"lon":5.38556,"is_reserved":false,"is_disabled":false,"rental_uris":{"android":"levelo://app?vid=0507518d-66e0-4aec-b83b-9c1eadc0fd20","ios":"levelo://app?vid=0507518d-66e0-4aec-b83b-9c1eadc0fd20"},"vehicle_type_id":"4","last_reported":1745525490,"current_range_meters":8800,"station_id":"","pricing_plan_id":"cebpf4jnsgd1na2vs0mg"},{"bike_id":"7d644630-fd82-47fb-aa53-499da9988b8f","system_id":"levelo_inurba_marseille","lat":43.24651,"lon":5.38179,"is_reserved":false,"is_disabled":false,"rental_uris":{"android":"levelo://app?vid=7d644630-fd82-47fb-aa53-499da9988b8f","ios":"levelo://app?vid=7d644630-fd82-47fb-aa53-499da9988b8f"},"vehicle_type_id":"4","last_reported":1745525490,"current_range_meters":8800,"station_id":"ce4bhih2rcd13ifvqfr0","pricing_plan_id":"cebpf4jnsgd1na2vs0mg"},{"bike_id":"903f0054-9603-4a67-bf39-7eab5e7131a8","system_id":"levelo_inurba_marseille","lat":43.299164,"lon":5.365463,"is_reserved":false,"is_disabled":false,"rental_uris":{"android":"levelo://app?vid=903f0054-9603-4a67-bf39-7eab5e7131a8","ios":"levelo://app?vid=903f0054-9603-4a67-bf39-7eab5e7131a8"},"vehicle_type_id":"4","last_reported":1745525490,"current_range_meters":8800,"station_id":"ce4bgkp2rcd13ifvqbmg","pricing_plan_id":"cebpf4jnsgd1na2vs0mg"},{"bike_id":"94175c55-a1b8-454e-8864-a4f590effe31","system_id":"levelo_inurba_marseille","lat":43.32357,"lon":5.38879,"is_reserved":false,"is_disabled":false,"rental_uris":{"android":"levelo://app?vid=94175c55-a1b8-454e-8864-a4f590effe31","ios":"levelo://app?vid=94175c55-a1b8-454e-8864-a4f590effe31"},"vehicle_type_id":"4","last_reported":1745525490,"current_range_meters":8800,"station_id":"ce4bhqp2rcd13ifvqhog","pricing_plan_id":"cebpf4jnsgd1na2vs0mg"},{"bike_id":"2490c850-e8ad-49d1-8887-b8f9d6b59f38","system_id":"levelo_inurba_marseille","lat":43.23196,"lon":5.39982,"is_reserved":false,"is_disabled":true,"rental_uris":{"android":"levelo://app?vid=2490c850-e8ad-49d1-8887-b8f9d6b59f38","ios":"levelo://app?vid=2490c850-e8ad-49d1-8887-b8f9d6b59f38"},"vehicle_type_id":"4","last_reported":1745525490,"current_range_meters":8800,"station_id":"ce4bhn12rcd13ifvqgqg","pricing_plan_id":"cebpf4jnsgd1na2vs0mg"},{"bike_id":"3b05141e-caf3-4d2c-9f9d-6a6053f4af99","system_id":"levelo_inurba_marseille","lat":43.31531,"lon":5.38037,"is_reserved":false,"is_disabled":false,"rental_uris":{"android":"levelo://app?vid=3b05141e-caf3-4d2c-9f9d-6a6053f4af99","ios":"levelo://app?vid=3b05141e-caf3-4d2c-9f9d-6a6053f4af99"},"vehicle_type_id":"4","last_reported":1745525490,"current_range_meters":8800,"station_id":"ce4bhsp2rcd13ifvqi50","pricing_plan_id":"cebpf4jnsgd1na2vs0mg"},{"bike_id":"fe40baae-2088-4c85-8438-f52a122b7bb1","system_id":"levelo_inurba_marseille","lat":43.29525,"lon":5.39403,"is_reserved":false,"is_disabled":false,"rental_uris":{"android":"levelo://app?vid=fe40baae-2088-4c85-8438-f52a122b7bb1","ios":"levelo://app?vid=fe40baae-2088-4c85-8438-f52a122b7bb1"},"vehicle_type_id":"4","last_reported":1745525490,"current_range_meters":8800,"station_id":"ce4bh292rcd13ifvqdf0","pricing_plan_id":"cebpf4jnsgd1na2vs0mg"},{"bike_id":"bd0c2e9e-2445-40e7-b282-79b710fbc623","system_id":"levelo_inurba_marseille","lat":43.232,"lon":5.39963,"is_reserved":false,"is_disabled":false,"rental_uris":{"android":"levelo://app?vid=bd0c2e9e-2445-40e7-b282-79b710fbc623","ios":"levelo://app?vid=bd0c2e9e-2445-40e7-b282-79b710fbc623"},"vehicle_type_id":"4","last_reported":1745525490,"current_range_meters":9200,"station_id":"ce4bhn12rcd13ifvqgqg","pricing_plan_id":"cebpf4jnsgd1na2vs0mg"},{"bike_id":"18321386-6007-41d7-a392-599343c03345","system_id":"levelo_inurba_marseille","lat":43.31347,"lon":5.38514,"is_reserved":false,"is_disabled":true,"rental_uris":{"android":"levelo://app?vid=18321386-6007-41d7-a392-599343c03345","ios":"levelo://app?vid=18321386-6007-41d7-a392-599343c03345"},"vehicle_type_id":"4","last_reported":1745525490,"current_range_meters":9200,"station_id":"ce4bgt92rcd13ifvqcf0","pricing_plan_id":"cebpf4jnsgd1na2vs0mg"},{"bike_id":"fce01dc2-9e7f-42b7-b18b-c0be1228dc0a","system_id":"levelo_inurba_marseille","lat":43.29908,"lon":5.38143,"is_reserved":false,"is_disabled":false,"rental_uris":{"android":"levelo://app?vid=fce01dc2-9e7f-42b7-b18b-c0be1228dc0a","ios":"levelo://app?vid=fce01dc2-9e7f-42b7-b18b-c0be1228dc0a"},"vehicle_type_id":"4","last_reported":1745525490,"current_range_meters":9200,"station_id":"ce4bgj12rcd13ifvqbc0","pricing_plan_id":"cebpf4jnsgd1na2vs0mg"},{"bike_id":"2d9c5985-7776-4299-a4d9-7a0b1ba90afd","system_id":"levelo_inurba_marseille","lat":43.27374,"lon":5.36257,"is_reserved":false,"is_disabled":false,"rental_uris":{"android":"levelo://app?vid=2d9c5985-7776-4299-a4d9-7a0b1ba90afd","ios":"levelo://app?vid=2d9c5985-7776-4299-a4d9-7a0b1ba90afd"},"vehicle_type_id":"4","last_reported":1745525490,"current_range_meters":9200,"station_id":"ce4bhbh2rcd13ifvqeo0","pricing_plan_id":"cebpf4jnsgd1na2vs0mg"},{"bike_id":"eb772212-defc-4543-ad57-fa606af571fb","system_id":"levelo_inurba_marseille","lat":43.23185,"lon":5.39984,"is_reserved":false,"is_disabled":false,"rental_uris":{"android":"levelo://app?vid=eb772212-defc-4543-ad57-fa606af571fb","ios":"levelo://app?vid=eb772212-defc-4543-ad57-fa606af571fb"},"vehicle_type_id":"4","last_reported":1745525490,"current_range_meters":9200,"station_id":"ce4bhn12rcd13ifvqgqg","pricing_plan_id":"cebpf4jnsgd1na2vs0mg"},{"bike_id":"fbec7fec-ff94-4585-9a8e-81f1ca9ff454","system_id":"levelo_inurba_marseille","lat":43.26494,"lon":5.39552,"is_reserved":false,"is_disabled":false,"rental_uris":{"android":"levelo://app?vid=fbec7fec-ff94-4585-9a8e-81f1ca9ff454","ios":"levelo://app?vid=fbec7fec-ff94-4585-9a8e-81f1ca9ff454"},"vehicle_type_id":"4","last_reported":1745525490,"current_range_meters":9200,"station_id":"ce4bhi12rcd13ifvqfq0","pricing_plan_id":"cebpf4jnsgd1na2vs0mg"},{"bike_id":"99862305-32a2-444d-8334-228f5792e221","system_id":"levelo_inurba_marseille","lat":43.29266,"lon":5.36846,"is_reserved":false,"is_disabled":true,"rental_uris":{"android":"levelo://app?vid=99862305-32a2-444d-8334-228f5792e221","ios":"levelo://app?vid=99862305-32a2-444d-8334-228f5792e221"},"vehicle_type_id":"4","last_reported":1745525490,"current_range_meters":9200,"station_id":"ce4bhbp2rcd13ifvqesg","pricing_plan_id":"cebpf4jnsgd1na2vs0mg"},{"bike_id":"266bdc89-c622-4c8b-a8c9-4f3ed919f7a2","system_id":"levelo_inurba_marseille","lat":43.26786,"lon":5.39415,"is_reserved":false,"is_disabled":false,"rental_uris":{"android":"levelo://app?vid=266bdc89-c622-4c8b-a8c9-4f3ed919f7a2","ios":"levelo://app?vid=266bdc89-c622-4c8b-a8c9-4f3ed919f7a2"},"vehicle_type_id":"4","last_reported":1745525490,"current_range_meters":9200,"station_id":"ce4bhh12rcd13ifvqfg0","pricing_plan_id":"cebpf4jnsgd1na2vs0mg"},{"bike_id":"0013966c-ef97-46fc-a9b6-b1eb056f8ad3","system_id":"levelo_inurba_marseille","lat":43.24072,"lon":5.37758,"is_reserved":false,"is_disabled":false,"rental_uris":{"android":"levelo://app?vid=0013966c-ef97-46fc-a9b6-b1eb056f8ad3","ios":"levelo://app?vid=0013966c-ef97-46fc-a9b6-b1eb056f8ad3"},"vehicle_type_id":"4","last_reported":1745525490,"current_range_meters":9600,"station_id":"ce4bhnp2rcd13ifvqgvg","pricing_plan_id":"cebpf4jnsgd1na2vs0mg"},{"bike_id":"f8508138-549e-433a-8453-b2185a87c792","system_id":"levelo_inurba_marseille","lat":43.30255,"lon":5.4008,"is_reserved":false,"is_disabled":false,"rental_uris":{"android":"levelo://app?vid=f8508138-549e-433a-8453-b2185a87c792","ios":"levelo://app?vid=f8508138-549e-433a-8453-b2185a87c792"},"vehicle_type_id":"4","last_reported":1745525490,"current_range_meters":9600,"station_id":"ce4bgvh2rcd13ifvqcs0","pricing_plan_id":"cebpf4jnsgd1na2vs0mg"},{"bike_id":"f742e759-6e98-4553-96e1-e1964ee51b8f","system_id":"levelo_inurba_marseille","lat":43.30794,"lon":5.43542,"is_reserved":false,"is_disabled":false,"rental_uris":{"android":"levelo://app?vid=f742e759-6e98-4553-96e1-e1964ee51b8f","ios":"levelo://app?vid=f742e759-6e98-4553-96e1-e1964ee51b8f"},"vehicle_type_id":"4","last_reported":1745525490,"current_range_meters":9600,"station_id":"ce4bhph2rcd13ifvqheg","pricing_plan_id":"cebpf4jnsgd1na2vs0mg"},{"bike_id":"e18d7645-a32c-4b9d-b22e-173b6860f8a2","system_id":"levelo_inurba_marseille","lat":43.25484,"lon":5.37657,"is_reserved":false,"is_disabled":false,"rental_uris":{"android":"levelo://app?vid=e18d7645-a32c-4b9d-b22e-173b6860f8a2","ios":"levelo://app?vid=e18d7645-a32c-4b9d-b22e-173b6860f8a2"},"vehicle_type_id":"4","last_reported":1745525490,"current_range_meters":9600,"station_id":"ce4bhh12rcd13ifvqff0","pricing_plan_id":"cebpf4jnsgd1na2vs0mg"},{"bike_id":"4959620f-bcf8-47e6-be19-b230de6ed982","system_id":"levelo_inurba_marseille","lat":43.30407,"lon":5.39749,"is_reserved":false,"is_disabled":false,"rental_uris":{"android":"levelo://app?vid=4959620f-bcf8-47e6-be19-b230de6ed982","ios":"levelo://app?vid=4959620f-bcf8-47e6-be19-b230de6ed982"},"vehicle_type_id":"4","last_reported":1745525490,"current_range_meters":9600,"station_id":"ce4bh092rcd13ifvqd20","pricing_plan_id":"cebpf4jnsgd1na2vs0mg"},{"bike_id":"46374c49-3adc-4c5a-8966-e00f056c0d57","system_id":"levelo_inurba_marseille","lat":43.27846,"lon":5.35442,"is_reserved":false,"is_disabled":false,"rental_uris":{"android":"levelo://app?vid=46374c49-3adc-4c5a-8966-e00f056c0d57","ios":"levelo://app?vid=46374c49-3adc-4c5a-8966-e00f056c0d57"},"vehicle_type_id":"4","last_reported":1745525490,"current_range_meters":10000,"station_id":"","pricing_plan_id":"cebpf4jnsgd1na2vs0mg"},{"bike_id":"6dbfc9d1-df46-41a1-8e24-30aaeca4e7e6","system_id":"levelo_inurba_marseille","lat":43.239581,"lon":5.366306,"is_reserved":false,"is_disabled":false,"rental_uris":{"android":"levelo://app?vid=6dbfc9d1-df46-41a1-8e24-30aaeca4e7e6","ios":"levelo://app?vid=6dbfc9d1-df46-41a1-8e24-30aaeca4e7e6"},"vehicle_type_id":"4","last_reported":1745525490,"current_range_meters":10000,"station_id":"ce4bhi12rcd13ifvqfp0","pricing_plan_id":"cebpf4jnsgd1na2vs0mg"},{"bike_id":"858bb71e-c17e-4421-b73f-aaf6e578fcac","system_id":"levelo_inurba_marseille","lat":43.28412,"lon":5.34978,"is_reserved":false,"is_disabled":false,"rental_uris":{"android":"levelo://app?vid=858bb71e-c17e-4421-b73f-aaf6e578fcac","ios":"levelo://app?vid=858bb71e-c17e-4421-b73f-aaf6e578fcac"},"vehicle_type_id":"4","last_reported":1745525490,"current_range_meters":10000,"station_id":"ce4bhbh2rcd13ifvqepg","pricing_plan_id":"cebpf4jnsgd1na2vs0mg"},{"bike_id":"16b19031-1929-4929-b93c-b85cbf4e1eb1","system_id":"levelo_inurba_marseille","lat":43.29444,"lon":5.39751,"is_reserved":false,"is_disabled":false,"rental_uris":{"android":"levelo://app?vid=16b19031-1929-4929-b93c-b85cbf4e1eb1","ios":"levelo://app?vid=16b19031-1929-4929-b93c-b85cbf4e1eb1"},"vehicle_type_id":"4","last_reported":1745525490,"current_range_meters":10000,"station_id":"ce4bh3h2rcd13ifvqdo0","pricing_plan_id":"cebpf4jnsgd1na2vs0mg"},{"bike_id":"6b0d1ec6-0d77-4bd1-9dce-9054c2481ed1","system_id":"levelo_inurba_marseille","lat":43.24391,"lon":5.37058,"is_reserved":false,"is_disabled":false,"rental_uris":{"android":"levelo://app?vid=6b0d1ec6-0d77-4bd1-9dce-9054c2481ed1","ios":"levelo://app?vid=6b0d1ec6-0d77-4bd1-9dce-9054c2481ed1"},"vehicle_type_id":"4","last_reported":1745525490,"current_range_meters":10000,"station_id":"ce4bhhh2rcd13ifvqfk0","pricing_plan_id":"cebpf4jnsgd1na2vs0mg"},{"bike_id":"ebbd8b38-ff69-4b56-b8e2-4e5da4f2af51","system_id":"levelo_inurba_marseille","lat":43.29598,"lon":5.38094,"is_reserved":false,"is_disabled":false,"rental_uris":{"android":"levelo://app?vid=ebbd8b38-ff69-4b56-b8e2-4e5da4f2af51","ios":"levelo://app?vid=ebbd8b38-ff69-4b56-b8e2-4e5da4f2af51"},"vehicle_type_id":"4","last_reported":1745525490,"current_range_meters":10000,"station_id":"ce4bgl12rcd13ifvqbo0","pricing_plan_id":"cebpf4jnsgd1na2vs0mg"},{"bike_id":"ebbb47ee-0830-497c-9b41-8771d5611dcc","system_id":"levelo_inurba_marseille","lat":43.281582,"lon":5.426391,"is_reserved":false,"is_disabled":false,"rental_uris":{"android":"levelo://app?vid=ebbb47ee-0830-497c-9b41-8771d5611dcc","ios":"levelo://app?vid=ebbb47ee-0830-497c-9b41-8771d5611dcc"},"vehicle_type_id":"4","last_reported":1745525490,"current_range_meters":10800,"station_id":"ce4bhnh2rcd13ifvqgug","pricing_plan_id":"cebpf4jnsgd1na2vs0mg"},{"bike_id":"530a90a2-3e12-445d-adf3-541aa61c77c3","system_id":"levelo_inurba_marseille","lat":43.28668,"lon":5.36359,"is_reserved":false,"is_disabled":false,"rental_uris":{"android":"levelo://app?vid=530a90a2-3e12-445d-adf3-541aa61c77c3","ios":"levelo://app?vid=530a90a2-3e12-445d-adf3-541aa61c77c3"},"vehicle_type_id":"4","last_reported":1745525490,"current_range_meters":10800,"station_id":"ce4bhah2rcd13ifvqej0","pricing_plan_id":"cebpf4jnsgd1na2vs0mg"},{"bike_id":"d8840801-a52a-4c7c-9a2d-3e5f8bcef267","system_id":"levelo_inurba_marseille","lat":43.28025,"lon":5.36938,"is_reserved":false,"is_disabled":false,"rental_uris":{"android":"levelo://app?vid=d8840801-a52a-4c7c-9a2d-3e5f8bcef267","ios":"levelo://app?vid=d8840801-a52a-4c7c-9a2d-3e5f8bcef267"},"vehicle_type_id":"4","last_reported":1745525490,"current_range_meters":10800,"station_id":"ce4bha12rcd13ifvqef0","pricing_plan_id":"cebpf4jnsgd1na2vs0mg"},{"bike_id":"894d13de-fdb1-4f60-99c3-da1438056ad2","system_id":"levelo_inurba_marseille","lat":43.31891,"lon":5.40739,"is_reserved":false,"is_disabled":false,"rental_uris":{"android":"levelo://app?vid=894d13de-fdb1-4f60-99c3-da1438056ad2","ios":"levelo://app?vid=894d13de-fdb1-4f60-99c3-da1438056ad2"},"vehicle_type_id":"4","last_reported":1745525490,"current_range_meters":10800,"station_id":"ce4bhq12rcd13ifvqhig","pricing_plan_id":"cebpf4jnsgd1na2vs0mg"},{"bike_id":"d4b6329f-e983-416a-8804-3a05de7c5c23","system_id":"levelo_inurba_marseille","lat":43.30727,"lon":5.42445,"is_reserved":false,"is_disabled":false,"rental_uris":{"android":"levelo://app?vid=d4b6329f-e983-416a-8804-3a05de7c5c23","ios":"levelo://app?vid=d4b6329f-e983-416a-8804-3a05de7c5c23"},"vehicle_type_id":"4","last_reported":1745525490,"current_range_meters":10800,"station_id":"st_cvj6ca6bvosntc0bfgr0","pricing_plan_id":"cebpf4jnsgd1na2vs0mg"},{"bike_id":"57c6fb01-b531-40c9-b932-d8f2ceb8b76f","system_id":"levelo_inurba_marseille","lat":43.29608,"lon":5.38095,"is_reserved":false,"is_disabled":false,"rental_uris":{"android":"levelo://app?vid=57c6fb01-b531-40c9-b932-d8f2ceb8b76f","ios":"levelo://app?vid=57c6fb01-b531-40c9-b932-d8f2ceb8b76f"},"vehicle_type_id":"4","last_reported":1745525490,"current_range_meters":11200,"station_id":"ce4bgl12rcd13ifvqbo0","pricing_plan_id":"cebpf4jnsgd1na2vs0mg"},{"bike_id":"e8898a15-c300-4b72-85e9-a1c9927643b5","system_id":"levelo_inurba_marseille","lat":43.30427,"lon":5.38897,"is_reserved":false,"is_disabled":false,"rental_uris":{"android":"levelo://app?vid=e8898a15-c300-4b72-85e9-a1c9927643b5","ios":"levelo://app?vid=e8898a15-c300-4b72-85e9-a1c9927643b5"},"vehicle_type_id":"4","last_reported":1745525490,"current_range_meters":11200,"station_id":"ce4bgk12rcd13ifvqbi0","pricing_plan_id":"cebpf4jnsgd1na2vs0mg"},{"bike_id":"3f4fffef-9d06-4513-a8be-a4167b14ccb8","system_id":"levelo_inurba_marseille","lat":43.30966,"lon":5.37175,"is_reserved":false,"is_disabled":false,"rental_uris":{"android":"levelo://app?vid=3f4fffef-9d06-4513-a8be-a4167b14ccb8","ios":"levelo://app?vid=3f4fffef-9d06-4513-a8be-a4167b14ccb8"},"vehicle_type_id":"4","last_reported":1745525490,"current_range_meters":11200,"station_id":"","pricing_plan_id":"cebpf4jnsgd1na2vs0mg"},{"bike_id":"951e4c5a-ed4b-4956-a7e2-d787fd79df17","system_id":"levelo_inurba_marseille","lat":43.31181,"lon":5.40771,"is_reserved":false,"is_disabled":false,"rental_uris":{"android":"levelo://app?vid=951e4c5a-ed4b-4956-a7e2-d787fd79df17","ios":"levelo://app?vid=951e4c5a-ed4b-4956-a7e2-d787fd79df17"},"vehicle_type_id":"4","last_reported":1745525490,"current_range_meters":11200,"station_id":"","pricing_plan_id":"cebpf4jnsgd1na2vs0mg"},{"bike_id":"d0fbe7e1-3966-4cbd-b3e0-a9ab5630afe5","system_id":"levelo_inurba_marseille","lat":43.2843,"lon":5.39159,"is_reserved":false,"is_disabled":false,"rental_uris":{"android":"levelo://app?vid=d0fbe7e1-3966-4cbd-b3e0-a9ab5630afe5","ios":"levelo://app?vid=d0fbe7e1-3966-4cbd-b3e0-a9ab5630afe5"},"vehicle_type_id":"4","last_reported":1745525490,"current_range_meters":10800,"station_id":"ce4bhoh2rcd13ifvqh5g","pricing_plan_id":"cebpf4jnsgd1na2vs0mg"},{"bike_id":"d4a8fafa-88a7-48bf-b5a7-839e5bc03db8","system_id":"levelo_inurba_marseille","lat":43.25007,"lon":5.38936,"is_reserved":false,"is_disabled":true,"rental_uris":{"android":"levelo://app?vid=d4a8fafa-88a7-48bf-b5a7-839e5bc03db8","ios":"levelo://app?vid=d4a8fafa-88a7-48bf-b5a7-839e5bc03db8"},"vehicle_type_id":"4","last_reported":1745525490,"current_range_meters":11200,"station_id":"ce4bhgp2rcd13ifvqfd0","pricing_plan_id":"cebpf4jnsgd1na2vs0mg"},{"bike_id":"3c01f68a-79d8-4085-a49f-5a8a4024a633","system_id":"levelo_inurba_marseille","lat":43.29705,"lon":5.36607,"is_reserved":false,"is_disabled":false,"rental_uris":{"android":"levelo://app?vid=3c01f68a-79d8-4085-a49f-5a8a4024a633","ios":"levelo://app?vid=3c01f68a-79d8-4085-a49f-5a8a4024a633"},"vehicle_type_id":"4","last_reported":1745525490,"current_range_meters":11600,"station_id":"ce4bgn12rcd13ifvqbt0","pricing_plan_id":"cebpf4jnsgd1na2vs0mg"},{"bike_id":"2d263d34-fb8c-4671-b411-7d7d5902b56e","system_id":"levelo_inurba_marseille","lat":43.28445,"lon":5.39207,"is_reserved":false,"is_disabled":false,"rental_uris":{"android":"levelo://app?vid=2d263d34-fb8c-4671-b411-7d7d5902b56e","ios":"levelo://app?vid=2d263d34-fb8c-4671-b411-7d7d5902b56e"},"vehicle_type_id":"4","last_reported":1745525490,"current_range_meters":11600,"station_id":"ce4bhoh2rcd13ifvqh5g","pricing_plan_id":"cebpf4jnsgd1na2vs0mg"},{"bike_id":"1d91b666-5839-4535-90f0-3b0684785522","system_id":"levelo_inurba_marseille","lat":43.29879,"lon":5.38899,"is_reserved":false,"is_disabled":false,"rental_uris":{"android":"levelo://app?vid=1d91b666-5839-4535-90f0-3b0684785522","ios":"levelo://app?vid=1d91b666-5839-4535-90f0-3b0684785522"},"vehicle_type_id":"4","last_reported":1745525490,"current_range_meters":11600,"station_id":"ce4bh392rcd13ifvqdl0","pricing_plan_id":"cebpf4jnsgd1na2vs0mg"},{"bike_id":"ed3e7f9f-20c4-42a8-9e79-dc830cbed3b6","system_id":"levelo_inurba_marseille","lat":43.28668,"lon":5.38676,"is_reserved":false,"is_disabled":false,"rental_uris":{"android":"levelo://app?vid=ed3e7f9f-20c4-42a8-9e79-dc830cbed3b6","ios":"levelo://app?vid=ed3e7f9f-20c4-42a8-9e79-dc830cbed3b6"},"vehicle_type_id":"4","last_reported":1745525490,"current_range_meters":12000,"station_id":"ce4bh492rcd13ifvqdug","pricing_plan_id":"cebpf4jnsgd1na2vs0mg"},{"bike_id":"bde3dfbe-561b-4e2b-8adb-c7cdef37b3a6","system_id":"levelo_inurba_marseille","lat":43.30886,"lon":5.37181,"is_reserved":false,"is_disabled":false,"rental_uris":{"android":"levelo://app?vid=bde3dfbe-561b-4e2b-8adb-c7cdef37b3a6","ios":"levelo://app?vid=bde3dfbe-561b-4e2b-8adb-c7cdef37b3a6"},"vehicle_type_id":"4","last_reported":1745525490,"current_range_meters":11600,"station_id":"ce4bguh2rcd13ifvqckg","pricing_plan_id":"cebpf4jnsgd1na2vs0mg"},{"bike_id":"9cfb0e8e-d5e7-456e-9fd8-ae621bd2e201","system_id":"levelo_inurba_marseille","lat":43.26788,"lon":5.39414,"is_reserved":false,"is_disabled":false,"rental_uris":{"android":"levelo://app?vid=9cfb0e8e-d5e7-456e-9fd8-ae621bd2e201","ios":"levelo://app?vid=9cfb0e8e-d5e7-456e-9fd8-ae621bd2e201"},"vehicle_type_id":"4","last_reported":1745525490,"current_range_meters":12000,"station_id":"ce4bhh12rcd13ifvqfg0","pricing_plan_id":"cebpf4jnsgd1na2vs0mg"},{"bike_id":"3a41a14b-b60d-411c-aa4a-3b7d3df773ad","system_id":"levelo_inurba_marseille","lat":43.30205,"lon":5.36618,"is_reserved":false,"is_disabled":true,"rental_uris":{"android":"levelo://app?vid=3a41a14b-b60d-411c-aa4a-3b7d3df773ad","ios":"levelo://app?vid=3a41a14b-b60d-411c-aa4a-3b7d3df773ad"},"vehicle_type_id":"4","last_reported":1745525490,"current_range_meters":12000,"station_id":"ce4bgrh2rcd13ifvqc8g","pricing_plan_id":"cebpf4jnsgd1na2vs0mg"},{"bike_id":"c4b0ce6f-4913-48c0-94af-255f0c5af339","system_id":"levelo_inurba_marseille","lat":43.24547,"lon":5.395204,"is_reserved":false,"is_disabled":false,"rental_uris":{"android":"levelo://app?vid=c4b0ce6f-4913-48c0-94af-255f0c5af339","ios":"levelo://app?vid=c4b0ce6f-4913-48c0-94af-255f0c5af339"},"vehicle_type_id":"4","last_reported":1745525490,"current_range_meters":12000,"station_id":"ce4bhlp2rcd13ifvqgjg","pricing_plan_id":"cebpf4jnsgd1na2vs0mg"},{"bike_id":"84c51a55-47b7-4b91-88f0-0d5a084f2e8f","system_id":"levelo_inurba_marseille","lat":43.28028,"lon":5.3696,"is_reserved":false,"is_disabled":false,"rental_uris":{"android":"levelo://app?vid=84c51a55-47b7-4b91-88f0-0d5a084f2e8f","ios":"levelo://app?vid=84c51a55-47b7-4b91-88f0-0d5a084f2e8f"},"vehicle_type_id":"4","last_reported":1745525490,"current_range_meters":12400,"station_id":"ce4bha12rcd13ifvqef0","pricing_plan_id":"cebpf4jnsgd1na2vs0mg"},{"bike_id":"f949fb3b-ab2e-4a76-b3e1-d742d8c4e1fa","system_id":"levelo_inurba_marseille","lat":43.3133,"lon":5.39691,"is_reserved":false,"is_disabled":false,"rental_uris":{"android":"levelo://app?vid=f949fb3b-ab2e-4a76-b3e1-d742d8c4e1fa","ios":"levelo://app?vid=f949fb3b-ab2e-4a76-b3e1-d742d8c4e1fa"},"vehicle_type_id":"4","last_reported":1745525490,"current_range_meters":12000,"station_id":"ce4bgvp2rcd13ifvqcu0","pricing_plan_id":"cebpf4jnsgd1na2vs0mg"},{"bike_id":"fd8a5be9-4359-4cce-8721-a1c76390740e","system_id":"levelo_inurba_marseille","lat":43.27315,"lon":5.3908,"is_reserved":false,"is_disabled":false,"rental_uris":{"android":"levelo://app?vid=fd8a5be9-4359-4cce-8721-a1c76390740e","ios":"levelo://app?vid=fd8a5be9-4359-4cce-8721-a1c76390740e"},"vehicle_type_id":"4","last_reported":1745525490,"current_range_meters":12400,"station_id":"ce4bhgp2rcd13ifvqfe0","pricing_plan_id":"cebpf4jnsgd1na2vs0mg"},{"bike_id":"486a58b3-6ad0-49b9-8ae4-2309bf84f59a","system_id":"levelo_inurba_marseille","lat":43.29262,"lon":5.38435,"is_reserved":false,"is_disabled":false,"rental_uris":{"android":"levelo://app?vid=486a58b3-6ad0-49b9-8ae4-2309bf84f59a","ios":"levelo://app?vid=486a58b3-6ad0-49b9-8ae4-2309bf84f59a"},"vehicle_type_id":"4","last_reported":1745525490,"current_range_meters":12400,"station_id":"ce4bh692rcd13ifvqea0","pricing_plan_id":"cebpf4jnsgd1na2vs0mg"},{"bike_id":"9ddf901c-17b7-41a5-ab10-51e5206ab36e","system_id":"levelo_inurba_marseille","lat":43.33019,"lon":5.3905,"is_reserved":false,"is_disabled":false,"rental_uris":{"android":"levelo://app?vid=9ddf901c-17b7-41a5-ab10-51e5206ab36e","ios":"levelo://app?vid=9ddf901c-17b7-41a5-ab10-51e5206ab36e"},"vehicle_type_id":"4","last_reported":1745525490,"current_range_meters":12400,"station_id":"ce4bhr92rcd13ifvqhrg","pricing_plan_id":"cebpf4jnsgd1na2vs0mg"},{"bike_id":"4e7881a3-9168-42ef-896c-f777502f2027","system_id":"levelo_inurba_marseille","lat":43.2813,"lon":5.42632,"is_reserved":false,"is_disabled":false,"rental_uris":{"android":"levelo://app?vid=4e7881a3-9168-42ef-896c-f777502f2027","ios":"levelo://app?vid=4e7881a3-9168-42ef-896c-f777502f2027"},"vehicle_type_id":"4","last_reported":1745525490,"current_range_meters":12400,"station_id":"ce4bhnh2rcd13ifvqgug","pricing_plan_id":"cebpf4jnsgd1na2vs0mg"},{"bike_id":"19019693-06a8-4004-b384-9baced24fe52","system_id":"levelo_inurba_marseille","lat":43.29605,"lon":5.38102,"is_reserved":false,"is_disabled":false,"rental_uris":{"android":"levelo://app?vid=19019693-06a8-4004-b384-9baced24fe52","ios":"levelo://app?vid=19019693-06a8-4004-b384-9baced24fe52"},"vehicle_type_id":"4","last_reported":1745525490,"current_range_meters":12400,"station_id":"ce4bgl12rcd13ifvqbo0","pricing_plan_id":"cebpf4jnsgd1na2vs0mg"},{"bike_id":"0aeea440-47b3-48d8-b764-fc82ba6f596d","system_id":"levelo_inurba_marseille","lat":43.28038,"lon":5.36946,"is_reserved":false,"is_disabled":false,"rental_uris":{"android":"levelo://app?vid=0aeea440-47b3-48d8-b764-fc82ba6f596d","ios":"levelo://app?vid=0aeea440-47b3-48d8-b764-fc82ba6f596d"},"vehicle_type_id":"4","last_reported":1745525490,"current_range_meters":12800,"station_id":"ce4bha12rcd13ifvqef0","pricing_plan_id":"cebpf4jnsgd1na2vs0mg"},{"bike_id":"6c07701a-8c9d-42b3-88f5-7017a41eecdf","system_id":"levelo_inurba_marseille","lat":43.295126,"lon":5.390373,"is_reserved":false,"is_disabled":false,"rental_uris":{"android":"levelo://app?vid=6c07701a-8c9d-42b3-88f5-7017a41eecdf","ios":"levelo://app?vid=6c07701a-8c9d-42b3-88f5-7017a41eecdf"},"vehicle_type_id":"4","last_reported":1745525490,"current_range_meters":12800,"station_id":"ce4bh3p2rcd13ifvqdp0","pricing_plan_id":"cebpf4jnsgd1na2vs0mg"},{"bike_id":"31a84c9b-c7bb-41c7-a970-898dcf763426","system_id":"levelo_inurba_marseille","lat":43.29509,"lon":5.39429,"is_reserved":false,"is_disabled":false,"rental_uris":{"android":"levelo://app?vid=31a84c9b-c7bb-41c7-a970-898dcf763426","ios":"levelo://app?vid=31a84c9b-c7bb-41c7-a970-898dcf763426"},"vehicle_type_id":"4","last_reported":1745525490,"current_range_meters":12800,"station_id":"ce4bh292rcd13ifvqdf0","pricing_plan_id":"cebpf4jnsgd1na2vs0mg"},{"bike_id":"3a75a896-5120-47a9-a44e-c8390bca748b","system_id":"levelo_inurba_marseille","lat":43.27806,"lon":5.40705,"is_reserved":false,"is_disabled":false,"rental_uris":{"android":"levelo://app?vid=3a75a896-5120-47a9-a44e-c8390bca748b","ios":"levelo://app?vid=3a75a896-5120-47a9-a44e-c8390bca748b"},"vehicle_type_id":"4","last_reported":1745525490,"current_range_meters":12800,"station_id":"ce4bhnh2rcd13ifvqgtg","pricing_plan_id":"cebpf4jnsgd1na2vs0mg"},{"bike_id":"d466c039-2657-4b6e-acab-45296ceab8a9","system_id":"levelo_inurba_marseille","lat":43.28719,"lon":5.36101,"is_reserved":false,"is_disabled":false,"rental_uris":{"android":"levelo://app?vid=d466c039-2657-4b6e-acab-45296ceab8a9","ios":"levelo://app?vid=d466c039-2657-4b6e-acab-45296ceab8a9"},"vehicle_type_id":"4","last_reported":1745525490,"current_range_meters":12800,"station_id":"cki0cbj6b192h4jlfktg","pricing_plan_id":"cebpf4jnsgd1na2vs0mg"},{"bike_id":"45837392-2c5f-4e7b-9f16-4fc475d351bd","system_id":"levelo_inurba_marseille","lat":43.28708,"lon":5.39987,"is_reserved":false,"is_disabled":false,"rental_uris":{"android":"levelo://app?vid=45837392-2c5f-4e7b-9f16-4fc475d351bd","ios":"levelo://app?vid=45837392-2c5f-4e7b-9f16-4fc475d351bd"},"vehicle_type_id":"4","last_reported":1745525490,"current_range_meters":12800,"station_id":"ce4bho92rcd13ifvqh3g","pricing_plan_id":"cebpf4jnsgd1na2vs0mg"},{"bike_id":"1be0eb9c-f13a-4528-a70c-da833c79b49f","system_id":"levelo_inurba_marseille","lat":43.29418,"lon":5.38633,"is_reserved":false,"is_disabled":true,"rental_uris":{"android":"levelo://app?vid=1be0eb9c-f13a-4528-a70c-da833c79b49f","ios":"levelo://app?vid=1be0eb9c-f13a-4528-a70c-da833c79b49f"},"vehicle_type_id":"4","last_reported":1745525490,"current_range_meters":13600,"station_id":"ce4bh2h2rcd13ifvqdh0","pricing_plan_id":"cebpf4jnsgd1na2vs0mg"},{"bike_id":"2db3f0bc-4b3b-4323-b986-46a0bed2ca76","system_id":"levelo_inurba_marseille","lat":43.28664,"lon":5.38662,"is_reserved":false,"is_disabled":false,"rental_uris":{"android":"levelo://app?vid=2db3f0bc-4b3b-4323-b986-46a0bed2ca76","ios":"levelo://app?vid=2db3f0bc-4b3b-4323-b986-46a0bed2ca76"},"vehicle_type_id":"4","last_reported":1745525490,"current_range_meters":13600,"station_id":"ce4bh492rcd13ifvqdug","pricing_plan_id":"cebpf4jnsgd1na2vs0mg"},{"bike_id":"0e945859-fa31-40e1-b139-93bf53b136e5","system_id":"levelo_inurba_marseille","lat":43.29024,"lon":5.38649,"is_reserved":false,"is_disabled":true,"rental_uris":{"android":"levelo://app?vid=0e945859-fa31-40e1-b139-93bf53b136e5","ios":"levelo://app?vid=0e945859-fa31-40e1-b139-93bf53b136e5"},"vehicle_type_id":"4","last_reported":1745525490,"current_range_meters":13600,"station_id":"ce4bh4p2rcd13ifvqe0g","pricing_plan_id":"cebpf4jnsgd1na2vs0mg"},{"bike_id":"13a03cf4-d84f-423d-b71b-020922e0c702","system_id":"levelo_inurba_marseille","lat":43.28942,"lon":5.36631,"is_reserved":false,"is_disabled":false,"rental_uris":{"android":"levelo://app?vid=13a03cf4-d84f-423d-b71b-020922e0c702","ios":"levelo://app?vid=13a03cf4-d84f-423d-b71b-020922e0c702"},"vehicle_type_id":"4","last_reported":1745525490,"current_range_meters":13600,"station_id":"ce4bhap2rcd13ifvqek0","pricing_plan_id":"cebpf4jnsgd1na2vs0mg"},{"bike_id":"551fcfaa-d404-489e-befa-ff635299cb7d","system_id":"levelo_inurba_marseille","lat":43.319922,"lon":5.381542,"is_reserved":false,"is_disabled":false,"rental_uris":{"android":"levelo://app?vid=551fcfaa-d404-489e-befa-ff635299cb7d","ios":"levelo://app?vid=551fcfaa-d404-489e-befa-ff635299cb7d"},"vehicle_type_id":"4","last_reported":1745525490,"current_range_meters":13600,"station_id":"ce4bhqh2rcd13ifvqhlg","pricing_plan_id":"cebpf4jnsgd1na2vs0mg"},{"bike_id":"5cda5c9a-035b-47ef-b3c5-d3c340708ce9","system_id":"levelo_inurba_marseille","lat":43.2952,"lon":5.38552,"is_reserved":false,"is_disabled":false,"rental_uris":{"android":"levelo://app?vid=5cda5c9a-035b-47ef-b3c5-d3c340708ce9","ios":"levelo://app?vid=5cda5c9a-035b-47ef-b3c5-d3c340708ce9"},"vehicle_type_id":"4","last_reported":1745525490,"current_range_meters":13600,"station_id":"ce4bgih2rcd13ifvqba0","pricing_plan_id":"cebpf4jnsgd1na2vs0mg"},{"bike_id":"b2d37ef4-45d6-43ec-aa09-33b8e3825cd9","system_id":"levelo_inurba_marseille","lat":43.32482,"lon":5.36561,"is_reserved":false,"is_disabled":false,"rental_uris":{"android":"levelo://app?vid=b2d37ef4-45d6-43ec-aa09-33b8e3825cd9","ios":"levelo://app?vid=b2d37ef4-45d6-43ec-aa09-33b8e3825cd9"},"vehicle_type_id":"4","last_reported":1745525490,"current_range_meters":12800,"station_id":"ce4bhs12rcd13ifvqhvg","pricing_plan_id":"cebpf4jnsgd1na2vs0mg"},{"bike_id":"c605cd62-de86-41f7-9bff-65406db9315d","system_id":"levelo_inurba_marseille","lat":43.26686,"lon":5.38268,"is_reserved":false,"is_disabled":false,"rental_uris":{"android":"levelo://app?vid=c605cd62-de86-41f7-9bff-65406db9315d","ios":"levelo://app?vid=c605cd62-de86-41f7-9bff-65406db9315d"},"vehicle_type_id":"4","last_reported":1745525490,"current_range_meters":13600,"station_id":"ce4bhg92rcd13ifvqf90","pricing_plan_id":"cebpf4jnsgd1na2vs0mg"},{"bike_id":"68d3a95c-3065-4535-86b6-fde61722ced0","system_id":"levelo_inurba_marseille","lat":43.28443,"lon":5.392,"is_reserved":false,"is_disabled":false,"rental_uris":{"android":"levelo://app?vid=68d3a95c-3065-4535-86b6-fde61722ced0","ios":"levelo://app?vid=68d3a95c-3065-4535-86b6-fde61722ced0"},"vehicle_type_id":"4","last_reported":1745525490,"current_range_meters":13600,"station_id":"ce4bhoh2rcd13ifvqh5g","pricing_plan_id":"cebpf4jnsgd1na2vs0mg"},{"bike_id":"1f5bfeff-e157-4f8b-8695-1ae6365ca51b","system_id":"levelo_inurba_marseille","lat":43.25861,"lon":5.39908,"is_reserved":false,"is_disabled":false,"rental_uris":{"android":"levelo://app?vid=1f5bfeff-e157-4f8b-8695-1ae6365ca51b","ios":"levelo://app?vid=1f5bfeff-e157-4f8b-8695-1ae6365ca51b"},"vehicle_type_id":"4","last_reported":1745525490,"current_range_meters":14000,"station_id":"ce4bhl92rcd13ifvqghg","pricing_plan_id":"cebpf4jnsgd1na2vs0mg"},{"bike_id":"407859f8-ad6e-4706-b576-c01bcdb7c801","system_id":"levelo_inurba_marseille","lat":43.29847,"lon":5.36299,"is_reserved":false,"is_disabled":true,"rental_uris":{"android":"levelo://app?vid=407859f8-ad6e-4706-b576-c01bcdb7c801","ios":"levelo://app?vid=407859f8-ad6e-4706-b576-c01bcdb7c801"},"vehicle_type_id":"4","last_reported":1745525490,"current_range_meters":14000,"station_id":"ce4bgpp2rcd13ifvqc3g","pricing_plan_id":"cebpf4jnsgd1na2vs0mg"},{"bike_id":"a5568362-8563-4319-9ff2-9d770aac6fa3","system_id":"levelo_inurba_marseille","lat":43.274285,"lon":5.394105,"is_reserved":false,"is_disabled":false,"rental_uris":{"android":"levelo://app?vid=a5568362-8563-4319-9ff2-9d770aac6fa3","ios":"levelo://app?vid=a5568362-8563-4319-9ff2-9d770aac6fa3"},"vehicle_type_id":"4","last_reported":1745525490,"current_range_meters":13600,"station_id":"ce4bhdp2rcd13ifvqf20","pricing_plan_id":"cebpf4jnsgd1na2vs0mg"},{"bike_id":"580063e2-6742-4246-9bde-80e2ae1becc5","system_id":"levelo_inurba_marseille","lat":43.29709,"lon":5.36611,"is_reserved":false,"is_disabled":false,"rental_uris":{"android":"levelo://app?vid=580063e2-6742-4246-9bde-80e2ae1becc5","ios":"levelo://app?vid=580063e2-6742-4246-9bde-80e2ae1becc5"},"vehicle_type_id":"4","last_reported":1745525490,"current_range_meters":14000,"station_id":"ce4bgn12rcd13ifvqbt0","pricing_plan_id":"cebpf4jnsgd1na2vs0mg"},{"bike_id":"88fb571a-c17c-4468-aced-c3d219eaba38","system_id":"levelo_inurba_marseille","lat":43.28439,"lon":5.39227,"is_reserved":false,"is_disabled":false,"rental_uris":{"android":"levelo://app?vid=88fb571a-c17c-4468-aced-c3d219eaba38","ios":"levelo://app?vid=88fb571a-c17c-4468-aced-c3d219eaba38"},"vehicle_type_id":"4","last_reported":1745525490,"current_range_meters":14400,"station_id":"ce4bhoh2rcd13ifvqh5g","pricing_plan_id":"cebpf4jnsgd1na2vs0mg"},{"bike_id":"0a59e8a7-cb60-4cfe-b513-c5319c405caa","system_id":"levelo_inurba_marseille","lat":43.27484,"lon":5.42449,"is_reserved":false,"is_disabled":false,"rental_uris":{"android":"levelo://app?vid=0a59e8a7-cb60-4cfe-b513-c5319c405caa","ios":"levelo://app?vid=0a59e8a7-cb60-4cfe-b513-c5319c405caa"},"vehicle_type_id":"4","last_reported":1745525490,"current_range_meters":14400,"station_id":"ce4bhn92rcd13ifvqgrg","pricing_plan_id":"cebpf4jnsgd1na2vs0mg"},{"bike_id":"1e41f8c3-3569-4425-a5e9-2dbf9dfee337","system_id":"levelo_inurba_marseille","lat":43.31116,"lon":5.37762,"is_reserved":false,"is_disabled":false,"rental_uris":{"android":"levelo://app?vid=1e41f8c3-3569-4425-a5e9-2dbf9dfee337","ios":"levelo://app?vid=1e41f8c3-3569-4425-a5e9-2dbf9dfee337"},"vehicle_type_id":"4","last_reported":1745525490,"current_range_meters":14800,"station_id":"ce4bgt92rcd13ifvqcg0","pricing_plan_id":"cebpf4jnsgd1na2vs0mg"},{"bike_id":"5f34ad22-5e6e-4c21-9523-8c904582233c","system_id":"levelo_inurba_marseille","lat":43.23968,"lon":5.36622,"is_reserved":false,"is_disabled":false,"rental_uris":{"android":"levelo://app?vid=5f34ad22-5e6e-4c21-9523-8c904582233c","ios":"levelo://app?vid=5f34ad22-5e6e-4c21-9523-8c904582233c"},"vehicle_type_id":"4","last_reported":1745525490,"current_range_meters":14800,"station_id":"ce4bhi12rcd13ifvqfp0","pricing_plan_id":"cebpf4jnsgd1na2vs0mg"},{"bike_id":"1a9b9ba2-6e5a-4697-beb7-5c65923a8b43","system_id":"levelo_inurba_marseille","lat":43.26813,"lon":5.39384,"is_reserved":false,"is_disabled":true,"rental_uris":{"android":"levelo://app?vid=1a9b9ba2-6e5a-4697-beb7-5c65923a8b43","ios":"levelo://app?vid=1a9b9ba2-6e5a-4697-beb7-5c65923a8b43"},"vehicle_type_id":"4","last_reported":1745525490,"current_range_meters":15200,"station_id":"ce4bhh12rcd13ifvqfg0","pricing_plan_id":"cebpf4jnsgd1na2vs0mg"},{"bike_id":"fa87f18e-33e5-43a8-b571-61486b34ddd5","system_id":"levelo_inurba_marseille","lat":43.31056,"lon":5.3837,"is_reserved":false,"is_disabled":false,"rental_uris":{"android":"levelo://app?vid=fa87f18e-33e5-43a8-b571-61486b34ddd5","ios":"levelo://app?vid=fa87f18e-33e5-43a8-b571-61486b34ddd5"},"vehicle_type_id":"4","last_reported":1745525490,"current_range_meters":14800,"station_id":"ce4bgv92rcd13ifvqcr0","pricing_plan_id":"cebpf4jnsgd1na2vs0mg"},{"bike_id":"24d894ab-7267-4b40-99af-b1bffdb7623b","system_id":"levelo_inurba_marseille","lat":43.304137,"lon":5.41284,"is_reserved":false,"is_disabled":false,"rental_uris":{"android":"levelo://app?vid=24d894ab-7267-4b40-99af-b1bffdb7623b","ios":"levelo://app?vid=24d894ab-7267-4b40-99af-b1bffdb7623b"},"vehicle_type_id":"4","last_reported":1745525490,"current_range_meters":14800,"station_id":"ce4bhop2rcd13ifvqh8g","pricing_plan_id":"cebpf4jnsgd1na2vs0mg"},{"bike_id":"8c30a2a8-45da-430a-9f82-c7c737fea7e2","system_id":"levelo_inurba_marseille","lat":43.23964,"lon":5.3663,"is_reserved":false,"is_disabled":false,"rental_uris":{"android":"levelo://app?vid=8c30a2a8-45da-430a-9f82-c7c737fea7e2","ios":"levelo://app?vid=8c30a2a8-45da-430a-9f82-c7c737fea7e2"},"vehicle_type_id":"4","last_reported":1745525490,"current_range_meters":14800,"station_id":"ce4bhi12rcd13ifvqfp0","pricing_plan_id":"cebpf4jnsgd1na2vs0mg"},{"bike_id":"2b920561-b90d-45d5-8e87-e9c2b00538e8","system_id":"levelo_inurba_marseille","lat":43.287,"lon":5.37404,"is_reserved":false,"is_disabled":false,"rental_uris":{"android":"levelo://app?vid=2b920561-b90d-45d5-8e87-e9c2b00538e8","ios":"levelo://app?vid=2b920561-b90d-45d5-8e87-e9c2b00538e8"},"vehicle_type_id":"4","last_reported":1745525490,"current_range_meters":14800,"station_id":"ce4bh3p2rcd13ifvqdq0","pricing_plan_id":"cebpf4jnsgd1na2vs0mg"},{"bike_id":"de7e6942-0598-41fd-8793-9e15af67f7d0","system_id":"levelo_inurba_marseille","lat":43.27942,"lon":5.38738,"is_reserved":false,"is_disabled":false,"rental_uris":{"android":"levelo://app?vid=de7e6942-0598-41fd-8793-9e15af67f7d0","ios":"levelo://app?vid=de7e6942-0598-41fd-8793-9e15af67f7d0"},"vehicle_type_id":"4","last_reported":1745525490,"current_range_meters":14800,"station_id":"ce4bhg12rcd13ifvqf80","pricing_plan_id":"cebpf4jnsgd1na2vs0mg"},{"bike_id":"ec30c27c-48ca-44b5-b64c-3dd3dfeb5f53","system_id":"levelo_inurba_marseille","lat":43.23955,"lon":5.36646,"is_reserved":false,"is_disabled":false,"rental_uris":{"android":"levelo://app?vid=ec30c27c-48ca-44b5-b64c-3dd3dfeb5f53","ios":"levelo://app?vid=ec30c27c-48ca-44b5-b64c-3dd3dfeb5f53"},"vehicle_type_id":"4","last_reported":1745525490,"current_range_meters":14800,"station_id":"ce4bhi12rcd13ifvqfp0","pricing_plan_id":"cebpf4jnsgd1na2vs0mg"},{"bike_id":"cedb532b-0606-4458-a20c-f7f951f69830","system_id":"levelo_inurba_marseille","lat":43.25061,"lon":5.3954,"is_reserved":false,"is_disabled":false,"rental_uris":{"android":"levelo://app?vid=cedb532b-0606-4458-a20c-f7f951f69830","ios":"levelo://app?vid=cedb532b-0606-4458-a20c-f7f951f69830"},"vehicle_type_id":"4","last_reported":1745525490,"current_range_meters":15200,"station_id":"ce4bhm12rcd13ifvqgkg","pricing_plan_id":"cebpf4jnsgd1na2vs0mg"},{"bike_id":"3857c1c5-eeaa-4322-86c6-ca59b85e4a47","system_id":"levelo_inurba_marseille","lat":43.25493,"lon":5.37648,"is_reserved":false,"is_disabled":false,"rental_uris":{"android":"levelo://app?vid=3857c1c5-eeaa-4322-86c6-ca59b85e4a47","ios":"levelo://app?vid=3857c1c5-eeaa-4322-86c6-ca59b85e4a47"},"vehicle_type_id":"4","last_reported":1745525490,"current_range_meters":14800,"station_id":"ce4bhh12rcd13ifvqff0","pricing_plan_id":"cebpf4jnsgd1na2vs0mg"},{"bike_id":"233533a4-c3ce-40aa-82c7-ba798099eb05","system_id":"levelo_inurba_marseille","lat":43.26952,"lon":5.38627,"is_reserved":false,"is_disabled":false,"rental_uris":{"android":"levelo://app?vid=233533a4-c3ce-40aa-82c7-ba798099eb05","ios":"levelo://app?vid=233533a4-c3ce-40aa-82c7-ba798099eb05"},"vehicle_type_id":"4","last_reported":1745525490,"current_range_meters":14800,"station_id":"ce4bhh92rcd13ifvqfh0","pricing_plan_id":"cebpf4jnsgd1na2vs0mg"},{"bike_id":"20ce3515-5ecd-44b3-97dc-048644f98e43","system_id":"levelo_inurba_marseille","lat":43.2894,"lon":5.36635,"is_reserved":false,"is_disabled":false,"rental_uris":{"android":"levelo://app?vid=20ce3515-5ecd-44b3-97dc-048644f98e43","ios":"levelo://app?vid=20ce3515-5ecd-44b3-97dc-048644f98e43"},"vehicle_type_id":"4","last_reported":1745525490,"current_range_meters":16000,"station_id":"ce4bhap2rcd13ifvqek0","pricing_plan_id":"cebpf4jnsgd1na2vs0mg"},{"bike_id":"d03255e3-614d-4a7f-a363-2fa3dc4df305","system_id":"levelo_inurba_marseille","lat":43.29531,"lon":5.38551,"is_reserved":false,"is_disabled":false,"rental_uris":{"android":"levelo://app?vid=d03255e3-614d-4a7f-a363-2fa3dc4df305","ios":"levelo://app?vid=d03255e3-614d-4a7f-a363-2fa3dc4df305"},"vehicle_type_id":"4","last_reported":1745525490,"current_range_meters":16000,"station_id":"ce4bgv92rcd13ifvqcq0","pricing_plan_id":"cebpf4jnsgd1na2vs0mg"},{"bike_id":"3fdce82f-9db8-412b-b7fa-c7a201ad884f","system_id":"levelo_inurba_marseille","lat":43.29553,"lon":5.42293,"is_reserved":false,"is_disabled":false,"rental_uris":{"android":"levelo://app?vid=3fdce82f-9db8-412b-b7fa-c7a201ad884f","ios":"levelo://app?vid=3fdce82f-9db8-412b-b7fa-c7a201ad884f"},"vehicle_type_id":"4","last_reported":1745525490,"current_range_meters":16000,"station_id":"ce4bhph2rcd13ifvqhdg","pricing_plan_id":"cebpf4jnsgd1na2vs0mg"},{"bike_id":"5c006ed8-57a7-482d-a255-403c40fa7edf","system_id":"levelo_inurba_marseille","lat":43.29536,"lon":5.39012,"is_reserved":false,"is_disabled":false,"rental_uris":{"android":"levelo://app?vid=5c006ed8-57a7-482d-a255-403c40fa7edf","ios":"levelo://app?vid=5c006ed8-57a7-482d-a255-403c40fa7edf"},"vehicle_type_id":"4","last_reported":1745525490,"current_range_meters":16000,"station_id":"ce4bh3p2rcd13ifvqdp0","pricing_plan_id":"cebpf4jnsgd1na2vs0mg"},{"bike_id":"00778650-e08a-4011-95d9-fa9e1b3ec789","system_id":"levelo_inurba_marseille","lat":43.28028,"lon":5.3696,"is_reserved":false,"is_disabled":false,"rental_uris":{"android":"levelo://app?vid=00778650-e08a-4011-95d9-fa9e1b3ec789","ios":"levelo://app?vid=00778650-e08a-4011-95d9-fa9e1b3ec789"},"vehicle_type_id":"4","last_reported":1745525490,"current_range_meters":16000,"station_id":"ce4bha12rcd13ifvqef0","pricing_plan_id":"cebpf4jnsgd1na2vs0mg"},{"bike_id":"b019054b-f1fb-4899-bb8f-b3f6bb542d51","system_id":"levelo_inurba_marseille","lat":43.26684,"lon":5.3827,"is_reserved":false,"is_disabled":false,"rental_uris":{"android":"levelo://app?vid=b019054b-f1fb-4899-bb8f-b3f6bb542d51","ios":"levelo://app?vid=b019054b-f1fb-4899-bb8f-b3f6bb542d51"},"vehicle_type_id":"4","last_reported":1745525490,"current_range_meters":16000,"station_id":"ce4bhg92rcd13ifvqf90","pricing_plan_id":"cebpf4jnsgd1na2vs0mg"},{"bike_id":"5c8dde23-03af-4ec7-8c64-b6a7b95cfa5a","system_id":"levelo_inurba_marseille","lat":43.33726,"lon":5.391798,"is_reserved":false,"is_disabled":false,"rental_uris":{"android":"levelo://app?vid=5c8dde23-03af-4ec7-8c64-b6a7b95cfa5a","ios":"levelo://app?vid=5c8dde23-03af-4ec7-8c64-b6a7b95cfa5a"},"vehicle_type_id":"4","last_reported":1745525490,"current_range_meters":16000,"station_id":"ce4bhr92rcd13ifvqhsg","pricing_plan_id":"cebpf4jnsgd1na2vs0mg"},{"bike_id":"844bea76-b19f-49aa-8faf-017738c4a388","system_id":"levelo_inurba_marseille","lat":43.27921,"lon":5.39578,"is_reserved":false,"is_disabled":false,"rental_uris":{"android":"levelo://app?vid=844bea76-b19f-49aa-8faf-017738c4a388","ios":"levelo://app?vid=844bea76-b19f-49aa-8faf-017738c4a388"},"vehicle_type_id":"4","last_reported":1745525490,"current_range_meters":16000,"station_id":"ce4bhf92rcd13ifvqf40","pricing_plan_id":"cebpf4jnsgd1na2vs0mg"},{"bike_id":"16f1597b-1ef4-47b7-8481-7db21ee578d6","system_id":"levelo_inurba_marseille","lat":43.27427,"lon":5.39412,"is_reserved":false,"is_disabled":false,"rental_uris":{"android":"levelo://app?vid=16f1597b-1ef4-47b7-8481-7db21ee578d6","ios":"levelo://app?vid=16f1597b-1ef4-47b7-8481-7db21ee578d6"},"vehicle_type_id":"4","last_reported":1745525490,"current_range_meters":16000,"station_id":"ce4bhdp2rcd13ifvqf20","pricing_plan_id":"cebpf4jnsgd1na2vs0mg"},{"bike_id":"927a350a-9924-44cb-a179-3057864421f2","system_id":"levelo_inurba_marseille","lat":43.30583,"lon":5.37249,"is_reserved":false,"is_disabled":false,"rental_uris":{"android":"levelo://app?vid=927a350a-9924-44cb-a179-3057864421f2","ios":"levelo://app?vid=927a350a-9924-44cb-a179-3057864421f2"},"vehicle_type_id":"4","last_reported":1745525490,"current_range_meters":16400,"station_id":"ce4bgqh2rcd13ifvqc4g","pricing_plan_id":"cebpf4jnsgd1na2vs0mg"},{"bike_id":"20918796-742d-4700-a494-456dd0a2ef0e","system_id":"levelo_inurba_marseille","lat":43.24076,"lon":5.37765,"is_reserved":false,"is_disabled":false,"rental_uris":{"android":"levelo://app?vid=20918796-742d-4700-a494-456dd0a2ef0e","ios":"levelo://app?vid=20918796-742d-4700-a494-456dd0a2ef0e"},"vehicle_type_id":"4","last_reported":1745525490,"current_range_meters":16800,"station_id":"ce4bhnp2rcd13ifvqgvg","pricing_plan_id":"cebpf4jnsgd1na2vs0mg"},{"bike_id":"0e677427-8d60-4b75-92c0-3cc225e20f0d","system_id":"levelo_inurba_marseille","lat":43.2903,"lon":5.38635,"is_reserved":false,"is_disabled":false,"rental_uris":{"android":"levelo://app?vid=0e677427-8d60-4b75-92c0-3cc225e20f0d","ios":"levelo://app?vid=0e677427-8d60-4b75-92c0-3cc225e20f0d"},"vehicle_type_id":"4","last_reported":1745525490,"current_range_meters":16400,"station_id":"ce4bh4p2rcd13ifvqe0g","pricing_plan_id":"cebpf4jnsgd1na2vs0mg"},{"bike_id":"3cd7dbd2-cba5-4351-8314-f5391e42b8fd","system_id":"levelo_inurba_marseille","lat":43.29423,"lon":5.39758,"is_reserved":false,"is_disabled":false,"rental_uris":{"android":"levelo://app?vid=3cd7dbd2-cba5-4351-8314-f5391e42b8fd","ios":"levelo://app?vid=3cd7dbd2-cba5-4351-8314-f5391e42b8fd"},"vehicle_type_id":"4","last_reported":1745525490,"current_range_meters":16400,"station_id":"ce4bh3h2rcd13ifvqdo0","pricing_plan_id":"cebpf4jnsgd1na2vs0mg"},{"bike_id":"7fc5ed43-b2c3-4cf7-b081-488a7cbcc12f","system_id":"levelo_inurba_marseille","lat":43.33042,"lon":5.39,"is_reserved":false,"is_disabled":false,"rental_uris":{"android":"levelo://app?vid=7fc5ed43-b2c3-4cf7-b081-488a7cbcc12f","ios":"levelo://app?vid=7fc5ed43-b2c3-4cf7-b081-488a7cbcc12f"},"vehicle_type_id":"4","last_reported":1745525490,"current_range_meters":16400,"station_id":"ce4bhr92rcd13ifvqhrg","pricing_plan_id":"cebpf4jnsgd1na2vs0mg"},{"bike_id":"0ab1a93a-4e0a-46c3-9fa5-5bfb4d31bea0","system_id":"levelo_inurba_marseille","lat":43.29904,"lon":5.38888,"is_reserved":false,"is_disabled":false,"rental_uris":{"android":"levelo://app?vid=0ab1a93a-4e0a-46c3-9fa5-5bfb4d31bea0","ios":"levelo://app?vid=0ab1a93a-4e0a-46c3-9fa5-5bfb4d31bea0"},"vehicle_type_id":"4","last_reported":1745525490,"current_range_meters":16400,"station_id":"ce4bh392rcd13ifvqdl0","pricing_plan_id":"cebpf4jnsgd1na2vs0mg"},{"bike_id":"03ec5728-5a8d-475c-be69-d63e54c8d683","system_id":"levelo_inurba_marseille","lat":43.324554,"lon":5.366999,"is_reserved":false,"is_disabled":false,"rental_uris":{"android":"levelo://app?vid=03ec5728-5a8d-475c-be69-d63e54c8d683","ios":"levelo://app?vid=03ec5728-5a8d-475c-be69-d63e54c8d683"},"vehicle_type_id":"4","last_reported":1745525490,"current_range_meters":16800,"station_id":"","pricing_plan_id":"cebpf4jnsgd1na2vs0mg"},{"bike_id":"5cff3207-23ad-406f-a81e-d6e191b09a6b","system_id":"levelo_inurba_marseille","lat":43.26553,"lon":5.37283,"is_reserved":false,"is_disabled":false,"rental_uris":{"android":"levelo://app?vid=5cff3207-23ad-406f-a81e-d6e191b09a6b","ios":"levelo://app?vid=5cff3207-23ad-406f-a81e-d6e191b09a6b"},"vehicle_type_id":"4","last_reported":1745525490,"current_range_meters":16800,"station_id":"ce4bhg12rcd13ifvqf70","pricing_plan_id":"cebpf4jnsgd1na2vs0mg"},{"bike_id":"e2dcabcf-64d8-4394-bb9a-ff877bee611a","system_id":"levelo_inurba_marseille","lat":43.32053,"lon":5.41519,"is_reserved":false,"is_disabled":false,"rental_uris":{"android":"levelo://app?vid=e2dcabcf-64d8-4394-bb9a-ff877bee611a","ios":"levelo://app?vid=e2dcabcf-64d8-4394-bb9a-ff877bee611a"},"vehicle_type_id":"4","last_reported":1745525490,"current_range_meters":16800,"station_id":"ce4bhq92rcd13ifvqhkg","pricing_plan_id":"cebpf4jnsgd1na2vs0mg"},{"bike_id":"a5b807e2-0dcd-4c88-a997-bb37c582102d","system_id":"levelo_inurba_marseille","lat":43.30419,"lon":5.37206,"is_reserved":false,"is_disabled":false,"rental_uris":{"android":"levelo://app?vid=a5b807e2-0dcd-4c88-a997-bb37c582102d","ios":"levelo://app?vid=a5b807e2-0dcd-4c88-a997-bb37c582102d"},"vehicle_type_id":"4","last_reported":1745525490,"current_range_meters":16800,"station_id":"","pricing_plan_id":"cebpf4jnsgd1na2vs0mg"},{"bike_id":"539309ff-ced1-4291-94c1-a0893d75bc98","system_id":"levelo_inurba_marseille","lat":43.31883,"lon":5.40743,"is_reserved":false,"is_disabled":false,"rental_uris":{"android":"levelo://app?vid=539309ff-ced1-4291-94c1-a0893d75bc98","ios":"levelo://app?vid=539309ff-ced1-4291-94c1-a0893d75bc98"},"vehicle_type_id":"4","last_reported":1745525490,"current_range_meters":17200,"station_id":"ce4bhq12rcd13ifvqhig","pricing_plan_id":"cebpf4jnsgd1na2vs0mg"},{"bike_id":"5ea92885-4784-424e-bbd0-fe10a23b8f63","system_id":"levelo_inurba_marseille","lat":43.24652,"lon":5.38161,"is_reserved":false,"is_disabled":false,"rental_uris":{"android":"levelo://app?vid=5ea92885-4784-424e-bbd0-fe10a23b8f63","ios":"levelo://app?vid=5ea92885-4784-424e-bbd0-fe10a23b8f63"},"vehicle_type_id":"4","last_reported":1745525490,"current_range_meters":16800,"station_id":"ce4bhih2rcd13ifvqfr0","pricing_plan_id":"cebpf4jnsgd1na2vs0mg"},{"bike_id":"c3721006-7b34-4ca8-be85-027727c3f2af","system_id":"levelo_inurba_marseille","lat":43.28454,"lon":5.38456,"is_reserved":false,"is_disabled":true,"rental_uris":{"android":"levelo://app?vid=c3721006-7b34-4ca8-be85-027727c3f2af","ios":"levelo://app?vid=c3721006-7b34-4ca8-be85-027727c3f2af"},"vehicle_type_id":"4","last_reported":1745525490,"current_range_meters":16800,"station_id":"ce4bh512rcd13ifvqe3g","pricing_plan_id":"cebpf4jnsgd1na2vs0mg"},{"bike_id":"389081e5-a59f-4bb8-ae5b-d14b07648eda","system_id":"levelo_inurba_marseille","lat":43.25105,"lon":5.4033,"is_reserved":false,"is_disabled":true,"rental_uris":{"android":"levelo://app?vid=389081e5-a59f-4bb8-ae5b-d14b07648eda","ios":"levelo://app?vid=389081e5-a59f-4bb8-ae5b-d14b07648eda"},"vehicle_type_id":"4","last_reported":1745525490,"current_range_meters":16800,"station_id":"ce4bhlh2rcd13ifvqgig","pricing_plan_id":"cebpf4jnsgd1na2vs0mg"},{"bike_id":"b4a005c4-1bcb-41d0-9af1-69cce2fdedda","system_id":"levelo_inurba_marseille","lat":43.31131,"lon":5.37757,"is_reserved":false,"is_disabled":false,"rental_uris":{"android":"levelo://app?vid=b4a005c4-1bcb-41d0-9af1-69cce2fdedda","ios":"levelo://app?vid=b4a005c4-1bcb-41d0-9af1-69cce2fdedda"},"vehicle_type_id":"4","last_reported":1745525490,"current_range_meters":16800,"station_id":"ce4bgt92rcd13ifvqcg0","pricing_plan_id":"cebpf4jnsgd1na2vs0mg"},{"bike_id":"9e9e4114-a05a-4c5e-9f96-6c201042ecfd","system_id":"levelo_inurba_marseille","lat":43.32357,"lon":5.38892,"is_reserved":false,"is_disabled":false,"rental_uris":{"android":"levelo://app?vid=9e9e4114-a05a-4c5e-9f96-6c201042ecfd","ios":"levelo://app?vid=9e9e4114-a05a-4c5e-9f96-6c201042ecfd"},"vehicle_type_id":"4","last_reported":1745525490,"current_range_meters":17200,"station_id":"ce4bhqp2rcd13ifvqhog","pricing_plan_id":"cebpf4jnsgd1na2vs0mg"},{"bike_id":"7597f9f7-581e-4aa1-9ea0-a72928416a0e","system_id":"levelo_inurba_marseille","lat":43.303106,"lon":5.392009,"is_reserved":false,"is_disabled":true,"rental_uris":{"android":"levelo://app?vid=7597f9f7-581e-4aa1-9ea0-a72928416a0e","ios":"levelo://app?vid=7597f9f7-581e-4aa1-9ea0-a72928416a0e"},"vehicle_type_id":"4","last_reported":1745525490,"current_range_meters":17200,"station_id":"ce4bgkh2rcd13ifvqbk0","pricing_plan_id":"cebpf4jnsgd1na2vs0mg"},{"bike_id":"29a99dc7-5c41-4d46-bbde-d7385d4139f2","system_id":"levelo_inurba_marseille","lat":43.28723,"lon":5.37947,"is_reserved":false,"is_disabled":false,"rental_uris":{"android":"levelo://app?vid=29a99dc7-5c41-4d46-bbde-d7385d4139f2","ios":"levelo://app?vid=29a99dc7-5c41-4d46-bbde-d7385d4139f2"},"vehicle_type_id":"4","last_reported":1745525490,"current_range_meters":16800,"station_id":"ce4bh9p2rcd13ifvqec0","pricing_plan_id":"cebpf4jnsgd1na2vs0mg"},{"bike_id":"18afcdc5-8c2f-4e59-8909-ae5a72ac30af","system_id":"levelo_inurba_marseille","lat":43.27208,"lon":5.39187,"is_reserved":false,"is_disabled":false,"rental_uris":{"android":"levelo://app?vid=18afcdc5-8c2f-4e59-8909-ae5a72ac30af","ios":"levelo://app?vid=18afcdc5-8c2f-4e59-8909-ae5a72ac30af"},"vehicle_type_id":"4","last_reported":1745525490,"current_range_meters":17200,"station_id":"ce4bhhp2rcd13ifvqfm0","pricing_plan_id":"cebpf4jnsgd1na2vs0mg"},{"bike_id":"35e0752c-afe6-4cae-84a6-d74556a78578","system_id":"levelo_inurba_marseille","lat":43.28938,"lon":5.36651,"is_reserved":false,"is_disabled":false,"rental_uris":{"android":"levelo://app?vid=35e0752c-afe6-4cae-84a6-d74556a78578","ios":"levelo://app?vid=35e0752c-afe6-4cae-84a6-d74556a78578"},"vehicle_type_id":"4","last_reported":1745525490,"current_range_meters":17200,"station_id":"ce4bhap2rcd13ifvqek0","pricing_plan_id":"cebpf4jnsgd1na2vs0mg"},{"bike_id":"4fc48468-6637-4c0d-a8aa-683ddf6a7f6f","system_id":"levelo_inurba_marseille","lat":43.30892,"lon":5.37208,"is_reserved":false,"is_disabled":false,"rental_uris":{"android":"levelo://app?vid=4fc48468-6637-4c0d-a8aa-683ddf6a7f6f","ios":"levelo://app?vid=4fc48468-6637-4c0d-a8aa-683ddf6a7f6f"},"vehicle_type_id":"4","last_reported":1745525490,"current_range_meters":16800,"station_id":"ce4bguh2rcd13ifvqckg","pricing_plan_id":"cebpf4jnsgd1na2vs0mg"},{"bike_id":"29325c78-e5e1-4a1e-9181-99949328024e","system_id":"levelo_inurba_marseille","lat":43.28717,"lon":5.37927,"is_reserved":false,"is_disabled":false,"rental_uris":{"android":"levelo://app?vid=29325c78-e5e1-4a1e-9181-99949328024e","ios":"levelo://app?vid=29325c78-e5e1-4a1e-9181-99949328024e"},"vehicle_type_id":"4","last_reported":1745525490,"current_range_meters":17200,"station_id":"ce4bh9p2rcd13ifvqec0","pricing_plan_id":"cebpf4jnsgd1na2vs0mg"},{"bike_id":"38a54769-e8ac-41ad-bccc-10712900ee1c","system_id":"levelo_inurba_marseille","lat":43.26226,"lon":5.40449,"is_reserved":false,"is_disabled":false,"rental_uris":{"android":"levelo://app?vid=38a54769-e8ac-41ad-bccc-10712900ee1c","ios":"levelo://app?vid=38a54769-e8ac-41ad-bccc-10712900ee1c"},"vehicle_type_id":"4","last_reported":1745525490,"current_range_meters":17200,"station_id":"ce4bhmh2rcd13ifvqgmg","pricing_plan_id":"cebpf4jnsgd1na2vs0mg"},{"bike_id":"f437bbcd-3bc3-4220-9dfe-08d3eac84ba1","system_id":"levelo_inurba_marseille","lat":43.28617,"lon":5.3511,"is_reserved":false,"is_disabled":true,"rental_uris":{"android":"levelo://app?vid=f437bbcd-3bc3-4220-9dfe-08d3eac84ba1","ios":"levelo://app?vid=f437bbcd-3bc3-4220-9dfe-08d3eac84ba1"},"vehicle_type_id":"4","last_reported":1745525490,"current_range_meters":17600,"station_id":"ce4bhch2rcd13ifvqeug","pricing_plan_id":"cebpf4jnsgd1na2vs0mg"},{"bike_id":"0bfff189-ec6a-4439-b345-e9dd168ab867","system_id":"levelo_inurba_marseille","lat":43.33727,"lon":5.39171,"is_reserved":false,"is_disabled":false,"rental_uris":{"android":"levelo://app?vid=0bfff189-ec6a-4439-b345-e9dd168ab867","ios":"levelo://app?vid=0bfff189-ec6a-4439-b345-e9dd168ab867"},"vehicle_type_id":"4","last_reported":1745525490,"current_range_meters":17600,"station_id":"ce4bhr92rcd13ifvqhsg","pricing_plan_id":"cebpf4jnsgd1na2vs0mg"},{"bike_id":"887b985f-c85e-49ba-b470-77d7a2126763","system_id":"levelo_inurba_marseille","lat":43.29025,"lon":5.399928,"is_reserved":false,"is_disabled":false,"rental_uris":{"android":"levelo://app?vid=887b985f-c85e-49ba-b470-77d7a2126763","ios":"levelo://app?vid=887b985f-c85e-49ba-b470-77d7a2126763"},"vehicle_type_id":"4","last_reported":1745525490,"current_range_meters":17600,"station_id":"ce4bh392rcd13ifvqdm0","pricing_plan_id":"cebpf4jnsgd1na2vs0mg"},{"bike_id":"e94d0af5-5636-4084-8f82-fe0b8c3cb48f","system_id":"levelo_inurba_marseille","lat":43.29238,"lon":5.38459,"is_reserved":false,"is_disabled":false,"rental_uris":{"android":"levelo://app?vid=e94d0af5-5636-4084-8f82-fe0b8c3cb48f","ios":"levelo://app?vid=e94d0af5-5636-4084-8f82-fe0b8c3cb48f"},"vehicle_type_id":"4","last_reported":1745525490,"current_range_meters":18000,"station_id":"ce4bh692rcd13ifvqea0","pricing_plan_id":"cebpf4jnsgd1na2vs0mg"},{"bike_id":"9a1c0be7-bd1a-4081-ab84-3ef05258b407","system_id":"levelo_inurba_marseille","lat":43.22922,"lon":5.35402,"is_reserved":false,"is_disabled":false,"rental_uris":{"android":"levelo://app?vid=9a1c0be7-bd1a-4081-ab84-3ef05258b407","ios":"levelo://app?vid=9a1c0be7-bd1a-4081-ab84-3ef05258b407"},"vehicle_type_id":"4","last_reported":1745525490,"current_range_meters":18000,"station_id":"cpo3532slgdg3j2ikp40","pricing_plan_id":"cebpf4jnsgd1na2vs0mg"},{"bike_id":"a9784e4d-72f3-45a0-bc5c-6a48517d28d6","system_id":"levelo_inurba_marseille","lat":43.33,"lon":5.39051,"is_reserved":false,"is_disabled":false,"rental_uris":{"android":"levelo://app?vid=a9784e4d-72f3-45a0-bc5c-6a48517d28d6","ios":"levelo://app?vid=a9784e4d-72f3-45a0-bc5c-6a48517d28d6"},"vehicle_type_id":"4","last_reported":1745525490,"current_range_meters":18000,"station_id":"ce4bhr92rcd13ifvqhrg","pricing_plan_id":"cebpf4jnsgd1na2vs0mg"},{"bike_id":"d94f6bc9-687c-4017-baa9-8abba0dd7863","system_id":"levelo_inurba_marseille","lat":43.29524,"lon":5.39042,"is_reserved":false,"is_disabled":false,"rental_uris":{"android":"levelo://app?vid=d94f6bc9-687c-4017-baa9-8abba0dd7863","ios":"levelo://app?vid=d94f6bc9-687c-4017-baa9-8abba0dd7863"},"vehicle_type_id":"4","last_reported":1745525490,"current_range_meters":18000,"station_id":"ce4bh3p2rcd13ifvqdp0","pricing_plan_id":"cebpf4jnsgd1na2vs0mg"},{"bike_id":"230a4b18-f598-423a-928c-a723c4d4cf96","system_id":"levelo_inurba_marseille","lat":43.27374,"lon":5.36264,"is_reserved":false,"is_disabled":false,"rental_uris":{"android":"levelo://app?vid=230a4b18-f598-423a-928c-a723c4d4cf96","ios":"levelo://app?vid=230a4b18-f598-423a-928c-a723c4d4cf96"},"vehicle_type_id":"4","last_reported":1745525490,"current_range_meters":18000,"station_id":"ce4bhbh2rcd13ifvqeo0","pricing_plan_id":"cebpf4jnsgd1na2vs0mg"},{"bike_id":"e8d40757-8d24-4b37-b53d-758f69400033","system_id":"levelo_inurba_marseille","lat":43.29256,"lon":5.38435,"is_reserved":false,"is_disabled":false,"rental_uris":{"android":"levelo://app?vid=e8d40757-8d24-4b37-b53d-758f69400033","ios":"levelo://app?vid=e8d40757-8d24-4b37-b53d-758f69400033"},"vehicle_type_id":"4","last_reported":1745525490,"current_range_meters":18000,"station_id":"ce4bh692rcd13ifvqea0","pricing_plan_id":"cebpf4jnsgd1na2vs0mg"},{"bike_id":"02a04312-9006-48f2-97a9-a32820efc417","system_id":"levelo_inurba_marseille","lat":43.31696,"lon":5.37782,"is_reserved":false,"is_disabled":false,"rental_uris":{"android":"levelo://app?vid=02a04312-9006-48f2-97a9-a32820efc417","ios":"levelo://app?vid=02a04312-9006-48f2-97a9-a32820efc417"},"vehicle_type_id":"4","last_reported":1745525490,"current_range_meters":18000,"station_id":"ce4bgth2rcd13ifvqch0","pricing_plan_id":"cebpf4jnsgd1na2vs0mg"},{"bike_id":"08017c5e-0ebd-49ed-a7d1-dae38f57908c","system_id":"levelo_inurba_marseille","lat":43.32662,"lon":5.41014,"is_reserved":false,"is_disabled":false,"rental_uris":{"android":"levelo://app?vid=08017c5e-0ebd-49ed-a7d1-dae38f57908c","ios":"levelo://app?vid=08017c5e-0ebd-49ed-a7d1-dae38f57908c"},"vehicle_type_id":"4","last_reported":1745525490,"current_range_meters":18000,"station_id":"ce4bhpp2rcd13ifvqhgg","pricing_plan_id":"cebpf4jnsgd1na2vs0mg"},{"bike_id":"e87caaec-7183-442c-80cd-f167e84201e8","system_id":"levelo_inurba_marseille","lat":43.290297,"lon":5.375581,"is_reserved":false,"is_disabled":false,"rental_uris":{"android":"levelo://app?vid=e87caaec-7183-442c-80cd-f167e84201e8","ios":"levelo://app?vid=e87caaec-7183-442c-80cd-f167e84201e8"},"vehicle_type_id":"4","last_reported":1745525490,"current_range_meters":18000,"station_id":"ce4bh692rcd13ifvqe90","pricing_plan_id":"cebpf4jnsgd1na2vs0mg"},{"bike_id":"c626c93a-7b05-43e0-8c99-3e68e87e1d65","system_id":"levelo_inurba_marseille","lat":43.29276,"lon":5.40134,"is_reserved":false,"is_disabled":false,"rental_uris":{"android":"levelo://app?vid=c626c93a-7b05-43e0-8c99-3e68e87e1d65","ios":"levelo://app?vid=c626c93a-7b05-43e0-8c99-3e68e87e1d65"},"vehicle_type_id":"4","last_reported":1745525490,"current_range_meters":18800,"station_id":"ce4bh312rcd13ifvqdk0","pricing_plan_id":"cebpf4jnsgd1na2vs0mg"},{"bike_id":"f172e360-2d4c-47b3-a510-e783de8ede16","system_id":"levelo_inurba_marseille","lat":43.23189,"lon":5.39967,"is_reserved":false,"is_disabled":false,"rental_uris":{"android":"levelo://app?vid=f172e360-2d4c-47b3-a510-e783de8ede16","ios":"levelo://app?vid=f172e360-2d4c-47b3-a510-e783de8ede16"},"vehicle_type_id":"4","last_reported":1745525490,"current_range_meters":18800,"station_id":"ce4bhn12rcd13ifvqgqg","pricing_plan_id":"cebpf4jnsgd1na2vs0mg"},{"bike_id":"cc9db42a-b10f-49eb-9a07-58c008cff139","system_id":"levelo_inurba_marseille","lat":43.28487,"lon":5.38557,"is_reserved":false,"is_disabled":false,"rental_uris":{"android":"levelo://app?vid=cc9db42a-b10f-49eb-9a07-58c008cff139","ios":"levelo://app?vid=cc9db42a-b10f-49eb-9a07-58c008cff139"},"vehicle_type_id":"4","last_reported":1745525490,"current_range_meters":18800,"station_id":"ce4bh8p2rcd13ifvqeb0","pricing_plan_id":"cebpf4jnsgd1na2vs0mg"},{"bike_id":"99105336-fb95-430d-8e92-cab64155a19b","system_id":"levelo_inurba_marseille","lat":43.29241,"lon":5.36623,"is_reserved":false,"is_disabled":false,"rental_uris":{"android":"levelo://app?vid=99105336-fb95-430d-8e92-cab64155a19b","ios":"levelo://app?vid=99105336-fb95-430d-8e92-cab64155a19b"},"vehicle_type_id":"4","last_reported":1745525490,"current_range_meters":18800,"station_id":"","pricing_plan_id":"cebpf4jnsgd1na2vs0mg"},{"bike_id":"07620235-6635-4de3-96f0-bb9512464c31","system_id":"levelo_inurba_marseille","lat":43.29031,"lon":5.38644,"is_reserved":false,"is_disabled":false,"rental_uris":{"android":"levelo://app?vid=07620235-6635-4de3-96f0-bb9512464c31","ios":"levelo://app?vid=07620235-6635-4de3-96f0-bb9512464c31"},"vehicle_type_id":"4","last_reported":1745525490,"current_range_meters":18800,"station_id":"ce4bh4p2rcd13ifvqe0g","pricing_plan_id":"cebpf4jnsgd1na2vs0mg"},{"bike_id":"52baa603-c105-4442-a64f-b4bdf79d05cb","system_id":"levelo_inurba_marseille","lat":43.28721,"lon":5.36079,"is_reserved":false,"is_disabled":false,"rental_uris":{"android":"levelo://app?vid=52baa603-c105-4442-a64f-b4bdf79d05cb","ios":"levelo://app?vid=52baa603-c105-4442-a64f-b4bdf79d05cb"},"vehicle_type_id":"4","last_reported":1745525490,"current_range_meters":18800,"station_id":"cki0cbj6b192h4jlfktg","pricing_plan_id":"cebpf4jnsgd1na2vs0mg"},{"bike_id":"c2a9d8c4-a7b9-4e14-a23e-79c9f73d8c3c","system_id":"levelo_inurba_marseille","lat":43.27813,"lon":5.40716,"is_reserved":false,"is_disabled":false,"rental_uris":{"android":"levelo://app?vid=c2a9d8c4-a7b9-4e14-a23e-79c9f73d8c3c","ios":"levelo://app?vid=c2a9d8c4-a7b9-4e14-a23e-79c9f73d8c3c"},"vehicle_type_id":"4","last_reported":1745525490,"current_range_meters":19200,"station_id":"ce4bhnh2rcd13ifvqgtg","pricing_plan_id":"cebpf4jnsgd1na2vs0mg"},{"bike_id":"829e6027-c98c-4052-9336-7fe801b0bc22","system_id":"levelo_inurba_marseille","lat":43.23137,"lon":5.43718,"is_reserved":false,"is_disabled":true,"rental_uris":{"android":"levelo://app?vid=829e6027-c98c-4052-9336-7fe801b0bc22","ios":"levelo://app?vid=829e6027-c98c-4052-9336-7fe801b0bc22"},"vehicle_type_id":"4","last_reported":1745525490,"current_range_meters":19200,"station_id":"ce4bhmp2rcd13ifvqgog","pricing_plan_id":"cebpf4jnsgd1na2vs0mg"},{"bike_id":"42a7759b-41b0-4ccd-898b-b1896baeebe8","system_id":"levelo_inurba_marseille","lat":43.29884,"lon":5.39734,"is_reserved":false,"is_disabled":false,"rental_uris":{"android":"levelo://app?vid=42a7759b-41b0-4ccd-898b-b1896baeebe8","ios":"levelo://app?vid=42a7759b-41b0-4ccd-898b-b1896baeebe8"},"vehicle_type_id":"4","last_reported":1745525490,"current_range_meters":19200,"station_id":"ce4bh0h2rcd13ifvqd50","pricing_plan_id":"cebpf4jnsgd1na2vs0mg"},{"bike_id":"8f1a38c1-df91-4bdf-9e4e-92ef410aba4f","system_id":"levelo_inurba_marseille","lat":43.21188,"lon":5.35073,"is_reserved":false,"is_disabled":false,"rental_uris":{"android":"levelo://app?vid=8f1a38c1-df91-4bdf-9e4e-92ef410aba4f","ios":"levelo://app?vid=8f1a38c1-df91-4bdf-9e4e-92ef410aba4f"},"vehicle_type_id":"4","last_reported":1745525490,"current_range_meters":19200,"station_id":"st_cvj6sg6p6f1abm77japg","pricing_plan_id":"cebpf4jnsgd1na2vs0mg"},{"bike_id":"96681944-a928-4e4c-bf30-726a747f418a","system_id":"levelo_inurba_marseille","lat":43.29256,"lon":5.38453,"is_reserved":false,"is_disabled":false,"rental_uris":{"android":"levelo://app?vid=96681944-a928-4e4c-bf30-726a747f418a","ios":"levelo://app?vid=96681944-a928-4e4c-bf30-726a747f418a"},"vehicle_type_id":"4","last_reported":1745525490,"current_range_meters":19200,"station_id":"ce4bh692rcd13ifvqea0","pricing_plan_id":"cebpf4jnsgd1na2vs0mg"},{"bike_id":"b9ebb423-1a02-4bd0-af0d-8fc9d87e0d42","system_id":"levelo_inurba_marseille","lat":43.29506,"lon":5.39396,"is_reserved":false,"is_disabled":false,"rental_uris":{"android":"levelo://app?vid=b9ebb423-1a02-4bd0-af0d-8fc9d87e0d42","ios":"levelo://app?vid=b9ebb423-1a02-4bd0-af0d-8fc9d87e0d42"},"vehicle_type_id":"4","last_reported":1745525490,"current_range_meters":19200,"station_id":"ce4bh292rcd13ifvqdf0","pricing_plan_id":"cebpf4jnsgd1na2vs0mg"},{"bike_id":"911b72b6-ba85-4a4a-8436-6acf6b6d217f","system_id":"levelo_inurba_marseille","lat":43.292599,"lon":5.384468,"is_reserved":false,"is_disabled":false,"rental_uris":{"android":"levelo://app?vid=911b72b6-ba85-4a4a-8436-6acf6b6d217f","ios":"levelo://app?vid=911b72b6-ba85-4a4a-8436-6acf6b6d217f"},"vehicle_type_id":"4","last_reported":1745525490,"current_range_meters":19200,"station_id":"ce4bh692rcd13ifvqea0","pricing_plan_id":"cebpf4jnsgd1na2vs0mg"},{"bike_id":"719ea074-3dc1-49c1-8c3a-c32679a86d9a","system_id":"levelo_inurba_marseille","lat":43.29266,"lon":5.38427,"is_reserved":false,"is_disabled":false,"rental_uris":{"android":"levelo://app?vid=719ea074-3dc1-49c1-8c3a-c32679a86d9a","ios":"levelo://app?vid=719ea074-3dc1-49c1-8c3a-c32679a86d9a"},"vehicle_type_id":"4","last_reported":1745525490,"current_range_meters":19200,"station_id":"ce4bh692rcd13ifvqea0","pricing_plan_id":"cebpf4jnsgd1na2vs0mg"},{"bike_id":"36087cc8-cdc7-4902-ac74-80d7bbefcc0c","system_id":"levelo_inurba_marseille","lat":43.31328,"lon":5.39693,"is_reserved":false,"is_disabled":false,"rental_uris":{"android":"levelo://app?vid=36087cc8-cdc7-4902-ac74-80d7bbefcc0c","ios":"levelo://app?vid=36087cc8-cdc7-4902-ac74-80d7bbefcc0c"},"vehicle_type_id":"4","last_reported":1745525490,"current_range_meters":19600,"station_id":"ce4bgvp2rcd13ifvqcu0","pricing_plan_id":"cebpf4jnsgd1na2vs0mg"},{"bike_id":"b04b2867-fbf0-4049-a1be-5593b1ff340a","system_id":"levelo_inurba_marseille","lat":43.241302,"lon":5.376976,"is_reserved":false,"is_disabled":false,"rental_uris":{"android":"levelo://app?vid=b04b2867-fbf0-4049-a1be-5593b1ff340a","ios":"levelo://app?vid=b04b2867-fbf0-4049-a1be-5593b1ff340a"},"vehicle_type_id":"4","last_reported":1745525490,"current_range_meters":19600,"station_id":"ce4bhah2rcd13ifvqei0","pricing_plan_id":"cebpf4jnsgd1na2vs0mg"},{"bike_id":"1abc48dd-efaa-4ca6-9a7a-f6253d85fd51","system_id":"levelo_inurba_marseille","lat":43.30811,"lon":5.43545,"is_reserved":false,"is_disabled":false,"rental_uris":{"android":"levelo://app?vid=1abc48dd-efaa-4ca6-9a7a-f6253d85fd51","ios":"levelo://app?vid=1abc48dd-efaa-4ca6-9a7a-f6253d85fd51"},"vehicle_type_id":"4","last_reported":1745525490,"current_range_meters":19600,"station_id":"ce4bhph2rcd13ifvqheg","pricing_plan_id":"cebpf4jnsgd1na2vs0mg"},{"bike_id":"e9b40b8c-aa8b-493b-9704-ac204b4fdb74","system_id":"levelo_inurba_marseille","lat":43.22553,"lon":5.34828,"is_reserved":false,"is_disabled":false,"rental_uris":{"android":"levelo://app?vid=e9b40b8c-aa8b-493b-9704-ac204b4fdb74","ios":"levelo://app?vid=e9b40b8c-aa8b-493b-9704-ac204b4fdb74"},"vehicle_type_id":"4","last_reported":1745525490,"current_range_meters":19600,"station_id":"st_cvj5dfep6f1abm77gieg","pricing_plan_id":"cebpf4jnsgd1na2vs0mg"},{"bike_id":"529b103e-bd69-4ce5-a3c7-1d33d5318287","system_id":"levelo_inurba_marseille","lat":43.29609,"lon":5.38102,"is_reserved":false,"is_disabled":false,"rental_uris":{"android":"levelo://app?vid=529b103e-bd69-4ce5-a3c7-1d33d5318287","ios":"levelo://app?vid=529b103e-bd69-4ce5-a3c7-1d33d5318287"},"vehicle_type_id":"4","last_reported":1745525490,"current_range_meters":19600,"station_id":"ce4bgl12rcd13ifvqbo0","pricing_plan_id":"cebpf4jnsgd1na2vs0mg"},{"bike_id":"5f7eb0d5-85b4-4b7e-a61c-cac7a800c5ed","system_id":"levelo_inurba_marseille","lat":43.30879,"lon":5.39672,"is_reserved":false,"is_disabled":false,"rental_uris":{"android":"levelo://app?vid=5f7eb0d5-85b4-4b7e-a61c-cac7a800c5ed","ios":"levelo://app?vid=5f7eb0d5-85b4-4b7e-a61c-cac7a800c5ed"},"vehicle_type_id":"4","last_reported":1745525490,"current_range_meters":19600,"station_id":"ce4bh012rcd13ifvqcv0","pricing_plan_id":"cebpf4jnsgd1na2vs0mg"},{"bike_id":"a67d9646-0c6a-4394-9eb7-b5920abc6ef3","system_id":"levelo_inurba_marseille","lat":43.31496,"lon":5.37302,"is_reserved":false,"is_disabled":false,"rental_uris":{"android":"levelo://app?vid=a67d9646-0c6a-4394-9eb7-b5920abc6ef3","ios":"levelo://app?vid=a67d9646-0c6a-4394-9eb7-b5920abc6ef3"},"vehicle_type_id":"4","last_reported":1745525490,"current_range_meters":19600,"station_id":"ce4bgt12rcd13ifvqcd0","pricing_plan_id":"cebpf4jnsgd1na2vs0mg"},{"bike_id":"987d7900-bb2a-45cb-bed7-6d69f6fd4fa3","system_id":"levelo_inurba_marseille","lat":43.28478,"lon":5.38417,"is_reserved":false,"is_disabled":false,"rental_uris":{"android":"levelo://app?vid=987d7900-bb2a-45cb-bed7-6d69f6fd4fa3","ios":"levelo://app?vid=987d7900-bb2a-45cb-bed7-6d69f6fd4fa3"},"vehicle_type_id":"4","last_reported":1745525490,"current_range_meters":19600,"station_id":"ce4bh512rcd13ifvqe3g","pricing_plan_id":"cebpf4jnsgd1na2vs0mg"},{"bike_id":"e133d005-65ab-4097-8f97-7a541ab6bd0b","system_id":"levelo_inurba_marseille","lat":43.23964,"lon":5.36625,"is_reserved":false,"is_disabled":false,"rental_uris":{"android":"levelo://app?vid=e133d005-65ab-4097-8f97-7a541ab6bd0b","ios":"levelo://app?vid=e133d005-65ab-4097-8f97-7a541ab6bd0b"},"vehicle_type_id":"4","last_reported":1745525490,"current_range_meters":20000,"station_id":"ce4bhi12rcd13ifvqfp0","pricing_plan_id":"cebpf4jnsgd1na2vs0mg"},{"bike_id":"e997fcef-63b7-47bf-95ed-0f99bc9e4f34","system_id":"levelo_inurba_marseille","lat":43.30881,"lon":5.3963,"is_reserved":false,"is_disabled":false,"rental_uris":{"android":"levelo://app?vid=e997fcef-63b7-47bf-95ed-0f99bc9e4f34","ios":"levelo://app?vid=e997fcef-63b7-47bf-95ed-0f99bc9e4f34"},"vehicle_type_id":"4","last_reported":1745525490,"current_range_meters":20000,"station_id":"ce4bh012rcd13ifvqcv0","pricing_plan_id":"cebpf4jnsgd1na2vs0mg"},